{"last_updated":1702686902,"ttl":30,"version":"2.2","data":{"bikes":[{"bike_id":"0735ddfc-f653-46a2-97fa-61e1a677d3ef","system_id":"levelo_inurba_marseille","lat":43.312239,"lon":5.368562,"is_reserved":false,"is_disabled":false,"rental_uris":{"android":"levelo://app?vid=0735ddfc-f653-46a2-97fa-61e1a677d3ef","ios":"levelo://app?vid=0735ddfc-f653-46a2-97fa-61e1a677d3ef"},"vehicle_type_id":"4","last_reported":1702686903,"current_range_meters":27600,"station_id":"ce4bgl92rcd13ifvqbq0","pricing_plan_id":"free"},{"bike_id":"d33f367f-c488-4341-a51b-59fdf8e6519e","system_id":"levelo_inurba_marseille","lat":43.314811,"lon":5.373103,"is_reserved":false,"is_disabled":false,"rental_uris":{"android":"levelo://app?vid=d33f367f-c488-4341-a51b-59fdf8e6519e","ios":"levelo://app?vid=d33f367f-c488-4341-a51b-59fdf8e6519e"},"vehicle_type_id":"4","last_reported":1702686903,"current_range_meters":12400,"station_id":"ce4bgt12rcd13ifvqcd0","pricing_plan_id":"free"},{"bike_id":"b8692887-1e74-45d6-9aa6-544346364905","system_id":"levelo_inurba_marseille","lat":43.314811,"lon":5.373104,"is_reserved":false,"is_disabled":false,"rental_uris":{"android":"levelo://app?vid=b8692887-1e74-45d6-9aa6-544346364905","ios":"levelo://app?vid=b8692887-1e74-45d6-9aa6-544346364905"},"vehicle_type_id":"4","last_reported":1702686903,"current_range_meters":27200,"station_id":"ce4bgt12rcd13ifvqcd0","pricing_plan_id":"free"},{"bike_id":"2628431f-da41-45b9-bb5b-b864794506d1","system_id":"levelo_inurba_marseille","lat":43.31403,"lon":5.373603,"is_reserved":false,"is_disabled":false,"rental_uris":{"android":"levelo://app?vid=2628431f-da41-45b9-bb5b-b864794506d1","ios":"levelo://app?vid=2628431f-da41-45b9-bb5b-b864794506d1"},"vehicle_type_id":"4","last_reported":1702686903,"current_range_meters":4800,"station_id":"","pricing_plan_id":"free"},{"bike_id":"d99a039e-de98-46a1-9b68-389ab39cf57d","system_id":"levelo_inurba_marseille","lat":43.308825,"lon":5.371845,"is_reserved":false,"is_disabled":false,"rental_uris":{"android":"levelo://app?vid=d99a039e-de98-46a1-9b68-389ab39cf57d","ios":"levelo://app?vid=d99a039e-de98-46a1-9b68-389ab39cf57d"},"vehicle_type_id":"4","last_reported":1702686903,"current_range_meters":10400,"station_id":"ce4bguh2rcd13ifvqckg","pricing_plan_id":"free"},{"bike_id":"3f8b821f-e430-4a35-bf14-f8b6e777ea11","system_id":"levelo_inurba_marseille","lat":43.313939,"lon":5.375306,"is_reserved":false,"is_disabled":false,"rental_uris":{"android":"levelo://app?vid=3f8b821f-e430-4a35-bf14-f8b6e777ea11","ios":"levelo://app?vid=3f8b821f-e430-4a35-bf14-f8b6e777ea11"},"vehicle_type_id":"4","last_reported":1702686903,"current_range_meters":0,"station_id":"","pricing_plan_id":"free"},{"bike_id":"955e4ab2-16e5-44e8-a986-a2f50ff96c06","system_id":"levelo_inurba_marseille","lat":43.305382,"lon":5.365389,"is_reserved":false,"is_disabled":false,"rental_uris":{"android":"levelo://app?vid=955e4ab2-16e5-44e8-a986-a2f50ff96c06","ios":"levelo://app?vid=955e4ab2-16e5-44e8-a986-a2f50ff96c06"},"vehicle_type_id":"4","last_reported":1702686903,"current_range_meters":17600,"station_id":"","pricing_plan_id":"free"},{"bike_id":"853009c0-e01a-439c-b3e9-4c7d620628f6","system_id":"levelo_inurba_marseille","lat":43.305989,"lon":5.37225,"is_reserved":false,"is_disabled":false,"rental_uris":{"android":"levelo://app?vid=853009c0-e01a-439c-b3e9-4c7d620628f6","ios":"levelo://app?vid=853009c0-e01a-439c-b3e9-4c7d620628f6"},"vehicle_type_id":"4","last_reported":1702686903,"current_range_meters":31200,"station_id":"ce4bgqh2rcd13ifvqc4g","pricing_plan_id":"free"},{"bike_id":"837cce29-f638-42aa-8503-031e76532bb1","system_id":"levelo_inurba_marseille","lat":43.305989,"lon":5.37225,"is_reserved":false,"is_disabled":false,"rental_uris":{"android":"levelo://app?vid=837cce29-f638-42aa-8503-031e76532bb1","ios":"levelo://app?vid=837cce29-f638-42aa-8503-031e76532bb1"},"vehicle_type_id":"4","last_reported":1702686903,"current_range_meters":17200,"station_id":"ce4bgqh2rcd13ifvqc4g","pricing_plan_id":"free"},{"bike_id":"37480a4d-1ce9-421b-8587-12d2f7ed17e2","system_id":"levelo_inurba_marseille","lat":43.305989,"lon":5.37225,"is_reserved":false,"is_disabled":false,"rental_uris":{"android":"levelo://app?vid=37480a4d-1ce9-421b-8587-12d2f7ed17e2","ios":"levelo://app?vid=37480a4d-1ce9-421b-8587-12d2f7ed17e2"},"vehicle_type_id":"4","last_reported":1702686903,"current_range_meters":29200,"station_id":"ce4bgqh2rcd13ifvqc4g","pricing_plan_id":"free"},{"bike_id":"6d5978a3-d8d4-43e4-90ce-8700c69c9d75","system_id":"levelo_inurba_marseille","lat":43.305989,"lon":5.37225,"is_reserved":false,"is_disabled":false,"rental_uris":{"android":"levelo://app?vid=6d5978a3-d8d4-43e4-90ce-8700c69c9d75","ios":"levelo://app?vid=6d5978a3-d8d4-43e4-90ce-8700c69c9d75"},"vehicle_type_id":"4","last_reported":1702686903,"current_range_meters":4400,"station_id":"ce4bgqh2rcd13ifvqc4g","pricing_plan_id":"free"},{"bike_id":"70373822-68c9-4548-93ac-272c632d0898","system_id":"levelo_inurba_marseille","lat":43.31116,"lon":5.37758,"is_reserved":false,"is_disabled":false,"rental_uris":{"android":"levelo://app?vid=70373822-68c9-4548-93ac-272c632d0898","ios":"levelo://app?vid=70373822-68c9-4548-93ac-272c632d0898"},"vehicle_type_id":"4","last_reported":1702686903,"current_range_meters":23200,"station_id":"ce4bgt92rcd13ifvqcg0","pricing_plan_id":"free"},{"bike_id":"da1adf6b-e342-42cc-a38f-572258e7207f","system_id":"levelo_inurba_marseille","lat":43.31119,"lon":5.37761,"is_reserved":false,"is_disabled":false,"rental_uris":{"android":"levelo://app?vid=da1adf6b-e342-42cc-a38f-572258e7207f","ios":"levelo://app?vid=da1adf6b-e342-42cc-a38f-572258e7207f"},"vehicle_type_id":"4","last_reported":1702686903,"current_range_meters":22000,"station_id":"ce4bgt92rcd13ifvqcg0","pricing_plan_id":"free"},{"bike_id":"55746148-b9d5-4600-9a9f-b9791f79e6e7","system_id":"levelo_inurba_marseille","lat":43.311131,"lon":5.377651,"is_reserved":false,"is_disabled":false,"rental_uris":{"android":"levelo://app?vid=55746148-b9d5-4600-9a9f-b9791f79e6e7","ios":"levelo://app?vid=55746148-b9d5-4600-9a9f-b9791f79e6e7"},"vehicle_type_id":"4","last_reported":1702686903,"current_range_meters":16400,"station_id":"ce4bgt92rcd13ifvqcg0","pricing_plan_id":"free"},{"bike_id":"688d589f-e7b3-4777-8e07-6fd8148f2d76","system_id":"levelo_inurba_marseille","lat":43.31125,"lon":5.37769,"is_reserved":false,"is_disabled":false,"rental_uris":{"android":"levelo://app?vid=688d589f-e7b3-4777-8e07-6fd8148f2d76","ios":"levelo://app?vid=688d589f-e7b3-4777-8e07-6fd8148f2d76"},"vehicle_type_id":"4","last_reported":1702686903,"current_range_meters":0,"station_id":"ce4bgt92rcd13ifvqcg0","pricing_plan_id":"free"},{"bike_id":"e172c963-750d-4c43-8d62-81cc7d1a450b","system_id":"levelo_inurba_marseille","lat":43.3112,"lon":5.377715,"is_reserved":false,"is_disabled":false,"rental_uris":{"android":"levelo://app?vid=e172c963-750d-4c43-8d62-81cc7d1a450b","ios":"levelo://app?vid=e172c963-750d-4c43-8d62-81cc7d1a450b"},"vehicle_type_id":"4","last_reported":1702686903,"current_range_meters":30400,"station_id":"ce4bgt92rcd13ifvqcg0","pricing_plan_id":"free"},{"bike_id":"1cac14e1-4099-455b-ab55-73d699c3e506","system_id":"levelo_inurba_marseille","lat":43.30788,"lon":5.37643,"is_reserved":false,"is_disabled":false,"rental_uris":{"android":"levelo://app?vid=1cac14e1-4099-455b-ab55-73d699c3e506","ios":"levelo://app?vid=1cac14e1-4099-455b-ab55-73d699c3e506"},"vehicle_type_id":"4","last_reported":1702686903,"current_range_meters":20800,"station_id":"ce4bgv92rcd13ifvqcq0","pricing_plan_id":"free"},{"bike_id":"06a2b8ec-4516-47cb-8f32-5a7996493b2d","system_id":"levelo_inurba_marseille","lat":43.317075,"lon":5.377367,"is_reserved":false,"is_disabled":false,"rental_uris":{"android":"levelo://app?vid=06a2b8ec-4516-47cb-8f32-5a7996493b2d","ios":"levelo://app?vid=06a2b8ec-4516-47cb-8f32-5a7996493b2d"},"vehicle_type_id":"4","last_reported":1702686903,"current_range_meters":25200,"station_id":"ce4bgth2rcd13ifvqch0","pricing_plan_id":"free"},{"bike_id":"112889bc-8d0f-431d-9767-314715ea602b","system_id":"levelo_inurba_marseille","lat":43.315622,"lon":5.380124,"is_reserved":false,"is_disabled":false,"rental_uris":{"android":"levelo://app?vid=112889bc-8d0f-431d-9767-314715ea602b","ios":"levelo://app?vid=112889bc-8d0f-431d-9767-314715ea602b"},"vehicle_type_id":"4","last_reported":1702686903,"current_range_meters":18400,"station_id":"ce4bhsp2rcd13ifvqi50","pricing_plan_id":"free"},{"bike_id":"268d7a8f-ffed-4eee-ad75-969cf62031fb","system_id":"levelo_inurba_marseille","lat":43.315337,"lon":5.380296,"is_reserved":false,"is_disabled":false,"rental_uris":{"android":"levelo://app?vid=268d7a8f-ffed-4eee-ad75-969cf62031fb","ios":"levelo://app?vid=268d7a8f-ffed-4eee-ad75-969cf62031fb"},"vehicle_type_id":"4","last_reported":1702686903,"current_range_meters":4000,"station_id":"ce4bhsp2rcd13ifvqi50","pricing_plan_id":"free"},{"bike_id":"33858e5b-f48b-40ee-88f1-169fb62afdc9","system_id":"levelo_inurba_marseille","lat":43.31544,"lon":5.38027,"is_reserved":false,"is_disabled":false,"rental_uris":{"android":"levelo://app?vid=33858e5b-f48b-40ee-88f1-169fb62afdc9","ios":"levelo://app?vid=33858e5b-f48b-40ee-88f1-169fb62afdc9"},"vehicle_type_id":"4","last_reported":1702686903,"current_range_meters":22000,"station_id":"ce4bhsp2rcd13ifvqi50","pricing_plan_id":"free"},{"bike_id":"f3126aa3-cb0c-40d8-8570-c6853df5adad","system_id":"levelo_inurba_marseille","lat":43.301939,"lon":5.366286,"is_reserved":false,"is_disabled":false,"rental_uris":{"android":"levelo://app?vid=f3126aa3-cb0c-40d8-8570-c6853df5adad","ios":"levelo://app?vid=f3126aa3-cb0c-40d8-8570-c6853df5adad"},"vehicle_type_id":"4","last_reported":1702686903,"current_range_meters":6800,"station_id":"ce4bgrh2rcd13ifvqc8g","pricing_plan_id":"free"},{"bike_id":"dc017ca1-04dc-431a-94ff-9ca77f184d8e","system_id":"levelo_inurba_marseille","lat":43.308012,"lon":5.381511,"is_reserved":false,"is_disabled":false,"rental_uris":{"android":"levelo://app?vid=dc017ca1-04dc-431a-94ff-9ca77f184d8e","ios":"levelo://app?vid=dc017ca1-04dc-431a-94ff-9ca77f184d8e"},"vehicle_type_id":"4","last_reported":1702686903,"current_range_meters":21200,"station_id":"ce4bgt12rcd13ifvqce0","pricing_plan_id":"free"},{"bike_id":"95de7766-48c5-417b-80dc-b8eb13e13997","system_id":"levelo_inurba_marseille","lat":43.308012,"lon":5.381511,"is_reserved":false,"is_disabled":false,"rental_uris":{"android":"levelo://app?vid=95de7766-48c5-417b-80dc-b8eb13e13997","ios":"levelo://app?vid=95de7766-48c5-417b-80dc-b8eb13e13997"},"vehicle_type_id":"4","last_reported":1702686903,"current_range_meters":27200,"station_id":"ce4bgt12rcd13ifvqce0","pricing_plan_id":"free"},{"bike_id":"46723955-0942-4f85-9119-094133ef112a","system_id":"levelo_inurba_marseille","lat":43.308012,"lon":5.381511,"is_reserved":false,"is_disabled":false,"rental_uris":{"android":"levelo://app?vid=46723955-0942-4f85-9119-094133ef112a","ios":"levelo://app?vid=46723955-0942-4f85-9119-094133ef112a"},"vehicle_type_id":"4","last_reported":1702686903,"current_range_meters":24400,"station_id":"ce4bgt12rcd13ifvqce0","pricing_plan_id":"free"},{"bike_id":"88f7ea2a-62f7-4a88-9e9d-900940b4d7e5","system_id":"levelo_inurba_marseille","lat":43.324771,"lon":5.36557,"is_reserved":false,"is_disabled":false,"rental_uris":{"android":"levelo://app?vid=88f7ea2a-62f7-4a88-9e9d-900940b4d7e5","ios":"levelo://app?vid=88f7ea2a-62f7-4a88-9e9d-900940b4d7e5"},"vehicle_type_id":"4","last_reported":1702686903,"current_range_meters":18800,"station_id":"ce4bhs12rcd13ifvqhvg","pricing_plan_id":"free"},{"bike_id":"f1cde3ff-6cd4-4e86-99bc-06e7a73fc0a0","system_id":"levelo_inurba_marseille","lat":43.32479,"lon":5.365575,"is_reserved":false,"is_disabled":false,"rental_uris":{"android":"levelo://app?vid=f1cde3ff-6cd4-4e86-99bc-06e7a73fc0a0","ios":"levelo://app?vid=f1cde3ff-6cd4-4e86-99bc-06e7a73fc0a0"},"vehicle_type_id":"4","last_reported":1702686903,"current_range_meters":19600,"station_id":"ce4bhs12rcd13ifvqhvg","pricing_plan_id":"free"},{"bike_id":"dfe62985-6f65-471f-8bdb-4e96693a7937","system_id":"levelo_inurba_marseille","lat":43.324771,"lon":5.36557,"is_reserved":false,"is_disabled":false,"rental_uris":{"android":"levelo://app?vid=dfe62985-6f65-471f-8bdb-4e96693a7937","ios":"levelo://app?vid=dfe62985-6f65-471f-8bdb-4e96693a7937"},"vehicle_type_id":"4","last_reported":1702686903,"current_range_meters":20400,"station_id":"ce4bhs12rcd13ifvqhvg","pricing_plan_id":"free"},{"bike_id":"5e39cacd-4f47-46aa-b469-20ce9e1ba57c","system_id":"levelo_inurba_marseille","lat":43.324771,"lon":5.36557,"is_reserved":false,"is_disabled":false,"rental_uris":{"android":"levelo://app?vid=5e39cacd-4f47-46aa-b469-20ce9e1ba57c","ios":"levelo://app?vid=5e39cacd-4f47-46aa-b469-20ce9e1ba57c"},"vehicle_type_id":"4","last_reported":1702686903,"current_range_meters":4000,"station_id":"ce4bhs12rcd13ifvqhvg","pricing_plan_id":"free"},{"bike_id":"0489678c-92e8-4d93-be4e-5d62e316fee5","system_id":"levelo_inurba_marseille","lat":43.313571,"lon":5.384829,"is_reserved":false,"is_disabled":false,"rental_uris":{"android":"levelo://app?vid=0489678c-92e8-4d93-be4e-5d62e316fee5","ios":"levelo://app?vid=0489678c-92e8-4d93-be4e-5d62e316fee5"},"vehicle_type_id":"4","last_reported":1702686903,"current_range_meters":8400,"station_id":"ce4bgt92rcd13ifvqcf0","pricing_plan_id":"free"},{"bike_id":"d8805a15-0176-43d0-874f-954d8a729e99","system_id":"levelo_inurba_marseille","lat":43.313571,"lon":5.384829,"is_reserved":false,"is_disabled":false,"rental_uris":{"android":"levelo://app?vid=d8805a15-0176-43d0-874f-954d8a729e99","ios":"levelo://app?vid=d8805a15-0176-43d0-874f-954d8a729e99"},"vehicle_type_id":"4","last_reported":1702686903,"current_range_meters":25600,"station_id":"ce4bgt92rcd13ifvqcf0","pricing_plan_id":"free"},{"bike_id":"3a981fd6-72c7-4d26-be2f-f18e5e8dc7e2","system_id":"levelo_inurba_marseille","lat":43.313571,"lon":5.384829,"is_reserved":false,"is_disabled":false,"rental_uris":{"android":"levelo://app?vid=3a981fd6-72c7-4d26-be2f-f18e5e8dc7e2","ios":"levelo://app?vid=3a981fd6-72c7-4d26-be2f-f18e5e8dc7e2"},"vehicle_type_id":"4","last_reported":1702686903,"current_range_meters":22400,"station_id":"ce4bgt92rcd13ifvqcf0","pricing_plan_id":"free"},{"bike_id":"2716ecf2-2796-49fc-8310-074102d61e52","system_id":"levelo_inurba_marseille","lat":43.313571,"lon":5.384829,"is_reserved":false,"is_disabled":false,"rental_uris":{"android":"levelo://app?vid=2716ecf2-2796-49fc-8310-074102d61e52","ios":"levelo://app?vid=2716ecf2-2796-49fc-8310-074102d61e52"},"vehicle_type_id":"4","last_reported":1702686903,"current_range_meters":24800,"station_id":"ce4bgt92rcd13ifvqcf0","pricing_plan_id":"free"},{"bike_id":"a34d6199-7f4b-48ff-b87b-b49cf1ee7042","system_id":"levelo_inurba_marseille","lat":43.313571,"lon":5.384829,"is_reserved":false,"is_disabled":false,"rental_uris":{"android":"levelo://app?vid=a34d6199-7f4b-48ff-b87b-b49cf1ee7042","ios":"levelo://app?vid=a34d6199-7f4b-48ff-b87b-b49cf1ee7042"},"vehicle_type_id":"4","last_reported":1702686903,"current_range_meters":27600,"station_id":"ce4bgt92rcd13ifvqcf0","pricing_plan_id":"free"},{"bike_id":"d21d70b6-41c3-417f-bdfb-18e4d3f946c5","system_id":"levelo_inurba_marseille","lat":43.299724,"lon":5.371829,"is_reserved":false,"is_disabled":false,"rental_uris":{"android":"levelo://app?vid=d21d70b6-41c3-417f-bdfb-18e4d3f946c5","ios":"levelo://app?vid=d21d70b6-41c3-417f-bdfb-18e4d3f946c5"},"vehicle_type_id":"4","last_reported":1702686903,"current_range_meters":12000,"station_id":"ce4bgr92rcd13ifvqc7g","pricing_plan_id":"free"},{"bike_id":"4cfeee5c-a63d-4ec0-b4ff-b5cc74f4f508","system_id":"levelo_inurba_marseille","lat":43.313025,"lon":5.386201,"is_reserved":false,"is_disabled":false,"rental_uris":{"android":"levelo://app?vid=4cfeee5c-a63d-4ec0-b4ff-b5cc74f4f508","ios":"levelo://app?vid=4cfeee5c-a63d-4ec0-b4ff-b5cc74f4f508"},"vehicle_type_id":"4","last_reported":1702686903,"current_range_meters":0,"station_id":"","pricing_plan_id":"free"},{"bike_id":"c4e77394-aef9-4077-b745-e99148625344","system_id":"levelo_inurba_marseille","lat":43.32733,"lon":5.36707,"is_reserved":false,"is_disabled":false,"rental_uris":{"android":"levelo://app?vid=c4e77394-aef9-4077-b745-e99148625344","ios":"levelo://app?vid=c4e77394-aef9-4077-b745-e99148625344"},"vehicle_type_id":"4","last_reported":1702686903,"current_range_meters":24800,"station_id":"","pricing_plan_id":"free"},{"bike_id":"819cb438-2e9c-4e0b-902b-5e19ef554d5c","system_id":"levelo_inurba_marseille","lat":43.305512,"lon":5.384362,"is_reserved":false,"is_disabled":false,"rental_uris":{"android":"levelo://app?vid=819cb438-2e9c-4e0b-902b-5e19ef554d5c","ios":"levelo://app?vid=819cb438-2e9c-4e0b-902b-5e19ef554d5c"},"vehicle_type_id":"4","last_reported":1702686903,"current_range_meters":19200,"station_id":"","pricing_plan_id":"free"},{"bike_id":"35a1095f-874d-40fe-a29e-d807e53344c9","system_id":"levelo_inurba_marseille","lat":43.311722,"lon":5.387247,"is_reserved":false,"is_disabled":false,"rental_uris":{"android":"levelo://app?vid=35a1095f-874d-40fe-a29e-d807e53344c9","ios":"levelo://app?vid=35a1095f-874d-40fe-a29e-d807e53344c9"},"vehicle_type_id":"4","last_reported":1702686903,"current_range_meters":5600,"station_id":"ce4bgv12rcd13ifvqcp0","pricing_plan_id":"free"},{"bike_id":"d33f003d-219e-470d-8fe6-365354e46c38","system_id":"levelo_inurba_marseille","lat":43.299243,"lon":5.374807,"is_reserved":false,"is_disabled":false,"rental_uris":{"android":"levelo://app?vid=d33f003d-219e-470d-8fe6-365354e46c38","ios":"levelo://app?vid=d33f003d-219e-470d-8fe6-365354e46c38"},"vehicle_type_id":"4","last_reported":1702686903,"current_range_meters":30000,"station_id":"ce4bgjh2rcd13ifvqbg0","pricing_plan_id":"free"},{"bike_id":"d8c9f3a1-98e5-4fe6-9e3b-afc1f1f2de39","system_id":"levelo_inurba_marseille","lat":43.311722,"lon":5.387247,"is_reserved":false,"is_disabled":false,"rental_uris":{"android":"levelo://app?vid=d8c9f3a1-98e5-4fe6-9e3b-afc1f1f2de39","ios":"levelo://app?vid=d8c9f3a1-98e5-4fe6-9e3b-afc1f1f2de39"},"vehicle_type_id":"4","last_reported":1702686903,"current_range_meters":20800,"station_id":"ce4bgv12rcd13ifvqcp0","pricing_plan_id":"free"},{"bike_id":"cb559df9-b405-48a1-9eb4-7367463ff55c","system_id":"levelo_inurba_marseille","lat":43.32299,"lon":5.3828,"is_reserved":false,"is_disabled":false,"rental_uris":{"android":"levelo://app?vid=cb559df9-b405-48a1-9eb4-7367463ff55c","ios":"levelo://app?vid=cb559df9-b405-48a1-9eb4-7367463ff55c"},"vehicle_type_id":"4","last_reported":1702686903,"current_range_meters":5200,"station_id":"ce4bhr12rcd13ifvqhqg","pricing_plan_id":"free"},{"bike_id":"8c26567a-0ba8-40a7-8851-45941a794487","system_id":"levelo_inurba_marseille","lat":43.309589,"lon":5.390258,"is_reserved":false,"is_disabled":false,"rental_uris":{"android":"levelo://app?vid=8c26567a-0ba8-40a7-8851-45941a794487","ios":"levelo://app?vid=8c26567a-0ba8-40a7-8851-45941a794487"},"vehicle_type_id":"4","last_reported":1702686903,"current_range_meters":26800,"station_id":"ce4bgup2rcd13ifvqco0","pricing_plan_id":"free"},{"bike_id":"94946d4a-8498-4406-866e-a85ada984d02","system_id":"levelo_inurba_marseille","lat":43.299028,"lon":5.381509,"is_reserved":false,"is_disabled":false,"rental_uris":{"android":"levelo://app?vid=94946d4a-8498-4406-866e-a85ada984d02","ios":"levelo://app?vid=94946d4a-8498-4406-866e-a85ada984d02"},"vehicle_type_id":"4","last_reported":1702686903,"current_range_meters":28800,"station_id":"ce4bgj12rcd13ifvqbc0","pricing_plan_id":"free"},{"bike_id":"80e5784d-7356-4d5c-89c1-ca63d1a382e9","system_id":"levelo_inurba_marseille","lat":43.296935,"lon":5.376544,"is_reserved":false,"is_disabled":false,"rental_uris":{"android":"levelo://app?vid=80e5784d-7356-4d5c-89c1-ca63d1a382e9","ios":"levelo://app?vid=80e5784d-7356-4d5c-89c1-ca63d1a382e9"},"vehicle_type_id":"4","last_reported":1702686903,"current_range_meters":26000,"station_id":"ce4bgkh2rcd13ifvqbl0","pricing_plan_id":"free"},{"bike_id":"f4b659a5-b1f1-45e4-850a-1158ebd1888e","system_id":"levelo_inurba_marseille","lat":43.309589,"lon":5.390258,"is_reserved":false,"is_disabled":false,"rental_uris":{"android":"levelo://app?vid=f4b659a5-b1f1-45e4-850a-1158ebd1888e","ios":"levelo://app?vid=f4b659a5-b1f1-45e4-850a-1158ebd1888e"},"vehicle_type_id":"4","last_reported":1702686903,"current_range_meters":12000,"station_id":"ce4bgup2rcd13ifvqco0","pricing_plan_id":"free"},{"bike_id":"3f3b3acc-78f8-492d-a4f5-8b3e763bf658","system_id":"levelo_inurba_marseille","lat":43.30175,"lon":5.38609,"is_reserved":false,"is_disabled":false,"rental_uris":{"android":"levelo://app?vid=3f3b3acc-78f8-492d-a4f5-8b3e763bf658","ios":"levelo://app?vid=3f3b3acc-78f8-492d-a4f5-8b3e763bf658"},"vehicle_type_id":"4","last_reported":1702686903,"current_range_meters":0,"station_id":"","pricing_plan_id":"free"},{"bike_id":"79ce26c4-8073-4dbf-96d2-9ce3bbe852c7","system_id":"levelo_inurba_marseille","lat":43.2979,"lon":5.38088,"is_reserved":false,"is_disabled":false,"rental_uris":{"android":"levelo://app?vid=79ce26c4-8073-4dbf-96d2-9ce3bbe852c7","ios":"levelo://app?vid=79ce26c4-8073-4dbf-96d2-9ce3bbe852c7"},"vehicle_type_id":"4","last_reported":1702686903,"current_range_meters":16800,"station_id":"ce4bgip2rcd13ifvqbb0","pricing_plan_id":"free"},{"bike_id":"4d678544-1310-49ca-ab01-181c21334b7c","system_id":"levelo_inurba_marseille","lat":43.304274,"lon":5.388873,"is_reserved":false,"is_disabled":false,"rental_uris":{"android":"levelo://app?vid=4d678544-1310-49ca-ab01-181c21334b7c","ios":"levelo://app?vid=4d678544-1310-49ca-ab01-181c21334b7c"},"vehicle_type_id":"4","last_reported":1702686903,"current_range_meters":6000,"station_id":"ce4bgk12rcd13ifvqbi0","pricing_plan_id":"free"},{"bike_id":"960d88e8-1770-4cfc-9d33-daa5da4e5465","system_id":"levelo_inurba_marseille","lat":43.29785,"lon":5.38095,"is_reserved":false,"is_disabled":false,"rental_uris":{"android":"levelo://app?vid=960d88e8-1770-4cfc-9d33-daa5da4e5465","ios":"levelo://app?vid=960d88e8-1770-4cfc-9d33-daa5da4e5465"},"vehicle_type_id":"4","last_reported":1702686903,"current_range_meters":21200,"station_id":"","pricing_plan_id":"free"},{"bike_id":"dc4ac81a-8211-472c-8f2e-db9a96f655bf","system_id":"levelo_inurba_marseille","lat":43.29776,"lon":5.38118,"is_reserved":false,"is_disabled":false,"rental_uris":{"android":"levelo://app?vid=dc4ac81a-8211-472c-8f2e-db9a96f655bf","ios":"levelo://app?vid=dc4ac81a-8211-472c-8f2e-db9a96f655bf"},"vehicle_type_id":"4","last_reported":1702686903,"current_range_meters":0,"station_id":"","pricing_plan_id":"free"},{"bike_id":"23483833-7647-4091-91ac-ede8de7eab3c","system_id":"levelo_inurba_marseille","lat":43.32366,"lon":5.38879,"is_reserved":false,"is_disabled":false,"rental_uris":{"android":"levelo://app?vid=23483833-7647-4091-91ac-ede8de7eab3c","ios":"levelo://app?vid=23483833-7647-4091-91ac-ede8de7eab3c"},"vehicle_type_id":"4","last_reported":1702686903,"current_range_meters":14400,"station_id":"ce4bhqp2rcd13ifvqhog","pricing_plan_id":"free"},{"bike_id":"26ac1d0c-ab3e-4036-9cf6-3ea48a4997f7","system_id":"levelo_inurba_marseille","lat":43.2932,"lon":5.37167,"is_reserved":false,"is_disabled":false,"rental_uris":{"android":"levelo://app?vid=26ac1d0c-ab3e-4036-9cf6-3ea48a4997f7","ios":"levelo://app?vid=26ac1d0c-ab3e-4036-9cf6-3ea48a4997f7"},"vehicle_type_id":"4","last_reported":1702686903,"current_range_meters":23600,"station_id":"ce4bgh92rcd13ifvqb40","pricing_plan_id":"free"},{"bike_id":"e82af1aa-30ef-468a-a41d-810fe7e6f5e7","system_id":"levelo_inurba_marseille","lat":43.292749,"lon":5.368402,"is_reserved":false,"is_disabled":false,"rental_uris":{"android":"levelo://app?vid=e82af1aa-30ef-468a-a41d-810fe7e6f5e7","ios":"levelo://app?vid=e82af1aa-30ef-468a-a41d-810fe7e6f5e7"},"vehicle_type_id":"4","last_reported":1702686903,"current_range_meters":18800,"station_id":"ce4bhbp2rcd13ifvqesg","pricing_plan_id":"free"},{"bike_id":"6d5d025b-adc5-41c9-aebb-515fbb6756ac","system_id":"levelo_inurba_marseille","lat":43.305994,"lon":5.393687,"is_reserved":false,"is_disabled":false,"rental_uris":{"android":"levelo://app?vid=6d5d025b-adc5-41c9-aebb-515fbb6756ac","ios":"levelo://app?vid=6d5d025b-adc5-41c9-aebb-515fbb6756ac"},"vehicle_type_id":"4","last_reported":1702686903,"current_range_meters":14000,"station_id":"ce4bh0p2rcd13ifvqd80","pricing_plan_id":"free"},{"bike_id":"ee996bcc-f556-4043-8f7e-8f05c2622a73","system_id":"levelo_inurba_marseille","lat":43.30085,"lon":5.390856,"is_reserved":false,"is_disabled":false,"rental_uris":{"android":"levelo://app?vid=ee996bcc-f556-4043-8f7e-8f05c2622a73","ios":"levelo://app?vid=ee996bcc-f556-4043-8f7e-8f05c2622a73"},"vehicle_type_id":"4","last_reported":1702686903,"current_range_meters":800,"station_id":"ce4bh192rcd13ifvqdb0","pricing_plan_id":"free"},{"bike_id":"0ff0a592-91d9-4e06-ac9b-f44254e1200f","system_id":"levelo_inurba_marseille","lat":43.30085,"lon":5.390856,"is_reserved":false,"is_disabled":false,"rental_uris":{"android":"levelo://app?vid=0ff0a592-91d9-4e06-ac9b-f44254e1200f","ios":"levelo://app?vid=0ff0a592-91d9-4e06-ac9b-f44254e1200f"},"vehicle_type_id":"4","last_reported":1702686903,"current_range_meters":9600,"station_id":"ce4bh192rcd13ifvqdb0","pricing_plan_id":"free"},{"bike_id":"c7c64df7-72a2-4ac8-80cb-bb2f513418ae","system_id":"levelo_inurba_marseille","lat":43.291994,"lon":5.357886,"is_reserved":false,"is_disabled":false,"rental_uris":{"android":"levelo://app?vid=c7c64df7-72a2-4ac8-80cb-bb2f513418ae","ios":"levelo://app?vid=c7c64df7-72a2-4ac8-80cb-bb2f513418ae"},"vehicle_type_id":"4","last_reported":1702686903,"current_range_meters":11600,"station_id":"ce4bhb12rcd13ifvqel0","pricing_plan_id":"free"},{"bike_id":"47ffa475-e02f-4947-b8ae-328e913236af","system_id":"levelo_inurba_marseille","lat":43.29195,"lon":5.35804,"is_reserved":false,"is_disabled":false,"rental_uris":{"android":"levelo://app?vid=47ffa475-e02f-4947-b8ae-328e913236af","ios":"levelo://app?vid=47ffa475-e02f-4947-b8ae-328e913236af"},"vehicle_type_id":"4","last_reported":1702686903,"current_range_meters":26400,"station_id":"ce4bhb12rcd13ifvqel0","pricing_plan_id":"free"},{"bike_id":"54edd6c6-18d6-4ab4-a90d-63fa7d286eb8","system_id":"levelo_inurba_marseille","lat":43.313291,"lon":5.396838,"is_reserved":false,"is_disabled":false,"rental_uris":{"android":"levelo://app?vid=54edd6c6-18d6-4ab4-a90d-63fa7d286eb8","ios":"levelo://app?vid=54edd6c6-18d6-4ab4-a90d-63fa7d286eb8"},"vehicle_type_id":"4","last_reported":1702686903,"current_range_meters":19600,"station_id":"ce4bgvp2rcd13ifvqcu0","pricing_plan_id":"free"},{"bike_id":"13fbc514-e701-4d27-9689-deadb82d14f9","system_id":"levelo_inurba_marseille","lat":43.313291,"lon":5.396838,"is_reserved":false,"is_disabled":false,"rental_uris":{"android":"levelo://app?vid=13fbc514-e701-4d27-9689-deadb82d14f9","ios":"levelo://app?vid=13fbc514-e701-4d27-9689-deadb82d14f9"},"vehicle_type_id":"4","last_reported":1702686903,"current_range_meters":30400,"station_id":"ce4bgvp2rcd13ifvqcu0","pricing_plan_id":"free"},{"bike_id":"19be8206-8276-4789-9069-e9e6632d2bb2","system_id":"levelo_inurba_marseille","lat":43.313291,"lon":5.396838,"is_reserved":false,"is_disabled":false,"rental_uris":{"android":"levelo://app?vid=19be8206-8276-4789-9069-e9e6632d2bb2","ios":"levelo://app?vid=19be8206-8276-4789-9069-e9e6632d2bb2"},"vehicle_type_id":"4","last_reported":1702686903,"current_range_meters":0,"station_id":"ce4bgvp2rcd13ifvqcu0","pricing_plan_id":"free"},{"bike_id":"487691ae-5cc2-42cf-bc80-2404297a81a8","system_id":"levelo_inurba_marseille","lat":43.309047,"lon":5.396551,"is_reserved":false,"is_disabled":false,"rental_uris":{"android":"levelo://app?vid=487691ae-5cc2-42cf-bc80-2404297a81a8","ios":"levelo://app?vid=487691ae-5cc2-42cf-bc80-2404297a81a8"},"vehicle_type_id":"4","last_reported":1702686903,"current_range_meters":12000,"station_id":"ce4bh012rcd13ifvqcv0","pricing_plan_id":"free"},{"bike_id":"d6589bf1-53ac-4632-9df9-93fa3c4e523a","system_id":"levelo_inurba_marseille","lat":43.313291,"lon":5.396838,"is_reserved":false,"is_disabled":false,"rental_uris":{"android":"levelo://app?vid=d6589bf1-53ac-4632-9df9-93fa3c4e523a","ios":"levelo://app?vid=d6589bf1-53ac-4632-9df9-93fa3c4e523a"},"vehicle_type_id":"4","last_reported":1702686903,"current_range_meters":30000,"station_id":"ce4bgvp2rcd13ifvqcu0","pricing_plan_id":"free"},{"bike_id":"60187a11-0163-442c-809b-00ec0cffbb70","system_id":"levelo_inurba_marseille","lat":43.313291,"lon":5.396838,"is_reserved":false,"is_disabled":false,"rental_uris":{"android":"levelo://app?vid=60187a11-0163-442c-809b-00ec0cffbb70","ios":"levelo://app?vid=60187a11-0163-442c-809b-00ec0cffbb70"},"vehicle_type_id":"4","last_reported":1702686903,"current_range_meters":24800,"station_id":"ce4bgvp2rcd13ifvqcu0","pricing_plan_id":"free"},{"bike_id":"5d8f4c0a-1894-4784-9947-4c7cec0be9bc","system_id":"levelo_inurba_marseille","lat":43.313291,"lon":5.396838,"is_reserved":false,"is_disabled":false,"rental_uris":{"android":"levelo://app?vid=5d8f4c0a-1894-4784-9947-4c7cec0be9bc","ios":"levelo://app?vid=5d8f4c0a-1894-4784-9947-4c7cec0be9bc"},"vehicle_type_id":"4","last_reported":1702686903,"current_range_meters":28400,"station_id":"ce4bgvp2rcd13ifvqcu0","pricing_plan_id":"free"},{"bike_id":"20f0f84b-0d27-4446-b15b-2f78ac82e964","system_id":"levelo_inurba_marseille","lat":43.309038,"lon":5.396546,"is_reserved":false,"is_disabled":false,"rental_uris":{"android":"levelo://app?vid=20f0f84b-0d27-4446-b15b-2f78ac82e964","ios":"levelo://app?vid=20f0f84b-0d27-4446-b15b-2f78ac82e964"},"vehicle_type_id":"4","last_reported":1702686903,"current_range_meters":10000,"station_id":"ce4bh012rcd13ifvqcv0","pricing_plan_id":"free"},{"bike_id":"01fde0b0-c1f0-4f59-af26-8288eec52bb2","system_id":"levelo_inurba_marseille","lat":43.313291,"lon":5.396838,"is_reserved":false,"is_disabled":false,"rental_uris":{"android":"levelo://app?vid=01fde0b0-c1f0-4f59-af26-8288eec52bb2","ios":"levelo://app?vid=01fde0b0-c1f0-4f59-af26-8288eec52bb2"},"vehicle_type_id":"4","last_reported":1702686903,"current_range_meters":16800,"station_id":"ce4bgvp2rcd13ifvqcu0","pricing_plan_id":"free"},{"bike_id":"d195ec21-de91-44fd-a501-11abffbab2cc","system_id":"levelo_inurba_marseille","lat":43.309038,"lon":5.396546,"is_reserved":false,"is_disabled":false,"rental_uris":{"android":"levelo://app?vid=d195ec21-de91-44fd-a501-11abffbab2cc","ios":"levelo://app?vid=d195ec21-de91-44fd-a501-11abffbab2cc"},"vehicle_type_id":"4","last_reported":1702686903,"current_range_meters":17600,"station_id":"ce4bh012rcd13ifvqcv0","pricing_plan_id":"free"},{"bike_id":"bd3ba144-6dbe-4e0a-b3a6-5acf2e053d44","system_id":"levelo_inurba_marseille","lat":43.313291,"lon":5.396838,"is_reserved":false,"is_disabled":false,"rental_uris":{"android":"levelo://app?vid=bd3ba144-6dbe-4e0a-b3a6-5acf2e053d44","ios":"levelo://app?vid=bd3ba144-6dbe-4e0a-b3a6-5acf2e053d44"},"vehicle_type_id":"4","last_reported":1702686903,"current_range_meters":16000,"station_id":"ce4bgvp2rcd13ifvqcu0","pricing_plan_id":"free"},{"bike_id":"ab45c254-6de5-4ff5-a82a-7ded75ba0ccb","system_id":"levelo_inurba_marseille","lat":43.290779,"lon":5.371482,"is_reserved":false,"is_disabled":false,"rental_uris":{"android":"levelo://app?vid=ab45c254-6de5-4ff5-a82a-7ded75ba0ccb","ios":"levelo://app?vid=ab45c254-6de5-4ff5-a82a-7ded75ba0ccb"},"vehicle_type_id":"4","last_reported":1702686903,"current_range_meters":25600,"station_id":"ce4bh5p2rcd13ifvqe4g","pricing_plan_id":"free"},{"bike_id":"426dedc8-0a3d-4abb-a156-36f6ce24edfe","system_id":"levelo_inurba_marseille","lat":43.290327,"lon":5.375711,"is_reserved":false,"is_disabled":false,"rental_uris":{"android":"levelo://app?vid=426dedc8-0a3d-4abb-a156-36f6ce24edfe","ios":"levelo://app?vid=426dedc8-0a3d-4abb-a156-36f6ce24edfe"},"vehicle_type_id":"4","last_reported":1702686903,"current_range_meters":30400,"station_id":"ce4bh692rcd13ifvqe90","pricing_plan_id":"free"},{"bike_id":"bf2af40e-a6d2-42c5-8e1b-bd960510c9ca","system_id":"levelo_inurba_marseille","lat":43.289184,"lon":5.366408,"is_reserved":false,"is_disabled":false,"rental_uris":{"android":"levelo://app?vid=bf2af40e-a6d2-42c5-8e1b-bd960510c9ca","ios":"levelo://app?vid=bf2af40e-a6d2-42c5-8e1b-bd960510c9ca"},"vehicle_type_id":"4","last_reported":1702686903,"current_range_meters":8400,"station_id":"ce4bhap2rcd13ifvqek0","pricing_plan_id":"free"},{"bike_id":"1fb4a067-a550-4be5-8a4e-5965ab0af810","system_id":"levelo_inurba_marseille","lat":43.289184,"lon":5.366408,"is_reserved":false,"is_disabled":false,"rental_uris":{"android":"levelo://app?vid=1fb4a067-a550-4be5-8a4e-5965ab0af810","ios":"levelo://app?vid=1fb4a067-a550-4be5-8a4e-5965ab0af810"},"vehicle_type_id":"4","last_reported":1702686903,"current_range_meters":10400,"station_id":"ce4bhap2rcd13ifvqek0","pricing_plan_id":"free"},{"bike_id":"a527c06f-3d08-449c-b445-4fa050f4d325","system_id":"levelo_inurba_marseille","lat":43.289184,"lon":5.366408,"is_reserved":false,"is_disabled":false,"rental_uris":{"android":"levelo://app?vid=a527c06f-3d08-449c-b445-4fa050f4d325","ios":"levelo://app?vid=a527c06f-3d08-449c-b445-4fa050f4d325"},"vehicle_type_id":"4","last_reported":1702686903,"current_range_meters":24800,"station_id":"ce4bhap2rcd13ifvqek0","pricing_plan_id":"free"},{"bike_id":"50a9818b-1c37-41fe-914d-050637c7faa1","system_id":"levelo_inurba_marseille","lat":43.289184,"lon":5.366408,"is_reserved":false,"is_disabled":false,"rental_uris":{"android":"levelo://app?vid=50a9818b-1c37-41fe-914d-050637c7faa1","ios":"levelo://app?vid=50a9818b-1c37-41fe-914d-050637c7faa1"},"vehicle_type_id":"4","last_reported":1702686903,"current_range_meters":31200,"station_id":"ce4bhap2rcd13ifvqek0","pricing_plan_id":"free"},{"bike_id":"a21c32cd-befb-4f18-873f-308403979a78","system_id":"levelo_inurba_marseille","lat":43.289287,"lon":5.363875,"is_reserved":false,"is_disabled":false,"rental_uris":{"android":"levelo://app?vid=a21c32cd-befb-4f18-873f-308403979a78","ios":"levelo://app?vid=a21c32cd-befb-4f18-873f-308403979a78"},"vehicle_type_id":"4","last_reported":1702686903,"current_range_meters":30000,"station_id":"ce4bhc92rcd13ifvqetg","pricing_plan_id":"free"},{"bike_id":"f774bd40-4c7a-456a-bb1a-ba23766110e5","system_id":"levelo_inurba_marseille","lat":43.304296,"lon":5.397513,"is_reserved":false,"is_disabled":false,"rental_uris":{"android":"levelo://app?vid=f774bd40-4c7a-456a-bb1a-ba23766110e5","ios":"levelo://app?vid=f774bd40-4c7a-456a-bb1a-ba23766110e5"},"vehicle_type_id":"4","last_reported":1702686903,"current_range_meters":10800,"station_id":"ce4bh092rcd13ifvqd20","pricing_plan_id":"free"},{"bike_id":"2af1ec1d-db50-4675-b168-902ca134119a","system_id":"levelo_inurba_marseille","lat":43.330442,"lon":5.389148,"is_reserved":false,"is_disabled":false,"rental_uris":{"android":"levelo://app?vid=2af1ec1d-db50-4675-b168-902ca134119a","ios":"levelo://app?vid=2af1ec1d-db50-4675-b168-902ca134119a"},"vehicle_type_id":"4","last_reported":1702686903,"current_range_meters":1200,"station_id":"ce4bhr92rcd13ifvqhrg","pricing_plan_id":"free"},{"bike_id":"c1dfc5c9-5fe6-492f-bc3c-280b58225680","system_id":"levelo_inurba_marseille","lat":43.29005,"lon":5.35619,"is_reserved":false,"is_disabled":false,"rental_uris":{"android":"levelo://app?vid=c1dfc5c9-5fe6-492f-bc3c-280b58225680","ios":"levelo://app?vid=c1dfc5c9-5fe6-492f-bc3c-280b58225680"},"vehicle_type_id":"4","last_reported":1702686903,"current_range_meters":30800,"station_id":"ce4bhb92rcd13ifvqen0","pricing_plan_id":"free"},{"bike_id":"d631d6f7-57e3-48c8-8fe8-03f59a31fdff","system_id":"levelo_inurba_marseille","lat":43.290013,"lon":5.35615,"is_reserved":false,"is_disabled":false,"rental_uris":{"android":"levelo://app?vid=d631d6f7-57e3-48c8-8fe8-03f59a31fdff","ios":"levelo://app?vid=d631d6f7-57e3-48c8-8fe8-03f59a31fdff"},"vehicle_type_id":"4","last_reported":1702686903,"current_range_meters":30000,"station_id":"ce4bhb92rcd13ifvqen0","pricing_plan_id":"free"},{"bike_id":"324ed16b-0e65-44d9-92bb-e7c55096a710","system_id":"levelo_inurba_marseille","lat":43.29792,"lon":5.39335,"is_reserved":false,"is_disabled":false,"rental_uris":{"android":"levelo://app?vid=324ed16b-0e65-44d9-92bb-e7c55096a710","ios":"levelo://app?vid=324ed16b-0e65-44d9-92bb-e7c55096a710"},"vehicle_type_id":"4","last_reported":1702686903,"current_range_meters":0,"station_id":"chh1huq6cuj3fo74tm60","pricing_plan_id":"free"},{"bike_id":"8dcf865a-12c8-4a6b-9373-be0040651a7a","system_id":"levelo_inurba_marseille","lat":43.288627,"lon":5.358642,"is_reserved":false,"is_disabled":false,"rental_uris":{"android":"levelo://app?vid=8dcf865a-12c8-4a6b-9373-be0040651a7a","ios":"levelo://app?vid=8dcf865a-12c8-4a6b-9373-be0040651a7a"},"vehicle_type_id":"4","last_reported":1702686903,"current_range_meters":17600,"station_id":"ce4bhb12rcd13ifvqem0","pricing_plan_id":"free"},{"bike_id":"ccef2c67-9b5f-4d02-adb2-822f93d09b2e","system_id":"levelo_inurba_marseille","lat":43.28857,"lon":5.35873,"is_reserved":false,"is_disabled":false,"rental_uris":{"android":"levelo://app?vid=ccef2c67-9b5f-4d02-adb2-822f93d09b2e","ios":"levelo://app?vid=ccef2c67-9b5f-4d02-adb2-822f93d09b2e"},"vehicle_type_id":"4","last_reported":1702686903,"current_range_meters":29600,"station_id":"ce4bhb12rcd13ifvqem0","pricing_plan_id":"free"},{"bike_id":"aa189781-549f-43b8-9cd3-ce4b3aa952c4","system_id":"levelo_inurba_marseille","lat":43.28856,"lon":5.358371,"is_reserved":false,"is_disabled":false,"rental_uris":{"android":"levelo://app?vid=aa189781-549f-43b8-9cd3-ce4b3aa952c4","ios":"levelo://app?vid=aa189781-549f-43b8-9cd3-ce4b3aa952c4"},"vehicle_type_id":"4","last_reported":1702686903,"current_range_meters":18000,"station_id":"ce4bhb12rcd13ifvqem0","pricing_plan_id":"free"},{"bike_id":"944ec3ad-25b2-4033-80d1-71160dd2aa32","system_id":"levelo_inurba_marseille","lat":43.28856,"lon":5.358371,"is_reserved":false,"is_disabled":false,"rental_uris":{"android":"levelo://app?vid=944ec3ad-25b2-4033-80d1-71160dd2aa32","ios":"levelo://app?vid=944ec3ad-25b2-4033-80d1-71160dd2aa32"},"vehicle_type_id":"4","last_reported":1702686903,"current_range_meters":15600,"station_id":"ce4bhb12rcd13ifvqem0","pricing_plan_id":"free"},{"bike_id":"388ae4df-7423-4375-a40b-a4c9f6505968","system_id":"levelo_inurba_marseille","lat":43.288571,"lon":5.358522,"is_reserved":false,"is_disabled":false,"rental_uris":{"android":"levelo://app?vid=388ae4df-7423-4375-a40b-a4c9f6505968","ios":"levelo://app?vid=388ae4df-7423-4375-a40b-a4c9f6505968"},"vehicle_type_id":"4","last_reported":1702686903,"current_range_meters":25200,"station_id":"ce4bhb12rcd13ifvqem0","pricing_plan_id":"free"},{"bike_id":"f370df73-3a4c-4b80-b214-7e982bcaf66c","system_id":"levelo_inurba_marseille","lat":43.28849,"lon":5.35851,"is_reserved":false,"is_disabled":false,"rental_uris":{"android":"levelo://app?vid=f370df73-3a4c-4b80-b214-7e982bcaf66c","ios":"levelo://app?vid=f370df73-3a4c-4b80-b214-7e982bcaf66c"},"vehicle_type_id":"4","last_reported":1702686903,"current_range_meters":29600,"station_id":"ce4bhb12rcd13ifvqem0","pricing_plan_id":"free"},{"bike_id":"cd9c3cdf-d7b8-46a3-a186-6addbd4f6715","system_id":"levelo_inurba_marseille","lat":43.288469,"lon":5.358469,"is_reserved":false,"is_disabled":false,"rental_uris":{"android":"levelo://app?vid=cd9c3cdf-d7b8-46a3-a186-6addbd4f6715","ios":"levelo://app?vid=cd9c3cdf-d7b8-46a3-a186-6addbd4f6715"},"vehicle_type_id":"4","last_reported":1702686903,"current_range_meters":31200,"station_id":"ce4bhb12rcd13ifvqem0","pricing_plan_id":"free"},{"bike_id":"04e08174-077d-406e-9800-126d71351cb7","system_id":"levelo_inurba_marseille","lat":43.309371,"lon":5.401449,"is_reserved":false,"is_disabled":false,"rental_uris":{"android":"levelo://app?vid=04e08174-077d-406e-9800-126d71351cb7","ios":"levelo://app?vid=04e08174-077d-406e-9800-126d71351cb7"},"vehicle_type_id":"4","last_reported":1702686903,"current_range_meters":8800,"station_id":"ce4bgvp2rcd13ifvqct0","pricing_plan_id":"free"},{"bike_id":"2f64123c-bb80-4670-999e-3180720000bb","system_id":"levelo_inurba_marseille","lat":43.30932,"lon":5.4014,"is_reserved":false,"is_disabled":false,"rental_uris":{"android":"levelo://app?vid=2f64123c-bb80-4670-999e-3180720000bb","ios":"levelo://app?vid=2f64123c-bb80-4670-999e-3180720000bb"},"vehicle_type_id":"4","last_reported":1702686903,"current_range_meters":2000,"station_id":"ce4bgvp2rcd13ifvqct0","pricing_plan_id":"free"},{"bike_id":"f0cd831c-cfb9-44c7-9487-103b6df223ca","system_id":"levelo_inurba_marseille","lat":43.337445,"lon":5.374592,"is_reserved":false,"is_disabled":false,"rental_uris":{"android":"levelo://app?vid=f0cd831c-cfb9-44c7-9487-103b6df223ca","ios":"levelo://app?vid=f0cd831c-cfb9-44c7-9487-103b6df223ca"},"vehicle_type_id":"4","last_reported":1702686903,"current_range_meters":29600,"station_id":"","pricing_plan_id":"free"},{"bike_id":"00e23489-fc45-4f8a-86c0-c57b25f07af9","system_id":"levelo_inurba_marseille","lat":43.3128,"lon":5.401763,"is_reserved":false,"is_disabled":false,"rental_uris":{"android":"levelo://app?vid=00e23489-fc45-4f8a-86c0-c57b25f07af9","ios":"levelo://app?vid=00e23489-fc45-4f8a-86c0-c57b25f07af9"},"vehicle_type_id":"4","last_reported":1702686903,"current_range_meters":22800,"station_id":"ce4bh092rcd13ifvqd30","pricing_plan_id":"free"},{"bike_id":"2e4c9a65-b80d-445d-a336-1912afda714a","system_id":"levelo_inurba_marseille","lat":43.306412,"lon":5.401035,"is_reserved":false,"is_disabled":false,"rental_uris":{"android":"levelo://app?vid=2e4c9a65-b80d-445d-a336-1912afda714a","ios":"levelo://app?vid=2e4c9a65-b80d-445d-a336-1912afda714a"},"vehicle_type_id":"4","last_reported":1702686903,"current_range_meters":7600,"station_id":"ce4bh112rcd13ifvqda0","pricing_plan_id":"free"},{"bike_id":"a15a6f31-d26a-498f-aab0-fad2629bd007","system_id":"levelo_inurba_marseille","lat":43.337535,"lon":5.37446,"is_reserved":false,"is_disabled":false,"rental_uris":{"android":"levelo://app?vid=a15a6f31-d26a-498f-aab0-fad2629bd007","ios":"levelo://app?vid=a15a6f31-d26a-498f-aab0-fad2629bd007"},"vehicle_type_id":"4","last_reported":1702686903,"current_range_meters":800,"station_id":"","pricing_plan_id":"free"},{"bike_id":"c2896d5f-fb99-49ba-ad74-87bbd813e6d8","system_id":"levelo_inurba_marseille","lat":43.306412,"lon":5.401035,"is_reserved":false,"is_disabled":false,"rental_uris":{"android":"levelo://app?vid=c2896d5f-fb99-49ba-ad74-87bbd813e6d8","ios":"levelo://app?vid=c2896d5f-fb99-49ba-ad74-87bbd813e6d8"},"vehicle_type_id":"4","last_reported":1702686903,"current_range_meters":3200,"station_id":"ce4bh112rcd13ifvqda0","pricing_plan_id":"free"},{"bike_id":"597b3b0d-46be-434c-a32a-d7e9f399292d","system_id":"levelo_inurba_marseille","lat":43.30642,"lon":5.401031,"is_reserved":false,"is_disabled":false,"rental_uris":{"android":"levelo://app?vid=597b3b0d-46be-434c-a32a-d7e9f399292d","ios":"levelo://app?vid=597b3b0d-46be-434c-a32a-d7e9f399292d"},"vehicle_type_id":"4","last_reported":1702686903,"current_range_meters":10800,"station_id":"ce4bh112rcd13ifvqda0","pricing_plan_id":"free"},{"bike_id":"ef80ceab-dc9f-4b6c-8f52-707d5177f481","system_id":"levelo_inurba_marseille","lat":43.33752,"lon":5.37466,"is_reserved":false,"is_disabled":false,"rental_uris":{"android":"levelo://app?vid=ef80ceab-dc9f-4b6c-8f52-707d5177f481","ios":"levelo://app?vid=ef80ceab-dc9f-4b6c-8f52-707d5177f481"},"vehicle_type_id":"4","last_reported":1702686903,"current_range_meters":30800,"station_id":"","pricing_plan_id":"free"},{"bike_id":"189250a1-5934-47cd-aa3d-01791d59bc97","system_id":"levelo_inurba_marseille","lat":43.306412,"lon":5.401035,"is_reserved":false,"is_disabled":false,"rental_uris":{"android":"levelo://app?vid=189250a1-5934-47cd-aa3d-01791d59bc97","ios":"levelo://app?vid=189250a1-5934-47cd-aa3d-01791d59bc97"},"vehicle_type_id":"4","last_reported":1702686903,"current_range_meters":28000,"station_id":"ce4bh112rcd13ifvqda0","pricing_plan_id":"free"},{"bike_id":"f393cc08-b52f-4486-8abc-d4e8aa707b34","system_id":"levelo_inurba_marseille","lat":43.30642,"lon":5.401031,"is_reserved":false,"is_disabled":false,"rental_uris":{"android":"levelo://app?vid=f393cc08-b52f-4486-8abc-d4e8aa707b34","ios":"levelo://app?vid=f393cc08-b52f-4486-8abc-d4e8aa707b34"},"vehicle_type_id":"4","last_reported":1702686903,"current_range_meters":20000,"station_id":"ce4bh112rcd13ifvqda0","pricing_plan_id":"free"},{"bike_id":"811eac48-7c36-4ce9-9a27-879aa1e1514e","system_id":"levelo_inurba_marseille","lat":43.337621,"lon":5.374359,"is_reserved":false,"is_disabled":false,"rental_uris":{"android":"levelo://app?vid=811eac48-7c36-4ce9-9a27-879aa1e1514e","ios":"levelo://app?vid=811eac48-7c36-4ce9-9a27-879aa1e1514e"},"vehicle_type_id":"4","last_reported":1702686903,"current_range_meters":27200,"station_id":"","pricing_plan_id":"free"},{"bike_id":"9e5231e6-9497-41e6-bfd0-a7d79b8fad43","system_id":"levelo_inurba_marseille","lat":43.337642,"lon":5.374338,"is_reserved":false,"is_disabled":false,"rental_uris":{"android":"levelo://app?vid=9e5231e6-9497-41e6-bfd0-a7d79b8fad43","ios":"levelo://app?vid=9e5231e6-9497-41e6-bfd0-a7d79b8fad43"},"vehicle_type_id":"4","last_reported":1702686903,"current_range_meters":27200,"station_id":"","pricing_plan_id":"free"},{"bike_id":"930bba3a-4350-44cf-bb9b-310a6cbdb5ef","system_id":"levelo_inurba_marseille","lat":43.33761,"lon":5.374814,"is_reserved":false,"is_disabled":false,"rental_uris":{"android":"levelo://app?vid=930bba3a-4350-44cf-bb9b-310a6cbdb5ef","ios":"levelo://app?vid=930bba3a-4350-44cf-bb9b-310a6cbdb5ef"},"vehicle_type_id":"4","last_reported":1702686903,"current_range_meters":26400,"station_id":"","pricing_plan_id":"free"},{"bike_id":"5130dade-cfd3-45a7-b064-569cdc688516","system_id":"levelo_inurba_marseille","lat":43.306412,"lon":5.401035,"is_reserved":false,"is_disabled":false,"rental_uris":{"android":"levelo://app?vid=5130dade-cfd3-45a7-b064-569cdc688516","ios":"levelo://app?vid=5130dade-cfd3-45a7-b064-569cdc688516"},"vehicle_type_id":"4","last_reported":1702686903,"current_range_meters":23200,"station_id":"ce4bh112rcd13ifvqda0","pricing_plan_id":"free"},{"bike_id":"f90eee77-8c3a-454f-afe5-d5090ba54fcb","system_id":"levelo_inurba_marseille","lat":43.30642,"lon":5.401031,"is_reserved":false,"is_disabled":false,"rental_uris":{"android":"levelo://app?vid=f90eee77-8c3a-454f-afe5-d5090ba54fcb","ios":"levelo://app?vid=f90eee77-8c3a-454f-afe5-d5090ba54fcb"},"vehicle_type_id":"4","last_reported":1702686903,"current_range_meters":5200,"station_id":"ce4bh112rcd13ifvqda0","pricing_plan_id":"free"},{"bike_id":"1b1bd80c-92ec-4f8e-8e80-a125315f4b22","system_id":"levelo_inurba_marseille","lat":43.33783,"lon":5.37421,"is_reserved":false,"is_disabled":false,"rental_uris":{"android":"levelo://app?vid=1b1bd80c-92ec-4f8e-8e80-a125315f4b22","ios":"levelo://app?vid=1b1bd80c-92ec-4f8e-8e80-a125315f4b22"},"vehicle_type_id":"4","last_reported":1702686903,"current_range_meters":6800,"station_id":"","pricing_plan_id":"free"},{"bike_id":"e641768d-59e6-4ace-a5a2-4bfc5ecea5d6","system_id":"levelo_inurba_marseille","lat":43.28727,"lon":5.36078,"is_reserved":false,"is_disabled":false,"rental_uris":{"android":"levelo://app?vid=e641768d-59e6-4ace-a5a2-4bfc5ecea5d6","ios":"levelo://app?vid=e641768d-59e6-4ace-a5a2-4bfc5ecea5d6"},"vehicle_type_id":"4","last_reported":1702686903,"current_range_meters":27200,"station_id":"cki0cbj6b192h4jlfktg","pricing_plan_id":"free"},{"bike_id":"76893ee2-668c-4f13-b195-bc2f8a4fafd1","system_id":"levelo_inurba_marseille","lat":43.286961,"lon":5.373785,"is_reserved":false,"is_disabled":false,"rental_uris":{"android":"levelo://app?vid=76893ee2-668c-4f13-b195-bc2f8a4fafd1","ios":"levelo://app?vid=76893ee2-668c-4f13-b195-bc2f8a4fafd1"},"vehicle_type_id":"4","last_reported":1702686903,"current_range_meters":29200,"station_id":"ce4bh3p2rcd13ifvqdq0","pricing_plan_id":"free"},{"bike_id":"009407af-a05f-4ecd-96f2-9cff1e167d5c","system_id":"levelo_inurba_marseille","lat":43.298681,"lon":5.397225,"is_reserved":false,"is_disabled":false,"rental_uris":{"android":"levelo://app?vid=009407af-a05f-4ecd-96f2-9cff1e167d5c","ios":"levelo://app?vid=009407af-a05f-4ecd-96f2-9cff1e167d5c"},"vehicle_type_id":"4","last_reported":1702686903,"current_range_meters":16800,"station_id":"ce4bh0h2rcd13ifvqd50","pricing_plan_id":"free"},{"bike_id":"8822d33b-3a04-4b65-840a-d3eb4134ca21","system_id":"levelo_inurba_marseille","lat":43.286591,"lon":5.363346,"is_reserved":false,"is_disabled":false,"rental_uris":{"android":"levelo://app?vid=8822d33b-3a04-4b65-840a-d3eb4134ca21","ios":"levelo://app?vid=8822d33b-3a04-4b65-840a-d3eb4134ca21"},"vehicle_type_id":"4","last_reported":1702686903,"current_range_meters":30400,"station_id":"ce4bhah2rcd13ifvqej0","pricing_plan_id":"free"},{"bike_id":"1b604e8e-1e44-44b6-acab-672a198b82a8","system_id":"levelo_inurba_marseille","lat":43.295137,"lon":5.394078,"is_reserved":false,"is_disabled":false,"rental_uris":{"android":"levelo://app?vid=1b604e8e-1e44-44b6-acab-672a198b82a8","ios":"levelo://app?vid=1b604e8e-1e44-44b6-acab-672a198b82a8"},"vehicle_type_id":"4","last_reported":1702686903,"current_range_meters":0,"station_id":"ce4bh292rcd13ifvqdf0","pricing_plan_id":"free"},{"bike_id":"ec009d5a-6634-49bd-96a8-5a83b8008ba4","system_id":"levelo_inurba_marseille","lat":43.295196,"lon":5.39397,"is_reserved":false,"is_disabled":false,"rental_uris":{"android":"levelo://app?vid=ec009d5a-6634-49bd-96a8-5a83b8008ba4","ios":"levelo://app?vid=ec009d5a-6634-49bd-96a8-5a83b8008ba4"},"vehicle_type_id":"4","last_reported":1702686903,"current_range_meters":27600,"station_id":"ce4bh292rcd13ifvqdf0","pricing_plan_id":"free"},{"bike_id":"85fd7aa8-64a1-45b3-87ca-094a6a0053c6","system_id":"levelo_inurba_marseille","lat":43.302759,"lon":5.400793,"is_reserved":false,"is_disabled":false,"rental_uris":{"android":"levelo://app?vid=85fd7aa8-64a1-45b3-87ca-094a6a0053c6","ios":"levelo://app?vid=85fd7aa8-64a1-45b3-87ca-094a6a0053c6"},"vehicle_type_id":"4","last_reported":1702686903,"current_range_meters":31200,"station_id":"ce4bgvh2rcd13ifvqcs0","pricing_plan_id":"free"},{"bike_id":"46937d05-36c2-495a-9b30-7603f646a5e5","system_id":"levelo_inurba_marseille","lat":43.307538,"lon":5.402728,"is_reserved":false,"is_disabled":false,"rental_uris":{"android":"levelo://app?vid=46937d05-36c2-495a-9b30-7603f646a5e5","ios":"levelo://app?vid=46937d05-36c2-495a-9b30-7603f646a5e5"},"vehicle_type_id":"4","last_reported":1702686903,"current_range_meters":16000,"station_id":"","pricing_plan_id":"free"},{"bike_id":"719cc636-2d64-40a1-82b5-69cb951e3cd2","system_id":"levelo_inurba_marseille","lat":43.302759,"lon":5.400793,"is_reserved":false,"is_disabled":false,"rental_uris":{"android":"levelo://app?vid=719cc636-2d64-40a1-82b5-69cb951e3cd2","ios":"levelo://app?vid=719cc636-2d64-40a1-82b5-69cb951e3cd2"},"vehicle_type_id":"4","last_reported":1702686903,"current_range_meters":20800,"station_id":"ce4bgvh2rcd13ifvqcs0","pricing_plan_id":"free"},{"bike_id":"246d5fa5-c550-48ea-a6ec-41b624ab5d9f","system_id":"levelo_inurba_marseille","lat":43.286039,"lon":5.370679,"is_reserved":false,"is_disabled":false,"rental_uris":{"android":"levelo://app?vid=246d5fa5-c550-48ea-a6ec-41b624ab5d9f","ios":"levelo://app?vid=246d5fa5-c550-48ea-a6ec-41b624ab5d9f"},"vehicle_type_id":"4","last_reported":1702686903,"current_range_meters":22800,"station_id":"ce4bht12rcd13ifvqi60","pricing_plan_id":"free"},{"bike_id":"15e43c5c-45e9-4cf0-8cb1-213ee8167c83","system_id":"levelo_inurba_marseille","lat":43.316821,"lon":5.404737,"is_reserved":false,"is_disabled":false,"rental_uris":{"android":"levelo://app?vid=15e43c5c-45e9-4cf0-8cb1-213ee8167c83","ios":"levelo://app?vid=15e43c5c-45e9-4cf0-8cb1-213ee8167c83"},"vehicle_type_id":"4","last_reported":1702686903,"current_range_meters":4000,"station_id":"ce4bh012rcd13ifvqd00","pricing_plan_id":"free"},{"bike_id":"c308d0ec-4343-41c6-a893-68f3bbeb9c17","system_id":"levelo_inurba_marseille","lat":43.291994,"lon":5.392907,"is_reserved":false,"is_disabled":false,"rental_uris":{"android":"levelo://app?vid=c308d0ec-4343-41c6-a893-68f3bbeb9c17","ios":"levelo://app?vid=c308d0ec-4343-41c6-a893-68f3bbeb9c17"},"vehicle_type_id":"4","last_reported":1702686903,"current_range_meters":26000,"station_id":"ce4bh192rcd13ifvqdd0","pricing_plan_id":"free"},{"bike_id":"1dc688ff-b84f-4e04-9b9d-e6d9a6525d77","system_id":"levelo_inurba_marseille","lat":43.284534,"lon":5.358662,"is_reserved":false,"is_disabled":false,"rental_uris":{"android":"levelo://app?vid=1dc688ff-b84f-4e04-9b9d-e6d9a6525d77","ios":"levelo://app?vid=1dc688ff-b84f-4e04-9b9d-e6d9a6525d77"},"vehicle_type_id":"4","last_reported":1702686903,"current_range_meters":29200,"station_id":"ce4bhah2rcd13ifvqei0","pricing_plan_id":"free"},{"bike_id":"158ebdba-5c18-4ba8-89f2-3c50d6f0e2e6","system_id":"levelo_inurba_marseille","lat":43.284538,"lon":5.358657,"is_reserved":false,"is_disabled":false,"rental_uris":{"android":"levelo://app?vid=158ebdba-5c18-4ba8-89f2-3c50d6f0e2e6","ios":"levelo://app?vid=158ebdba-5c18-4ba8-89f2-3c50d6f0e2e6"},"vehicle_type_id":"4","last_reported":1702686903,"current_range_meters":17200,"station_id":"ce4bhah2rcd13ifvqei0","pricing_plan_id":"free"},{"bike_id":"e975d844-bdb6-4a4d-a916-7bc121752c81","system_id":"levelo_inurba_marseille","lat":43.284538,"lon":5.358657,"is_reserved":false,"is_disabled":false,"rental_uris":{"android":"levelo://app?vid=e975d844-bdb6-4a4d-a916-7bc121752c81","ios":"levelo://app?vid=e975d844-bdb6-4a4d-a916-7bc121752c81"},"vehicle_type_id":"4","last_reported":1702686903,"current_range_meters":31200,"station_id":"ce4bhah2rcd13ifvqei0","pricing_plan_id":"free"},{"bike_id":"b9e4929b-7371-4fec-a5ad-d54849454cfc","system_id":"levelo_inurba_marseille","lat":43.283998,"lon":5.375062,"is_reserved":false,"is_disabled":false,"rental_uris":{"android":"levelo://app?vid=b9e4929b-7371-4fec-a5ad-d54849454cfc","ios":"levelo://app?vid=b9e4929b-7371-4fec-a5ad-d54849454cfc"},"vehicle_type_id":"4","last_reported":1702686903,"current_range_meters":21600,"station_id":"ce4bh412rcd13ifvqds0","pricing_plan_id":"free"},{"bike_id":"9e228cb7-66a4-4046-8b02-d31d5c85525f","system_id":"levelo_inurba_marseille","lat":43.283998,"lon":5.375062,"is_reserved":false,"is_disabled":false,"rental_uris":{"android":"levelo://app?vid=9e228cb7-66a4-4046-8b02-d31d5c85525f","ios":"levelo://app?vid=9e228cb7-66a4-4046-8b02-d31d5c85525f"},"vehicle_type_id":"4","last_reported":1702686903,"current_range_meters":31200,"station_id":"ce4bh412rcd13ifvqds0","pricing_plan_id":"free"},{"bike_id":"79a5e45c-b604-4bfc-9f7a-f001b88fe7fd","system_id":"levelo_inurba_marseille","lat":43.295713,"lon":5.399639,"is_reserved":false,"is_disabled":false,"rental_uris":{"android":"levelo://app?vid=79a5e45c-b604-4bfc-9f7a-f001b88fe7fd","ios":"levelo://app?vid=79a5e45c-b604-4bfc-9f7a-f001b88fe7fd"},"vehicle_type_id":"4","last_reported":1702686903,"current_range_meters":26000,"station_id":"ce4bh312rcd13ifvqdj0","pricing_plan_id":"free"},{"bike_id":"151faa8f-15eb-4ba8-9717-304010bb1317","system_id":"levelo_inurba_marseille","lat":43.284063,"lon":5.375087,"is_reserved":false,"is_disabled":false,"rental_uris":{"android":"levelo://app?vid=151faa8f-15eb-4ba8-9717-304010bb1317","ios":"levelo://app?vid=151faa8f-15eb-4ba8-9717-304010bb1317"},"vehicle_type_id":"4","last_reported":1702686903,"current_range_meters":23600,"station_id":"ce4bh412rcd13ifvqds0","pricing_plan_id":"free"},{"bike_id":"31241e34-1f61-41b2-89fd-d34195f78aac","system_id":"levelo_inurba_marseille","lat":43.283998,"lon":5.375062,"is_reserved":false,"is_disabled":false,"rental_uris":{"android":"levelo://app?vid=31241e34-1f61-41b2-89fd-d34195f78aac","ios":"levelo://app?vid=31241e34-1f61-41b2-89fd-d34195f78aac"},"vehicle_type_id":"4","last_reported":1702686903,"current_range_meters":22800,"station_id":"ce4bh412rcd13ifvqds0","pricing_plan_id":"free"},{"bike_id":"e78349a0-f773-481d-bc71-3a80621d6e4f","system_id":"levelo_inurba_marseille","lat":43.283998,"lon":5.375062,"is_reserved":false,"is_disabled":false,"rental_uris":{"android":"levelo://app?vid=e78349a0-f773-481d-bc71-3a80621d6e4f","ios":"levelo://app?vid=e78349a0-f773-481d-bc71-3a80621d6e4f"},"vehicle_type_id":"4","last_reported":1702686903,"current_range_meters":2800,"station_id":"ce4bh412rcd13ifvqds0","pricing_plan_id":"free"},{"bike_id":"16373837-b161-407f-b0fa-3d0f27559010","system_id":"levelo_inurba_marseille","lat":43.323464,"lon":5.406297,"is_reserved":false,"is_disabled":false,"rental_uris":{"android":"levelo://app?vid=16373837-b161-407f-b0fa-3d0f27559010","ios":"levelo://app?vid=16373837-b161-407f-b0fa-3d0f27559010"},"vehicle_type_id":"4","last_reported":1702686903,"current_range_meters":31200,"station_id":"ce4bhq92rcd13ifvqhjg","pricing_plan_id":"free"},{"bike_id":"4e7f35df-b5be-41f8-a088-b359fd0719b0","system_id":"levelo_inurba_marseille","lat":43.323464,"lon":5.406297,"is_reserved":false,"is_disabled":false,"rental_uris":{"android":"levelo://app?vid=4e7f35df-b5be-41f8-a088-b359fd0719b0","ios":"levelo://app?vid=4e7f35df-b5be-41f8-a088-b359fd0719b0"},"vehicle_type_id":"4","last_reported":1702686903,"current_range_meters":26400,"station_id":"ce4bhq92rcd13ifvqhjg","pricing_plan_id":"free"},{"bike_id":"e9b39183-1687-4493-aa65-d43978106867","system_id":"levelo_inurba_marseille","lat":43.297946,"lon":5.404063,"is_reserved":false,"is_disabled":false,"rental_uris":{"android":"levelo://app?vid=e9b39183-1687-4493-aa65-d43978106867","ios":"levelo://app?vid=e9b39183-1687-4493-aa65-d43978106867"},"vehicle_type_id":"4","last_reported":1702686903,"current_range_meters":15600,"station_id":"ce4bh112rcd13ifvqd90","pricing_plan_id":"free"},{"bike_id":"d051c677-00df-4672-bb54-3f294be4347e","system_id":"levelo_inurba_marseille","lat":43.289363,"lon":5.396322,"is_reserved":false,"is_disabled":false,"rental_uris":{"android":"levelo://app?vid=d051c677-00df-4672-bb54-3f294be4347e","ios":"levelo://app?vid=d051c677-00df-4672-bb54-3f294be4347e"},"vehicle_type_id":"4","last_reported":1702686903,"current_range_meters":4400,"station_id":"ce4bh3h2rcd13ifvqdn0","pricing_plan_id":"free"},{"bike_id":"5ea836d6-7296-4e07-909b-aced9f2c1208","system_id":"levelo_inurba_marseille","lat":43.283502,"lon":5.386471,"is_reserved":false,"is_disabled":false,"rental_uris":{"android":"levelo://app?vid=5ea836d6-7296-4e07-909b-aced9f2c1208","ios":"levelo://app?vid=5ea836d6-7296-4e07-909b-aced9f2c1208"},"vehicle_type_id":"4","last_reported":1702686903,"current_range_meters":30000,"station_id":"ce4bh492rcd13ifvqdvg","pricing_plan_id":"free"},{"bike_id":"ecb0aebc-f285-446f-9a63-74c5c9ef762b","system_id":"levelo_inurba_marseille","lat":43.28037,"lon":5.36938,"is_reserved":false,"is_disabled":false,"rental_uris":{"android":"levelo://app?vid=ecb0aebc-f285-446f-9a63-74c5c9ef762b","ios":"levelo://app?vid=ecb0aebc-f285-446f-9a63-74c5c9ef762b"},"vehicle_type_id":"4","last_reported":1702686903,"current_range_meters":17200,"station_id":"ce4bha12rcd13ifvqef0","pricing_plan_id":"free"},{"bike_id":"8fb47eb9-d1de-47c3-9a4f-063d68d00739","system_id":"levelo_inurba_marseille","lat":43.280382,"lon":5.369291,"is_reserved":false,"is_disabled":false,"rental_uris":{"android":"levelo://app?vid=8fb47eb9-d1de-47c3-9a4f-063d68d00739","ios":"levelo://app?vid=8fb47eb9-d1de-47c3-9a4f-063d68d00739"},"vehicle_type_id":"4","last_reported":1702686903,"current_range_meters":31200,"station_id":"ce4bha12rcd13ifvqef0","pricing_plan_id":"free"},{"bike_id":"9bca6cec-9622-45cb-a8d3-5586517dcf7d","system_id":"levelo_inurba_marseille","lat":43.280345,"lon":5.369432,"is_reserved":false,"is_disabled":false,"rental_uris":{"android":"levelo://app?vid=9bca6cec-9622-45cb-a8d3-5586517dcf7d","ios":"levelo://app?vid=9bca6cec-9622-45cb-a8d3-5586517dcf7d"},"vehicle_type_id":"4","last_reported":1702686903,"current_range_meters":31200,"station_id":"ce4bha12rcd13ifvqef0","pricing_plan_id":"free"},{"bike_id":"e04d024f-d664-423c-b963-3e21ecbf2e8d","system_id":"levelo_inurba_marseille","lat":43.28039,"lon":5.369297,"is_reserved":false,"is_disabled":false,"rental_uris":{"android":"levelo://app?vid=e04d024f-d664-423c-b963-3e21ecbf2e8d","ios":"levelo://app?vid=e04d024f-d664-423c-b963-3e21ecbf2e8d"},"vehicle_type_id":"4","last_reported":1702686903,"current_range_meters":24800,"station_id":"ce4bha12rcd13ifvqef0","pricing_plan_id":"free"},{"bike_id":"62c32a41-5c85-445e-a62d-27f8a6e615c9","system_id":"levelo_inurba_marseille","lat":43.280382,"lon":5.369291,"is_reserved":false,"is_disabled":false,"rental_uris":{"android":"levelo://app?vid=62c32a41-5c85-445e-a62d-27f8a6e615c9","ios":"levelo://app?vid=62c32a41-5c85-445e-a62d-27f8a6e615c9"},"vehicle_type_id":"4","last_reported":1702686903,"current_range_meters":30000,"station_id":"ce4bha12rcd13ifvqef0","pricing_plan_id":"free"},{"bike_id":"51c67930-0f81-4e81-8ba2-97e5f5bf98b2","system_id":"levelo_inurba_marseille","lat":43.280333,"lon":5.36944,"is_reserved":false,"is_disabled":false,"rental_uris":{"android":"levelo://app?vid=51c67930-0f81-4e81-8ba2-97e5f5bf98b2","ios":"levelo://app?vid=51c67930-0f81-4e81-8ba2-97e5f5bf98b2"},"vehicle_type_id":"4","last_reported":1702686903,"current_range_meters":9600,"station_id":"ce4bha12rcd13ifvqef0","pricing_plan_id":"free"},{"bike_id":"866b9d67-381b-4562-a7ca-4f4f676ccc7e","system_id":"levelo_inurba_marseille","lat":43.28031,"lon":5.36943,"is_reserved":false,"is_disabled":false,"rental_uris":{"android":"levelo://app?vid=866b9d67-381b-4562-a7ca-4f4f676ccc7e","ios":"levelo://app?vid=866b9d67-381b-4562-a7ca-4f4f676ccc7e"},"vehicle_type_id":"4","last_reported":1702686903,"current_range_meters":31200,"station_id":"ce4bha12rcd13ifvqef0","pricing_plan_id":"free"},{"bike_id":"491d167f-3979-4af1-9be9-7840e703d79f","system_id":"levelo_inurba_marseille","lat":43.28031,"lon":5.36944,"is_reserved":false,"is_disabled":false,"rental_uris":{"android":"levelo://app?vid=491d167f-3979-4af1-9be9-7840e703d79f","ios":"levelo://app?vid=491d167f-3979-4af1-9be9-7840e703d79f"},"vehicle_type_id":"4","last_reported":1702686903,"current_range_meters":19200,"station_id":"ce4bha12rcd13ifvqef0","pricing_plan_id":"free"},{"bike_id":"9a8a6604-49c5-4c7d-b0c9-15ed67f8848d","system_id":"levelo_inurba_marseille","lat":43.290412,"lon":5.399633,"is_reserved":false,"is_disabled":false,"rental_uris":{"android":"levelo://app?vid=9a8a6604-49c5-4c7d-b0c9-15ed67f8848d","ios":"levelo://app?vid=9a8a6604-49c5-4c7d-b0c9-15ed67f8848d"},"vehicle_type_id":"4","last_reported":1702686903,"current_range_meters":23600,"station_id":"ce4bh392rcd13ifvqdm0","pricing_plan_id":"free"},{"bike_id":"15aa38e6-5deb-4aef-8db6-02d529e55ce8","system_id":"levelo_inurba_marseille","lat":43.281044,"lon":5.378308,"is_reserved":false,"is_disabled":false,"rental_uris":{"android":"levelo://app?vid=15aa38e6-5deb-4aef-8db6-02d529e55ce8","ios":"levelo://app?vid=15aa38e6-5deb-4aef-8db6-02d529e55ce8"},"vehicle_type_id":"4","last_reported":1702686903,"current_range_meters":31200,"station_id":"ce4bha12rcd13ifvqee0","pricing_plan_id":"free"},{"bike_id":"0adde8ec-c4a7-410e-9dab-9e182f2c85bf","system_id":"levelo_inurba_marseille","lat":43.296263,"lon":5.40601,"is_reserved":false,"is_disabled":false,"rental_uris":{"android":"levelo://app?vid=0adde8ec-c4a7-410e-9dab-9e182f2c85bf","ios":"levelo://app?vid=0adde8ec-c4a7-410e-9dab-9e182f2c85bf"},"vehicle_type_id":"4","last_reported":1702686903,"current_range_meters":18800,"station_id":"ce4bh0h2rcd13ifvqd60","pricing_plan_id":"free"},{"bike_id":"490a1228-3f6e-43f6-8a7f-8939f09ce7c8","system_id":"levelo_inurba_marseille","lat":43.284462,"lon":5.392121,"is_reserved":false,"is_disabled":false,"rental_uris":{"android":"levelo://app?vid=490a1228-3f6e-43f6-8a7f-8939f09ce7c8","ios":"levelo://app?vid=490a1228-3f6e-43f6-8a7f-8939f09ce7c8"},"vehicle_type_id":"4","last_reported":1702686903,"current_range_meters":16400,"station_id":"ce4bhoh2rcd13ifvqh5g","pricing_plan_id":"free"},{"bike_id":"4298d3c5-1a16-4d46-aebe-92c72414e708","system_id":"levelo_inurba_marseille","lat":43.28573,"lon":5.394992,"is_reserved":false,"is_disabled":false,"rental_uris":{"android":"levelo://app?vid=4298d3c5-1a16-4d46-aebe-92c72414e708","ios":"levelo://app?vid=4298d3c5-1a16-4d46-aebe-92c72414e708"},"vehicle_type_id":"4","last_reported":1702686903,"current_range_meters":17200,"station_id":"ce4bh292rcd13ifvqdg0","pricing_plan_id":"free"},{"bike_id":"e0cf4589-cf18-4a4b-aad9-e4409d47e905","system_id":"levelo_inurba_marseille","lat":43.304188,"lon":5.412904,"is_reserved":false,"is_disabled":false,"rental_uris":{"android":"levelo://app?vid=e0cf4589-cf18-4a4b-aad9-e4409d47e905","ios":"levelo://app?vid=e0cf4589-cf18-4a4b-aad9-e4409d47e905"},"vehicle_type_id":"4","last_reported":1702686903,"current_range_meters":12000,"station_id":"ce4bhop2rcd13ifvqh8g","pricing_plan_id":"free"},{"bike_id":"957909a1-8942-42df-be69-e5124932ce4a","system_id":"levelo_inurba_marseille","lat":43.304188,"lon":5.412904,"is_reserved":false,"is_disabled":false,"rental_uris":{"android":"levelo://app?vid=957909a1-8942-42df-be69-e5124932ce4a","ios":"levelo://app?vid=957909a1-8942-42df-be69-e5124932ce4a"},"vehicle_type_id":"4","last_reported":1702686903,"current_range_meters":19200,"station_id":"ce4bhop2rcd13ifvqh8g","pricing_plan_id":"free"},{"bike_id":"b237fcd6-2782-440b-8b77-b652830a5310","system_id":"levelo_inurba_marseille","lat":43.304188,"lon":5.412904,"is_reserved":false,"is_disabled":false,"rental_uris":{"android":"levelo://app?vid=b237fcd6-2782-440b-8b77-b652830a5310","ios":"levelo://app?vid=b237fcd6-2782-440b-8b77-b652830a5310"},"vehicle_type_id":"4","last_reported":1702686903,"current_range_meters":18000,"station_id":"ce4bhop2rcd13ifvqh8g","pricing_plan_id":"free"},{"bike_id":"cc5bfe55-a9af-48b1-90df-ff1080f280d7","system_id":"levelo_inurba_marseille","lat":43.27921,"lon":5.35334,"is_reserved":false,"is_disabled":false,"rental_uris":{"android":"levelo://app?vid=cc5bfe55-a9af-48b1-90df-ff1080f280d7","ios":"levelo://app?vid=cc5bfe55-a9af-48b1-90df-ff1080f280d7"},"vehicle_type_id":"4","last_reported":1702686903,"current_range_meters":0,"station_id":"","pricing_plan_id":"free"},{"bike_id":"42d75e83-deaf-443a-a72d-38265b50efb9","system_id":"levelo_inurba_marseille","lat":43.287154,"lon":5.399979,"is_reserved":false,"is_disabled":false,"rental_uris":{"android":"levelo://app?vid=42d75e83-deaf-443a-a72d-38265b50efb9","ios":"levelo://app?vid=42d75e83-deaf-443a-a72d-38265b50efb9"},"vehicle_type_id":"4","last_reported":1702686903,"current_range_meters":24800,"station_id":"ce4bho92rcd13ifvqh3g","pricing_plan_id":"free"},{"bike_id":"223e55c9-9474-4c7f-8795-9c59b605bfd2","system_id":"levelo_inurba_marseille","lat":43.287154,"lon":5.399979,"is_reserved":false,"is_disabled":false,"rental_uris":{"android":"levelo://app?vid=223e55c9-9474-4c7f-8795-9c59b605bfd2","ios":"levelo://app?vid=223e55c9-9474-4c7f-8795-9c59b605bfd2"},"vehicle_type_id":"4","last_reported":1702686903,"current_range_meters":27600,"station_id":"ce4bho92rcd13ifvqh3g","pricing_plan_id":"free"},{"bike_id":"efd6297c-dc67-45fb-bf68-a159720eb087","system_id":"levelo_inurba_marseille","lat":43.279742,"lon":5.38744,"is_reserved":false,"is_disabled":false,"rental_uris":{"android":"levelo://app?vid=efd6297c-dc67-45fb-bf68-a159720eb087","ios":"levelo://app?vid=efd6297c-dc67-45fb-bf68-a159720eb087"},"vehicle_type_id":"4","last_reported":1702686903,"current_range_meters":9600,"station_id":"ce4bhg12rcd13ifvqf80","pricing_plan_id":"free"},{"bike_id":"9969d1c0-f9b5-4c67-8e39-4d19ebfb2020","system_id":"levelo_inurba_marseille","lat":43.279742,"lon":5.38744,"is_reserved":false,"is_disabled":false,"rental_uris":{"android":"levelo://app?vid=9969d1c0-f9b5-4c67-8e39-4d19ebfb2020","ios":"levelo://app?vid=9969d1c0-f9b5-4c67-8e39-4d19ebfb2020"},"vehicle_type_id":"4","last_reported":1702686903,"current_range_meters":24800,"station_id":"ce4bhg12rcd13ifvqf80","pricing_plan_id":"free"},{"bike_id":"70183bf2-6d67-4ae8-8c8a-2469df008683","system_id":"levelo_inurba_marseille","lat":43.279742,"lon":5.38744,"is_reserved":false,"is_disabled":false,"rental_uris":{"android":"levelo://app?vid=70183bf2-6d67-4ae8-8c8a-2469df008683","ios":"levelo://app?vid=70183bf2-6d67-4ae8-8c8a-2469df008683"},"vehicle_type_id":"4","last_reported":1702686903,"current_range_meters":17600,"station_id":"ce4bhg12rcd13ifvqf80","pricing_plan_id":"free"},{"bike_id":"b8e73cc1-7e9d-4398-9cd2-87a757769e80","system_id":"levelo_inurba_marseille","lat":43.325343,"lon":5.41428,"is_reserved":false,"is_disabled":false,"rental_uris":{"android":"levelo://app?vid=b8e73cc1-7e9d-4398-9cd2-87a757769e80","ios":"levelo://app?vid=b8e73cc1-7e9d-4398-9cd2-87a757769e80"},"vehicle_type_id":"4","last_reported":1702686903,"current_range_meters":11600,"station_id":"ce4bhq12rcd13ifvqhhg","pricing_plan_id":"free"},{"bike_id":"e893d083-1305-4087-b1e2-85456bd1e812","system_id":"levelo_inurba_marseille","lat":43.276157,"lon":5.361113,"is_reserved":false,"is_disabled":false,"rental_uris":{"android":"levelo://app?vid=e893d083-1305-4087-b1e2-85456bd1e812","ios":"levelo://app?vid=e893d083-1305-4087-b1e2-85456bd1e812"},"vehicle_type_id":"4","last_reported":1702686903,"current_range_meters":18000,"station_id":"ce4bgj92rcd13ifvqbe0","pricing_plan_id":"free"},{"bike_id":"38422a11-5311-4076-82a9-a4571befd8ba","system_id":"levelo_inurba_marseille","lat":43.280784,"lon":5.396622,"is_reserved":false,"is_disabled":false,"rental_uris":{"android":"levelo://app?vid=38422a11-5311-4076-82a9-a4571befd8ba","ios":"levelo://app?vid=38422a11-5311-4076-82a9-a4571befd8ba"},"vehicle_type_id":"4","last_reported":1702686903,"current_range_meters":22400,"station_id":"ce4bho12rcd13ifvqh2g","pricing_plan_id":"free"},{"bike_id":"60bbc476-e74c-400a-93d5-71ff320c465d","system_id":"levelo_inurba_marseille","lat":43.280784,"lon":5.396622,"is_reserved":false,"is_disabled":false,"rental_uris":{"android":"levelo://app?vid=60bbc476-e74c-400a-93d5-71ff320c465d","ios":"levelo://app?vid=60bbc476-e74c-400a-93d5-71ff320c465d"},"vehicle_type_id":"4","last_reported":1702686903,"current_range_meters":30400,"station_id":"ce4bho12rcd13ifvqh2g","pricing_plan_id":"free"},{"bike_id":"6e5354e9-808a-46aa-a367-f7473c5da546","system_id":"levelo_inurba_marseille","lat":43.278399,"lon":5.392139,"is_reserved":false,"is_disabled":false,"rental_uris":{"android":"levelo://app?vid=6e5354e9-808a-46aa-a367-f7473c5da546","ios":"levelo://app?vid=6e5354e9-808a-46aa-a367-f7473c5da546"},"vehicle_type_id":"4","last_reported":1702686903,"current_range_meters":5200,"station_id":"ce4bhjp2rcd13ifvqga0","pricing_plan_id":"free"},{"bike_id":"aefdb8d3-712e-405e-8c6b-2abb60bb3de8","system_id":"levelo_inurba_marseille","lat":43.278401,"lon":5.392152,"is_reserved":false,"is_disabled":false,"rental_uris":{"android":"levelo://app?vid=aefdb8d3-712e-405e-8c6b-2abb60bb3de8","ios":"levelo://app?vid=aefdb8d3-712e-405e-8c6b-2abb60bb3de8"},"vehicle_type_id":"4","last_reported":1702686903,"current_range_meters":27200,"station_id":"ce4bhjp2rcd13ifvqga0","pricing_plan_id":"free"},{"bike_id":"45f13ab0-f2c2-4e7e-900c-2df0628427b6","system_id":"levelo_inurba_marseille","lat":43.336134,"lon":5.410341,"is_reserved":false,"is_disabled":false,"rental_uris":{"android":"levelo://app?vid=45f13ab0-f2c2-4e7e-900c-2df0628427b6","ios":"levelo://app?vid=45f13ab0-f2c2-4e7e-900c-2df0628427b6"},"vehicle_type_id":"4","last_reported":1702686903,"current_range_meters":26000,"station_id":"ce4bhqh2rcd13ifvqhmg","pricing_plan_id":"free"},{"bike_id":"635370c2-e580-4ef9-8bcd-188723ab4b2d","system_id":"levelo_inurba_marseille","lat":43.276771,"lon":5.388799,"is_reserved":false,"is_disabled":false,"rental_uris":{"android":"levelo://app?vid=635370c2-e580-4ef9-8bcd-188723ab4b2d","ios":"levelo://app?vid=635370c2-e580-4ef9-8bcd-188723ab4b2d"},"vehicle_type_id":"4","last_reported":1702686903,"current_range_meters":15200,"station_id":"ce4bhi12rcd13ifvqfo0","pricing_plan_id":"free"},{"bike_id":"10eadedf-b2e9-4bb9-a1f0-77df69175439","system_id":"levelo_inurba_marseille","lat":43.284186,"lon":5.408338,"is_reserved":false,"is_disabled":false,"rental_uris":{"android":"levelo://app?vid=10eadedf-b2e9-4bb9-a1f0-77df69175439","ios":"levelo://app?vid=10eadedf-b2e9-4bb9-a1f0-77df69175439"},"vehicle_type_id":"4","last_reported":1702686903,"current_range_meters":14800,"station_id":"","pricing_plan_id":"free"},{"bike_id":"88d21734-a1ec-434c-836c-b0fde0b8c8e9","system_id":"levelo_inurba_marseille","lat":43.310785,"lon":5.424305,"is_reserved":false,"is_disabled":false,"rental_uris":{"android":"levelo://app?vid=88d21734-a1ec-434c-836c-b0fde0b8c8e9","ios":"levelo://app?vid=88d21734-a1ec-434c-836c-b0fde0b8c8e9"},"vehicle_type_id":"4","last_reported":1702686903,"current_range_meters":4400,"station_id":"ce4bhp92rcd13ifvqhag","pricing_plan_id":"free"},{"bike_id":"cdc69067-dad5-415d-b4f3-0a438e350196","system_id":"levelo_inurba_marseille","lat":43.317121,"lon":5.423936,"is_reserved":false,"is_disabled":false,"rental_uris":{"android":"levelo://app?vid=cdc69067-dad5-415d-b4f3-0a438e350196","ios":"levelo://app?vid=cdc69067-dad5-415d-b4f3-0a438e350196"},"vehicle_type_id":"4","last_reported":1702686903,"current_range_meters":28800,"station_id":"ce4bhp92rcd13ifvqhbg","pricing_plan_id":"free"},{"bike_id":"93a9a0b0-f09a-4679-973e-f3ebca0caf36","system_id":"levelo_inurba_marseille","lat":43.310785,"lon":5.424305,"is_reserved":false,"is_disabled":false,"rental_uris":{"android":"levelo://app?vid=93a9a0b0-f09a-4679-973e-f3ebca0caf36","ios":"levelo://app?vid=93a9a0b0-f09a-4679-973e-f3ebca0caf36"},"vehicle_type_id":"4","last_reported":1702686903,"current_range_meters":30400,"station_id":"ce4bhp92rcd13ifvqhag","pricing_plan_id":"free"},{"bike_id":"13b63d08-aaa3-4985-bf57-1f32727c58d1","system_id":"levelo_inurba_marseille","lat":43.310785,"lon":5.424305,"is_reserved":false,"is_disabled":false,"rental_uris":{"android":"levelo://app?vid=13b63d08-aaa3-4985-bf57-1f32727c58d1","ios":"levelo://app?vid=13b63d08-aaa3-4985-bf57-1f32727c58d1"},"vehicle_type_id":"4","last_reported":1702686903,"current_range_meters":28400,"station_id":"ce4bhp92rcd13ifvqhag","pricing_plan_id":"free"},{"bike_id":"3b0a7b39-9141-4534-a54c-a05386f1a680","system_id":"levelo_inurba_marseille","lat":43.340804,"lon":5.410219,"is_reserved":false,"is_disabled":false,"rental_uris":{"android":"levelo://app?vid=3b0a7b39-9141-4534-a54c-a05386f1a680","ios":"levelo://app?vid=3b0a7b39-9141-4534-a54c-a05386f1a680"},"vehicle_type_id":"4","last_reported":1702686903,"current_range_meters":14800,"station_id":"ce4bhqh2rcd13ifvqhlg","pricing_plan_id":"free"},{"bike_id":"9fd98958-12f3-4062-a784-cd245cbf37c6","system_id":"levelo_inurba_marseille","lat":43.340804,"lon":5.410219,"is_reserved":false,"is_disabled":false,"rental_uris":{"android":"levelo://app?vid=9fd98958-12f3-4062-a784-cd245cbf37c6","ios":"levelo://app?vid=9fd98958-12f3-4062-a784-cd245cbf37c6"},"vehicle_type_id":"4","last_reported":1702686903,"current_range_meters":31600,"station_id":"ce4bhqh2rcd13ifvqhlg","pricing_plan_id":"free"},{"bike_id":"3ca2c2d2-99b0-4aa6-a05d-e30f02e6a7fb","system_id":"levelo_inurba_marseille","lat":43.276092,"lon":5.395289,"is_reserved":false,"is_disabled":false,"rental_uris":{"android":"levelo://app?vid=3ca2c2d2-99b0-4aa6-a05d-e30f02e6a7fb","ios":"levelo://app?vid=3ca2c2d2-99b0-4aa6-a05d-e30f02e6a7fb"},"vehicle_type_id":"4","last_reported":1702686903,"current_range_meters":24400,"station_id":"","pricing_plan_id":"free"},{"bike_id":"3bb6a6e6-a723-4823-af6b-78e13f73c017","system_id":"levelo_inurba_marseille","lat":43.274099,"lon":5.394019,"is_reserved":false,"is_disabled":false,"rental_uris":{"android":"levelo://app?vid=3bb6a6e6-a723-4823-af6b-78e13f73c017","ios":"levelo://app?vid=3bb6a6e6-a723-4823-af6b-78e13f73c017"},"vehicle_type_id":"4","last_reported":1702686903,"current_range_meters":23600,"station_id":"ce4bhdp2rcd13ifvqf20","pricing_plan_id":"free"},{"bike_id":"549600fb-47b9-4312-8242-de53dbdf980c","system_id":"levelo_inurba_marseille","lat":43.30414,"lon":5.42539,"is_reserved":false,"is_disabled":false,"rental_uris":{"android":"levelo://app?vid=549600fb-47b9-4312-8242-de53dbdf980c","ios":"levelo://app?vid=549600fb-47b9-4312-8242-de53dbdf980c"},"vehicle_type_id":"4","last_reported":1702686903,"current_range_meters":9600,"station_id":"ce4bhoh2rcd13ifvqh6g","pricing_plan_id":"free"},{"bike_id":"a89d95c9-89b9-4ca6-bcd1-bb8857de2bcc","system_id":"levelo_inurba_marseille","lat":43.295523,"lon":5.422926,"is_reserved":false,"is_disabled":false,"rental_uris":{"android":"levelo://app?vid=a89d95c9-89b9-4ca6-bcd1-bb8857de2bcc","ios":"levelo://app?vid=a89d95c9-89b9-4ca6-bcd1-bb8857de2bcc"},"vehicle_type_id":"4","last_reported":1702686903,"current_range_meters":29600,"station_id":"ce4bhph2rcd13ifvqhdg","pricing_plan_id":"free"},{"bike_id":"de9feb39-3844-4206-aa16-9fe6fe1926e0","system_id":"levelo_inurba_marseille","lat":43.295455,"lon":5.422739,"is_reserved":false,"is_disabled":false,"rental_uris":{"android":"levelo://app?vid=de9feb39-3844-4206-aa16-9fe6fe1926e0","ios":"levelo://app?vid=de9feb39-3844-4206-aa16-9fe6fe1926e0"},"vehicle_type_id":"4","last_reported":1702686903,"current_range_meters":17600,"station_id":"ce4bhph2rcd13ifvqhdg","pricing_plan_id":"free"},{"bike_id":"36a8f8cc-9cad-42b2-9b53-a6c25bee6a1e","system_id":"levelo_inurba_marseille","lat":43.278128,"lon":5.407195,"is_reserved":false,"is_disabled":false,"rental_uris":{"android":"levelo://app?vid=36a8f8cc-9cad-42b2-9b53-a6c25bee6a1e","ios":"levelo://app?vid=36a8f8cc-9cad-42b2-9b53-a6c25bee6a1e"},"vehicle_type_id":"4","last_reported":1702686903,"current_range_meters":16000,"station_id":"ce4bhnh2rcd13ifvqgtg","pricing_plan_id":"free"},{"bike_id":"30f59ffe-e1fa-4ed8-a4e3-ce159c007c40","system_id":"levelo_inurba_marseille","lat":43.278128,"lon":5.407195,"is_reserved":false,"is_disabled":false,"rental_uris":{"android":"levelo://app?vid=30f59ffe-e1fa-4ed8-a4e3-ce159c007c40","ios":"levelo://app?vid=30f59ffe-e1fa-4ed8-a4e3-ce159c007c40"},"vehicle_type_id":"4","last_reported":1702686903,"current_range_meters":21600,"station_id":"ce4bhnh2rcd13ifvqgtg","pricing_plan_id":"free"},{"bike_id":"ce54373d-f121-48ba-b057-bf474070de42","system_id":"levelo_inurba_marseille","lat":43.27948,"lon":5.41044,"is_reserved":false,"is_disabled":false,"rental_uris":{"android":"levelo://app?vid=ce54373d-f121-48ba-b057-bf474070de42","ios":"levelo://app?vid=ce54373d-f121-48ba-b057-bf474070de42"},"vehicle_type_id":"4","last_reported":1702686903,"current_range_meters":4000,"station_id":"ce4bhnp2rcd13ifvqh0g","pricing_plan_id":"free"},{"bike_id":"99c8c69b-4200-43fe-a47c-cac18b0fb10b","system_id":"levelo_inurba_marseille","lat":43.269319,"lon":5.389397,"is_reserved":false,"is_disabled":false,"rental_uris":{"android":"levelo://app?vid=99c8c69b-4200-43fe-a47c-cac18b0fb10b","ios":"levelo://app?vid=99c8c69b-4200-43fe-a47c-cac18b0fb10b"},"vehicle_type_id":"4","last_reported":1702686903,"current_range_meters":15600,"station_id":"ce4bhhh2rcd13ifvqfl0","pricing_plan_id":"free"},{"bike_id":"db774753-4382-453e-a138-c32d538f9839","system_id":"levelo_inurba_marseille","lat":43.358652,"lon":5.356714,"is_reserved":false,"is_disabled":false,"rental_uris":{"android":"levelo://app?vid=db774753-4382-453e-a138-c32d538f9839","ios":"levelo://app?vid=db774753-4382-453e-a138-c32d538f9839"},"vehicle_type_id":"4","last_reported":1702686903,"current_range_meters":10400,"station_id":"","pricing_plan_id":"free"},{"bike_id":"321a5cbc-88c4-4ba0-af30-9a9563375d1a","system_id":"levelo_inurba_marseille","lat":43.265714,"lon":5.372891,"is_reserved":false,"is_disabled":false,"rental_uris":{"android":"levelo://app?vid=321a5cbc-88c4-4ba0-af30-9a9563375d1a","ios":"levelo://app?vid=321a5cbc-88c4-4ba0-af30-9a9563375d1a"},"vehicle_type_id":"4","last_reported":1702686903,"current_range_meters":31200,"station_id":"ce4bhg12rcd13ifvqf70","pricing_plan_id":"free"},{"bike_id":"9eeb4bd8-9399-4615-8241-69fb745cad0f","system_id":"levelo_inurba_marseille","lat":43.26681,"lon":5.382694,"is_reserved":false,"is_disabled":false,"rental_uris":{"android":"levelo://app?vid=9eeb4bd8-9399-4615-8241-69fb745cad0f","ios":"levelo://app?vid=9eeb4bd8-9399-4615-8241-69fb745cad0f"},"vehicle_type_id":"4","last_reported":1702686903,"current_range_meters":19600,"station_id":"ce4bhg92rcd13ifvqf90","pricing_plan_id":"free"},{"bike_id":"1ad16cbe-7518-49ea-9ef2-d1663652f953","system_id":"levelo_inurba_marseille","lat":43.27996,"lon":5.416624,"is_reserved":false,"is_disabled":false,"rental_uris":{"android":"levelo://app?vid=1ad16cbe-7518-49ea-9ef2-d1663652f953","ios":"levelo://app?vid=1ad16cbe-7518-49ea-9ef2-d1663652f953"},"vehicle_type_id":"4","last_reported":1702686903,"current_range_meters":19200,"station_id":"ce4bho12rcd13ifvqh1g","pricing_plan_id":"free"},{"bike_id":"95e9dd1f-f2f5-405d-b720-08fe860b3dcc","system_id":"levelo_inurba_marseille","lat":43.308051,"lon":5.43527,"is_reserved":false,"is_disabled":false,"rental_uris":{"android":"levelo://app?vid=95e9dd1f-f2f5-405d-b720-08fe860b3dcc","ios":"levelo://app?vid=95e9dd1f-f2f5-405d-b720-08fe860b3dcc"},"vehicle_type_id":"4","last_reported":1702686903,"current_range_meters":30000,"station_id":"ce4bhph2rcd13ifvqheg","pricing_plan_id":"free"},{"bike_id":"cacbc048-68a4-4518-b22f-d52f17ff4c98","system_id":"levelo_inurba_marseille","lat":43.308051,"lon":5.43527,"is_reserved":false,"is_disabled":false,"rental_uris":{"android":"levelo://app?vid=cacbc048-68a4-4518-b22f-d52f17ff4c98","ios":"levelo://app?vid=cacbc048-68a4-4518-b22f-d52f17ff4c98"},"vehicle_type_id":"4","last_reported":1702686903,"current_range_meters":29200,"station_id":"ce4bhph2rcd13ifvqheg","pricing_plan_id":"free"},{"bike_id":"55ca53a3-e131-46c7-b3e6-d5a4418e1df7","system_id":"levelo_inurba_marseille","lat":43.26572,"lon":5.39007,"is_reserved":false,"is_disabled":false,"rental_uris":{"android":"levelo://app?vid=55ca53a3-e131-46c7-b3e6-d5a4418e1df7","ios":"levelo://app?vid=55ca53a3-e131-46c7-b3e6-d5a4418e1df7"},"vehicle_type_id":"4","last_reported":1702686903,"current_range_meters":25600,"station_id":"ce4bhe12rcd13ifvqf30","pricing_plan_id":"free"},{"bike_id":"4dc0e6e3-8a35-452d-90f5-2c022ecd845c","system_id":"levelo_inurba_marseille","lat":43.261782,"lon":5.374515,"is_reserved":false,"is_disabled":false,"rental_uris":{"android":"levelo://app?vid=4dc0e6e3-8a35-452d-90f5-2c022ecd845c","ios":"levelo://app?vid=4dc0e6e3-8a35-452d-90f5-2c022ecd845c"},"vehicle_type_id":"4","last_reported":1702686903,"current_range_meters":26000,"station_id":"ce4bhgp2rcd13ifvqfc0","pricing_plan_id":"free"},{"bike_id":"1d3a6f7d-296e-413a-8b5b-3a7a158a21e1","system_id":"levelo_inurba_marseille","lat":43.317104,"lon":5.436818,"is_reserved":false,"is_disabled":false,"rental_uris":{"android":"levelo://app?vid=1d3a6f7d-296e-413a-8b5b-3a7a158a21e1","ios":"levelo://app?vid=1d3a6f7d-296e-413a-8b5b-3a7a158a21e1"},"vehicle_type_id":"4","last_reported":1702686903,"current_range_meters":28800,"station_id":"ce4bhp92rcd13ifvqhcg","pricing_plan_id":"free"},{"bike_id":"151ad32e-e8a8-4f27-83ce-9e7eab520933","system_id":"levelo_inurba_marseille","lat":43.303837,"lon":5.418724,"is_reserved":false,"is_disabled":false,"rental_uris":{"android":"levelo://app?vid=151ad32e-e8a8-4f27-83ce-9e7eab520933","ios":"levelo://app?vid=151ad32e-e8a8-4f27-83ce-9e7eab520933"},"vehicle_type_id":"4","last_reported":1702686903,"current_range_meters":26400,"station_id":"ce4bhop2rcd13ifvqh7g","pricing_plan_id":"free"},{"bike_id":"dd56b8c8-65e0-491e-8f20-9ee5b66ffaa9","system_id":"levelo_inurba_marseille","lat":43.298768,"lon":5.43643,"is_reserved":false,"is_disabled":false,"rental_uris":{"android":"levelo://app?vid=dd56b8c8-65e0-491e-8f20-9ee5b66ffaa9","ios":"levelo://app?vid=dd56b8c8-65e0-491e-8f20-9ee5b66ffaa9"},"vehicle_type_id":"4","last_reported":1702686903,"current_range_meters":11200,"station_id":"ce4bhpp2rcd13ifvqhfg","pricing_plan_id":"free"},{"bike_id":"c631178c-cd78-45a3-b946-94536a797b09","system_id":"levelo_inurba_marseille","lat":43.281548,"lon":5.42643,"is_reserved":false,"is_disabled":false,"rental_uris":{"android":"levelo://app?vid=c631178c-cd78-45a3-b946-94536a797b09","ios":"levelo://app?vid=c631178c-cd78-45a3-b946-94536a797b09"},"vehicle_type_id":"4","last_reported":1702686903,"current_range_meters":18000,"station_id":"ce4bhnh2rcd13ifvqgug","pricing_plan_id":"free"},{"bike_id":"03a07023-d32d-4a88-805e-e55c49553935","system_id":"levelo_inurba_marseille","lat":43.2607,"lon":5.393983,"is_reserved":false,"is_disabled":false,"rental_uris":{"android":"levelo://app?vid=03a07023-d32d-4a88-805e-e55c49553935","ios":"levelo://app?vid=03a07023-d32d-4a88-805e-e55c49553935"},"vehicle_type_id":"4","last_reported":1702686903,"current_range_meters":22800,"station_id":"ce4bhh92rcd13ifvqfj0","pricing_plan_id":"free"},{"bike_id":"f780e7f1-dd97-4a76-8618-34eb5be96a18","system_id":"levelo_inurba_marseille","lat":43.2607,"lon":5.393983,"is_reserved":false,"is_disabled":false,"rental_uris":{"android":"levelo://app?vid=f780e7f1-dd97-4a76-8618-34eb5be96a18","ios":"levelo://app?vid=f780e7f1-dd97-4a76-8618-34eb5be96a18"},"vehicle_type_id":"4","last_reported":1702686903,"current_range_meters":14000,"station_id":"ce4bhh92rcd13ifvqfj0","pricing_plan_id":"free"},{"bike_id":"cc5d76b0-a393-4a4c-baa6-a656fc269eb7","system_id":"levelo_inurba_marseille","lat":43.275028,"lon":5.424534,"is_reserved":false,"is_disabled":false,"rental_uris":{"android":"levelo://app?vid=cc5d76b0-a393-4a4c-baa6-a656fc269eb7","ios":"levelo://app?vid=cc5d76b0-a393-4a4c-baa6-a656fc269eb7"},"vehicle_type_id":"4","last_reported":1702686903,"current_range_meters":31200,"station_id":"ce4bhn92rcd13ifvqgrg","pricing_plan_id":"free"},{"bike_id":"b837a5a6-d272-4d04-bbdf-f86076fa33ca","system_id":"levelo_inurba_marseille","lat":43.275028,"lon":5.424534,"is_reserved":false,"is_disabled":false,"rental_uris":{"android":"levelo://app?vid=b837a5a6-d272-4d04-bbdf-f86076fa33ca","ios":"levelo://app?vid=b837a5a6-d272-4d04-bbdf-f86076fa33ca"},"vehicle_type_id":"4","last_reported":1702686903,"current_range_meters":19600,"station_id":"ce4bhn92rcd13ifvqgrg","pricing_plan_id":"free"},{"bike_id":"b76e4b50-f6f0-431f-a6f8-b141c06663a4","system_id":"levelo_inurba_marseille","lat":43.275028,"lon":5.424534,"is_reserved":false,"is_disabled":false,"rental_uris":{"android":"levelo://app?vid=b76e4b50-f6f0-431f-a6f8-b141c06663a4","ios":"levelo://app?vid=b76e4b50-f6f0-431f-a6f8-b141c06663a4"},"vehicle_type_id":"4","last_reported":1702686903,"current_range_meters":16400,"station_id":"ce4bhn92rcd13ifvqgrg","pricing_plan_id":"free"},{"bike_id":"2ecae49b-9e6e-4af1-b744-4b6eeb8f1ceb","system_id":"levelo_inurba_marseille","lat":43.258224,"lon":5.394369,"is_reserved":false,"is_disabled":false,"rental_uris":{"android":"levelo://app?vid=2ecae49b-9e6e-4af1-b744-4b6eeb8f1ceb","ios":"levelo://app?vid=2ecae49b-9e6e-4af1-b744-4b6eeb8f1ceb"},"vehicle_type_id":"4","last_reported":1702686903,"current_range_meters":16000,"station_id":"ce4bhip2rcd13ifvqft0","pricing_plan_id":"free"},{"bike_id":"4a436564-a1e8-41f0-94ce-946bc6833290","system_id":"levelo_inurba_marseille","lat":43.258224,"lon":5.394369,"is_reserved":false,"is_disabled":false,"rental_uris":{"android":"levelo://app?vid=4a436564-a1e8-41f0-94ce-946bc6833290","ios":"levelo://app?vid=4a436564-a1e8-41f0-94ce-946bc6833290"},"vehicle_type_id":"4","last_reported":1702686903,"current_range_meters":26800,"station_id":"ce4bhip2rcd13ifvqft0","pricing_plan_id":"free"},{"bike_id":"152f0b5f-2e6b-49d7-9e6c-7e17f0f4350b","system_id":"levelo_inurba_marseille","lat":43.270721,"lon":5.422764,"is_reserved":false,"is_disabled":false,"rental_uris":{"android":"levelo://app?vid=152f0b5f-2e6b-49d7-9e6c-7e17f0f4350b","ios":"levelo://app?vid=152f0b5f-2e6b-49d7-9e6c-7e17f0f4350b"},"vehicle_type_id":"4","last_reported":1702686903,"current_range_meters":19600,"station_id":"ce4bhk92rcd13ifvqgb0","pricing_plan_id":"free"},{"bike_id":"4edb9643-d51d-4d78-bab9-4a9b45a5f0c4","system_id":"levelo_inurba_marseille","lat":43.258658,"lon":5.398935,"is_reserved":false,"is_disabled":false,"rental_uris":{"android":"levelo://app?vid=4edb9643-d51d-4d78-bab9-4a9b45a5f0c4","ios":"levelo://app?vid=4edb9643-d51d-4d78-bab9-4a9b45a5f0c4"},"vehicle_type_id":"4","last_reported":1702686903,"current_range_meters":28800,"station_id":"ce4bhl92rcd13ifvqghg","pricing_plan_id":"free"},{"bike_id":"93756ee6-0904-4bba-bc09-d20e99b60c06","system_id":"levelo_inurba_marseille","lat":43.258658,"lon":5.398935,"is_reserved":false,"is_disabled":false,"rental_uris":{"android":"levelo://app?vid=93756ee6-0904-4bba-bc09-d20e99b60c06","ios":"levelo://app?vid=93756ee6-0904-4bba-bc09-d20e99b60c06"},"vehicle_type_id":"4","last_reported":1702686903,"current_range_meters":31200,"station_id":"ce4bhl92rcd13ifvqghg","pricing_plan_id":"free"},{"bike_id":"e44f9abc-0e7a-4a73-99f3-c036d5df87c5","system_id":"levelo_inurba_marseille","lat":43.257079,"lon":5.411051,"is_reserved":false,"is_disabled":false,"rental_uris":{"android":"levelo://app?vid=e44f9abc-0e7a-4a73-99f3-c036d5df87c5","ios":"levelo://app?vid=e44f9abc-0e7a-4a73-99f3-c036d5df87c5"},"vehicle_type_id":"4","last_reported":1702686903,"current_range_meters":31200,"station_id":"ce4bhkp2rcd13ifvqgd0","pricing_plan_id":"free"},{"bike_id":"cc3b35b7-7a21-4624-a497-ba5f45dc96ec","system_id":"levelo_inurba_marseille","lat":43.257079,"lon":5.411051,"is_reserved":false,"is_disabled":false,"rental_uris":{"android":"levelo://app?vid=cc3b35b7-7a21-4624-a497-ba5f45dc96ec","ios":"levelo://app?vid=cc3b35b7-7a21-4624-a497-ba5f45dc96ec"},"vehicle_type_id":"4","last_reported":1702686903,"current_range_meters":20800,"station_id":"ce4bhkp2rcd13ifvqgd0","pricing_plan_id":"free"},{"bike_id":"9f1f4332-ae21-474b-8c89-1d4dada05d04","system_id":"levelo_inurba_marseille","lat":43.257079,"lon":5.411051,"is_reserved":false,"is_disabled":false,"rental_uris":{"android":"levelo://app?vid=9f1f4332-ae21-474b-8c89-1d4dada05d04","ios":"levelo://app?vid=9f1f4332-ae21-474b-8c89-1d4dada05d04"},"vehicle_type_id":"4","last_reported":1702686903,"current_range_meters":24000,"station_id":"ce4bhkp2rcd13ifvqgd0","pricing_plan_id":"free"},{"bike_id":"1be11401-d02f-40de-a6f1-64f603e94150","system_id":"levelo_inurba_marseille","lat":43.250009,"lon":5.389195,"is_reserved":false,"is_disabled":false,"rental_uris":{"android":"levelo://app?vid=1be11401-d02f-40de-a6f1-64f603e94150","ios":"levelo://app?vid=1be11401-d02f-40de-a6f1-64f603e94150"},"vehicle_type_id":"4","last_reported":1702686903,"current_range_meters":25200,"station_id":"ce4bhgp2rcd13ifvqfd0","pricing_plan_id":"free"},{"bike_id":"11bfcabd-6948-4ada-bd3b-836bb199af62","system_id":"levelo_inurba_marseille","lat":43.250966,"lon":5.395186,"is_reserved":false,"is_disabled":false,"rental_uris":{"android":"levelo://app?vid=11bfcabd-6948-4ada-bd3b-836bb199af62","ios":"levelo://app?vid=11bfcabd-6948-4ada-bd3b-836bb199af62"},"vehicle_type_id":"4","last_reported":1702686903,"current_range_meters":29600,"station_id":"ce4bhm12rcd13ifvqgkg","pricing_plan_id":"free"},{"bike_id":"a561d9fb-0cc1-4f8b-9641-000a3002f040","system_id":"levelo_inurba_marseille","lat":43.250966,"lon":5.395186,"is_reserved":false,"is_disabled":false,"rental_uris":{"android":"levelo://app?vid=a561d9fb-0cc1-4f8b-9641-000a3002f040","ios":"levelo://app?vid=a561d9fb-0cc1-4f8b-9641-000a3002f040"},"vehicle_type_id":"4","last_reported":1702686903,"current_range_meters":29200,"station_id":"ce4bhm12rcd13ifvqgkg","pricing_plan_id":"free"},{"bike_id":"faee19c0-a281-4f9c-8e45-fa3bdd321875","system_id":"levelo_inurba_marseille","lat":43.250966,"lon":5.395186,"is_reserved":false,"is_disabled":false,"rental_uris":{"android":"levelo://app?vid=faee19c0-a281-4f9c-8e45-fa3bdd321875","ios":"levelo://app?vid=faee19c0-a281-4f9c-8e45-fa3bdd321875"},"vehicle_type_id":"4","last_reported":1702686903,"current_range_meters":23600,"station_id":"ce4bhm12rcd13ifvqgkg","pricing_plan_id":"free"},{"bike_id":"47342682-b661-45ff-9cb7-ccc60e014ee9","system_id":"levelo_inurba_marseille","lat":43.25102,"lon":5.403214,"is_reserved":false,"is_disabled":false,"rental_uris":{"android":"levelo://app?vid=47342682-b661-45ff-9cb7-ccc60e014ee9","ios":"levelo://app?vid=47342682-b661-45ff-9cb7-ccc60e014ee9"},"vehicle_type_id":"4","last_reported":1702686903,"current_range_meters":26800,"station_id":"ce4bhlh2rcd13ifvqgig","pricing_plan_id":"free"},{"bike_id":"9d81aa0b-522e-4121-a8b5-fb209dd41caf","system_id":"levelo_inurba_marseille","lat":43.25102,"lon":5.403214,"is_reserved":false,"is_disabled":false,"rental_uris":{"android":"levelo://app?vid=9d81aa0b-522e-4121-a8b5-fb209dd41caf","ios":"levelo://app?vid=9d81aa0b-522e-4121-a8b5-fb209dd41caf"},"vehicle_type_id":"4","last_reported":1702686903,"current_range_meters":19600,"station_id":"ce4bhlh2rcd13ifvqgig","pricing_plan_id":"free"},{"bike_id":"4da428bd-2cc0-45e2-8a56-e4849da91575","system_id":"levelo_inurba_marseille","lat":43.25102,"lon":5.403214,"is_reserved":false,"is_disabled":false,"rental_uris":{"android":"levelo://app?vid=4da428bd-2cc0-45e2-8a56-e4849da91575","ios":"levelo://app?vid=4da428bd-2cc0-45e2-8a56-e4849da91575"},"vehicle_type_id":"4","last_reported":1702686903,"current_range_meters":16400,"station_id":"ce4bhlh2rcd13ifvqgig","pricing_plan_id":"free"},{"bike_id":"88b789c3-d8e2-41ca-9041-297fd298d5c6","system_id":"levelo_inurba_marseille","lat":43.246467,"lon":5.388984,"is_reserved":false,"is_disabled":false,"rental_uris":{"android":"levelo://app?vid=88b789c3-d8e2-41ca-9041-297fd298d5c6","ios":"levelo://app?vid=88b789c3-d8e2-41ca-9041-297fd298d5c6"},"vehicle_type_id":"4","last_reported":1702686903,"current_range_meters":10000,"station_id":"ce4bhg12rcd13ifvqf60","pricing_plan_id":"free"},{"bike_id":"a8848b8b-995b-43e6-a068-03d2ec054c23","system_id":"levelo_inurba_marseille","lat":43.246467,"lon":5.388984,"is_reserved":false,"is_disabled":false,"rental_uris":{"android":"levelo://app?vid=a8848b8b-995b-43e6-a068-03d2ec054c23","ios":"levelo://app?vid=a8848b8b-995b-43e6-a068-03d2ec054c23"},"vehicle_type_id":"4","last_reported":1702686903,"current_range_meters":20800,"station_id":"ce4bhg12rcd13ifvqf60","pricing_plan_id":"free"},{"bike_id":"e9e27456-3f97-4c18-83bc-8f4de754de9d","system_id":"levelo_inurba_marseille","lat":43.245581,"lon":5.395069,"is_reserved":false,"is_disabled":false,"rental_uris":{"android":"levelo://app?vid=e9e27456-3f97-4c18-83bc-8f4de754de9d","ios":"levelo://app?vid=e9e27456-3f97-4c18-83bc-8f4de754de9d"},"vehicle_type_id":"4","last_reported":1702686903,"current_range_meters":26000,"station_id":"ce4bhlp2rcd13ifvqgjg","pricing_plan_id":"free"},{"bike_id":"2913b0e3-c44c-49f1-ba84-d9d46d3f68b0","system_id":"levelo_inurba_marseille","lat":43.24864,"lon":5.40997,"is_reserved":false,"is_disabled":false,"rental_uris":{"android":"levelo://app?vid=2913b0e3-c44c-49f1-ba84-d9d46d3f68b0","ios":"levelo://app?vid=2913b0e3-c44c-49f1-ba84-d9d46d3f68b0"},"vehicle_type_id":"4","last_reported":1702686903,"current_range_meters":21200,"station_id":"","pricing_plan_id":"free"},{"bike_id":"7953dcef-21fd-47ea-9971-82f9a737f8d8","system_id":"levelo_inurba_marseille","lat":43.240623,"lon":5.377642,"is_reserved":false,"is_disabled":false,"rental_uris":{"android":"levelo://app?vid=7953dcef-21fd-47ea-9971-82f9a737f8d8","ios":"levelo://app?vid=7953dcef-21fd-47ea-9971-82f9a737f8d8"},"vehicle_type_id":"4","last_reported":1702686903,"current_range_meters":22400,"station_id":"ce4bhnp2rcd13ifvqgvg","pricing_plan_id":"free"},{"bike_id":"74c5eab8-43c1-4a16-9971-251d84a7ba87","system_id":"levelo_inurba_marseille","lat":43.239588,"lon":5.366238,"is_reserved":false,"is_disabled":false,"rental_uris":{"android":"levelo://app?vid=74c5eab8-43c1-4a16-9971-251d84a7ba87","ios":"levelo://app?vid=74c5eab8-43c1-4a16-9971-251d84a7ba87"},"vehicle_type_id":"4","last_reported":1702686903,"current_range_meters":13600,"station_id":"ce4bhi12rcd13ifvqfp0","pricing_plan_id":"free"},{"bike_id":"201807d4-ffeb-4dde-a108-f4d00d855c98","system_id":"levelo_inurba_marseille","lat":43.241782,"lon":5.397261,"is_reserved":false,"is_disabled":false,"rental_uris":{"android":"levelo://app?vid=201807d4-ffeb-4dde-a108-f4d00d855c98","ios":"levelo://app?vid=201807d4-ffeb-4dde-a108-f4d00d855c98"},"vehicle_type_id":"4","last_reported":1702686903,"current_range_meters":21200,"station_id":"ce4bhn12rcd13ifvqgpg","pricing_plan_id":"free"},{"bike_id":"547672b1-18af-4711-b9a3-86e73cab70b4","system_id":"levelo_inurba_marseille","lat":43.231919,"lon":5.355532,"is_reserved":false,"is_disabled":false,"rental_uris":{"android":"levelo://app?vid=547672b1-18af-4711-b9a3-86e73cab70b4","ios":"levelo://app?vid=547672b1-18af-4711-b9a3-86e73cab70b4"},"vehicle_type_id":"4","last_reported":1702686903,"current_range_meters":18800,"station_id":"ce4bhu92rcd13ifvqi70","pricing_plan_id":"free"},{"bike_id":"a6ab5f0e-f0ee-41be-b237-17726a43f065","system_id":"levelo_inurba_marseille","lat":43.231919,"lon":5.355532,"is_reserved":false,"is_disabled":false,"rental_uris":{"android":"levelo://app?vid=a6ab5f0e-f0ee-41be-b237-17726a43f065","ios":"levelo://app?vid=a6ab5f0e-f0ee-41be-b237-17726a43f065"},"vehicle_type_id":"4","last_reported":1702686903,"current_range_meters":6000,"station_id":"ce4bhu92rcd13ifvqi70","pricing_plan_id":"free"},{"bike_id":"185da70e-7a95-41eb-8b73-66c95513e7d7","system_id":"levelo_inurba_marseille","lat":43.231919,"lon":5.355532,"is_reserved":false,"is_disabled":false,"rental_uris":{"android":"levelo://app?vid=185da70e-7a95-41eb-8b73-66c95513e7d7","ios":"levelo://app?vid=185da70e-7a95-41eb-8b73-66c95513e7d7"},"vehicle_type_id":"4","last_reported":1702686903,"current_range_meters":18800,"station_id":"ce4bhu92rcd13ifvqi70","pricing_plan_id":"free"},{"bike_id":"c3660b97-b6c7-4440-95e2-3c9c54b27651","system_id":"levelo_inurba_marseille","lat":43.231919,"lon":5.355532,"is_reserved":false,"is_disabled":false,"rental_uris":{"android":"levelo://app?vid=c3660b97-b6c7-4440-95e2-3c9c54b27651","ios":"levelo://app?vid=c3660b97-b6c7-4440-95e2-3c9c54b27651"},"vehicle_type_id":"4","last_reported":1702686903,"current_range_meters":12400,"station_id":"ce4bhu92rcd13ifvqi70","pricing_plan_id":"free"},{"bike_id":"dcafd6c3-a7a0-4b95-a6fe-4fe6ebedefdc","system_id":"levelo_inurba_marseille","lat":43.231919,"lon":5.355532,"is_reserved":false,"is_disabled":false,"rental_uris":{"android":"levelo://app?vid=dcafd6c3-a7a0-4b95-a6fe-4fe6ebedefdc","ios":"levelo://app?vid=dcafd6c3-a7a0-4b95-a6fe-4fe6ebedefdc"},"vehicle_type_id":"4","last_reported":1702686903,"current_range_meters":20000,"station_id":"ce4bhu92rcd13ifvqi70","pricing_plan_id":"free"},{"bike_id":"bad9b33d-de7d-4c7c-82d1-be01fc455f93","system_id":"levelo_inurba_marseille","lat":43.23192,"lon":5.35543,"is_reserved":false,"is_disabled":false,"rental_uris":{"android":"levelo://app?vid=bad9b33d-de7d-4c7c-82d1-be01fc455f93","ios":"levelo://app?vid=bad9b33d-de7d-4c7c-82d1-be01fc455f93"},"vehicle_type_id":"4","last_reported":1702686903,"current_range_meters":25200,"station_id":"ce4bhu92rcd13ifvqi70","pricing_plan_id":"free"},{"bike_id":"e2effc20-8600-4cb3-88e5-e93a2f872714","system_id":"levelo_inurba_marseille","lat":43.23191,"lon":5.3555,"is_reserved":false,"is_disabled":false,"rental_uris":{"android":"levelo://app?vid=e2effc20-8600-4cb3-88e5-e93a2f872714","ios":"levelo://app?vid=e2effc20-8600-4cb3-88e5-e93a2f872714"},"vehicle_type_id":"4","last_reported":1702686903,"current_range_meters":7200,"station_id":"ce4bhu92rcd13ifvqi70","pricing_plan_id":"free"},{"bike_id":"bb21ca5a-cb13-451e-943b-2dfa4a3b7fbc","system_id":"levelo_inurba_marseille","lat":43.231919,"lon":5.355532,"is_reserved":false,"is_disabled":false,"rental_uris":{"android":"levelo://app?vid=bb21ca5a-cb13-451e-943b-2dfa4a3b7fbc","ios":"levelo://app?vid=bb21ca5a-cb13-451e-943b-2dfa4a3b7fbc"},"vehicle_type_id":"4","last_reported":1702686903,"current_range_meters":31200,"station_id":"ce4bhu92rcd13ifvqi70","pricing_plan_id":"free"},{"bike_id":"600bdeb8-ea2a-4d1c-a6da-f7a255388a48","system_id":"levelo_inurba_marseille","lat":43.231919,"lon":5.355532,"is_reserved":false,"is_disabled":false,"rental_uris":{"android":"levelo://app?vid=600bdeb8-ea2a-4d1c-a6da-f7a255388a48","ios":"levelo://app?vid=600bdeb8-ea2a-4d1c-a6da-f7a255388a48"},"vehicle_type_id":"4","last_reported":1702686903,"current_range_meters":13200,"station_id":"ce4bhu92rcd13ifvqi70","pricing_plan_id":"free"},{"bike_id":"4bbb9689-2e2d-4bda-9d3c-7b90daddfa8a","system_id":"levelo_inurba_marseille","lat":43.231793,"lon":5.400044,"is_reserved":false,"is_disabled":false,"rental_uris":{"android":"levelo://app?vid=4bbb9689-2e2d-4bda-9d3c-7b90daddfa8a","ios":"levelo://app?vid=4bbb9689-2e2d-4bda-9d3c-7b90daddfa8a"},