{"last_updated":1734840662,"ttl":60,"version":"2.2","data":{"bikes":[{"bike_id":"8dfbf6ba-baab-4e6f-9062-13839afa469f","system_id":"levelo_inurba_marseille","lat":43.29046,"lon":5.35924,"is_reserved":false,"is_disabled":false,"rental_uris":{"android":"levelo://app?vid=8dfbf6ba-baab-4e6f-9062-13839afa469f","ios":"levelo://app?vid=8dfbf6ba-baab-4e6f-9062-13839afa469f"},"vehicle_type_id":"4","last_reported":1734840663,"current_range_meters":38800,"station_id":"ce4bha92rcd13ifvqeg0","pricing_plan_id":"cebpf4jnsgd1na2vs0mg"},{"bike_id":"7b91199b-fe5d-4532-8f66-158262f8ad71","system_id":"levelo_inurba_marseille","lat":43.25115,"lon":5.40322,"is_reserved":false,"is_disabled":false,"rental_uris":{"android":"levelo://app?vid=7b91199b-fe5d-4532-8f66-158262f8ad71","ios":"levelo://app?vid=7b91199b-fe5d-4532-8f66-158262f8ad71"},"vehicle_type_id":"4","last_reported":1734840663,"current_range_meters":20400,"station_id":"ce4bhlh2rcd13ifvqgig","pricing_plan_id":"cebpf4jnsgd1na2vs0mg"},{"bike_id":"f038ccf3-6a2e-4d35-b3d2-17011d1754e4","system_id":"levelo_inurba_marseille","lat":43.29039,"lon":5.35923,"is_reserved":false,"is_disabled":false,"rental_uris":{"android":"levelo://app?vid=f038ccf3-6a2e-4d35-b3d2-17011d1754e4","ios":"levelo://app?vid=f038ccf3-6a2e-4d35-b3d2-17011d1754e4"},"vehicle_type_id":"4","last_reported":1734840663,"current_range_meters":24800,"station_id":"ce4bha92rcd13ifvqeg0","pricing_plan_id":"cebpf4jnsgd1na2vs0mg"},{"bike_id":"b5251cd0-66bc-4e10-9cd1-311b5de694fa","system_id":"levelo_inurba_marseille","lat":43.27618,"lon":5.36113,"is_reserved":false,"is_disabled":false,"rental_uris":{"android":"levelo://app?vid=b5251cd0-66bc-4e10-9cd1-311b5de694fa","ios":"levelo://app?vid=b5251cd0-66bc-4e10-9cd1-311b5de694fa"},"vehicle_type_id":"4","last_reported":1734840663,"current_range_meters":22800,"station_id":"ce4bgj92rcd13ifvqbe0","pricing_plan_id":"cebpf4jnsgd1na2vs0mg"},{"bike_id":"814b0d47-bcbd-4037-a49d-d16db4970072","system_id":"levelo_inurba_marseille","lat":43.257169,"lon":5.411092,"is_reserved":false,"is_disabled":true,"rental_uris":{"android":"levelo://app?vid=814b0d47-bcbd-4037-a49d-d16db4970072","ios":"levelo://app?vid=814b0d47-bcbd-4037-a49d-d16db4970072"},"vehicle_type_id":"4","last_reported":1734840663,"current_range_meters":1600,"station_id":"ce4bhkp2rcd13ifvqgd0","pricing_plan_id":"cebpf4jnsgd1na2vs0mg"},{"bike_id":"71cfa0e0-566a-40de-83a7-caa080ad214e","system_id":"levelo_inurba_marseille","lat":43.32332,"lon":5.40636,"is_reserved":false,"is_disabled":false,"rental_uris":{"android":"levelo://app?vid=71cfa0e0-566a-40de-83a7-caa080ad214e","ios":"levelo://app?vid=71cfa0e0-566a-40de-83a7-caa080ad214e"},"vehicle_type_id":"4","last_reported":1734840663,"current_range_meters":24800,"station_id":"ce4bhq92rcd13ifvqhjg","pricing_plan_id":"cebpf4jnsgd1na2vs0mg"},{"bike_id":"4fefd9e7-e6da-4351-8e7f-5a04a64ef610","system_id":"levelo_inurba_marseille","lat":43.30859,"lon":5.37232,"is_reserved":false,"is_disabled":false,"rental_uris":{"android":"levelo://app?vid=4fefd9e7-e6da-4351-8e7f-5a04a64ef610","ios":"levelo://app?vid=4fefd9e7-e6da-4351-8e7f-5a04a64ef610"},"vehicle_type_id":"4","last_reported":1734840663,"current_range_meters":28400,"station_id":"ce4bguh2rcd13ifvqckg","pricing_plan_id":"cebpf4jnsgd1na2vs0mg"},{"bike_id":"45a4d3e1-86b8-4a15-b388-438649b9ec08","system_id":"levelo_inurba_marseille","lat":43.32341,"lon":5.40615,"is_reserved":false,"is_disabled":false,"rental_uris":{"android":"levelo://app?vid=45a4d3e1-86b8-4a15-b388-438649b9ec08","ios":"levelo://app?vid=45a4d3e1-86b8-4a15-b388-438649b9ec08"},"vehicle_type_id":"4","last_reported":1734840663,"current_range_meters":39200,"station_id":"ce4bhq92rcd13ifvqhjg","pricing_plan_id":"cebpf4jnsgd1na2vs0mg"},{"bike_id":"551defb6-3009-48a1-86db-3458fbec4adb","system_id":"levelo_inurba_marseille","lat":43.30436,"lon":5.38884,"is_reserved":false,"is_disabled":false,"rental_uris":{"android":"levelo://app?vid=551defb6-3009-48a1-86db-3458fbec4adb","ios":"levelo://app?vid=551defb6-3009-48a1-86db-3458fbec4adb"},"vehicle_type_id":"4","last_reported":1734840663,"current_range_meters":38800,"station_id":"ce4bgk12rcd13ifvqbi0","pricing_plan_id":"cebpf4jnsgd1na2vs0mg"},{"bike_id":"8c01f501-a711-4f5f-bc3f-d096c0f455c8","system_id":"levelo_inurba_marseille","lat":43.284589,"lon":5.358829,"is_reserved":false,"is_disabled":false,"rental_uris":{"android":"levelo://app?vid=8c01f501-a711-4f5f-bc3f-d096c0f455c8","ios":"levelo://app?vid=8c01f501-a711-4f5f-bc3f-d096c0f455c8"},"vehicle_type_id":"4","last_reported":1734840663,"current_range_meters":37600,"station_id":"ce4bhah2rcd13ifvqei0","pricing_plan_id":"cebpf4jnsgd1na2vs0mg"},{"bike_id":"090175b4-99e1-4171-b6b5-5dfdca4e425d","system_id":"levelo_inurba_marseille","lat":43.25096,"lon":5.40311,"is_reserved":false,"is_disabled":false,"rental_uris":{"android":"levelo://app?vid=090175b4-99e1-4171-b6b5-5dfdca4e425d","ios":"levelo://app?vid=090175b4-99e1-4171-b6b5-5dfdca4e425d"},"vehicle_type_id":"4","last_reported":1734840663,"current_range_meters":8400,"station_id":"ce4bhlh2rcd13ifvqgig","pricing_plan_id":"cebpf4jnsgd1na2vs0mg"},{"bike_id":"96f67906-c94f-4a78-ae6e-fdff28a17019","system_id":"levelo_inurba_marseille","lat":43.337444,"lon":5.374475,"is_reserved":false,"is_disabled":false,"rental_uris":{"android":"levelo://app?vid=96f67906-c94f-4a78-ae6e-fdff28a17019","ios":"levelo://app?vid=96f67906-c94f-4a78-ae6e-fdff28a17019"},"vehicle_type_id":"4","last_reported":1734840663,"current_range_meters":35600,"station_id":"","pricing_plan_id":"cebpf4jnsgd1na2vs0mg"},{"bike_id":"4ae04926-163e-4ffb-be62-88da4a5836ca","system_id":"levelo_inurba_marseille","lat":43.29215,"lon":5.3608,"is_reserved":false,"is_disabled":false,"rental_uris":{"android":"levelo://app?vid=4ae04926-163e-4ffb-be62-88da4a5836ca","ios":"levelo://app?vid=4ae04926-163e-4ffb-be62-88da4a5836ca"},"vehicle_type_id":"4","last_reported":1734840663,"current_range_meters":20000,"station_id":"ce4bhbh2rcd13ifvqeqg","pricing_plan_id":"cebpf4jnsgd1na2vs0mg"},{"bike_id":"b67aee3a-5f01-4431-b78e-70bd9a2e1449","system_id":"levelo_inurba_marseille","lat":43.29891,"lon":5.39731,"is_reserved":false,"is_disabled":false,"rental_uris":{"android":"levelo://app?vid=b67aee3a-5f01-4431-b78e-70bd9a2e1449","ios":"levelo://app?vid=b67aee3a-5f01-4431-b78e-70bd9a2e1449"},"vehicle_type_id":"4","last_reported":1734840663,"current_range_meters":28400,"station_id":"ce4bh0h2rcd13ifvqd50","pricing_plan_id":"cebpf4jnsgd1na2vs0mg"},{"bike_id":"fc5d7251-70be-4aee-93e7-9804b58d01b4","system_id":"levelo_inurba_marseille","lat":43.292505,"lon":5.40913,"is_reserved":false,"is_disabled":false,"rental_uris":{"android":"levelo://app?vid=fc5d7251-70be-4aee-93e7-9804b58d01b4","ios":"levelo://app?vid=fc5d7251-70be-4aee-93e7-9804b58d01b4"},"vehicle_type_id":"4","last_reported":1734840663,"current_range_meters":38000,"station_id":"ce4bh192rcd13ifvqdc0","pricing_plan_id":"cebpf4jnsgd1na2vs0mg"},{"bike_id":"7fecf7cd-57c8-4918-98c5-481fc257cd30","system_id":"levelo_inurba_marseille","lat":43.307909,"lon":5.376522,"is_reserved":false,"is_disabled":false,"rental_uris":{"android":"levelo://app?vid=7fecf7cd-57c8-4918-98c5-481fc257cd30","ios":"levelo://app?vid=7fecf7cd-57c8-4918-98c5-481fc257cd30"},"vehicle_type_id":"4","last_reported":1734840663,"current_range_meters":23200,"station_id":"ce4bgv92rcd13ifvqcq0","pricing_plan_id":"cebpf4jnsgd1na2vs0mg"},{"bike_id":"b27cd410-1a10-4c2d-9496-484cc8899826","system_id":"levelo_inurba_marseille","lat":43.246899,"lon":5.381461,"is_reserved":false,"is_disabled":false,"rental_uris":{"android":"levelo://app?vid=b27cd410-1a10-4c2d-9496-484cc8899826","ios":"levelo://app?vid=b27cd410-1a10-4c2d-9496-484cc8899826"},"vehicle_type_id":"4","last_reported":1734840663,"current_range_meters":38800,"station_id":"ce4bhih2rcd13ifvqfr0","pricing_plan_id":"cebpf4jnsgd1na2vs0mg"},{"bike_id":"5481ebd9-b3a3-4db6-ba37-c92c821046b1","system_id":"levelo_inurba_marseille","lat":43.27615,"lon":5.36114,"is_reserved":false,"is_disabled":false,"rental_uris":{"android":"levelo://app?vid=5481ebd9-b3a3-4db6-ba37-c92c821046b1","ios":"levelo://app?vid=5481ebd9-b3a3-4db6-ba37-c92c821046b1"},"vehicle_type_id":"4","last_reported":1734840663,"current_range_meters":38800,"station_id":"ce4bgj92rcd13ifvqbe0","pricing_plan_id":"cebpf4jnsgd1na2vs0mg"},{"bike_id":"2735ba65-e403-4b1b-ad3d-4f239e15601a","system_id":"levelo_inurba_marseille","lat":43.29279,"lon":5.40114,"is_reserved":false,"is_disabled":false,"rental_uris":{"android":"levelo://app?vid=2735ba65-e403-4b1b-ad3d-4f239e15601a","ios":"levelo://app?vid=2735ba65-e403-4b1b-ad3d-4f239e15601a"},"vehicle_type_id":"4","last_reported":1734840663,"current_range_meters":30400,"station_id":"ce4bh312rcd13ifvqdk0","pricing_plan_id":"cebpf4jnsgd1na2vs0mg"},{"bike_id":"ed6b9481-9ab5-4afc-9b3a-e99afbac48fb","system_id":"levelo_inurba_marseille","lat":43.27063,"lon":5.42273,"is_reserved":false,"is_disabled":false,"rental_uris":{"android":"levelo://app?vid=ed6b9481-9ab5-4afc-9b3a-e99afbac48fb","ios":"levelo://app?vid=ed6b9481-9ab5-4afc-9b3a-e99afbac48fb"},"vehicle_type_id":"4","last_reported":1734840663,"current_range_meters":37600,"station_id":"ce4bhk92rcd13ifvqgb0","pricing_plan_id":"cebpf4jnsgd1na2vs0mg"},{"bike_id":"d5be9d37-344c-4287-abf6-a572d20fdab4","system_id":"levelo_inurba_marseille","lat":43.29556,"lon":5.42285,"is_reserved":false,"is_disabled":false,"rental_uris":{"android":"levelo://app?vid=d5be9d37-344c-4287-abf6-a572d20fdab4","ios":"levelo://app?vid=d5be9d37-344c-4287-abf6-a572d20fdab4"},"vehicle_type_id":"4","last_reported":1734840663,"current_range_meters":38800,"station_id":"ce4bhph2rcd13ifvqhdg","pricing_plan_id":"cebpf4jnsgd1na2vs0mg"},{"bike_id":"ad7772f6-ea19-4201-a4af-bbabe1284f70","system_id":"levelo_inurba_marseille","lat":43.28929,"lon":5.36639,"is_reserved":false,"is_disabled":false,"rental_uris":{"android":"levelo://app?vid=ad7772f6-ea19-4201-a4af-bbabe1284f70","ios":"levelo://app?vid=ad7772f6-ea19-4201-a4af-bbabe1284f70"},"vehicle_type_id":"4","last_reported":1734840663,"current_range_meters":25600,"station_id":"ce4bhap2rcd13ifvqek0","pricing_plan_id":"cebpf4jnsgd1na2vs0mg"},{"bike_id":"c4d4aa11-95a8-4e18-9cef-b7638dd66738","system_id":"levelo_inurba_marseille","lat":43.27839,"lon":5.39211,"is_reserved":false,"is_disabled":false,"rental_uris":{"android":"levelo://app?vid=c4d4aa11-95a8-4e18-9cef-b7638dd66738","ios":"levelo://app?vid=c4d4aa11-95a8-4e18-9cef-b7638dd66738"},"vehicle_type_id":"4","last_reported":1734840663,"current_range_meters":38800,"station_id":"ce4bhjp2rcd13ifvqga0","pricing_plan_id":"cebpf4jnsgd1na2vs0mg"},{"bike_id":"843c6878-0e3f-4b01-b1b7-bbb9a0523c31","system_id":"levelo_inurba_marseille","lat":43.32661,"lon":5.40985,"is_reserved":false,"is_disabled":false,"rental_uris":{"android":"levelo://app?vid=843c6878-0e3f-4b01-b1b7-bbb9a0523c31","ios":"levelo://app?vid=843c6878-0e3f-4b01-b1b7-bbb9a0523c31"},"vehicle_type_id":"4","last_reported":1734840663,"current_range_meters":32800,"station_id":"ce4bhpp2rcd13ifvqhgg","pricing_plan_id":"cebpf4jnsgd1na2vs0mg"},{"bike_id":"122e5731-49d1-47ac-8569-8da0f2b96421","system_id":"levelo_inurba_marseille","lat":43.25725,"lon":5.41112,"is_reserved":false,"is_disabled":false,"rental_uris":{"android":"levelo://app?vid=122e5731-49d1-47ac-8569-8da0f2b96421","ios":"levelo://app?vid=122e5731-49d1-47ac-8569-8da0f2b96421"},"vehicle_type_id":"4","last_reported":1734840663,"current_range_meters":36400,"station_id":"ce4bhkp2rcd13ifvqgd0","pricing_plan_id":"cebpf4jnsgd1na2vs0mg"},{"bike_id":"db6d4cd6-324d-40d9-b2a7-d53d9856d610","system_id":"levelo_inurba_marseille","lat":43.29348,"lon":5.42832,"is_reserved":false,"is_disabled":true,"rental_uris":{"android":"levelo://app?vid=db6d4cd6-324d-40d9-b2a7-d53d9856d610","ios":"levelo://app?vid=db6d4cd6-324d-40d9-b2a7-d53d9856d610"},"vehicle_type_id":"4","last_reported":1734840663,"current_range_meters":1200,"station_id":"","pricing_plan_id":"cebpf4jnsgd1na2vs0mg"},{"bike_id":"3135ebbb-f5f3-4180-a950-2e50c2b0988f","system_id":"levelo_inurba_marseille","lat":43.32528,"lon":5.41448,"is_reserved":false,"is_disabled":false,"rental_uris":{"android":"levelo://app?vid=3135ebbb-f5f3-4180-a950-2e50c2b0988f","ios":"levelo://app?vid=3135ebbb-f5f3-4180-a950-2e50c2b0988f"},"vehicle_type_id":"4","last_reported":1734840663,"current_range_meters":27200,"station_id":"ce4bhq12rcd13ifvqhhg","pricing_plan_id":"cebpf4jnsgd1na2vs0mg"},{"bike_id":"4e2e6240-5440-4ed7-ace9-4c9e6bd778e5","system_id":"levelo_inurba_marseille","lat":43.2406,"lon":5.37767,"is_reserved":false,"is_disabled":false,"rental_uris":{"android":"levelo://app?vid=4e2e6240-5440-4ed7-ace9-4c9e6bd778e5","ios":"levelo://app?vid=4e2e6240-5440-4ed7-ace9-4c9e6bd778e5"},"vehicle_type_id":"4","last_reported":1734840663,"current_range_meters":34000,"station_id":"ce4bhnp2rcd13ifvqgvg","pricing_plan_id":"cebpf4jnsgd1na2vs0mg"},{"bike_id":"df357b14-4c6a-4905-8927-9863400f5dca","system_id":"levelo_inurba_marseille","lat":43.25897,"lon":5.39888,"is_reserved":false,"is_disabled":false,"rental_uris":{"android":"levelo://app?vid=df357b14-4c6a-4905-8927-9863400f5dca","ios":"levelo://app?vid=df357b14-4c6a-4905-8927-9863400f5dca"},"vehicle_type_id":"4","last_reported":1734840663,"current_range_meters":35600,"station_id":"ce4bhl92rcd13ifvqghg","pricing_plan_id":"cebpf4jnsgd1na2vs0mg"},{"bike_id":"710cbb4b-92a3-4fcb-a674-51cdb538a062","system_id":"levelo_inurba_marseille","lat":43.26043,"lon":5.39398,"is_reserved":false,"is_disabled":true,"rental_uris":{"android":"levelo://app?vid=710cbb4b-92a3-4fcb-a674-51cdb538a062","ios":"levelo://app?vid=710cbb4b-92a3-4fcb-a674-51cdb538a062"},"vehicle_type_id":"4","last_reported":1734840663,"current_range_meters":35600,"station_id":"ce4bhh92rcd13ifvqfj0","pricing_plan_id":"cebpf4jnsgd1na2vs0mg"},{"bike_id":"3df29660-546c-42a3-ba02-2f5ced7e58e3","system_id":"levelo_inurba_marseille","lat":43.27975,"lon":5.38754,"is_reserved":false,"is_disabled":false,"rental_uris":{"android":"levelo://app?vid=3df29660-546c-42a3-ba02-2f5ced7e58e3","ios":"levelo://app?vid=3df29660-546c-42a3-ba02-2f5ced7e58e3"},"vehicle_type_id":"4","last_reported":1734840663,"current_range_meters":39200,"station_id":"ce4bhg12rcd13ifvqf80","pricing_plan_id":"cebpf4jnsgd1na2vs0mg"},{"bike_id":"e9acf7b1-4053-485d-8b20-5f13974a2409","system_id":"levelo_inurba_marseille","lat":43.341455,"lon":5.409082,"is_reserved":false,"is_disabled":false,"rental_uris":{"android":"levelo://app?vid=e9acf7b1-4053-485d-8b20-5f13974a2409","ios":"levelo://app?vid=e9acf7b1-4053-485d-8b20-5f13974a2409"},"vehicle_type_id":"4","last_reported":1734840663,"current_range_meters":33200,"station_id":"ce4bhqh2rcd13ifvqhlg","pricing_plan_id":"cebpf4jnsgd1na2vs0mg"},{"bike_id":"f47fb659-71ee-4c76-8752-7ae6ff080c76","system_id":"levelo_inurba_marseille","lat":43.2287,"lon":5.36494,"is_reserved":false,"is_disabled":false,"rental_uris":{"android":"levelo://app?vid=f47fb659-71ee-4c76-8752-7ae6ff080c76","ios":"levelo://app?vid=f47fb659-71ee-4c76-8752-7ae6ff080c76"},"vehicle_type_id":"4","last_reported":1734840663,"current_range_meters":30400,"station_id":"","pricing_plan_id":"cebpf4jnsgd1na2vs0mg"},{"bike_id":"40a290a5-0a5b-4fc8-b4f9-a2d33b0a1188","system_id":"levelo_inurba_marseille","lat":43.251061,"lon":5.403304,"is_reserved":false,"is_disabled":false,"rental_uris":{"android":"levelo://app?vid=40a290a5-0a5b-4fc8-b4f9-a2d33b0a1188","ios":"levelo://app?vid=40a290a5-0a5b-4fc8-b4f9-a2d33b0a1188"},"vehicle_type_id":"4","last_reported":1734840663,"current_range_meters":18800,"station_id":"ce4bhlh2rcd13ifvqgig","pricing_plan_id":"cebpf4jnsgd1na2vs0mg"},{"bike_id":"b577cbed-b70c-41b5-a4ca-711154e07916","system_id":"levelo_inurba_marseille","lat":43.31323,"lon":5.39705,"is_reserved":false,"is_disabled":false,"rental_uris":{"android":"levelo://app?vid=b577cbed-b70c-41b5-a4ca-711154e07916","ios":"levelo://app?vid=b577cbed-b70c-41b5-a4ca-711154e07916"},"vehicle_type_id":"4","last_reported":1734840663,"current_range_meters":28000,"station_id":"ce4bgvp2rcd13ifvqcu0","pricing_plan_id":"cebpf4jnsgd1na2vs0mg"},{"bike_id":"e2093eaf-d010-461b-aa40-a85f704a9b1e","system_id":"levelo_inurba_marseille","lat":43.27362,"lon":5.36234,"is_reserved":false,"is_disabled":false,"rental_uris":{"android":"levelo://app?vid=e2093eaf-d010-461b-aa40-a85f704a9b1e","ios":"levelo://app?vid=e2093eaf-d010-461b-aa40-a85f704a9b1e"},"vehicle_type_id":"4","last_reported":1734840663,"current_range_meters":38800,"station_id":"ce4bhbh2rcd13ifvqeo0","pricing_plan_id":"cebpf4jnsgd1na2vs0mg"},{"bike_id":"e14ed6e7-9a57-4e47-923b-149355f7b556","system_id":"levelo_inurba_marseille","lat":43.29004,"lon":5.35603,"is_reserved":false,"is_disabled":false,"rental_uris":{"android":"levelo://app?vid=e14ed6e7-9a57-4e47-923b-149355f7b556","ios":"levelo://app?vid=e14ed6e7-9a57-4e47-923b-149355f7b556"},"vehicle_type_id":"4","last_reported":1734840663,"current_range_meters":22000,"station_id":"ce4bhb92rcd13ifvqen0","pricing_plan_id":"cebpf4jnsgd1na2vs0mg"},{"bike_id":"a7cfd2b8-b9ad-4ad6-a840-d70d03c4d9f6","system_id":"levelo_inurba_marseille","lat":43.27993,"lon":5.41662,"is_reserved":false,"is_disabled":false,"rental_uris":{"android":"levelo://app?vid=a7cfd2b8-b9ad-4ad6-a840-d70d03c4d9f6","ios":"levelo://app?vid=a7cfd2b8-b9ad-4ad6-a840-d70d03c4d9f6"},"vehicle_type_id":"4","last_reported":1734840663,"current_range_meters":38000,"station_id":"ce4bho12rcd13ifvqh1g","pricing_plan_id":"cebpf4jnsgd1na2vs0mg"},{"bike_id":"36e164c0-80cb-4248-b925-25a4125d219e","system_id":"levelo_inurba_marseille","lat":43.31334,"lon":5.397,"is_reserved":false,"is_disabled":false,"rental_uris":{"android":"levelo://app?vid=36e164c0-80cb-4248-b925-25a4125d219e","ios":"levelo://app?vid=36e164c0-80cb-4248-b925-25a4125d219e"},"vehicle_type_id":"4","last_reported":1734840663,"current_range_meters":38800,"station_id":"ce4bgvp2rcd13ifvqcu0","pricing_plan_id":"cebpf4jnsgd1na2vs0mg"},{"bike_id":"d36487ee-3336-4c27-a03a-67d7e71f0396","system_id":"levelo_inurba_marseille","lat":43.28952,"lon":5.36631,"is_reserved":false,"is_disabled":false,"rental_uris":{"android":"levelo://app?vid=d36487ee-3336-4c27-a03a-67d7e71f0396","ios":"levelo://app?vid=d36487ee-3336-4c27-a03a-67d7e71f0396"},"vehicle_type_id":"4","last_reported":1734840663,"current_range_meters":29600,"station_id":"ce4bhap2rcd13ifvqek0","pricing_plan_id":"cebpf4jnsgd1na2vs0mg"},{"bike_id":"3b25d84b-0030-4bea-8ce7-7a21c21d5d01","system_id":"levelo_inurba_marseille","lat":43.2481,"lon":5.37448,"is_reserved":false,"is_disabled":false,"rental_uris":{"android":"levelo://app?vid=3b25d84b-0030-4bea-8ce7-7a21c21d5d01","ios":"levelo://app?vid=3b25d84b-0030-4bea-8ce7-7a21c21d5d01"},"vehicle_type_id":"4","last_reported":1734840663,"current_range_meters":16400,"station_id":"ce4bhgh2rcd13ifvqfb0","pricing_plan_id":"cebpf4jnsgd1na2vs0mg"},{"bike_id":"3c59c48e-8ae9-4254-8248-b002d9735d27","system_id":"levelo_inurba_marseille","lat":43.31166,"lon":5.38711,"is_reserved":false,"is_disabled":false,"rental_uris":{"android":"levelo://app?vid=3c59c48e-8ae9-4254-8248-b002d9735d27","ios":"levelo://app?vid=3c59c48e-8ae9-4254-8248-b002d9735d27"},"vehicle_type_id":"4","last_reported":1734840663,"current_range_meters":8000,"station_id":"ce4bgv12rcd13ifvqcp0","pricing_plan_id":"cebpf4jnsgd1na2vs0mg"},{"bike_id":"41d0d9f5-bb31-41f6-8358-898df39bf21c","system_id":"levelo_inurba_marseille","lat":43.25875,"lon":5.39906,"is_reserved":false,"is_disabled":false,"rental_uris":{"android":"levelo://app?vid=41d0d9f5-bb31-41f6-8358-898df39bf21c","ios":"levelo://app?vid=41d0d9f5-bb31-41f6-8358-898df39bf21c"},"vehicle_type_id":"4","last_reported":1734840663,"current_range_meters":38800,"station_id":"ce4bhl92rcd13ifvqghg","pricing_plan_id":"cebpf4jnsgd1na2vs0mg"},{"bike_id":"354d1337-1650-4fb2-8f9b-d871c40ab302","system_id":"levelo_inurba_marseille","lat":43.29986,"lon":5.41317,"is_reserved":false,"is_disabled":false,"rental_uris":{"android":"levelo://app?vid=354d1337-1650-4fb2-8f9b-d871c40ab302","ios":"levelo://app?vid=354d1337-1650-4fb2-8f9b-d871c40ab302"},"vehicle_type_id":"4","last_reported":1734840663,"current_range_meters":38800,"station_id":"ce4bhp12rcd13ifvqh9g","pricing_plan_id":"cebpf4jnsgd1na2vs0mg"},{"bike_id":"d7400a74-0f4d-43e4-a32e-dc3ad743082e","system_id":"levelo_inurba_marseille","lat":43.28938,"lon":5.36395,"is_reserved":false,"is_disabled":false,"rental_uris":{"android":"levelo://app?vid=d7400a74-0f4d-43e4-a32e-dc3ad743082e","ios":"levelo://app?vid=d7400a74-0f4d-43e4-a32e-dc3ad743082e"},"vehicle_type_id":"4","last_reported":1734840663,"current_range_meters":30400,"station_id":"ce4bhc92rcd13ifvqetg","pricing_plan_id":"cebpf4jnsgd1na2vs0mg"},{"bike_id":"22197afe-a1ff-4312-800c-c9ca803fb856","system_id":"levelo_inurba_marseille","lat":43.24174,"lon":5.39727,"is_reserved":false,"is_disabled":false,"rental_uris":{"android":"levelo://app?vid=22197afe-a1ff-4312-800c-c9ca803fb856","ios":"levelo://app?vid=22197afe-a1ff-4312-800c-c9ca803fb856"},"vehicle_type_id":"4","last_reported":1734840663,"current_range_meters":27200,"station_id":"ce4bhn12rcd13ifvqgpg","pricing_plan_id":"cebpf4jnsgd1na2vs0mg"},{"bike_id":"e724f4e5-0922-4e36-91f4-8a4c9d514ff5","system_id":"levelo_inurba_marseille","lat":43.29853,"lon":5.36264,"is_reserved":false,"is_disabled":false,"rental_uris":{"android":"levelo://app?vid=e724f4e5-0922-4e36-91f4-8a4c9d514ff5","ios":"levelo://app?vid=e724f4e5-0922-4e36-91f4-8a4c9d514ff5"},"vehicle_type_id":"4","last_reported":1734840663,"current_range_meters":38800,"station_id":"ce4bgpp2rcd13ifvqc3g","pricing_plan_id":"cebpf4jnsgd1na2vs0mg"},{"bike_id":"5a418441-3b6e-4ddf-98ce-0061b442196a","system_id":"levelo_inurba_marseille","lat":43.31173,"lon":5.3871,"is_reserved":false,"is_disabled":false,"rental_uris":{"android":"levelo://app?vid=5a418441-3b6e-4ddf-98ce-0061b442196a","ios":"levelo://app?vid=5a418441-3b6e-4ddf-98ce-0061b442196a"},"vehicle_type_id":"4","last_reported":1734840663,"current_range_meters":23200,"station_id":"ce4bgv12rcd13ifvqcp0","pricing_plan_id":"cebpf4jnsgd1na2vs0mg"},{"bike_id":"e2fa123e-bef0-4136-a643-b0448b50d42a","system_id":"levelo_inurba_marseille","lat":43.31112,"lon":5.37768,"is_reserved":false,"is_disabled":false,"rental_uris":{"android":"levelo://app?vid=e2fa123e-bef0-4136-a643-b0448b50d42a","ios":"levelo://app?vid=e2fa123e-bef0-4136-a643-b0448b50d42a"},"vehicle_type_id":"4","last_reported":1734840663,"current_range_meters":18800,"station_id":"ce4bgt92rcd13ifvqcg0","pricing_plan_id":"cebpf4jnsgd1na2vs0mg"},{"bike_id":"d98f0b8a-1ef4-43b4-85a1-12b00b5f4de1","system_id":"levelo_inurba_marseille","lat":43.28441,"lon":5.34968,"is_reserved":false,"is_disabled":false,"rental_uris":{"android":"levelo://app?vid=d98f0b8a-1ef4-43b4-85a1-12b00b5f4de1","ios":"levelo://app?vid=d98f0b8a-1ef4-43b4-85a1-12b00b5f4de1"},"vehicle_type_id":"4","last_reported":1734840663,"current_range_meters":36800,"station_id":"ce4bhbh2rcd13ifvqepg","pricing_plan_id":"cebpf4jnsgd1na2vs0mg"},{"bike_id":"a6145494-84a1-4247-a22f-a023d3960218","system_id":"levelo_inurba_marseille","lat":43.3302,"lon":5.3903,"is_reserved":false,"is_disabled":false,"rental_uris":{"android":"levelo://app?vid=a6145494-84a1-4247-a22f-a023d3960218","ios":"levelo://app?vid=a6145494-84a1-4247-a22f-a023d3960218"},"vehicle_type_id":"4","last_reported":1734840663,"current_range_meters":38000,"station_id":"ce4bhr92rcd13ifvqhrg","pricing_plan_id":"cebpf4jnsgd1na2vs0mg"},{"bike_id":"d46f6665-b5ca-4598-96b6-c6d0dfd201fc","system_id":"levelo_inurba_marseille","lat":43.287115,"lon":5.399678,"is_reserved":false,"is_disabled":false,"rental_uris":{"android":"levelo://app?vid=d46f6665-b5ca-4598-96b6-c6d0dfd201fc","ios":"levelo://app?vid=d46f6665-b5ca-4598-96b6-c6d0dfd201fc"},"vehicle_type_id":"4","last_reported":1734840663,"current_range_meters":38400,"station_id":"ce4bho92rcd13ifvqh3g","pricing_plan_id":"cebpf4jnsgd1na2vs0mg"},{"bike_id":"71bbaaf0-30fa-412b-9088-f880a672af88","system_id":"levelo_inurba_marseille","lat":43.26026,"lon":5.37549,"is_reserved":false,"is_disabled":false,"rental_uris":{"android":"levelo://app?vid=71bbaaf0-30fa-412b-9088-f880a672af88","ios":"levelo://app?vid=71bbaaf0-30fa-412b-9088-f880a672af88"},"vehicle_type_id":"4","last_reported":1734840663,"current_range_meters":38000,"station_id":"ce4bhgh2rcd13ifvqfa0","pricing_plan_id":"cebpf4jnsgd1na2vs0mg"},{"bike_id":"a467908b-5285-45c9-8c2a-fd1b95b97b40","system_id":"levelo_inurba_marseille","lat":43.29029,"lon":5.38618,"is_reserved":false,"is_disabled":false,"rental_uris":{"android":"levelo://app?vid=a467908b-5285-45c9-8c2a-fd1b95b97b40","ios":"levelo://app?vid=a467908b-5285-45c9-8c2a-fd1b95b97b40"},"vehicle_type_id":"4","last_reported":1734840663,"current_range_meters":23200,"station_id":"ce4bh4p2rcd13ifvqe0g","pricing_plan_id":"cebpf4jnsgd1na2vs0mg"},{"bike_id":"6d08c55a-bab4-4704-b76a-60718f3b1ebe","system_id":"levelo_inurba_marseille","lat":43.305895,"lon":5.393562,"is_reserved":false,"is_disabled":false,"rental_uris":{"android":"levelo://app?vid=6d08c55a-bab4-4704-b76a-60718f3b1ebe","ios":"levelo://app?vid=6d08c55a-bab4-4704-b76a-60718f3b1ebe"},"vehicle_type_id":"4","last_reported":1734840663,"current_range_meters":17200,"station_id":"ce4bh0p2rcd13ifvqd80","pricing_plan_id":"cebpf4jnsgd1na2vs0mg"},{"bike_id":"caa52d74-dbee-4670-b68e-4d56fc2c003a","system_id":"levelo_inurba_marseille","lat":43.30183,"lon":5.38074,"is_reserved":false,"is_disabled":false,"rental_uris":{"android":"levelo://app?vid=caa52d74-dbee-4670-b68e-4d56fc2c003a","ios":"levelo://app?vid=caa52d74-dbee-4670-b68e-4d56fc2c003a"},"vehicle_type_id":"4","last_reported":1734840663,"current_range_meters":10000,"station_id":"ce4bgjp2rcd13ifvqbh0","pricing_plan_id":"cebpf4jnsgd1na2vs0mg"},{"bike_id":"56f1e802-0d31-4b85-8171-4fcfa9248948","system_id":"levelo_inurba_marseille","lat":43.26487,"lon":5.39554,"is_reserved":false,"is_disabled":false,"rental_uris":{"android":"levelo://app?vid=56f1e802-0d31-4b85-8171-4fcfa9248948","ios":"levelo://app?vid=56f1e802-0d31-4b85-8171-4fcfa9248948"},"vehicle_type_id":"4","last_reported":1734840663,"current_range_meters":38000,"station_id":"ce4bhi12rcd13ifvqfq0","pricing_plan_id":"cebpf4jnsgd1na2vs0mg"},{"bike_id":"32326ee7-c3c6-4160-917b-e990ab0a03ec","system_id":"levelo_inurba_marseille","lat":43.28108,"lon":5.37839,"is_reserved":false,"is_disabled":false,"rental_uris":{"android":"levelo://app?vid=32326ee7-c3c6-4160-917b-e990ab0a03ec","ios":"levelo://app?vid=32326ee7-c3c6-4160-917b-e990ab0a03ec"},"vehicle_type_id":"4","last_reported":1734840663,"current_range_meters":30800,"station_id":"ce4bha12rcd13ifvqee0","pricing_plan_id":"cebpf4jnsgd1na2vs0mg"},{"bike_id":"3757c47a-620b-4619-b3a4-ee70a8357af9","system_id":"levelo_inurba_marseille","lat":43.30907,"lon":5.36854,"is_reserved":false,"is_disabled":false,"rental_uris":{"android":"levelo://app?vid=3757c47a-620b-4619-b3a4-ee70a8357af9","ios":"levelo://app?vid=3757c47a-620b-4619-b3a4-ee70a8357af9"},"vehicle_type_id":"4","last_reported":1734840663,"current_range_meters":23200,"station_id":"ce4bgn92rcd13ifvqbvg","pricing_plan_id":"cebpf4jnsgd1na2vs0mg"},{"bike_id":"66a3211d-b51d-4bbb-9be9-a5b49bdb34d5","system_id":"levelo_inurba_marseille","lat":43.28351,"lon":5.38106,"is_reserved":false,"is_disabled":false,"rental_uris":{"android":"levelo://app?vid=66a3211d-b51d-4bbb-9be9-a5b49bdb34d5","ios":"levelo://app?vid=66a3211d-b51d-4bbb-9be9-a5b49bdb34d5"},"vehicle_type_id":"4","last_reported":1734840663,"current_range_meters":30400,"station_id":"ce4bh412rcd13ifvqdr0","pricing_plan_id":"cebpf4jnsgd1na2vs0mg"},{"bike_id":"574569a8-47af-4b5a-abbf-9be9948fc833","system_id":"levelo_inurba_marseille","lat":43.28933,"lon":5.39628,"is_reserved":false,"is_disabled":false,"rental_uris":{"android":"levelo://app?vid=574569a8-47af-4b5a-abbf-9be9948fc833","ios":"levelo://app?vid=574569a8-47af-4b5a-abbf-9be9948fc833"},"vehicle_type_id":"4","last_reported":1734840663,"current_range_meters":39200,"station_id":"ce4bh3h2rcd13ifvqdn0","pricing_plan_id":"cebpf4jnsgd1na2vs0mg"},{"bike_id":"3d0b51e9-fd7f-46a1-80f0-1e66465e4fc4","system_id":"levelo_inurba_marseille","lat":43.30655,"lon":5.40077,"is_reserved":false,"is_disabled":false,"rental_uris":{"android":"levelo://app?vid=3d0b51e9-fd7f-46a1-80f0-1e66465e4fc4","ios":"levelo://app?vid=3d0b51e9-fd7f-46a1-80f0-1e66465e4fc4"},"vehicle_type_id":"4","last_reported":1734840663,"current_range_meters":29600,"station_id":"ce4bh112rcd13ifvqda0","pricing_plan_id":"cebpf4jnsgd1na2vs0mg"},{"bike_id":"c9b88195-e7cd-4734-9416-e0daab0d058c","system_id":"levelo_inurba_marseille","lat":43.3045,"lon":5.37905,"is_reserved":false,"is_disabled":false,"rental_uris":{"android":"levelo://app?vid=c9b88195-e7cd-4734-9416-e0daab0d058c","ios":"levelo://app?vid=c9b88195-e7cd-4734-9416-e0daab0d058c"},"vehicle_type_id":"4","last_reported":1734840663,"current_range_meters":29600,"station_id":"ce4bgup2rcd13ifvqcn0","pricing_plan_id":"cebpf4jnsgd1na2vs0mg"},{"bike_id":"5de55ec3-b446-45b5-9e6a-b67b9996a2b3","system_id":"levelo_inurba_marseille","lat":43.27314,"lon":5.39115,"is_reserved":false,"is_disabled":true,"rental_uris":{"android":"levelo://app?vid=5de55ec3-b446-45b5-9e6a-b67b9996a2b3","ios":"levelo://app?vid=5de55ec3-b446-45b5-9e6a-b67b9996a2b3"},"vehicle_type_id":"4","last_reported":1734840663,"current_range_meters":34000,"station_id":"ce4bhgp2rcd13ifvqfe0","pricing_plan_id":"cebpf4jnsgd1na2vs0mg"},{"bike_id":"a22bceeb-65e0-4673-894d-83f7319caead","system_id":"levelo_inurba_marseille","lat":43.30581,"lon":5.39349,"is_reserved":false,"is_disabled":false,"rental_uris":{"android":"levelo://app?vid=a22bceeb-65e0-4673-894d-83f7319caead","ios":"levelo://app?vid=a22bceeb-65e0-4673-894d-83f7319caead"},"vehicle_type_id":"4","last_reported":1734840663,"current_range_meters":28800,"station_id":"ce4bh0p2rcd13ifvqd80","pricing_plan_id":"cebpf4jnsgd1na2vs0mg"},{"bike_id":"9daa44e7-dbcd-4dc1-8b8c-d5b1cf6bc951","system_id":"levelo_inurba_marseille","lat":43.289389,"lon":5.366298,"is_reserved":false,"is_disabled":false,"rental_uris":{"android":"levelo://app?vid=9daa44e7-dbcd-4dc1-8b8c-d5b1cf6bc951","ios":"levelo://app?vid=9daa44e7-dbcd-4dc1-8b8c-d5b1cf6bc951"},"vehicle_type_id":"4","last_reported":1734840663,"current_range_meters":37600,"station_id":"ce4bhap2rcd13ifvqek0","pricing_plan_id":"cebpf4jnsgd1na2vs0mg"},{"bike_id":"83d75582-caa3-4b45-83cd-9ad3bc6b84cf","system_id":"levelo_inurba_marseille","lat":43.28452,"lon":5.35882,"is_reserved":false,"is_disabled":false,"rental_uris":{"android":"levelo://app?vid=83d75582-caa3-4b45-83cd-9ad3bc6b84cf","ios":"levelo://app?vid=83d75582-caa3-4b45-83cd-9ad3bc6b84cf"},"vehicle_type_id":"4","last_reported":1734840663,"current_range_meters":32000,"station_id":"ce4bhah2rcd13ifvqei0","pricing_plan_id":"cebpf4jnsgd1na2vs0mg"},{"bike_id":"cb24e5bf-731b-4e5c-b6e0-e4fe8d24e9fb","system_id":"levelo_inurba_marseille","lat":43.29224,"lon":5.36079,"is_reserved":false,"is_disabled":false,"rental_uris":{"android":"levelo://app?vid=cb24e5bf-731b-4e5c-b6e0-e4fe8d24e9fb","ios":"levelo://app?vid=cb24e5bf-731b-4e5c-b6e0-e4fe8d24e9fb"},"vehicle_type_id":"4","last_reported":1734840663,"current_range_meters":14800,"station_id":"ce4bhbh2rcd13ifvqeqg","pricing_plan_id":"cebpf4jnsgd1na2vs0mg"},{"bike_id":"5bc40c22-a9ce-44f6-b16d-3abdeb72196c","system_id":"levelo_inurba_marseille","lat":43.262,"lon":5.37929,"is_reserved":false,"is_disabled":false,"rental_uris":{"android":"levelo://app?vid=5bc40c22-a9ce-44f6-b16d-3abdeb72196c","ios":"levelo://app?vid=5bc40c22-a9ce-44f6-b16d-3abdeb72196c"},"vehicle_type_id":"4","last_reported":1734840663,"current_range_meters":34800,"station_id":"ce4bhjp2rcd13ifvqg90","pricing_plan_id":"cebpf4jnsgd1na2vs0mg"},{"bike_id":"248b6838-f1ba-4bff-be30-4c0c3778c000","system_id":"levelo_inurba_marseille","lat":43.2846,"lon":5.35882,"is_reserved":false,"is_disabled":false,"rental_uris":{"android":"levelo://app?vid=248b6838-f1ba-4bff-be30-4c0c3778c000","ios":"levelo://app?vid=248b6838-f1ba-4bff-be30-4c0c3778c000"},"vehicle_type_id":"4","last_reported":1734840663,"current_range_meters":24000,"station_id":"ce4bhah2rcd13ifvqei0","pricing_plan_id":"cebpf4jnsgd1na2vs0mg"},{"bike_id":"954f040c-9c68-484b-977a-d101cc152ccc","system_id":"levelo_inurba_marseille","lat":43.266873,"lon":5.3827,"is_reserved":false,"is_disabled":false,"rental_uris":{"android":"levelo://app?vid=954f040c-9c68-484b-977a-d101cc152ccc","ios":"levelo://app?vid=954f040c-9c68-484b-977a-d101cc152ccc"},"vehicle_type_id":"4","last_reported":1734840663,"current_range_meters":33600,"station_id":"ce4bhg92rcd13ifvqf90","pricing_plan_id":"cebpf4jnsgd1na2vs0mg"},{"bike_id":"a3f20b06-fbbc-488d-ab74-510676955d57","system_id":"levelo_inurba_marseille","lat":43.31898,"lon":5.40734,"is_reserved":false,"is_disabled":false,"rental_uris":{"android":"levelo://app?vid=a3f20b06-fbbc-488d-ab74-510676955d57","ios":"levelo://app?vid=a3f20b06-fbbc-488d-ab74-510676955d57"},"vehicle_type_id":"4","last_reported":1734840663,"current_range_meters":36800,"station_id":"ce4bhq12rcd13ifvqhig","pricing_plan_id":"cebpf4jnsgd1na2vs0mg"},{"bike_id":"c0d1b1fb-1ef2-4536-ab17-3bf592971292","system_id":"levelo_inurba_marseille","lat":43.3064,"lon":5.40073,"is_reserved":false,"is_disabled":false,"rental_uris":{"android":"levelo://app?vid=c0d1b1fb-1ef2-4536-ab17-3bf592971292","ios":"levelo://app?vid=c0d1b1fb-1ef2-4536-ab17-3bf592971292"},"vehicle_type_id":"4","last_reported":1734840663,"current_range_meters":36000,"station_id":"ce4bh112rcd13ifvqda0","pricing_plan_id":"cebpf4jnsgd1na2vs0mg"},{"bike_id":"b32b3c01-ed9f-46be-b992-f6be78029315","system_id":"levelo_inurba_marseille","lat":43.29938,"lon":5.3654,"is_reserved":false,"is_disabled":false,"rental_uris":{"android":"levelo://app?vid=b32b3c01-ed9f-46be-b992-f6be78029315","ios":"levelo://app?vid=b32b3c01-ed9f-46be-b992-f6be78029315"},"vehicle_type_id":"4","last_reported":1734840663,"current_range_meters":14400,"station_id":"ce4bgm92rcd13ifvqbr0","pricing_plan_id":"cebpf4jnsgd1na2vs0mg"},{"bike_id":"e3ef36f3-cda5-49b9-88fa-84ef84e458fc","system_id":"levelo_inurba_marseille","lat":43.30545,"lon":5.36681,"is_reserved":false,"is_disabled":false,"rental_uris":{"android":"levelo://app?vid=e3ef36f3-cda5-49b9-88fa-84ef84e458fc","ios":"levelo://app?vid=e3ef36f3-cda5-49b9-88fa-84ef84e458fc"},"vehicle_type_id":"4","last_reported":1734840663,"current_range_meters":38400,"station_id":"ce4bgrp2rcd13ifvqc9g","pricing_plan_id":"cebpf4jnsgd1na2vs0mg"},{"bike_id":"535ebac3-e8c3-4c66-a91d-a52546f5ec3e","system_id":"levelo_inurba_marseille","lat":43.2925,"lon":5.40899,"is_reserved":false,"is_disabled":false,"rental_uris":{"android":"levelo://app?vid=535ebac3-e8c3-4c66-a91d-a52546f5ec3e","ios":"levelo://app?vid=535ebac3-e8c3-4c66-a91d-a52546f5ec3e"},"vehicle_type_id":"4","last_reported":1734840663,"current_range_meters":39200,"station_id":"ce4bh192rcd13ifvqdc0","pricing_plan_id":"cebpf4jnsgd1na2vs0mg"},{"bike_id":"37bb1d75-5649-43bb-b770-62d74a33420d","system_id":"levelo_inurba_marseille","lat":43.30531,"lon":5.36696,"is_reserved":false,"is_disabled":false,"rental_uris":{"android":"levelo://app?vid=37bb1d75-5649-43bb-b770-62d74a33420d","ios":"levelo://app?vid=37bb1d75-5649-43bb-b770-62d74a33420d"},"vehicle_type_id":"4","last_reported":1734840663,"current_range_meters":38800,"station_id":"ce4bgrp2rcd13ifvqc9g","pricing_plan_id":"cebpf4jnsgd1na2vs0mg"},{"bike_id":"ff19ce84-10b6-4ffc-b9fc-1625914b166c","system_id":"levelo_inurba_marseille","lat":43.29702,"lon":5.36624,"is_reserved":false,"is_disabled":false,"rental_uris":{"android":"levelo://app?vid=ff19ce84-10b6-4ffc-b9fc-1625914b166c","ios":"levelo://app?vid=ff19ce84-10b6-4ffc-b9fc-1625914b166c"},"vehicle_type_id":"4","last_reported":1734840663,"current_range_meters":36400,"station_id":"ce4bgn12rcd13ifvqbt0","pricing_plan_id":"cebpf4jnsgd1na2vs0mg"},{"bike_id":"2a671648-a936-4048-bace-b98b329e57cc","system_id":"levelo_inurba_marseille","lat":43.31005,"lon":5.37026,"is_reserved":false,"is_disabled":false,"rental_uris":{"android":"levelo://app?vid=2a671648-a936-4048-bace-b98b329e57cc","ios":"levelo://app?vid=2a671648-a936-4048-bace-b98b329e57cc"},"vehicle_type_id":"4","last_reported":1734840663,"current_range_meters":8000,"station_id":"","pricing_plan_id":"cebpf4jnsgd1na2vs0mg"},{"bike_id":"c889bce7-ce58-4551-b1fe-fe2f91c10fbf","system_id":"levelo_inurba_marseille","lat":43.289385,"lon":5.39625,"is_reserved":false,"is_disabled":false,"rental_uris":{"android":"levelo://app?vid=c889bce7-ce58-4551-b1fe-fe2f91c10fbf","ios":"levelo://app?vid=c889bce7-ce58-4551-b1fe-fe2f91c10fbf"},"vehicle_type_id":"4","last_reported":1734840663,"current_range_meters":39200,"station_id":"ce4bh3h2rcd13ifvqdn0","pricing_plan_id":"cebpf4jnsgd1na2vs0mg"},{"bike_id":"2ecd7a5c-6b03-4906-a193-c1bc16b7668c","system_id":"levelo_inurba_marseille","lat":43.302359,"lon":5.400624,"is_reserved":false,"is_disabled":true,"rental_uris":{"android":"levelo://app?vid=2ecd7a5c-6b03-4906-a193-c1bc16b7668c","ios":"levelo://app?vid=2ecd7a5c-6b03-4906-a193-c1bc16b7668c"},"vehicle_type_id":"4","last_reported":1734840663,"current_range_meters":38000,"station_id":"ce4bgvh2rcd13ifvqcs0","pricing_plan_id":"cebpf4jnsgd1na2vs0mg"},{"bike_id":"4bcb37c0-9249-499d-890c-0bbf93d29f8b","system_id":"levelo_inurba_marseille","lat":43.23188,"lon":5.35562,"is_reserved":false,"is_disabled":true,"rental_uris":{"android":"levelo://app?vid=4bcb37c0-9249-499d-890c-0bbf93d29f8b","ios":"levelo://app?vid=4bcb37c0-9249-499d-890c-0bbf93d29f8b"},"vehicle_type_id":"4","last_reported":1734840663,"current_range_meters":28400,"station_id":"ce4bhu92rcd13ifvqi70","pricing_plan_id":"cebpf4jnsgd1na2vs0mg"},{"bike_id":"57263b19-bd39-4f7b-b29d-fb59d05995ff","system_id":"levelo_inurba_marseille","lat":43.24644,"lon":5.37699,"is_reserved":false,"is_disabled":false,"rental_uris":{"android":"levelo://app?vid=57263b19-bd39-4f7b-b29d-fb59d05995ff","ios":"levelo://app?vid=57263b19-bd39-4f7b-b29d-fb59d05995ff"},"vehicle_type_id":"4","last_reported":1734840663,"current_range_meters":17200,"station_id":"","pricing_plan_id":"cebpf4jnsgd1na2vs0mg"},{"bike_id":"c3c0438d-c54f-4b0e-a026-487d034c34d1","system_id":"levelo_inurba_marseille","lat":43.32048,"lon":5.41562,"is_reserved":false,"is_disabled":false,"rental_uris":{"android":"levelo://app?vid=c3c0438d-c54f-4b0e-a026-487d034c34d1","ios":"levelo://app?vid=c3c0438d-c54f-4b0e-a026-487d034c34d1"},"vehicle_type_id":"4","last_reported":1734840663,"current_range_meters":28000,"station_id":"ce4bhq92rcd13ifvqhkg","pricing_plan_id":"cebpf4jnsgd1na2vs0mg"},{"bike_id":"60027fc6-db48-4de7-b5d2-e2270f215474","system_id":"levelo_inurba_marseille","lat":43.28032,"lon":5.36948,"is_reserved":false,"is_disabled":false,"rental_uris":{"android":"levelo://app?vid=60027fc6-db48-4de7-b5d2-e2270f215474","ios":"levelo://app?vid=60027fc6-db48-4de7-b5d2-e2270f215474"},"vehicle_type_id":"4","last_reported":1734840663,"current_range_meters":16800,"station_id":"ce4bha12rcd13ifvqef0","pricing_plan_id":"cebpf4jnsgd1na2vs0mg"},{"bike_id":"6376e322-efca-400f-bc43-33b68cf24149","system_id":"levelo_inurba_marseille","lat":43.28696,"lon":5.39974,"is_reserved":false,"is_disabled":false,"rental_uris":{"android":"levelo://app?vid=6376e322-efca-400f-bc43-33b68cf24149","ios":"levelo://app?vid=6376e322-efca-400f-bc43-33b68cf24149"},"vehicle_type_id":"4","last_reported":1734840663,"current_range_meters":32000,"station_id":"ce4bho92rcd13ifvqh3g","pricing_plan_id":"cebpf4jnsgd1na2vs0mg"},{"bike_id":"7cf2f138-0c5b-4760-b998-e61626fa9d49","system_id":"levelo_inurba_marseille","lat":43.32342,"lon":5.40616,"is_reserved":false,"is_disabled":false,"rental_uris":{"android":"levelo://app?vid=7cf2f138-0c5b-4760-b998-e61626fa9d49","ios":"levelo://app?vid=7cf2f138-0c5b-4760-b998-e61626fa9d49"},"vehicle_type_id":"4","last_reported":1734840663,"current_range_meters":36400,"station_id":"ce4bhq92rcd13ifvqhjg","pricing_plan_id":"cebpf4jnsgd1na2vs0mg"},{"bike_id":"1bfdb680-d09b-4eca-92f1-81849d2dc316","system_id":"levelo_inurba_marseille","lat":43.2815,"lon":5.4264,"is_reserved":false,"is_disabled":false,"rental_uris":{"android":"levelo://app?vid=1bfdb680-d09b-4eca-92f1-81849d2dc316","ios":"levelo://app?vid=1bfdb680-d09b-4eca-92f1-81849d2dc316"},"vehicle_type_id":"4","last_reported":1734840663,"current_range_meters":30800,"station_id":"ce4bhnh2rcd13ifvqgug","pricing_plan_id":"cebpf4jnsgd1na2vs0mg"},{"bike_id":"5ee26669-bb4c-43d4-aa0e-f6b8b6a84038","system_id":"levelo_inurba_marseille","lat":43.292293,"lon":5.36051,"is_reserved":false,"is_disabled":false,"rental_uris":{"android":"levelo://app?vid=5ee26669-bb4c-43d4-aa0e-f6b8b6a84038","ios":"levelo://app?vid=5ee26669-bb4c-43d4-aa0e-f6b8b6a84038"},"vehicle_type_id":"4","last_reported":1734840663,"current_range_meters":36000,"station_id":"ce4bhbh2rcd13ifvqeqg","pricing_plan_id":"cebpf4jnsgd1na2vs0mg"},{"bike_id":"811f7f3f-6bd0-4f2d-84b6-ea0bf2560314","system_id":"levelo_inurba_marseille","lat":43.25106,"lon":5.40321,"is_reserved":false,"is_disabled":false,"rental_uris":{"android":"levelo://app?vid=811f7f3f-6bd0-4f2d-84b6-ea0bf2560314","ios":"levelo://app?vid=811f7f3f-6bd0-4f2d-84b6-ea0bf2560314"},"vehicle_type_id":"4","last_reported":1734840663,"current_range_meters":38800,"station_id":"ce4bhlh2rcd13ifvqgig","pricing_plan_id":"cebpf4jnsgd1na2vs0mg"},{"bike_id":"f05c7e32-ee1f-4822-9688-1d8bdc5b4813","system_id":"levelo_inurba_marseille","lat":43.26681,"lon":5.38269,"is_reserved":false,"is_disabled":false,"rental_uris":{"android":"levelo://app?vid=f05c7e32-ee1f-4822-9688-1d8bdc5b4813","ios":"levelo://app?vid=f05c7e32-ee1f-4822-9688-1d8bdc5b4813"},"vehicle_type_id":"4","last_reported":1734840663,"current_range_meters":17200,"station_id":"ce4bhg92rcd13ifvqf90","pricing_plan_id":"cebpf4jnsgd1na2vs0mg"},{"bike_id":"3216941d-b90f-4166-9789-4659f8e52f65","system_id":"levelo_inurba_marseille","lat":43.26555,"lon":5.37293,"is_reserved":false,"is_disabled":false,"rental_uris":{"android":"levelo://app?vid=3216941d-b90f-4166-9789-4659f8e52f65","ios":"levelo://app?vid=3216941d-b90f-4166-9789-4659f8e52f65"},"vehicle_type_id":"4","last_reported":1734840663,"current_range_meters":16800,"station_id":"ce4bhg12rcd13ifvqf70","pricing_plan_id":"cebpf4jnsgd1na2vs0mg"},{"bike_id":"dad6db58-f5bc-4da2-b0b4-3d5d1002166b","system_id":"levelo_inurba_marseille","lat":43.32103,"lon":5.36771,"is_reserved":false,"is_disabled":false,"rental_uris":{"android":"levelo://app?vid=dad6db58-f5bc-4da2-b0b4-3d5d1002166b","ios":"levelo://app?vid=dad6db58-f5bc-4da2-b0b4-3d5d1002166b"},"vehicle_type_id":"4","last_reported":1734840663,"current_range_meters":11600,"station_id":"ce4bhrh2rcd13ifvqhug","pricing_plan_id":"cebpf4jnsgd1na2vs0mg"},{"bike_id":"e1e55b34-0cc8-42c6-b9d9-a442d6ab0cd4","system_id":"levelo_inurba_marseille","lat":43.23193,"lon":5.39982,"is_reserved":false,"is_disabled":false,"rental_uris":{"android":"levelo://app?vid=e1e55b34-0cc8-42c6-b9d9-a442d6ab0cd4","ios":"levelo://app?vid=e1e55b34-0cc8-42c6-b9d9-a442d6ab0cd4"},"vehicle_type_id":"4","last_reported":1734840663,"current_range_meters":23200,"station_id":"ce4bhn12rcd13ifvqgqg","pricing_plan_id":"cebpf4jnsgd1na2vs0mg"},{"bike_id":"f6b5cdb6-736e-45b3-8b41-4918a9038182","system_id":"levelo_inurba_marseille","lat":43.23971,"lon":5.36627,"is_reserved":false,"is_disabled":false,"rental_uris":{"android":"levelo://app?vid=f6b5cdb6-736e-45b3-8b41-4918a9038182","ios":"levelo://app?vid=f6b5cdb6-736e-45b3-8b41-4918a9038182"},"vehicle_type_id":"4","last_reported":1734840663,"current_range_meters":33600,"station_id":"ce4bhi12rcd13ifvqfp0","pricing_plan_id":"cebpf4jnsgd1na2vs0mg"},{"bike_id":"d3686b5b-a829-479e-a14a-439694ed183e","system_id":"levelo_inurba_marseille","lat":43.2707,"lon":5.4228,"is_reserved":false,"is_disabled":false,"rental_uris":{"android":"levelo://app?vid=d3686b5b-a829-479e-a14a-439694ed183e","ios":"levelo://app?vid=d3686b5b-a829-479e-a14a-439694ed183e"},"vehicle_type_id":"4","last_reported":1734840663,"current_range_meters":30000,"station_id":"ce4bhk92rcd13ifvqgb0","pricing_plan_id":"cebpf4jnsgd1na2vs0mg"},{"bike_id":"22461f5e-1314-4d74-8ccc-6d9b1352b1e6","system_id":"levelo_inurba_marseille","lat":43.28456,"lon":5.35876,"is_reserved":false,"is_disabled":false,"rental_uris":{"android":"levelo://app?vid=22461f5e-1314-4d74-8ccc-6d9b1352b1e6","ios":"levelo://app?vid=22461f5e-1314-4d74-8ccc-6d9b1352b1e6"},"vehicle_type_id":"4","last_reported":1734840663,"current_range_meters":28000,"station_id":"ce4bhah2rcd13ifvqei0","pricing_plan_id":"cebpf4jnsgd1na2vs0mg"},{"bike_id":"6507bce1-e9b4-4aad-bbab-13ef4b5297a4","system_id":"levelo_inurba_marseille","lat":43.31722,"lon":5.424,"is_reserved":false,"is_disabled":false,"rental_uris":{"android":"levelo://app?vid=6507bce1-e9b4-4aad-bbab-13ef4b5297a4","ios":"levelo://app?vid=6507bce1-e9b4-4aad-bbab-13ef4b5297a4"},"vehicle_type_id":"4","last_reported":1734840663,"current_range_meters":38800,"station_id":"ce4bhp92rcd13ifvqhbg","pricing_plan_id":"cebpf4jnsgd1na2vs0mg"},{"bike_id":"44127e4e-8e84-4a38-89f7-8f4efb63f7a5","system_id":"levelo_inurba_marseille","lat":43.31191,"lon":5.3675,"is_reserved":false,"is_disabled":true,"rental_uris":{"android":"levelo://app?vid=44127e4e-8e84-4a38-89f7-8f4efb63f7a5","ios":"levelo://app?vid=44127e4e-8e84-4a38-89f7-8f4efb63f7a5"},"vehicle_type_id":"4","last_reported":1734840663,"current_range_meters":0,"station_id":"","pricing_plan_id":"cebpf4jnsgd1na2vs0mg"},{"bike_id":"63ec5ad9-84d5-45e4-a4c5-2b22423a266f","system_id":"levelo_inurba_marseille","lat":43.289406,"lon":5.396262,"is_reserved":false,"is_disabled":false,"rental_uris":{"android":"levelo://app?vid=63ec5ad9-84d5-45e4-a4c5-2b22423a266f","ios":"levelo://app?vid=63ec5ad9-84d5-45e4-a4c5-2b22423a266f"},"vehicle_type_id":"4","last_reported":1734840663,"current_range_meters":27200,"station_id":"ce4bh3h2rcd13ifvqdn0","pricing_plan_id":"cebpf4jnsgd1na2vs0mg"},{"bike_id":"1eef5757-2a74-4727-868d-9821df78eaa2","system_id":"levelo_inurba_marseille","lat":43.25857,"lon":5.39909,"is_reserved":false,"is_disabled":false,"rental_uris":{"android":"levelo://app?vid=1eef5757-2a74-4727-868d-9821df78eaa2","ios":"levelo://app?vid=1eef5757-2a74-4727-868d-9821df78eaa2"},"vehicle_type_id":"4","last_reported":1734840663,"current_range_meters":38800,"station_id":"ce4bhl92rcd13ifvqghg","pricing_plan_id":"cebpf4jnsgd1na2vs0mg"},{"bike_id":"c80e174f-d21d-4b7d-bbc1-3f10de7e54ef","system_id":"levelo_inurba_marseille","lat":43.30353,"lon":5.41878,"is_reserved":false,"is_disabled":false,"rental_uris":{"android":"levelo://app?vid=c80e174f-d21d-4b7d-bbc1-3f10de7e54ef","ios":"levelo://app?vid=c80e174f-d21d-4b7d-bbc1-3f10de7e54ef"},"vehicle_type_id":"4","last_reported":1734840663,"current_range_meters":37600,"station_id":"ce4bhop2rcd13ifvqh7g","pricing_plan_id":"cebpf4jnsgd1na2vs0mg"},{"bike_id":"ee9930d1-4a33-4c2c-82c2-184216ec6de6","system_id":"levelo_inurba_marseille","lat":43.3155,"lon":5.38038,"is_reserved":false,"is_disabled":false,"rental_uris":{"android":"levelo://app?vid=ee9930d1-4a33-4c2c-82c2-184216ec6de6","ios":"levelo://app?vid=ee9930d1-4a33-4c2c-82c2-184216ec6de6"},"vehicle_type_id":"4","last_reported":1734840663,"current_range_meters":32000,"station_id":"ce4bhsp2rcd13ifvqi50","pricing_plan_id":"cebpf4jnsgd1na2vs0mg"},{"bike_id":"6014ebd4-e8ca-4bce-8e30-b2491ea8684f","system_id":"levelo_inurba_marseille","lat":43.24165,"lon":5.39703,"is_reserved":false,"is_disabled":true,"rental_uris":{"android":"levelo://app?vid=6014ebd4-e8ca-4bce-8e30-b2491ea8684f","ios":"levelo://app?vid=6014ebd4-e8ca-4bce-8e30-b2491ea8684f"},"vehicle_type_id":"4","last_reported":1734840663,"current_range_meters":19600,"station_id":"ce4bhn12rcd13ifvqgpg","pricing_plan_id":"cebpf4jnsgd1na2vs0mg"},{"bike_id":"d69ead64-f352-48c3-b781-daf2cb8997a9","system_id":"levelo_inurba_marseille","lat":43.28108,"lon":5.378389,"is_reserved":false,"is_disabled":false,"rental_uris":{"android":"levelo://app?vid=d69ead64-f352-48c3-b781-daf2cb8997a9","ios":"levelo://app?vid=d69ead64-f352-48c3-b781-daf2cb8997a9"},"vehicle_type_id":"4","last_reported":1734840663,"current_range_meters":39200,"station_id":"ce4bha12rcd13ifvqee0","pricing_plan_id":"cebpf4jnsgd1na2vs0mg"},{"bike_id":"174130b7-6a2d-417f-b637-d362a7b18c9f","system_id":"levelo_inurba_marseille","lat":43.30786,"lon":5.37643,"is_reserved":false,"is_disabled":false,"rental_uris":{"android":"levelo://app?vid=174130b7-6a2d-417f-b637-d362a7b18c9f","ios":"levelo://app?vid=174130b7-6a2d-417f-b637-d362a7b18c9f"},"vehicle_type_id":"4","last_reported":1734840663,"current_range_meters":38000,"station_id":"ce4bgv92rcd13ifvqcq0","pricing_plan_id":"cebpf4jnsgd1na2vs0mg"},{"bike_id":"5fb4272e-94a1-46e9-95a2-461fdab448f5","system_id":"levelo_inurba_marseille","lat":43.30874,"lon":5.39645,"is_reserved":false,"is_disabled":false,"rental_uris":{"android":"levelo://app?vid=5fb4272e-94a1-46e9-95a2-461fdab448f5","ios":"levelo://app?vid=5fb4272e-94a1-46e9-95a2-461fdab448f5"},"vehicle_type_id":"4","last_reported":1734840663,"current_range_meters":38800,"station_id":"ce4bh012rcd13ifvqcv0","pricing_plan_id":"cebpf4jnsgd1na2vs0mg"},{"bike_id":"6f45ab47-f489-442a-8446-3f33c08c9f98","system_id":"levelo_inurba_marseille","lat":43.302519,"lon":5.400631,"is_reserved":false,"is_disabled":false,"rental_uris":{"android":"levelo://app?vid=6f45ab47-f489-442a-8446-3f33c08c9f98","ios":"levelo://app?vid=6f45ab47-f489-442a-8446-3f33c08c9f98"},"vehicle_type_id":"4","last_reported":1734840663,"current_range_meters":28800,"station_id":"ce4bgvh2rcd13ifvqcs0","pricing_plan_id":"cebpf4jnsgd1na2vs0mg"},{"bike_id":"6f0566d3-1521-4f25-812b-72563aae682b","system_id":"levelo_inurba_marseille","lat":43.29039,"lon":5.35914,"is_reserved":false,"is_disabled":false,"rental_uris":{"android":"levelo://app?vid=6f0566d3-1521-4f25-812b-72563aae682b","ios":"levelo://app?vid=6f0566d3-1521-4f25-812b-72563aae682b"},"vehicle_type_id":"4","last_reported":1734840663,"current_range_meters":30000,"station_id":"ce4bha92rcd13ifvqeg0","pricing_plan_id":"cebpf4jnsgd1na2vs0mg"},{"bike_id":"a59b4cb8-90c9-45c9-b1be-98d2502dd8e7","system_id":"levelo_inurba_marseille","lat":43.24665,"lon":5.38158,"is_reserved":false,"is_disabled":false,"rental_uris":{"android":"levelo://app?vid=a59b4cb8-90c9-45c9-b1be-98d2502dd8e7","ios":"levelo://app?vid=a59b4cb8-90c9-45c9-b1be-98d2502dd8e7"},"vehicle_type_id":"4","last_reported":1734840663,"current_range_meters":32000,"station_id":"ce4bhih2rcd13ifvqfr0","pricing_plan_id":"cebpf4jnsgd1na2vs0mg"},{"bike_id":"d2d9894c-be84-4321-a427-88eacdd2e325","system_id":"levelo_inurba_marseille","lat":43.28032,"lon":5.36927,"is_reserved":false,"is_disabled":false,"rental_uris":{"android":"levelo://app?vid=d2d9894c-be84-4321-a427-88eacdd2e325","ios":"levelo://app?vid=d2d9894c-be84-4321-a427-88eacdd2e325"},"vehicle_type_id":"4","last_reported":1734840663,"current_range_meters":37600,"station_id":"ce4bha12rcd13ifvqef0","pricing_plan_id":"cebpf4jnsgd1na2vs0mg"},{"bike_id":"fa6a0a1a-8ca7-4ea4-9aa5-359f93885840","system_id":"levelo_inurba_marseille","lat":43.27562,"lon":5.38397,"is_reserved":false,"is_disabled":false,"rental_uris":{"android":"levelo://app?vid=fa6a0a1a-8ca7-4ea4-9aa5-359f93885840","ios":"levelo://app?vid=fa6a0a1a-8ca7-4ea4-9aa5-359f93885840"},"vehicle_type_id":"4","last_reported":1734840663,"current_range_meters":30400,"station_id":"ce4bhh92rcd13ifvqfi0","pricing_plan_id":"cebpf4jnsgd1na2vs0mg"},{"bike_id":"07117ef6-5df0-416f-9002-067a9a4163c2","system_id":"levelo_inurba_marseille","lat":43.23162,"lon":5.43696,"is_reserved":false,"is_disabled":false,"rental_uris":{"android":"levelo://app?vid=07117ef6-5df0-416f-9002-067a9a4163c2","ios":"levelo://app?vid=07117ef6-5df0-416f-9002-067a9a4163c2"},"vehicle_type_id":"4","last_reported":1734840663,"current_range_meters":38800,"station_id":"ce4bhmp2rcd13ifvqgog","pricing_plan_id":"cebpf4jnsgd1na2vs0mg"},{"bike_id":"edee66a7-cede-46dd-9c52-3bd12840ce22","system_id":"levelo_inurba_marseille","lat":43.313305,"lon":5.396974,"is_reserved":false,"is_disabled":false,"rental_uris":{"android":"levelo://app?vid=edee66a7-cede-46dd-9c52-3bd12840ce22","ios":"levelo://app?vid=edee66a7-cede-46dd-9c52-3bd12840ce22"},"vehicle_type_id":"4","last_reported":1734840663,"current_range_meters":39200,"station_id":"ce4bgvp2rcd13ifvqcu0","pricing_plan_id":"cebpf4jnsgd1na2vs0mg"},{"bike_id":"3473774f-5c39-4ac0-8737-801f833a85e2","system_id":"levelo_inurba_marseille","lat":43.2991,"lon":5.37461,"is_reserved":false,"is_disabled":false,"rental_uris":{"android":"levelo://app?vid=3473774f-5c39-4ac0-8737-801f833a85e2","ios":"levelo://app?vid=3473774f-5c39-4ac0-8737-801f833a85e2"},"vehicle_type_id":"4","last_reported":1734840663,"current_range_meters":36800,"station_id":"ce4bgjh2rcd13ifvqbg0","pricing_plan_id":"cebpf4jnsgd1na2vs0mg"},{"bike_id":"84e09380-e07c-4182-a487-97ea66008fd0","system_id":"levelo_inurba_marseille","lat":43.297888,"lon":5.381149,"is_reserved":false,"is_disabled":true,"rental_uris":{"android":"levelo://app?vid=84e09380-e07c-4182-a487-97ea66008fd0","ios":"levelo://app?vid=84e09380-e07c-4182-a487-97ea66008fd0"},"vehicle_type_id":"4","last_reported":1734840663,"current_range_meters":34800,"station_id":"ce4bgip2rcd13ifvqbb0","pricing_plan_id":"cebpf4jnsgd1na2vs0mg"},{"bike_id":"7debda23-7c80-45dc-ad67-51710521f551","system_id":"levelo_inurba_marseille","lat":43.29251,"lon":5.40147,"is_reserved":false,"is_disabled":false,"rental_uris":{"android":"levelo://app?vid=7debda23-7c80-45dc-ad67-51710521f551","ios":"levelo://app?vid=7debda23-7c80-45dc-ad67-51710521f551"},"vehicle_type_id":"4","last_reported":1734840663,"current_range_meters":24400,"station_id":"ce4bh312rcd13ifvqdk0","pricing_plan_id":"cebpf4jnsgd1na2vs0mg"},{"bike_id":"2a2c0cfa-f9a8-4c73-a96c-db7e83d7bc8f","system_id":"levelo_inurba_marseille","lat":43.305367,"lon":5.384326,"is_reserved":false,"is_disabled":false,"rental_uris":{"android":"levelo://app?vid=2a2c0cfa-f9a8-4c73-a96c-db7e83d7bc8f","ios":"levelo://app?vid=2a2c0cfa-f9a8-4c73-a96c-db7e83d7bc8f"},"vehicle_type_id":"4","last_reported":1734840663,"current_range_meters":36800,"station_id":"ce4bgg92rcd13ifvqb30","pricing_plan_id":"cebpf4jnsgd1na2vs0mg"},{"bike_id":"78461460-4e37-4b82-9556-c468bd41c218","system_id":"levelo_inurba_marseille","lat":43.30414,"lon":5.39757,"is_reserved":false,"is_disabled":false,"rental_uris":{"android":"levelo://app?vid=78461460-4e37-4b82-9556-c468bd41c218","ios":"levelo://app?vid=78461460-4e37-4b82-9556-c468bd41c218"},"vehicle_type_id":"4","last_reported":1734840663,"current_range_meters":30400,"station_id":"ce4bh092rcd13ifvqd20","pricing_plan_id":"cebpf4jnsgd1na2vs0mg"},{"bike_id":"487b8db3-e21f-4690-94db-3b3cf5955e45","system_id":"levelo_inurba_marseille","lat":43.26061,"lon":5.39395,"is_reserved":false,"is_disabled":false,"rental_uris":{"android":"levelo://app?vid=487b8db3-e21f-4690-94db-3b3cf5955e45","ios":"levelo://app?vid=487b8db3-e21f-4690-94db-3b3cf5955e45"},"vehicle_type_id":"4","last_reported":1734840663,"current_range_meters":29600,"station_id":"ce4bhh92rcd13ifvqfj0","pricing_plan_id":"cebpf4jnsgd1na2vs0mg"},{"bike_id":"6865cfa9-6a00-44f6-88bd-a2dcea53706b","system_id":"levelo_inurba_marseille","lat":43.25878,"lon":5.39919,"is_reserved":false,"is_disabled":false,"rental_uris":{"android":"levelo://app?vid=6865cfa9-6a00-44f6-88bd-a2dcea53706b","ios":"levelo://app?vid=6865cfa9-6a00-44f6-88bd-a2dcea53706b"},"vehicle_type_id":"4","last_reported":1734840663,"current_range_meters":24800,"station_id":"ce4bhl92rcd13ifvqghg","pricing_plan_id":"cebpf4jnsgd1na2vs0mg"},{"bike_id":"641d39d1-88cc-4f20-9fcf-9a79e49a860c","system_id":"levelo_inurba_marseille","lat":43.289419,"lon":5.366332,"is_reserved":false,"is_disabled":false,"rental_uris":{"android":"levelo://app?vid=641d39d1-88cc-4f20-9fcf-9a79e49a860c","ios":"levelo://app?vid=641d39d1-88cc-4f20-9fcf-9a79e49a860c"},"vehicle_type_id":"4","last_reported":1734840663,"current_range_meters":38800,"station_id":"ce4bhap2rcd13ifvqek0","pricing_plan_id":"cebpf4jnsgd1na2vs0mg"},{"bike_id":"19b68283-483c-4873-91f9-2079530f77fc","system_id":"levelo_inurba_marseille","lat":43.25116,"lon":5.40314,"is_reserved":false,"is_disabled":false,"rental_uris":{"android":"levelo://app?vid=19b68283-483c-4873-91f9-2079530f77fc","ios":"levelo://app?vid=19b68283-483c-4873-91f9-2079530f77fc"},"vehicle_type_id":"4","last_reported":1734840663,"current_range_meters":26800,"station_id":"ce4bhlh2rcd13ifvqgig","pricing_plan_id":"cebpf4jnsgd1na2vs0mg"},{"bike_id":"0de29659-f893-4ce9-8e5e-9d2db652a00f","system_id":"levelo_inurba_marseille","lat":43.28936,"lon":5.36625,"is_reserved":false,"is_disabled":false,"rental_uris":{"android":"levelo://app?vid=0de29659-f893-4ce9-8e5e-9d2db652a00f","ios":"levelo://app?vid=0de29659-f893-4ce9-8e5e-9d2db652a00f"},"vehicle_type_id":"4","last_reported":1734840663,"current_range_meters":28000,"station_id":"ce4bhap2rcd13ifvqek0","pricing_plan_id":"cebpf4jnsgd1na2vs0mg"},{"bike_id":"2f588187-a7f6-40b6-a3b3-6d06794395f7","system_id":"levelo_inurba_marseille","lat":43.310694,"lon":5.383462,"is_reserved":false,"is_disabled":false,"rental_uris":{"android":"levelo://app?vid=2f588187-a7f6-40b6-a3b3-6d06794395f7","ios":"levelo://app?vid=2f588187-a7f6-40b6-a3b3-6d06794395f7"},"vehicle_type_id":"4","last_reported":1734840663,"current_range_meters":30800,"station_id":"ce4bgv92rcd13ifvqcr0","pricing_plan_id":"cebpf4jnsgd1na2vs0mg"},{"bike_id":"54c315b6-ce30-4d23-99a7-a112ef2b7153","system_id":"levelo_inurba_marseille","lat":43.266826,"lon":5.382728,"is_reserved":false,"is_disabled":false,"rental_uris":{"android":"levelo://app?vid=54c315b6-ce30-4d23-99a7-a112ef2b7153","ios":"levelo://app?vid=54c315b6-ce30-4d23-99a7-a112ef2b7153"},"vehicle_type_id":"4","last_reported":1734840663,"current_range_meters":18000,"station_id":"ce4bhg92rcd13ifvqf90","pricing_plan_id":"cebpf4jnsgd1na2vs0mg"},{"bike_id":"7e9ad310-d592-4d0c-98bc-d8af9cfcc465","system_id":"levelo_inurba_marseille","lat":43.31276,"lon":5.40166,"is_reserved":false,"is_disabled":false,"rental_uris":{"android":"levelo://app?vid=7e9ad310-d592-4d0c-98bc-d8af9cfcc465","ios":"levelo://app?vid=7e9ad310-d592-4d0c-98bc-d8af9cfcc465"},"vehicle_type_id":"4","last_reported":1734840663,"current_range_meters":37600,"station_id":"ce4bh092rcd13ifvqd30","pricing_plan_id":"cebpf4jnsgd1na2vs0mg"},{"bike_id":"9706553a-53c4-469b-911a-bb54badca5be","system_id":"levelo_inurba_marseille","lat":43.27814,"lon":5.4071,"is_reserved":false,"is_disabled":false,"rental_uris":{"android":"levelo://app?vid=9706553a-53c4-469b-911a-bb54badca5be","ios":"levelo://app?vid=9706553a-53c4-469b-911a-bb54badca5be"},"vehicle_type_id":"4","last_reported":1734840663,"current_range_meters":23200,"station_id":"ce4bhnh2rcd13ifvqgtg","pricing_plan_id":"cebpf4jnsgd1na2vs0mg"},{"bike_id":"2c9f1b35-5914-4a8e-954b-6e48afaf36af","system_id":"levelo_inurba_marseille","lat":43.23955,"lon":5.36637,"is_reserved":false,"is_disabled":false,"rental_uris":{"android":"levelo://app?vid=2c9f1b35-5914-4a8e-954b-6e48afaf36af","ios":"levelo://app?vid=2c9f1b35-5914-4a8e-954b-6e48afaf36af"},"vehicle_type_id":"4","last_reported":1734840663,"current_range_meters":38800,"station_id":"ce4bhi12rcd13ifvqfp0","pricing_plan_id":"cebpf4jnsgd1na2vs0mg"},{"bike_id":"6ccfee2d-8f51-44b5-9533-41058369fdbe","system_id":"levelo_inurba_marseille","lat":43.26786,"lon":5.39413,"is_reserved":false,"is_disabled":false,"rental_uris":{"android":"levelo://app?vid=6ccfee2d-8f51-44b5-9533-41058369fdbe","ios":"levelo://app?vid=6ccfee2d-8f51-44b5-9533-41058369fdbe"},"vehicle_type_id":"4","last_reported":1734840663,"current_range_meters":20000,"station_id":"ce4bhh12rcd13ifvqfg0","pricing_plan_id":"cebpf4jnsgd1na2vs0mg"},{"bike_id":"8c6c4d90-8388-4072-a1ca-574fdfbd363f","system_id":"levelo_inurba_marseille","lat":43.26773,"lon":5.39416,"is_reserved":false,"is_disabled":false,"rental_uris":{"android":"levelo://app?vid=8c6c4d90-8388-4072-a1ca-574fdfbd363f","ios":"levelo://app?vid=8c6c4d90-8388-4072-a1ca-574fdfbd363f"},"vehicle_type_id":"4","last_reported":1734840663,"current_range_meters":39200,"station_id":"ce4bhh12rcd13ifvqfg0","pricing_plan_id":"cebpf4jnsgd1na2vs0mg"},{"bike_id":"3c3d4ab0-1d0d-4f93-ae93-7546329a4b26","system_id":"levelo_inurba_marseille","lat":43.31486,"lon":5.37305,"is_reserved":false,"is_disabled":false,"rental_uris":{"android":"levelo://app?vid=3c3d4ab0-1d0d-4f93-ae93-7546329a4b26","ios":"levelo://app?vid=3c3d4ab0-1d0d-4f93-ae93-7546329a4b26"},"vehicle_type_id":"4","last_reported":1734840663,"current_range_meters":35200,"station_id":"ce4bgt12rcd13ifvqcd0","pricing_plan_id":"cebpf4jnsgd1na2vs0mg"},{"bike_id":"1ee602a9-5209-486f-9d3d-3e619acbde7c","system_id":"levelo_inurba_marseille","lat":43.31708,"lon":5.37771,"is_reserved":false,"is_disabled":false,"rental_uris":{"android":"levelo://app?vid=1ee602a9-5209-486f-9d3d-3e619acbde7c","ios":"levelo://app?vid=1ee602a9-5209-486f-9d3d-3e619acbde7c"},"vehicle_type_id":"4","last_reported":1734840663,"current_range_meters":21600,"station_id":"ce4bgth2rcd13ifvqch0","pricing_plan_id":"cebpf4jnsgd1na2vs0mg"},{"bike_id":"21c91516-42b8-48e3-94c4-6689a3361c95","system_id":"levelo_inurba_marseille","lat":43.29565,"lon":5.42266,"is_reserved":false,"is_disabled":false,"rental_uris":{"android":"levelo://app?vid=21c91516-42b8-48e3-94c4-6689a3361c95","ios":"levelo://app?vid=21c91516-42b8-48e3-94c4-6689a3361c95"},"vehicle_type_id":"4","last_reported":1734840663,"current_range_meters":38800,"station_id":"ce4bhph2rcd13ifvqhdg","pricing_plan_id":"cebpf4jnsgd1na2vs0mg"},{"bike_id":"8f66c8f9-688c-474d-aea9-a77825392fc4","system_id":"levelo_inurba_marseille","lat":43.28328,"lon":5.38119,"is_reserved":false,"is_disabled":false,"rental_uris":{"android":"levelo://app?vid=8f66c8f9-688c-474d-aea9-a77825392fc4","ios":"levelo://app?vid=8f66c8f9-688c-474d-aea9-a77825392fc4"},"vehicle_type_id":"4","last_reported":1734840663,"current_range_meters":39200,"station_id":"ce4bh412rcd13ifvqdr0","pricing_plan_id":"cebpf4jnsgd1na2vs0mg"},{"bike_id":"bf9a15af-c387-4e0e-83c2-5db944adc348","system_id":"levelo_inurba_marseille","lat":43.28,"lon":5.40012,"is_reserved":false,"is_disabled":false,"rental_uris":{"android":"levelo://app?vid=bf9a15af-c387-4e0e-83c2-5db944adc348","ios":"levelo://app?vid=bf9a15af-c387-4e0e-83c2-5db944adc348"},"vehicle_type_id":"4","last_reported":1734840663,"current_range_meters":27600,"station_id":"ce4bho92rcd13ifvqh4g","pricing_plan_id":"cebpf4jnsgd1na2vs0mg"},{"bike_id":"591e56d3-570f-4000-8104-235340497ab2","system_id":"levelo_inurba_marseille","lat":43.28031,"lon":5.36949,"is_reserved":false,"is_disabled":false,"rental_uris":{"android":"levelo://app?vid=591e56d3-570f-4000-8104-235340497ab2","ios":"levelo://app?vid=591e56d3-570f-4000-8104-235340497ab2"},"vehicle_type_id":"4","last_reported":1734840663,"current_range_meters":38800,"station_id":"ce4bha12rcd13ifvqef0","pricing_plan_id":"cebpf4jnsgd1na2vs0mg"},{"bike_id":"90fbf7b3-3e59-4761-9ba2-48103aa75f60","system_id":"levelo_inurba_marseille","lat":43.29949,"lon":5.4361,"is_reserved":false,"is_disabled":false,"rental_uris":{"android":"levelo://app?vid=90fbf7b3-3e59-4761-9ba2-48103aa75f60","ios":"levelo://app?vid=90fbf7b3-3e59-4761-9ba2-48103aa75f60"},"vehicle_type_id":"4","last_reported":1734840663,"current_range_meters":24800,"station_id":"","pricing_plan_id":"cebpf4jnsgd1na2vs0mg"},{"bike_id":"d3206bb9-1faa-41a1-80e9-99899c296fa9","system_id":"levelo_inurba_marseille","lat":43.27557,"lon":5.38411,"is_reserved":false,"is_disabled":false,"rental_uris":{"android":"levelo://app?vid=d3206bb9-1faa-41a1-80e9-99899c296fa9","ios":"levelo://app?vid=d3206bb9-1faa-41a1-80e9-99899c296fa9"},"vehicle_type_id":"4","last_reported":1734840663,"current_range_meters":38800,"station_id":"ce4bhh92rcd13ifvqfi0","pricing_plan_id":"cebpf4jnsgd1na2vs0mg"},{"bike_id":"6bda5f81-4461-449d-a260-822e9ee73f46","system_id":"levelo_inurba_marseille","lat":43.26199,"lon":5.37929,"is_reserved":false,"is_disabled":false,"rental_uris":{"android":"levelo://app?vid=6bda5f81-4461-449d-a260-822e9ee73f46","ios":"levelo://app?vid=6bda5f81-4461-449d-a260-822e9ee73f46"},"vehicle_type_id":"4","last_reported":1734840663,"current_range_meters":36400,"station_id":"ce4bhjp2rcd13ifvqg90","pricing_plan_id":"cebpf4jnsgd1na2vs0mg"},{"bike_id":"227b8709-a253-45c2-b4c3-fa7ef48a7c09","system_id":"levelo_inurba_marseille","lat":43.26945,"lon":5.38631,"is_reserved":false,"is_disabled":false,"rental_uris":{"android":"levelo://app?vid=227b8709-a253-45c2-b4c3-fa7ef48a7c09","ios":"levelo://app?vid=227b8709-a253-45c2-b4c3-fa7ef48a7c09"},"vehicle_type_id":"4","last_reported":1734840663,"current_range_meters":30000,"station_id":"ce4bhh92rcd13ifvqfh0","pricing_plan_id":"cebpf4jnsgd1na2vs0mg"},{"bike_id":"7646be54-ccce-4459-bfcd-5f70b1a12064","system_id":"levelo_inurba_marseille","lat":43.322875,"lon":5.382788,"is_reserved":false,"is_disabled":false,"rental_uris":{"android":"levelo://app?vid=7646be54-ccce-4459-bfcd-5f70b1a12064","ios":"levelo://app?vid=7646be54-ccce-4459-bfcd-5f70b1a12064"},"vehicle_type_id":"4","last_reported":1734840663,"current_range_meters":37600,"station_id":"ce4bhr12rcd13ifvqhqg","pricing_plan_id":"cebpf4jnsgd1na2vs0mg"},{"bike_id":"21ebe8be-0e2d-48fc-92b0-4f5dd7d9723b","system_id":"levelo_inurba_marseille","lat":43.341402,"lon":5.409075,"is_reserved":false,"is_disabled":false,"rental_uris":{"android":"levelo://app?vid=21ebe8be-0e2d-48fc-92b0-4f5dd7d9723b","ios":"levelo://app?vid=21ebe8be-0e2d-48fc-92b0-4f5dd7d9723b"},"vehicle_type_id":"4","last_reported":1734840663,"current_range_meters":18800,"station_id":"ce4bhqh2rcd13ifvqhlg","pricing_plan_id":"cebpf4jnsgd1na2vs0mg"},{"bike_id":"026999fa-61d0-4502-a7a1-9ad6c26feb7c","system_id":"levelo_inurba_marseille","lat":43.30924,"lon":5.37187,"is_reserved":false,"is_disabled":false,"rental_uris":{"android":"levelo://app?vid=026999fa-61d0-4502-a7a1-9ad6c26feb7c","ios":"levelo://app?vid=026999fa-61d0-4502-a7a1-9ad6c26feb7c"},"vehicle_type_id":"4","last_reported":1734840663,"current_range_meters":28800,"station_id":"ce4bguh2rcd13ifvqckg","pricing_plan_id":"cebpf4jnsgd1na2vs0mg"},{"bike_id":"b9a2a5db-4e4f-4472-9221-981416be1b6c","system_id":"levelo_inurba_marseille","lat":43.301319,"lon":5.398809,"is_reserved":false,"is_disabled":true,"rental_uris":{"android":"levelo://app?vid=b9a2a5db-4e4f-4472-9221-981416be1b6c","ios":"levelo://app?vid=b9a2a5db-4e4f-4472-9221-981416be1b6c"},"vehicle_type_id":"4","last_reported":1734840663,"current_range_meters":36800,"station_id":"ce4bh0h2rcd13ifvqd40","pricing_plan_id":"cebpf4jnsgd1na2vs0mg"},{"bike_id":"e4e15143-800c-4f49-a6bc-8331a0ba0e9d","system_id":"levelo_inurba_marseille","lat":43.25552,"lon":5.38246,"is_reserved":false,"is_disabled":false,"rental_uris":{"android":"levelo://app?vid=e4e15143-800c-4f49-a6bc-8331a0ba0e9d","ios":"levelo://app?vid=e4e15143-800c-4f49-a6bc-8331a0ba0e9d"},"vehicle_type_id":"4","last_reported":1734840663,"current_range_meters":38800,"station_id":"ce4bhih2rcd13ifvqfs0","pricing_plan_id":"cebpf4jnsgd1na2vs0mg"},{"bike_id":"46c308aa-af0a-4eb7-815a-5fb9b83d1f42","system_id":"levelo_inurba_marseille","lat":43.29925,"lon":5.37484,"is_reserved":false,"is_disabled":false,"rental_uris":{"android":"levelo://app?vid=46c308aa-af0a-4eb7-815a-5fb9b83d1f42","ios":"levelo://app?vid=46c308aa-af0a-4eb7-815a-5fb9b83d1f42"},"vehicle_type_id":"4","last_reported":1734840663,"current_range_meters":38800,"station_id":"ce4bgjh2rcd13ifvqbg0","pricing_plan_id":"cebpf4jnsgd1na2vs0mg"},{"bike_id":"dabdb816-8280-4165-8f88-ae205fe0accb","system_id":"levelo_inurba_marseille","lat":43.23963,"lon":5.366459,"is_reserved":false,"is_disabled":false,"rental_uris":{"android":"levelo://app?vid=dabdb816-8280-4165-8f88-ae205fe0accb","ios":"levelo://app?vid=dabdb816-8280-4165-8f88-ae205fe0accb"},"vehicle_type_id":"4","last_reported":1734840663,"current_range_meters":33600,"station_id":"ce4bhi12rcd13ifvqfp0","pricing_plan_id":"cebpf4jnsgd1na2vs0mg"},{"bike_id":"5106d37b-0c2c-45bf-b0a7-aeea7a689225","system_id":"levelo_inurba_marseille","lat":43.31161,"lon":5.38719,"is_reserved":false,"is_disabled":false,"rental_uris":{"android":"levelo://app?vid=5106d37b-0c2c-45bf-b0a7-aeea7a689225","ios":"levelo://app?vid=5106d37b-0c2c-45bf-b0a7-aeea7a689225"},"vehicle_type_id":"4","last_reported":1734840663,"current_range_meters":22800,"station_id":"ce4bgv12rcd13ifvqcp0","pricing_plan_id":"cebpf4jnsgd1na2vs0mg"},{"bike_id":"18bc712f-05f8-4bfe-a81a-9b0f3911a5b1","system_id":"levelo_inurba_marseille","lat":43.27551,"lon":5.38433,"is_reserved":false,"is_disabled":false,"rental_uris":{"android":"levelo://app?vid=18bc712f-05f8-4bfe-a81a-9b0f3911a5b1","ios":"levelo://app?vid=18bc712f-05f8-4bfe-a81a-9b0f3911a5b1"},"vehicle_type_id":"4","last_reported":1734840663,"current_range_meters":39200,"station_id":"ce4bhh92rcd13ifvqfi0","pricing_plan_id":"cebpf4jnsgd1na2vs0mg"},{"bike_id":"78a83f32-f268-456b-a086-d2e1fab5ef91","system_id":"levelo_inurba_marseille","lat":43.27903,"lon":5.38013,"is_reserved":false,"is_disabled":false,"rental_uris":{"android":"levelo://app?vid=78a83f32-f268-456b-a086-d2e1fab5ef91","ios":"levelo://app?vid=78a83f32-f268-456b-a086-d2e1fab5ef91"},"vehicle_type_id":"4","last_reported":1734840663,"current_range_meters":37600,"station_id":"ce4bhf92rcd13ifvqf50","pricing_plan_id":"cebpf4jnsgd1na2vs0mg"},{"bike_id":"30e72b1a-1910-4987-ad2d-02ceefad201f","system_id":"levelo_inurba_marseille","lat":43.279668,"lon":5.387006,"is_reserved":false,"is_disabled":false,"rental_uris":{"android":"levelo://app?vid=30e72b1a-1910-4987-ad2d-02ceefad201f","ios":"levelo://app?vid=30e72b1a-1910-4987-ad2d-02ceefad201f"},"vehicle_type_id":"4","last_reported":1734840663,"current_range_meters":36400,"station_id":"ce4bhg12rcd13ifvqf80","pricing_plan_id":"cebpf4jnsgd1na2vs0mg"},{"bike_id":"4a85d723-500f-4fee-8146-cd30b45c3aa8","system_id":"levelo_inurba_marseille","lat":43.23184,"lon":5.35556,"is_reserved":false,"is_disabled":false,"rental_uris":{"android":"levelo://app?vid=4a85d723-500f-4fee-8146-cd30b45c3aa8","ios":"levelo://app?vid=4a85d723-500f-4fee-8146-cd30b45c3aa8"},"vehicle_type_id":"4","last_reported":1734840663,"current_range_meters":38000,"station_id":"ce4bhu92rcd13ifvqi70","pricing_plan_id":"cebpf4jnsgd1na2vs0mg"},{"bike_id":"56d45b46-9510-4eba-8754-d727d22aa4e0","system_id":"levelo_inurba_marseille","lat":43.28099,"lon":5.37839,"is_reserved":false,"is_disabled":false,"rental_uris":{"android":"levelo://app?vid=56d45b46-9510-4eba-8754-d727d22aa4e0","ios":"levelo://app?vid=56d45b46-9510-4eba-8754-d727d22aa4e0"},"vehicle_type_id":"4","last_reported":1734840663,"current_range_meters":24400,"station_id":"ce4bha12rcd13ifvqee0","pricing_plan_id":"cebpf4jnsgd1na2vs0mg"},{"bike_id":"28914c1d-40ed-4db8-aff2-9cd5e739b4f4","system_id":"levelo_inurba_marseille","lat":43.270527,"lon":5.402624,"is_reserved":false,"is_disabled":false,"rental_uris":{"android":"levelo://app?vid=28914c1d-40ed-4db8-aff2-9cd5e739b4f4","ios":"levelo://app?vid=28914c1d-40ed-4db8-aff2-9cd5e739b4f4"},"vehicle_type_id":"4","last_reported":1734840663,"current_range_meters":30400,"station_id":"ce4bhk92rcd13ifvqgc0","pricing_plan_id":"cebpf4jnsgd1na2vs0mg"},{"bike_id":"9e7661e6-cb24-441f-9f34-a97f4c746eea","system_id":"levelo_inurba_marseille","lat":43.30279,"lon":5.37695,"is_reserved":false,"is_disabled":false,"rental_uris":{"android":"levelo://app?vid=9e7661e6-cb24-441f-9f34-a97f4c746eea","ios":"levelo://app?vid=9e7661e6-cb24-441f-9f34-a97f4c746eea"},"vehicle_type_id":"4","last_reported":1734840663,"current_range_meters":37600,"station_id":"ce4bguh2rcd13ifvqcj0","pricing_plan_id":"cebpf4jnsgd1na2vs0mg"},{"bike_id":"dfcdb34a-6d91-4bd5-83b3-df14955564a1","system_id":"levelo_inurba_marseille","lat":43.27816,"lon":5.3917,"is_reserved":false,"is_disabled":false,"rental_uris":{"android":"levelo://app?vid=dfcdb34a-6d91-4bd5-83b3-df14955564a1","ios":"levelo://app?vid=dfcdb34a-6d91-4bd5-83b3-df14955564a1"},"vehicle_type_id":"4","last_reported":1734840663,"current_range_meters":4000,"station_id":"ce4bhjp2rcd13ifvqga0","pricing_plan_id":"cebpf4jnsgd1na2vs0mg"},{"bike_id":"cbf1ec11-8d33-4f4b-86f9-f0323ee50e1a","system_id":"levelo_inurba_marseille","lat":43.23968,"lon":5.36613,"is_reserved":false,"is_disabled":false,"rental_uris":{"android":"levelo://app?vid=cbf1ec11-8d33-4f4b-86f9-f0323ee50e1a","ios":"levelo://app?vid=cbf1ec11-8d33-4f4b-86f9-f0323ee50e1a"},"vehicle_type_id":"4","last_reported":1734840663,"current_range_meters":38800,"station_id":"ce4bhi12rcd13ifvqfp0","pricing_plan_id":"cebpf4jnsgd1na2vs0mg"},{"bike_id":"1482f585-6c4e-4143-bc22-40ccdbc5b2ac","system_id":"levelo_inurba_marseille","lat":43.31169,"lon":5.38715,"is_reserved":false,"is_disabled":false,"rental_uris":{"android":"levelo://app?vid=1482f585-6c4e-4143-bc22-40ccdbc5b2ac","ios":"levelo://app?vid=1482f585-6c4e-4143-bc22-40ccdbc5b2ac"},"vehicle_type_id":"4","last_reported":1734840663,"current_range_meters":30000,"station_id":"ce4bgv12rcd13ifvqcp0","pricing_plan_id":"cebpf4jnsgd1na2vs0mg"},{"bike_id":"def99a7d-7a23-40f0-a391-05dfff8e59b7","system_id":"levelo_inurba_marseille","lat":43.29794,"lon":5.40407,"is_reserved":false,"is_disabled":false,"rental_uris":{"android":"levelo://app?vid=def99a7d-7a23-40f0-a391-05dfff8e59b7","ios":"levelo://app?vid=def99a7d-7a23-40f0-a391-05dfff8e59b7"},"vehicle_type_id":"4","last_reported":1734840663,"current_range_meters":6400,"station_id":"ce4bh112rcd13ifvqd90","pricing_plan_id":"cebpf4jnsgd1na2vs0mg"},{"bike_id":"e0a32ec0-1524-44f6-b48a-381c8e58ba62","system_id":"levelo_inurba_marseille","lat":43.32642,"lon":5.40973,"is_reserved":false,"is_disabled":false,"rental_uris":{"android":"levelo://app?vid=e0a32ec0-1524-44f6-b48a-381c8e58ba62","ios":"levelo://app?vid=e0a32ec0-1524-44f6-b48a-381c8e58ba62"},"vehicle_type_id":"4","last_reported":1734840663,"current_range_meters":11200,"station_id":"ce4bhpp2rcd13ifvqhgg","pricing_plan_id":"cebpf4jnsgd1na2vs0mg"},{"bike_id":"b3892659-9184-49c1-aa37-83587cc73590","system_id":"levelo_inurba_marseille","lat":43.25755,"lon":5.41107,"is_reserved":false,"is_disabled":false,"rental_uris":{"android":"levelo://app?vid=b3892659-9184-49c1-aa37-83587cc73590","ios":"levelo://app?vid=b3892659-9184-49c1-aa37-83587cc73590"},"vehicle_type_id":"4","last_reported":1734840663,"current_range_meters":24000,"station_id":"","pricing_plan_id":"cebpf4jnsgd1na2vs0mg"},{"bike_id":"a9cc5702-9e04-48e5-9414-d78f4f15102e","system_id":"levelo_inurba_marseille","lat":43.30911,"lon":5.3686,"is_reserved":false,"is_disabled":false,"rental_uris":{"android":"levelo://app?vid=a9cc5702-9e04-48e5-9414-d78f4f15102e","ios":"levelo://app?vid=a9cc5702-9e04-48e5-9414-d78f4f15102e"},"vehicle_type_id":"4","last_reported":1734840663,"current_range_meters":38000,"station_id":"ce4bgn92rcd13ifvqbvg","pricing_plan_id":"cebpf4jnsgd1na2vs0mg"},{"bike_id":"1b0e9d34-71b5-4d2a-8c59-b2701c6566e6","system_id":"levelo_inurba_marseille","lat":43.25506,"lon":5.37632,"is_reserved":false,"is_disabled":false,"rental_uris":{"android":"levelo://app?vid=1b0e9d34-71b5-4d2a-8c59-b2701c6566e6","ios":"levelo://app?vid=1b0e9d34-71b5-4d2a-8c59-b2701c6566e6"},"vehicle_type_id":"4","last_reported":1734840663,"current_range_meters":38800,"station_id":"ce4bhh12rcd13ifvqff0","pricing_plan_id":"cebpf4jnsgd1na2vs0mg"},{"bike_id":"af69642e-0e19-49a5-8218-c9fa1bfb2cd3","system_id":"levelo_inurba_marseille","lat":43.2717,"lon":5.40996,"is_reserved":false,"is_disabled":false,"rental_uris":{"android":"levelo://app?vid=af69642e-0e19-49a5-8218-c9fa1bfb2cd3","ios":"levelo://app?vid=af69642e-0e19-49a5-8218-c9fa1bfb2cd3"},"vehicle_type_id":"4","last_reported":1734840663,"current_range_meters":34000,"station_id":"ce4bhl12rcd13ifvqgf0","pricing_plan_id":"cebpf4jnsgd1na2vs0mg"},{"bike_id":"ef79c047-6c72-4916-ad9a-fd9a3dd38f21","system_id":"levelo_inurba_marseille","lat":43.27494,"lon":5.42448,"is_reserved":false,"is_disabled":false,"rental_uris":{"android":"levelo://app?vid=ef79c047-6c72-4916-ad9a-fd9a3dd38f21","ios":"levelo://app?vid=ef79c047-6c72-4916-ad9a-fd9a3dd38f21"},"vehicle_type_id":"4","last_reported":1734840663,"current_range_meters":14400,"station_id":"ce4bhn92rcd13ifvqgrg","pricing_plan_id":"cebpf4jnsgd1na2vs0mg"},{"bike_id":"55e298e2-1858-4874-a779-3f89b855af48","system_id":"levelo_inurba_marseille","lat":43.29275,"lon":5.40115,"is_reserved":false,"is_disabled":false,"rental_uris":{"android":"levelo://app?vid=55e298e2-1858-4874-a779-3f89b855af48","ios":"levelo://app?vid=55e298e2-1858-4874-a779-3f89b855af48"},"vehicle_type_id":"4","last_reported":1734840663,"current_range_meters":12000,"station_id":"ce4bh312rcd13ifvqdk0","pricing_plan_id":"cebpf4jnsgd1na2vs0mg"},{"bike_id":"a8241d4a-6511-4c13-8389-e037a362bfcf","system_id":"levelo_inurba_marseille","lat":43.28445,"lon":5.35896,"is_reserved":false,"is_disabled":false,"rental_uris":{"android":"levelo://app?vid=a8241d4a-6511-4c13-8389-e037a362bfcf","ios":"levelo://app?vid=a8241d4a-6511-4c13-8389-e037a362bfcf"},"vehicle_type_id":"4","last_reported":1734840663,"current_range_meters":38800,"station_id":"ce4bhah2rcd13ifvqei0","pricing_plan_id":"cebpf4jnsgd1na2vs0mg"},{"bike_id":"22dc9479-4c03-46af-b032-d31c9c8e71b4","system_id":"levelo_inurba_marseille","lat":43.31173,"lon":5.38714,"is_reserved":false,"is_disabled":false,"rental_uris":{"android":"levelo://app?vid=22dc9479-4c03-46af-b032-d31c9c8e71b4","ios":"levelo://app?vid=22dc9479-4c03-46af-b032-d31c9c8e71b4"},"vehicle_type_id":"4","last_reported":1734840663,"current_range_meters":25200,"station_id":"ce4bgv12rcd13ifvqcp0","pricing_plan_id":"cebpf4jnsgd1na2vs0mg"},{"bike_id":"90e0c42e-4d11-4884-8c7e-e2b7d7813e78","system_id":"levelo_inurba_marseille","lat":43.30305,"lon":5.37679,"is_reserved":false,"is_disabled":false,"rental_uris":{"android":"levelo://app?vid=90e0c42e-4d11-4884-8c7e-e2b7d7813e78","ios":"levelo://app?vid=90e0c42e-4d11-4884-8c7e-e2b7d7813e78"},"vehicle_type_id":"4","last_reported":1734840663,"current_range_meters":39200,"station_id":"ce4bguh2rcd13ifvqcj0","pricing_plan_id":"cebpf4jnsgd1na2vs0mg"},{"bike_id":"537ef1bf-3a78-45af-b334-3a2c52a599a8","system_id":"levelo_inurba_marseille","lat":43.3414,"lon":5.40899,"is_reserved":false,"is_disabled":true,"rental_uris":{"android":"levelo://app?vid=537ef1bf-3a78-45af-b334-3a2c52a599a8","ios":"levelo://app?vid=537ef1bf-3a78-45af-b334-3a2c52a599a8"},"vehicle_type_id":"4","last_reported":1734840663,"current_range_meters":800,"station_id":"ce4bhqh2rcd13ifvqhlg","pricing_plan_id":"cebpf4jnsgd1na2vs0mg"},{"bike_id":"4724d5dc-7aaf-4c2e-aa96-83918549443a","system_id":"levelo_inurba_marseille","lat":43.27923,"lon":5.39589,"is_reserved":false,"is_disabled":false,"rental_uris":{"android":"levelo://app?vid=4724d5dc-7aaf-4c2e-aa96-83918549443a","ios":"levelo://app?vid=4724d5dc-7aaf-4c2e-aa96-83918549443a"},"vehicle_type_id":"4","last_reported":1734840663,"current_range_meters":25200,"station_id":"ce4bhf92rcd13ifvqf40","pricing_plan_id":"cebpf4jnsgd1na2vs0mg"},{"bike_id":"5af896b0-8716-40bc-88dc-2f546a449d6e","system_id":"levelo_inurba_marseille","lat":43.28461,"lon":5.35879,"is_reserved":false,"is_disabled":false,"rental_uris":{"android":"levelo://app?vid=5af896b0-8716-40bc-88dc-2f546a449d6e","ios":"levelo://app?vid=5af896b0-8716-40bc-88dc-2f546a449d6e"},"vehicle_type_id":"4","last_reported":1734840663,"current_range_meters":28000,"station_id":"ce4bhah2rcd13ifvqei0","pricing_plan_id":"cebpf4jnsgd1na2vs0mg"},{"bike_id":"88451a00-5ecd-4ab5-91f4-d6e64d252e2c","system_id":"levelo_inurba_marseille","lat":43.293,"lon":5.37453,"is_reserved":false,"is_disabled":true,"rental_uris":{"android":"levelo://app?vid=88451a00-5ecd-4ab5-91f4-d6e64d252e2c","ios":"levelo://app?vid=88451a00-5ecd-4ab5-91f4-d6e64d252e2c"},"vehicle_type_id":"4","last_reported":1734840663,"current_range_meters":37600,"station_id":"ce4bgi12rcd13ifvqb70","pricing_plan_id":"cebpf4jnsgd1na2vs0mg"},{"bike_id":"b07e0204-2c57-49d1-a1f7-320de8610e25","system_id":"levelo_inurba_marseille","lat":43.29402,"lon":5.37344,"is_reserved":false,"is_disabled":false,"rental_uris":{"android":"levelo://app?vid=b07e0204-2c57-49d1-a1f7-320de8610e25","ios":"levelo://app?vid=b07e0204-2c57-49d1-a1f7-320de8610e25"},"vehicle_type_id":"4","last_reported":1734840663,"current_range_meters":30400,"station_id":"","pricing_plan_id":"cebpf4jnsgd1na2vs0mg"},{"bike_id":"070e483f-8929-43ba-9809-3a2f5443ce43","system_id":"levelo_inurba_marseille","lat":43.28076,"lon":5.39634,"is_reserved":false,"is_disabled":false,"rental_uris":{"android":"levelo://app?vid=070e483f-8929-43ba-9809-3a2f5443ce43","ios":"levelo://app?vid=070e483f-8929-43ba-9809-3a2f5443ce43"},"vehicle_type_id":"4","last_reported":1734840663,"current_range_meters":38800,"station_id":"ce4bho12rcd13ifvqh2g","pricing_plan_id":"cebpf4jnsgd1na2vs0mg"},{"bike_id":"f6b78f6e-edbd-4a71-a708-5d94449f3279","system_id":"levelo_inurba_marseille","lat":43.3112,"lon":5.37776,"is_reserved":false,"is_disabled":false,"rental_uris":{"android":"levelo://app?vid=f6b78f6e-edbd-4a71-a708-5d94449f3279","ios":"levelo://app?vid=f6b78f6e-edbd-4a71-a708-5d94449f3279"},"vehicle_type_id":"4","last_reported":1734840663,"current_range_meters":9200,"station_id":"ce4bgt92rcd13ifvqcg0","pricing_plan_id":"cebpf4jnsgd1na2vs0mg"},{"bike_id":"02cf79c6-68fd-4030-9099-145da0f8d7ea","system_id":"levelo_inurba_marseille","lat":43.287311,"lon":5.360773,"is_reserved":false,"is_disabled":false,"rental_uris":{"android":"levelo://app?vid=02cf79c6-68fd-4030-9099-145da0f8d7ea","ios":"levelo://app?vid=02cf79c6-68fd-4030-9099-145da0f8d7ea"},"vehicle_type_id":"4","last_reported":1734840663,"current_range_meters":38800,"station_id":"cki0cbj6b192h4jlfktg","pricing_plan_id":"cebpf4jnsgd1na2vs0mg"},{"bike_id":"f40e7c61-8a43-4da7-a842-fa391ba2fc6e","system_id":"levelo_inurba_marseille","lat":43.260276,"lon":5.375524,"is_reserved":false,"is_disabled":false,"rental_uris":{"android":"levelo://app?vid=f40e7c61-8a43-4da7-a842-fa391ba2fc6e","ios":"levelo://app?vid=f40e7c61-8a43-4da7-a842-fa391ba2fc6e"},"vehicle_type_id":"4","last_reported":1734840663,"current_range_meters":36800,"station_id":"ce4bhgh2rcd13ifvqfa0","pricing_plan_id":"cebpf4jnsgd1na2vs0mg"},{"bike_id":"76f67467-3821-4ab8-af39-48ffbb3ffe48","system_id":"levelo_inurba_marseille","lat":43.26575,"lon":5.39025,"is_reserved":false,"is_disabled":false,"rental_uris":{"android":"levelo://app?vid=76f67467-3821-4ab8-af39-48ffbb3ffe48","ios":"levelo://app?vid=76f67467-3821-4ab8-af39-48ffbb3ffe48"},"vehicle_type_id":"4","last_reported":1734840663,"current_range_meters":28000,"station_id":"ce4bhe12rcd13ifvqf30","pricing_plan_id":"cebpf4jnsgd1na2vs0mg"},{"bike_id":"f0bcbb45-555d-4c5b-8534-084b0fafc4e9","system_id":"levelo_inurba_marseille","lat":43.291669,"lon":5.371488,"is_reserved":false,"is_disabled":true,"rental_uris":{"android":"levelo://app?vid=f0bcbb45-555d-4c5b-8534-084b0fafc4e9","ios":"levelo://app?vid=f0bcbb45-555d-4c5b-8534-084b0fafc4e9"},"vehicle_type_id":"4","last_reported":1734840663,"current_range_meters":36800,"station_id":"ce4bha92rcd13ifvqeh0","pricing_plan_id":"cebpf4jnsgd1na2vs0mg"},{"bike_id":"76b76425-6067-4ebf-b7fd-d9791c7cf83d","system_id":"levelo_inurba_marseille","lat":43.28948,"lon":5.36651,"is_reserved":false,"is_disabled":false,"rental_uris":{"android":"levelo://app?vid=76b76425-6067-4ebf-b7fd-d9791c7cf83d","ios":"levelo://app?vid=76b76425-6067-4ebf-b7fd-d9791c7cf83d"},"vehicle_type_id":"4","last_reported":1734840663,"current_range_meters":36800,"station_id":"ce4bhap2rcd13ifvqek0","pricing_plan_id":"cebpf4jnsgd1na2vs0mg"},{"bike_id":"311a5019-929d-41cb-9f48-6749d48d3c63","system_id":"levelo_inurba_marseille","lat":43.28022,"lon":5.36943,"is_reserved":false,"is_disabled":false,"rental_uris":{"android":"levelo://app?vid=311a5019-929d-41cb-9f48-6749d48d3c63","ios":"levelo://app?vid=311a5019-929d-41cb-9f48-6749d48d3c63"},"vehicle_type_id":"4","last_reported":1734840663,"current_range_meters":32800,"station_id":"ce4bha12rcd13ifvqef0","pricing_plan_id":"cebpf4jnsgd1na2vs0mg"},{"bike_id":"b002d028-e42c-46e2-93ce-a18a7a90546e","system_id":"levelo_inurba_marseille","lat":43.32292,"lon":5.38285,"is_reserved":false,"is_disabled":false,"rental_uris":{"android":"levelo://app?vid=b002d028-e42c-46e2-93ce-a18a7a90546e","ios":"levelo://app?vid=b002d028-e42c-46e2-93ce-a18a7a90546e"},"vehicle_type_id":"4","last_reported":1734840663,"current_range_meters":22000,"station_id":"ce4bhr12rcd13ifvqhqg","pricing_plan_id":"cebpf4jnsgd1na2vs0mg"},{"bike_id":"67c8c173-0c6c-46f3-96ff-08a69629473b","system_id":"levelo_inurba_marseille","lat":43.29628,"lon":5.40598,"is_reserved":false,"is_disabled":false,"rental_uris":{"android":"levelo://app?vid=67c8c173-0c6c-46f3-96ff-08a69629473b","ios":"levelo://app?vid=67c8c173-0c6c-46f3-96ff-08a69629473b"},"vehicle_type_id":"4","last_reported":1734840663,"current_range_meters":39200,"station_id":"ce4bh0h2rcd13ifvqd60","pricing_plan_id":"cebpf4jnsgd1na2vs0mg"},{"bike_id":"725f2ba4-42ee-480b-a31f-097189b1c2cf","system_id":"levelo_inurba_marseille","lat":43.291896,"lon":5.357904,"is_reserved":false,"is_disabled":true,"rental_uris":{"android":"levelo://app?vid=725f2ba4-42ee-480b-a31f-097189b1c2cf","ios":"levelo://app?vid=725f2ba4-42ee-480b-a31f-097189b1c2cf"},"vehicle_type_id":"4","last_reported":1734840663,"current_range_meters":38800,"station_id":"ce4bhb12rcd13ifvqel0","pricing_plan_id":"cebpf4jnsgd1na2vs0mg"},{"bike_id":"1fb8aab3-4b72-4648-893b-04ed54acbabd","system_id":"levelo_inurba_marseille","lat":43.313606,"lon":5.384942,"is_reserved":false,"is_disabled":false,"rental_uris":{"android":"levelo://app?vid=1fb8aab3-4b72-4648-893b-04ed54acbabd","ios":"levelo://app?vid=1fb8aab3-4b72-4648-893b-04ed54acbabd"},"vehicle_type_id":"4","last_reported":1734840663,"current_range_meters":37600,"station_id":"ce4bgt92rcd13ifvqcf0","pricing_plan_id":"cebpf4jnsgd1na2vs0mg"},{"bike_id":"9402f944-2ab0-40ec-9775-0b04396b6114","system_id":"levelo_inurba_marseille","lat":43.23186,"lon":5.39978,"is_reserved":false,"is_disabled":false,"rental_uris":{"android":"levelo://app?vid=9402f944-2ab0-40ec-9775-0b04396b6114","ios":"levelo://app?vid=9402f944-2ab0-40ec-9775-0b04396b6114"},"vehicle_type_id":"4","last_reported":1734840663,"current_range_meters":39200,"station_id":"ce4bhn12rcd13ifvqgqg","pricing_plan_id":"cebpf4jnsgd1na2vs0mg"},{"bike_id":"6311cdc2-3b3e-46f4-965c-810d2cd8c6bf","system_id":"levelo_inurba_marseille","lat":43.29254,"lon":5.40903,"is_reserved":false,"is_disabled":false,"rental_uris":{"android":"levelo://app?vid=6311cdc2-3b3e-46f4-965c-810d2cd8c6bf","ios":"levelo://app?vid=6311cdc2-3b3e-46f4-965c-810d2cd8c6bf"},"vehicle_type_id":"4","last_reported":1734840663,"current_range_meters":39200,"station_id":"ce4bh192rcd13ifvqdc0","pricing_plan_id":"cebpf4jnsgd1na2vs0mg"},{"bike_id":"c4ce525d-967d-4663-838d-692388f3fdc6","system_id":"levelo_inurba_marseille","lat":43.29256,"lon":5.40143,"is_reserved":false,"is_disabled":true,"rental_uris":{"android":"levelo://app?vid=c4ce525d-967d-4663-838d-692388f3fdc6","ios":"levelo://app?vid=c4ce525d-967d-4663-838d-692388f3fdc6"},"vehicle_type_id":"4","last_reported":1734840663,"current_range_meters":0,"station_id":"ce4bh312rcd13ifvqdk0","pricing_plan_id":"cebpf4jnsgd1na2vs0mg"},{"bike_id":"4094ac40-fe97-4483-91f4-bc4b6a97b4f3","system_id":"levelo_inurba_marseille","lat":43.25818,"lon":5.39431,"is_reserved":false,"is_disabled":true,"rental_uris":{"android":"levelo://app?vid=4094ac40-fe97-4483-91f4-bc4b6a97b4f3","ios":"levelo://app?vid=4094ac40-fe97-4483-91f4-bc4b6a97b4f3"},"vehicle_type_id":"4","last_reported":1734840663,"current_range_meters":1600,"station_id":"ce4bhip2rcd13ifvqft0","pricing_plan_id":"cebpf4jnsgd1na2vs0mg"},{"bike_id":"ed495aba-f9b6-4311-b39c-649f2202b23f","system_id":"levelo_inurba_marseille","lat":43.27554,"lon":5.38426,"is_reserved":false,"is_disabled":false,"rental_uris":{"android":"levelo://app?vid=ed495aba-f9b6-4311-b39c-649f2202b23f","ios":"levelo://app?vid=ed495aba-f9b6-4311-b39c-649f2202b23f"},"vehicle_type_id":"4","last_reported":1734840663,"current_range_meters":39200,"station_id":"ce4bhh92rcd13ifvqfi0","pricing_plan_id":"cebpf4jnsgd1na2vs0mg"},{"bike_id":"f953c87c-4ea7-4e78-9490-68e955a0946d","system_id":"levelo_inurba_marseille","lat":43.25488,"lon":5.37647,"is_reserved":false,"is_disabled":true,"rental_uris":{"android":"levelo://app?vid=f953c87c-4ea7-4e78-9490-68e955a0946d","ios":"levelo://app?vid=f953c87c-4ea7-4e78-9490-68e955a0946d"},"vehicle_type_id":"4","last_reported":1734840663,"current_range_meters":16400,"station_id":"ce4bhh12rcd13ifvqff0","pricing_plan_id":"cebpf4jnsgd1na2vs0mg"},{"bike_id":"eddf6680-846f-4329-a45c-ae95db2c1ac9","system_id":"levelo_inurba_marseille","lat":43.26209,"lon":5.3744,"is_reserved":false,"is_disabled":false,"rental_uris":{"android":"levelo://app?vid=eddf6680-846f-4329-a45c-ae95db2c1ac9","ios":"levelo://app?vid=eddf6680-846f-4329-a45c-ae95db2c1ac9"},"vehicle_type_id":"4","last_reported":1734840663,"current_range_meters":8400,"station_id":"ce4bhgp2rcd13ifvqfc0","pricing_plan_id":"cebpf4jnsgd1na2vs0mg"},{"bike_id":"6b186745-2091-424b-a646-ec954a3aff8a","system_id":"levelo_inurba_marseille","lat":43.24667,"lon":5.38156,"is_reserved":false,"is_disabled":false,"rental_uris":{"android":"levelo://app?vid=6b186745-2091-424b-a646-ec954a3aff8a","ios":"levelo://app?vid=6b186745-2091-424b-a646-ec954a3aff8a"},"vehicle_type_id":"4","last_reported":1734840663,"current_range_meters":24800,"station_id":"ce4bhih2rcd13ifvqfr0","pricing_plan_id":"cebpf4jnsgd1na2vs0mg"},{"bike_id":"c91da701-8020-4c63-924e-c2588244a161","system_id":"levelo_inurba_marseille","lat":43.31166,"lon":5.38704,"is_reserved":false,"is_disabled":true,"rental_uris":{"android":"levelo://app?vid=c91da701-8020-4c63-924e-c2588244a161","ios":"levelo://app?vid=c91da701-8020-4c63-924e-c2588244a161"},"vehicle_type_id":"4","last_reported":1734840663,"current_range_meters":3200,"station_id":"ce4bgv12rcd13ifvqcp0","pricing_plan_id":"cebpf4jnsgd1na2vs0mg"},{"bike_id":"b73b3cc8-26fa-4032-8e99-f74b6ff40c2a","system_id":"levelo_inurba_marseille","lat":43.27014,"lon":5.40216,"is_reserved":false,"is_disabled":false,"rental_uris":{"android":"levelo://app?vid=b73b3cc8-26fa-4032-8e99-f74b6ff40c2a","ios":"levelo://app?vid=b73b3cc8-26fa-4032-8e99-f74b6ff40c2a"},"vehicle_type_id":"4","last_reported":1734840663,"current_range_meters":16400,"station_id":"","pricing_plan_id":"cebpf4jnsgd1na2vs0mg"},{"bike_id":"0fa4fd6a-c920-470e-9628-342bc95af557","system_id":"levelo_inurba_marseille","lat":43.24689,"lon":5.38139,"is_reserved":false,"is_disabled":false,"rental_uris":{"android":"levelo://app?vid=0fa4fd6a-c920-470e-9628-342bc95af557","ios":"levelo://app?vid=0fa4fd6a-c920-470e-9628-342bc95af557"},"vehicle_type_id":"4","last_reported":1734840663,"current_range_meters":35600,"station_id":"ce4bhih2rcd13ifvqfr0","pricing_plan_id":"cebpf4jnsgd1na2vs0mg"},{"bike_id":"32ebf098-e002-4aa6-88f7-5b365ee05e11","system_id":"levelo_inurba_marseille","lat":43.24076,"lon":5.37743,"is_reserved":false,"is_disabled":true,"rental_uris":{"android":"levelo://app?vid=32ebf098-e002-4aa6-88f7-5b365ee05e11","ios":"levelo://app?vid=32ebf098-e002-4aa6-88f7-5b365ee05e11"},"vehicle_type_id":"4","last_reported":1734840663,"current_range_meters":0,"station_id":"ce4bhnp2rcd13ifvqgvg","pricing_plan_id":"cebpf4jnsgd1na2vs0mg"},{"bike_id":"c76930fa-a944-41b3-a457-e7963f69e35f","system_id":"levelo_inurba_marseille","lat":43.26058,"lon":5.39391,"is_reserved":false,"is_disabled":false,"rental_uris":{"android":"levelo://app?vid=c76930fa-a944-41b3-a457-e7963f69e35f","ios":"levelo://app?vid=c76930fa-a944-41b3-a457-e7963f69e35f"},"vehicle_type_id":"4","last_reported":1734840663,"current_range_meters":9600,"station_id":"ce4bhh92rcd13ifvqfj0","pricing_plan_id":"cebpf4jnsgd1na2vs0mg"},{"bike_id":"4224646b-3ee0-4ce8-acc9-582ba50ee942","system_id":"levelo_inurba_marseille","lat":43.28343,"lon":5.38118,"is_reserved":false,"is_disabled":false,"rental_uris":{"android":"levelo://app?vid=4224646b-3ee0-4ce8-acc9-582ba50ee942","ios":"levelo://app?vid=4224646b-3ee0-4ce8-acc9-582ba50ee942"},"vehicle_type_id":"4","last_reported":1734840663,"current_range_meters":28800,"station_id":"ce4bh412rcd13ifvqdr0","pricing_plan_id":"cebpf4jnsgd1na2vs0mg"},{"bike_id":"5d77d6ac-a1c9-4da4-ac8c-af9ab03b4b12","system_id":"levelo_inurba_marseille","lat":43.29711,"lon":5.3661,"is_reserved":false,"is_disabled":false,"rental_uris":{"android":"levelo://app?vid=5d77d6ac-a1c9-4da4-ac8c-af9ab03b4b12","ios":"levelo://app?vid=5d77d6ac-a1c9-4da4-ac8c-af9ab03b4b12"},"vehicle_type_id":"4","last_reported":1734840663,"current_range_meters":20400,"station_id":"ce4bgn12rcd13ifvqbt0","pricing_plan_id":"cebpf4jnsgd1na2vs0mg"},{"bike_id":"65aa7d33-db19-4b48-b2a2-a177bc62ee14","system_id":"levelo_inurba_marseille","lat":43.29841,"lon":5.36265,"is_reserved":false,"is_disabled":false,"rental_uris":{"android":"levelo://app?vid=65aa7d33-db19-4b48-b2a2-a177bc62ee14","ios":"levelo://app?vid=65aa7d33-db19-4b48-b2a2-a177bc62ee14"},"vehicle_type_id":"4","last_reported":1734840663,"current_range_meters":36800,"station_id":"ce4bgpp2rcd13ifvqc3g","pricing_plan_id":"cebpf4jnsgd1na2vs0mg"},{"bike_id":"9b672fca-fdc1-423c-9a1d-80d02b986e83","system_id":"levelo_inurba_marseille","lat":43.287006,"lon":5.399865,"is_reserved":false,"is_disabled":false,"rental_uris":{"android":"levelo://app?vid=9b672fca-fdc1-423c-9a1d-80d02b986e83","ios":"levelo://app?vid=9b672fca-fdc1-423c-9a1d-80d02b986e83"},"vehicle_type_id":"4","last_reported":1734840663,"current_range_meters":36800,"station_id":"ce4bho92rcd13ifvqh3g","pricing_plan_id":"cebpf4jnsgd1na2vs0mg"},{"bike_id":"887a88f2-5569-42f5-af6c-5bb57f3a7dbf","system_id":"levelo_inurba_marseille","lat":43.27968,"lon":5.38737,"is_reserved":false,"is_disabled":false,"rental_uris":{"android":"levelo://app?vid=887a88f2-5569-42f5-af6c-5bb57f3a7dbf","ios":"levelo://app?vid=887a88f2-5569-42f5-af6c-5bb57f3a7dbf"},"vehicle_type_id":"4","last_reported":1734840663,"current_range_meters":38000,"station_id":"ce4bhg12rcd13ifvqf80","pricing_plan_id":"cebpf4jnsgd1na2vs0mg"},{"bike_id":"ba623d7f-de4d-43e6-9a39-be19938e75fb","system_id":"levelo_inurba_marseille","lat":43.29369,"lon":5.37856,"is_reserved":false,"is_disabled":true,"rental_uris":{"android":"levelo://app?vid=ba623d7f-de4d-43e6-9a39-be19938e75fb","ios":"levelo://app?vid=ba623d7f-de4d-43e6-9a39-be19938e75fb"},"vehicle_type_id":"4","last_reported":1734840663,"current_range_meters":36800,"station_id":"","pricing_plan_id":"cebpf4jnsgd1na2vs0mg"},{"bike_id":"60ca502d-391c-4166-a1e7-7a3e52ad67d0","system_id":"levelo_inurba_marseille","lat":43.28728,"lon":5.36084,"is_reserved":false,"is_disabled":false,"rental_uris":{"android":"levelo://app?vid=60ca502d-391c-4166-a1e7-7a3e52ad67d0","ios":"levelo://app?vid=60ca502d-391c-4166-a1e7-7a3e52ad67d0"},"vehicle_type_id":"4","last_reported":1734840663,"current_range_meters":37600,"station_id":"cki0cbj6b192h4jlfktg","pricing_plan_id":"cebpf4jnsgd1na2vs0mg"},{"bike_id":"06ffffce-9bda-48fc-aa21-77e7492f87fe","system_id":"levelo_inurba_marseille","lat":43.28476,"lon":5.35876,"is_reserved":false,"is_disabled":false,"rental_uris":{"android":"levelo://app?vid=06ffffce-9bda-48fc-aa21-77e7492f87fe","ios":"levelo://app?vid=06ffffce-9bda-48fc-aa21-77e7492f87fe"},"vehicle_type_id":"4","last_reported":1734840663,"current_range_meters":28000,"station_id":"ce4bhah2rcd13ifvqei0","pricing_plan_id":"cebpf4jnsgd1na2vs0mg"},{"bike_id":"f332518a-8853-4b45-80c2-0d82d0f33ed2","system_id":"levelo_inurba_marseille","lat":43.308855,"lon":5.396385,"is_reserved":false,"is_disabled":false,"rental_uris":{"android":"levelo://app?vid=f332518a-8853-4b45-80c2-0d82d0f33ed2","ios":"levelo://app?vid=f332518a-8853-4b45-80c2-0d82d0f33ed2"},"vehicle_type_id":"4","last_reported":1734840663,"current_range_meters":6800,"station_id":"ce4bh012rcd13ifvqcv0","pricing_plan_id":"cebpf4jnsgd1na2vs0mg"},{"bike_id":"b0d452dd-c99e-4677-8979-04c5d831a9e8","system_id":"levelo_inurba_marseille","lat":43.29582,"lon":5.36746,"is_reserved":false,"is_disabled":false,"rental_uris":{"android":"levelo://app?vid=b0d452dd-c99e-4677-8979-04c5d831a9e8","ios":"levelo://app?vid=b0d452dd-c99e-4677-8979-04c5d831a9e8"},"vehicle_type_id":"4","last_reported":1734840663,"current_range_meters":38400,"station_id":"ce4bgph2rcd13ifvqc2g","pricing_plan_id":"cebpf4jnsgd1na2vs0mg"},{"bike_id":"10d16ca8-28c0-405d-8543-1a0f299451c6","system_id":"levelo_inurba_marseille","lat":43.27809,"lon":5.40721,"is_reserved":false,"is_disabled":false,"rental_uris":{"android":"levelo://app?vid=10d16ca8-28c0-405d-8543-1a0f299451c6","ios":"levelo://app?vid=10d16ca8-28c0-405d-8543-1a0f299451c6"},"vehicle_type_id":"4","last_reported":1734840663,"current_range_meters":12800,"station_id":"ce4bhnh2rcd13ifvqgtg","pricing_plan_id":"cebpf4jnsgd1na2vs0mg"},{"bike_id":"d7a9a039-2919-4498-94bc-85df69bbf9b4","system_id":"levelo_inurba_marseille","lat":43.250981,"lon":5.395109,"is_reserved":false,"is_disabled":true,"rental_uris":{"android":"levelo://app?vid=d7a9a039-2919-4498-94bc-85df69bbf9b4","ios":"levelo://app?vid=d7a9a039-2919-4498-94bc-85df69bbf9b4"},"vehicle_type_id":"4","last_reported":1734840663,"current_range_meters":0,"station_id":"ce4bhm12rcd13ifvqgkg","pricing_plan_id":"cebpf4jnsgd1na2vs0mg"},{"bike_id":"f6e00a83-cc1f-4aaf-83bb-77e9d3b9e809","system_id":"levelo_inurba_marseille","lat":43.337444,"lon":5.374475,"is_reserved":false,"is_disabled":false,"rental_uris":{"android":"levelo://app?vid=f6e00a83-cc1f-4aaf-83bb-77e9d3b9e809","ios":"levelo://app?vid=f6e00a83-cc1f-4aaf-83bb-77e9d3b9e809"},"vehicle_type_id":"4","last_reported":1734840663,"current_range_meters":25600,"station_id":"","pricing_plan_id":"cebpf4jnsgd1na2vs0mg"},{"bike_id":"4557c5fc-60ed-4c34-9596-70c70138f451","system_id":"levelo_inurba_marseille","lat":43.29621,"lon":5.37152,"is_reserved":false,"is_disabled":true,"rental_uris":{"android":"levelo://app?vid=4557c5fc-60ed-4c34-9596-70c70138f451","ios":"levelo://app?vid=4557c5fc-60ed-4c34-9596-70c70138f451"},"vehicle_type_id":"4","last_reported":1734840663,"current_range_meters":0,"station_id":"","pricing_plan_id":"cebpf4jnsgd1na2vs0mg"},{"bike_id":"23e07abd-81cd-494b-853f-01de9d6cd1c5","system_id":"levelo_inurba_marseille","lat":43.26924,"lon":5.40252,"is_reserved":false,"is_disabled":false,"rental_uris":{"android":"levelo://app?vid=23e07abd-81cd-494b-853f-01de9d6cd1c5","ios":"levelo://app?vid=23e07abd-81cd-494b-853f-01de9d6cd1c5"},"vehicle_type_id":"4","last_reported":1734840663,"current_range_meters":38800,"station_id":"cjm6bp8fraef2m0cb0m0","pricing_plan_id":"cebpf4jnsgd1na2vs0mg"},{"bike_id":"2daf6017-db0c-42c7-86d8-f89177a5712a","system_id":"levelo_inurba_marseille","lat":43.24061,"lon":5.37749,"is_reserved":false,"is_disabled":false,"rental_uris":{"android":"levelo://app?vid=2daf6017-db0c-42c7-86d8-f89177a5712a","ios":"levelo://app?vid=2daf6017-db0c-42c7-86d8-f89177a5712a"},"vehicle_type_id":"4","last_reported":1734840663,"current_range_meters":24000,"station_id":"ce4bhnp2rcd13ifvqgvg","pricing_plan_id":"cebpf4jnsgd1na2vs0mg"},{"bike_id":"5d3dccbb-bf20-44a3-8771-80caee06bf13","system_id":"levelo_inurba_marseille","lat":43.32005,"lon":5.38141,"is_reserved":false,"is_disabled":false,"rental_uris":{"android":"levelo://app?vid=5d3dccbb-bf20-44a3-8771-80caee06bf13","ios":"levelo://app?vid=5d3dccbb-bf20-44a3-8771-80caee06bf13"},"vehicle_type_id":"4","last_reported":1734840663,"current_range_meters":38400,"station_id":"ce4bhr12rcd13ifvqhpg","pricing_plan_id":"cebpf4jnsgd1na2vs0mg"},{"bike_id":"739e49fe-8bed-40e4-9d46-1caedae0f96e","system_id":"levelo_inurba_marseille","lat":43.296073,"lon":5.406102,"is_reserved":false,"is_disabled":false,"rental_uris":{"android":"levelo://app?vid=739e49fe-8bed-40e4-9d46-1caedae0f96e","ios":"levelo://app?vid=739e49fe-8bed-40e4-9d46-1caedae0f96e"},"vehicle_type_id":"4","last_reported":1734840663,"current_range_meters":36400,"station_id":"ce4bh0h2rcd13ifvqd60","pricing_plan_id":"cebpf4jnsgd1na2vs0mg"},{"bike_id":"a98c7fb1-32b6-47d3-863d-fcb2a8f86141","system_id":"levelo_inurba_marseille","lat":43.27884,"lon":5.38006,"is_reserved":false,"is_disabled":false,"rental_uris":{"android":"levelo://app?vid=a98c7fb1-32b6-47d3-863d-fcb2a8f86141","ios":"levelo://app?vid=a98c7fb1-32b6-47d3-863d-fcb2a8f86141"},"vehicle_type_id":"4","last_reported":1734840663,"current_range_meters":38800,"station_id":"ce4bhf92rcd13ifvqf50","pricing_plan_id":"cebpf4jnsgd1na2vs0mg"},