{"last_updated":1705529222,"ttl":30,"version":"2.2","data":{"bikes":[{"bike_id":"b583a396-5034-4f77-a306-795f95f6e1aa","system_id":"levelo_inurba_marseille","lat":43.313391,"lon":5.36706,"is_reserved":false,"is_disabled":false,"rental_uris":{"android":"levelo://app?vid=b583a396-5034-4f77-a306-795f95f6e1aa","ios":"levelo://app?vid=b583a396-5034-4f77-a306-795f95f6e1aa"},"vehicle_type_id":"4","last_reported":1705529222,"current_range_meters":26000,"station_id":"ce4bgr92rcd13ifvqc6g","pricing_plan_id":"free"},{"bike_id":"b971be56-0d34-41af-a304-2ab17fe49619","system_id":"levelo_inurba_marseille","lat":43.31355,"lon":5.36728,"is_reserved":false,"is_disabled":false,"rental_uris":{"android":"levelo://app?vid=b971be56-0d34-41af-a304-2ab17fe49619","ios":"levelo://app?vid=b971be56-0d34-41af-a304-2ab17fe49619"},"vehicle_type_id":"4","last_reported":1705529222,"current_range_meters":2000,"station_id":"ce4bgr92rcd13ifvqc6g","pricing_plan_id":"free"},{"bike_id":"0d5bffaa-2a7c-4b8a-81d6-6fa37b044d80","system_id":"levelo_inurba_marseille","lat":43.312239,"lon":5.368562,"is_reserved":false,"is_disabled":false,"rental_uris":{"android":"levelo://app?vid=0d5bffaa-2a7c-4b8a-81d6-6fa37b044d80","ios":"levelo://app?vid=0d5bffaa-2a7c-4b8a-81d6-6fa37b044d80"},"vehicle_type_id":"4","last_reported":1705529222,"current_range_meters":31200,"station_id":"ce4bgl92rcd13ifvqbq0","pricing_plan_id":"free"},{"bike_id":"897ae299-b3ab-481c-adba-997e1f460526","system_id":"levelo_inurba_marseille","lat":43.312239,"lon":5.368562,"is_reserved":false,"is_disabled":false,"rental_uris":{"android":"levelo://app?vid=897ae299-b3ab-481c-adba-997e1f460526","ios":"levelo://app?vid=897ae299-b3ab-481c-adba-997e1f460526"},"vehicle_type_id":"4","last_reported":1705529222,"current_range_meters":30400,"station_id":"ce4bgl92rcd13ifvqbq0","pricing_plan_id":"free"},{"bike_id":"61b93c57-6b08-4259-a460-f9bbda173b07","system_id":"levelo_inurba_marseille","lat":43.312239,"lon":5.368562,"is_reserved":false,"is_disabled":false,"rental_uris":{"android":"levelo://app?vid=61b93c57-6b08-4259-a460-f9bbda173b07","ios":"levelo://app?vid=61b93c57-6b08-4259-a460-f9bbda173b07"},"vehicle_type_id":"4","last_reported":1705529222,"current_range_meters":20400,"station_id":"ce4bgl92rcd13ifvqbq0","pricing_plan_id":"free"},{"bike_id":"1419ddeb-e783-4a0b-ba4e-21e25b6a097d","system_id":"levelo_inurba_marseille","lat":43.312239,"lon":5.368562,"is_reserved":false,"is_disabled":false,"rental_uris":{"android":"levelo://app?vid=1419ddeb-e783-4a0b-ba4e-21e25b6a097d","ios":"levelo://app?vid=1419ddeb-e783-4a0b-ba4e-21e25b6a097d"},"vehicle_type_id":"4","last_reported":1705529222,"current_range_meters":29600,"station_id":"ce4bgl92rcd13ifvqbq0","pricing_plan_id":"free"},{"bike_id":"eea6dd2e-fa08-4d68-81d7-26b1b29fcb36","system_id":"levelo_inurba_marseille","lat":43.312239,"lon":5.368562,"is_reserved":false,"is_disabled":false,"rental_uris":{"android":"levelo://app?vid=eea6dd2e-fa08-4d68-81d7-26b1b29fcb36","ios":"levelo://app?vid=eea6dd2e-fa08-4d68-81d7-26b1b29fcb36"},"vehicle_type_id":"4","last_reported":1705529222,"current_range_meters":19600,"station_id":"ce4bgl92rcd13ifvqbq0","pricing_plan_id":"free"},{"bike_id":"ca02a1fc-4b5a-4862-b417-379c2ed087c9","system_id":"levelo_inurba_marseille","lat":43.312239,"lon":5.368562,"is_reserved":false,"is_disabled":false,"rental_uris":{"android":"levelo://app?vid=ca02a1fc-4b5a-4862-b417-379c2ed087c9","ios":"levelo://app?vid=ca02a1fc-4b5a-4862-b417-379c2ed087c9"},"vehicle_type_id":"4","last_reported":1705529222,"current_range_meters":10400,"station_id":"ce4bgl92rcd13ifvqbq0","pricing_plan_id":"free"},{"bike_id":"a1445915-c1d2-4781-b44d-137557b639f0","system_id":"levelo_inurba_marseille","lat":43.312239,"lon":5.368562,"is_reserved":false,"is_disabled":false,"rental_uris":{"android":"levelo://app?vid=a1445915-c1d2-4781-b44d-137557b639f0","ios":"levelo://app?vid=a1445915-c1d2-4781-b44d-137557b639f0"},"vehicle_type_id":"4","last_reported":1705529222,"current_range_meters":27200,"station_id":"ce4bgl92rcd13ifvqbq0","pricing_plan_id":"free"},{"bike_id":"1b8b2211-0599-4df2-958e-865ef08fa8df","system_id":"levelo_inurba_marseille","lat":43.312239,"lon":5.368562,"is_reserved":false,"is_disabled":false,"rental_uris":{"android":"levelo://app?vid=1b8b2211-0599-4df2-958e-865ef08fa8df","ios":"levelo://app?vid=1b8b2211-0599-4df2-958e-865ef08fa8df"},"vehicle_type_id":"4","last_reported":1705529222,"current_range_meters":31600,"station_id":"ce4bgl92rcd13ifvqbq0","pricing_plan_id":"free"},{"bike_id":"c6c3d459-51cc-41a1-812a-e8b470d2f921","system_id":"levelo_inurba_marseille","lat":43.312239,"lon":5.368562,"is_reserved":false,"is_disabled":false,"rental_uris":{"android":"levelo://app?vid=c6c3d459-51cc-41a1-812a-e8b470d2f921","ios":"levelo://app?vid=c6c3d459-51cc-41a1-812a-e8b470d2f921"},"vehicle_type_id":"4","last_reported":1705529222,"current_range_meters":11600,"station_id":"ce4bgl92rcd13ifvqbq0","pricing_plan_id":"free"},{"bike_id":"f3f4a518-7714-4b0a-bd44-5859e8ab86d4","system_id":"levelo_inurba_marseille","lat":43.312239,"lon":5.368562,"is_reserved":false,"is_disabled":false,"rental_uris":{"android":"levelo://app?vid=f3f4a518-7714-4b0a-bd44-5859e8ab86d4","ios":"levelo://app?vid=f3f4a518-7714-4b0a-bd44-5859e8ab86d4"},"vehicle_type_id":"4","last_reported":1705529222,"current_range_meters":26400,"station_id":"ce4bgl92rcd13ifvqbq0","pricing_plan_id":"free"},{"bike_id":"59ec84ac-235b-4c4e-84dc-a68e918cc7f8","system_id":"levelo_inurba_marseille","lat":43.312239,"lon":5.368562,"is_reserved":false,"is_disabled":false,"rental_uris":{"android":"levelo://app?vid=59ec84ac-235b-4c4e-84dc-a68e918cc7f8","ios":"levelo://app?vid=59ec84ac-235b-4c4e-84dc-a68e918cc7f8"},"vehicle_type_id":"4","last_reported":1705529222,"current_range_meters":24400,"station_id":"ce4bgl92rcd13ifvqbq0","pricing_plan_id":"free"},{"bike_id":"0831655d-f06e-466c-ae91-feb3cac1bbde","system_id":"levelo_inurba_marseille","lat":43.312239,"lon":5.368562,"is_reserved":false,"is_disabled":false,"rental_uris":{"android":"levelo://app?vid=0831655d-f06e-466c-ae91-feb3cac1bbde","ios":"levelo://app?vid=0831655d-f06e-466c-ae91-feb3cac1bbde"},"vehicle_type_id":"4","last_reported":1705529222,"current_range_meters":400,"station_id":"ce4bgl92rcd13ifvqbq0","pricing_plan_id":"free"},{"bike_id":"3855fc8f-d565-449b-b9c0-463429d9ba0c","system_id":"levelo_inurba_marseille","lat":43.312239,"lon":5.368562,"is_reserved":false,"is_disabled":false,"rental_uris":{"android":"levelo://app?vid=3855fc8f-d565-449b-b9c0-463429d9ba0c","ios":"levelo://app?vid=3855fc8f-d565-449b-b9c0-463429d9ba0c"},"vehicle_type_id":"4","last_reported":1705529222,"current_range_meters":20800,"station_id":"ce4bgl92rcd13ifvqbq0","pricing_plan_id":"free"},{"bike_id":"e2fd52e2-cf21-4d06-8865-dba2f8d22147","system_id":"levelo_inurba_marseille","lat":43.309076,"lon":5.368465,"is_reserved":false,"is_disabled":false,"rental_uris":{"android":"levelo://app?vid=e2fd52e2-cf21-4d06-8865-dba2f8d22147","ios":"levelo://app?vid=e2fd52e2-cf21-4d06-8865-dba2f8d22147"},"vehicle_type_id":"4","last_reported":1705529222,"current_range_meters":6800,"station_id":"ce4bgn92rcd13ifvqbvg","pricing_plan_id":"free"},{"bike_id":"60ef59bf-c341-455f-89d3-834a28bdd0e5","system_id":"levelo_inurba_marseille","lat":43.309039,"lon":5.371797,"is_reserved":false,"is_disabled":false,"rental_uris":{"android":"levelo://app?vid=60ef59bf-c341-455f-89d3-834a28bdd0e5","ios":"levelo://app?vid=60ef59bf-c341-455f-89d3-834a28bdd0e5"},"vehicle_type_id":"4","last_reported":1705529222,"current_range_meters":26800,"station_id":"ce4bguh2rcd13ifvqckg","pricing_plan_id":"free"},{"bike_id":"bdcfa337-974b-478d-b158-990316e84cc9","system_id":"levelo_inurba_marseille","lat":43.309034,"lon":5.371783,"is_reserved":false,"is_disabled":false,"rental_uris":{"android":"levelo://app?vid=bdcfa337-974b-478d-b158-990316e84cc9","ios":"levelo://app?vid=bdcfa337-974b-478d-b158-990316e84cc9"},"vehicle_type_id":"4","last_reported":1705529222,"current_range_meters":0,"station_id":"ce4bguh2rcd13ifvqckg","pricing_plan_id":"free"},{"bike_id":"0fd1310f-eb7e-48e6-a8fb-29c28ffc1b12","system_id":"levelo_inurba_marseille","lat":43.309034,"lon":5.371783,"is_reserved":false,"is_disabled":false,"rental_uris":{"android":"levelo://app?vid=0fd1310f-eb7e-48e6-a8fb-29c28ffc1b12","ios":"levelo://app?vid=0fd1310f-eb7e-48e6-a8fb-29c28ffc1b12"},"vehicle_type_id":"4","last_reported":1705529222,"current_range_meters":9600,"station_id":"ce4bguh2rcd13ifvqckg","pricing_plan_id":"free"},{"bike_id":"29374a73-6161-4eae-baaa-fbe87b7b0422","system_id":"levelo_inurba_marseille","lat":43.305714,"lon":5.365633,"is_reserved":false,"is_disabled":false,"rental_uris":{"android":"levelo://app?vid=29374a73-6161-4eae-baaa-fbe87b7b0422","ios":"levelo://app?vid=29374a73-6161-4eae-baaa-fbe87b7b0422"},"vehicle_type_id":"4","last_reported":1705529222,"current_range_meters":5200,"station_id":"ce4bgs12rcd13ifvqcag","pricing_plan_id":"free"},{"bike_id":"11fe602a-ac59-4436-8cf7-1ee8191c1028","system_id":"levelo_inurba_marseille","lat":43.305368,"lon":5.367343,"is_reserved":false,"is_disabled":false,"rental_uris":{"android":"levelo://app?vid=11fe602a-ac59-4436-8cf7-1ee8191c1028","ios":"levelo://app?vid=11fe602a-ac59-4436-8cf7-1ee8191c1028"},"vehicle_type_id":"4","last_reported":1705529222,"current_range_meters":14400,"station_id":"ce4bgrp2rcd13ifvqc9g","pricing_plan_id":"free"},{"bike_id":"7cb58920-7261-4d5a-9466-eae970d21a67","system_id":"levelo_inurba_marseille","lat":43.305989,"lon":5.37225,"is_reserved":false,"is_disabled":false,"rental_uris":{"android":"levelo://app?vid=7cb58920-7261-4d5a-9466-eae970d21a67","ios":"levelo://app?vid=7cb58920-7261-4d5a-9466-eae970d21a67"},"vehicle_type_id":"4","last_reported":1705529222,"current_range_meters":7600,"station_id":"ce4bgqh2rcd13ifvqc4g","pricing_plan_id":"free"},{"bike_id":"a216c943-bb88-4764-ae03-b69a087c939c","system_id":"levelo_inurba_marseille","lat":43.305989,"lon":5.37225,"is_reserved":false,"is_disabled":false,"rental_uris":{"android":"levelo://app?vid=a216c943-bb88-4764-ae03-b69a087c939c","ios":"levelo://app?vid=a216c943-bb88-4764-ae03-b69a087c939c"},"vehicle_type_id":"4","last_reported":1705529222,"current_range_meters":24800,"station_id":"ce4bgqh2rcd13ifvqc4g","pricing_plan_id":"free"},{"bike_id":"3319558b-6df8-4dc1-ae82-d6ce4a2fb101","system_id":"levelo_inurba_marseille","lat":43.305989,"lon":5.37225,"is_reserved":false,"is_disabled":false,"rental_uris":{"android":"levelo://app?vid=3319558b-6df8-4dc1-ae82-d6ce4a2fb101","ios":"levelo://app?vid=3319558b-6df8-4dc1-ae82-d6ce4a2fb101"},"vehicle_type_id":"4","last_reported":1705529222,"current_range_meters":28800,"station_id":"ce4bgqh2rcd13ifvqc4g","pricing_plan_id":"free"},{"bike_id":"9c07dd63-5d21-4bfd-9bd9-2da3b6117522","system_id":"levelo_inurba_marseille","lat":43.305989,"lon":5.37225,"is_reserved":false,"is_disabled":false,"rental_uris":{"android":"levelo://app?vid=9c07dd63-5d21-4bfd-9bd9-2da3b6117522","ios":"levelo://app?vid=9c07dd63-5d21-4bfd-9bd9-2da3b6117522"},"vehicle_type_id":"4","last_reported":1705529222,"current_range_meters":28800,"station_id":"ce4bgqh2rcd13ifvqc4g","pricing_plan_id":"free"},{"bike_id":"04736d53-c15b-43f8-a612-f0b6befe06ed","system_id":"levelo_inurba_marseille","lat":43.305989,"lon":5.37225,"is_reserved":false,"is_disabled":false,"rental_uris":{"android":"levelo://app?vid=04736d53-c15b-43f8-a612-f0b6befe06ed","ios":"levelo://app?vid=04736d53-c15b-43f8-a612-f0b6befe06ed"},"vehicle_type_id":"4","last_reported":1705529222,"current_range_meters":0,"station_id":"ce4bgqh2rcd13ifvqc4g","pricing_plan_id":"free"},{"bike_id":"3fb321f0-d24b-4bdb-8dde-769af4949653","system_id":"levelo_inurba_marseille","lat":43.305989,"lon":5.37225,"is_reserved":false,"is_disabled":false,"rental_uris":{"android":"levelo://app?vid=3fb321f0-d24b-4bdb-8dde-769af4949653","ios":"levelo://app?vid=3fb321f0-d24b-4bdb-8dde-769af4949653"},"vehicle_type_id":"4","last_reported":1705529222,"current_range_meters":11200,"station_id":"ce4bgqh2rcd13ifvqc4g","pricing_plan_id":"free"},{"bike_id":"b04b7376-1072-4081-9382-227461b46342","system_id":"levelo_inurba_marseille","lat":43.311125,"lon":5.377624,"is_reserved":false,"is_disabled":false,"rental_uris":{"android":"levelo://app?vid=b04b7376-1072-4081-9382-227461b46342","ios":"levelo://app?vid=b04b7376-1072-4081-9382-227461b46342"},"vehicle_type_id":"4","last_reported":1705529222,"current_range_meters":20800,"station_id":"ce4bgt92rcd13ifvqcg0","pricing_plan_id":"free"},{"bike_id":"65e9b800-65ee-45d2-92ee-071baf7b2862","system_id":"levelo_inurba_marseille","lat":43.311125,"lon":5.377624,"is_reserved":false,"is_disabled":false,"rental_uris":{"android":"levelo://app?vid=65e9b800-65ee-45d2-92ee-071baf7b2862","ios":"levelo://app?vid=65e9b800-65ee-45d2-92ee-071baf7b2862"},"vehicle_type_id":"4","last_reported":1705529222,"current_range_meters":14400,"station_id":"ce4bgt92rcd13ifvqcg0","pricing_plan_id":"free"},{"bike_id":"60a1cc62-0ec5-4b2f-ad46-c49985c29318","system_id":"levelo_inurba_marseille","lat":43.311125,"lon":5.377624,"is_reserved":false,"is_disabled":false,"rental_uris":{"android":"levelo://app?vid=60a1cc62-0ec5-4b2f-ad46-c49985c29318","ios":"levelo://app?vid=60a1cc62-0ec5-4b2f-ad46-c49985c29318"},"vehicle_type_id":"4","last_reported":1705529222,"current_range_meters":30800,"station_id":"ce4bgt92rcd13ifvqcg0","pricing_plan_id":"free"},{"bike_id":"10d50417-b36e-43ea-8ff4-8c44f1aa2f23","system_id":"levelo_inurba_marseille","lat":43.311125,"lon":5.377624,"is_reserved":false,"is_disabled":false,"rental_uris":{"android":"levelo://app?vid=10d50417-b36e-43ea-8ff4-8c44f1aa2f23","ios":"levelo://app?vid=10d50417-b36e-43ea-8ff4-8c44f1aa2f23"},"vehicle_type_id":"4","last_reported":1705529222,"current_range_meters":17600,"station_id":"ce4bgt92rcd13ifvqcg0","pricing_plan_id":"free"},{"bike_id":"59eb115d-e012-40c8-b2c5-b5479008619b","system_id":"levelo_inurba_marseille","lat":43.311131,"lon":5.377651,"is_reserved":false,"is_disabled":false,"rental_uris":{"android":"levelo://app?vid=59eb115d-e012-40c8-b2c5-b5479008619b","ios":"levelo://app?vid=59eb115d-e012-40c8-b2c5-b5479008619b"},"vehicle_type_id":"4","last_reported":1705529222,"current_range_meters":14400,"station_id":"ce4bgt92rcd13ifvqcg0","pricing_plan_id":"free"},{"bike_id":"8ffeb6b7-e2f5-493c-9656-938efd9ee6d0","system_id":"levelo_inurba_marseille","lat":43.311131,"lon":5.377651,"is_reserved":false,"is_disabled":false,"rental_uris":{"android":"levelo://app?vid=8ffeb6b7-e2f5-493c-9656-938efd9ee6d0","ios":"levelo://app?vid=8ffeb6b7-e2f5-493c-9656-938efd9ee6d0"},"vehicle_type_id":"4","last_reported":1705529222,"current_range_meters":24400,"station_id":"ce4bgt92rcd13ifvqcg0","pricing_plan_id":"free"},{"bike_id":"8f87e186-2565-4879-bb51-5fb70c47b179","system_id":"levelo_inurba_marseille","lat":43.311131,"lon":5.377651,"is_reserved":false,"is_disabled":false,"rental_uris":{"android":"levelo://app?vid=8f87e186-2565-4879-bb51-5fb70c47b179","ios":"levelo://app?vid=8f87e186-2565-4879-bb51-5fb70c47b179"},"vehicle_type_id":"4","last_reported":1705529222,"current_range_meters":21600,"station_id":"ce4bgt92rcd13ifvqcg0","pricing_plan_id":"free"},{"bike_id":"d8363e27-5566-4fd3-8f86-00ecca702c5b","system_id":"levelo_inurba_marseille","lat":43.311275,"lon":5.377999,"is_reserved":false,"is_disabled":false,"rental_uris":{"android":"levelo://app?vid=d8363e27-5566-4fd3-8f86-00ecca702c5b","ios":"levelo://app?vid=d8363e27-5566-4fd3-8f86-00ecca702c5b"},"vehicle_type_id":"4","last_reported":1705529222,"current_range_meters":28000,"station_id":"","pricing_plan_id":"free"},{"bike_id":"52bcb33f-143c-472e-aba3-6e33eaa6501b","system_id":"levelo_inurba_marseille","lat":43.307945,"lon":5.376487,"is_reserved":false,"is_disabled":false,"rental_uris":{"android":"levelo://app?vid=52bcb33f-143c-472e-aba3-6e33eaa6501b","ios":"levelo://app?vid=52bcb33f-143c-472e-aba3-6e33eaa6501b"},"vehicle_type_id":"4","last_reported":1705529222,"current_range_meters":18800,"station_id":"ce4bgv92rcd13ifvqcq0","pricing_plan_id":"free"},{"bike_id":"8db133e4-5014-455f-9fb1-01502d2fc354","system_id":"levelo_inurba_marseille","lat":43.317075,"lon":5.377367,"is_reserved":false,"is_disabled":false,"rental_uris":{"android":"levelo://app?vid=8db133e4-5014-455f-9fb1-01502d2fc354","ios":"levelo://app?vid=8db133e4-5014-455f-9fb1-01502d2fc354"},"vehicle_type_id":"4","last_reported":1705529222,"current_range_meters":27200,"station_id":"ce4bgth2rcd13ifvqch0","pricing_plan_id":"free"},{"bike_id":"a456dfc1-e659-4d25-82cb-0c1c3844b77a","system_id":"levelo_inurba_marseille","lat":43.317075,"lon":5.377367,"is_reserved":false,"is_disabled":false,"rental_uris":{"android":"levelo://app?vid=a456dfc1-e659-4d25-82cb-0c1c3844b77a","ios":"levelo://app?vid=a456dfc1-e659-4d25-82cb-0c1c3844b77a"},"vehicle_type_id":"4","last_reported":1705529222,"current_range_meters":30400,"station_id":"ce4bgth2rcd13ifvqch0","pricing_plan_id":"free"},{"bike_id":"9507b9a3-f418-4cd7-85c9-640f1d508976","system_id":"levelo_inurba_marseille","lat":43.317075,"lon":5.377367,"is_reserved":false,"is_disabled":false,"rental_uris":{"android":"levelo://app?vid=9507b9a3-f418-4cd7-85c9-640f1d508976","ios":"levelo://app?vid=9507b9a3-f418-4cd7-85c9-640f1d508976"},"vehicle_type_id":"4","last_reported":1705529222,"current_range_meters":11600,"station_id":"ce4bgth2rcd13ifvqch0","pricing_plan_id":"free"},{"bike_id":"ff33bb7d-c90b-41bd-a053-cd8c73fa345a","system_id":"levelo_inurba_marseille","lat":43.317075,"lon":5.377367,"is_reserved":false,"is_disabled":false,"rental_uris":{"android":"levelo://app?vid=ff33bb7d-c90b-41bd-a053-cd8c73fa345a","ios":"levelo://app?vid=ff33bb7d-c90b-41bd-a053-cd8c73fa345a"},"vehicle_type_id":"4","last_reported":1705529222,"current_range_meters":26000,"station_id":"ce4bgth2rcd13ifvqch0","pricing_plan_id":"free"},{"bike_id":"71c5ab52-85e0-4827-b6e7-3c3e80583189","system_id":"levelo_inurba_marseille","lat":43.307945,"lon":5.376487,"is_reserved":false,"is_disabled":false,"rental_uris":{"android":"levelo://app?vid=71c5ab52-85e0-4827-b6e7-3c3e80583189","ios":"levelo://app?vid=71c5ab52-85e0-4827-b6e7-3c3e80583189"},"vehicle_type_id":"4","last_reported":1705529222,"current_range_meters":13200,"station_id":"ce4bgv92rcd13ifvqcq0","pricing_plan_id":"free"},{"bike_id":"20a75ddb-cd31-43df-9294-3ac49559de99","system_id":"levelo_inurba_marseille","lat":43.303046,"lon":5.368981,"is_reserved":false,"is_disabled":false,"rental_uris":{"android":"levelo://app?vid=20a75ddb-cd31-43df-9294-3ac49559de99","ios":"levelo://app?vid=20a75ddb-cd31-43df-9294-3ac49559de99"},"vehicle_type_id":"4","last_reported":1705529222,"current_range_meters":27600,"station_id":"ce4bgqh2rcd13ifvqc5g","pricing_plan_id":"free"},{"bike_id":"3d386a7d-55b1-48f1-95a0-a0e484d66162","system_id":"levelo_inurba_marseille","lat":43.301939,"lon":5.366286,"is_reserved":false,"is_disabled":false,"rental_uris":{"android":"levelo://app?vid=3d386a7d-55b1-48f1-95a0-a0e484d66162","ios":"levelo://app?vid=3d386a7d-55b1-48f1-95a0-a0e484d66162"},"vehicle_type_id":"4","last_reported":1705529222,"current_range_meters":24000,"station_id":"ce4bgrh2rcd13ifvqc8g","pricing_plan_id":"free"},{"bike_id":"e97baf24-b8b5-46f6-9a83-de54ff8bfc9c","system_id":"levelo_inurba_marseille","lat":43.301939,"lon":5.366286,"is_reserved":false,"is_disabled":false,"rental_uris":{"android":"levelo://app?vid=e97baf24-b8b5-46f6-9a83-de54ff8bfc9c","ios":"levelo://app?vid=e97baf24-b8b5-46f6-9a83-de54ff8bfc9c"},"vehicle_type_id":"4","last_reported":1705529222,"current_range_meters":26000,"station_id":"ce4bgrh2rcd13ifvqc8g","pricing_plan_id":"free"},{"bike_id":"0328ef6c-ee07-4bff-84fe-d0195cc3c449","system_id":"levelo_inurba_marseille","lat":43.301939,"lon":5.366286,"is_reserved":false,"is_disabled":false,"rental_uris":{"android":"levelo://app?vid=0328ef6c-ee07-4bff-84fe-d0195cc3c449","ios":"levelo://app?vid=0328ef6c-ee07-4bff-84fe-d0195cc3c449"},"vehicle_type_id":"4","last_reported":1705529222,"current_range_meters":9200,"station_id":"ce4bgrh2rcd13ifvqc8g","pricing_plan_id":"free"},{"bike_id":"b24801f2-06d1-4d3a-976d-fc2dc874f47a","system_id":"levelo_inurba_marseille","lat":43.301939,"lon":5.366286,"is_reserved":false,"is_disabled":false,"rental_uris":{"android":"levelo://app?vid=b24801f2-06d1-4d3a-976d-fc2dc874f47a","ios":"levelo://app?vid=b24801f2-06d1-4d3a-976d-fc2dc874f47a"},"vehicle_type_id":"4","last_reported":1705529222,"current_range_meters":19600,"station_id":"ce4bgrh2rcd13ifvqc8g","pricing_plan_id":"free"},{"bike_id":"c0a46194-ef0c-4900-bb19-93c9efed2bd1","system_id":"levelo_inurba_marseille","lat":43.301939,"lon":5.366286,"is_reserved":false,"is_disabled":false,"rental_uris":{"android":"levelo://app?vid=c0a46194-ef0c-4900-bb19-93c9efed2bd1","ios":"levelo://app?vid=c0a46194-ef0c-4900-bb19-93c9efed2bd1"},"vehicle_type_id":"4","last_reported":1705529222,"current_range_meters":1200,"station_id":"ce4bgrh2rcd13ifvqc8g","pricing_plan_id":"free"},{"bike_id":"bc7d1e80-3d21-454f-9d23-e5601e894623","system_id":"levelo_inurba_marseille","lat":43.308012,"lon":5.381511,"is_reserved":false,"is_disabled":false,"rental_uris":{"android":"levelo://app?vid=bc7d1e80-3d21-454f-9d23-e5601e894623","ios":"levelo://app?vid=bc7d1e80-3d21-454f-9d23-e5601e894623"},"vehicle_type_id":"4","last_reported":1705529222,"current_range_meters":24000,"station_id":"ce4bgt12rcd13ifvqce0","pricing_plan_id":"free"},{"bike_id":"3f650971-279a-48d6-a67d-3a5c8fdd7a98","system_id":"levelo_inurba_marseille","lat":43.308012,"lon":5.381511,"is_reserved":false,"is_disabled":false,"rental_uris":{"android":"levelo://app?vid=3f650971-279a-48d6-a67d-3a5c8fdd7a98","ios":"levelo://app?vid=3f650971-279a-48d6-a67d-3a5c8fdd7a98"},"vehicle_type_id":"4","last_reported":1705529222,"current_range_meters":12400,"station_id":"ce4bgt12rcd13ifvqce0","pricing_plan_id":"free"},{"bike_id":"dc4e2d60-27f9-438a-a21b-da38c7cbcc24","system_id":"levelo_inurba_marseille","lat":43.304606,"lon":5.379026,"is_reserved":false,"is_disabled":false,"rental_uris":{"android":"levelo://app?vid=dc4e2d60-27f9-438a-a21b-da38c7cbcc24","ios":"levelo://app?vid=dc4e2d60-27f9-438a-a21b-da38c7cbcc24"},"vehicle_type_id":"4","last_reported":1705529222,"current_range_meters":6800,"station_id":"ce4bgup2rcd13ifvqcn0","pricing_plan_id":"free"},{"bike_id":"b6665513-6ca2-42dc-9baf-3c5b43a49768","system_id":"levelo_inurba_marseille","lat":43.324771,"lon":5.36557,"is_reserved":false,"is_disabled":false,"rental_uris":{"android":"levelo://app?vid=b6665513-6ca2-42dc-9baf-3c5b43a49768","ios":"levelo://app?vid=b6665513-6ca2-42dc-9baf-3c5b43a49768"},"vehicle_type_id":"4","last_reported":1705529222,"current_range_meters":23600,"station_id":"ce4bhs12rcd13ifvqhvg","pricing_plan_id":"free"},{"bike_id":"8291f60e-c159-4222-a855-08d95a38ee2d","system_id":"levelo_inurba_marseille","lat":43.30143,"lon":5.37413,"is_reserved":false,"is_disabled":false,"rental_uris":{"android":"levelo://app?vid=8291f60e-c159-4222-a855-08d95a38ee2d","ios":"levelo://app?vid=8291f60e-c159-4222-a855-08d95a38ee2d"},"vehicle_type_id":"4","last_reported":1705529222,"current_range_meters":27200,"station_id":"ce4bgs92rcd13ifvqcc0","pricing_plan_id":"free"},{"bike_id":"23e5c87d-12ad-4d79-92d8-ef9f2ca35086","system_id":"levelo_inurba_marseille","lat":43.302747,"lon":5.377093,"is_reserved":false,"is_disabled":false,"rental_uris":{"android":"levelo://app?vid=23e5c87d-12ad-4d79-92d8-ef9f2ca35086","ios":"levelo://app?vid=23e5c87d-12ad-4d79-92d8-ef9f2ca35086"},"vehicle_type_id":"4","last_reported":1705529222,"current_range_meters":25600,"station_id":"","pricing_plan_id":"free"},{"bike_id":"e64ec3a8-eebd-4cdf-a91e-b0a283fed678","system_id":"levelo_inurba_marseille","lat":43.319935,"lon":5.381699,"is_reserved":false,"is_disabled":false,"rental_uris":{"android":"levelo://app?vid=e64ec3a8-eebd-4cdf-a91e-b0a283fed678","ios":"levelo://app?vid=e64ec3a8-eebd-4cdf-a91e-b0a283fed678"},"vehicle_type_id":"4","last_reported":1705529222,"current_range_meters":28800,"station_id":"ce4bhr12rcd13ifvqhpg","pricing_plan_id":"free"},{"bike_id":"d2edba53-b6fb-4937-aa17-e4cc1be26aea","system_id":"levelo_inurba_marseille","lat":43.319935,"lon":5.381699,"is_reserved":false,"is_disabled":false,"rental_uris":{"android":"levelo://app?vid=d2edba53-b6fb-4937-aa17-e4cc1be26aea","ios":"levelo://app?vid=d2edba53-b6fb-4937-aa17-e4cc1be26aea"},"vehicle_type_id":"4","last_reported":1705529222,"current_range_meters":12800,"station_id":"ce4bhr12rcd13ifvqhpg","pricing_plan_id":"free"},{"bike_id":"d7969d1d-a1b3-4043-b8e0-646e47c43f31","system_id":"levelo_inurba_marseille","lat":43.319935,"lon":5.381699,"is_reserved":false,"is_disabled":false,"rental_uris":{"android":"levelo://app?vid=d7969d1d-a1b3-4043-b8e0-646e47c43f31","ios":"levelo://app?vid=d7969d1d-a1b3-4043-b8e0-646e47c43f31"},"vehicle_type_id":"4","last_reported":1705529222,"current_range_meters":27600,"station_id":"ce4bhr12rcd13ifvqhpg","pricing_plan_id":"free"},{"bike_id":"58977b51-72c4-41b5-811b-3ff864e1122f","system_id":"levelo_inurba_marseille","lat":43.319935,"lon":5.381699,"is_reserved":false,"is_disabled":false,"rental_uris":{"android":"levelo://app?vid=58977b51-72c4-41b5-811b-3ff864e1122f","ios":"levelo://app?vid=58977b51-72c4-41b5-811b-3ff864e1122f"},"vehicle_type_id":"4","last_reported":1705529222,"current_range_meters":18000,"station_id":"ce4bhr12rcd13ifvqhpg","pricing_plan_id":"free"},{"bike_id":"d0c7e03a-cd17-4b01-b35f-270db649284a","system_id":"levelo_inurba_marseille","lat":43.319935,"lon":5.381699,"is_reserved":false,"is_disabled":false,"rental_uris":{"android":"levelo://app?vid=d0c7e03a-cd17-4b01-b35f-270db649284a","ios":"levelo://app?vid=d0c7e03a-cd17-4b01-b35f-270db649284a"},"vehicle_type_id":"4","last_reported":1705529222,"current_range_meters":12800,"station_id":"ce4bhr12rcd13ifvqhpg","pricing_plan_id":"free"},{"bike_id":"27fa8abf-f832-46c6-ba86-d6889fe545b5","system_id":"levelo_inurba_marseille","lat":43.313571,"lon":5.384829,"is_reserved":false,"is_disabled":false,"rental_uris":{"android":"levelo://app?vid=27fa8abf-f832-46c6-ba86-d6889fe545b5","ios":"levelo://app?vid=27fa8abf-f832-46c6-ba86-d6889fe545b5"},"vehicle_type_id":"4","last_reported":1705529222,"current_range_meters":5200,"station_id":"ce4bgt92rcd13ifvqcf0","pricing_plan_id":"free"},{"bike_id":"4c13ee13-1bd8-44d8-b7f9-b2cf86ea0f83","system_id":"levelo_inurba_marseille","lat":43.313571,"lon":5.384829,"is_reserved":false,"is_disabled":false,"rental_uris":{"android":"levelo://app?vid=4c13ee13-1bd8-44d8-b7f9-b2cf86ea0f83","ios":"levelo://app?vid=4c13ee13-1bd8-44d8-b7f9-b2cf86ea0f83"},"vehicle_type_id":"4","last_reported":1705529222,"current_range_meters":2800,"station_id":"ce4bgt92rcd13ifvqcf0","pricing_plan_id":"free"},{"bike_id":"6c1b416e-7142-4dd7-af8d-8265b17831fa","system_id":"levelo_inurba_marseille","lat":43.313571,"lon":5.384829,"is_reserved":false,"is_disabled":false,"rental_uris":{"android":"levelo://app?vid=6c1b416e-7142-4dd7-af8d-8265b17831fa","ios":"levelo://app?vid=6c1b416e-7142-4dd7-af8d-8265b17831fa"},"vehicle_type_id":"4","last_reported":1705529222,"current_range_meters":29600,"station_id":"ce4bgt92rcd13ifvqcf0","pricing_plan_id":"free"},{"bike_id":"1632a91d-1199-45bd-9df0-dd2fdd1ae80a","system_id":"levelo_inurba_marseille","lat":43.313571,"lon":5.384829,"is_reserved":false,"is_disabled":false,"rental_uris":{"android":"levelo://app?vid=1632a91d-1199-45bd-9df0-dd2fdd1ae80a","ios":"levelo://app?vid=1632a91d-1199-45bd-9df0-dd2fdd1ae80a"},"vehicle_type_id":"4","last_reported":1705529222,"current_range_meters":20400,"station_id":"ce4bgt92rcd13ifvqcf0","pricing_plan_id":"free"},{"bike_id":"814692ac-b473-4130-8719-0b5cf8a6c6f1","system_id":"levelo_inurba_marseille","lat":43.313571,"lon":5.384829,"is_reserved":false,"is_disabled":false,"rental_uris":{"android":"levelo://app?vid=814692ac-b473-4130-8719-0b5cf8a6c6f1","ios":"levelo://app?vid=814692ac-b473-4130-8719-0b5cf8a6c6f1"},"vehicle_type_id":"4","last_reported":1705529222,"current_range_meters":22400,"station_id":"ce4bgt92rcd13ifvqcf0","pricing_plan_id":"free"},{"bike_id":"3261db55-3177-4284-a75b-d10222dcdbd6","system_id":"levelo_inurba_marseille","lat":43.313571,"lon":5.384829,"is_reserved":false,"is_disabled":false,"rental_uris":{"android":"levelo://app?vid=3261db55-3177-4284-a75b-d10222dcdbd6","ios":"levelo://app?vid=3261db55-3177-4284-a75b-d10222dcdbd6"},"vehicle_type_id":"4","last_reported":1705529222,"current_range_meters":30400,"station_id":"ce4bgt92rcd13ifvqcf0","pricing_plan_id":"free"},{"bike_id":"a9fecdd8-54c6-42ba-9f80-f8cc0de47808","system_id":"levelo_inurba_marseille","lat":43.313571,"lon":5.384829,"is_reserved":false,"is_disabled":false,"rental_uris":{"android":"levelo://app?vid=a9fecdd8-54c6-42ba-9f80-f8cc0de47808","ios":"levelo://app?vid=a9fecdd8-54c6-42ba-9f80-f8cc0de47808"},"vehicle_type_id":"4","last_reported":1705529222,"current_range_meters":16400,"station_id":"ce4bgt92rcd13ifvqcf0","pricing_plan_id":"free"},{"bike_id":"2ca438be-02d4-40bd-b063-117dbb495a10","system_id":"levelo_inurba_marseille","lat":43.29977,"lon":5.37185,"is_reserved":false,"is_disabled":false,"rental_uris":{"android":"levelo://app?vid=2ca438be-02d4-40bd-b063-117dbb495a10","ios":"levelo://app?vid=2ca438be-02d4-40bd-b063-117dbb495a10"},"vehicle_type_id":"4","last_reported":1705529222,"current_range_meters":20000,"station_id":"ce4bgr92rcd13ifvqc7g","pricing_plan_id":"free"},{"bike_id":"dcea3bfa-82ec-4d23-b45a-fea0ef45a7e7","system_id":"levelo_inurba_marseille","lat":43.29926,"lon":5.36535,"is_reserved":false,"is_disabled":false,"rental_uris":{"android":"levelo://app?vid=dcea3bfa-82ec-4d23-b45a-fea0ef45a7e7","ios":"levelo://app?vid=dcea3bfa-82ec-4d23-b45a-fea0ef45a7e7"},"vehicle_type_id":"4","last_reported":1705529222,"current_range_meters":3600,"station_id":"ce4bgm92rcd13ifvqbr0","pricing_plan_id":"free"},{"bike_id":"1bf1965d-34d3-4367-a8ac-3a3cb864e38a","system_id":"levelo_inurba_marseille","lat":43.299724,"lon":5.371829,"is_reserved":false,"is_disabled":false,"rental_uris":{"android":"levelo://app?vid=1bf1965d-34d3-4367-a8ac-3a3cb864e38a","ios":"levelo://app?vid=1bf1965d-34d3-4367-a8ac-3a3cb864e38a"},"vehicle_type_id":"4","last_reported":1705529222,"current_range_meters":16000,"station_id":"ce4bgr92rcd13ifvqc7g","pricing_plan_id":"free"},{"bike_id":"479f32f8-1f83-4ad5-850c-10bf20d4017d","system_id":"levelo_inurba_marseille","lat":43.299724,"lon":5.371829,"is_reserved":false,"is_disabled":false,"rental_uris":{"android":"levelo://app?vid=479f32f8-1f83-4ad5-850c-10bf20d4017d","ios":"levelo://app?vid=479f32f8-1f83-4ad5-850c-10bf20d4017d"},"vehicle_type_id":"4","last_reported":1705529222,"current_range_meters":18400,"station_id":"ce4bgr92rcd13ifvqc7g","pricing_plan_id":"free"},{"bike_id":"e13c9a92-369f-4166-a0e5-9fac82e9cf6b","system_id":"levelo_inurba_marseille","lat":43.305364,"lon":5.384119,"is_reserved":false,"is_disabled":false,"rental_uris":{"android":"levelo://app?vid=e13c9a92-369f-4166-a0e5-9fac82e9cf6b","ios":"levelo://app?vid=e13c9a92-369f-4166-a0e5-9fac82e9cf6b"},"vehicle_type_id":"4","last_reported":1705529222,"current_range_meters":22800,"station_id":"ce4bgg92rcd13ifvqb30","pricing_plan_id":"free"},{"bike_id":"24bb2901-ded0-445a-b1cb-9938a52b35c3","system_id":"levelo_inurba_marseille","lat":43.311775,"lon":5.38711,"is_reserved":false,"is_disabled":false,"rental_uris":{"android":"levelo://app?vid=24bb2901-ded0-445a-b1cb-9938a52b35c3","ios":"levelo://app?vid=24bb2901-ded0-445a-b1cb-9938a52b35c3"},"vehicle_type_id":"4","last_reported":1705529222,"current_range_meters":14400,"station_id":"ce4bgv12rcd13ifvqcp0","pricing_plan_id":"free"},{"bike_id":"ece942ec-6dd4-4148-93a4-84eb0dcc7674","system_id":"levelo_inurba_marseille","lat":43.31185,"lon":5.38712,"is_reserved":false,"is_disabled":false,"rental_uris":{"android":"levelo://app?vid=ece942ec-6dd4-4148-93a4-84eb0dcc7674","ios":"levelo://app?vid=ece942ec-6dd4-4148-93a4-84eb0dcc7674"},"vehicle_type_id":"4","last_reported":1705529222,"current_range_meters":20800,"station_id":"ce4bgv12rcd13ifvqcp0","pricing_plan_id":"free"},{"bike_id":"1a4e3468-89a0-47cf-91bf-7b8e805b975e","system_id":"levelo_inurba_marseille","lat":43.299125,"lon":5.374661,"is_reserved":false,"is_disabled":false,"rental_uris":{"android":"levelo://app?vid=1a4e3468-89a0-47cf-91bf-7b8e805b975e","ios":"levelo://app?vid=1a4e3468-89a0-47cf-91bf-7b8e805b975e"},"vehicle_type_id":"4","last_reported":1705529222,"current_range_meters":27200,"station_id":"ce4bgjh2rcd13ifvqbg0","pricing_plan_id":"free"},{"bike_id":"b84c78ec-20e4-4d01-bafc-cd5b6393e0f3","system_id":"levelo_inurba_marseille","lat":43.311722,"lon":5.387247,"is_reserved":false,"is_disabled":false,"rental_uris":{"android":"levelo://app?vid=b84c78ec-20e4-4d01-bafc-cd5b6393e0f3","ios":"levelo://app?vid=b84c78ec-20e4-4d01-bafc-cd5b6393e0f3"},"vehicle_type_id":"4","last_reported":1705529222,"current_range_meters":26800,"station_id":"ce4bgv12rcd13ifvqcp0","pricing_plan_id":"free"},{"bike_id":"34c8b400-5074-46e3-aa02-f5d274dfaa4f","system_id":"levelo_inurba_marseille","lat":43.322883,"lon":5.382573,"is_reserved":false,"is_disabled":false,"rental_uris":{"android":"levelo://app?vid=34c8b400-5074-46e3-aa02-f5d274dfaa4f","ios":"levelo://app?vid=34c8b400-5074-46e3-aa02-f5d274dfaa4f"},"vehicle_type_id":"4","last_reported":1705529222,"current_range_meters":14000,"station_id":"ce4bhr12rcd13ifvqhqg","pricing_plan_id":"free"},{"bike_id":"602a17b0-b8f4-4e78-85df-303ed86c065f","system_id":"levelo_inurba_marseille","lat":43.322872,"lon":5.382756,"is_reserved":false,"is_disabled":false,"rental_uris":{"android":"levelo://app?vid=602a17b0-b8f4-4e78-85df-303ed86c065f","ios":"levelo://app?vid=602a17b0-b8f4-4e78-85df-303ed86c065f"},"vehicle_type_id":"4","last_reported":1705529222,"current_range_meters":22000,"station_id":"ce4bhr12rcd13ifvqhqg","pricing_plan_id":"free"},{"bike_id":"c59e915a-05cb-49b2-8b19-dcae4465ebcc","system_id":"levelo_inurba_marseille","lat":43.322872,"lon":5.382756,"is_reserved":false,"is_disabled":false,"rental_uris":{"android":"levelo://app?vid=c59e915a-05cb-49b2-8b19-dcae4465ebcc","ios":"levelo://app?vid=c59e915a-05cb-49b2-8b19-dcae4465ebcc"},"vehicle_type_id":"4","last_reported":1705529222,"current_range_meters":30000,"station_id":"ce4bhr12rcd13ifvqhqg","pricing_plan_id":"free"},{"bike_id":"3f6079be-fb20-4733-af0c-85ab4c3940ea","system_id":"levelo_inurba_marseille","lat":43.322872,"lon":5.382756,"is_reserved":false,"is_disabled":false,"rental_uris":{"android":"levelo://app?vid=3f6079be-fb20-4733-af0c-85ab4c3940ea","ios":"levelo://app?vid=3f6079be-fb20-4733-af0c-85ab4c3940ea"},"vehicle_type_id":"4","last_reported":1705529222,"current_range_meters":30400,"station_id":"ce4bhr12rcd13ifvqhqg","pricing_plan_id":"free"},{"bike_id":"f2da3271-a718-446f-a3a1-1d03eaabba68","system_id":"levelo_inurba_marseille","lat":43.297794,"lon":5.370888,"is_reserved":false,"is_disabled":false,"rental_uris":{"android":"levelo://app?vid=f2da3271-a718-446f-a3a1-1d03eaabba68","ios":"levelo://app?vid=f2da3271-a718-446f-a3a1-1d03eaabba68"},"vehicle_type_id":"4","last_reported":1705529222,"current_range_meters":27200,"station_id":"ce4bgop2rcd13ifvqc1g","pricing_plan_id":"free"},{"bike_id":"afe2d6ba-ebda-4981-9104-c77037901f05","system_id":"levelo_inurba_marseille","lat":43.322872,"lon":5.382756,"is_reserved":false,"is_disabled":false,"rental_uris":{"android":"levelo://app?vid=afe2d6ba-ebda-4981-9104-c77037901f05","ios":"levelo://app?vid=afe2d6ba-ebda-4981-9104-c77037901f05"},"vehicle_type_id":"4","last_reported":1705529222,"current_range_meters":14000,"station_id":"ce4bhr12rcd13ifvqhqg","pricing_plan_id":"free"},{"bike_id":"aceabc87-d681-4c2c-a7db-fc99976ae55a","system_id":"levelo_inurba_marseille","lat":43.322872,"lon":5.382756,"is_reserved":false,"is_disabled":false,"rental_uris":{"android":"levelo://app?vid=aceabc87-d681-4c2c-a7db-fc99976ae55a","ios":"levelo://app?vid=aceabc87-d681-4c2c-a7db-fc99976ae55a"},"vehicle_type_id":"4","last_reported":1705529222,"current_range_meters":6800,"station_id":"ce4bhr12rcd13ifvqhqg","pricing_plan_id":"free"},{"bike_id":"7f73b72d-cc5e-4953-9b4b-d396e1416c0e","system_id":"levelo_inurba_marseille","lat":43.322872,"lon":5.382756,"is_reserved":false,"is_disabled":false,"rental_uris":{"android":"levelo://app?vid=7f73b72d-cc5e-4953-9b4b-d396e1416c0e","ios":"levelo://app?vid=7f73b72d-cc5e-4953-9b4b-d396e1416c0e"},"vehicle_type_id":"4","last_reported":1705529222,"current_range_meters":14000,"station_id":"ce4bhr12rcd13ifvqhqg","pricing_plan_id":"free"},{"bike_id":"bc668f13-2e56-47cf-a84f-2f5cc2560e83","system_id":"levelo_inurba_marseille","lat":43.322872,"lon":5.382756,"is_reserved":false,"is_disabled":false,"rental_uris":{"android":"levelo://app?vid=bc668f13-2e56-47cf-a84f-2f5cc2560e83","ios":"levelo://app?vid=bc668f13-2e56-47cf-a84f-2f5cc2560e83"},"vehicle_type_id":"4","last_reported":1705529222,"current_range_meters":26000,"station_id":"ce4bhr12rcd13ifvqhqg","pricing_plan_id":"free"},{"bike_id":"510e4003-ad50-4182-a4bb-6da1b111fff5","system_id":"levelo_inurba_marseille","lat":43.322872,"lon":5.382756,"is_reserved":false,"is_disabled":false,"rental_uris":{"android":"levelo://app?vid=510e4003-ad50-4182-a4bb-6da1b111fff5","ios":"levelo://app?vid=510e4003-ad50-4182-a4bb-6da1b111fff5"},"vehicle_type_id":"4","last_reported":1705529222,"current_range_meters":18400,"station_id":"ce4bhr12rcd13ifvqhqg","pricing_plan_id":"free"},{"bike_id":"9cda7071-0b99-4f13-a66f-99ee8455accb","system_id":"levelo_inurba_marseille","lat":43.32821,"lon":5.36669,"is_reserved":false,"is_disabled":false,"rental_uris":{"android":"levelo://app?vid=9cda7071-0b99-4f13-a66f-99ee8455accb","ios":"levelo://app?vid=9cda7071-0b99-4f13-a66f-99ee8455accb"},"vehicle_type_id":"4","last_reported":1705529222,"current_range_meters":17200,"station_id":"ce4bhs92rcd13ifvqi0g","pricing_plan_id":"free"},{"bike_id":"947a5c0b-0299-4cd2-aecd-5f351114aaf8","system_id":"levelo_inurba_marseille","lat":43.32822,"lon":5.3668,"is_reserved":false,"is_disabled":false,"rental_uris":{"android":"levelo://app?vid=947a5c0b-0299-4cd2-aecd-5f351114aaf8","ios":"levelo://app?vid=947a5c0b-0299-4cd2-aecd-5f351114aaf8"},"vehicle_type_id":"4","last_reported":1705529222,"current_range_meters":20400,"station_id":"ce4bhs92rcd13ifvqi0g","pricing_plan_id":"free"},{"bike_id":"8463d0da-e03a-4a02-8a84-4dd7b137838e","system_id":"levelo_inurba_marseille","lat":43.32822,"lon":5.36678,"is_reserved":false,"is_disabled":false,"rental_uris":{"android":"levelo://app?vid=8463d0da-e03a-4a02-8a84-4dd7b137838e","ios":"levelo://app?vid=8463d0da-e03a-4a02-8a84-4dd7b137838e"},"vehicle_type_id":"4","last_reported":1705529222,"current_range_meters":20000,"station_id":"ce4bhs92rcd13ifvqi0g","pricing_plan_id":"free"},{"bike_id":"09621f87-561a-4138-9bcf-5568c59432a9","system_id":"levelo_inurba_marseille","lat":43.328244,"lon":5.36683,"is_reserved":false,"is_disabled":false,"rental_uris":{"android":"levelo://app?vid=09621f87-561a-4138-9bcf-5568c59432a9","ios":"levelo://app?vid=09621f87-561a-4138-9bcf-5568c59432a9"},"vehicle_type_id":"4","last_reported":1705529222,"current_range_meters":0,"station_id":"ce4bhs92rcd13ifvqi0g","pricing_plan_id":"free"},{"bike_id":"85cedcff-9e9a-415d-8415-195178ea3cb7","system_id":"levelo_inurba_marseille","lat":43.328248,"lon":5.36681,"is_reserved":false,"is_disabled":false,"rental_uris":{"android":"levelo://app?vid=85cedcff-9e9a-415d-8415-195178ea3cb7","ios":"levelo://app?vid=85cedcff-9e9a-415d-8415-195178ea3cb7"},"vehicle_type_id":"4","last_reported":1705529222,"current_range_meters":19200,"station_id":"ce4bhs92rcd13ifvqi0g","pricing_plan_id":"free"},{"bike_id":"d43c57c2-7bf4-4425-bc47-bf63cf92422b","system_id":"levelo_inurba_marseille","lat":43.29724,"lon":5.36616,"is_reserved":false,"is_disabled":false,"rental_uris":{"android":"levelo://app?vid=d43c57c2-7bf4-4425-bc47-bf63cf92422b","ios":"levelo://app?vid=d43c57c2-7bf4-4425-bc47-bf63cf92422b"},"vehicle_type_id":"4","last_reported":1705529222,"current_range_meters":12800,"station_id":"ce4bgn12rcd13ifvqbt0","pricing_plan_id":"free"},{"bike_id":"70f179dd-f28c-4384-b145-ec6cf77cd4b8","system_id":"levelo_inurba_marseille","lat":43.32825,"lon":5.366804,"is_reserved":false,"is_disabled":false,"rental_uris":{"android":"levelo://app?vid=70f179dd-f28c-4384-b145-ec6cf77cd4b8","ios":"levelo://app?vid=70f179dd-f28c-4384-b145-ec6cf77cd4b8"},"vehicle_type_id":"4","last_reported":1705529222,"current_range_meters":10800,"station_id":"ce4bhs92rcd13ifvqi0g","pricing_plan_id":"free"},{"bike_id":"88638e12-da12-4596-b7e2-600ab2f62219","system_id":"levelo_inurba_marseille","lat":43.328251,"lon":5.366726,"is_reserved":false,"is_disabled":false,"rental_uris":{"android":"levelo://app?vid=88638e12-da12-4596-b7e2-600ab2f62219","ios":"levelo://app?vid=88638e12-da12-4596-b7e2-600ab2f62219"},"vehicle_type_id":"4","last_reported":1705529222,"current_range_meters":8800,"station_id":"ce4bhs92rcd13ifvqi0g","pricing_plan_id":"free"},{"bike_id":"ea0178f3-2c6b-4af6-b062-91b0b8dde1df","system_id":"levelo_inurba_marseille","lat":43.328251,"lon":5.366828,"is_reserved":false,"is_disabled":false,"rental_uris":{"android":"levelo://app?vid=ea0178f3-2c6b-4af6-b062-91b0b8dde1df","ios":"levelo://app?vid=ea0178f3-2c6b-4af6-b062-91b0b8dde1df"},"vehicle_type_id":"4","last_reported":1705529222,"current_range_meters":5200,"station_id":"ce4bhs92rcd13ifvqi0g","pricing_plan_id":"free"},{"bike_id":"1782ad4d-7cbc-4ac0-af82-b65688e9d34c","system_id":"levelo_inurba_marseille","lat":43.328257,"lon":5.366721,"is_reserved":false,"is_disabled":false,"rental_uris":{"android":"levelo://app?vid=1782ad4d-7cbc-4ac0-af82-b65688e9d34c","ios":"levelo://app?vid=1782ad4d-7cbc-4ac0-af82-b65688e9d34c"},"vehicle_type_id":"4","last_reported":1705529222,"current_range_meters":24400,"station_id":"ce4bhs92rcd13ifvqi0g","pricing_plan_id":"free"},{"bike_id":"7a5cfd19-67b5-4404-837f-9d2597d5b4a4","system_id":"levelo_inurba_marseille","lat":43.32826,"lon":5.36679,"is_reserved":false,"is_disabled":false,"rental_uris":{"android":"levelo://app?vid=7a5cfd19-67b5-4404-837f-9d2597d5b4a4","ios":"levelo://app?vid=7a5cfd19-67b5-4404-837f-9d2597d5b4a4"},"vehicle_type_id":"4","last_reported":1705529222,"current_range_meters":13200,"station_id":"ce4bhs92rcd13ifvqi0g","pricing_plan_id":"free"},{"bike_id":"6b4ea496-3016-42db-af64-ba8beb6e73fc","system_id":"levelo_inurba_marseille","lat":43.328263,"lon":5.366761,"is_reserved":false,"is_disabled":false,"rental_uris":{"android":"levelo://app?vid=6b4ea496-3016-42db-af64-ba8beb6e73fc","ios":"levelo://app?vid=6b4ea496-3016-42db-af64-ba8beb6e73fc"},"vehicle_type_id":"4","last_reported":1705529222,"current_range_meters":22400,"station_id":"ce4bhs92rcd13ifvqi0g","pricing_plan_id":"free"},{"bike_id":"fca86b06-2160-4bc5-be0f-6c0b71564379","system_id":"levelo_inurba_marseille","lat":43.29722,"lon":5.36612,"is_reserved":false,"is_disabled":false,"rental_uris":{"android":"levelo://app?vid=fca86b06-2160-4bc5-be0f-6c0b71564379","ios":"levelo://app?vid=fca86b06-2160-4bc5-be0f-6c0b71564379"},"vehicle_type_id":"4","last_reported":1705529222,"current_range_meters":24800,"station_id":"ce4bgn12rcd13ifvqbt0","pricing_plan_id":"free"},{"bike_id":"a53b6dde-9c97-4a96-897c-ee7f9265222d","system_id":"levelo_inurba_marseille","lat":43.32828,"lon":5.366755,"is_reserved":false,"is_disabled":false,"rental_uris":{"android":"levelo://app?vid=a53b6dde-9c97-4a96-897c-ee7f9265222d","ios":"levelo://app?vid=a53b6dde-9c97-4a96-897c-ee7f9265222d"},"vehicle_type_id":"4","last_reported":1705529222,"current_range_meters":20800,"station_id":"ce4bhs92rcd13ifvqi0g","pricing_plan_id":"free"},{"bike_id":"641739e6-19de-47df-9491-35da26c3c9da","system_id":"levelo_inurba_marseille","lat":43.328297,"lon":5.36676,"is_reserved":false,"is_disabled":false,"rental_uris":{"android":"levelo://app?vid=641739e6-19de-47df-9491-35da26c3c9da","ios":"levelo://app?vid=641739e6-19de-47df-9491-35da26c3c9da"},"vehicle_type_id":"4","last_reported":1705529222,"current_range_meters":0,"station_id":"ce4bhs92rcd13ifvqi0g","pricing_plan_id":"free"},{"bike_id":"bae0e6ef-8eeb-485a-a054-bea3431d2035","system_id":"levelo_inurba_marseille","lat":43.328298,"lon":5.366731,"is_reserved":false,"is_disabled":false,"rental_uris":{"android":"levelo://app?vid=bae0e6ef-8eeb-485a-a054-bea3431d2035","ios":"levelo://app?vid=bae0e6ef-8eeb-485a-a054-bea3431d2035"},"vehicle_type_id":"4","last_reported":1705529222,"current_range_meters":18000,"station_id":"ce4bhs92rcd13ifvqi0g","pricing_plan_id":"free"},{"bike_id":"02f97db8-1e1e-4f38-89f3-11868234f7c3","system_id":"levelo_inurba_marseille","lat":43.328309,"lon":5.366742,"is_reserved":false,"is_disabled":false,"rental_uris":{"android":"levelo://app?vid=02f97db8-1e1e-4f38-89f3-11868234f7c3","ios":"levelo://app?vid=02f97db8-1e1e-4f38-89f3-11868234f7c3"},"vehicle_type_id":"4","last_reported":1705529222,"current_range_meters":16400,"station_id":"ce4bhs92rcd13ifvqi0g","pricing_plan_id":"free"},{"bike_id":"d5600d48-9ca1-431c-afdc-f055b0b3ff68","system_id":"levelo_inurba_marseille","lat":43.32832,"lon":5.36693,"is_reserved":false,"is_disabled":false,"rental_uris":{"android":"levelo://app?vid=d5600d48-9ca1-431c-afdc-f055b0b3ff68","ios":"levelo://app?vid=d5600d48-9ca1-431c-afdc-f055b0b3ff68"},"vehicle_type_id":"4","last_reported":1705529222,"current_range_meters":400,"station_id":"ce4bhs92rcd13ifvqi0g","pricing_plan_id":"free"},{"bike_id":"8c8841e0-3da9-4ec9-ab3e-86fdfcff75fa","system_id":"levelo_inurba_marseille","lat":43.297124,"lon":5.366136,"is_reserved":false,"is_disabled":false,"rental_uris":{"android":"levelo://app?vid=8c8841e0-3da9-4ec9-ab3e-86fdfcff75fa","ios":"levelo://app?vid=8c8841e0-3da9-4ec9-ab3e-86fdfcff75fa"},"vehicle_type_id":"4","last_reported":1705529222,"current_range_meters":11200,"station_id":"ce4bgn12rcd13ifvqbt0","pricing_plan_id":"free"},{"bike_id":"38082c03-fac1-44d3-a79f-5142b4a113a9","system_id":"levelo_inurba_marseille","lat":43.328373,"lon":5.366902,"is_reserved":false,"is_disabled":false,"rental_uris":{"android":"levelo://app?vid=38082c03-fac1-44d3-a79f-5142b4a113a9","ios":"levelo://app?vid=38082c03-fac1-44d3-a79f-5142b4a113a9"},"vehicle_type_id":"4","last_reported":1705529222,"current_range_meters":22000,"station_id":"ce4bhs92rcd13ifvqi0g","pricing_plan_id":"free"},{"bike_id":"b4462b3d-7726-4d91-8012-ba1bac161ec5","system_id":"levelo_inurba_marseille","lat":43.297098,"lon":5.366099,"is_reserved":false,"is_disabled":false,"rental_uris":{"android":"levelo://app?vid=b4462b3d-7726-4d91-8012-ba1bac161ec5","ios":"levelo://app?vid=b4462b3d-7726-4d91-8012-ba1bac161ec5"},"vehicle_type_id":"4","last_reported":1705529222,"current_range_meters":23200,"station_id":"ce4bgn12rcd13ifvqbt0","pricing_plan_id":"free"},{"bike_id":"4b170424-19d0-4ae4-b688-10443dcf1412","system_id":"levelo_inurba_marseille","lat":43.29709,"lon":5.36606,"is_reserved":false,"is_disabled":false,"rental_uris":{"android":"levelo://app?vid=4b170424-19d0-4ae4-b688-10443dcf1412","ios":"levelo://app?vid=4b170424-19d0-4ae4-b688-10443dcf1412"},"vehicle_type_id":"4","last_reported":1705529222,"current_range_meters":26800,"station_id":"ce4bgn12rcd13ifvqbt0","pricing_plan_id":"free"},{"bike_id":"a57fb72f-fba7-4d3c-bb6c-145fe89d9f7a","system_id":"levelo_inurba_marseille","lat":43.297089,"lon":5.366066,"is_reserved":false,"is_disabled":false,"rental_uris":{"android":"levelo://app?vid=a57fb72f-fba7-4d3c-bb6c-145fe89d9f7a","ios":"levelo://app?vid=a57fb72f-fba7-4d3c-bb6c-145fe89d9f7a"},"vehicle_type_id":"4","last_reported":1705529222,"current_range_meters":31200,"station_id":"ce4bgn12rcd13ifvqbt0","pricing_plan_id":"free"},{"bike_id":"2b8c20f5-6691-4f06-b229-b5606672aa18","system_id":"levelo_inurba_marseille","lat":43.29706,"lon":5.36619,"is_reserved":false,"is_disabled":false,"rental_uris":{"android":"levelo://app?vid=2b8c20f5-6691-4f06-b229-b5606672aa18","ios":"levelo://app?vid=2b8c20f5-6691-4f06-b229-b5606672aa18"},"vehicle_type_id":"4","last_reported":1705529222,"current_range_meters":29600,"station_id":"ce4bgn12rcd13ifvqbt0","pricing_plan_id":"free"},{"bike_id":"d244dd42-e655-4246-9535-52092b7e8b8e","system_id":"levelo_inurba_marseille","lat":43.297034,"lon":5.366167,"is_reserved":false,"is_disabled":false,"rental_uris":{"android":"levelo://app?vid=d244dd42-e655-4246-9535-52092b7e8b8e","ios":"levelo://app?vid=d244dd42-e655-4246-9535-52092b7e8b8e"},"vehicle_type_id":"4","last_reported":1705529222,"current_range_meters":24000,"station_id":"ce4bgn12rcd13ifvqbt0","pricing_plan_id":"free"},{"bike_id":"4070b081-dcac-4148-ae0f-37c9b1e08a6e","system_id":"levelo_inurba_marseille","lat":43.29703,"lon":5.3661,"is_reserved":false,"is_disabled":false,"rental_uris":{"android":"levelo://app?vid=4070b081-dcac-4148-ae0f-37c9b1e08a6e","ios":"levelo://app?vid=4070b081-dcac-4148-ae0f-37c9b1e08a6e"},"vehicle_type_id":"4","last_reported":1705529222,"current_range_meters":28400,"station_id":"ce4bgn12rcd13ifvqbt0","pricing_plan_id":"free"},{"bike_id":"fce69607-1d37-4f68-b587-452534779f95","system_id":"levelo_inurba_marseille","lat":43.2958,"lon":5.36742,"is_reserved":false,"is_disabled":false,"rental_uris":{"android":"levelo://app?vid=fce69607-1d37-4f68-b587-452534779f95","ios":"levelo://app?vid=fce69607-1d37-4f68-b587-452534779f95"},"vehicle_type_id":"4","last_reported":1705529222,"current_range_meters":24400,"station_id":"ce4bgph2rcd13ifvqc2g","pricing_plan_id":"free"},{"bike_id":"c6c2a42c-cb3e-4d36-a6b9-d2650d13a887","system_id":"levelo_inurba_marseille","lat":43.29573,"lon":5.367355,"is_reserved":false,"is_disabled":false,"rental_uris":{"android":"levelo://app?vid=c6c2a42c-cb3e-4d36-a6b9-d2650d13a887","ios":"levelo://app?vid=c6c2a42c-cb3e-4d36-a6b9-d2650d13a887"},"vehicle_type_id":"4","last_reported":1705529222,"current_range_meters":26400,"station_id":"ce4bgph2rcd13ifvqc2g","pricing_plan_id":"free"},{"bike_id":"3a19be50-1b3b-4b66-9710-e0cb8afd95cd","system_id":"levelo_inurba_marseille","lat":43.299028,"lon":5.381509,"is_reserved":false,"is_disabled":false,"rental_uris":{"android":"levelo://app?vid=3a19be50-1b3b-4b66-9710-e0cb8afd95cd","ios":"levelo://app?vid=3a19be50-1b3b-4b66-9710-e0cb8afd95cd"},"vehicle_type_id":"4","last_reported":1705529222,"current_range_meters":0,"station_id":"ce4bgj12rcd13ifvqbc0","pricing_plan_id":"free"},{"bike_id":"4715f75f-fbec-4b3d-b44a-74b7bea0d4bd","system_id":"levelo_inurba_marseille","lat":43.296921,"lon":5.376579,"is_reserved":false,"is_disabled":false,"rental_uris":{"android":"levelo://app?vid=4715f75f-fbec-4b3d-b44a-74b7bea0d4bd","ios":"levelo://app?vid=4715f75f-fbec-4b3d-b44a-74b7bea0d4bd"},"vehicle_type_id":"4","last_reported":1705529222,"current_range_meters":31200,"station_id":"ce4bgkh2rcd13ifvqbl0","pricing_plan_id":"free"},{"bike_id":"d4d60c11-4d5c-4dcb-abe4-777b8eef8048","system_id":"levelo_inurba_marseille","lat":43.317557,"lon":5.390173,"is_reserved":false,"is_disabled":false,"rental_uris":{"android":"levelo://app?vid=d4d60c11-4d5c-4dcb-abe4-777b8eef8048","ios":"levelo://app?vid=d4d60c11-4d5c-4dcb-abe4-777b8eef8048"},"vehicle_type_id":"4","last_reported":1705529222,"current_range_meters":12400,"station_id":"ce4bhqp2rcd13ifvqhng","pricing_plan_id":"free"},{"bike_id":"adf57486-38ef-4e27-8d2d-b09313ee4b06","system_id":"levelo_inurba_marseille","lat":43.317557,"lon":5.390173,"is_reserved":false,"is_disabled":false,"rental_uris":{"android":"levelo://app?vid=adf57486-38ef-4e27-8d2d-b09313ee4b06","ios":"levelo://app?vid=adf57486-38ef-4e27-8d2d-b09313ee4b06"},"vehicle_type_id":"4","last_reported":1705529222,"current_range_meters":17200,"station_id":"ce4bhqp2rcd13ifvqhng","pricing_plan_id":"free"},{"bike_id":"ae04197c-27cd-44f2-a5dc-680c3f3e39b6","system_id":"levelo_inurba_marseille","lat":43.317557,"lon":5.390173,"is_reserved":false,"is_disabled":false,"rental_uris":{"android":"levelo://app?vid=ae04197c-27cd-44f2-a5dc-680c3f3e39b6","ios":"levelo://app?vid=ae04197c-27cd-44f2-a5dc-680c3f3e39b6"},"vehicle_type_id":"4","last_reported":1705529222,"current_range_meters":6800,"station_id":"ce4bhqp2rcd13ifvqhng","pricing_plan_id":"free"},{"bike_id":"3fc1c41e-5148-4539-8611-6ae4c5633027","system_id":"levelo_inurba_marseille","lat":43.317557,"lon":5.390173,"is_reserved":false,"is_disabled":false,"rental_uris":{"android":"levelo://app?vid=3fc1c41e-5148-4539-8611-6ae4c5633027","ios":"levelo://app?vid=3fc1c41e-5148-4539-8611-6ae4c5633027"},"vehicle_type_id":"4","last_reported":1705529222,"current_range_meters":18400,"station_id":"ce4bhqp2rcd13ifvqhng","pricing_plan_id":"free"},{"bike_id":"dba20d12-0ad0-434e-8ce5-a1a7116dcbfe","system_id":"levelo_inurba_marseille","lat":43.304278,"lon":5.388868,"is_reserved":false,"is_disabled":false,"rental_uris":{"android":"levelo://app?vid=dba20d12-0ad0-434e-8ce5-a1a7116dcbfe","ios":"levelo://app?vid=dba20d12-0ad0-434e-8ce5-a1a7116dcbfe"},"vehicle_type_id":"4","last_reported":1705529222,"current_range_meters":24000,"station_id":"ce4bgk12rcd13ifvqbi0","pricing_plan_id":"free"},{"bike_id":"4f7d7d64-0855-4524-8050-7087f51905bf","system_id":"levelo_inurba_marseille","lat":43.304274,"lon":5.388873,"is_reserved":false,"is_disabled":false,"rental_uris":{"android":"levelo://app?vid=4f7d7d64-0855-4524-8050-7087f51905bf","ios":"levelo://app?vid=4f7d7d64-0855-4524-8050-7087f51905bf"},"vehicle_type_id":"4","last_reported":1705529222,"current_range_meters":24800,"station_id":"ce4bgk12rcd13ifvqbi0","pricing_plan_id":"free"},{"bike_id":"974a47ca-1564-418b-82b6-2e9b05be5e6d","system_id":"levelo_inurba_marseille","lat":43.304274,"lon":5.388873,"is_reserved":false,"is_disabled":false,"rental_uris":{"android":"levelo://app?vid=974a47ca-1564-418b-82b6-2e9b05be5e6d","ios":"levelo://app?vid=974a47ca-1564-418b-82b6-2e9b05be5e6d"},"vehicle_type_id":"4","last_reported":1705529222,"current_range_meters":16400,"station_id":"ce4bgk12rcd13ifvqbi0","pricing_plan_id":"free"},{"bike_id":"aa8b9212-5398-474f-8914-89425355a255","system_id":"levelo_inurba_marseille","lat":43.304278,"lon":5.388868,"is_reserved":false,"is_disabled":false,"rental_uris":{"android":"levelo://app?vid=aa8b9212-5398-474f-8914-89425355a255","ios":"levelo://app?vid=aa8b9212-5398-474f-8914-89425355a255"},"vehicle_type_id":"4","last_reported":1705529222,"current_range_meters":4400,"station_id":"ce4bgk12rcd13ifvqbi0","pricing_plan_id":"free"},{"bike_id":"21e4f805-55aa-4aed-8201-7eee63f651be","system_id":"levelo_inurba_marseille","lat":43.304278,"lon":5.388868,"is_reserved":false,"is_disabled":false,"rental_uris":{"android":"levelo://app?vid=21e4f805-55aa-4aed-8201-7eee63f651be","ios":"levelo://app?vid=21e4f805-55aa-4aed-8201-7eee63f651be"},"vehicle_type_id":"4","last_reported":1705529222,"current_range_meters":20000,"station_id":"ce4bgk12rcd13ifvqbi0","pricing_plan_id":"free"},{"bike_id":"7a3b6e80-acbd-4f83-998a-df202bfeb28c","system_id":"levelo_inurba_marseille","lat":43.304278,"lon":5.388868,"is_reserved":false,"is_disabled":false,"rental_uris":{"android":"levelo://app?vid=7a3b6e80-acbd-4f83-998a-df202bfeb28c","ios":"levelo://app?vid=7a3b6e80-acbd-4f83-998a-df202bfeb28c"},"vehicle_type_id":"4","last_reported":1705529222,"current_range_meters":18800,"station_id":"ce4bgk12rcd13ifvqbi0","pricing_plan_id":"free"},{"bike_id":"4e1e9b11-3c6c-41ca-93a2-a6773594a990","system_id":"levelo_inurba_marseille","lat":43.32367,"lon":5.388836,"is_reserved":false,"is_disabled":false,"rental_uris":{"android":"levelo://app?vid=4e1e9b11-3c6c-41ca-93a2-a6773594a990","ios":"levelo://app?vid=4e1e9b11-3c6c-41ca-93a2-a6773594a990"},"vehicle_type_id":"4","last_reported":1705529222,"current_range_meters":28000,"station_id":"ce4bhqp2rcd13ifvqhog","pricing_plan_id":"free"},{"bike_id":"ebf063ec-fe68-439b-bf38-249e36edea5c","system_id":"levelo_inurba_marseille","lat":43.32367,"lon":5.388836,"is_reserved":false,"is_disabled":false,"rental_uris":{"android":"levelo://app?vid=ebf063ec-fe68-439b-bf38-249e36edea5c","ios":"levelo://app?vid=ebf063ec-fe68-439b-bf38-249e36edea5c"},"vehicle_type_id":"4","last_reported":1705529222,"current_range_meters":16400,"station_id":"ce4bhqp2rcd13ifvqhog","pricing_plan_id":"free"},{"bike_id":"b7beb6a5-b030-4fe2-a25b-ee6b5b88bebb","system_id":"levelo_inurba_marseille","lat":43.32367,"lon":5.388836,"is_reserved":false,"is_disabled":false,"rental_uris":{"android":"levelo://app?vid=b7beb6a5-b030-4fe2-a25b-ee6b5b88bebb","ios":"levelo://app?vid=b7beb6a5-b030-4fe2-a25b-ee6b5b88bebb"},"vehicle_type_id":"4","last_reported":1705529222,"current_range_meters":30000,"station_id":"ce4bhqp2rcd13ifvqhog","pricing_plan_id":"free"},{"bike_id":"ae329723-b6cd-4f52-99af-83cccf370dd2","system_id":"levelo_inurba_marseille","lat":43.32367,"lon":5.388836,"is_reserved":false,"is_disabled":false,"rental_uris":{"android":"levelo://app?vid=ae329723-b6cd-4f52-99af-83cccf370dd2","ios":"levelo://app?vid=ae329723-b6cd-4f52-99af-83cccf370dd2"},"vehicle_type_id":"4","last_reported":1705529222,"current_range_meters":9600,"station_id":"ce4bhqp2rcd13ifvqhog","pricing_plan_id":"free"},{"bike_id":"f7aa7bd5-9de4-4647-9d4c-974d2b3c6d5a","system_id":"levelo_inurba_marseille","lat":43.32367,"lon":5.388836,"is_reserved":false,"is_disabled":false,"rental_uris":{"android":"levelo://app?vid=f7aa7bd5-9de4-4647-9d4c-974d2b3c6d5a","ios":"levelo://app?vid=f7aa7bd5-9de4-4647-9d4c-974d2b3c6d5a"},"vehicle_type_id":"4","last_reported":1705529222,"current_range_meters":24400,"station_id":"ce4bhqp2rcd13ifvqhog","pricing_plan_id":"free"},{"bike_id":"8c683a70-e779-4a8e-bf9c-8aaaf46b6f30","system_id":"levelo_inurba_marseille","lat":43.32367,"lon":5.388836,"is_reserved":false,"is_disabled":false,"rental_uris":{"android":"levelo://app?vid=8c683a70-e779-4a8e-bf9c-8aaaf46b6f30","ios":"levelo://app?vid=8c683a70-e779-4a8e-bf9c-8aaaf46b6f30"},"vehicle_type_id":"4","last_reported":1705529222,"current_range_meters":19600,"station_id":"ce4bhqp2rcd13ifvqhog","pricing_plan_id":"free"},{"bike_id":"4ed8488a-f05c-4119-bfec-f892cce04e14","system_id":"levelo_inurba_marseille","lat":43.32367,"lon":5.388836,"is_reserved":false,"is_disabled":false,"rental_uris":{"android":"levelo://app?vid=4ed8488a-f05c-4119-bfec-f892cce04e14","ios":"levelo://app?vid=4ed8488a-f05c-4119-bfec-f892cce04e14"},"vehicle_type_id":"4","last_reported":1705529222,"current_range_meters":29600,"station_id":"ce4bhqp2rcd13ifvqhog","pricing_plan_id":"free"},{"bike_id":"ab1d9b80-665e-4ca5-9110-b3e7655cdda0","system_id":"levelo_inurba_marseille","lat":43.32367,"lon":5.388836,"is_reserved":false,"is_disabled":false,"rental_uris":{"android":"levelo://app?vid=ab1d9b80-665e-4ca5-9110-b3e7655cdda0","ios":"levelo://app?vid=ab1d9b80-665e-4ca5-9110-b3e7655cdda0"},"vehicle_type_id":"4","last_reported":1705529222,"current_range_meters":15600,"station_id":"ce4bhqp2rcd13ifvqhog","pricing_plan_id":"free"},{"bike_id":"37488e4d-837d-443b-a7f0-f22909aa2c7f","system_id":"levelo_inurba_marseille","lat":43.32367,"lon":5.388836,"is_reserved":false,"is_disabled":false,"rental_uris":{"android":"levelo://app?vid=37488e4d-837d-443b-a7f0-f22909aa2c7f","ios":"levelo://app?vid=37488e4d-837d-443b-a7f0-f22909aa2c7f"},"vehicle_type_id":"4","last_reported":1705529222,"current_range_meters":24000,"station_id":"ce4bhqp2rcd13ifvqhog","pricing_plan_id":"free"},{"bike_id":"5887ba77-b141-46e7-80f3-1e60b33b738c","system_id":"levelo_inurba_marseille","lat":43.32367,"lon":5.388836,"is_reserved":false,"is_disabled":false,"rental_uris":{"android":"levelo://app?vid=5887ba77-b141-46e7-80f3-1e60b33b738c","ios":"levelo://app?vid=5887ba77-b141-46e7-80f3-1e60b33b738c"},"vehicle_type_id":"4","last_reported":1705529222,"current_range_meters":19600,"station_id":"ce4bhqp2rcd13ifvqhog","pricing_plan_id":"free"},{"bike_id":"dfaa302c-58f2-441b-8b66-a88d65e9e952","system_id":"levelo_inurba_marseille","lat":43.32367,"lon":5.388836,"is_reserved":false,"is_disabled":false,"rental_uris":{"android":"levelo://app?vid=dfaa302c-58f2-441b-8b66-a88d65e9e952","ios":"levelo://app?vid=dfaa302c-58f2-441b-8b66-a88d65e9e952"},"vehicle_type_id":"4","last_reported":1705529222,"current_range_meters":28400,"station_id":"ce4bhqp2rcd13ifvqhog","pricing_plan_id":"free"},{"bike_id":"4105c154-7a2e-4cd6-9ea7-4d06f6570656","system_id":"levelo_inurba_marseille","lat":43.32367,"lon":5.388836,"is_reserved":false,"is_disabled":false,"rental_uris":{"android":"levelo://app?vid=4105c154-7a2e-4cd6-9ea7-4d06f6570656","ios":"levelo://app?vid=4105c154-7a2e-4cd6-9ea7-4d06f6570656"},"vehicle_type_id":"4","last_reported":1705529222,"current_range_meters":24000,"station_id":"ce4bhqp2rcd13ifvqhog","pricing_plan_id":"free"},{"bike_id":"48d01839-1c06-4604-a1d2-ae1f8bd3df35","system_id":"levelo_inurba_marseille","lat":43.32367,"lon":5.388836,"is_reserved":false,"is_disabled":false,"rental_uris":{"android":"levelo://app?vid=48d01839-1c06-4604-a1d2-ae1f8bd3df35","ios":"levelo://app?vid=48d01839-1c06-4604-a1d2-ae1f8bd3df35"},"vehicle_type_id":"4","last_reported":1705529222,"current_range_meters":14000,"station_id":"ce4bhqp2rcd13ifvqhog","pricing_plan_id":"free"},{"bike_id":"2ec4001f-5cf2-4614-bbfc-ffc6c5b765c3","system_id":"levelo_inurba_marseille","lat":43.32367,"lon":5.388836,"is_reserved":false,"is_disabled":false,"rental_uris":{"android":"levelo://app?vid=2ec4001f-5cf2-4614-bbfc-ffc6c5b765c3","ios":"levelo://app?vid=2ec4001f-5cf2-4614-bbfc-ffc6c5b765c3"},"vehicle_type_id":"4","last_reported":1705529222,"current_range_meters":23200,"station_id":"ce4bhqp2rcd13ifvqhog","pricing_plan_id":"free"},{"bike_id":"e571d833-7144-4ea0-ba5b-66c17df7b398","system_id":"levelo_inurba_marseille","lat":43.29601,"lon":5.381084,"is_reserved":false,"is_disabled":false,"rental_uris":{"android":"levelo://app?vid=e571d833-7144-4ea0-ba5b-66c17df7b398","ios":"levelo://app?vid=e571d833-7144-4ea0-ba5b-66c17df7b398"},"vehicle_type_id":"4","last_reported":1705529222,"current_range_meters":29600,"station_id":"ce4bgl12rcd13ifvqbo0","pricing_plan_id":"free"},{"bike_id":"e92a08de-7166-4ed8-b847-cb383bed3715","system_id":"levelo_inurba_marseille","lat":43.305364,"lon":5.384119,"is_reserved":false,"is_disabled":false,"rental_uris":{"android":"levelo://app?vid=e92a08de-7166-4ed8-b847-cb383bed3715","ios":"levelo://app?vid=e92a08de-7166-4ed8-b847-cb383bed3715"},"vehicle_type_id":"4","last_reported":1705529222,"current_range_meters":800,"station_id":"ce4bgg92rcd13ifvqb30","pricing_plan_id":"free"},{"bike_id":"6a2184a3-1692-468c-9acb-57620247e9bc","system_id":"levelo_inurba_marseille","lat":43.302992,"lon":5.392136,"is_reserved":false,"is_disabled":false,"rental_uris":{"android":"levelo://app?vid=6a2184a3-1692-468c-9acb-57620247e9bc","ios":"levelo://app?vid=6a2184a3-1692-468c-9acb-57620247e9bc"},"vehicle_type_id":"4","last_reported":1705529222,"current_range_meters":30400,"station_id":"ce4bgkh2rcd13ifvqbk0","pricing_plan_id":"free"},{"bike_id":"cec1818c-62f2-4343-84f2-3af6453291ed","system_id":"levelo_inurba_marseille","lat":43.298576,"lon":5.38796,"is_reserved":false,"is_disabled":false,"rental_uris":{"android":"levelo://app?vid=cec1818c-62f2-4343-84f2-3af6453291ed","ios":"levelo://app?vid=cec1818c-62f2-4343-84f2-3af6453291ed"},"vehicle_type_id":"4","last_reported":1705529222,"current_range_meters":20000,"station_id":"","pricing_plan_id":"free"},{"bike_id":"e6ba5148-2ffa-4272-b55c-bcb90a393413","system_id":"levelo_inurba_marseille","lat":43.2936,"lon":5.37835,"is_reserved":false,"is_disabled":false,"rental_uris":{"android":"levelo://app?vid=e6ba5148-2ffa-4272-b55c-bcb90a393413","ios":"levelo://app?vid=e6ba5148-2ffa-4272-b55c-bcb90a393413"},"vehicle_type_id":"4","last_reported":1705529222,"current_range_meters":23200,"station_id":"ce4bgjh2rcd13ifvqbf0","pricing_plan_id":"free"},{"bike_id":"3860927a-807a-4d42-9891-c18a689f52bf","system_id":"levelo_inurba_marseille","lat":43.300852,"lon":5.390859,"is_reserved":false,"is_disabled":false,"rental_uris":{"android":"levelo://app?vid=3860927a-807a-4d42-9891-c18a689f52bf","ios":"levelo://app?vid=3860927a-807a-4d42-9891-c18a689f52bf"},"vehicle_type_id":"4","last_reported":1705529222,"current_range_meters":29600,"station_id":"ce4bh192rcd13ifvqdb0","pricing_plan_id":"free"},{"bike_id":"1d9e82f8-102e-423b-81bb-497822fd5905","system_id":"levelo_inurba_marseille","lat":43.300852,"lon":5.390859,"is_reserved":false,"is_disabled":false,"rental_uris":{"android":"levelo://app?vid=1d9e82f8-102e-423b-81bb-497822fd5905","ios":"levelo://app?vid=1d9e82f8-102e-423b-81bb-497822fd5905"},"vehicle_type_id":"4","last_reported":1705529222,"current_range_meters":26000,"station_id":"ce4bh192rcd13ifvqdb0","pricing_plan_id":"free"},{"bike_id":"07a7c0c4-a2db-4231-a1a6-bae274c8b8eb","system_id":"levelo_inurba_marseille","lat":43.291994,"lon":5.357886,"is_reserved":false,"is_disabled":false,"rental_uris":{"android":"levelo://app?vid=07a7c0c4-a2db-4231-a1a6-bae274c8b8eb","ios":"levelo://app?vid=07a7c0c4-a2db-4231-a1a6-bae274c8b8eb"},"vehicle_type_id":"4","last_reported":1705529222,"current_range_meters":29200,"station_id":"ce4bhb12rcd13ifvqel0","pricing_plan_id":"free"},{"bike_id":"1c86aa83-ec7c-4a37-876e-6d20fe0d5669","system_id":"levelo_inurba_marseille","lat":43.291994,"lon":5.357886,"is_reserved":false,"is_disabled":false,"rental_uris":{"android":"levelo://app?vid=1c86aa83-ec7c-4a37-876e-6d20fe0d5669","ios":"levelo://app?vid=1c86aa83-ec7c-4a37-876e-6d20fe0d5669"},"vehicle_type_id":"4","last_reported":1705529222,"current_range_meters":22000,"station_id":"ce4bhb12rcd13ifvqel0","pricing_plan_id":"free"},{"bike_id":"dccbc61d-c98d-4cd3-baaf-52c8e6bd4f01","system_id":"levelo_inurba_marseille","lat":43.291994,"lon":5.357886,"is_reserved":false,"is_disabled":false,"rental_uris":{"android":"levelo://app?vid=dccbc61d-c98d-4cd3-baaf-52c8e6bd4f01","ios":"levelo://app?vid=dccbc61d-c98d-4cd3-baaf-52c8e6bd4f01"},"vehicle_type_id":"4","last_reported":1705529222,"current_range_meters":25200,"station_id":"ce4bhb12rcd13ifvqel0","pricing_plan_id":"free"},{"bike_id":"d20b2076-84c5-42c2-b854-f2e4558d1ad7","system_id":"levelo_inurba_marseille","lat":43.313291,"lon":5.396838,"is_reserved":false,"is_disabled":false,"rental_uris":{"android":"levelo://app?vid=d20b2076-84c5-42c2-b854-f2e4558d1ad7","ios":"levelo://app?vid=d20b2076-84c5-42c2-b854-f2e4558d1ad7"},"vehicle_type_id":"4","last_reported":1705529222,"current_range_meters":22800,"station_id":"ce4bgvp2rcd13ifvqcu0","pricing_plan_id":"free"},{"bike_id":"548602b1-e47f-4712-919b-7a7e7d11f41d","system_id":"levelo_inurba_marseille","lat":43.313291,"lon":5.396838,"is_reserved":false,"is_disabled":false,"rental_uris":{"android":"levelo://app?vid=548602b1-e47f-4712-919b-7a7e7d11f41d","ios":"levelo://app?vid=548602b1-e47f-4712-919b-7a7e7d11f41d"},"vehicle_type_id":"4","last_reported":1705529222,"current_range_meters":400,"station_id":"ce4bgvp2rcd13ifvqcu0","pricing_plan_id":"free"},{"bike_id":"8937de69-dc86-4c87-a75b-e6b4169157f1","system_id":"levelo_inurba_marseille","lat":43.313291,"lon":5.396838,"is_reserved":false,"is_disabled":false,"rental_uris":{"android":"levelo://app?vid=8937de69-dc86-4c87-a75b-e6b4169157f1","ios":"levelo://app?vid=8937de69-dc86-4c87-a75b-e6b4169157f1"},"vehicle_type_id":"4","last_reported":1705529222,"current_range_meters":31600,"station_id":"ce4bgvp2rcd13ifvqcu0","pricing_plan_id":"free"},{"bike_id":"60199a43-06e3-4865-9e45-f638c2608bab","system_id":"levelo_inurba_marseille","lat":43.291994,"lon":5.357886,"is_reserved":false,"is_disabled":false,"rental_uris":{"android":"levelo://app?vid=60199a43-06e3-4865-9e45-f638c2608bab","ios":"levelo://app?vid=60199a43-06e3-4865-9e45-f638c2608bab"},"vehicle_type_id":"4","last_reported":1705529222,"current_range_meters":13200,"station_id":"ce4bhb12rcd13ifvqel0","pricing_plan_id":"free"},{"bike_id":"fd407a01-1013-4995-bf8d-97fb7a38d515","system_id":"levelo_inurba_marseille","lat":43.30878,"lon":5.39644,"is_reserved":false,"is_disabled":false,"rental_uris":{"android":"levelo://app?vid=fd407a01-1013-4995-bf8d-97fb7a38d515","ios":"levelo://app?vid=fd407a01-1013-4995-bf8d-97fb7a38d515"},"vehicle_type_id":"4","last_reported":1705529222,"current_range_meters":30000,"station_id":"ce4bh012rcd13ifvqcv0","pricing_plan_id":"free"},{"bike_id":"5d724e7b-cde7-4b79-85c7-39fd817599c0","system_id":"levelo_inurba_marseille","lat":43.309038,"lon":5.396546,"is_reserved":false,"is_disabled":false,"rental_uris":{"android":"levelo://app?vid=5d724e7b-cde7-4b79-85c7-39fd817599c0","ios":"levelo://app?vid=5d724e7b-cde7-4b79-85c7-39fd817599c0"},"vehicle_type_id":"4","last_reported":1705529222,"current_range_meters":24000,"station_id":"ce4bh012rcd13ifvqcv0","pricing_plan_id":"free"},{"bike_id":"5045406e-995a-4c59-8208-43bc63deaa15","system_id":"levelo_inurba_marseille","lat":43.291994,"lon":5.357886,"is_reserved":false,"is_disabled":false,"rental_uris":{"android":"levelo://app?vid=5045406e-995a-4c59-8208-43bc63deaa15","ios":"levelo://app?vid=5045406e-995a-4c59-8208-43bc63deaa15"},"vehicle_type_id":"4","last_reported":1705529222,"current_range_meters":4400,"station_id":"ce4bhb12rcd13ifvqel0","pricing_plan_id":"free"},{"bike_id":"2507d52b-ab18-4abf-bfed-b984e7006a27","system_id":"levelo_inurba_marseille","lat":43.313291,"lon":5.396838,"is_reserved":false,"is_disabled":false,"rental_uris":{"android":"levelo://app?vid=2507d52b-ab18-4abf-bfed-b984e7006a27","ios":"levelo://app?vid=2507d52b-ab18-4abf-bfed-b984e7006a27"},"vehicle_type_id":"4","last_reported":1705529222,"current_range_meters":26800,"station_id":"ce4bgvp2rcd13ifvqcu0","pricing_plan_id":"free"},{"bike_id":"0eacb962-916f-410b-94cd-25e6f7ef6523","system_id":"levelo_inurba_marseille","lat":43.309038,"lon":5.396546,"is_reserved":false,"is_disabled":false,"rental_uris":{"android":"levelo://app?vid=0eacb962-916f-410b-94cd-25e6f7ef6523","ios":"levelo://app?vid=0eacb962-916f-410b-94cd-25e6f7ef6523"},"vehicle_type_id":"4","last_reported":1705529222,"current_range_meters":31200,"station_id":"ce4bh012rcd13ifvqcv0","pricing_plan_id":"free"},{"bike_id":"824c12d2-5308-47ba-bec9-796f31427d25","system_id":"levelo_inurba_marseille","lat":43.313291,"lon":5.396838,"is_reserved":false,"is_disabled":false,"rental_uris":{"android":"levelo://app?vid=824c12d2-5308-47ba-bec9-796f31427d25","ios":"levelo://app?vid=824c12d2-5308-47ba-bec9-796f31427d25"},"vehicle_type_id":"4","last_reported":1705529222,"current_range_meters":24000,"station_id":"ce4bgvp2rcd13ifvqcu0","pricing_plan_id":"free"},{"bike_id":"972daad8-f292-4396-b8c2-7eb4ffa2e49e","system_id":"levelo_inurba_marseille","lat":43.309047,"lon":5.396551,"is_reserved":false,"is_disabled":false,"rental_uris":{"android":"levelo://app?vid=972daad8-f292-4396-b8c2-7eb4ffa2e49e","ios":"levelo://app?vid=972daad8-f292-4396-b8c2-7eb4ffa2e49e"},"vehicle_type_id":"4","last_reported":1705529222,"current_range_meters":28000,"station_id":"ce4bh012rcd13ifvqcv0","pricing_plan_id":"free"},{"bike_id":"24450d66-45d7-43fb-a957-204572a618b0","system_id":"levelo_inurba_marseille","lat":43.308932,"lon":5.39653,"is_reserved":false,"is_disabled":false,"rental_uris":{"android":"levelo://app?vid=24450d66-45d7-43fb-a957-204572a618b0","ios":"levelo://app?vid=24450d66-45d7-43fb-a957-204572a618b0"},"vehicle_type_id":"4","last_reported":1705529222,"current_range_meters":28800,"station_id":"","pricing_plan_id":"free"},{"bike_id":"b44e2367-294b-4e87-bf4f-c318019bd7e3","system_id":"levelo_inurba_marseille","lat":43.309047,"lon":5.396551,"is_reserved":false,"is_disabled":false,"rental_uris":{"android":"levelo://app?vid=b44e2367-294b-4e87-bf4f-c318019bd7e3","ios":"levelo://app?vid=b44e2367-294b-4e87-bf4f-c318019bd7e3"},"vehicle_type_id":"4","last_reported":1705529222,"current_range_meters":13200,"station_id":"ce4bh012rcd13ifvqcv0","pricing_plan_id":"free"},{"bike_id":"85ac0da5-9138-415d-90ae-1ec76f0f5dbd","system_id":"levelo_inurba_marseille","lat":43.313291,"lon":5.396838,"is_reserved":false,"is_disabled":false,"rental_uris":{"android":"levelo://app?vid=85ac0da5-9138-415d-90ae-1ec76f0f5dbd","ios":"levelo://app?vid=85ac0da5-9138-415d-90ae-1ec76f0f5dbd"},"vehicle_type_id":"4","last_reported":1705529222,"current_range_meters":30800,"station_id":"ce4bgvp2rcd13ifvqcu0","pricing_plan_id":"free"},{"bike_id":"0aae2f9f-73da-4438-af8b-7724e251b958","system_id":"levelo_inurba_marseille","lat":43.309038,"lon":5.396546,"is_reserved":false,"is_disabled":false,"rental_uris":{"android":"levelo://app?vid=0aae2f9f-73da-4438-af8b-7724e251b958","ios":"levelo://app?vid=0aae2f9f-73da-4438-af8b-7724e251b958"},"vehicle_type_id":"4","last_reported":1705529222,"current_range_meters":27600,"station_id":"ce4bh012rcd13ifvqcv0","pricing_plan_id":"free"},{"bike_id":"3c2b412c-7031-4f01-96fe-6731e1ab597e","system_id":"levelo_inurba_marseille","lat":43.309047,"lon":5.396551,"is_reserved":false,"is_disabled":false,"rental_uris":{"android":"levelo://app?vid=3c2b412c-7031-4f01-96fe-6731e1ab597e","ios":"levelo://app?vid=3c2b412c-7031-4f01-96fe-6731e1ab597e"},"vehicle_type_id":"4","last_reported":1705529222,"current_range_meters":28400,"station_id":"ce4bh012rcd13ifvqcv0","pricing_plan_id":"free"},{"bike_id":"804dc820-69d6-4194-a8af-b890fda75ca9","system_id":"levelo_inurba_marseille","lat":43.30883,"lon":5.39658,"is_reserved":false,"is_disabled":false,"rental_uris":{"android":"levelo://app?vid=804dc820-69d6-4194-a8af-b890fda75ca9","ios":"levelo://app?vid=804dc820-69d6-4194-a8af-b890fda75ca9"},"vehicle_type_id":"4","last_reported":1705529222,"current_range_meters":17600,"station_id":"ce4bh012rcd13ifvqcv0","pricing_plan_id":"free"},{"bike_id":"2622ff6a-54c8-46ca-ab5c-a5b3722b3121","system_id":"levelo_inurba_marseille","lat":43.309047,"lon":5.396551,"is_reserved":false,"is_disabled":false,"rental_uris":{"android":"levelo://app?vid=2622ff6a-54c8-46ca-ab5c-a5b3722b3121","ios":"levelo://app?vid=2622ff6a-54c8-46ca-ab5c-a5b3722b3121"},"vehicle_type_id":"4","last_reported":1705529222,"current_range_meters":10400,"station_id":"ce4bh012rcd13ifvqcv0","pricing_plan_id":"free"},{"bike_id":"3c112c64-7305-4f87-aef5-42da6fdbf3d0","system_id":"levelo_inurba_marseille","lat":43.29529,"lon":5.385581,"is_reserved":false,"is_disabled":false,"rental_uris":{"android":"levelo://app?vid=3c112c64-7305-4f87-aef5-42da6fdbf3d0","ios":"levelo://app?vid=3c112c64-7305-4f87-aef5-42da6fdbf3d0"},"vehicle_type_id":"4","last_reported":1705529222,"current_range_meters":29200,"station_id":"ce4bgih2rcd13ifvqba0","pricing_plan_id":"free"},{"bike_id":"deb3ac17-b32d-4b11-9c39-0b1a4fe5ac06","system_id":"levelo_inurba_marseille","lat":43.29529,"lon":5.385581,"is_reserved":false,"is_disabled":false,"rental_uris":{"android":"levelo://app?vid=deb3ac17-b32d-4b11-9c39-0b1a4fe5ac06","ios":"levelo://app?vid=deb3ac17-b32d-4b11-9c39-0b1a4fe5ac06"},"vehicle_type_id":"4","last_reported":1705529222,"current_range_meters":9200,"station_id":"ce4bgih2rcd13ifvqba0","pricing_plan_id":"free"},{"bike_id":"58cc2832-1c0a-4322-b37d-7ad282f3fc6d","system_id":"levelo_inurba_marseille","lat":43.290779,"lon":5.371482,"is_reserved":false,"is_disabled":false,"rental_uris":{"android":"levelo://app?vid=58cc2832-1c0a-4322-b37d-7ad282f3fc6d","ios":"levelo://app?vid=58cc2832-1c0a-4322-b37d-7ad282f3fc6d"},"vehicle_type_id":"4","last_reported":1705529222,"current_range_meters":23200,"station_id":"ce4bh5p2rcd13ifvqe4g","pricing_plan_id":"free"},{"bike_id":"8e802805-d0a9-4f71-a44a-558004d2b2ec","system_id":"levelo_inurba_marseille","lat":43.302008,"lon":5.394694,"is_reserved":false,"is_disabled":false,"rental_uris":{"android":"levelo://app?vid=8e802805-d0a9-4f71-a44a-558004d2b2ec","ios":"levelo://app?vid=8e802805-d0a9-4f71-a44a-558004d2b2ec"},"vehicle_type_id":"4","last_reported":1705529222,"current_range_meters":20400,"station_id":"ce4bh0p2rcd13ifvqd70","pricing_plan_id":"free"},{"bike_id":"55399984-fe09-4bed-9c2e-a90d25716c0d","system_id":"levelo_inurba_marseille","lat":43.30202,"lon":5.39462,"is_reserved":false,"is_disabled":false,"rental_uris":{"android":"levelo://app?vid=55399984-fe09-4bed-9c2e-a90d25716c0d","ios":"levelo://app?vid=55399984-fe09-4bed-9c2e-a90d25716c0d"},"vehicle_type_id":"4","last_reported":1705529222,"current_range_meters":0,"station_id":"ce4bh0p2rcd13ifvqd70","pricing_plan_id":"free"},{"bike_id":"a48e2474-12bb-4de1-8371-ecc7861cbea4","system_id":"levelo_inurba_marseille","lat":43.290624,"lon":5.359245,"is_reserved":false,"is_disabled":false,"rental_uris":{"android":"levelo://app?vid=a48e2474-12bb-4de1-8371-ecc7861cbea4","ios":"levelo://app?vid=a48e2474-12bb-4de1-8371-ecc7861cbea4"},"vehicle_type_id":"4","last_reported":1705529222,"current_range_meters":23600,"station_id":"ce4bha92rcd13ifvqeg0","pricing_plan_id":"free"},{"bike_id":"11827248-e719-41d8-b1ec-609e61fedd58","system_id":"levelo_inurba_marseille","lat":43.290624,"lon":5.359245,"is_reserved":false,"is_disabled":false,"rental_uris":{"android":"levelo://app?vid=11827248-e719-41d8-b1ec-609e61fedd58","ios":"levelo://app?vid=11827248-e719-41d8-b1ec-609e61fedd58"},"vehicle_type_id":"4","last_reported":1705529222,"current_range_meters":30800,"station_id":"ce4bha92rcd13ifvqeg0","pricing_plan_id":"free"},{"bike_id":"a40368c3-5f53-47b6-af01-30ac8517e794","system_id":"levelo_inurba_marseille","lat":43.290631,"lon":5.359244,"is_reserved":false,"is_disabled":false,"rental_uris":{"android":"levelo://app?vid=a40368c3-5f53-47b6-af01-30ac8517e794","ios":"levelo://app?vid=a40368c3-5f53-47b6-af01-30ac8517e794"},"vehicle_type_id":"4","last_reported":1705529222,"current_range_meters":24000,"station_id":"ce4bha92rcd13ifvqeg0","pricing_plan_id":"free"},{"bike_id":"2b599fcd-d305-4794-bc6c-6f9f95e28638","system_id":"levelo_inurba_marseille","lat":43.290624,"lon":5.359245,"is_reserved":false,"is_disabled":false,"rental_uris":{"android":"levelo://app?vid=2b599fcd-d305-4794-bc6c-6f9f95e28638","ios":"levelo://app?vid=2b599fcd-d305-4794-bc6c-6f9f95e28638"},"vehicle_type_id":"4","last_reported":1705529222,"current_range_meters":30800,"station_id":"ce4bha92rcd13ifvqeg0","pricing_plan_id":"free"},{"bike_id":"4f7f848b-68b1-478f-b20a-4844b48efb35","system_id":"levelo_inurba_marseille","lat":43.290631,"lon":5.359244,"is_reserved":false,"is_disabled":false,"rental_uris":{"android":"levelo://app?vid=4f7f848b-68b1-478f-b20a-4844b48efb35","ios":"levelo://app?vid=4f7f848b-68b1-478f-b20a-4844b48efb35"},"vehicle_type_id":"4","last_reported":1705529222,"current_range_meters":31200,"station_id":"ce4bha92rcd13ifvqeg0","pricing_plan_id":"free"},{"bike_id":"974b3cd4-e29a-4d83-917c-a5704b0a6af3","system_id":"levelo_inurba_marseille","lat":43.290624,"lon":5.359245,"is_reserved":false,"is_disabled":false,"rental_uris":{"android":"levelo://app?vid=974b3cd4-e29a-4d83-917c-a5704b0a6af3","ios":"levelo://app?vid=974b3cd4-e29a-4d83-917c-a5704b0a6af3"},"vehicle_type_id":"4","last_reported":1705529222,"current_range_meters":25600,"station_id":"ce4bha92rcd13ifvqeg0","pricing_plan_id":"free"},{"bike_id":"fed367ff-83bf-4195-b433-fddba7efb227","system_id":"levelo_inurba_marseille","lat":43.289184,"lon":5.366408,"is_reserved":false,"is_disabled":false,"rental_uris":{"android":"levelo://app?vid=fed367ff-83bf-4195-b433-fddba7efb227","ios":"levelo://app?vid=fed367ff-83bf-4195-b433-fddba7efb227"},"vehicle_type_id":"4","last_reported":1705529222,"current_range_meters":20400,"station_id":"ce4bhap2rcd13ifvqek0","pricing_plan_id":"free"},{"bike_id":"4f24868f-0c19-42c3-813d-e6dc00078173","system_id":"levelo_inurba_marseille","lat":43.289184,"lon":5.366408,"is_reserved":false,"is_disabled":false,"rental_uris":{"android":"levelo://app?vid=4f24868f-0c19-42c3-813d-e6dc00078173","ios":"levelo://app?vid=4f24868f-0c19-42c3-813d-e6dc00078173"},"vehicle_type_id":"4","last_reported":1705529222,"current_range_meters":24000,"station_id":"ce4bhap2rcd13ifvqek0","pricing_plan_id":"free"},{"bike_id":"e10b8ab3-8df8-4016-8c17-001b0b41e938","system_id":"levelo_inurba_marseille","lat":43.29416,"lon":5.38637,"is_reserved":false,"is_disabled":false,"rental_uris":{"android":"levelo://app?vid=e10b8ab3-8df8-4016-8c17-001b0b41e938","ios":"levelo://app?vid=e10b8ab3-8df8-4016-8c17-001b0b41e938"},"vehicle_type_id":"4","last_reported":1705529222,"current_range_meters":19600,"station_id":"ce4bh2h2rcd13ifvqdh0","pricing_plan_id":"free"},{"bike_id":"401beff5-feb1-40fc-aa50-eb6a92540429","system_id":"levelo_inurba_marseille","lat":43.28947,"lon":5.36407,"is_reserved":false,"is_disabled":false,"rental_uris":{"android":"levelo://app?vid=401beff5-feb1-40fc-aa50-eb6a92540429","ios":"levelo://app?vid=401beff5-feb1-40fc-aa50-eb6a92540429"},"vehicle_type_id":"4","last_reported":1705529222,"current_range_meters":16400,"station_id":"ce4bhc92rcd13ifvqetg","pricing_plan_id":"free"},{"bike_id":"1f07d051-700e-4479-87ff-d20f61b1b82c","system_id":"levelo_inurba_marseille","lat":43.289184,"lon":5.366408,"is_reserved":false,"is_disabled":false,"rental_uris":{"android":"levelo://app?vid=1f07d051-700e-4479-87ff-d20f61b1b82c","ios":"levelo://app?vid=1f07d051-700e-4479-87ff-d20f61b1b82c"},"vehicle_type_id":"4","last_reported":1705529222,"current_range_meters":29200,"station_id":"ce4bhap2rcd13ifvqek0","pricing_plan_id":"free"},{"bike_id":"1f22b614-674a-4f57-b251-9f3c1d5057d1","system_id":"levelo_inurba_marseille","lat":43.289184,"lon":5.366408,"is_reserved":false,"is_disabled":false,"rental_uris":{"android":"levelo://app?vid=1f22b614-674a-4f57-b251-9f3c1d5057d1","ios":"levelo://app?vid=1f22b614-674a-4f57-b251-9f3c1d5057d1"},"vehicle_type_id":"4","last_reported":1705529222,"current_range_meters":18000,"station_id":"ce4bhap2rcd13ifvqek0","pricing_plan_id":"free"},{"bike_id":"f20104c3-1044-4109-b1ec-79c93c1fb023","system_id":"levelo_inurba_marseille","lat":43.289184,"lon":5.366408,"is_reserved":false,"is_disabled":false,"rental_uris":{"android":"levelo://app?vid=f20104c3-1044-4109-b1ec-79c93c1fb023","ios":"levelo://app?vid=f20104c3-1044-4109-b1ec-79c93c1fb023"},"vehicle_type_id":"4","last_reported":1705529222,"current_range_meters":31600,"station_id":"ce4bhap2rcd13ifvqek0","pricing_plan_id":"free"},{"bike_id":"98bce02d-57db-489d-9046-1fd464f2f6a6","system_id":"levelo_inurba_marseille","lat":43.289184,"lon":5.366408,"is_reserved":false,"is_disabled":false,"rental_uris":{"android":"levelo://app?vid=98bce02d-57db-489d-9046-1fd464f2f6a6","ios":"levelo://app?vid=98bce02d-57db-489d-9046-1fd464f2f6a6"},"vehicle_type_id":"4","last_reported":1705529222,"current_range_meters":30000,"station_id":"ce4bhap2rcd13ifvqek0","pricing_plan_id":"free"},{"bike_id":"010cee77-a119-47b3-b0b8-8a4016070586","system_id":"levelo_inurba_marseille","lat":43.289468,"lon":5.363719,"is_reserved":false,"is_disabled":false,"rental_uris":{"android":"levelo://app?vid=010cee77-a119-47b3-b0b8-8a4016070586","ios":"levelo://app?vid=010cee77-a119-47b3-b0b8-8a4016070586"},"vehicle_type_id":"4","last_reported":1705529222,"current_range_meters":1200,"station_id":"ce4bhc92rcd13ifvqetg","pricing_plan_id":"free"},{"bike_id":"cf7e0728-078c-4289-929c-baa47e23986e","system_id":"levelo_inurba_marseille","lat":43.289468,"lon":5.363719,"is_reserved":false,"is_disabled":false,"rental_uris":{"android":"levelo://app?vid=cf7e0728-078c-4289-929c-baa47e23986e","ios":"levelo://app?vid=cf7e0728-078c-4289-929c-baa47e23986e"},"vehicle_type_id":"4","last_reported":1705529222,"current_range_meters":18800,"station_id":"ce4bhc92rcd13ifvqetg","pricing_plan_id":"free"},{"bike_id":"95d890aa-5cdc-4e82-bd01-c86a67d131af","system_id":"levelo_inurba_marseille","lat":43.283998,"lon":5.375062,"is_reserved":false,"is_disabled":false,"rental_uris":{"android":"levelo://app?vid=95d890aa-5cdc-4e82-bd01-c86a67d131af","ios":"levelo://app?vid=95d890aa-5cdc-4e82-bd01-c86a67d131af"},"vehicle_type_id":"4","last_reported":1705529222,"current_range_meters":17600,"station_id":"ce4bh412rcd13ifvqds0","pricing_plan_id":"free"},{"bike_id":"3e7b710d-e570-43d2-b1ca-c5931b6708d8","system_id":"levelo_inurba_marseille","lat":43.292642,"lon":5.384254,"is_reserved":false,"is_disabled":false,"rental_uris":{"android":"levelo://app?vid=3e7b710d-e570-43d2-b1ca-c5931b6708d8","ios":"levelo://app?vid=3e7b710d-e570-43d2-b1ca-c5931b6708d8"},"vehicle_type_id":"4","last_reported":1705529222,"current_range_meters":30800,"station_id":"ce4bh692rcd13ifvqea0","pricing_plan_id":"free"},{"bike_id":"95dd325c-78b7-4aeb-9257-bcf9d7f87e1a","system_id":"levelo_inurba_marseille","lat":43.304296,"lon":5.397513,"is_reserved":false,"is_disabled":false,"rental_uris":{"android":"levelo://app?vid=95dd325c-78b7-4aeb-9257-bcf9d7f87e1a","ios":"levelo://app?vid=95dd325c-78b7-4aeb-9257-bcf9d7f87e1a"},"vehicle_type_id":"4","last_reported":1705529222,"current_range_meters":28000,"station_id":"ce4bh092rcd13ifvqd20","pricing_plan_id":"free"},{"bike_id":"1ba8e8bc-1b7f-4225-8817-a3816852b1e3","system_id":"levelo_inurba_marseille","lat":43.28899,"lon":5.365033,"is_reserved":false,"is_disabled":false,"rental_uris":{"android":"levelo://app?vid=1ba8e8bc-1b7f-4225-8817-a3816852b1e3","ios":"levelo://app?vid=1ba8e8bc-1b7f-4225-8817-a3816852b1e3"},"vehicle_type_id":"4","last_reported":1705529222,"current_range_meters":6000,"station_id":"","pricing_plan_id":"free"},{"bike_id":"4862f9fc-7e64-41e1-b4e5-a553d8cdee7f","system_id":"levelo_inurba_marseille","lat":43.29268,"lon":5.38451,"is_reserved":false,"is_disabled":false,"rental_uris":{"android":"levelo://app?vid=4862f9fc-7e64-41e1-b4e5-a553d8cdee7f","ios":"levelo://app?vid=4862f9fc-7e64-41e1-b4e5-a553d8cdee7f"},"vehicle_type_id":"4","last_reported":1705529222,"current_range_meters":0,"station_id":"ce4bh692rcd13ifvqea0","pricing_plan_id":"free"},{"bike_id":"27419520-d1bb-4822-92f6-291b941f1b74","system_id":"levelo_inurba_marseille","lat":43.304296,"lon":5.397513,"is_reserved":false,"is_disabled":false,"rental_uris":{"android":"levelo://app?vid=27419520-d1bb-4822-92f6-291b941f1b74","ios":"levelo://app?vid=27419520-d1bb-4822-92f6-291b941f1b74"},"vehicle_type_id":"4","last_reported":1705529222,"current_range_meters":6400,"station_id":"ce4bh092rcd13ifvqd20","pricing_plan_id":"free"},{"bike_id":"6eb5ecb0-b0aa-413a-b2c6-de18b3e0b4e5","system_id":"levelo_inurba_marseille","lat":43.289741,"lon":5.378306,"is_reserved":false,"is_disabled":false,"rental_uris":{"android":"levelo://app?vid=6eb5ecb0-b0aa-413a-b2c6-de18b3e0b4e5","ios":"levelo://app?vid=6eb5ecb0-b0aa-413a-b2c6-de18b3e0b4e5"},"vehicle_type_id":"4","last_reported":1705529222,"current_range_meters":0,"station_id":"ce4bh9p2rcd13ifvqed0","pricing_plan_id":"free"},{"bike_id":"854758f0-65b3-436d-882a-4095e83ecfef","system_id":"levelo_inurba_marseille","lat":43.30474,"lon":5.39807,"is_reserved":false,"is_disabled":false,"rental_uris":{"android":"levelo://app?vid=854758f0-65b3-436d-882a-4095e83ecfef","ios":"levelo://app?vid=854758f0-65b3-436d-882a-4095e83ecfef"},"vehicle_type_id":"4","last_reported":1705529222,"current_range_meters":21200,"station_id":"","pricing_plan_id":"free"},{"bike_id":"91cb3b6e-b9b6-4065-9410-f03391d79da2","system_id":"levelo_inurba_marseille","lat":43.295409,"lon":5.390313,"is_reserved":false,"is_disabled":false,"rental_uris":{"android":"levelo://app?vid=91cb3b6e-b9b6-4065-9410-f03391d79da2","ios":"levelo://app?vid=91cb3b6e-b9b6-4065-9410-f03391d79da2"},"vehicle_type_id":"4","last_reported":1705529222,"current_range_meters":17200,"station_id":"ce4bh3p2rcd13ifvqdp0","pricing_plan_id":"free"},{"bike_id":"46d92ada-7557-44d4-a22d-87b2335ba99d","system_id":"levelo_inurba_marseille","lat":43.289741,"lon":5.378306,"is_reserved":false,"is_disabled":false,"rental_uris":{"android":"levelo://app?vid=46d92ada-7557-44d4-a22d-87b2335ba99d","ios":"levelo://app?vid=46d92ada-7557-44d4-a22d-87b2335ba99d"},"vehicle_type_id":"4","last_reported":1705529222,"current_range_meters":20000,"station_id":"ce4bh9p2rcd13ifvqed0","pricing_plan_id":"free"},{"bike_id":"371bcede-bcec-42ab-b8f9-246bb5b16208","system_id":"levelo_inurba_marseille","lat":43.295339,"lon":5.390365,"is_reserved":false,"is_disabled":false,"rental_uris":{"android":"levelo://app?vid=371bcede-bcec-42ab-b8f9-246bb5b16208","ios":"levelo://app?vid=371bcede-bcec-42ab-b8f9-246bb5b16208"},"vehicle_type_id":"4","last_reported":1705529222,"current_range_meters":18800,"station_id":"ce4bh3p2rcd13ifvqdp0","pricing_plan_id":"free"},{"bike_id":"dbf2575b-4894-43b9-9214-607ef8ddd668","system_id":"levelo_inurba_marseille","lat":43.330442,"lon":5.389148,"is_reserved":false,"is_disabled":false,"rental_uris":{"android":"levelo://app?vid=dbf2575b-4894-43b9-9214-607ef8ddd668","ios":"levelo://app?vid=dbf2575b-4894-43b9-9214-607ef8ddd668"},"vehicle_type_id":"4","last_reported":1705529222,"current_range_meters":25600,"station_id":"ce4bhr92rcd13ifvqhrg","pricing_plan_id":"free"},{"bike_id":"cda505b6-2c72-4da7-ae8b-dbb08eb34ee0","system_id":"levelo_inurba_marseille","lat":43.297815,"lon":5.393548,"is_reserved":false,"is_disabled":false,"rental_uris":{"android":"levelo://app?vid=cda505b6-2c72-4da7-ae8b-dbb08eb34ee0","ios":"levelo://app?vid=cda505b6-2c72-4da7-ae8b-dbb08eb34ee0"},"vehicle_type_id":"4","last_reported":1705529222,"current_range_meters":29600,"station_id":"chh1huq6cuj3fo74tm60","pricing_plan_id":"free"},{"bike_id":"c7519e9c-93ad-4f4c-80ab-1077e95112f3","system_id":"levelo_inurba_marseille","lat":43.295169,"lon":5.390426,"is_reserved":false,"is_disabled":false,"rental_uris":{"android":"levelo://app?vid=c7519e9c-93ad-4f4c-80ab-1077e95112f3","ios":"levelo://app?vid=c7519e9c-93ad-4f4c-80ab-1077e95112f3"},"vehicle_type_id":"4","last_reported":1705529222,"current_range_meters":6000,"station_id":"ce4bh3p2rcd13ifvqdp0","pricing_plan_id":"free"},{"bike_id":"ccd9cda7-74c6-43c7-b714-da7eabc54cee","system_id":"levelo_inurba_marseille","lat":43.330442,"lon":5.389148,"is_reserved":false,"is_disabled":false,"rental_uris":{"android":"levelo://app?vid=ccd9cda7-74c6-43c7-b714-da7eabc54cee","ios":"levelo://app?vid=ccd9cda7-74c6-43c7-b714-da7eabc54cee"},"vehicle_type_id":"4","last_reported":1705529222,"current_range_meters":29200,"station_id":"ce4bhr92rcd13ifvqhrg","pricing_plan_id":"free"},{"bike_id":"9f0b8373-8c23-425e-85dc-41c0552dc00d","system_id":"levelo_inurba_marseille","lat":43.330442,"lon":5.389148,"is_reserved":false,"is_disabled":false,"rental_uris":{"android":"levelo://app?vid=9f0b8373-8c23-425e-85dc-41c0552dc00d","ios":"levelo://app?vid=9f0b8373-8c23-425e-85dc-41c0552dc00d"},"vehicle_type_id":"4","last_reported":1705529222,"current_range_meters":26800,"station_id":"ce4bhr92rcd13ifvqhrg","pricing_plan_id":"free"},{"bike_id":"a104f9bc-d761-4319-b2a0-1a6f9c5e2ce2","system_id":"levelo_inurba_marseille","lat":43.33021,"lon":5.3904,"is_reserved":false,"is_disabled":false,"rental_uris":{"android":"levelo://app?vid=a104f9bc-d761-4319-b2a0-1a6f9c5e2ce2","ios":"levelo://app?vid=a104f9bc-d761-4319-b2a0-1a6f9c5e2ce2"},"vehicle_type_id":"4","last_reported":1705529222,"current_range_meters":28800,"station_id":"ce4bhr92rcd13ifvqhrg","pricing_plan_id":"free"},{"bike_id":"44e295ac-c960-49ec-8952-e99fdb868554","system_id":"levelo_inurba_marseille","lat":43.295169,"lon":5.390426,"is_reserved":false,"is_disabled":false,"rental_uris":{"android":"levelo://app?vid=44e295ac-c960-49ec-8952-e99fdb868554","ios":"levelo://app?vid=44e295ac-c960-49ec-8952-e99fdb868554"},"vehicle_type_id":"4","last_reported":1705529222,"current_range_meters":5200,"station_id":"ce4bh3p2rcd13ifvqdp0","pricing_plan_id":"free"},{"bike_id":"32935f3e-9384-4f94-b00c-2513249f47cf","system_id":"levelo_inurba_marseille","lat":43.330319,"lon":5.390367,"is_reserved":false,"is_disabled":false,"rental_uris":{"android":"levelo://app?vid=32935f3e-9384-4f94-b00c-2513249f47cf","ios":"levelo://app?vid=32935f3e-9384-4f94-b00c-2513249f47cf"},"vehicle_type_id":"4","last_reported":1705529222,"current_range_meters":26400,"station_id":"","pricing_plan_id":"free"},{"bike_id":"d68aa186-3544-48e8-977d-d99a4b14ac52","system_id":"levelo_inurba_marseille","lat":43.295169,"lon":5.390426,"is_reserved":false,"is_disabled":false,"rental_uris":{"android":"levelo://app?vid=d68aa186-3544-48e8-977d-d99a4b14ac52","ios":"levelo://app?vid=d68aa186-3544-48e8-977d-d99a4b14ac52"},"vehicle_type_id":"4","last_reported":1705529222,"current_range_meters":16400,"station_id":"ce4bh3p2rcd13ifvqdp0","pricing_plan_id":"free"},{"bike_id":"8c9de57e-e7b2-46b7-ac20-7f769096e2a8","system_id":"levelo_inurba_marseille","lat":43.295169,"lon":5.390426,"is_reserved":false,"is_disabled":false,"rental_uris":{"android":"levelo://app?vid=8c9de57e-e7b2-46b7-ac20-7f769096e2a8","ios":"levelo://app?vid=8c9de57e-e7b2-46b7-ac20-7f769096e2a8"},"vehicle_type_id":"4","last_reported":1705529222,"current_range_meters":22000,"station_id":"ce4bh3p2rcd13ifvqdp0","pricing_plan_id":"free"},{"bike_id":"1a343c76-e318-4dc9-9880-d28c86f14eba","system_id":"levelo_inurba_marseille","lat":43.295169,"lon":5.390426,"is_reserved":false,"is_disabled":false,"rental_uris":{"android":"levelo://app?vid=1a343c76-e318-4dc9-9880-d28c86f14eba","ios":"levelo://app?vid=1a343c76-e318-4dc9-9880-d28c86f14eba"},"vehicle_type_id":"4","last_reported":1705529222,"current_range_meters":28800,"station_id":"ce4bh3p2rcd13ifvqdp0","pricing_plan_id":"free"},{"bike_id":"ec9c7cb3-ae01-48e0-a85c-804eda09cb87","system_id":"levelo_inurba_marseille","lat":43.290094,"lon":5.381264,"is_reserved":false,"is_disabled":false,"rental_uris":{"android":"levelo://app?vid=ec9c7cb3-ae01-48e0-a85c-804eda09cb87","ios":"levelo://app?vid=ec9c7cb3-ae01-48e0-a85c-804eda09cb87"},"vehicle_type_id":"4","last_reported":1705529222,"current_range_meters":0,"station_id":"ce4bh4p2rcd13ifvqe1g","pricing_plan_id":"free"},{"bike_id":"c9aecfc4-a4c7-4615-ab51-2e0945c2f485","system_id":"levelo_inurba_marseille","lat":43.28856,"lon":5.358371,"is_reserved":false,"is_disabled":false,"rental_uris":{"android":"levelo://app?vid=c9aecfc4-a4c7-4615-ab51-2e0945c2f485","ios":"levelo://app?vid=c9aecfc4-a4c7-4615-ab51-2e0945c2f485"},"vehicle_type_id":"4","last_reported":1705529222,"current_range_meters":22800,"station_id":"ce4bhb12rcd13ifvqem0","pricing_plan_id":"free"},{"bike_id":"85b4c775-9175-479e-9205-3ee9da45f889","system_id":"levelo_inurba_marseille","lat":43.28856,"lon":5.358371,"is_reserved":false,"is_disabled":false,"rental_uris":{"android":"levelo://app?vid=85b4c775-9175-479e-9205-3ee9da45f889","ios":"levelo://app?vid=85b4c775-9175-479e-9205-3ee9da45f889"},"vehicle_type_id":"4","last_reported":1705529222,"current_range_meters":29600,"station_id":"ce4bhb12rcd13ifvqem0","pricing_plan_id":"free"},{"bike_id":"aae77907-3fff-4a8a-9a80-a438dd664563","system_id":"levelo_inurba_marseille","lat":43.329238,"lon":5.392628,"is_reserved":false,"is_disabled":false,"rental_uris":{"android":"levelo://app?vid=aae77907-3fff-4a8a-9a80-a438dd664563","ios":"levelo://app?vid=aae77907-3fff-4a8a-9a80-a438dd664563"},"vehicle_type_id":"4","last_reported":1705529222,"current_range_meters":16400,"station_id":"","pricing_plan_id":"free"},{"bike_id":"da83767f-08db-475e-adf1-bb4730930eb4","system_id":"levelo_inurba_marseille","lat":43.28856,"lon":5.358371,"is_reserved":false,"is_disabled":false,"rental_uris":{"android":"levelo://app?vid=da83767f-08db-475e-adf1-bb4730930eb4","ios":"levelo://app?vid=da83767f-08db-475e-adf1-bb4730930eb4"},"vehicle_type_id":"4","last_reported":1705529222,"current_range_meters":12000,"station_id":"ce4bhb12rcd13ifvqem0","pricing_plan_id":"free"},{"bike_id":"096ce76e-f293-4286-8a7d-df448cfbf30c","system_id":"levelo_inurba_marseille","lat":43.28856,"lon":5.358371,"is_reserved":false,"is_disabled":false,"rental_uris":{"android":"levelo://app?vid=096ce76e-f293-4286-8a7d-df448cfbf30c","ios":"levelo://app?vid=096ce76e-f293-4286-8a7d-df448cfbf30c"},"vehicle_type_id":"4","last_reported":1705529222,"current_range_meters":21600,"station_id":"ce4bhb12rcd13ifvqem0","pricing_plan_id":"free"},{"bike_id":"6dae1feb-55a1-4dae-8578-384363367d18","system_id":"levelo_inurba_marseille","lat":43.33714,"lon":5.37435,"is_reserved":false,"is_disabled":false,"rental_uris":{"android":"levelo://app?vid=6dae1feb-55a1-4dae-8578-384363367d18","ios":"levelo://app?vid=6dae1feb-55a1-4dae-8578-384363367d18"},"vehicle_type_id":"4","last_reported":1705529222,"current_range_meters":30400,"station_id":"","pricing_plan_id":"free"},{"bike_id":"83ee69ac-4c35-4bcf-8d9c-3b7b2acec991","system_id":"levelo_inurba_marseille","lat":43.28856,"lon":5.358371,"is_reserved":false,"is_disabled":false,"rental_uris":{"android":"levelo://app?vid=83ee69ac-4c35-4bcf-8d9c-3b7b2acec991","ios":"levelo://app?vid=83ee69ac-4c35-4bcf-8d9c-3b7b2acec991"},"vehicle_type_id":"4","last_reported":1705529222,"current_range_meters":19200,"station_id":"ce4bhb12rcd13ifvqem0","pricing_plan_id":"free"},{"bike_id":"d4af2462-30ee-4fad-8167-9516fe8773d4","system_id":"levelo_inurba_marseille","lat":43.290094,"lon":5.381264,"is_reserved":false,"is_disabled":false,"rental_uris":{"android":"levelo://app?vid=d4af2462-30ee-4fad-8167-9516fe8773d4","ios":"levelo://app?vid=d4af2462-30ee-4fad-8167-9516fe8773d4"},"vehicle_type_id":"4","last_reported":1705529222,"current_range_meters":24400,"station_id":"ce4bh4p2rcd13ifvqe1g","pricing_plan_id":"free"},{"bike_id":"535db4b6-271b-4e71-acfe-2baeaf901c75","system_id":"levelo_inurba_marseille","lat":43.329428,"lon":5.392628,"is_reserved":false,"is_disabled":false,"rental_uris":{"android":"levelo://app?vid=535db4b6-271b-4e71-acfe-2baeaf901c75","ios":"levelo://app?vid=535db4b6-271b-4e71-acfe-2baeaf901c75"},"vehicle_type_id":"4","last_reported":1705529222,"current_range_meters":30000,"station_id":"","pricing_plan_id":"free"},{"bike_id":"17cfea4d-a211-485e-805d-d4af59ed7f15","system_id":"levelo_inurba_marseille","lat":43.290094,"lon":5.381264,"is_reserved":false,"is_disabled":false,"rental_uris":{"android":"levelo://app?vid=17cfea4d-a211-485e-805d-d4af59ed7f15","ios":"levelo://app?vid=17cfea4d-a211-485e-805d-d4af59ed7f15"},"vehicle_type_id":"4","last_reported":1705529222,"current_range_meters":26800,"station_id":"ce4bh4p2rcd13ifvqe1g","pricing_plan_id":"free"},{"bike_id":"fd52194f-82e1-4ac6-ad7c-5e92e69c0ec0","system_id":"levelo_inurba_marseille","lat":43.31274,"lon":5.40169,"is_reserved":false,"is_disabled":false,"rental_uris":{"android":"levelo://app?vid=fd52194f-82e1-4ac6-ad7c-5e92e69c0ec0","ios":"levelo://app?vid=fd52194f-82e1-4ac6-ad7c-5e92e69c0ec0"},"vehicle_type_id":"4","last_reported":1705529222,"current_range_meters":18000,"station_id":"ce4bh092rcd13ifvqd30","pricing_plan_id":"free"},{"bike_id":"8fa9b8f6-07af-444c-b41e-49a027f51ccb","system_id":"levelo_inurba_marseille","lat":43.31266,"lon":5.4017,"is_reserved":false,"is_disabled":false,"rental_uris":{"android":"levelo://app?vid=8fa9b8f6-07af-444c-b41e-49a027f51ccb","ios":"levelo://app?vid=8fa9b8f6-07af-444c-b41e-49a027f51ccb"},"vehicle_type_id":"4","last_reported":1705529222,"current_range_meters":0,"station_id":"ce4bh092rcd13ifvqd30","pricing_plan_id":"free"},{"bike_id":"78f231a3-07ca-4762-b0b3-4478db5e0821","system_id":"levelo_inurba_marseille","lat":43.312748,"lon":5.401709,"is_reserved":false,"is_disabled":false,"rental_uris":{"android":"levelo://app?vid=78f231a3-07ca-4762-b0b3-4478db5e0821","ios":"levelo://app?vid=78f231a3-07ca-4762-b0b3-4478db5e0821"},"vehicle_type_id":"4","last_reported":1705529222,"current_range_meters":7200,"station_id":"ce4bh092rcd13ifvqd30","pricing_plan_id":"free"},{"bike_id":"d50b1877-cd0c-4366-93a9-ad521a3a83f6","system_id":"levelo_inurba_marseille","lat":43.309371,"lon":5.401449,"is_reserved":false,"is_disabled":false,"rental_uris":{"android":"levelo://app?vid=d50b1877-cd0c-4366-93a9-ad521a3a83f6","ios":"levelo://app?vid=d50b1877-cd0c-4366-93a9-ad521a3a83f6"},"vehicle_type_id":"4","last_reported":1705529222,"current_range_meters":30400,"station_id":"ce4bgvp2rcd13ifvqct0","pricing_plan_id":"free"},{"bike_id":"2116424c-83a9-49bd-ab67-64865ec29e1f","system_id":"levelo_inurba_marseille","lat":43.30937,"lon":5.4014,"is_reserved":false,"is_disabled":false,"rental_uris":{"android":"levelo://app?vid=2116424c-83a9-49bd-ab67-64865ec29e1f","ios":"levelo://app?vid=2116424c-83a9-49bd-ab67-64865ec29e1f"},"vehicle_type_id":"4","last_reported":1705529222,"current_range_meters":22000,"station_id":"ce4bgvp2rcd13ifvqct0","pricing_plan_id":"free"},{"bike_id":"e5b1a4d8-fcb2-46b5-b5ff-78e2734ef343","system_id":"levelo_inurba_marseille","lat":43.309371,"lon":5.401449,"is_reserved":false,"is_disabled":false,"rental_uris":{"android":"levelo://app?vid=e5b1a4d8-fcb2-46b5-b5ff-78e2734ef343","ios":"levelo://app?vid=e5b1a4d8-fcb2-46b5-b5ff-78e2734ef343"},"vehicle_type_id":"4","last_reported":1705529222,"current_range_meters":26400,"station_id":"ce4bgvp2rcd13ifvqct0","pricing_plan_id":"free"},