{"last_updated":1727410298,"ttl":60,"version":"2.2","data":{"bikes":[{"bike_id":"16e9955f-f777-4290-b31c-761b801f08e2","system_id":"levelo_inurba_marseille","lat":43.28079,"lon":5.39651,"is_reserved":false,"is_disabled":false,"rental_uris":{"android":"levelo://app?vid=16e9955f-f777-4290-b31c-761b801f08e2","ios":"levelo://app?vid=16e9955f-f777-4290-b31c-761b801f08e2"},"vehicle_type_id":"4","last_reported":1727410298,"current_range_meters":39200,"station_id":"ce4bho12rcd13ifvqh2g","pricing_plan_id":"cebpf4jnsgd1na2vs0mg"},{"bike_id":"1949bde6-d10c-40a9-8005-655941700167","system_id":"levelo_inurba_marseille","lat":43.30798,"lon":5.43527,"is_reserved":false,"is_disabled":false,"rental_uris":{"android":"levelo://app?vid=1949bde6-d10c-40a9-8005-655941700167","ios":"levelo://app?vid=1949bde6-d10c-40a9-8005-655941700167"},"vehicle_type_id":"4","last_reported":1727410298,"current_range_meters":6400,"station_id":"ce4bhph2rcd13ifvqheg","pricing_plan_id":"cebpf4jnsgd1na2vs0mg"},{"bike_id":"216c7438-a03f-4882-9343-ee46e4fbcd0a","system_id":"levelo_inurba_marseille","lat":43.28356,"lon":5.38617,"is_reserved":false,"is_disabled":false,"rental_uris":{"android":"levelo://app?vid=216c7438-a03f-4882-9343-ee46e4fbcd0a","ios":"levelo://app?vid=216c7438-a03f-4882-9343-ee46e4fbcd0a"},"vehicle_type_id":"4","last_reported":1727410298,"current_range_meters":38800,"station_id":"ce4bh492rcd13ifvqdvg","pricing_plan_id":"cebpf4jnsgd1na2vs0mg"},{"bike_id":"97201a2d-6ffa-419c-8b8f-48641eb7f98e","system_id":"levelo_inurba_marseille","lat":43.29254,"lon":5.40901,"is_reserved":false,"is_disabled":false,"rental_uris":{"android":"levelo://app?vid=97201a2d-6ffa-419c-8b8f-48641eb7f98e","ios":"levelo://app?vid=97201a2d-6ffa-419c-8b8f-48641eb7f98e"},"vehicle_type_id":"4","last_reported":1727410298,"current_range_meters":14000,"station_id":"ce4bh192rcd13ifvqdc0","pricing_plan_id":"cebpf4jnsgd1na2vs0mg"},{"bike_id":"81dbb0ed-79b3-41ef-9e55-2856c58c2866","system_id":"levelo_inurba_marseille","lat":43.30881,"lon":5.39637,"is_reserved":false,"is_disabled":false,"rental_uris":{"android":"levelo://app?vid=81dbb0ed-79b3-41ef-9e55-2856c58c2866","ios":"levelo://app?vid=81dbb0ed-79b3-41ef-9e55-2856c58c2866"},"vehicle_type_id":"4","last_reported":1727410298,"current_range_meters":29600,"station_id":"ce4bh012rcd13ifvqcv0","pricing_plan_id":"cebpf4jnsgd1na2vs0mg"},{"bike_id":"277315c8-09c7-4a88-b11e-3e6fd7509a8c","system_id":"levelo_inurba_marseille","lat":43.31326,"lon":5.39702,"is_reserved":false,"is_disabled":false,"rental_uris":{"android":"levelo://app?vid=277315c8-09c7-4a88-b11e-3e6fd7509a8c","ios":"levelo://app?vid=277315c8-09c7-4a88-b11e-3e6fd7509a8c"},"vehicle_type_id":"4","last_reported":1727410298,"current_range_meters":39200,"station_id":"ce4bgvp2rcd13ifvqcu0","pricing_plan_id":"cebpf4jnsgd1na2vs0mg"},{"bike_id":"6c9f8ae0-1fda-451d-93a5-f560a2b9db61","system_id":"levelo_inurba_marseille","lat":43.32037,"lon":5.41566,"is_reserved":false,"is_disabled":false,"rental_uris":{"android":"levelo://app?vid=6c9f8ae0-1fda-451d-93a5-f560a2b9db61","ios":"levelo://app?vid=6c9f8ae0-1fda-451d-93a5-f560a2b9db61"},"vehicle_type_id":"4","last_reported":1727410298,"current_range_meters":37600,"station_id":"ce4bhq92rcd13ifvqhkg","pricing_plan_id":"cebpf4jnsgd1na2vs0mg"},{"bike_id":"319a95fd-4cb6-4140-b1df-59a1aab23798","system_id":"levelo_inurba_marseille","lat":43.23141,"lon":5.4371,"is_reserved":false,"is_disabled":false,"rental_uris":{"android":"levelo://app?vid=319a95fd-4cb6-4140-b1df-59a1aab23798","ios":"levelo://app?vid=319a95fd-4cb6-4140-b1df-59a1aab23798"},"vehicle_type_id":"4","last_reported":1727410298,"current_range_meters":15200,"station_id":"ce4bhmp2rcd13ifvqgog","pricing_plan_id":"cebpf4jnsgd1na2vs0mg"},{"bike_id":"a0a08c3c-d7c5-4884-a46f-e174da09b7bd","system_id":"levelo_inurba_marseille","lat":43.30426,"lon":5.3975,"is_reserved":false,"is_disabled":false,"rental_uris":{"android":"levelo://app?vid=a0a08c3c-d7c5-4884-a46f-e174da09b7bd","ios":"levelo://app?vid=a0a08c3c-d7c5-4884-a46f-e174da09b7bd"},"vehicle_type_id":"4","last_reported":1727410298,"current_range_meters":38800,"station_id":"ce4bh092rcd13ifvqd20","pricing_plan_id":"cebpf4jnsgd1na2vs0mg"},{"bike_id":"9a593db0-19bc-4883-bc8e-f35d82d51490","system_id":"levelo_inurba_marseille","lat":43.31085,"lon":5.4243,"is_reserved":false,"is_disabled":false,"rental_uris":{"android":"levelo://app?vid=9a593db0-19bc-4883-bc8e-f35d82d51490","ios":"levelo://app?vid=9a593db0-19bc-4883-bc8e-f35d82d51490"},"vehicle_type_id":"4","last_reported":1727410298,"current_range_meters":32800,"station_id":"ce4bhp92rcd13ifvqhag","pricing_plan_id":"cebpf4jnsgd1na2vs0mg"},{"bike_id":"80beb2a2-9023-4056-91ac-c1c09428b0e7","system_id":"levelo_inurba_marseille","lat":43.27569,"lon":5.3843,"is_reserved":false,"is_disabled":false,"rental_uris":{"android":"levelo://app?vid=80beb2a2-9023-4056-91ac-c1c09428b0e7","ios":"levelo://app?vid=80beb2a2-9023-4056-91ac-c1c09428b0e7"},"vehicle_type_id":"4","last_reported":1727410298,"current_range_meters":27600,"station_id":"ce4bhh92rcd13ifvqfi0","pricing_plan_id":"cebpf4jnsgd1na2vs0mg"},{"bike_id":"5ba9f6a4-ddc2-4dcb-9c8b-a8b882fc82ec","system_id":"levelo_inurba_marseille","lat":43.317089,"lon":5.377639,"is_reserved":false,"is_disabled":false,"rental_uris":{"android":"levelo://app?vid=5ba9f6a4-ddc2-4dcb-9c8b-a8b882fc82ec","ios":"levelo://app?vid=5ba9f6a4-ddc2-4dcb-9c8b-a8b882fc82ec"},"vehicle_type_id":"4","last_reported":1727410298,"current_range_meters":39200,"station_id":"ce4bgth2rcd13ifvqch0","pricing_plan_id":"cebpf4jnsgd1na2vs0mg"},{"bike_id":"a9669d3a-c989-4bbf-988b-b787f6909497","system_id":"levelo_inurba_marseille","lat":43.32661,"lon":5.40982,"is_reserved":false,"is_disabled":false,"rental_uris":{"android":"levelo://app?vid=a9669d3a-c989-4bbf-988b-b787f6909497","ios":"levelo://app?vid=a9669d3a-c989-4bbf-988b-b787f6909497"},"vehicle_type_id":"4","last_reported":1727410298,"current_range_meters":36800,"station_id":"ce4bhpp2rcd13ifvqhgg","pricing_plan_id":"cebpf4jnsgd1na2vs0mg"},{"bike_id":"e47db2d0-e1e6-4c8f-afe5-0a4d74d20ce7","system_id":"levelo_inurba_marseille","lat":43.28151,"lon":5.42638,"is_reserved":false,"is_disabled":false,"rental_uris":{"android":"levelo://app?vid=e47db2d0-e1e6-4c8f-afe5-0a4d74d20ce7","ios":"levelo://app?vid=e47db2d0-e1e6-4c8f-afe5-0a4d74d20ce7"},"vehicle_type_id":"4","last_reported":1727410298,"current_range_meters":4000,"station_id":"ce4bhnh2rcd13ifvqgug","pricing_plan_id":"cebpf4jnsgd1na2vs0mg"},{"bike_id":"9d22a46c-7421-45b7-a510-326a2aa08b40","system_id":"levelo_inurba_marseille","lat":43.2886,"lon":5.39295,"is_reserved":false,"is_disabled":false,"rental_uris":{"android":"levelo://app?vid=9d22a46c-7421-45b7-a510-326a2aa08b40","ios":"levelo://app?vid=9d22a46c-7421-45b7-a510-326a2aa08b40"},"vehicle_type_id":"4","last_reported":1727410298,"current_range_meters":39200,"station_id":"ce4bh2p2rcd13ifvqdi0","pricing_plan_id":"cebpf4jnsgd1na2vs0mg"},{"bike_id":"4580dcc6-10a0-4217-9574-66a5120cc51b","system_id":"levelo_inurba_marseille","lat":43.25119,"lon":5.40311,"is_reserved":false,"is_disabled":false,"rental_uris":{"android":"levelo://app?vid=4580dcc6-10a0-4217-9574-66a5120cc51b","ios":"levelo://app?vid=4580dcc6-10a0-4217-9574-66a5120cc51b"},"vehicle_type_id":"4","last_reported":1727410298,"current_range_meters":32400,"station_id":"ce4bhlh2rcd13ifvqgig","pricing_plan_id":"cebpf4jnsgd1na2vs0mg"},{"bike_id":"9075d410-e9f9-47e1-bd3d-b2c4f81dae8e","system_id":"levelo_inurba_marseille","lat":43.29258,"lon":5.40908,"is_reserved":false,"is_disabled":false,"rental_uris":{"android":"levelo://app?vid=9075d410-e9f9-47e1-bd3d-b2c4f81dae8e","ios":"levelo://app?vid=9075d410-e9f9-47e1-bd3d-b2c4f81dae8e"},"vehicle_type_id":"4","last_reported":1727410298,"current_range_meters":18800,"station_id":"ce4bh192rcd13ifvqdc0","pricing_plan_id":"cebpf4jnsgd1na2vs0mg"},{"bike_id":"a17cc833-34e0-49cd-aed6-aafc54d2e30a","system_id":"levelo_inurba_marseille","lat":43.28938,"lon":5.36394,"is_reserved":false,"is_disabled":false,"rental_uris":{"android":"levelo://app?vid=a17cc833-34e0-49cd-aed6-aafc54d2e30a","ios":"levelo://app?vid=a17cc833-34e0-49cd-aed6-aafc54d2e30a"},"vehicle_type_id":"4","last_reported":1727410298,"current_range_meters":39200,"station_id":"ce4bhc92rcd13ifvqetg","pricing_plan_id":"cebpf4jnsgd1na2vs0mg"},{"bike_id":"55f4f50b-d6dd-4e12-86b3-1486da4af7d9","system_id":"levelo_inurba_marseille","lat":43.22932,"lon":5.35377,"is_reserved":false,"is_disabled":false,"rental_uris":{"android":"levelo://app?vid=55f4f50b-d6dd-4e12-86b3-1486da4af7d9","ios":"levelo://app?vid=55f4f50b-d6dd-4e12-86b3-1486da4af7d9"},"vehicle_type_id":"4","last_reported":1727410298,"current_range_meters":37600,"station_id":"cpo3532slgdg3j2ikp40","pricing_plan_id":"cebpf4jnsgd1na2vs0mg"},{"bike_id":"2efdb3ce-aaae-4bb3-8fd3-0e096cf0d5d1","system_id":"levelo_inurba_marseille","lat":43.29564,"lon":5.39969,"is_reserved":false,"is_disabled":false,"rental_uris":{"android":"levelo://app?vid=2efdb3ce-aaae-4bb3-8fd3-0e096cf0d5d1","ios":"levelo://app?vid=2efdb3ce-aaae-4bb3-8fd3-0e096cf0d5d1"},"vehicle_type_id":"4","last_reported":1727410298,"current_range_meters":40000,"station_id":"ce4bh312rcd13ifvqdj0","pricing_plan_id":"cebpf4jnsgd1na2vs0mg"},{"bike_id":"05d742b4-d6be-44a9-beca-ea36008943f7","system_id":"levelo_inurba_marseille","lat":43.24668,"lon":5.38162,"is_reserved":false,"is_disabled":false,"rental_uris":{"android":"levelo://app?vid=05d742b4-d6be-44a9-beca-ea36008943f7","ios":"levelo://app?vid=05d742b4-d6be-44a9-beca-ea36008943f7"},"vehicle_type_id":"4","last_reported":1727410298,"current_range_meters":36800,"station_id":"ce4bhih2rcd13ifvqfr0","pricing_plan_id":"cebpf4jnsgd1na2vs0mg"},{"bike_id":"eef73e76-3fc8-46b2-9b2f-ae7d14a0f945","system_id":"levelo_inurba_marseille","lat":43.30072,"lon":5.39083,"is_reserved":false,"is_disabled":false,"rental_uris":{"android":"levelo://app?vid=eef73e76-3fc8-46b2-9b2f-ae7d14a0f945","ios":"levelo://app?vid=eef73e76-3fc8-46b2-9b2f-ae7d14a0f945"},"vehicle_type_id":"4","last_reported":1727410298,"current_range_meters":37600,"station_id":"ce4bh192rcd13ifvqdb0","pricing_plan_id":"cebpf4jnsgd1na2vs0mg"},{"bike_id":"46518533-a3f0-468c-a3d9-f7b8392f6bb8","system_id":"levelo_inurba_marseille","lat":43.28676,"lon":5.36348,"is_reserved":false,"is_disabled":false,"rental_uris":{"android":"levelo://app?vid=46518533-a3f0-468c-a3d9-f7b8392f6bb8","ios":"levelo://app?vid=46518533-a3f0-468c-a3d9-f7b8392f6bb8"},"vehicle_type_id":"4","last_reported":1727410298,"current_range_meters":39200,"station_id":"ce4bhah2rcd13ifvqej0","pricing_plan_id":"cebpf4jnsgd1na2vs0mg"},{"bike_id":"d94501ef-d3a7-47ec-8fb7-c4ada07e9931","system_id":"levelo_inurba_marseille","lat":43.24675,"lon":5.38163,"is_reserved":false,"is_disabled":false,"rental_uris":{"android":"levelo://app?vid=d94501ef-d3a7-47ec-8fb7-c4ada07e9931","ios":"levelo://app?vid=d94501ef-d3a7-47ec-8fb7-c4ada07e9931"},"vehicle_type_id":"4","last_reported":1727410298,"current_range_meters":39200,"station_id":"ce4bhih2rcd13ifvqfr0","pricing_plan_id":"cebpf4jnsgd1na2vs0mg"},{"bike_id":"5bbc05df-e752-4adb-ab91-31c5181b953a","system_id":"levelo_inurba_marseille","lat":43.30646,"lon":5.40075,"is_reserved":false,"is_disabled":false,"rental_uris":{"android":"levelo://app?vid=5bbc05df-e752-4adb-ab91-31c5181b953a","ios":"levelo://app?vid=5bbc05df-e752-4adb-ab91-31c5181b953a"},"vehicle_type_id":"4","last_reported":1727410298,"current_range_meters":28800,"station_id":"ce4bh112rcd13ifvqda0","pricing_plan_id":"cebpf4jnsgd1na2vs0mg"},{"bike_id":"c6c9f981-44d1-46e0-a02d-d3b82e7b792d","system_id":"levelo_inurba_marseille","lat":43.23187,"lon":5.39981,"is_reserved":false,"is_disabled":false,"rental_uris":{"android":"levelo://app?vid=c6c9f981-44d1-46e0-a02d-d3b82e7b792d","ios":"levelo://app?vid=c6c9f981-44d1-46e0-a02d-d3b82e7b792d"},"vehicle_type_id":"4","last_reported":1727410298,"current_range_meters":33200,"station_id":"ce4bhn12rcd13ifvqgqg","pricing_plan_id":"cebpf4jnsgd1na2vs0mg"},{"bike_id":"cd4c3ea5-3df9-4ccb-a55d-0c3b17cecce3","system_id":"levelo_inurba_marseille","lat":43.28867,"lon":5.3788,"is_reserved":false,"is_disabled":false,"rental_uris":{"android":"levelo://app?vid=cd4c3ea5-3df9-4ccb-a55d-0c3b17cecce3","ios":"levelo://app?vid=cd4c3ea5-3df9-4ccb-a55d-0c3b17cecce3"},"vehicle_type_id":"4","last_reported":1727410298,"current_range_meters":38000,"station_id":"","pricing_plan_id":"cebpf4jnsgd1na2vs0mg"},{"bike_id":"f77a12cf-d6d0-4e7f-b91f-61f27993928c","system_id":"levelo_inurba_marseille","lat":43.23153,"lon":5.43705,"is_reserved":false,"is_disabled":false,"rental_uris":{"android":"levelo://app?vid=f77a12cf-d6d0-4e7f-b91f-61f27993928c","ios":"levelo://app?vid=f77a12cf-d6d0-4e7f-b91f-61f27993928c"},"vehicle_type_id":"4","last_reported":1727410298,"current_range_meters":2800,"station_id":"ce4bhmp2rcd13ifvqgog","pricing_plan_id":"cebpf4jnsgd1na2vs0mg"},{"bike_id":"18551754-cfb7-4efa-9487-a4a9d01af5a7","system_id":"levelo_inurba_marseille","lat":43.26032,"lon":5.37544,"is_reserved":false,"is_disabled":false,"rental_uris":{"android":"levelo://app?vid=18551754-cfb7-4efa-9487-a4a9d01af5a7","ios":"levelo://app?vid=18551754-cfb7-4efa-9487-a4a9d01af5a7"},"vehicle_type_id":"4","last_reported":1727410298,"current_range_meters":38000,"station_id":"ce4bhgh2rcd13ifvqfa0","pricing_plan_id":"cebpf4jnsgd1na2vs0mg"},{"bike_id":"01092b8d-730f-4fd9-8a4a-06680f2e3b65","system_id":"levelo_inurba_marseille","lat":43.26958,"lon":5.38631,"is_reserved":false,"is_disabled":false,"rental_uris":{"android":"levelo://app?vid=01092b8d-730f-4fd9-8a4a-06680f2e3b65","ios":"levelo://app?vid=01092b8d-730f-4fd9-8a4a-06680f2e3b65"},"vehicle_type_id":"4","last_reported":1727410298,"current_range_meters":37600,"station_id":"ce4bhh92rcd13ifvqfh0","pricing_plan_id":"cebpf4jnsgd1na2vs0mg"},{"bike_id":"bedb5830-e021-42ec-9720-9866c1fb8476","system_id":"levelo_inurba_marseille","lat":43.29078,"lon":5.37149,"is_reserved":false,"is_disabled":false,"rental_uris":{"android":"levelo://app?vid=bedb5830-e021-42ec-9720-9866c1fb8476","ios":"levelo://app?vid=bedb5830-e021-42ec-9720-9866c1fb8476"},"vehicle_type_id":"4","last_reported":1727410298,"current_range_meters":38800,"station_id":"ce4bh5p2rcd13ifvqe4g","pricing_plan_id":"cebpf4jnsgd1na2vs0mg"},{"bike_id":"161f50c7-3de2-4116-a91e-3d856209631f","system_id":"levelo_inurba_marseille","lat":43.28472,"lon":5.35885,"is_reserved":false,"is_disabled":false,"rental_uris":{"android":"levelo://app?vid=161f50c7-3de2-4116-a91e-3d856209631f","ios":"levelo://app?vid=161f50c7-3de2-4116-a91e-3d856209631f"},"vehicle_type_id":"4","last_reported":1727410298,"current_range_meters":39200,"station_id":"ce4bhah2rcd13ifvqei0","pricing_plan_id":"cebpf4jnsgd1na2vs0mg"},{"bike_id":"dee78064-cfff-4390-84c5-d22f6a19e8c0","system_id":"levelo_inurba_marseille","lat":43.28674,"lon":5.36352,"is_reserved":false,"is_disabled":false,"rental_uris":{"android":"levelo://app?vid=dee78064-cfff-4390-84c5-d22f6a19e8c0","ios":"levelo://app?vid=dee78064-cfff-4390-84c5-d22f6a19e8c0"},"vehicle_type_id":"4","last_reported":1727410298,"current_range_meters":30800,"station_id":"ce4bhah2rcd13ifvqej0","pricing_plan_id":"cebpf4jnsgd1na2vs0mg"},{"bike_id":"e71b2228-487e-43d3-aaad-9eadfa97ebeb","system_id":"levelo_inurba_marseille","lat":43.30154,"lon":5.38081,"is_reserved":false,"is_disabled":false,"rental_uris":{"android":"levelo://app?vid=e71b2228-487e-43d3-aaad-9eadfa97ebeb","ios":"levelo://app?vid=e71b2228-487e-43d3-aaad-9eadfa97ebeb"},"vehicle_type_id":"4","last_reported":1727410298,"current_range_meters":4000,"station_id":"ce4bgjp2rcd13ifvqbh0","pricing_plan_id":"cebpf4jnsgd1na2vs0mg"},{"bike_id":"5d2e6e99-4767-46c7-a769-4c1f4feca694","system_id":"levelo_inurba_marseille","lat":43.31279,"lon":5.40162,"is_reserved":false,"is_disabled":false,"rental_uris":{"android":"levelo://app?vid=5d2e6e99-4767-46c7-a769-4c1f4feca694","ios":"levelo://app?vid=5d2e6e99-4767-46c7-a769-4c1f4feca694"},"vehicle_type_id":"4","last_reported":1727410298,"current_range_meters":38800,"station_id":"ce4bh092rcd13ifvqd30","pricing_plan_id":"cebpf4jnsgd1na2vs0mg"},{"bike_id":"b335ca42-7350-4c4c-856e-f46e906ad72e","system_id":"levelo_inurba_marseille","lat":43.32284,"lon":5.38277,"is_reserved":false,"is_disabled":false,"rental_uris":{"android":"levelo://app?vid=b335ca42-7350-4c4c-856e-f46e906ad72e","ios":"levelo://app?vid=b335ca42-7350-4c4c-856e-f46e906ad72e"},"vehicle_type_id":"4","last_reported":1727410298,"current_range_meters":10800,"station_id":"ce4bhr12rcd13ifvqhqg","pricing_plan_id":"cebpf4jnsgd1na2vs0mg"},{"bike_id":"23d16986-3e98-4f85-aa5e-c3a3b39f0859","system_id":"levelo_inurba_marseille","lat":43.30662,"lon":5.40075,"is_reserved":false,"is_disabled":false,"rental_uris":{"android":"levelo://app?vid=23d16986-3e98-4f85-aa5e-c3a3b39f0859","ios":"levelo://app?vid=23d16986-3e98-4f85-aa5e-c3a3b39f0859"},"vehicle_type_id":"4","last_reported":1727410298,"current_range_meters":39200,"station_id":"ce4bh112rcd13ifvqda0","pricing_plan_id":"cebpf4jnsgd1na2vs0mg"},{"bike_id":"a62cd0a2-8122-4a2d-b667-7ce490f68216","system_id":"levelo_inurba_marseille","lat":43.30935,"lon":5.40147,"is_reserved":false,"is_disabled":false,"rental_uris":{"android":"levelo://app?vid=a62cd0a2-8122-4a2d-b667-7ce490f68216","ios":"levelo://app?vid=a62cd0a2-8122-4a2d-b667-7ce490f68216"},"vehicle_type_id":"4","last_reported":1727410298,"current_range_meters":38400,"station_id":"ce4bgvp2rcd13ifvqct0","pricing_plan_id":"cebpf4jnsgd1na2vs0mg"},{"bike_id":"4a4903c7-ffbe-40b4-8008-c3ffec982396","system_id":"levelo_inurba_marseille","lat":43.31531,"lon":5.38013,"is_reserved":false,"is_disabled":false,"rental_uris":{"android":"levelo://app?vid=4a4903c7-ffbe-40b4-8008-c3ffec982396","ios":"levelo://app?vid=4a4903c7-ffbe-40b4-8008-c3ffec982396"},"vehicle_type_id":"4","last_reported":1727410298,"current_range_meters":19600,"station_id":"ce4bhsp2rcd13ifvqi50","pricing_plan_id":"cebpf4jnsgd1na2vs0mg"},{"bike_id":"bea6db5e-059c-49ef-9ccc-86c0e3423fd7","system_id":"levelo_inurba_marseille","lat":43.28107,"lon":5.37819,"is_reserved":false,"is_disabled":false,"rental_uris":{"android":"levelo://app?vid=bea6db5e-059c-49ef-9ccc-86c0e3423fd7","ios":"levelo://app?vid=bea6db5e-059c-49ef-9ccc-86c0e3423fd7"},"vehicle_type_id":"4","last_reported":1727410298,"current_range_meters":36800,"station_id":"ce4bha12rcd13ifvqee0","pricing_plan_id":"cebpf4jnsgd1na2vs0mg"},{"bike_id":"6b18d179-f0b4-41fe-ac47-f38619f1fe44","system_id":"levelo_inurba_marseille","lat":43.27954,"lon":5.41043,"is_reserved":false,"is_disabled":false,"rental_uris":{"android":"levelo://app?vid=6b18d179-f0b4-41fe-ac47-f38619f1fe44","ios":"levelo://app?vid=6b18d179-f0b4-41fe-ac47-f38619f1fe44"},"vehicle_type_id":"4","last_reported":1727410298,"current_range_meters":33600,"station_id":"ce4bhnp2rcd13ifvqh0g","pricing_plan_id":"cebpf4jnsgd1na2vs0mg"},{"bike_id":"9145a769-947f-4ef7-b971-08c191f83f09","system_id":"levelo_inurba_marseille","lat":43.32544,"lon":5.41441,"is_reserved":false,"is_disabled":false,"rental_uris":{"android":"levelo://app?vid=9145a769-947f-4ef7-b971-08c191f83f09","ios":"levelo://app?vid=9145a769-947f-4ef7-b971-08c191f83f09"},"vehicle_type_id":"4","last_reported":1727410298,"current_range_meters":38800,"station_id":"ce4bhq12rcd13ifvqhhg","pricing_plan_id":"cebpf4jnsgd1na2vs0mg"},{"bike_id":"b6daf4df-7c90-4c5e-b397-06a87d15013f","system_id":"levelo_inurba_marseille","lat":43.33752,"lon":5.37361,"is_reserved":false,"is_disabled":false,"rental_uris":{"android":"levelo://app?vid=b6daf4df-7c90-4c5e-b397-06a87d15013f","ios":"levelo://app?vid=b6daf4df-7c90-4c5e-b397-06a87d15013f"},"vehicle_type_id":"4","last_reported":1727410298,"current_range_meters":28400,"station_id":"","pricing_plan_id":"cebpf4jnsgd1na2vs0mg"},{"bike_id":"dfcb01f2-8bcd-4a11-a117-8e37aacbfac4","system_id":"levelo_inurba_marseille","lat":43.28109,"lon":5.37831,"is_reserved":false,"is_disabled":false,"rental_uris":{"android":"levelo://app?vid=dfcb01f2-8bcd-4a11-a117-8e37aacbfac4","ios":"levelo://app?vid=dfcb01f2-8bcd-4a11-a117-8e37aacbfac4"},"vehicle_type_id":"4","last_reported":1727410298,"current_range_meters":39200,"station_id":"ce4bha12rcd13ifvqee0","pricing_plan_id":"cebpf4jnsgd1na2vs0mg"},{"bike_id":"c6a8f01e-009f-4613-948c-2dd4d8bd2d71","system_id":"levelo_inurba_marseille","lat":43.30159,"lon":5.38085,"is_reserved":false,"is_disabled":false,"rental_uris":{"android":"levelo://app?vid=c6a8f01e-009f-4613-948c-2dd4d8bd2d71","ios":"levelo://app?vid=c6a8f01e-009f-4613-948c-2dd4d8bd2d71"},"vehicle_type_id":"4","last_reported":1727410298,"current_range_meters":37600,"station_id":"ce4bgjp2rcd13ifvqbh0","pricing_plan_id":"cebpf4jnsgd1na2vs0mg"},{"bike_id":"eab9bd57-4c0c-4a28-9faf-e70e1ddbf8f4","system_id":"levelo_inurba_marseille","lat":43.23181,"lon":5.39982,"is_reserved":false,"is_disabled":false,"rental_uris":{"android":"levelo://app?vid=eab9bd57-4c0c-4a28-9faf-e70e1ddbf8f4","ios":"levelo://app?vid=eab9bd57-4c0c-4a28-9faf-e70e1ddbf8f4"},"vehicle_type_id":"4","last_reported":1727410298,"current_range_meters":39200,"station_id":"ce4bhn12rcd13ifvqgqg","pricing_plan_id":"cebpf4jnsgd1na2vs0mg"},{"bike_id":"01958bcc-1114-44e7-a1de-ed0825d11990","system_id":"levelo_inurba_marseille","lat":43.33604,"lon":5.41022,"is_reserved":false,"is_disabled":false,"rental_uris":{"android":"levelo://app?vid=01958bcc-1114-44e7-a1de-ed0825d11990","ios":"levelo://app?vid=01958bcc-1114-44e7-a1de-ed0825d11990"},"vehicle_type_id":"4","last_reported":1727410298,"current_range_meters":39200,"station_id":"ce4bhqh2rcd13ifvqhmg","pricing_plan_id":"cebpf4jnsgd1na2vs0mg"},{"bike_id":"c5bf6e12-eb35-43be-8d44-be50f0e6d2df","system_id":"levelo_inurba_marseille","lat":43.25123,"lon":5.4032,"is_reserved":false,"is_disabled":false,"rental_uris":{"android":"levelo://app?vid=c5bf6e12-eb35-43be-8d44-be50f0e6d2df","ios":"levelo://app?vid=c5bf6e12-eb35-43be-8d44-be50f0e6d2df"},"vehicle_type_id":"4","last_reported":1727410298,"current_range_meters":28400,"station_id":"ce4bhlh2rcd13ifvqgig","pricing_plan_id":"cebpf4jnsgd1na2vs0mg"},{"bike_id":"e3c5fbbf-73cf-4f2d-b2d6-f67ffdb80c53","system_id":"levelo_inurba_marseille","lat":43.33023,"lon":5.39039,"is_reserved":false,"is_disabled":false,"rental_uris":{"android":"levelo://app?vid=e3c5fbbf-73cf-4f2d-b2d6-f67ffdb80c53","ios":"levelo://app?vid=e3c5fbbf-73cf-4f2d-b2d6-f67ffdb80c53"},"vehicle_type_id":"4","last_reported":1727410298,"current_range_meters":37600,"station_id":"ce4bhr92rcd13ifvqhrg","pricing_plan_id":"cebpf4jnsgd1na2vs0mg"},{"bike_id":"2311e18a-8887-48c9-9a5b-a1742844af67","system_id":"levelo_inurba_marseille","lat":43.317568,"lon":5.390176,"is_reserved":false,"is_disabled":false,"rental_uris":{"android":"levelo://app?vid=2311e18a-8887-48c9-9a5b-a1742844af67","ios":"levelo://app?vid=2311e18a-8887-48c9-9a5b-a1742844af67"},"vehicle_type_id":"4","last_reported":1727410298,"current_range_meters":38800,"station_id":"ce4bhqp2rcd13ifvqhng","pricing_plan_id":"cebpf4jnsgd1na2vs0mg"},{"bike_id":"57bc1e84-e83e-4198-85b5-3e7f9c3f0b0b","system_id":"levelo_inurba_marseille","lat":43.24167,"lon":5.36396,"is_reserved":false,"is_disabled":false,"rental_uris":{"android":"levelo://app?vid=57bc1e84-e83e-4198-85b5-3e7f9c3f0b0b","ios":"levelo://app?vid=57bc1e84-e83e-4198-85b5-3e7f9c3f0b0b"},"vehicle_type_id":"4","last_reported":1727410298,"current_range_meters":24800,"station_id":"cpo36qri1sfpv3e86is0","pricing_plan_id":"cebpf4jnsgd1na2vs0mg"},{"bike_id":"7a8458d5-44ac-4f2e-abef-3f01eb31f7ca","system_id":"levelo_inurba_marseille","lat":43.337444,"lon":5.374475,"is_reserved":false,"is_disabled":false,"rental_uris":{"android":"levelo://app?vid=7a8458d5-44ac-4f2e-abef-3f01eb31f7ca","ios":"levelo://app?vid=7a8458d5-44ac-4f2e-abef-3f01eb31f7ca"},"vehicle_type_id":"4","last_reported":1727410298,"current_range_meters":18000,"station_id":"","pricing_plan_id":"cebpf4jnsgd1na2vs0mg"},{"bike_id":"19833e16-252f-4f35-9267-dcb2bf9e8d53","system_id":"levelo_inurba_marseille","lat":43.31123,"lon":5.37757,"is_reserved":false,"is_disabled":false,"rental_uris":{"android":"levelo://app?vid=19833e16-252f-4f35-9267-dcb2bf9e8d53","ios":"levelo://app?vid=19833e16-252f-4f35-9267-dcb2bf9e8d53"},"vehicle_type_id":"4","last_reported":1727410298,"current_range_meters":38800,"station_id":"ce4bgt92rcd13ifvqcg0","pricing_plan_id":"cebpf4jnsgd1na2vs0mg"},{"bike_id":"245322ad-98ce-4a03-920e-f8861ea4255a","system_id":"levelo_inurba_marseille","lat":43.23061,"lon":5.35495,"is_reserved":false,"is_disabled":false,"rental_uris":{"android":"levelo://app?vid=245322ad-98ce-4a03-920e-f8861ea4255a","ios":"levelo://app?vid=245322ad-98ce-4a03-920e-f8861ea4255a"},"vehicle_type_id":"4","last_reported":1727410298,"current_range_meters":38000,"station_id":"cpo3342slgdg3j2ifvpg","pricing_plan_id":"cebpf4jnsgd1na2vs0mg"},{"bike_id":"bf18b00a-62c6-48e2-b8ce-f4e079228ecd","system_id":"levelo_inurba_marseille","lat":43.3048,"lon":5.37904,"is_reserved":false,"is_disabled":false,"rental_uris":{"android":"levelo://app?vid=bf18b00a-62c6-48e2-b8ce-f4e079228ecd","ios":"levelo://app?vid=bf18b00a-62c6-48e2-b8ce-f4e079228ecd"},"vehicle_type_id":"4","last_reported":1727410298,"current_range_meters":36400,"station_id":"ce4bgup2rcd13ifvqcn0","pricing_plan_id":"cebpf4jnsgd1na2vs0mg"},{"bike_id":"59bb7336-e84a-4f03-8b91-d9ff683dde39","system_id":"levelo_inurba_marseille","lat":43.30157,"lon":5.38077,"is_reserved":false,"is_disabled":false,"rental_uris":{"android":"levelo://app?vid=59bb7336-e84a-4f03-8b91-d9ff683dde39","ios":"levelo://app?vid=59bb7336-e84a-4f03-8b91-d9ff683dde39"},"vehicle_type_id":"4","last_reported":1727410298,"current_range_meters":32000,"station_id":"ce4bgjp2rcd13ifvqbh0","pricing_plan_id":"cebpf4jnsgd1na2vs0mg"},{"bike_id":"14753c26-020c-4fdf-a910-6bbc6904ea08","system_id":"levelo_inurba_marseille","lat":43.308893,"lon":5.396379,"is_reserved":false,"is_disabled":false,"rental_uris":{"android":"levelo://app?vid=14753c26-020c-4fdf-a910-6bbc6904ea08","ios":"levelo://app?vid=14753c26-020c-4fdf-a910-6bbc6904ea08"},"vehicle_type_id":"4","last_reported":1727410298,"current_range_meters":37600,"station_id":"ce4bh012rcd13ifvqcv0","pricing_plan_id":"cebpf4jnsgd1na2vs0mg"},{"bike_id":"0a4d8f7d-0721-4d62-8eee-660d53a737ff","system_id":"levelo_inurba_marseille","lat":43.29815,"lon":5.40398,"is_reserved":false,"is_disabled":false,"rental_uris":{"android":"levelo://app?vid=0a4d8f7d-0721-4d62-8eee-660d53a737ff","ios":"levelo://app?vid=0a4d8f7d-0721-4d62-8eee-660d53a737ff"},"vehicle_type_id":"4","last_reported":1727410298,"current_range_meters":38800,"station_id":"ce4bh112rcd13ifvqd90","pricing_plan_id":"cebpf4jnsgd1na2vs0mg"},{"bike_id":"5a02f46e-a7c0-45ec-a990-3cb710ef946f","system_id":"levelo_inurba_marseille","lat":43.2319,"lon":5.39976,"is_reserved":false,"is_disabled":false,"rental_uris":{"android":"levelo://app?vid=5a02f46e-a7c0-45ec-a990-3cb710ef946f","ios":"levelo://app?vid=5a02f46e-a7c0-45ec-a990-3cb710ef946f"},"vehicle_type_id":"4","last_reported":1727410298,"current_range_meters":36400,"station_id":"ce4bhn12rcd13ifvqgqg","pricing_plan_id":"cebpf4jnsgd1na2vs0mg"},{"bike_id":"e7dda3a1-01d6-44cd-a598-0858b2812c33","system_id":"levelo_inurba_marseille","lat":43.31895,"lon":5.40725,"is_reserved":false,"is_disabled":false,"rental_uris":{"android":"levelo://app?vid=e7dda3a1-01d6-44cd-a598-0858b2812c33","ios":"levelo://app?vid=e7dda3a1-01d6-44cd-a598-0858b2812c33"},"vehicle_type_id":"4","last_reported":1727410298,"current_range_meters":25200,"station_id":"ce4bhq12rcd13ifvqhig","pricing_plan_id":"cebpf4jnsgd1na2vs0mg"},{"bike_id":"dfcecf59-0ff2-4ae4-a646-4b133ae29c1f","system_id":"levelo_inurba_marseille","lat":43.24542,"lon":5.39519,"is_reserved":false,"is_disabled":false,"rental_uris":{"android":"levelo://app?vid=dfcecf59-0ff2-4ae4-a646-4b133ae29c1f","ios":"levelo://app?vid=dfcecf59-0ff2-4ae4-a646-4b133ae29c1f"},"vehicle_type_id":"4","last_reported":1727410298,"current_range_meters":27200,"station_id":"ce4bhlp2rcd13ifvqgjg","pricing_plan_id":"cebpf4jnsgd1na2vs0mg"},{"bike_id":"50d4ec58-a42a-4450-844b-4e946465e51d","system_id":"levelo_inurba_marseille","lat":43.30797,"lon":5.43524,"is_reserved":false,"is_disabled":false,"rental_uris":{"android":"levelo://app?vid=50d4ec58-a42a-4450-844b-4e946465e51d","ios":"levelo://app?vid=50d4ec58-a42a-4450-844b-4e946465e51d"},"vehicle_type_id":"4","last_reported":1727410298,"current_range_meters":38800,"station_id":"ce4bhph2rcd13ifvqheg","pricing_plan_id":"cebpf4jnsgd1na2vs0mg"},{"bike_id":"d8a7229e-3af1-41a1-a20c-ec6cc6d9368d","system_id":"levelo_inurba_marseille","lat":43.32659,"lon":5.40993,"is_reserved":false,"is_disabled":false,"rental_uris":{"android":"levelo://app?vid=d8a7229e-3af1-41a1-a20c-ec6cc6d9368d","ios":"levelo://app?vid=d8a7229e-3af1-41a1-a20c-ec6cc6d9368d"},"vehicle_type_id":"4","last_reported":1727410298,"current_range_meters":38000,"station_id":"ce4bhpp2rcd13ifvqhgg","pricing_plan_id":"cebpf4jnsgd1na2vs0mg"},{"bike_id":"90974cf1-2726-41b1-b9b7-d7601e00a449","system_id":"levelo_inurba_marseille","lat":43.27184,"lon":5.40991,"is_reserved":false,"is_disabled":false,"rental_uris":{"android":"levelo://app?vid=90974cf1-2726-41b1-b9b7-d7601e00a449","ios":"levelo://app?vid=90974cf1-2726-41b1-b9b7-d7601e00a449"},"vehicle_type_id":"4","last_reported":1727410298,"current_range_meters":38800,"station_id":"ce4bhl12rcd13ifvqgf0","pricing_plan_id":"cebpf4jnsgd1na2vs0mg"},{"bike_id":"e4be762c-40f5-4d7c-8c76-7782c3c1d654","system_id":"levelo_inurba_marseille","lat":43.31237,"lon":5.36841,"is_reserved":false,"is_disabled":false,"rental_uris":{"android":"levelo://app?vid=e4be762c-40f5-4d7c-8c76-7782c3c1d654","ios":"levelo://app?vid=e4be762c-40f5-4d7c-8c76-7782c3c1d654"},"vehicle_type_id":"4","last_reported":1727410298,"current_range_meters":39200,"station_id":"ce4bgl92rcd13ifvqbq0","pricing_plan_id":"cebpf4jnsgd1na2vs0mg"},{"bike_id":"790588e4-e173-42a4-84fc-bcca8ef506d6","system_id":"levelo_inurba_marseille","lat":43.28037,"lon":5.36954,"is_reserved":false,"is_disabled":false,"rental_uris":{"android":"levelo://app?vid=790588e4-e173-42a4-84fc-bcca8ef506d6","ios":"levelo://app?vid=790588e4-e173-42a4-84fc-bcca8ef506d6"},"vehicle_type_id":"4","last_reported":1727410298,"current_range_meters":37600,"station_id":"ce4bha12rcd13ifvqef0","pricing_plan_id":"cebpf4jnsgd1na2vs0mg"},{"bike_id":"7d0bb662-1cf1-4e8b-a94e-79c10ff51f4a","system_id":"levelo_inurba_marseille","lat":43.2841,"lon":5.34991,"is_reserved":false,"is_disabled":false,"rental_uris":{"android":"levelo://app?vid=7d0bb662-1cf1-4e8b-a94e-79c10ff51f4a","ios":"levelo://app?vid=7d0bb662-1cf1-4e8b-a94e-79c10ff51f4a"},"vehicle_type_id":"4","last_reported":1727410298,"current_range_meters":38000,"station_id":"ce4bhbh2rcd13ifvqepg","pricing_plan_id":"cebpf4jnsgd1na2vs0mg"},{"bike_id":"da0817de-de05-416f-8f7e-02f6fd7c6842","system_id":"levelo_inurba_marseille","lat":43.2963,"lon":5.40595,"is_reserved":false,"is_disabled":false,"rental_uris":{"android":"levelo://app?vid=da0817de-de05-416f-8f7e-02f6fd7c6842","ios":"levelo://app?vid=da0817de-de05-416f-8f7e-02f6fd7c6842"},"vehicle_type_id":"4","last_reported":1727410298,"current_range_meters":16000,"station_id":"ce4bh0h2rcd13ifvqd60","pricing_plan_id":"cebpf4jnsgd1na2vs0mg"},{"bike_id":"459b0338-7104-4859-be6c-d359899b1ac4","system_id":"levelo_inurba_marseille","lat":43.30326,"lon":5.40444,"is_reserved":false,"is_disabled":false,"rental_uris":{"android":"levelo://app?vid=459b0338-7104-4859-be6c-d359899b1ac4","ios":"levelo://app?vid=459b0338-7104-4859-be6c-d359899b1ac4"},"vehicle_type_id":"4","last_reported":1727410298,"current_range_meters":31200,"station_id":"ce4bh012rcd13ifvqd10","pricing_plan_id":"cebpf4jnsgd1na2vs0mg"},{"bike_id":"55c46dca-e7be-41e8-a69d-9f094ff0f9f1","system_id":"levelo_inurba_marseille","lat":43.26689,"lon":5.38266,"is_reserved":false,"is_disabled":false,"rental_uris":{"android":"levelo://app?vid=55c46dca-e7be-41e8-a69d-9f094ff0f9f1","ios":"levelo://app?vid=55c46dca-e7be-41e8-a69d-9f094ff0f9f1"},"vehicle_type_id":"4","last_reported":1727410298,"current_range_meters":36400,"station_id":"ce4bhg92rcd13ifvqf90","pricing_plan_id":"cebpf4jnsgd1na2vs0mg"},{"bike_id":"ef333548-5b42-4805-a9c0-dab49a7bfdc3","system_id":"levelo_inurba_marseille","lat":43.32481,"lon":5.36552,"is_reserved":false,"is_disabled":false,"rental_uris":{"android":"levelo://app?vid=ef333548-5b42-4805-a9c0-dab49a7bfdc3","ios":"levelo://app?vid=ef333548-5b42-4805-a9c0-dab49a7bfdc3"},"vehicle_type_id":"4","last_reported":1727410298,"current_range_meters":38800,"station_id":"ce4bhs12rcd13ifvqhvg","pricing_plan_id":"cebpf4jnsgd1na2vs0mg"},{"bike_id":"783c8a70-2c1a-4092-a5dc-19654f2dfca0","system_id":"levelo_inurba_marseille","lat":43.31171,"lon":5.38713,"is_reserved":false,"is_disabled":false,"rental_uris":{"android":"levelo://app?vid=783c8a70-2c1a-4092-a5dc-19654f2dfca0","ios":"levelo://app?vid=783c8a70-2c1a-4092-a5dc-19654f2dfca0"},"vehicle_type_id":"4","last_reported":1727410298,"current_range_meters":39200,"station_id":"ce4bgv12rcd13ifvqcp0","pricing_plan_id":"cebpf4jnsgd1na2vs0mg"},{"bike_id":"13736c8e-3417-4ac6-9aa0-267d24f106c6","system_id":"levelo_inurba_marseille","lat":43.30355,"lon":5.41878,"is_reserved":false,"is_disabled":false,"rental_uris":{"android":"levelo://app?vid=13736c8e-3417-4ac6-9aa0-267d24f106c6","ios":"levelo://app?vid=13736c8e-3417-4ac6-9aa0-267d24f106c6"},"vehicle_type_id":"4","last_reported":1727410298,"current_range_meters":26000,"station_id":"ce4bhop2rcd13ifvqh7g","pricing_plan_id":"cebpf4jnsgd1na2vs0mg"},{"bike_id":"2d99bf40-606d-448a-871e-422b17e3e725","system_id":"levelo_inurba_marseille","lat":43.30883,"lon":5.39646,"is_reserved":false,"is_disabled":false,"rental_uris":{"android":"levelo://app?vid=2d99bf40-606d-448a-871e-422b17e3e725","ios":"levelo://app?vid=2d99bf40-606d-448a-871e-422b17e3e725"},"vehicle_type_id":"4","last_reported":1727410298,"current_range_meters":25600,"station_id":"ce4bh012rcd13ifvqcv0","pricing_plan_id":"cebpf4jnsgd1na2vs0mg"},{"bike_id":"7839d94e-e4d7-4769-af14-bba2f3463149","system_id":"levelo_inurba_marseille","lat":43.29881,"lon":5.39728,"is_reserved":false,"is_disabled":false,"rental_uris":{"android":"levelo://app?vid=7839d94e-e4d7-4769-af14-bba2f3463149","ios":"levelo://app?vid=7839d94e-e4d7-4769-af14-bba2f3463149"},"vehicle_type_id":"4","last_reported":1727410298,"current_range_meters":40000,"station_id":"ce4bh0h2rcd13ifvqd50","pricing_plan_id":"cebpf4jnsgd1na2vs0mg"},{"bike_id":"a2bd189c-4c36-490e-a34a-3ec33319929c","system_id":"levelo_inurba_marseille","lat":43.28716,"lon":5.37943,"is_reserved":false,"is_disabled":false,"rental_uris":{"android":"levelo://app?vid=a2bd189c-4c36-490e-a34a-3ec33319929c","ios":"levelo://app?vid=a2bd189c-4c36-490e-a34a-3ec33319929c"},"vehicle_type_id":"4","last_reported":1727410298,"current_range_meters":38000,"station_id":"ce4bh9p2rcd13ifvqec0","pricing_plan_id":"cebpf4jnsgd1na2vs0mg"},{"bike_id":"701ef5b0-588a-437b-99c6-a00baddfc677","system_id":"levelo_inurba_marseille","lat":43.3255,"lon":5.41428,"is_reserved":false,"is_disabled":false,"rental_uris":{"android":"levelo://app?vid=701ef5b0-588a-437b-99c6-a00baddfc677","ios":"levelo://app?vid=701ef5b0-588a-437b-99c6-a00baddfc677"},"vehicle_type_id":"4","last_reported":1727410298,"current_range_meters":38800,"station_id":"ce4bhq12rcd13ifvqhhg","pricing_plan_id":"cebpf4jnsgd1na2vs0mg"},{"bike_id":"d5bbef54-0e76-4d64-bc8a-a1819238d1a7","system_id":"levelo_inurba_marseille","lat":43.2396,"lon":5.36623,"is_reserved":false,"is_disabled":false,"rental_uris":{"android":"levelo://app?vid=d5bbef54-0e76-4d64-bc8a-a1819238d1a7","ios":"levelo://app?vid=d5bbef54-0e76-4d64-bc8a-a1819238d1a7"},"vehicle_type_id":"4","last_reported":1727410298,"current_range_meters":38000,"station_id":"ce4bhi12rcd13ifvqfp0","pricing_plan_id":"cebpf4jnsgd1na2vs0mg"},{"bike_id":"0c9e6540-36ae-4593-97e9-d7ddb15108f4","system_id":"levelo_inurba_marseille","lat":43.2925,"lon":5.40906,"is_reserved":false,"is_disabled":false,"rental_uris":{"android":"levelo://app?vid=0c9e6540-36ae-4593-97e9-d7ddb15108f4","ios":"levelo://app?vid=0c9e6540-36ae-4593-97e9-d7ddb15108f4"},"vehicle_type_id":"4","last_reported":1727410298,"current_range_meters":20000,"station_id":"ce4bh192rcd13ifvqdc0","pricing_plan_id":"cebpf4jnsgd1na2vs0mg"},{"bike_id":"a713fe86-464d-418e-80a3-dc4c31660520","system_id":"levelo_inurba_marseille","lat":43.30163,"lon":5.38079,"is_reserved":false,"is_disabled":false,"rental_uris":{"android":"levelo://app?vid=a713fe86-464d-418e-80a3-dc4c31660520","ios":"levelo://app?vid=a713fe86-464d-418e-80a3-dc4c31660520"},"vehicle_type_id":"4","last_reported":1727410298,"current_range_meters":32400,"station_id":"ce4bgjp2rcd13ifvqbh0","pricing_plan_id":"cebpf4jnsgd1na2vs0mg"},{"bike_id":"e2de1e21-c5c9-4fe7-9c5c-e8f814571c9e","system_id":"levelo_inurba_marseille","lat":43.32365,"lon":5.38883,"is_reserved":false,"is_disabled":false,"rental_uris":{"android":"levelo://app?vid=e2de1e21-c5c9-4fe7-9c5c-e8f814571c9e","ios":"levelo://app?vid=e2de1e21-c5c9-4fe7-9c5c-e8f814571c9e"},"vehicle_type_id":"4","last_reported":1727410298,"current_range_meters":38800,"station_id":"ce4bhqp2rcd13ifvqhog","pricing_plan_id":"cebpf4jnsgd1na2vs0mg"},{"bike_id":"5999d788-6f9f-40f8-928b-b24eb7567b47","system_id":"levelo_inurba_marseille","lat":43.30805,"lon":5.38147,"is_reserved":false,"is_disabled":false,"rental_uris":{"android":"levelo://app?vid=5999d788-6f9f-40f8-928b-b24eb7567b47","ios":"levelo://app?vid=5999d788-6f9f-40f8-928b-b24eb7567b47"},"vehicle_type_id":"4","last_reported":1727410298,"current_range_meters":17600,"station_id":"ce4bgt12rcd13ifvqce0","pricing_plan_id":"cebpf4jnsgd1na2vs0mg"},{"bike_id":"69986219-7e86-4b5b-97c9-1c5b0a9f3476","system_id":"levelo_inurba_marseille","lat":43.28043,"lon":5.36939,"is_reserved":false,"is_disabled":false,"rental_uris":{"android":"levelo://app?vid=69986219-7e86-4b5b-97c9-1c5b0a9f3476","ios":"levelo://app?vid=69986219-7e86-4b5b-97c9-1c5b0a9f3476"},"vehicle_type_id":"4","last_reported":1727410298,"current_range_meters":24400,"station_id":"ce4bha12rcd13ifvqef0","pricing_plan_id":"cebpf4jnsgd1na2vs0mg"},{"bike_id":"11c1daf3-59cf-492f-a898-cef19b04c703","system_id":"levelo_inurba_marseille","lat":43.28561,"lon":5.39493,"is_reserved":false,"is_disabled":false,"rental_uris":{"android":"levelo://app?vid=11c1daf3-59cf-492f-a898-cef19b04c703","ios":"levelo://app?vid=11c1daf3-59cf-492f-a898-cef19b04c703"},"vehicle_type_id":"4","last_reported":1727410298,"current_range_meters":34800,"station_id":"ce4bh292rcd13ifvqdg0","pricing_plan_id":"cebpf4jnsgd1na2vs0mg"},{"bike_id":"4522e805-401d-4c28-8dc9-f95997a8e94f","system_id":"levelo_inurba_marseille","lat":43.31168,"lon":5.38713,"is_reserved":false,"is_disabled":false,"rental_uris":{"android":"levelo://app?vid=4522e805-401d-4c28-8dc9-f95997a8e94f","ios":"levelo://app?vid=4522e805-401d-4c28-8dc9-f95997a8e94f"},"vehicle_type_id":"4","last_reported":1727410298,"current_range_meters":37600,"station_id":"ce4bgv12rcd13ifvqcp0","pricing_plan_id":"cebpf4jnsgd1na2vs0mg"},{"bike_id":"9d1fad6a-2a9c-422c-a51d-1d9951515239","system_id":"levelo_inurba_marseille","lat":43.28562,"lon":5.39497,"is_reserved":false,"is_disabled":false,"rental_uris":{"android":"levelo://app?vid=9d1fad6a-2a9c-422c-a51d-1d9951515239","ios":"levelo://app?vid=9d1fad6a-2a9c-422c-a51d-1d9951515239"},"vehicle_type_id":"4","last_reported":1727410298,"current_range_meters":38800,"station_id":"ce4bh292rcd13ifvqdg0","pricing_plan_id":"cebpf4jnsgd1na2vs0mg"},{"bike_id":"61176cf3-9a8f-4cd2-9048-ae1d9683f6f8","system_id":"levelo_inurba_marseille","lat":43.24069,"lon":5.37756,"is_reserved":false,"is_disabled":false,"rental_uris":{"android":"levelo://app?vid=61176cf3-9a8f-4cd2-9048-ae1d9683f6f8","ios":"levelo://app?vid=61176cf3-9a8f-4cd2-9048-ae1d9683f6f8"},"vehicle_type_id":"4","last_reported":1727410298,"current_range_meters":35600,"station_id":"ce4bhnp2rcd13ifvqgvg","pricing_plan_id":"cebpf4jnsgd1na2vs0mg"},{"bike_id":"ff229d4e-f48e-43c1-988e-83441b7cf4be","system_id":"levelo_inurba_marseille","lat":43.31173,"lon":5.38711,"is_reserved":false,"is_disabled":false,"rental_uris":{"android":"levelo://app?vid=ff229d4e-f48e-43c1-988e-83441b7cf4be","ios":"levelo://app?vid=ff229d4e-f48e-43c1-988e-83441b7cf4be"},"vehicle_type_id":"4","last_reported":1727410298,"current_range_meters":31200,"station_id":"ce4bgv12rcd13ifvqcp0","pricing_plan_id":"cebpf4jnsgd1na2vs0mg"},{"bike_id":"a49c9dc3-d8c0-47c3-96bb-45b69d9f632a","system_id":"levelo_inurba_marseille","lat":43.31175,"lon":5.38713,"is_reserved":false,"is_disabled":false,"rental_uris":{"android":"levelo://app?vid=a49c9dc3-d8c0-47c3-96bb-45b69d9f632a","ios":"levelo://app?vid=a49c9dc3-d8c0-47c3-96bb-45b69d9f632a"},"vehicle_type_id":"4","last_reported":1727410298,"current_range_meters":38000,"station_id":"ce4bgv12rcd13ifvqcp0","pricing_plan_id":"cebpf4jnsgd1na2vs0mg"},{"bike_id":"8b8bc4ef-69bf-4b84-aa37-5bbfca53e4ac","system_id":"levelo_inurba_marseille","lat":43.3234,"lon":5.40617,"is_reserved":false,"is_disabled":false,"rental_uris":{"android":"levelo://app?vid=8b8bc4ef-69bf-4b84-aa37-5bbfca53e4ac","ios":"levelo://app?vid=8b8bc4ef-69bf-4b84-aa37-5bbfca53e4ac"},"vehicle_type_id":"4","last_reported":1727410298,"current_range_meters":39200,"station_id":"ce4bhq92rcd13ifvqhjg","pricing_plan_id":"cebpf4jnsgd1na2vs0mg"},{"bike_id":"4c576fa6-e66f-4a63-8a41-a977c4b4c2b6","system_id":"levelo_inurba_marseille","lat":43.33025,"lon":5.39043,"is_reserved":false,"is_disabled":false,"rental_uris":{"android":"levelo://app?vid=4c576fa6-e66f-4a63-8a41-a977c4b4c2b6","ios":"levelo://app?vid=4c576fa6-e66f-4a63-8a41-a977c4b4c2b6"},"vehicle_type_id":"4","last_reported":1727410298,"current_range_meters":28000,"station_id":"ce4bhr92rcd13ifvqhrg","pricing_plan_id":"cebpf4jnsgd1na2vs0mg"},{"bike_id":"775c0eac-3311-4b5d-b3dd-9831934d3a9c","system_id":"levelo_inurba_marseille","lat":43.30537,"lon":5.38423,"is_reserved":false,"is_disabled":false,"rental_uris":{"android":"levelo://app?vid=775c0eac-3311-4b5d-b3dd-9831934d3a9c","ios":"levelo://app?vid=775c0eac-3311-4b5d-b3dd-9831934d3a9c"},"vehicle_type_id":"4","last_reported":1727410298,"current_range_meters":37600,"station_id":"ce4bgg92rcd13ifvqb30","pricing_plan_id":"cebpf4jnsgd1na2vs0mg"},{"bike_id":"b6d64c9d-8e91-4c23-9491-b31c5c47973f","system_id":"levelo_inurba_marseille","lat":43.32108,"lon":5.36776,"is_reserved":false,"is_disabled":false,"rental_uris":{"android":"levelo://app?vid=b6d64c9d-8e91-4c23-9491-b31c5c47973f","ios":"levelo://app?vid=b6d64c9d-8e91-4c23-9491-b31c5c47973f"},"vehicle_type_id":"4","last_reported":1727410298,"current_range_meters":28400,"station_id":"ce4bhrh2rcd13ifvqhug","pricing_plan_id":"cebpf4jnsgd1na2vs0mg"},{"bike_id":"3a2e2f3b-dc35-4a59-a736-8c191770979e","system_id":"levelo_inurba_marseille","lat":43.25107,"lon":5.40326,"is_reserved":false,"is_disabled":false,"rental_uris":{"android":"levelo://app?vid=3a2e2f3b-dc35-4a59-a736-8c191770979e","ios":"levelo://app?vid=3a2e2f3b-dc35-4a59-a736-8c191770979e"},"vehicle_type_id":"4","last_reported":1727410298,"current_range_meters":36400,"station_id":"ce4bhlh2rcd13ifvqgig","pricing_plan_id":"cebpf4jnsgd1na2vs0mg"},{"bike_id":"57915f32-d649-40b7-b4d1-2dbe157d9f0c","system_id":"levelo_inurba_marseille","lat":43.30537,"lon":5.36545,"is_reserved":false,"is_disabled":false,"rental_uris":{"android":"levelo://app?vid=57915f32-d649-40b7-b4d1-2dbe157d9f0c","ios":"levelo://app?vid=57915f32-d649-40b7-b4d1-2dbe157d9f0c"},"vehicle_type_id":"4","last_reported":1727410298,"current_range_meters":39200,"station_id":"ce4bgs12rcd13ifvqcag","pricing_plan_id":"cebpf4jnsgd1na2vs0mg"},{"bike_id":"d5e906e1-2c02-4cbd-813f-e28a93f83005","system_id":"levelo_inurba_marseille","lat":43.3255,"lon":5.41438,"is_reserved":false,"is_disabled":false,"rental_uris":{"android":"levelo://app?vid=d5e906e1-2c02-4cbd-813f-e28a93f83005","ios":"levelo://app?vid=d5e906e1-2c02-4cbd-813f-e28a93f83005"},"vehicle_type_id":"4","last_reported":1727410298,"current_range_meters":28400,"station_id":"ce4bhq12rcd13ifvqhhg","pricing_plan_id":"cebpf4jnsgd1na2vs0mg"},{"bike_id":"05737aab-0a00-4407-9f72-b297aa08b8c4","system_id":"levelo_inurba_marseille","lat":43.30934,"lon":5.40147,"is_reserved":false,"is_disabled":false,"rental_uris":{"android":"levelo://app?vid=05737aab-0a00-4407-9f72-b297aa08b8c4","ios":"levelo://app?vid=05737aab-0a00-4407-9f72-b297aa08b8c4"},"vehicle_type_id":"4","last_reported":1727410298,"current_range_meters":30000,"station_id":"ce4bgvp2rcd13ifvqct0","pricing_plan_id":"cebpf4jnsgd1na2vs0mg"},{"bike_id":"f94b22c3-c9c2-49bf-92c5-06c4a88322e5","system_id":"levelo_inurba_marseille","lat":43.27573,"lon":5.38411,"is_reserved":false,"is_disabled":false,"rental_uris":{"android":"levelo://app?vid=f94b22c3-c9c2-49bf-92c5-06c4a88322e5","ios":"levelo://app?vid=f94b22c3-c9c2-49bf-92c5-06c4a88322e5"},"vehicle_type_id":"4","last_reported":1727410298,"current_range_meters":32000,"station_id":"ce4bhh92rcd13ifvqfi0","pricing_plan_id":"cebpf4jnsgd1na2vs0mg"},{"bike_id":"8ea19e1d-542e-4c36-8ef4-1214facb9816","system_id":"levelo_inurba_marseille","lat":43.23965,"lon":5.36627,"is_reserved":false,"is_disabled":false,"rental_uris":{"android":"levelo://app?vid=8ea19e1d-542e-4c36-8ef4-1214facb9816","ios":"levelo://app?vid=8ea19e1d-542e-4c36-8ef4-1214facb9816"},"vehicle_type_id":"4","last_reported":1727410298,"current_range_meters":37600,"station_id":"ce4bhi12rcd13ifvqfp0","pricing_plan_id":"cebpf4jnsgd1na2vs0mg"},{"bike_id":"60cf332a-73c9-4f4d-9a77-061aca019e76","system_id":"levelo_inurba_marseille","lat":43.30782,"lon":5.37648,"is_reserved":false,"is_disabled":false,"rental_uris":{"android":"levelo://app?vid=60cf332a-73c9-4f4d-9a77-061aca019e76","ios":"levelo://app?vid=60cf332a-73c9-4f4d-9a77-061aca019e76"},"vehicle_type_id":"4","last_reported":1727410298,"current_range_meters":28000,"station_id":"ce4bgv92rcd13ifvqcq0","pricing_plan_id":"cebpf4jnsgd1na2vs0mg"},{"bike_id":"ef2985a4-45df-474f-9ca1-5820caae9549","system_id":"levelo_inurba_marseille","lat":43.2811,"lon":5.37834,"is_reserved":false,"is_disabled":false,"rental_uris":{"android":"levelo://app?vid=ef2985a4-45df-474f-9ca1-5820caae9549","ios":"levelo://app?vid=ef2985a4-45df-474f-9ca1-5820caae9549"},"vehicle_type_id":"4","last_reported":1727410298,"current_range_meters":38000,"station_id":"ce4bha12rcd13ifvqee0","pricing_plan_id":"cebpf4jnsgd1na2vs0mg"},{"bike_id":"d8628fe6-939d-48d9-81f9-cf0922851ea0","system_id":"levelo_inurba_marseille","lat":43.27949,"lon":5.41041,"is_reserved":false,"is_disabled":false,"rental_uris":{"android":"levelo://app?vid=d8628fe6-939d-48d9-81f9-cf0922851ea0","ios":"levelo://app?vid=d8628fe6-939d-48d9-81f9-cf0922851ea0"},"vehicle_type_id":"4","last_reported":1727410298,"current_range_meters":17600,"station_id":"ce4bhnp2rcd13ifvqh0g","pricing_plan_id":"cebpf4jnsgd1na2vs0mg"},{"bike_id":"ed0a6e61-f285-4766-93fb-661760204361","system_id":"levelo_inurba_marseille","lat":43.32337,"lon":5.40614,"is_reserved":false,"is_disabled":false,"rental_uris":{"android":"levelo://app?vid=ed0a6e61-f285-4766-93fb-661760204361","ios":"levelo://app?vid=ed0a6e61-f285-4766-93fb-661760204361"},"vehicle_type_id":"4","last_reported":1727410298,"current_range_meters":38800,"station_id":"ce4bhq92rcd13ifvqhjg","pricing_plan_id":"cebpf4jnsgd1na2vs0mg"},{"bike_id":"f3bf7448-e739-4978-bd33-4a56cc415f41","system_id":"levelo_inurba_marseille","lat":43.37176,"lon":5.36713,"is_reserved":false,"is_disabled":false,"rental_uris":{"android":"levelo://app?vid=f3bf7448-e739-4978-bd33-4a56cc415f41","ios":"levelo://app?vid=f3bf7448-e739-4978-bd33-4a56cc415f41"},"vehicle_type_id":"4","last_reported":1727410298,"current_range_meters":24400,"station_id":"","pricing_plan_id":"cebpf4jnsgd1na2vs0mg"},{"bike_id":"f2de0a76-09a5-4897-886c-f644c5e6aef4","system_id":"levelo_inurba_marseille","lat":43.312739,"lon":5.401701,"is_reserved":false,"is_disabled":false,"rental_uris":{"android":"levelo://app?vid=f2de0a76-09a5-4897-886c-f644c5e6aef4","ios":"levelo://app?vid=f2de0a76-09a5-4897-886c-f644c5e6aef4"},"vehicle_type_id":"4","last_reported":1727410298,"current_range_meters":39200,"station_id":"ce4bh092rcd13ifvqd30","pricing_plan_id":"cebpf4jnsgd1na2vs0mg"},{"bike_id":"a0b4e1dc-b2d5-4e1d-a6e2-2b1fa04ed91c","system_id":"levelo_inurba_marseille","lat":43.28041,"lon":5.36941,"is_reserved":false,"is_disabled":false,"rental_uris":{"android":"levelo://app?vid=a0b4e1dc-b2d5-4e1d-a6e2-2b1fa04ed91c","ios":"levelo://app?vid=a0b4e1dc-b2d5-4e1d-a6e2-2b1fa04ed91c"},"vehicle_type_id":"4","last_reported":1727410298,"current_range_meters":34000,"station_id":"ce4bha12rcd13ifvqef0","pricing_plan_id":"cebpf4jnsgd1na2vs0mg"},{"bike_id":"72d84b55-dafb-479b-a105-86e3c32cdd18","system_id":"levelo_inurba_marseille","lat":43.30881,"lon":5.39637,"is_reserved":false,"is_disabled":false,"rental_uris":{"android":"levelo://app?vid=72d84b55-dafb-479b-a105-86e3c32cdd18","ios":"levelo://app?vid=72d84b55-dafb-479b-a105-86e3c32cdd18"},"vehicle_type_id":"4","last_reported":1727410298,"current_range_meters":33200,"station_id":"ce4bh012rcd13ifvqcv0","pricing_plan_id":"cebpf4jnsgd1na2vs0mg"},{"bike_id":"b8ba67d1-3f17-413f-a5c6-fc7613620f5a","system_id":"levelo_inurba_marseille","lat":43.25111,"lon":5.40327,"is_reserved":false,"is_disabled":false,"rental_uris":{"android":"levelo://app?vid=b8ba67d1-3f17-413f-a5c6-fc7613620f5a","ios":"levelo://app?vid=b8ba67d1-3f17-413f-a5c6-fc7613620f5a"},"vehicle_type_id":"4","last_reported":1727410298,"current_range_meters":38000,"station_id":"ce4bhlh2rcd13ifvqgig","pricing_plan_id":"cebpf4jnsgd1na2vs0mg"},{"bike_id":"92d9eac4-c030-4cfd-872d-ad1100a61b1d","system_id":"levelo_inurba_marseille","lat":43.31277,"lon":5.40164,"is_reserved":false,"is_disabled":false,"rental_uris":{"android":"levelo://app?vid=92d9eac4-c030-4cfd-872d-ad1100a61b1d","ios":"levelo://app?vid=92d9eac4-c030-4cfd-872d-ad1100a61b1d"},"vehicle_type_id":"4","last_reported":1727410298,"current_range_meters":35600,"station_id":"ce4bh092rcd13ifvqd30","pricing_plan_id":"cebpf4jnsgd1na2vs0mg"},{"bike_id":"17cab8b8-3f80-4673-a878-1546de11a4d1","system_id":"levelo_inurba_marseille","lat":43.30803,"lon":5.38155,"is_reserved":false,"is_disabled":false,"rental_uris":{"android":"levelo://app?vid=17cab8b8-3f80-4673-a878-1546de11a4d1","ios":"levelo://app?vid=17cab8b8-3f80-4673-a878-1546de11a4d1"},"vehicle_type_id":"4","last_reported":1727410298,"current_range_meters":32000,"station_id":"ce4bgt12rcd13ifvqce0","pricing_plan_id":"cebpf4jnsgd1na2vs0mg"},{"bike_id":"5c026a10-b58f-48af-a51f-f9bf1b76a996","system_id":"levelo_inurba_marseille","lat":43.30422,"lon":5.39754,"is_reserved":false,"is_disabled":false,"rental_uris":{"android":"levelo://app?vid=5c026a10-b58f-48af-a51f-f9bf1b76a996","ios":"levelo://app?vid=5c026a10-b58f-48af-a51f-f9bf1b76a996"},"vehicle_type_id":"4","last_reported":1727410298,"current_range_meters":38400,"station_id":"ce4bh092rcd13ifvqd20","pricing_plan_id":"cebpf4jnsgd1na2vs0mg"},{"bike_id":"70d02756-3051-4f2b-8d77-b7871dfafdd3","system_id":"levelo_inurba_marseille","lat":43.28564,"lon":5.39496,"is_reserved":false,"is_disabled":false,"rental_uris":{"android":"levelo://app?vid=70d02756-3051-4f2b-8d77-b7871dfafdd3","ios":"levelo://app?vid=70d02756-3051-4f2b-8d77-b7871dfafdd3"},"vehicle_type_id":"4","last_reported":1727410298,"current_range_meters":38800,"station_id":"ce4bh292rcd13ifvqdg0","pricing_plan_id":"cebpf4jnsgd1na2vs0mg"},{"bike_id":"d8c48252-4588-4704-86ec-4f5a0439137e","system_id":"levelo_inurba_marseille","lat":43.29558,"lon":5.42282,"is_reserved":false,"is_disabled":false,"rental_uris":{"android":"levelo://app?vid=d8c48252-4588-4704-86ec-4f5a0439137e","ios":"levelo://app?vid=d8c48252-4588-4704-86ec-4f5a0439137e"},"vehicle_type_id":"4","last_reported":1727410298,"current_range_meters":39200,"station_id":"ce4bhph2rcd13ifvqhdg","pricing_plan_id":"cebpf4jnsgd1na2vs0mg"},{"bike_id":"49d333ae-18b7-434f-a99d-4a3f637da9f5","system_id":"levelo_inurba_marseille","lat":43.28033,"lon":5.36942,"is_reserved":false,"is_disabled":false,"rental_uris":{"android":"levelo://app?vid=49d333ae-18b7-434f-a99d-4a3f637da9f5","ios":"levelo://app?vid=49d333ae-18b7-434f-a99d-4a3f637da9f5"},"vehicle_type_id":"4","last_reported":1727410298,"current_range_meters":38400,"station_id":"ce4bha12rcd13ifvqef0","pricing_plan_id":"cebpf4jnsgd1na2vs0mg"},{"bike_id":"13296a5f-860e-43e6-ad11-2dde07d8e825","system_id":"levelo_inurba_marseille","lat":43.30802,"lon":5.3815,"is_reserved":false,"is_disabled":false,"rental_uris":{"android":"levelo://app?vid=13296a5f-860e-43e6-ad11-2dde07d8e825","ios":"levelo://app?vid=13296a5f-860e-43e6-ad11-2dde07d8e825"},"vehicle_type_id":"4","last_reported":1727410298,"current_range_meters":38400,"station_id":"ce4bgt12rcd13ifvqce0","pricing_plan_id":"cebpf4jnsgd1na2vs0mg"},{"bike_id":"39fa4c55-ba59-4795-b216-bdba84781c79","system_id":"levelo_inurba_marseille","lat":43.28463,"lon":5.35882,"is_reserved":false,"is_disabled":false,"rental_uris":{"android":"levelo://app?vid=39fa4c55-ba59-4795-b216-bdba84781c79","ios":"levelo://app?vid=39fa4c55-ba59-4795-b216-bdba84781c79"},"vehicle_type_id":"4","last_reported":1727410298,"current_range_meters":38800,"station_id":"ce4bhah2rcd13ifvqei0","pricing_plan_id":"cebpf4jnsgd1na2vs0mg"},{"bike_id":"b59f21eb-eec1-4035-b55e-7017d2289d0f","system_id":"levelo_inurba_marseille","lat":43.3234,"lon":5.40622,"is_reserved":false,"is_disabled":false,"rental_uris":{"android":"levelo://app?vid=b59f21eb-eec1-4035-b55e-7017d2289d0f","ios":"levelo://app?vid=b59f21eb-eec1-4035-b55e-7017d2289d0f"},"vehicle_type_id":"4","last_reported":1727410298,"current_range_meters":20400,"station_id":"ce4bhq92rcd13ifvqhjg","pricing_plan_id":"cebpf4jnsgd1na2vs0mg"},{"bike_id":"4013b889-abc8-483c-81a6-d73bb8f5f554","system_id":"levelo_inurba_marseille","lat":43.26942,"lon":5.40251,"is_reserved":false,"is_disabled":false,"rental_uris":{"android":"levelo://app?vid=4013b889-abc8-483c-81a6-d73bb8f5f554","ios":"levelo://app?vid=4013b889-abc8-483c-81a6-d73bb8f5f554"},"vehicle_type_id":"4","last_reported":1727410298,"current_range_meters":38800,"station_id":"cjm6bp8fraef2m0cb0m0","pricing_plan_id":"cebpf4jnsgd1na2vs0mg"},{"bike_id":"70acd5c0-9696-40e2-886a-cd10e0aba86d","system_id":"levelo_inurba_marseille","lat":43.25873,"lon":5.39895,"is_reserved":false,"is_disabled":false,"rental_uris":{"android":"levelo://app?vid=70acd5c0-9696-40e2-886a-cd10e0aba86d","ios":"levelo://app?vid=70acd5c0-9696-40e2-886a-cd10e0aba86d"},"vehicle_type_id":"4","last_reported":1727410298,"current_range_meters":39200,"station_id":"ce4bhl92rcd13ifvqghg","pricing_plan_id":"cebpf4jnsgd1na2vs0mg"},{"bike_id":"2e14fe77-65f6-4745-80b9-d23320e16150","system_id":"levelo_inurba_marseille","lat":43.28484,"lon":5.3841,"is_reserved":false,"is_disabled":false,"rental_uris":{"android":"levelo://app?vid=2e14fe77-65f6-4745-80b9-d23320e16150","ios":"levelo://app?vid=2e14fe77-65f6-4745-80b9-d23320e16150"},"vehicle_type_id":"4","last_reported":1727410298,"current_range_meters":34000,"station_id":"ce4bh512rcd13ifvqe3g","pricing_plan_id":"cebpf4jnsgd1na2vs0mg"},{"bike_id":"4815afab-f1b4-4152-90e3-b9fc5c00bd49","system_id":"levelo_inurba_marseille","lat":43.25002,"lon":5.38914,"is_reserved":false,"is_disabled":false,"rental_uris":{"android":"levelo://app?vid=4815afab-f1b4-4152-90e3-b9fc5c00bd49","ios":"levelo://app?vid=4815afab-f1b4-4152-90e3-b9fc5c00bd49"},"vehicle_type_id":"4","last_reported":1727410298,"current_range_meters":37600,"station_id":"ce4bhgp2rcd13ifvqfd0","pricing_plan_id":"cebpf4jnsgd1na2vs0mg"},{"bike_id":"2a35124c-e4ce-4d4a-b2cc-80e6befd99f9","system_id":"levelo_inurba_marseille","lat":43.30933,"lon":5.40143,"is_reserved":false,"is_disabled":false,"rental_uris":{"android":"levelo://app?vid=2a35124c-e4ce-4d4a-b2cc-80e6befd99f9","ios":"levelo://app?vid=2a35124c-e4ce-4d4a-b2cc-80e6befd99f9"},"vehicle_type_id":"4","last_reported":1727410298,"current_range_meters":38800,"station_id":"ce4bgvp2rcd13ifvqct0","pricing_plan_id":"cebpf4jnsgd1na2vs0mg"},{"bike_id":"162e208c-ae02-4251-9a3c-d8da2b6d5826","system_id":"levelo_inurba_marseille","lat":43.28154,"lon":5.42642,"is_reserved":false,"is_disabled":false,"rental_uris":{"android":"levelo://app?vid=162e208c-ae02-4251-9a3c-d8da2b6d5826","ios":"levelo://app?vid=162e208c-ae02-4251-9a3c-d8da2b6d5826"},"vehicle_type_id":"4","last_reported":1727410298,"current_range_meters":29600,"station_id":"ce4bhnh2rcd13ifvqgug","pricing_plan_id":"cebpf4jnsgd1na2vs0mg"},{"bike_id":"a051b9ab-2421-48f5-87d8-ad6c6aeb57fe","system_id":"levelo_inurba_marseille","lat":43.2808,"lon":5.39649,"is_reserved":false,"is_disabled":false,"rental_uris":{"android":"levelo://app?vid=a051b9ab-2421-48f5-87d8-ad6c6aeb57fe","ios":"levelo://app?vid=a051b9ab-2421-48f5-87d8-ad6c6aeb57fe"},"vehicle_type_id":"4","last_reported":1727410298,"current_range_meters":10800,"station_id":"ce4bho12rcd13ifvqh2g","pricing_plan_id":"cebpf4jnsgd1na2vs0mg"},{"bike_id":"3dabe597-7bed-42ce-b402-93f36374a299","system_id":"levelo_inurba_marseille","lat":43.336056,"lon":5.410284,"is_reserved":false,"is_disabled":false,"rental_uris":{"android":"levelo://app?vid=3dabe597-7bed-42ce-b402-93f36374a299","ios":"levelo://app?vid=3dabe597-7bed-42ce-b402-93f36374a299"},"vehicle_type_id":"4","last_reported":1727410298,"current_range_meters":27200,"station_id":"ce4bhqh2rcd13ifvqhmg","pricing_plan_id":"cebpf4jnsgd1na2vs0mg"},{"bike_id":"541a4a59-99e0-42c1-b504-81c96b865c38","system_id":"levelo_inurba_marseille","lat":43.30899,"lon":5.37186,"is_reserved":false,"is_disabled":false,"rental_uris":{"android":"levelo://app?vid=541a4a59-99e0-42c1-b504-81c96b865c38","ios":"levelo://app?vid=541a4a59-99e0-42c1-b504-81c96b865c38"},"vehicle_type_id":"4","last_reported":1727410298,"current_range_meters":38000,"station_id":"ce4bguh2rcd13ifvqckg","pricing_plan_id":"cebpf4jnsgd1na2vs0mg"},{"bike_id":"d4c76aee-094b-4e67-93eb-876e3e7161ba","system_id":"levelo_inurba_marseille","lat":43.22933,"lon":5.35368,"is_reserved":false,"is_disabled":false,"rental_uris":{"android":"levelo://app?vid=d4c76aee-094b-4e67-93eb-876e3e7161ba","ios":"levelo://app?vid=d4c76aee-094b-4e67-93eb-876e3e7161ba"},"vehicle_type_id":"4","last_reported":1727410298,"current_range_meters":12800,"station_id":"cpo3532slgdg3j2ikp40","pricing_plan_id":"cebpf4jnsgd1na2vs0mg"},{"bike_id":"9a006b44-c626-455d-be5a-513b7103d566","system_id":"levelo_inurba_marseille","lat":43.32361,"lon":5.38891,"is_reserved":false,"is_disabled":false,"rental_uris":{"android":"levelo://app?vid=9a006b44-c626-455d-be5a-513b7103d566","ios":"levelo://app?vid=9a006b44-c626-455d-be5a-513b7103d566"},"vehicle_type_id":"4","last_reported":1727410298,"current_range_meters":36400,"station_id":"ce4bhqp2rcd13ifvqhog","pricing_plan_id":"cebpf4jnsgd1na2vs0mg"},{"bike_id":"0373985d-9fa1-4c1c-8392-a09793b01dbe","system_id":"levelo_inurba_marseille","lat":43.31999,"lon":5.38156,"is_reserved":false,"is_disabled":false,"rental_uris":{"android":"levelo://app?vid=0373985d-9fa1-4c1c-8392-a09793b01dbe","ios":"levelo://app?vid=0373985d-9fa1-4c1c-8392-a09793b01dbe"},"vehicle_type_id":"4","last_reported":1727410298,"current_range_meters":27600,"station_id":"ce4bhr12rcd13ifvqhpg","pricing_plan_id":"cebpf4jnsgd1na2vs0mg"},{"bike_id":"84370e09-0017-4c8b-9c58-8c7e88a8d174","system_id":"levelo_inurba_marseille","lat":43.30942,"lon":5.4014,"is_reserved":false,"is_disabled":false,"rental_uris":{"android":"levelo://app?vid=84370e09-0017-4c8b-9c58-8c7e88a8d174","ios":"levelo://app?vid=84370e09-0017-4c8b-9c58-8c7e88a8d174"},"vehicle_type_id":"4","last_reported":1727410298,"current_range_meters":39200,"station_id":"ce4bgvp2rcd13ifvqct0","pricing_plan_id":"cebpf4jnsgd1na2vs0mg"},{"bike_id":"e1c1bcc1-ffcd-46c8-8fcf-522c6f5c6799","system_id":"levelo_inurba_marseille","lat":43.28152,"lon":5.42654,"is_reserved":false,"is_disabled":false,"rental_uris":{"android":"levelo://app?vid=e1c1bcc1-ffcd-46c8-8fcf-522c6f5c6799","ios":"levelo://app?vid=e1c1bcc1-ffcd-46c8-8fcf-522c6f5c6799"},"vehicle_type_id":"4","last_reported":1727410298,"current_range_meters":26800,"station_id":"ce4bhnh2rcd13ifvqgug","pricing_plan_id":"cebpf4jnsgd1na2vs0mg"},{"bike_id":"3e0789ab-30e4-4d0b-a878-e2c892fc6058","system_id":"levelo_inurba_marseille","lat":43.28574,"lon":5.39492,"is_reserved":false,"is_disabled":false,"rental_uris":{"android":"levelo://app?vid=3e0789ab-30e4-4d0b-a878-e2c892fc6058","ios":"levelo://app?vid=3e0789ab-30e4-4d0b-a878-e2c892fc6058"},"vehicle_type_id":"4","last_reported":1727410298,"current_range_meters":38800,"station_id":"ce4bh292rcd13ifvqdg0","pricing_plan_id":"cebpf4jnsgd1na2vs0mg"},{"bike_id":"36e30be6-35c9-466d-a52a-abe29b1b54dc","system_id":"levelo_inurba_marseille","lat":43.28607,"lon":5.37059,"is_reserved":false,"is_disabled":false,"rental_uris":{"android":"levelo://app?vid=36e30be6-35c9-466d-a52a-abe29b1b54dc","ios":"levelo://app?vid=36e30be6-35c9-466d-a52a-abe29b1b54dc"},"vehicle_type_id":"4","last_reported":1727410298,"current_range_meters":38800,"station_id":"ce4bht12rcd13ifvqi60","pricing_plan_id":"cebpf4jnsgd1na2vs0mg"},{"bike_id":"66bf8fe1-6f01-40d9-949b-7568234a9990","system_id":"levelo_inurba_marseille","lat":43.310754,"lon":5.383581,"is_reserved":false,"is_disabled":false,"rental_uris":{"android":"levelo://app?vid=66bf8fe1-6f01-40d9-949b-7568234a9990","ios":"levelo://app?vid=66bf8fe1-6f01-40d9-949b-7568234a9990"},"vehicle_type_id":"4","last_reported":1727410298,"current_range_meters":32400,"station_id":"ce4bgv92rcd13ifvqcr0","pricing_plan_id":"cebpf4jnsgd1na2vs0mg"},{"bike_id":"4e27f6c2-bcc0-4ee3-b845-22eb99b8f139","system_id":"levelo_inurba_marseille","lat":43.28725,"lon":5.36088,"is_reserved":false,"is_disabled":false,"rental_uris":{"android":"levelo://app?vid=4e27f6c2-bcc0-4ee3-b845-22eb99b8f139","ios":"levelo://app?vid=4e27f6c2-bcc0-4ee3-b845-22eb99b8f139"},"vehicle_type_id":"4","last_reported":1727410298,"current_range_meters":38800,"station_id":"cki0cbj6b192h4jlfktg","pricing_plan_id":"cebpf4jnsgd1na2vs0mg"},{"bike_id":"400094b1-46e6-4f2a-aa5a-b06392acb64a","system_id":"levelo_inurba_marseille","lat":43.30939,"lon":5.40147,"is_reserved":false,"is_disabled":false,"rental_uris":{"android":"levelo://app?vid=400094b1-46e6-4f2a-aa5a-b06392acb64a","ios":"levelo://app?vid=400094b1-46e6-4f2a-aa5a-b06392acb64a"},"vehicle_type_id":"4","last_reported":1727410298,"current_range_meters":10800,"station_id":"ce4bgvp2rcd13ifvqct0","pricing_plan_id":"cebpf4jnsgd1na2vs0mg"},{"bike_id":"aacab401-bb23-4a56-9d36-8c450f561c55","system_id":"levelo_inurba_marseille","lat":43.306408,"lon":5.400756,"is_reserved":false,"is_disabled":false,"rental_uris":{"android":"levelo://app?vid=aacab401-bb23-4a56-9d36-8c450f561c55","ios":"levelo://app?vid=aacab401-bb23-4a56-9d36-8c450f561c55"},"vehicle_type_id":"4","last_reported":1727410298,"current_range_meters":26000,"station_id":"ce4bh112rcd13ifvqda0","pricing_plan_id":"cebpf4jnsgd1na2vs0mg"},{"bike_id":"6b8b40ce-6921-4086-af9f-7259f07185b4","system_id":"levelo_inurba_marseille","lat":43.28738,"lon":5.36076,"is_reserved":false,"is_disabled":false,"rental_uris":{"android":"levelo://app?vid=6b8b40ce-6921-4086-af9f-7259f07185b4","ios":"levelo://app?vid=6b8b40ce-6921-4086-af9f-7259f07185b4"},"vehicle_type_id":"4","last_reported":1727410298,"current_range_meters":38800,"station_id":"cki0cbj6b192h4jlfktg","pricing_plan_id":"cebpf4jnsgd1na2vs0mg"},{"bike_id":"12bb2fa0-def4-44f9-9009-061dd94ed221","system_id":"levelo_inurba_marseille","lat":43.24165,"lon":5.36391,"is_reserved":false,"is_disabled":false,"rental_uris":{"android":"levelo://app?vid=12bb2fa0-def4-44f9-9009-061dd94ed221","ios":"levelo://app?vid=12bb2fa0-def4-44f9-9009-061dd94ed221"},"vehicle_type_id":"4","last_reported":1727410298,"current_range_meters":4400,"station_id":"cpo36qri1sfpv3e86is0","pricing_plan_id":"cebpf4jnsgd1na2vs0mg"},{"bike_id":"6e6f34c2-db7f-499b-823d-d3a6208d6464","system_id":"levelo_inurba_marseille","lat":43.24072,"lon":5.37756,"is_reserved":false,"is_disabled":false,"rental_uris":{"android":"levelo://app?vid=6e6f34c2-db7f-499b-823d-d3a6208d6464","ios":"levelo://app?vid=6e6f34c2-db7f-499b-823d-d3a6208d6464"},"vehicle_type_id":"4","last_reported":1727410298,"current_range_meters":34000,"station_id":"ce4bhnp2rcd13ifvqgvg","pricing_plan_id":"cebpf4jnsgd1na2vs0mg"},{"bike_id":"caac2220-f204-42a6-8944-b690878e20a4","system_id":"levelo_inurba_marseille","lat":43.26198,"lon":5.37919,"is_reserved":false,"is_disabled":false,"rental_uris":{"android":"levelo://app?vid=caac2220-f204-42a6-8944-b690878e20a4","ios":"levelo://app?vid=caac2220-f204-42a6-8944-b690878e20a4"},"vehicle_type_id":"4","last_reported":1727410298,"current_range_meters":28400,"station_id":"ce4bhjp2rcd13ifvqg90","pricing_plan_id":"cebpf4jnsgd1na2vs0mg"},{"bike_id":"482d2ccb-541e-4986-9b9e-ad76907d837e","system_id":"levelo_inurba_marseille","lat":43.30929,"lon":5.40153,"is_reserved":false,"is_disabled":false,"rental_uris":{"android":"levelo://app?vid=482d2ccb-541e-4986-9b9e-ad76907d837e","ios":"levelo://app?vid=482d2ccb-541e-4986-9b9e-ad76907d837e"},"vehicle_type_id":"4","last_reported":1727410298,"current_range_meters":23200,"station_id":"ce4bgvp2rcd13ifvqct0","pricing_plan_id":"cebpf4jnsgd1na2vs0mg"},{"bike_id":"8e36ab4e-29b6-4092-95d4-4d2b155b10cf","system_id":"levelo_inurba_marseille","lat":43.2407,"lon":5.37763,"is_reserved":false,"is_disabled":false,"rental_uris":{"android":"levelo://app?vid=8e36ab4e-29b6-4092-95d4-4d2b155b10cf","ios":"levelo://app?vid=8e36ab4e-29b6-4092-95d4-4d2b155b10cf"},"vehicle_type_id":"4","last_reported":1727410298,"current_range_meters":30800,"station_id":"ce4bhnp2rcd13ifvqgvg","pricing_plan_id":"cebpf4jnsgd1na2vs0mg"},{"bike_id":"1963a3a8-a24d-4561-9cd5-81c47c89ed6f","system_id":"levelo_inurba_marseille","lat":43.30938,"lon":5.4015,"is_reserved":false,"is_disabled":false,"rental_uris":{"android":"levelo://app?vid=1963a3a8-a24d-4561-9cd5-81c47c89ed6f","ios":"levelo://app?vid=1963a3a8-a24d-4561-9cd5-81c47c89ed6f"},"vehicle_type_id":"4","last_reported":1727410298,"current_range_meters":38800,"station_id":"ce4bgvp2rcd13ifvqct0","pricing_plan_id":"cebpf4jnsgd1na2vs0mg"},{"bike_id":"aacd2e49-5b5b-43df-bd07-231a2928004d","system_id":"levelo_inurba_marseille","lat":43.28467,"lon":5.35883,"is_reserved":false,"is_disabled":false,"rental_uris":{"android":"levelo://app?vid=aacd2e49-5b5b-43df-bd07-231a2928004d","ios":"levelo://app?vid=aacd2e49-5b5b-43df-bd07-231a2928004d"},"vehicle_type_id":"4","last_reported":1727410298,"current_range_meters":28400,"station_id":"ce4bhah2rcd13ifvqei0","pricing_plan_id":"cebpf4jnsgd1na2vs0mg"},{"bike_id":"bb588564-dab1-4c0a-ad29-4d02672f8132","system_id":"levelo_inurba_marseille","lat":43.28457,"lon":5.35883,"is_reserved":false,"is_disabled":false,"rental_uris":{"android":"levelo://app?vid=bb588564-dab1-4c0a-ad29-4d02672f8132","ios":"levelo://app?vid=bb588564-dab1-4c0a-ad29-4d02672f8132"},"vehicle_type_id":"4","last_reported":1727410298,"current_range_meters":12400,"station_id":"ce4bhah2rcd13ifvqei0","pricing_plan_id":"cebpf4jnsgd1na2vs0mg"},{"bike_id":"6638bfbc-e341-409c-94ed-cb6318eaee99","system_id":"levelo_inurba_marseille","lat":43.27203,"lon":5.4099,"is_reserved":false,"is_disabled":false,"rental_uris":{"android":"levelo://app?vid=6638bfbc-e341-409c-94ed-cb6318eaee99","ios":"levelo://app?vid=6638bfbc-e341-409c-94ed-cb6318eaee99"},"vehicle_type_id":"4","last_reported":1727410298,"current_range_meters":7200,"station_id":"ce4bhl12rcd13ifvqgf0","pricing_plan_id":"cebpf4jnsgd1na2vs0mg"},{"bike_id":"a0330d7d-3ee3-4778-9fe7-6a9767b2a352","system_id":"levelo_inurba_marseille","lat":43.23195,"lon":5.3555,"is_reserved":false,"is_disabled":false,"rental_uris":{"android":"levelo://app?vid=a0330d7d-3ee3-4778-9fe7-6a9767b2a352","ios":"levelo://app?vid=a0330d7d-3ee3-4778-9fe7-6a9767b2a352"},"vehicle_type_id":"4","last_reported":1727410298,"current_range_meters":30000,"station_id":"ce4bhu92rcd13ifvqi70","pricing_plan_id":"cebpf4jnsgd1na2vs0mg"},{"bike_id":"d1ca93f5-e17a-4445-81c4-28cff907aacd","system_id":"levelo_inurba_marseille","lat":43.29292,"lon":5.37462,"is_reserved":false,"is_disabled":false,"rental_uris":{"android":"levelo://app?vid=d1ca93f5-e17a-4445-81c4-28cff907aacd","ios":"levelo://app?vid=d1ca93f5-e17a-4445-81c4-28cff907aacd"},"vehicle_type_id":"4","last_reported":1727410298,"current_range_meters":20000,"station_id":"ce4bgi12rcd13ifvqb70","pricing_plan_id":"cebpf4jnsgd1na2vs0mg"},{"bike_id":"75c8af22-8779-49ff-8714-fa31093de02c","system_id":"levelo_inurba_marseille","lat":43.30938,"lon":5.40143,"is_reserved":false,"is_disabled":false,"rental_uris":{"android":"levelo://app?vid=75c8af22-8779-49ff-8714-fa31093de02c","ios":"levelo://app?vid=75c8af22-8779-49ff-8714-fa31093de02c"},"vehicle_type_id":"4","last_reported":1727410298,"current_range_meters":12000,"station_id":"ce4bgvp2rcd13ifvqct0","pricing_plan_id":"cebpf4jnsgd1na2vs0mg"},{"bike_id":"637beff3-55bd-4f15-99c0-4cb53d5dddb9","system_id":"levelo_inurba_marseille","lat":43.30641,"lon":5.39527,"is_reserved":false,"is_disabled":false,"rental_uris":{"android":"levelo://app?vid=637beff3-55bd-4f15-99c0-4cb53d5dddb9","ios":"levelo://app?vid=637beff3-55bd-4f15-99c0-4cb53d5dddb9"},"vehicle_type_id":"4","last_reported":1727410298,"current_range_meters":34000,"station_id":"","pricing_plan_id":"cebpf4jnsgd1na2vs0mg"},{"bike_id":"e8949d58-0bff-48ab-931d-0c63ea5ef090","system_id":"levelo_inurba_marseille","lat":43.28703,"lon":5.39978,"is_reserved":false,"is_disabled":false,"rental_uris":{"android":"levelo://app?vid=e8949d58-0bff-48ab-931d-0c63ea5ef090","ios":"levelo://app?vid=e8949d58-0bff-48ab-931d-0c63ea5ef090"},"vehicle_type_id":"4","last_reported":1727410298,"current_range_meters":38000,"station_id":"ce4bho92rcd13ifvqh3g","pricing_plan_id":"cebpf4jnsgd1na2vs0mg"},{"bike_id":"166d3025-903c-4128-9393-b436a9d6906e","system_id":"levelo_inurba_marseille","lat":43.28465,"lon":5.35887,"is_reserved":false,"is_disabled":false,"rental_uris":{"android":"levelo://app?vid=166d3025-903c-4128-9393-b436a9d6906e","ios":"levelo://app?vid=166d3025-903c-4128-9393-b436a9d6906e"},"vehicle_type_id":"4","last_reported":1727410298,"current_range_meters":38000,"station_id":"ce4bhah2rcd13ifvqei0","pricing_plan_id":"cebpf4jnsgd1na2vs0mg"},{"bike_id":"2033226c-ad5e-4558-a007-08be72b3c458","system_id":"levelo_inurba_marseille","lat":43.31996,"lon":5.38149,"is_reserved":false,"is_disabled":false,"rental_uris":{"android":"levelo://app?vid=2033226c-ad5e-4558-a007-08be72b3c458","ios":"levelo://app?vid=2033226c-ad5e-4558-a007-08be72b3c458"},"vehicle_type_id":"4","last_reported":1727410298,"current_range_meters":23200,"station_id":"ce4bhr12rcd13ifvqhpg","pricing_plan_id":"cebpf4jnsgd1na2vs0mg"},{"bike_id":"f2199e93-ecc3-4f96-9bb9-59d6bd578095","system_id":"levelo_inurba_marseille","lat":43.31535,"lon":5.38022,"is_reserved":false,"is_disabled":false,"rental_uris":{"android":"levelo://app?vid=f2199e93-ecc3-4f96-9bb9-59d6bd578095","ios":"levelo://app?vid=f2199e93-ecc3-4f96-9bb9-59d6bd578095"},"vehicle_type_id":"4","last_reported":1727410298,"current_range_meters":26800,"station_id":"ce4bhsp2rcd13ifvqi50","pricing_plan_id":"cebpf4jnsgd1na2vs0mg"},{"bike_id":"da507a6b-3f44-4de2-942e-472233ae5b36","system_id":"levelo_inurba_marseille","lat":43.30937,"lon":5.4014,"is_reserved":false,"is_disabled":false,"rental_uris":{"android":"levelo://app?vid=da507a6b-3f44-4de2-942e-472233ae5b36","ios":"levelo://app?vid=da507a6b-3f44-4de2-942e-472233ae5b36"},"vehicle_type_id":"4","last_reported":1727410298,"current_range_meters":30400,"station_id":"ce4bgvp2rcd13ifvqct0","pricing_plan_id":"cebpf4jnsgd1na2vs0mg"},{"bike_id":"b7094c72-0569-4afb-a108-831d410575b0","system_id":"levelo_inurba_marseille","lat":43.25581,"lon":5.38238,"is_reserved":false,"is_disabled":false,"rental_uris":{"android":"levelo://app?vid=b7094c72-0569-4afb-a108-831d410575b0","ios":"levelo://app?vid=b7094c72-0569-4afb-a108-831d410575b0"},"vehicle_type_id":"4","last_reported":1727410298,"current_range_meters":38800,"station_id":"ce4bhih2rcd13ifvqfs0","pricing_plan_id":"cebpf4jnsgd1na2vs0mg"},{"bike_id":"f68fdee1-6d37-48e5-8804-7068839bcaf8","system_id":"levelo_inurba_marseille","lat":43.29883,"lon":5.38906,"is_reserved":false,"is_disabled":false,"rental_uris":{"android":"levelo://app?vid=f68fdee1-6d37-48e5-8804-7068839bcaf8","ios":"levelo://app?vid=f68fdee1-6d37-48e5-8804-7068839bcaf8"},"vehicle_type_id":"4","last_reported":1727410298,"current_range_meters":26000,"station_id":"ce4bh392rcd13ifvqdl0","pricing_plan_id":"cebpf4jnsgd1na2vs0mg"},{"bike_id":"2d7a9fb7-df81-4f65-9229-4f5ebff4a082","system_id":"levelo_inurba_marseille","lat":43.2956,"lon":5.42282,"is_reserved":false,"is_disabled":false,"rental_uris":{"android":"levelo://app?vid=2d7a9fb7-df81-4f65-9229-4f5ebff4a082","ios":"levelo://app?vid=2d7a9fb7-df81-4f65-9229-4f5ebff4a082"},"vehicle_type_id":"4","last_reported":1727410298,"current_range_meters":33200,"station_id":"ce4bhph2rcd13ifvqhdg","pricing_plan_id":"cebpf4jnsgd1na2vs0mg"},{"bike_id":"984b95b6-511c-43ed-8806-c261819971e0","system_id":"levelo_inurba_marseille","lat":43.31539,"lon":5.38029,"is_reserved":false,"is_disabled":false,"rental_uris":{"android":"levelo://app?vid=984b95b6-511c-43ed-8806-c261819971e0","ios":"levelo://app?vid=984b95b6-511c-43ed-8806-c261819971e0"},"vehicle_type_id":"4","last_reported":1727410298,"current_range_meters":28400,"station_id":"ce4bhsp2rcd13ifvqi50","pricing_plan_id":"cebpf4jnsgd1na2vs0mg"},{"bike_id":"f8afe1ec-1f03-4994-ab43-dd5d1105188b","system_id":"levelo_inurba_marseille","lat":43.31329,"lon":5.39692,"is_reserved":false,"is_disabled":false,"rental_uris":{"android":"levelo://app?vid=f8afe1ec-1f03-4994-ab43-dd5d1105188b","ios":"levelo://app?vid=f8afe1ec-1f03-4994-ab43-dd5d1105188b"},"vehicle_type_id":"4","last_reported":1727410298,"current_range_meters":36000,"station_id":"ce4bgvp2rcd13ifvqcu0","pricing_plan_id":"cebpf4jnsgd1na2vs0mg"},{"bike_id":"64aac6b4-fb33-4a0b-97f0-cc4daff179f4","system_id":"levelo_inurba_marseille","lat":43.2512,"lon":5.40319,"is_reserved":false,"is_disabled":false,"rental_uris":{"android":"levelo://app?vid=64aac6b4-fb33-4a0b-97f0-cc4daff179f4","ios":"levelo://app?vid=64aac6b4-fb33-4a0b-97f0-cc4daff179f4"},"vehicle_type_id":"4","last_reported":1727410298,"current_range_meters":40000,"station_id":"ce4bhlh2rcd13ifvqgig","pricing_plan_id":"cebpf4jnsgd1na2vs0mg"},{"bike_id":"1b4b0178-3a24-4b33-98ef-05aef8dad5fc","system_id":"levelo_inurba_marseille","lat":43.26206,"lon":5.37924,"is_reserved":false,"is_disabled":false,"rental_uris":{"android":"levelo://app?vid=1b4b0178-3a24-4b33-98ef-05aef8dad5fc","ios":"levelo://app?vid=1b4b0178-3a24-4b33-98ef-05aef8dad5fc"},"vehicle_type_id":"4","last_reported":1727410298,"current_range_meters":37600,"station_id":"ce4bhjp2rcd13ifvqg90","pricing_plan_id":"cebpf4jnsgd1na2vs0mg"},{"bike_id":"0f48ced1-9186-439b-9a99-e80ddc1c49fd","system_id":"levelo_inurba_marseille","lat":43.28711,"lon":5.39981,"is_reserved":false,"is_disabled":false,"rental_uris":{"android":"levelo://app?vid=0f48ced1-9186-439b-9a99-e80ddc1c49fd","ios":"levelo://app?vid=0f48ced1-9186-439b-9a99-e80ddc1c49fd"},"vehicle_type_id":"4","last_reported":1727410298,"current_range_meters":38800,"station_id":"ce4bho92rcd13ifvqh3g","pricing_plan_id":"cebpf4jnsgd1na2vs0mg"},{"bike_id":"c4369d43-30b2-4123-9826-133efd92718c","system_id":"levelo_inurba_marseille","lat":43.24681,"lon":5.38157,"is_reserved":false,"is_disabled":false,"rental_uris":{"android":"levelo://app?vid=c4369d43-30b2-4123-9826-133efd92718c","ios":"levelo://app?vid=c4369d43-30b2-4123-9826-133efd92718c"},"vehicle_type_id":"4","last_reported":1727410298,"current_range_meters":27200,"station_id":"ce4bhih2rcd13ifvqfr0","pricing_plan_id":"cebpf4jnsgd1na2vs0mg"},{"bike_id":"727f7c55-cc64-4dd0-9bf8-a54efc17b591","system_id":"levelo_inurba_marseille","lat":43.30649,"lon":5.401,"is_reserved":false,"is_disabled":false,"rental_uris":{"android":"levelo://app?vid=727f7c55-cc64-4dd0-9bf8-a54efc17b591","ios":"levelo://app?vid=727f7c55-cc64-4dd0-9bf8-a54efc17b591"},"vehicle_type_id":"4","last_reported":1727410298,"current_range_meters":38800,"station_id":"ce4bh112rcd13ifvqda0","pricing_plan_id":"cebpf4jnsgd1na2vs0mg"},{"bike_id":"8d052a58-781c-4351-a526-488cc661d810","system_id":"levelo_inurba_marseille","lat":43.31536,"lon":5.38013,"is_reserved":false,"is_disabled":false,"rental_uris":{"android":"levelo://app?vid=8d052a58-781c-4351-a526-488cc661d810","ios":"levelo://app?vid=8d052a58-781c-4351-a526-488cc661d810"},"vehicle_type_id":"4","last_reported":1727410298,"current_range_meters":20000,"station_id":"ce4bhsp2rcd13ifvqi50","pricing_plan_id":"cebpf4jnsgd1na2vs0mg"},{"bike_id":"6e0f2d61-9c02-48ac-aaa4-8beb8507aeed","system_id":"levelo_inurba_marseille","lat":43.29319,"lon":5.3745,"is_reserved":false,"is_disabled":false,"rental_uris":{"android":"levelo://app?vid=6e0f2d61-9c02-48ac-aaa4-8beb8507aeed","ios":"levelo://app?vid=6e0f2d61-9c02-48ac-aaa4-8beb8507aeed"},"vehicle_type_id":"4","last_reported":1727410298,"current_range_meters":38800,"station_id":"ce4bgi12rcd13ifvqb70","pricing_plan_id":"cebpf4jnsgd1na2vs0mg"},{"bike_id":"639cbe02-4a7a-4ce0-866a-8ea63f463e1a","system_id":"levelo_inurba_marseille","lat":43.30467,"lon":5.379,"is_reserved":false,"is_disabled":false,"rental_uris":{"android":"levelo://app?vid=639cbe02-4a7a-4ce0-866a-8ea63f463e1a","ios":"levelo://app?vid=639cbe02-4a7a-4ce0-866a-8ea63f463e1a"},"vehicle_type_id":"4","last_reported":1727410298,"current_range_meters":24800,"station_id":"ce4bgup2rcd13ifvqcn0","pricing_plan_id":"cebpf4jnsgd1na2vs0mg"},{"bike_id":"303bc237-67af-41c9-af29-05f39f506a1f","system_id":"levelo_inurba_marseille","lat":43.28037,"lon":5.36942,"is_reserved":false,"is_disabled":false,"rental_uris":{"android":"levelo://app?vid=303bc237-67af-41c9-af29-05f39f506a1f","ios":"levelo://app?vid=303bc237-67af-41c9-af29-05f39f506a1f"},"vehicle_type_id":"4","last_reported":1727410298,"current_range_meters":38800,"station_id":"ce4bha12rcd13ifvqef0","pricing_plan_id":"cebpf4jnsgd1na2vs0mg"},{"bike_id":"ac2cd686-e284-4f6b-862c-60442a859b6c","system_id":"levelo_inurba_marseille","lat":43.30958,"lon":5.39045,"is_reserved":false,"is_disabled":false,"rental_uris":{"android":"levelo://app?vid=ac2cd686-e284-4f6b-862c-60442a859b6c","ios":"levelo://app?vid=ac2cd686-e284-4f6b-862c-60442a859b6c"},"vehicle_type_id":"4","last_reported":1727410298,"current_range_meters":6800,"station_id":"ce4bgup2rcd13ifvqco0","pricing_plan_id":"cebpf4jnsgd1na2vs0mg"},{"bike_id":"bbc14a55-4124-4b7f-89e7-83ab6d28e45f","system_id":"levelo_inurba_marseille","lat":43.29269,"lon":5.40897,"is_reserved":false,"is_disabled":false,"rental_uris":{"android":"levelo://app?vid=bbc14a55-4124-4b7f-89e7-83ab6d28e45f","ios":"levelo://app?vid=bbc14a55-4124-4b7f-89e7-83ab6d28e45f"},"vehicle_type_id":"4","last_reported":1727410298,"current_range_meters":38000,"station_id":"ce4bh192rcd13ifvqdc0","pricing_plan_id":"cebpf4jnsgd1na2vs0mg"},{"bike_id":"571115be-4f92-4f3c-be12-44639ba9602a","system_id":"levelo_inurba_marseille","lat":43.32543,"lon":5.41447,"is_reserved":false,"is_disabled":false,"rental_uris":{"android":"levelo://app?vid=571115be-4f92-4f3c-be12-44639ba9602a","ios":"levelo://app?vid=571115be-4f92-4f3c-be12-44639ba9602a"},"vehicle_type_id":"4","last_reported":1727410298,"current_range_meters":27200,"station_id":"ce4bhq12rcd13ifvqhhg","pricing_plan_id":"cebpf4jnsgd1na2vs0mg"},{"bike_id":"c15e49a9-34e1-4797-9230-3d0f12892c9d","system_id":"levelo_inurba_marseille","lat":43.25082,"lon":5.39513,"is_reserved":false,"is_disabled":false,"rental_uris":{"android":"levelo://app?vid=c15e49a9-34e1-4797-9230-3d0f12892c9d","ios":"levelo://app?vid=c15e49a9-34e1-4797-9230-3d0f12892c9d"},"vehicle_type_id":"4","last_reported":1727410298,"current_range_meters":6400,"station_id":"ce4bhm12rcd13ifvqgkg","pricing_plan_id":"cebpf4jnsgd1na2vs0mg"},{"bike_id":"d621efd5-0e3c-4485-aec8-ca5f7a60b5f0","system_id":"levelo_inurba_marseille","lat":43.28354,"lon":5.38105,"is_reserved":false,"is_disabled":false,"rental_uris":{"android":"levelo://app?vid=d621efd5-0e3c-4485-aec8-ca5f7a60b5f0","ios":"levelo://app?vid=d621efd5-0e3c-4485-aec8-ca5f7a60b5f0"},"vehicle_type_id":"4","last_reported":1727410298,"current_range_meters":38800,"station_id":"ce4bh412rcd13ifvqdr0","pricing_plan_id":"cebpf4jnsgd1na2vs0mg"},{"bike_id":"3b32e212-3404-4033-9528-1ced8e7aad20","system_id":"levelo_inurba_marseille","lat":43.32657,"lon":5.40989,"is_reserved":false,"is_disabled":false,"rental_uris":{"android":"levelo://app?vid=3b32e212-3404-4033-9528-1ced8e7aad20","ios":"levelo://app?vid=3b32e212-3404-4033-9528-1ced8e7aad20"},"vehicle_type_id":"4","last_reported":1727410298,"current_range_meters":38800,"station_id":"ce4bhpp2rcd13ifvqhgg","pricing_plan_id":"cebpf4jnsgd1na2vs0mg"},{"bike_id":"4174e0c9-ea8a-45cf-832b-944eca7da095","system_id":"levelo_inurba_marseille","lat":43.26563,"lon":5.39004,"is_reserved":false,"is_disabled":false,"rental_uris":{"android":"levelo://app?vid=4174e0c9-ea8a-45cf-832b-944eca7da095","ios":"levelo://app?vid=4174e0c9-ea8a-45cf-832b-944eca7da095"},"vehicle_type_id":"4","last_reported":1727410298,"current_range_meters":20400,"station_id":"ce4bhe12rcd13ifvqf30","pricing_plan_id":"cebpf4jnsgd1na2vs0mg"},{"bike_id":"7e12381e-5ae6-424d-b9d9-20479730deef","system_id":"levelo_inurba_marseille","lat":43.28709,"lon":5.39984,"is_reserved":false,"is_disabled":false,"rental_uris":{"android":"levelo://app?vid=7e12381e-5ae6-424d-b9d9-20479730deef","ios":"levelo://app?vid=7e12381e-5ae6-424d-b9d9-20479730deef"},"vehicle_type_id":"4","last_reported":1727410298,"current_range_meters":38800,"station_id":"ce4bho92rcd13ifvqh3g","pricing_plan_id":"cebpf4jnsgd1na2vs0mg"},{"bike_id":"391c26fb-8f89-4bb8-a145-0f46fdb981f0","system_id":"levelo_inurba_marseille","lat":43.31721,"lon":5.43707,"is_reserved":false,"is_disabled":false,"rental_uris":{"android":"levelo://app?vid=391c26fb-8f89-4bb8-a145-0f46fdb981f0","ios":"levelo://app?vid=391c26fb-8f89-4bb8-a145-0f46fdb981f0"},"vehicle_type_id":"4","last_reported":1727410298,"current_range_meters":39200,"station_id":"ce4bhp92rcd13ifvqhcg","pricing_plan_id":"cebpf4jnsgd1na2vs0mg"},{"bike_id":"4becf616-ffb5-4b8e-9490-96a7c2e41387","system_id":"levelo_inurba_marseille","lat":43.28415,"lon":5.37507,"is_reserved":false,"is_disabled":false,"rental_uris":{"android":"levelo://app?vid=4becf616-ffb5-4b8e-9490-96a7c2e41387","ios":"levelo://app?vid=4becf616-ffb5-4b8e-9490-96a7c2e41387"},"vehicle_type_id":"4","last_reported":1727410298,"current_range_meters":38800,"station_id":"ce4bh412rcd13ifvqds0","pricing_plan_id":"cebpf4jnsgd1na2vs0mg"},{"bike_id":"a7101314-400f-45e8-94e6-f7093270a1e0","system_id":"levelo_inurba_marseille","lat":43.31531,"lon":5.38034,"is_reserved":false,"is_disabled":false,"rental_uris":{"android":"levelo://app?vid=a7101314-400f-45e8-94e6-f7093270a1e0","ios":"levelo://app?vid=a7101314-400f-45e8-94e6-f7093270a1e0"},"vehicle_type_id":"4","last_reported":1727410298,"current_range_meters":27600,"station_id":"ce4bhsp2rcd13ifvqi50","pricing_plan_id":"cebpf4jnsgd1na2vs0mg"},{"bike_id":"fd512eb4-5978-476b-856d-3199680a82b6","system_id":"levelo_inurba_marseille","lat":43.23153,"lon":5.43702,"is_reserved":false,"is_disabled":false,"rental_uris":{"android":"levelo://app?vid=fd512eb4-5978-476b-856d-3199680a82b6","ios":"levelo://app?vid=fd512eb4-5978-476b-856d-3199680a82b6"},"vehicle_type_id":"4","last_reported":1727410298,"current_range_meters":18000,"station_id":"ce4bhmp2rcd13ifvqgog","pricing_plan_id":"cebpf4jnsgd1na2vs0mg"},{"bike_id":"46270c5b-bf10-4a86-957d-7774508f30c6","system_id":"levelo_inurba_marseille","lat":43.28109,"lon":5.37838,"is_reserved":false,"is_disabled":false,"rental_uris":{"android":"levelo://app?vid=46270c5b-bf10-4a86-957d-7774508f30c6","ios":"levelo://app?vid=46270c5b-bf10-4a86-957d-7774508f30c6"},"vehicle_type_id":"4","last_reported":1727410298,"current_range_meters":39200,"station_id":"ce4bha12rcd13ifvqee0","pricing_plan_id":"cebpf4jnsgd1na2vs0mg"},{"bike_id":"21f4556e-14f8-4816-8bb2-303815a7881f","system_id":"levelo_inurba_marseille","lat":43.3015,"lon":5.380807,"is_reserved":false,"is_disabled":false,"rental_uris":{"android":"levelo://app?vid=21f4556e-14f8-4816-8bb2-303815a7881f","ios":"levelo://app?vid=21f4556e-14f8-4816-8bb2-303815a7881f"},"vehicle_type_id":"4","last_reported":1727410298,"current_range_meters":27600,"station_id":"ce4bgjp2rcd13ifvqbh0","pricing_plan_id":"cebpf4jnsgd1na2vs0mg"},{"bike_id":"12fa10b0-5577-4084-a347-b2f9ef78282e","system_id":"levelo_inurba_marseille","lat":43.31293,"lon":5.4017,"is_reserved":false,"is_disabled":false,"rental_uris":{"android":"levelo://app?vid=12fa10b0-5577-4084-a347-b2f9ef78282e","ios":"levelo://app?vid=12fa10b0-5577-4084-a347-b2f9ef78282e"},"vehicle_type_id":"4","last_reported":1727410298,"current_range_meters":38800,"station_id":"ce4bh092rcd13ifvqd30","pricing_plan_id":"cebpf4jnsgd1na2vs0mg"},{"bike_id":"54349784-eb4a-488f-a187-17d76f2f8837","system_id":"levelo_inurba_marseille","lat":43.34142,"lon":5.40907,"is_reserved":false,"is_disabled":false,"rental_uris":{"android":"levelo://app?vid=54349784-eb4a-488f-a187-17d76f2f8837","ios":"levelo://app?vid=54349784-eb4a-488f-a187-17d76f2f8837"},"vehicle_type_id":"4","last_reported":1727410298,"current_range_meters":17600,"station_id":"ce4bhqh2rcd13ifvqhlg","pricing_plan_id":"cebpf4jnsgd1na2vs0mg"},{"bike_id":"997d8a25-1ec1-4a25-8163-fc874524e10a","system_id":"levelo_inurba_marseille","lat":43.28421,"lon":5.37507,"is_reserved":false,"is_disabled":false,"rental_uris":{"android":"levelo://app?vid=997d8a25-1ec1-4a25-8163-fc874524e10a","ios":"levelo://app?vid=997d8a25-1ec1-4a25-8163-fc874524e10a"},"vehicle_type_id":"4","last_reported":1727410298,"current_range_meters":36800,"station_id":"ce4bh412rcd13ifvqds0","pricing_plan_id":"cebpf4jnsgd1na2vs0mg"},{"bike_id":"a932a5a2-cb39-43cf-b73e-86115f189aa7","system_id":"levelo_inurba_marseille","lat":43.28354,"lon":5.38103,"is_reserved":false,"is_disabled":false,"rental_uris":{"android":"levelo://app?vid=a932a5a2-cb39-43cf-b73e-86115f189aa7","ios":"levelo://app?vid=a932a5a2-cb39-43cf-b73e-86115f189aa7"},"vehicle_type_id":"4","last_reported":1727410298,"current_range_meters":29600,"station_id":"ce4bh412rcd13ifvqdr0","pricing_plan_id":"cebpf4jnsgd1na2vs0mg"},{"bike_id":"e721f749-3932-4551-8ebf-503ea1026350","system_id":"levelo_inurba_marseille","lat":43.24182,"lon":5.39722,"is_reserved":false,"is_disabled":false,"rental_uris":{"android":"levelo://app?vid=e721f749-3932-4551-8ebf-503ea1026350","ios":"levelo://app?vid=e721f749-3932-4551-8ebf-503ea1026350"},"vehicle_type_id":"4","last_reported":1727410298,"current_range_meters":19600,"station_id":"ce4bhn12rcd13ifvqgpg","pricing_plan_id":"cebpf4jnsgd1na2vs0mg"},{"bike_id":"8863d3e7-b21c-4d64-93eb-7367833f8eab","system_id":"levelo_inurba_marseille","lat":43.29769,"lon":5.38986,"is_reserved":false,"is_disabled":false,"rental_uris":{"android":"levelo://app?vid=8863d3e7-b21c-4d64-93eb-7367833f8eab","ios":"levelo://app?vid=8863d3e7-b21c-4d64-93eb-7367833f8eab"},"vehicle_type_id":"4","last_reported":1727410298,"current_range_meters":8400,"station_id":"","pricing_plan_id":"cebpf4jnsgd1na2vs0mg"},{"bike_id":"e55311dc-47e5-4091-bcf9-a5388faa16d3","system_id":"levelo_inurba_marseille","lat":43.31536,"lon":5.38018,"is_reserved":false,"is_disabled":false,"rental_uris":{"android":"levelo://app?vid=e55311dc-47e5-4091-bcf9-a5388faa16d3","ios":"levelo://app?vid=e55311dc-47e5-4091-bcf9-a5388faa16d3"},"vehicle_type_id":"4","last_reported":1727410298,"current_range_meters":27600,"station_id":"ce4bhsp2rcd13ifvqi50","pricing_plan_id":"cebpf4jnsgd1na2vs0mg"},{"bike_id":"7c49b807-133c-46de-8193-d55c57d208f6","system_id":"levelo_inurba_marseille","lat":43.30322,"lon":5.40439,"is_reserved":false,"is_disabled":false,"rental_uris":{"android":"levelo://app?vid=7c49b807-133c-46de-8193-d55c57d208f6","ios":"levelo://app?vid=7c49b807-133c-46de-8193-d55c57d208f6"},"vehicle_type_id":"4","last_reported":1727410298,"current_range_meters":16400,"station_id":"ce4bh012rcd13ifvqd10","pricing_plan_id":"cebpf4jnsgd1na2vs0mg"},{"bike_id":"edb76f42-d00f-47eb-a777-e78dab3bfd44","system_id":"levelo_inurba_marseille","lat":43.30896,"lon":5.37196,"is_reserved":false,"is_disabled":false,"rental_uris":{"android":"levelo://app?vid=edb76f42-d00f-47eb-a777-e78dab3bfd44","ios":"levelo://app?vid=edb76f42-d00f-47eb-a777-e78dab3bfd44"},"vehicle_type_id":"4","last_reported":1727410298,"current_range_meters":38000,"station_id":"ce4bguh2rcd13ifvqckg","pricing_plan_id":"cebpf4jnsgd1na2vs0mg"},{"bike_id":"77186ef2-8aef-45dc-b4e2-8707ce7baa13","system_id":"levelo_inurba_marseille","lat":43.30791,"lon":5.43525,"is_reserved":false,"is_disabled":false,"rental_uris":{"android":"levelo://app?vid=77186ef2-8aef-45dc-b4e2-8707ce7baa13","ios":"levelo://app?vid=77186ef2-8aef-45dc-b4e2-8707ce7baa13"},"vehicle_type_id":"4","last_reported":1727410298,"current_range_meters":32400,"station_id":"ce4bhph2rcd13ifvqheg","pricing_plan_id":"cebpf4jnsgd1na2vs0mg"},{"bike_id":"398bb99e-0ac6-4f1a-aee6-1be80b187534","system_id":"levelo_inurba_marseille","lat":43.2811,"lon":5.37831,"is_reserved":false,"is_disabled":false,"rental_uris":{"android":"levelo://app?vid=398bb99e-0ac6-4f1a-aee6-1be80b187534","ios":"levelo://app?vid=398bb99e-0ac6-4f1a-aee6-1be80b187534"},"vehicle_type_id":"4","last_reported":1727410298,"current_range_meters":31200,"station_id":"ce4bha12rcd13ifvqee0","pricing_plan_id":"cebpf4jnsgd1na2vs0mg"},{"bike_id":"5860d86a-5e03-4913-8798-da25baeb21be","system_id":"levelo_inurba_marseille","lat":43.27815,"lon":5.40709,"is_reserved":false,"is_disabled":false,"rental_uris":{"android":"levelo://app?vid=5860d86a-5e03-4913-8798-da25baeb21be","ios":"levelo://app?vid=5860d86a-5e03-4913-8798-da25baeb21be"},"vehicle_type_id":"4","last_reported":1727410298,"current_range_meters":36400,"station_id":"ce4bhnh2rcd13ifvqgtg","pricing_plan_id":"cebpf4jnsgd1na2vs0mg"},{"bike_id":"c68029b3-8e8e-442c-a338-c793845391a8","system_id":"levelo_inurba_marseille","lat":43.26029,"lon":5.37551,"is_reserved":false,"is_disabled":false,"rental_uris":{"android":"levelo://app?vid=c68029b3-8e8e-442c-a338-c793845391a8","ios":"levelo://app?vid=c68029b3-8e8e-442c-a338-c793845391a8"},"vehicle_type_id":"4","last_reported":1727410298,"current_range_meters":38800,"station_id":"ce4bhgh2rcd13ifvqfa0","pricing_plan_id":"cebpf4jnsgd1na2vs0mg"},{"bike_id":"86e04bfb-5740-4598-a5f4-2f230d6e0d0a","system_id":"levelo_inurba_marseille","lat":43.3109,"lon":5.38368,"is_reserved":false,"is_disabled":false,"rental_uris":{"android":"levelo://app?vid=86e04bfb-5740-4598-a5f4-2f230d6e0d0a","ios":"levelo://app?vid=86e04bfb-5740-4598-a5f4-2f230d6e0d0a"},"vehicle_type_id":"4","last_reported":1727410298,"current_range_meters":32000,"station_id":"ce4bgv92rcd13ifvqcr0","pricing_plan_id":"cebpf4jnsgd1na2vs0mg"},{"bike_id":"9b30eb6d-c46c-4191-83ea-eebaaa7b27fb","system_id":"levelo_inurba_marseille","lat":43.30546,"lon":5.367,"is_reserved":false,"is_disabled":false,"rental_uris":{"android":"levelo://app?vid=9b30eb6d-c46c-4191-83ea-eebaaa7b27fb","ios":"levelo://app?vid=9b30eb6d-c46c-4191-83ea-eebaaa7b27fb"},"vehicle_type_id":"4","last_reported":1727410298,"current_range_meters":10800,"station_id":"ce4bgrp2rcd13ifvqc9g","pricing_plan_id":"cebpf4jnsgd1na2vs0mg"},{"bike_id":"5d6c707b-bd6b-4880-9f49-0c552ae705a6","system_id":"levelo_inurba_marseille","lat":43.28573,"lon":5.39491,"is_reserved":false,"is_disabled":false,"rental_uris":{"android":"levelo://app?vid=5d6c707b-bd6b-4880-9f49-0c552ae705a6","ios":"levelo://app?vid=5d6c707b-bd6b-4880-9f49-0c552ae705a6"},"vehicle_type_id":"4","last_reported":1727410298,"current_range_meters":33600,"station_id":"ce4bh292rcd13ifvqdg0","pricing_plan_id":"cebpf4jnsgd1na2vs0mg"},{"bike_id":"70aae212-a2df-418a-bf2d-4dc245738278","system_id":"levelo_inurba_marseille","lat":43.25581,"lon":5.38238,"is_reserved":false,"is_disabled":false,"rental_uris":{"android":"levelo://app?vid=70aae212-a2df-418a-bf2d-4dc245738278","ios":"levelo://app?vid=70aae212-a2df-418a-bf2d-4dc245738278"},"vehicle_type_id":"4","last_reported":1727410298,"current_range_meters":35600,"station_id":"ce4bhih2rcd13ifvqfs0","pricing_plan_id":"cebpf4jnsgd1na2vs0mg"},{"bike_id":"88520022-dcb9-470a-815c-397d3bbf4936","system_id":"levelo_inurba_marseille","lat":43.28101,"lon":5.37856,"is_reserved":false,"is_disabled":false,"rental_uris":{"android":"levelo://app?vid=88520022-dcb9-470a-815c-397d3bbf4936","ios":"levelo://app?vid=88520022-dcb9-470a-815c-397d3bbf4936"},"vehicle_type_id":"4","last_reported":1727410298,"current_range_meters":38000,"station_id":"ce4bha12rcd13ifvqee0","pricing_plan_id":"cebpf4jnsgd1na2vs0mg"},{"bike_id":"380629cf-c9a7-40ac-a210-4ba5fc8ced3b","system_id":"levelo_inurba_marseille","lat":43.28153,"lon":5.42642,"is_reserved":false,"is_disabled":false,"rental_uris":{"android":"levelo://app?vid=380629cf-c9a7-40ac-a210-4ba5fc8ced3b","ios":"levelo://app?vid=380629cf-c9a7-40ac-a210-4ba5fc8ced3b"},"vehicle_type_id":"4","last_reported":1727410298,"current_range_meters":34000,"station_id":"ce4bhnh2rcd13ifvqgug","pricing_plan_id":"cebpf4jnsgd1na2vs0mg"},{"bike_id":"b7ae5eed-8594-44cc-a597-36d96f60e81d","system_id":"levelo_inurba_marseille","lat":43.26558,"lon":5.39006,"is_reserved":false,"is_disabled":false,"rental_uris":{"android":"levelo://app?vid=b7ae5eed-8594-44cc-a597-36d96f60e81d","ios":"levelo://app?vid=b7ae5eed-8594-44cc-a597-36d96f60e81d"},"vehicle_type_id":"4","last_reported":1727410298,"current_range_meters":38800,"station_id":"ce4bhe12rcd13ifvqf30","pricing_plan_id":"cebpf4jnsgd1na2vs0mg"},{"bike_id":"be41c236-cdb5-4308-ba8d-0c78806323eb","system_id":"levelo_inurba_marseille","lat":43.30777,"lon":5.381651,"is_reserved":false,"is_disabled":false,"rental_uris":{"android":"levelo://app?vid=be41c236-cdb5-4308-ba8d-0c78806323eb","ios":"levelo://app?vid=be41c236-cdb5-4308-ba8d-0c78806323eb"},"vehicle_type_id":"4","last_reported":1727410298,"current_range_meters":37600,"station_id":"ce4bgt12rcd13ifvqce0","pricing_plan_id":"cebpf4jnsgd1na2vs0mg"},{"bike_id":"1a8cbed4-128b-4a29-ba95-08db7784e51f","system_id":"levelo_inurba_marseille","lat":43.25825,"lon":5.39429,"is_reserved":false,"is_disabled":false,"rental_uris":{"android":"levelo://app?vid=1a8cbed4-128b-4a29-ba95-08db7784e51f","ios":"levelo://app?vid=1a8cbed4-128b-4a29-ba95-08db7784e51f"},"vehicle_type_id":"4","last_reported":1727410298,"current_range_meters":39200,"station_id":"ce4bhip2rcd13ifvqft0","pricing_plan_id":"cebpf4jnsgd1na2vs0mg"},{"bike_id":"9df4b13e-edc1-4527-9153-f80199c80c6e","system_id":"levelo_inurba_marseille","lat":43.31173,"lon":5.38712,"is_reserved":false,"is_disabled":false,"rental_uris":{"android":"levelo://app?vid=9df4b13e-edc1-4527-9153-f80199c80c6e","ios":"levelo://app?vid=9df4b13e-edc1-4527-9153-f80199c80c6e"},"vehicle_type_id":"4","last_reported":1727410298,"current_range_meters":33200,"station_id":"ce4bgv12rcd13ifvqcp0","pricing_plan_id":"cebpf4jnsgd1na2vs0mg"},{"bike_id":"d18f1a8a-c43d-4fbb-9c58-e30d4ccd4b4a","system_id":"levelo_inurba_marseille","lat":43.30306,"lon":5.39207,"is_reserved":false,"is_disabled":false,"rental_uris":{"android":"levelo://app?vid=d18f1a8a-c43d-4fbb-9c58-e30d4ccd4b4a","ios":"levelo://app?vid=d18f1a8a-c43d-4fbb-9c58-e30d4ccd4b4a"},"vehicle_type_id":"4","last_reported":1727410298,"current_range_meters":37600,"station_id":"ce4bgkh2rcd13ifvqbk0","pricing_plan_id":"cebpf4jnsgd1na2vs0mg"},{"bike_id":"194c9e52-3a95-4508-b1a1-eb35927d77ae","system_id":"levelo_inurba_marseille","lat":43.28621,"lon":5.35101,"is_reserved":false,"is_disabled":false,"rental_uris":{"android":"levelo://app?vid=194c9e52-3a95-4508-b1a1-eb35927d77ae","ios":"levelo://app?vid=194c9e52-3a95-4508-b1a1-eb35927d77ae"},"vehicle_type_id":"4","last_reported":1727410298,"current_range_meters":38800,"station_id":"ce4bhch2rcd13ifvqeug","pricing_plan_id":"cebpf4jnsgd1na2vs0mg"},{"bike_id":"7a221aff-a308-4e51-bd6c-3606a6928c42","system_id":"levelo_inurba_marseille","lat":43.28495,"lon":5.38975,"is_reserved":false,"is_disabled":false,"rental_uris":{"android":"levelo://app?vid=7a221aff-a308-4e51-bd6c-3606a6928c42","ios":"levelo://app?vid=7a221aff-a308-4e51-bd6c-3606a6928c42"},"vehicle_type_id":"4","last_reported":1727410298,"current_range_meters":38000,"station_id":"","pricing_plan_id":"cebpf4jnsgd1na2vs0mg"},{"bike_id":"d8707b5f-2ab7-4a5f-9c38-c4b81dc2285c","system_id":"levelo_inurba_marseille","lat":43.31075,"lon":5.38343,"is_reserved":false,"is_disabled":false,"rental_uris":{"android":"levelo://app?vid=d8707b5f-2ab7-4a5f-9c38-c4b81dc2285c","ios":"levelo://app?vid=d8707b5f-2ab7-4a5f-9c38-c4b81dc2285c"},"vehicle_type_id":"4","last_reported":1727410298,"current_range_meters":6000,"station_id":"ce4bgv92rcd13ifvqcr0","pricing_plan_id":"cebpf4jnsgd1na2vs0mg"},{"bike_id":"e17e3ba9-1bd3-4f83-adbc-5dc83a153375","system_id":"levelo_inurba_marseille","lat":43.31998,"lon":5.38147,"is_reserved":false,"is_disabled":false,"rental_uris":{"android":"levelo://app?vid=e17e3ba9-1bd3-4f83-adbc-5dc83a153375","ios":"levelo://app?vid=e17e3ba9-1bd3-4f83-adbc-5dc83a153375"},"vehicle_type_id":"4","last_reported":1727410298,"current_range_meters":6800,"station_id":"ce4bhr12rcd13ifvqhpg","pricing_plan_id":"cebpf4jnsgd1na2vs0mg"},{"bike_id":"35ea8c68-3337-46ca-b3e6-aa61667870c7","system_id":"levelo_inurba_marseille","lat":43.28078,"lon":5.39648,"is_reserved":false,"is_disabled":false,"rental_uris":{"android":"levelo://app?vid=35ea8c68-3337-46ca-b3e6-aa61667870c7","ios":"levelo://app?vid=35ea8c68-3337-46ca-b3e6-aa61667870c7"},"vehicle_type_id":"4","last_reported":1727410298,"current_range_meters":29600,"station_id":"ce4bho12rcd13ifvqh2g","pricing_plan_id":"cebpf4jnsgd1na2vs0mg"},{"bike_id":"d52a70e2-d1c0-404e-8b30-fd4de51f25b7","system_id":"levelo_inurba_marseille","lat":43.31998,"lon":5.3815,"is_reserved":false,"is_disabled":false,"rental_uris":{"android":"levelo://app?vid=d52a70e2-d1c0-404e-8b30-fd4de51f25b7","ios":"levelo://app?vid=d52a70e2-d1c0-404e-8b30-fd4de51f25b7"},"vehicle_type_id":"4","last_reported":1727410298,"current_range_meters":28800,"station_id":"ce4bhr12rcd13ifvqhpg","pricing_plan_id":"cebpf4jnsgd1na2vs0mg"},{"bike_id":"d47e6c1c-f20c-45d1-acf1-00190a96e721","system_id":"levelo_inurba_marseille","lat":43.312781,"lon":5.401683,"is_reserved":false,"is_disabled":false,"rental_uris":{"android":"levelo://app?vid=d47e6c1c-f20c-45d1-acf1-00190a96e721","ios":"levelo://app?vid=d47e6c1c-f20c-45d1-acf1-00190a96e721"},"vehicle_type_id":"4","last_reported":1727410298,"current_range_meters":33600,"station_id":"ce4bh092rcd13ifvqd30","pricing_plan_id":"cebpf4jnsgd1na2vs0mg"},{"bike_id":"8a5475e3-6fbf-4e9b-b650-accf3a939b49","system_id":"levelo_inurba_marseille","lat":43.32482,"lon":5.36571,"is_reserved":false,"is_disabled":false,"rental_uris":{"android":"levelo://app?vid=8a5475e3-6fbf-4e9b-b650-accf3a939b49","ios":"levelo://app?vid=8a5475e3-6fbf-4e9b-b650-accf3a939b49"},"vehicle_type_id":"4","last_reported":1727410298,"current_range_meters":38800,"station_id":"ce4bhs12rcd13ifvqhvg","pricing_plan_id":"cebpf4jnsgd1na2vs0mg"},{"bike_id":"c2e5a81e-6912-4cb0-98ad-5f3df477fa43","system_id":"levelo_inurba_marseille","lat":43.29013,"lon":5.37573,"is_reserved":false,"is_disabled":false,"rental_uris":{"android":"levelo://app?vid=c2e5a81e-6912-4cb0-98ad-5f3df477fa43","ios":"levelo://app?vid=c2e5a81e-6912-4cb0-98ad-5f3df477fa43"},"vehicle_type_id":"4","last_reported":1727410298,"current_range_meters":35600,"station_id":"ce4bh692rcd13ifvqe90","pricing_plan_id":"cebpf4jnsgd1na2vs0mg"},{"bike_id":"cf517e91-9fba-4889-840d-85b4c7dbf3fd","system_id":"levelo_inurba_marseille","lat":43.24072,"lon":5.37757,"is_reserved":false,"is_disabled":false,"rental_uris":{"android":"levelo://app?vid=cf517e91-9fba-4889-840d-85b4c7dbf3fd","ios":"levelo://app?vid=cf517e91-9fba-4889-840d-85b4c7dbf3fd"},"vehicle_type_id":"4","last_reported":1727410298,"current_range_meters":8800,"station_id":"ce4bhnp2rcd13ifvqgvg","pricing_plan_id":"cebpf4jnsgd1na2vs0mg"},{"bike_id":"44122a11-75f3-4cdc-963e-84d402244a46","system_id":"levelo_inurba_marseille","lat":43.23967,"lon":5.36623,"is_reserved":false,"is_disabled":false,"rental_uris":{"android":"levelo://app?vid=44122a11-75f3-4cdc-963e-84d402244a46","ios":"levelo://app?vid=44122a11-75f3-4cdc-963e-84d402244a46"},"vehicle_type_id":"4","last_reported":1727410298,"current_range_meters":38800,"station_id":"ce4bhi12rcd13ifvqfp0","pricing_plan_id":"cebpf4jnsgd1na2vs0mg"},