{"last_updated":1737399991,"ttl":60,"version":"2.2","data":{"bikes":[{"bike_id":"2d837e6e-a55b-44a6-8c8b-9ab1fd8a260a","system_id":"levelo_inurba_marseille","lat":43.31077,"lon":5.42431,"is_reserved":false,"is_disabled":false,"rental_uris":{"android":"levelo://app?vid=2d837e6e-a55b-44a6-8c8b-9ab1fd8a260a","ios":"levelo://app?vid=2d837e6e-a55b-44a6-8c8b-9ab1fd8a260a"},"vehicle_type_id":"4","last_reported":1737399991,"current_range_meters":39200,"station_id":"ce4bhp92rcd13ifvqhag","pricing_plan_id":"cebpf4jnsgd1na2vs0mg"},{"bike_id":"75082f77-be79-491b-8678-426fe7196d9c","system_id":"levelo_inurba_marseille","lat":43.28153,"lon":5.42642,"is_reserved":false,"is_disabled":false,"rental_uris":{"android":"levelo://app?vid=75082f77-be79-491b-8678-426fe7196d9c","ios":"levelo://app?vid=75082f77-be79-491b-8678-426fe7196d9c"},"vehicle_type_id":"4","last_reported":1737399991,"current_range_meters":23200,"station_id":"ce4bhnh2rcd13ifvqgug","pricing_plan_id":"cebpf4jnsgd1na2vs0mg"},{"bike_id":"a3d0aefc-a2f5-45cd-9489-1be9c32278de","system_id":"levelo_inurba_marseille","lat":43.23963,"lon":5.36626,"is_reserved":false,"is_disabled":false,"rental_uris":{"android":"levelo://app?vid=a3d0aefc-a2f5-45cd-9489-1be9c32278de","ios":"levelo://app?vid=a3d0aefc-a2f5-45cd-9489-1be9c32278de"},"vehicle_type_id":"4","last_reported":1737399991,"current_range_meters":32000,"station_id":"ce4bhi12rcd13ifvqfp0","pricing_plan_id":"cebpf4jnsgd1na2vs0mg"},{"bike_id":"ff1df0fd-be2f-4894-8690-e8a61da9c700","system_id":"levelo_inurba_marseille","lat":43.28691,"lon":5.37389,"is_reserved":false,"is_disabled":true,"rental_uris":{"android":"levelo://app?vid=ff1df0fd-be2f-4894-8690-e8a61da9c700","ios":"levelo://app?vid=ff1df0fd-be2f-4894-8690-e8a61da9c700"},"vehicle_type_id":"4","last_reported":1737399991,"current_range_meters":38800,"station_id":"ce4bh3p2rcd13ifvqdq0","pricing_plan_id":"cebpf4jnsgd1na2vs0mg"},{"bike_id":"434a60f9-dcd2-4593-9cfa-9bfbda6fb835","system_id":"levelo_inurba_marseille","lat":43.28267,"lon":5.35061,"is_reserved":false,"is_disabled":false,"rental_uris":{"android":"levelo://app?vid=434a60f9-dcd2-4593-9cfa-9bfbda6fb835","ios":"levelo://app?vid=434a60f9-dcd2-4593-9cfa-9bfbda6fb835"},"vehicle_type_id":"4","last_reported":1737399991,"current_range_meters":7200,"station_id":"ce4bhbp2rcd13ifvqerg","pricing_plan_id":"cebpf4jnsgd1na2vs0mg"},{"bike_id":"0c9eac1c-009b-417d-bd77-f2d0af4953e9","system_id":"levelo_inurba_marseille","lat":43.3014,"lon":5.38771,"is_reserved":false,"is_disabled":false,"rental_uris":{"android":"levelo://app?vid=0c9eac1c-009b-417d-bd77-f2d0af4953e9","ios":"levelo://app?vid=0c9eac1c-009b-417d-bd77-f2d0af4953e9"},"vehicle_type_id":"4","last_reported":1737399991,"current_range_meters":39200,"station_id":"ce4bghh2rcd13ifvqb60","pricing_plan_id":"cebpf4jnsgd1na2vs0mg"},{"bike_id":"5cb1264a-175f-4702-b950-5c526f1c16bb","system_id":"levelo_inurba_marseille","lat":43.287,"lon":5.37345,"is_reserved":false,"is_disabled":false,"rental_uris":{"android":"levelo://app?vid=5cb1264a-175f-4702-b950-5c526f1c16bb","ios":"levelo://app?vid=5cb1264a-175f-4702-b950-5c526f1c16bb"},"vehicle_type_id":"4","last_reported":1737399991,"current_range_meters":38800,"station_id":"ce4bh3p2rcd13ifvqdq0","pricing_plan_id":"cebpf4jnsgd1na2vs0mg"},{"bike_id":"a3b3d045-dd7b-4eb3-bd8d-20ffd36b83c0","system_id":"levelo_inurba_marseille","lat":43.30936,"lon":5.40142,"is_reserved":false,"is_disabled":false,"rental_uris":{"android":"levelo://app?vid=a3b3d045-dd7b-4eb3-bd8d-20ffd36b83c0","ios":"levelo://app?vid=a3b3d045-dd7b-4eb3-bd8d-20ffd36b83c0"},"vehicle_type_id":"4","last_reported":1737399991,"current_range_meters":38800,"station_id":"ce4bgvp2rcd13ifvqct0","pricing_plan_id":"cebpf4jnsgd1na2vs0mg"},{"bike_id":"1728c0bc-8d06-4332-a1c4-878ad0c9df83","system_id":"levelo_inurba_marseille","lat":43.29721,"lon":5.37698,"is_reserved":false,"is_disabled":true,"rental_uris":{"android":"levelo://app?vid=1728c0bc-8d06-4332-a1c4-878ad0c9df83","ios":"levelo://app?vid=1728c0bc-8d06-4332-a1c4-878ad0c9df83"},"vehicle_type_id":"4","last_reported":1737399991,"current_range_meters":0,"station_id":"ce4bgkh2rcd13ifvqbl0","pricing_plan_id":"cebpf4jnsgd1na2vs0mg"},{"bike_id":"222cf047-f998-4d64-843c-220b836d2dc0","system_id":"levelo_inurba_marseille","lat":43.29682,"lon":5.37287,"is_reserved":false,"is_disabled":false,"rental_uris":{"android":"levelo://app?vid=222cf047-f998-4d64-843c-220b836d2dc0","ios":"levelo://app?vid=222cf047-f998-4d64-843c-220b836d2dc0"},"vehicle_type_id":"4","last_reported":1737399991,"current_range_meters":32400,"station_id":"ce4bgk12rcd13ifvqbj0","pricing_plan_id":"cebpf4jnsgd1na2vs0mg"},{"bike_id":"046dbede-ca51-4977-a4fa-1193c9772831","system_id":"levelo_inurba_marseille","lat":43.29582,"lon":5.36746,"is_reserved":false,"is_disabled":false,"rental_uris":{"android":"levelo://app?vid=046dbede-ca51-4977-a4fa-1193c9772831","ios":"levelo://app?vid=046dbede-ca51-4977-a4fa-1193c9772831"},"vehicle_type_id":"4","last_reported":1737399991,"current_range_meters":27600,"station_id":"ce4bgph2rcd13ifvqc2g","pricing_plan_id":"cebpf4jnsgd1na2vs0mg"},{"bike_id":"e3d5a69f-7604-4ab5-bfce-dc9cf0dd7b56","system_id":"levelo_inurba_marseille","lat":43.29564,"lon":5.39958,"is_reserved":false,"is_disabled":true,"rental_uris":{"android":"levelo://app?vid=e3d5a69f-7604-4ab5-bfce-dc9cf0dd7b56","ios":"levelo://app?vid=e3d5a69f-7604-4ab5-bfce-dc9cf0dd7b56"},"vehicle_type_id":"4","last_reported":1737399991,"current_range_meters":38800,"station_id":"ce4bh312rcd13ifvqdj0","pricing_plan_id":"cebpf4jnsgd1na2vs0mg"},{"bike_id":"2e2b95d5-71f2-46d3-96f9-d8dfd51fb341","system_id":"levelo_inurba_marseille","lat":43.29302,"lon":5.37153,"is_reserved":false,"is_disabled":false,"rental_uris":{"android":"levelo://app?vid=2e2b95d5-71f2-46d3-96f9-d8dfd51fb341","ios":"levelo://app?vid=2e2b95d5-71f2-46d3-96f9-d8dfd51fb341"},"vehicle_type_id":"4","last_reported":1737399991,"current_range_meters":36400,"station_id":"ce4bgh92rcd13ifvqb40","pricing_plan_id":"cebpf4jnsgd1na2vs0mg"},{"bike_id":"302817a7-e3d4-4fc5-a90c-ac99a067a0ef","system_id":"levelo_inurba_marseille","lat":43.26487,"lon":5.39558,"is_reserved":false,"is_disabled":false,"rental_uris":{"android":"levelo://app?vid=302817a7-e3d4-4fc5-a90c-ac99a067a0ef","ios":"levelo://app?vid=302817a7-e3d4-4fc5-a90c-ac99a067a0ef"},"vehicle_type_id":"4","last_reported":1737399991,"current_range_meters":38400,"station_id":"ce4bhi12rcd13ifvqfq0","pricing_plan_id":"cebpf4jnsgd1na2vs0mg"},{"bike_id":"6d38c9b3-d1d0-4471-85ef-1836c051c027","system_id":"levelo_inurba_marseille","lat":43.31763,"lon":5.38994,"is_reserved":false,"is_disabled":false,"rental_uris":{"android":"levelo://app?vid=6d38c9b3-d1d0-4471-85ef-1836c051c027","ios":"levelo://app?vid=6d38c9b3-d1d0-4471-85ef-1836c051c027"},"vehicle_type_id":"4","last_reported":1737399991,"current_range_meters":30400,"station_id":"ce4bhqp2rcd13ifvqhng","pricing_plan_id":"cebpf4jnsgd1na2vs0mg"},{"bike_id":"24180994-dbd4-4f7f-9670-967bb6f7cff1","system_id":"levelo_inurba_marseille","lat":43.29006,"lon":5.35604,"is_reserved":false,"is_disabled":false,"rental_uris":{"android":"levelo://app?vid=24180994-dbd4-4f7f-9670-967bb6f7cff1","ios":"levelo://app?vid=24180994-dbd4-4f7f-9670-967bb6f7cff1"},"vehicle_type_id":"4","last_reported":1737399991,"current_range_meters":33200,"station_id":"ce4bhb92rcd13ifvqen0","pricing_plan_id":"cebpf4jnsgd1na2vs0mg"},{"bike_id":"eba934d6-1033-4d66-8f13-4ed8fe87df75","system_id":"levelo_inurba_marseille","lat":43.2944,"lon":5.38618,"is_reserved":false,"is_disabled":false,"rental_uris":{"android":"levelo://app?vid=eba934d6-1033-4d66-8f13-4ed8fe87df75","ios":"levelo://app?vid=eba934d6-1033-4d66-8f13-4ed8fe87df75"},"vehicle_type_id":"4","last_reported":1737399991,"current_range_meters":28400,"station_id":"ce4bh2h2rcd13ifvqdh0","pricing_plan_id":"cebpf4jnsgd1na2vs0mg"},{"bike_id":"763ed4fc-16fd-47a0-aedf-62c028daa66f","system_id":"levelo_inurba_marseille","lat":43.36398,"lon":5.35559,"is_reserved":false,"is_disabled":false,"rental_uris":{"android":"levelo://app?vid=763ed4fc-16fd-47a0-aedf-62c028daa66f","ios":"levelo://app?vid=763ed4fc-16fd-47a0-aedf-62c028daa66f"},"vehicle_type_id":"4","last_reported":1737399991,"current_range_meters":8400,"station_id":"","pricing_plan_id":"cebpf4jnsgd1na2vs0mg"},{"bike_id":"54e47bbf-d358-4fc6-9623-23d2eb6b92a9","system_id":"levelo_inurba_marseille","lat":43.276747,"lon":5.388474,"is_reserved":false,"is_disabled":true,"rental_uris":{"android":"levelo://app?vid=54e47bbf-d358-4fc6-9623-23d2eb6b92a9","ios":"levelo://app?vid=54e47bbf-d358-4fc6-9623-23d2eb6b92a9"},"vehicle_type_id":"4","last_reported":1737399991,"current_range_meters":16000,"station_id":"","pricing_plan_id":"cebpf4jnsgd1na2vs0mg"},{"bike_id":"a2771881-b956-4a9a-9bc9-a89642d437c9","system_id":"levelo_inurba_marseille","lat":43.23196,"lon":5.35552,"is_reserved":false,"is_disabled":false,"rental_uris":{"android":"levelo://app?vid=a2771881-b956-4a9a-9bc9-a89642d437c9","ios":"levelo://app?vid=a2771881-b956-4a9a-9bc9-a89642d437c9"},"vehicle_type_id":"4","last_reported":1737399991,"current_range_meters":38800,"station_id":"ce4bhu92rcd13ifvqi70","pricing_plan_id":"cebpf4jnsgd1na2vs0mg"},{"bike_id":"3b26ab37-3b51-49df-bcb5-b23c8b5b2a76","system_id":"levelo_inurba_marseille","lat":43.32108,"lon":5.36778,"is_reserved":false,"is_disabled":false,"rental_uris":{"android":"levelo://app?vid=3b26ab37-3b51-49df-bcb5-b23c8b5b2a76","ios":"levelo://app?vid=3b26ab37-3b51-49df-bcb5-b23c8b5b2a76"},"vehicle_type_id":"4","last_reported":1737399991,"current_range_meters":16800,"station_id":"ce4bhrh2rcd13ifvqhug","pricing_plan_id":"cebpf4jnsgd1na2vs0mg"},{"bike_id":"1f46188d-5e81-46fa-8687-79c4e15ba169","system_id":"levelo_inurba_marseille","lat":43.25864,"lon":5.39903,"is_reserved":false,"is_disabled":false,"rental_uris":{"android":"levelo://app?vid=1f46188d-5e81-46fa-8687-79c4e15ba169","ios":"levelo://app?vid=1f46188d-5e81-46fa-8687-79c4e15ba169"},"vehicle_type_id":"4","last_reported":1737399991,"current_range_meters":38800,"station_id":"ce4bhl92rcd13ifvqghg","pricing_plan_id":"cebpf4jnsgd1na2vs0mg"},{"bike_id":"f94a5c2d-1c3e-4ab5-8a5c-704e78d1f001","system_id":"levelo_inurba_marseille","lat":43.30257,"lon":5.40081,"is_reserved":false,"is_disabled":false,"rental_uris":{"android":"levelo://app?vid=f94a5c2d-1c3e-4ab5-8a5c-704e78d1f001","ios":"levelo://app?vid=f94a5c2d-1c3e-4ab5-8a5c-704e78d1f001"},"vehicle_type_id":"4","last_reported":1737399991,"current_range_meters":25200,"station_id":"ce4bgvh2rcd13ifvqcs0","pricing_plan_id":"cebpf4jnsgd1na2vs0mg"},{"bike_id":"eab45ce9-f931-4048-8712-ef4ff14837a7","system_id":"levelo_inurba_marseille","lat":43.31171,"lon":5.38722,"is_reserved":false,"is_disabled":false,"rental_uris":{"android":"levelo://app?vid=eab45ce9-f931-4048-8712-ef4ff14837a7","ios":"levelo://app?vid=eab45ce9-f931-4048-8712-ef4ff14837a7"},"vehicle_type_id":"4","last_reported":1737399991,"current_range_meters":20400,"station_id":"ce4bgv12rcd13ifvqcp0","pricing_plan_id":"cebpf4jnsgd1na2vs0mg"},{"bike_id":"c658c870-b812-4a3b-8c57-b8a896920718","system_id":"levelo_inurba_marseille","lat":43.27072,"lon":5.42278,"is_reserved":false,"is_disabled":false,"rental_uris":{"android":"levelo://app?vid=c658c870-b812-4a3b-8c57-b8a896920718","ios":"levelo://app?vid=c658c870-b812-4a3b-8c57-b8a896920718"},"vehicle_type_id":"4","last_reported":1737399991,"current_range_meters":21600,"station_id":"ce4bhk92rcd13ifvqgb0","pricing_plan_id":"cebpf4jnsgd1na2vs0mg"},{"bike_id":"c29020e0-83ef-4b06-ac4f-c4422257f84a","system_id":"levelo_inurba_marseille","lat":43.36404,"lon":5.35592,"is_reserved":false,"is_disabled":false,"rental_uris":{"android":"levelo://app?vid=c29020e0-83ef-4b06-ac4f-c4422257f84a","ios":"levelo://app?vid=c29020e0-83ef-4b06-ac4f-c4422257f84a"},"vehicle_type_id":"4","last_reported":1737399991,"current_range_meters":12000,"station_id":"","pricing_plan_id":"cebpf4jnsgd1na2vs0mg"},{"bike_id":"80f92e05-422e-45b3-9d9f-66c23a3baa48","system_id":"levelo_inurba_marseille","lat":43.28152,"lon":5.4264,"is_reserved":false,"is_disabled":false,"rental_uris":{"android":"levelo://app?vid=80f92e05-422e-45b3-9d9f-66c23a3baa48","ios":"levelo://app?vid=80f92e05-422e-45b3-9d9f-66c23a3baa48"},"vehicle_type_id":"4","last_reported":1737399991,"current_range_meters":28400,"station_id":"ce4bhnh2rcd13ifvqgug","pricing_plan_id":"cebpf4jnsgd1na2vs0mg"},{"bike_id":"414603a2-f495-4e60-9a1e-27b48ae935b9","system_id":"levelo_inurba_marseille","lat":43.29524,"lon":5.39042,"is_reserved":false,"is_disabled":false,"rental_uris":{"android":"levelo://app?vid=414603a2-f495-4e60-9a1e-27b48ae935b9","ios":"levelo://app?vid=414603a2-f495-4e60-9a1e-27b48ae935b9"},"vehicle_type_id":"4","last_reported":1737399991,"current_range_meters":25200,"station_id":"ce4bh3p2rcd13ifvqdp0","pricing_plan_id":"cebpf4jnsgd1na2vs0mg"},{"bike_id":"e9ed4198-3645-4c82-a7b1-536b1aba6d12","system_id":"levelo_inurba_marseille","lat":43.32367,"lon":5.38883,"is_reserved":false,"is_disabled":false,"rental_uris":{"android":"levelo://app?vid=e9ed4198-3645-4c82-a7b1-536b1aba6d12","ios":"levelo://app?vid=e9ed4198-3645-4c82-a7b1-536b1aba6d12"},"vehicle_type_id":"4","last_reported":1737399991,"current_range_meters":38800,"station_id":"ce4bhqp2rcd13ifvqhog","pricing_plan_id":"cebpf4jnsgd1na2vs0mg"},{"bike_id":"a4929f10-be42-40bd-9958-40ba2c4eec72","system_id":"levelo_inurba_marseille","lat":43.33027,"lon":5.39025,"is_reserved":false,"is_disabled":false,"rental_uris":{"android":"levelo://app?vid=a4929f10-be42-40bd-9958-40ba2c4eec72","ios":"levelo://app?vid=a4929f10-be42-40bd-9958-40ba2c4eec72"},"vehicle_type_id":"4","last_reported":1737399991,"current_range_meters":17200,"station_id":"ce4bhr92rcd13ifvqhrg","pricing_plan_id":"cebpf4jnsgd1na2vs0mg"},{"bike_id":"ab7b1d7a-8ae0-4c4a-9611-7e663b41825a","system_id":"levelo_inurba_marseille","lat":43.32286,"lon":5.38276,"is_reserved":false,"is_disabled":false,"rental_uris":{"android":"levelo://app?vid=ab7b1d7a-8ae0-4c4a-9611-7e663b41825a","ios":"levelo://app?vid=ab7b1d7a-8ae0-4c4a-9611-7e663b41825a"},"vehicle_type_id":"4","last_reported":1737399991,"current_range_meters":38800,"station_id":"ce4bhr12rcd13ifvqhqg","pricing_plan_id":"cebpf4jnsgd1na2vs0mg"},{"bike_id":"629f0718-cf09-4c6c-aac5-30e94504c5f3","system_id":"levelo_inurba_marseille","lat":43.26798,"lon":5.4026,"is_reserved":false,"is_disabled":false,"rental_uris":{"android":"levelo://app?vid=629f0718-cf09-4c6c-aac5-30e94504c5f3","ios":"levelo://app?vid=629f0718-cf09-4c6c-aac5-30e94504c5f3"},"vehicle_type_id":"4","last_reported":1737399991,"current_range_meters":39200,"station_id":"ce501612rcd8frsf0b60","pricing_plan_id":"cebpf4jnsgd1na2vs0mg"},{"bike_id":"4a31d953-a351-4e4b-a04e-ac11058ef623","system_id":"levelo_inurba_marseille","lat":43.27807,"lon":5.40715,"is_reserved":false,"is_disabled":false,"rental_uris":{"android":"levelo://app?vid=4a31d953-a351-4e4b-a04e-ac11058ef623","ios":"levelo://app?vid=4a31d953-a351-4e4b-a04e-ac11058ef623"},"vehicle_type_id":"4","last_reported":1737399991,"current_range_meters":28800,"station_id":"ce4bhnh2rcd13ifvqgtg","pricing_plan_id":"cebpf4jnsgd1na2vs0mg"},{"bike_id":"f84f394e-2917-447e-93c4-9487928d7f87","system_id":"levelo_inurba_marseille","lat":43.27808,"lon":5.40702,"is_reserved":false,"is_disabled":false,"rental_uris":{"android":"levelo://app?vid=f84f394e-2917-447e-93c4-9487928d7f87","ios":"levelo://app?vid=f84f394e-2917-447e-93c4-9487928d7f87"},"vehicle_type_id":"4","last_reported":1737399991,"current_range_meters":38800,"station_id":"ce4bhnh2rcd13ifvqgtg","pricing_plan_id":"cebpf4jnsgd1na2vs0mg"},{"bike_id":"f254dfd3-d689-4edf-a347-2fd6b67b166b","system_id":"levelo_inurba_marseille","lat":43.2815,"lon":5.42648,"is_reserved":false,"is_disabled":false,"rental_uris":{"android":"levelo://app?vid=f254dfd3-d689-4edf-a347-2fd6b67b166b","ios":"levelo://app?vid=f254dfd3-d689-4edf-a347-2fd6b67b166b"},"vehicle_type_id":"4","last_reported":1737399991,"current_range_meters":38800,"station_id":"ce4bhnh2rcd13ifvqgug","pricing_plan_id":"cebpf4jnsgd1na2vs0mg"},{"bike_id":"b5b08053-7558-4752-b0b4-cafb67ddb41a","system_id":"levelo_inurba_marseille","lat":43.29419,"lon":5.38624,"is_reserved":false,"is_disabled":false,"rental_uris":{"android":"levelo://app?vid=b5b08053-7558-4752-b0b4-cafb67ddb41a","ios":"levelo://app?vid=b5b08053-7558-4752-b0b4-cafb67ddb41a"},"vehicle_type_id":"4","last_reported":1737399991,"current_range_meters":36000,"station_id":"ce4bh2h2rcd13ifvqdh0","pricing_plan_id":"cebpf4jnsgd1na2vs0mg"},{"bike_id":"a7a469bb-9876-4757-8816-55025c18f7f5","system_id":"levelo_inurba_marseille","lat":43.29197,"lon":5.35801,"is_reserved":false,"is_disabled":false,"rental_uris":{"android":"levelo://app?vid=a7a469bb-9876-4757-8816-55025c18f7f5","ios":"levelo://app?vid=a7a469bb-9876-4757-8816-55025c18f7f5"},"vehicle_type_id":"4","last_reported":1737399991,"current_range_meters":38800,"station_id":"ce4bhb12rcd13ifvqel0","pricing_plan_id":"cebpf4jnsgd1na2vs0mg"},{"bike_id":"ad70f329-8aa6-4840-9d88-12491727b0b0","system_id":"levelo_inurba_marseille","lat":43.25717,"lon":5.4111,"is_reserved":false,"is_disabled":false,"rental_uris":{"android":"levelo://app?vid=ad70f329-8aa6-4840-9d88-12491727b0b0","ios":"levelo://app?vid=ad70f329-8aa6-4840-9d88-12491727b0b0"},"vehicle_type_id":"4","last_reported":1737399991,"current_range_meters":9600,"station_id":"ce4bhkp2rcd13ifvqgd0","pricing_plan_id":"cebpf4jnsgd1na2vs0mg"},{"bike_id":"de8d9fdf-7b46-48ad-a51d-f0132537ad32","system_id":"levelo_inurba_marseille","lat":43.32359,"lon":5.38878,"is_reserved":false,"is_disabled":false,"rental_uris":{"android":"levelo://app?vid=de8d9fdf-7b46-48ad-a51d-f0132537ad32","ios":"levelo://app?vid=de8d9fdf-7b46-48ad-a51d-f0132537ad32"},"vehicle_type_id":"4","last_reported":1737399991,"current_range_meters":24000,"station_id":"ce4bhqp2rcd13ifvqhog","pricing_plan_id":"cebpf4jnsgd1na2vs0mg"},{"bike_id":"263584a7-b721-4333-8e39-8a470df48382","system_id":"levelo_inurba_marseille","lat":43.26224,"lon":5.40456,"is_reserved":false,"is_disabled":false,"rental_uris":{"android":"levelo://app?vid=263584a7-b721-4333-8e39-8a470df48382","ios":"levelo://app?vid=263584a7-b721-4333-8e39-8a470df48382"},"vehicle_type_id":"4","last_reported":1737399991,"current_range_meters":30000,"station_id":"","pricing_plan_id":"cebpf4jnsgd1na2vs0mg"},{"bike_id":"437e9a0d-847e-4225-9c71-0c081626b1a8","system_id":"levelo_inurba_marseille","lat":43.29516,"lon":5.39037,"is_reserved":false,"is_disabled":false,"rental_uris":{"android":"levelo://app?vid=437e9a0d-847e-4225-9c71-0c081626b1a8","ios":"levelo://app?vid=437e9a0d-847e-4225-9c71-0c081626b1a8"},"vehicle_type_id":"4","last_reported":1737399991,"current_range_meters":18000,"station_id":"ce4bh3p2rcd13ifvqdp0","pricing_plan_id":"cebpf4jnsgd1na2vs0mg"},{"bike_id":"db090fa3-42a7-4621-ba95-24031c78cef7","system_id":"levelo_inurba_marseille","lat":43.26506,"lon":5.39539,"is_reserved":false,"is_disabled":true,"rental_uris":{"android":"levelo://app?vid=db090fa3-42a7-4621-ba95-24031c78cef7","ios":"levelo://app?vid=db090fa3-42a7-4621-ba95-24031c78cef7"},"vehicle_type_id":"4","last_reported":1737399991,"current_range_meters":400,"station_id":"ce4bhi12rcd13ifvqfq0","pricing_plan_id":"cebpf4jnsgd1na2vs0mg"},{"bike_id":"2cca0472-e2a4-439d-914d-f9fce7966f79","system_id":"levelo_inurba_marseille","lat":43.28849,"lon":5.35783,"is_reserved":false,"is_disabled":false,"rental_uris":{"android":"levelo://app?vid=2cca0472-e2a4-439d-914d-f9fce7966f79","ios":"levelo://app?vid=2cca0472-e2a4-439d-914d-f9fce7966f79"},"vehicle_type_id":"4","last_reported":1737399991,"current_range_meters":38800,"station_id":"ce4bhb12rcd13ifvqem0","pricing_plan_id":"cebpf4jnsgd1na2vs0mg"},{"bike_id":"b9d81f94-7609-4867-b664-203eadb0fbda","system_id":"levelo_inurba_marseille","lat":43.28365,"lon":5.38649,"is_reserved":false,"is_disabled":false,"rental_uris":{"android":"levelo://app?vid=b9d81f94-7609-4867-b664-203eadb0fbda","ios":"levelo://app?vid=b9d81f94-7609-4867-b664-203eadb0fbda"},"vehicle_type_id":"4","last_reported":1737399991,"current_range_meters":20400,"station_id":"ce4bh492rcd13ifvqdvg","pricing_plan_id":"cebpf4jnsgd1na2vs0mg"},{"bike_id":"1df86f32-2cf2-4763-b0a8-e4c3956472b6","system_id":"levelo_inurba_marseille","lat":43.28708,"lon":5.37399,"is_reserved":false,"is_disabled":false,"rental_uris":{"android":"levelo://app?vid=1df86f32-2cf2-4763-b0a8-e4c3956472b6","ios":"levelo://app?vid=1df86f32-2cf2-4763-b0a8-e4c3956472b6"},"vehicle_type_id":"4","last_reported":1737399991,"current_range_meters":18000,"station_id":"ce4bh3p2rcd13ifvqdq0","pricing_plan_id":"cebpf4jnsgd1na2vs0mg"},{"bike_id":"a182fc4c-8bc2-4ced-a900-365aea0e4cec","system_id":"levelo_inurba_marseille","lat":43.28011,"lon":5.40002,"is_reserved":false,"is_disabled":false,"rental_uris":{"android":"levelo://app?vid=a182fc4c-8bc2-4ced-a900-365aea0e4cec","ios":"levelo://app?vid=a182fc4c-8bc2-4ced-a900-365aea0e4cec"},"vehicle_type_id":"4","last_reported":1737399991,"current_range_meters":35600,"station_id":"ce4bho92rcd13ifvqh4g","pricing_plan_id":"cebpf4jnsgd1na2vs0mg"},{"bike_id":"62bf0473-baaf-4ced-b8ff-c57da3495cce","system_id":"levelo_inurba_marseille","lat":43.2987,"lon":5.39713,"is_reserved":false,"is_disabled":false,"rental_uris":{"android":"levelo://app?vid=62bf0473-baaf-4ced-b8ff-c57da3495cce","ios":"levelo://app?vid=62bf0473-baaf-4ced-b8ff-c57da3495cce"},"vehicle_type_id":"4","last_reported":1737399991,"current_range_meters":38800,"station_id":"ce4bh0h2rcd13ifvqd50","pricing_plan_id":"cebpf4jnsgd1na2vs0mg"},{"bike_id":"5aa480e5-3e6a-40c8-badd-0f3cb7501d52","system_id":"levelo_inurba_marseille","lat":43.28927,"lon":5.38404,"is_reserved":false,"is_disabled":true,"rental_uris":{"android":"levelo://app?vid=5aa480e5-3e6a-40c8-badd-0f3cb7501d52","ios":"levelo://app?vid=5aa480e5-3e6a-40c8-badd-0f3cb7501d52"},"vehicle_type_id":"4","last_reported":1737399991,"current_range_meters":0,"station_id":"ce4bh612rcd13ifvqe6g","pricing_plan_id":"cebpf4jnsgd1na2vs0mg"},{"bike_id":"2fed15fe-6c9e-4a3e-9d35-a13e2d995cbb","system_id":"levelo_inurba_marseille","lat":43.30469,"lon":5.38199,"is_reserved":false,"is_disabled":false,"rental_uris":{"android":"levelo://app?vid=2fed15fe-6c9e-4a3e-9d35-a13e2d995cbb","ios":"levelo://app?vid=2fed15fe-6c9e-4a3e-9d35-a13e2d995cbb"},"vehicle_type_id":"4","last_reported":1737399991,"current_range_meters":13600,"station_id":"","pricing_plan_id":"cebpf4jnsgd1na2vs0mg"},{"bike_id":"b01a0517-838b-46fa-b08a-ced719493443","system_id":"levelo_inurba_marseille","lat":43.29884,"lon":5.39733,"is_reserved":false,"is_disabled":false,"rental_uris":{"android":"levelo://app?vid=b01a0517-838b-46fa-b08a-ced719493443","ios":"levelo://app?vid=b01a0517-838b-46fa-b08a-ced719493443"},"vehicle_type_id":"4","last_reported":1737399991,"current_range_meters":8800,"station_id":"ce4bh0h2rcd13ifvqd50","pricing_plan_id":"cebpf4jnsgd1na2vs0mg"},{"bike_id":"3860f79b-6390-4baa-9962-103869425bc6","system_id":"levelo_inurba_marseille","lat":43.29899,"lon":5.43671,"is_reserved":false,"is_disabled":false,"rental_uris":{"android":"levelo://app?vid=3860f79b-6390-4baa-9962-103869425bc6","ios":"levelo://app?vid=3860f79b-6390-4baa-9962-103869425bc6"},"vehicle_type_id":"4","last_reported":1737399991,"current_range_meters":16400,"station_id":"ce4bhpp2rcd13ifvqhfg","pricing_plan_id":"cebpf4jnsgd1na2vs0mg"},{"bike_id":"07f01315-ac8d-4a8e-8589-32137dce5b3a","system_id":"levelo_inurba_marseille","lat":43.32048,"lon":5.41548,"is_reserved":false,"is_disabled":false,"rental_uris":{"android":"levelo://app?vid=07f01315-ac8d-4a8e-8589-32137dce5b3a","ios":"levelo://app?vid=07f01315-ac8d-4a8e-8589-32137dce5b3a"},"vehicle_type_id":"4","last_reported":1737399991,"current_range_meters":27600,"station_id":"ce4bhq92rcd13ifvqhkg","pricing_plan_id":"cebpf4jnsgd1na2vs0mg"},{"bike_id":"57b9fcf7-ed67-49fd-bf0a-8cfaa7d29c57","system_id":"levelo_inurba_marseille","lat":43.29896,"lon":5.39734,"is_reserved":false,"is_disabled":false,"rental_uris":{"android":"levelo://app?vid=57b9fcf7-ed67-49fd-bf0a-8cfaa7d29c57","ios":"levelo://app?vid=57b9fcf7-ed67-49fd-bf0a-8cfaa7d29c57"},"vehicle_type_id":"4","last_reported":1737399991,"current_range_meters":27600,"station_id":"ce4bh0h2rcd13ifvqd50","pricing_plan_id":"cebpf4jnsgd1na2vs0mg"},{"bike_id":"a9377ea9-93fb-44eb-8638-fac48d9b5960","system_id":"levelo_inurba_marseille","lat":43.29538,"lon":5.37497,"is_reserved":false,"is_disabled":false,"rental_uris":{"android":"levelo://app?vid=a9377ea9-93fb-44eb-8638-fac48d9b5960","ios":"levelo://app?vid=a9377ea9-93fb-44eb-8638-fac48d9b5960"},"vehicle_type_id":"4","last_reported":1737399991,"current_range_meters":38800,"station_id":"ce4bgkp2rcd13ifvqbmg","pricing_plan_id":"cebpf4jnsgd1na2vs0mg"},{"bike_id":"d1171942-e39b-40fc-b243-cea357e6c542","system_id":"levelo_inurba_marseille","lat":43.30458,"lon":5.37902,"is_reserved":false,"is_disabled":false,"rental_uris":{"android":"levelo://app?vid=d1171942-e39b-40fc-b243-cea357e6c542","ios":"levelo://app?vid=d1171942-e39b-40fc-b243-cea357e6c542"},"vehicle_type_id":"4","last_reported":1737399991,"current_range_meters":27600,"station_id":"ce4bgup2rcd13ifvqcn0","pricing_plan_id":"cebpf4jnsgd1na2vs0mg"},{"bike_id":"b61ef142-9dbf-47d3-bb63-d9a982145198","system_id":"levelo_inurba_marseille","lat":43.29437,"lon":5.39753,"is_reserved":false,"is_disabled":false,"rental_uris":{"android":"levelo://app?vid=b61ef142-9dbf-47d3-bb63-d9a982145198","ios":"levelo://app?vid=b61ef142-9dbf-47d3-bb63-d9a982145198"},"vehicle_type_id":"4","last_reported":1737399991,"current_range_meters":8000,"station_id":"ce4bh3h2rcd13ifvqdo0","pricing_plan_id":"cebpf4jnsgd1na2vs0mg"},{"bike_id":"3834644f-4dec-4497-8f3e-857c24717516","system_id":"levelo_inurba_marseille","lat":43.29279,"lon":5.40127,"is_reserved":false,"is_disabled":false,"rental_uris":{"android":"levelo://app?vid=3834644f-4dec-4497-8f3e-857c24717516","ios":"levelo://app?vid=3834644f-4dec-4497-8f3e-857c24717516"},"vehicle_type_id":"4","last_reported":1737399991,"current_range_meters":19600,"station_id":"ce4bh312rcd13ifvqdk0","pricing_plan_id":"cebpf4jnsgd1na2vs0mg"},{"bike_id":"f6a3abe7-d326-4029-a8a4-7873995fe661","system_id":"levelo_inurba_marseille","lat":43.30954,"lon":5.39027,"is_reserved":false,"is_disabled":false,"rental_uris":{"android":"levelo://app?vid=f6a3abe7-d326-4029-a8a4-7873995fe661","ios":"levelo://app?vid=f6a3abe7-d326-4029-a8a4-7873995fe661"},"vehicle_type_id":"4","last_reported":1737399991,"current_range_meters":18000,"station_id":"ce4bgup2rcd13ifvqco0","pricing_plan_id":"cebpf4jnsgd1na2vs0mg"},{"bike_id":"e7ad8032-7d51-432d-8891-1b85f3e7060a","system_id":"levelo_inurba_marseille","lat":43.28026,"lon":5.36946,"is_reserved":false,"is_disabled":false,"rental_uris":{"android":"levelo://app?vid=e7ad8032-7d51-432d-8891-1b85f3e7060a","ios":"levelo://app?vid=e7ad8032-7d51-432d-8891-1b85f3e7060a"},"vehicle_type_id":"4","last_reported":1737399991,"current_range_meters":38800,"station_id":"ce4bha12rcd13ifvqef0","pricing_plan_id":"cebpf4jnsgd1na2vs0mg"},{"bike_id":"ad6c039d-169e-4be2-9f20-740d5f479877","system_id":"levelo_inurba_marseille","lat":43.29515,"lon":5.39052,"is_reserved":false,"is_disabled":false,"rental_uris":{"android":"levelo://app?vid=ad6c039d-169e-4be2-9f20-740d5f479877","ios":"levelo://app?vid=ad6c039d-169e-4be2-9f20-740d5f479877"},"vehicle_type_id":"4","last_reported":1737399991,"current_range_meters":39200,"station_id":"ce4bh3p2rcd13ifvqdp0","pricing_plan_id":"cebpf4jnsgd1na2vs0mg"},{"bike_id":"237a5a39-82d9-414a-97f8-9205d63ee768","system_id":"levelo_inurba_marseille","lat":43.30422,"lon":5.41288,"is_reserved":false,"is_disabled":false,"rental_uris":{"android":"levelo://app?vid=237a5a39-82d9-414a-97f8-9205d63ee768","ios":"levelo://app?vid=237a5a39-82d9-414a-97f8-9205d63ee768"},"vehicle_type_id":"4","last_reported":1737399991,"current_range_meters":39200,"station_id":"ce4bhop2rcd13ifvqh8g","pricing_plan_id":"cebpf4jnsgd1na2vs0mg"},{"bike_id":"3a5376cc-1a4a-4c17-8915-a440cbacddae","system_id":"levelo_inurba_marseille","lat":43.29025,"lon":5.38639,"is_reserved":false,"is_disabled":false,"rental_uris":{"android":"levelo://app?vid=3a5376cc-1a4a-4c17-8915-a440cbacddae","ios":"levelo://app?vid=3a5376cc-1a4a-4c17-8915-a440cbacddae"},"vehicle_type_id":"4","last_reported":1737399991,"current_range_meters":30400,"station_id":"ce4bh4p2rcd13ifvqe0g","pricing_plan_id":"cebpf4jnsgd1na2vs0mg"},{"bike_id":"62953f18-d96f-45f5-b581-e456a19a2cc9","system_id":"levelo_inurba_marseille","lat":43.29536,"lon":5.37496,"is_reserved":false,"is_disabled":false,"rental_uris":{"android":"levelo://app?vid=62953f18-d96f-45f5-b581-e456a19a2cc9","ios":"levelo://app?vid=62953f18-d96f-45f5-b581-e456a19a2cc9"},"vehicle_type_id":"4","last_reported":1737399991,"current_range_meters":26800,"station_id":"ce4bgh92rcd13ifvqb50","pricing_plan_id":"cebpf4jnsgd1na2vs0mg"},{"bike_id":"6d06bc90-1d32-4516-9bc9-b423317e82c4","system_id":"levelo_inurba_marseille","lat":43.31666,"lon":5.37766,"is_reserved":false,"is_disabled":true,"rental_uris":{"android":"levelo://app?vid=6d06bc90-1d32-4516-9bc9-b423317e82c4","ios":"levelo://app?vid=6d06bc90-1d32-4516-9bc9-b423317e82c4"},"vehicle_type_id":"4","last_reported":1737399991,"current_range_meters":28000,"station_id":"ce4bgth2rcd13ifvqch0","pricing_plan_id":"cebpf4jnsgd1na2vs0mg"},{"bike_id":"7b239399-9765-4039-8031-e0539132889c","system_id":"levelo_inurba_marseille","lat":43.28467,"lon":5.38403,"is_reserved":false,"is_disabled":false,"rental_uris":{"android":"levelo://app?vid=7b239399-9765-4039-8031-e0539132889c","ios":"levelo://app?vid=7b239399-9765-4039-8031-e0539132889c"},"vehicle_type_id":"4","last_reported":1737399991,"current_range_meters":38800,"station_id":"ce4bh512rcd13ifvqe3g","pricing_plan_id":"cebpf4jnsgd1na2vs0mg"},{"bike_id":"fe88ff77-ed27-467e-83d8-8d1c3353353d","system_id":"levelo_inurba_marseille","lat":43.28709,"lon":5.3996,"is_reserved":false,"is_disabled":false,"rental_uris":{"android":"levelo://app?vid=fe88ff77-ed27-467e-83d8-8d1c3353353d","ios":"levelo://app?vid=fe88ff77-ed27-467e-83d8-8d1c3353353d"},"vehicle_type_id":"4","last_reported":1737399991,"current_range_meters":38800,"station_id":"ce4bho92rcd13ifvqh3g","pricing_plan_id":"cebpf4jnsgd1na2vs0mg"},{"bike_id":"b6cc31be-151e-4d56-8839-e71a9cd45b18","system_id":"levelo_inurba_marseille","lat":43.23195,"lon":5.35561,"is_reserved":false,"is_disabled":false,"rental_uris":{"android":"levelo://app?vid=b6cc31be-151e-4d56-8839-e71a9cd45b18","ios":"levelo://app?vid=b6cc31be-151e-4d56-8839-e71a9cd45b18"},"vehicle_type_id":"4","last_reported":1737399991,"current_range_meters":38800,"station_id":"ce4bhu92rcd13ifvqi70","pricing_plan_id":"cebpf4jnsgd1na2vs0mg"},{"bike_id":"4104cbba-088f-4383-b2a0-261d17699731","system_id":"levelo_inurba_marseille","lat":43.23965,"lon":5.36641,"is_reserved":false,"is_disabled":false,"rental_uris":{"android":"levelo://app?vid=4104cbba-088f-4383-b2a0-261d17699731","ios":"levelo://app?vid=4104cbba-088f-4383-b2a0-261d17699731"},"vehicle_type_id":"4","last_reported":1737399991,"current_range_meters":30800,"station_id":"ce4bhi12rcd13ifvqfp0","pricing_plan_id":"cebpf4jnsgd1na2vs0mg"},{"bike_id":"28bc3cb4-2612-400a-83bf-7b03d2d7e732","system_id":"levelo_inurba_marseille","lat":43.252926,"lon":5.402215,"is_reserved":false,"is_disabled":false,"rental_uris":{"android":"levelo://app?vid=28bc3cb4-2612-400a-83bf-7b03d2d7e732","ios":"levelo://app?vid=28bc3cb4-2612-400a-83bf-7b03d2d7e732"},"vehicle_type_id":"4","last_reported":1737399991,"current_range_meters":18000,"station_id":"ce4bhlh2rcd13ifvqgig","pricing_plan_id":"cebpf4jnsgd1na2vs0mg"},{"bike_id":"e4f8bbc0-3e71-4438-9c78-7d4251a5823b","system_id":"levelo_inurba_marseille","lat":43.2958,"lon":5.37502,"is_reserved":false,"is_disabled":false,"rental_uris":{"android":"levelo://app?vid=e4f8bbc0-3e71-4438-9c78-7d4251a5823b","ios":"levelo://app?vid=e4f8bbc0-3e71-4438-9c78-7d4251a5823b"},"vehicle_type_id":"4","last_reported":1737399991,"current_range_meters":28800,"station_id":"ce4bgh92rcd13ifvqb50","pricing_plan_id":"cebpf4jnsgd1na2vs0mg"},{"bike_id":"e769477c-b503-4bb8-b7d3-b7f7ff9ddf2d","system_id":"levelo_inurba_marseille","lat":43.29209,"lon":5.36912,"is_reserved":false,"is_disabled":false,"rental_uris":{"android":"levelo://app?vid=e769477c-b503-4bb8-b7d3-b7f7ff9ddf2d","ios":"levelo://app?vid=e769477c-b503-4bb8-b7d3-b7f7ff9ddf2d"},"vehicle_type_id":"4","last_reported":1737399991,"current_range_meters":14000,"station_id":"","pricing_plan_id":"cebpf4jnsgd1na2vs0mg"},{"bike_id":"28ef1c1e-dd89-43e8-817b-9b489831397b","system_id":"levelo_inurba_marseille","lat":43.27118,"lon":5.39609,"is_reserved":false,"is_disabled":true,"rental_uris":{"android":"levelo://app?vid=28ef1c1e-dd89-43e8-817b-9b489831397b","ios":"levelo://app?vid=28ef1c1e-dd89-43e8-817b-9b489831397b"},"vehicle_type_id":"4","last_reported":1737399991,"current_range_meters":0,"station_id":"","pricing_plan_id":"cebpf4jnsgd1na2vs0mg"},{"bike_id":"8f01bf02-5bde-43e4-83f3-9b3b1e595b88","system_id":"levelo_inurba_marseille","lat":43.24176,"lon":5.39716,"is_reserved":false,"is_disabled":false,"rental_uris":{"android":"levelo://app?vid=8f01bf02-5bde-43e4-83f3-9b3b1e595b88","ios":"levelo://app?vid=8f01bf02-5bde-43e4-83f3-9b3b1e595b88"},"vehicle_type_id":"4","last_reported":1737399991,"current_range_meters":37600,"station_id":"ce4bhn12rcd13ifvqgpg","pricing_plan_id":"cebpf4jnsgd1na2vs0mg"},{"bike_id":"ef9f5283-1c36-47ba-ba58-583e077e7770","system_id":"levelo_inurba_marseille","lat":43.23184,"lon":5.39989,"is_reserved":false,"is_disabled":false,"rental_uris":{"android":"levelo://app?vid=ef9f5283-1c36-47ba-ba58-583e077e7770","ios":"levelo://app?vid=ef9f5283-1c36-47ba-ba58-583e077e7770"},"vehicle_type_id":"4","last_reported":1737399991,"current_range_meters":22400,"station_id":"ce4bhn12rcd13ifvqgqg","pricing_plan_id":"cebpf4jnsgd1na2vs0mg"},{"bike_id":"973357c8-dead-42ca-92e9-500225bc994c","system_id":"levelo_inurba_marseille","lat":43.33029,"lon":5.39043,"is_reserved":false,"is_disabled":false,"rental_uris":{"android":"levelo://app?vid=973357c8-dead-42ca-92e9-500225bc994c","ios":"levelo://app?vid=973357c8-dead-42ca-92e9-500225bc994c"},"vehicle_type_id":"4","last_reported":1737399991,"current_range_meters":37600,"station_id":"ce4bhr92rcd13ifvqhrg","pricing_plan_id":"cebpf4jnsgd1na2vs0mg"},{"bike_id":"91c9f4c6-30a9-44b2-a8b8-8fcf35cfb666","system_id":"levelo_inurba_marseille","lat":43.28035,"lon":5.36954,"is_reserved":false,"is_disabled":false,"rental_uris":{"android":"levelo://app?vid=91c9f4c6-30a9-44b2-a8b8-8fcf35cfb666","ios":"levelo://app?vid=91c9f4c6-30a9-44b2-a8b8-8fcf35cfb666"},"vehicle_type_id":"4","last_reported":1737399991,"current_range_meters":33600,"station_id":"ce4bha12rcd13ifvqef0","pricing_plan_id":"cebpf4jnsgd1na2vs0mg"},{"bike_id":"5972221a-a336-4179-80bb-b2160449743c","system_id":"levelo_inurba_marseille","lat":43.28567,"lon":5.39497,"is_reserved":false,"is_disabled":false,"rental_uris":{"android":"levelo://app?vid=5972221a-a336-4179-80bb-b2160449743c","ios":"levelo://app?vid=5972221a-a336-4179-80bb-b2160449743c"},"vehicle_type_id":"4","last_reported":1737399991,"current_range_meters":11600,"station_id":"ce4bh292rcd13ifvqdg0","pricing_plan_id":"cebpf4jnsgd1na2vs0mg"},{"bike_id":"93c89421-01a8-4eb3-b7a6-64d086b07b33","system_id":"levelo_inurba_marseille","lat":43.28993,"lon":5.37826,"is_reserved":false,"is_disabled":false,"rental_uris":{"android":"levelo://app?vid=93c89421-01a8-4eb3-b7a6-64d086b07b33","ios":"levelo://app?vid=93c89421-01a8-4eb3-b7a6-64d086b07b33"},"vehicle_type_id":"4","last_reported":1737399991,"current_range_meters":27600,"station_id":"ce4bh9p2rcd13ifvqed0","pricing_plan_id":"cebpf4jnsgd1na2vs0mg"},{"bike_id":"5fa49ac5-f5fb-407d-9f73-7837cb4b4991","system_id":"levelo_inurba_marseille","lat":43.28623,"lon":5.35092,"is_reserved":false,"is_disabled":false,"rental_uris":{"android":"levelo://app?vid=5fa49ac5-f5fb-407d-9f73-7837cb4b4991","ios":"levelo://app?vid=5fa49ac5-f5fb-407d-9f73-7837cb4b4991"},"vehicle_type_id":"4","last_reported":1737399991,"current_range_meters":33600,"station_id":"ce4bhch2rcd13ifvqeug","pricing_plan_id":"cebpf4jnsgd1na2vs0mg"},{"bike_id":"cc2a6220-e287-44b4-b19d-fa8e1a519583","system_id":"levelo_inurba_marseille","lat":43.29096,"lon":5.38129,"is_reserved":false,"is_disabled":false,"rental_uris":{"android":"levelo://app?vid=cc2a6220-e287-44b4-b19d-fa8e1a519583","ios":"levelo://app?vid=cc2a6220-e287-44b4-b19d-fa8e1a519583"},"vehicle_type_id":"4","last_reported":1737399991,"current_range_meters":14400,"station_id":"ce4bh512rcd13ifvqe2g","pricing_plan_id":"cebpf4jnsgd1na2vs0mg"},{"bike_id":"f476d878-7cd0-4f0c-8ec2-9d9f08b67a27","system_id":"levelo_inurba_marseille","lat":43.3127,"lon":5.40166,"is_reserved":false,"is_disabled":false,"rental_uris":{"android":"levelo://app?vid=f476d878-7cd0-4f0c-8ec2-9d9f08b67a27","ios":"levelo://app?vid=f476d878-7cd0-4f0c-8ec2-9d9f08b67a27"},"vehicle_type_id":"4","last_reported":1737399991,"current_range_meters":38800,"station_id":"ce4bh092rcd13ifvqd30","pricing_plan_id":"cebpf4jnsgd1na2vs0mg"},{"bike_id":"572111e7-56a7-4348-acc2-ff87890d28e9","system_id":"levelo_inurba_marseille","lat":43.29536,"lon":5.38536,"is_reserved":false,"is_disabled":false,"rental_uris":{"android":"levelo://app?vid=572111e7-56a7-4348-acc2-ff87890d28e9","ios":"levelo://app?vid=572111e7-56a7-4348-acc2-ff87890d28e9"},"vehicle_type_id":"4","last_reported":1737399991,"current_range_meters":30800,"station_id":"ce4bgih2rcd13ifvqba0","pricing_plan_id":"cebpf4jnsgd1na2vs0mg"},{"bike_id":"bd796583-6074-4dd4-85f5-9a3f092381db","system_id":"levelo_inurba_marseille","lat":43.30801,"lon":5.38159,"is_reserved":false,"is_disabled":false,"rental_uris":{"android":"levelo://app?vid=bd796583-6074-4dd4-85f5-9a3f092381db","ios":"levelo://app?vid=bd796583-6074-4dd4-85f5-9a3f092381db"},"vehicle_type_id":"4","last_reported":1737399991,"current_range_meters":37600,"station_id":"ce4bgt12rcd13ifvqce0","pricing_plan_id":"cebpf4jnsgd1na2vs0mg"},{"bike_id":"0ec67957-cf9a-485c-9a8b-aa729d02d428","system_id":"levelo_inurba_marseille","lat":43.29523,"lon":5.39042,"is_reserved":false,"is_disabled":false,"rental_uris":{"android":"levelo://app?vid=0ec67957-cf9a-485c-9a8b-aa729d02d428","ios":"levelo://app?vid=0ec67957-cf9a-485c-9a8b-aa729d02d428"},"vehicle_type_id":"4","last_reported":1737399991,"current_range_meters":27200,"station_id":"ce4bh3p2rcd13ifvqdp0","pricing_plan_id":"cebpf4jnsgd1na2vs0mg"},{"bike_id":"6c25f2eb-6f4e-4ee1-8c7a-fb3bd07b7c8b","system_id":"levelo_inurba_marseille","lat":43.30084,"lon":5.39076,"is_reserved":false,"is_disabled":false,"rental_uris":{"android":"levelo://app?vid=6c25f2eb-6f4e-4ee1-8c7a-fb3bd07b7c8b","ios":"levelo://app?vid=6c25f2eb-6f4e-4ee1-8c7a-fb3bd07b7c8b"},"vehicle_type_id":"4","last_reported":1737399991,"current_range_meters":33600,"station_id":"ce4bh192rcd13ifvqdb0","pricing_plan_id":"cebpf4jnsgd1na2vs0mg"},{"bike_id":"e7030034-320d-4608-a776-a72500cf3c13","system_id":"levelo_inurba_marseille","lat":43.3034,"lon":5.40425,"is_reserved":false,"is_disabled":false,"rental_uris":{"android":"levelo://app?vid=e7030034-320d-4608-a776-a72500cf3c13","ios":"levelo://app?vid=e7030034-320d-4608-a776-a72500cf3c13"},"vehicle_type_id":"4","last_reported":1737399991,"current_range_meters":35600,"station_id":"ce4bh012rcd13ifvqd10","pricing_plan_id":"cebpf4jnsgd1na2vs0mg"},{"bike_id":"01a07bd9-36a1-4c19-a88b-7c9e3a6ee490","system_id":"levelo_inurba_marseille","lat":43.25101,"lon":5.39495,"is_reserved":false,"is_disabled":false,"rental_uris":{"android":"levelo://app?vid=01a07bd9-36a1-4c19-a88b-7c9e3a6ee490","ios":"levelo://app?vid=01a07bd9-36a1-4c19-a88b-7c9e3a6ee490"},"vehicle_type_id":"4","last_reported":1737399991,"current_range_meters":28400,"station_id":"ce4bhm12rcd13ifvqgkg","pricing_plan_id":"cebpf4jnsgd1na2vs0mg"},{"bike_id":"30868fb9-be18-4137-b148-fea1b914be52","system_id":"levelo_inurba_marseille","lat":43.28002,"lon":5.40011,"is_reserved":false,"is_disabled":false,"rental_uris":{"android":"levelo://app?vid=30868fb9-be18-4137-b148-fea1b914be52","ios":"levelo://app?vid=30868fb9-be18-4137-b148-fea1b914be52"},"vehicle_type_id":"4","last_reported":1737399991,"current_range_meters":36800,"station_id":"ce4bho92rcd13ifvqh4g","pricing_plan_id":"cebpf4jnsgd1na2vs0mg"},{"bike_id":"5770b66f-2d5d-47b7-b803-2387511e319d","system_id":"levelo_inurba_marseille","lat":43.25118,"lon":5.40318,"is_reserved":false,"is_disabled":false,"rental_uris":{"android":"levelo://app?vid=5770b66f-2d5d-47b7-b803-2387511e319d","ios":"levelo://app?vid=5770b66f-2d5d-47b7-b803-2387511e319d"},"vehicle_type_id":"4","last_reported":1737399991,"current_range_meters":22000,"station_id":"ce4bhlh2rcd13ifvqgig","pricing_plan_id":"cebpf4jnsgd1na2vs0mg"},{"bike_id":"ec46ee25-07c5-496b-970c-cee81379a2ba","system_id":"levelo_inurba_marseille","lat":43.24658,"lon":5.38916,"is_reserved":false,"is_disabled":false,"rental_uris":{"android":"levelo://app?vid=ec46ee25-07c5-496b-970c-cee81379a2ba","ios":"levelo://app?vid=ec46ee25-07c5-496b-970c-cee81379a2ba"},"vehicle_type_id":"4","last_reported":1737399991,"current_range_meters":15200,"station_id":"ce4bhg12rcd13ifvqf60","pricing_plan_id":"cebpf4jnsgd1na2vs0mg"},{"bike_id":"343930de-5af2-4ac9-893d-6a37dfb9a434","system_id":"levelo_inurba_marseille","lat":43.29417,"lon":5.3862,"is_reserved":false,"is_disabled":false,"rental_uris":{"android":"levelo://app?vid=343930de-5af2-4ac9-893d-6a37dfb9a434","ios":"levelo://app?vid=343930de-5af2-4ac9-893d-6a37dfb9a434"},"vehicle_type_id":"4","last_reported":1737399991,"current_range_meters":38000,"station_id":"ce4bh2h2rcd13ifvqdh0","pricing_plan_id":"cebpf4jnsgd1na2vs0mg"},{"bike_id":"3f73cdce-5679-4f8e-bdfa-397be04d5b8c","system_id":"levelo_inurba_marseille","lat":43.29518,"lon":5.39039,"is_reserved":false,"is_disabled":false,"rental_uris":{"android":"levelo://app?vid=3f73cdce-5679-4f8e-bdfa-397be04d5b8c","ios":"levelo://app?vid=3f73cdce-5679-4f8e-bdfa-397be04d5b8c"},"vehicle_type_id":"4","last_reported":1737399991,"current_range_meters":37600,"station_id":"ce4bh3p2rcd13ifvqdp0","pricing_plan_id":"cebpf4jnsgd1na2vs0mg"},{"bike_id":"0df143a2-0a26-4175-914f-921bd0805414","system_id":"levelo_inurba_marseille","lat":43.31074,"lon":5.38347,"is_reserved":false,"is_disabled":false,"rental_uris":{"android":"levelo://app?vid=0df143a2-0a26-4175-914f-921bd0805414","ios":"levelo://app?vid=0df143a2-0a26-4175-914f-921bd0805414"},"vehicle_type_id":"4","last_reported":1737399991,"current_range_meters":32400,"station_id":"ce4bgv92rcd13ifvqcr0","pricing_plan_id":"cebpf4jnsgd1na2vs0mg"},{"bike_id":"2fe00ee8-6da5-45f1-b974-c51928fce30d","system_id":"levelo_inurba_marseille","lat":43.25706,"lon":5.41101,"is_reserved":false,"is_disabled":false,"rental_uris":{"android":"levelo://app?vid=2fe00ee8-6da5-45f1-b974-c51928fce30d","ios":"levelo://app?vid=2fe00ee8-6da5-45f1-b974-c51928fce30d"},"vehicle_type_id":"4","last_reported":1737399991,"current_range_meters":38000,"station_id":"ce4bhkp2rcd13ifvqgd0","pricing_plan_id":"cebpf4jnsgd1na2vs0mg"},{"bike_id":"68cfead7-896d-4264-b25e-84c828604e8a","system_id":"levelo_inurba_marseille","lat":43.2894,"lon":5.3664,"is_reserved":false,"is_disabled":false,"rental_uris":{"android":"levelo://app?vid=68cfead7-896d-4264-b25e-84c828604e8a","ios":"levelo://app?vid=68cfead7-896d-4264-b25e-84c828604e8a"},"vehicle_type_id":"4","last_reported":1737399991,"current_range_meters":2800,"station_id":"ce4bhap2rcd13ifvqek0","pricing_plan_id":"cebpf4jnsgd1na2vs0mg"},{"bike_id":"7f095a12-4f92-4659-8967-ab82406b1c77","system_id":"levelo_inurba_marseille","lat":43.23184,"lon":5.39984,"is_reserved":false,"is_disabled":false,"rental_uris":{"android":"levelo://app?vid=7f095a12-4f92-4659-8967-ab82406b1c77","ios":"levelo://app?vid=7f095a12-4f92-4659-8967-ab82406b1c77"},"vehicle_type_id":"4","last_reported":1737399991,"current_range_meters":39200,"station_id":"ce4bhn12rcd13ifvqgqg","pricing_plan_id":"cebpf4jnsgd1na2vs0mg"},{"bike_id":"f5ea92f2-c793-41e2-b699-a5fcacdfaf4a","system_id":"levelo_inurba_marseille","lat":43.294183,"lon":5.386274,"is_reserved":false,"is_disabled":false,"rental_uris":{"android":"levelo://app?vid=f5ea92f2-c793-41e2-b699-a5fcacdfaf4a","ios":"levelo://app?vid=f5ea92f2-c793-41e2-b699-a5fcacdfaf4a"},"vehicle_type_id":"4","last_reported":1737399991,"current_range_meters":28400,"station_id":"ce4bh2h2rcd13ifvqdh0","pricing_plan_id":"cebpf4jnsgd1na2vs0mg"},{"bike_id":"77ad0819-56a7-4c42-b402-3dda0f07bef9","system_id":"levelo_inurba_marseille","lat":43.29261,"lon":5.38447,"is_reserved":false,"is_disabled":false,"rental_uris":{"android":"levelo://app?vid=77ad0819-56a7-4c42-b402-3dda0f07bef9","ios":"levelo://app?vid=77ad0819-56a7-4c42-b402-3dda0f07bef9"},"vehicle_type_id":"4","last_reported":1737399991,"current_range_meters":16000,"station_id":"ce4bh692rcd13ifvqea0","pricing_plan_id":"cebpf4jnsgd1na2vs0mg"},{"bike_id":"76fc3200-f33f-4190-ae84-57b96cd0c3c7","system_id":"levelo_inurba_marseille","lat":43.24805,"lon":5.37453,"is_reserved":false,"is_disabled":false,"rental_uris":{"android":"levelo://app?vid=76fc3200-f33f-4190-ae84-57b96cd0c3c7","ios":"levelo://app?vid=76fc3200-f33f-4190-ae84-57b96cd0c3c7"},"vehicle_type_id":"4","last_reported":1737399991,"current_range_meters":39200,"station_id":"ce4bhgh2rcd13ifvqfb0","pricing_plan_id":"cebpf4jnsgd1na2vs0mg"},{"bike_id":"e9708e1f-0a87-441e-80c6-172d60135fa9","system_id":"levelo_inurba_marseille","lat":43.30644,"lon":5.40079,"is_reserved":false,"is_disabled":false,"rental_uris":{"android":"levelo://app?vid=e9708e1f-0a87-441e-80c6-172d60135fa9","ios":"levelo://app?vid=e9708e1f-0a87-441e-80c6-172d60135fa9"},"vehicle_type_id":"4","last_reported":1737399991,"current_range_meters":38800,"station_id":"ce4bh112rcd13ifvqda0","pricing_plan_id":"cebpf4jnsgd1na2vs0mg"},{"bike_id":"d2c106ab-c3b1-471e-a611-84040884af86","system_id":"levelo_inurba_marseille","lat":43.28151,"lon":5.42653,"is_reserved":false,"is_disabled":false,"rental_uris":{"android":"levelo://app?vid=d2c106ab-c3b1-471e-a611-84040884af86","ios":"levelo://app?vid=d2c106ab-c3b1-471e-a611-84040884af86"},"vehicle_type_id":"4","last_reported":1737399991,"current_range_meters":34000,"station_id":"ce4bhnh2rcd13ifvqgug","pricing_plan_id":"cebpf4jnsgd1na2vs0mg"},{"bike_id":"eaa638d9-7e2e-43a0-989a-f3e72ed09d7b","system_id":"levelo_inurba_marseille","lat":43.27904,"lon":5.38009,"is_reserved":false,"is_disabled":false,"rental_uris":{"android":"levelo://app?vid=eaa638d9-7e2e-43a0-989a-f3e72ed09d7b","ios":"levelo://app?vid=eaa638d9-7e2e-43a0-989a-f3e72ed09d7b"},"vehicle_type_id":"4","last_reported":1737399991,"current_range_meters":29600,"station_id":"ce4bhf92rcd13ifvqf50","pricing_plan_id":"cebpf4jnsgd1na2vs0mg"},{"bike_id":"4c707804-82f9-40c7-bd5a-c2828deb4c32","system_id":"levelo_inurba_marseille","lat":43.31169,"lon":5.38722,"is_reserved":false,"is_disabled":false,"rental_uris":{"android":"levelo://app?vid=4c707804-82f9-40c7-bd5a-c2828deb4c32","ios":"levelo://app?vid=4c707804-82f9-40c7-bd5a-c2828deb4c32"},"vehicle_type_id":"4","last_reported":1737399991,"current_range_meters":38000,"station_id":"ce4bgv12rcd13ifvqcp0","pricing_plan_id":"cebpf4jnsgd1na2vs0mg"},{"bike_id":"766c0b05-12b9-46db-a8a1-8ea67e796b39","system_id":"levelo_inurba_marseille","lat":43.30242,"lon":5.4005,"is_reserved":false,"is_disabled":false,"rental_uris":{"android":"levelo://app?vid=766c0b05-12b9-46db-a8a1-8ea67e796b39","ios":"levelo://app?vid=766c0b05-12b9-46db-a8a1-8ea67e796b39"},"vehicle_type_id":"4","last_reported":1737399991,"current_range_meters":24400,"station_id":"ce4bgvh2rcd13ifvqcs0","pricing_plan_id":"cebpf4jnsgd1na2vs0mg"},{"bike_id":"e8766598-b2f6-417b-a2f3-b73d56d88e6d","system_id":"levelo_inurba_marseille","lat":43.28678,"lon":5.38667,"is_reserved":false,"is_disabled":false,"rental_uris":{"android":"levelo://app?vid=e8766598-b2f6-417b-a2f3-b73d56d88e6d","ios":"levelo://app?vid=e8766598-b2f6-417b-a2f3-b73d56d88e6d"},"vehicle_type_id":"4","last_reported":1737399991,"current_range_meters":38800,"station_id":"ce4bh492rcd13ifvqdug","pricing_plan_id":"cebpf4jnsgd1na2vs0mg"},{"bike_id":"5f17a4aa-ea98-4030-8901-857d7bdddbc9","system_id":"levelo_inurba_marseille","lat":43.29255,"lon":5.3844,"is_reserved":false,"is_disabled":false,"rental_uris":{"android":"levelo://app?vid=5f17a4aa-ea98-4030-8901-857d7bdddbc9","ios":"levelo://app?vid=5f17a4aa-ea98-4030-8901-857d7bdddbc9"},"vehicle_type_id":"4","last_reported":1737399991,"current_range_meters":8400,"station_id":"ce4bh692rcd13ifvqea0","pricing_plan_id":"cebpf4jnsgd1na2vs0mg"},{"bike_id":"80bcc3e7-77de-44a5-8965-f19acb6d7452","system_id":"levelo_inurba_marseille","lat":43.33027,"lon":5.39037,"is_reserved":false,"is_disabled":false,"rental_uris":{"android":"levelo://app?vid=80bcc3e7-77de-44a5-8965-f19acb6d7452","ios":"levelo://app?vid=80bcc3e7-77de-44a5-8965-f19acb6d7452"},"vehicle_type_id":"4","last_reported":1737399991,"current_range_meters":38800,"station_id":"ce4bhr92rcd13ifvqhrg","pricing_plan_id":"cebpf4jnsgd1na2vs0mg"},{"bike_id":"1177b8d9-078b-4c01-92c4-33b44a2ee81c","system_id":"levelo_inurba_marseille","lat":43.28162,"lon":5.42636,"is_reserved":false,"is_disabled":false,"rental_uris":{"android":"levelo://app?vid=1177b8d9-078b-4c01-92c4-33b44a2ee81c","ios":"levelo://app?vid=1177b8d9-078b-4c01-92c4-33b44a2ee81c"},"vehicle_type_id":"4","last_reported":1737399991,"current_range_meters":38800,"station_id":"ce4bhnh2rcd13ifvqgug","pricing_plan_id":"cebpf4jnsgd1na2vs0mg"},{"bike_id":"76458d9c-debe-4829-9595-db34e50d2ccc","system_id":"levelo_inurba_marseille","lat":43.28606,"lon":5.37072,"is_reserved":false,"is_disabled":false,"rental_uris":{"android":"levelo://app?vid=76458d9c-debe-4829-9595-db34e50d2ccc","ios":"levelo://app?vid=76458d9c-debe-4829-9595-db34e50d2ccc"},"vehicle_type_id":"4","last_reported":1737399991,"current_range_meters":38800,"station_id":"ce4bht12rcd13ifvqi60","pricing_plan_id":"cebpf4jnsgd1na2vs0mg"},{"bike_id":"5c647c6a-f36f-4ac4-a081-cf09345ba7c6","system_id":"levelo_inurba_marseille","lat":43.2586,"lon":5.39919,"is_reserved":false,"is_disabled":false,"rental_uris":{"android":"levelo://app?vid=5c647c6a-f36f-4ac4-a081-cf09345ba7c6","ios":"levelo://app?vid=5c647c6a-f36f-4ac4-a081-cf09345ba7c6"},"vehicle_type_id":"4","last_reported":1737399991,"current_range_meters":38800,"station_id":"ce4bhl92rcd13ifvqghg","pricing_plan_id":"cebpf4jnsgd1na2vs0mg"},{"bike_id":"5ba6b9c2-7764-498b-b948-c97fa8a4e73d","system_id":"levelo_inurba_marseille","lat":43.24993,"lon":5.3893,"is_reserved":false,"is_disabled":true,"rental_uris":{"android":"levelo://app?vid=5ba6b9c2-7764-498b-b948-c97fa8a4e73d","ios":"levelo://app?vid=5ba6b9c2-7764-498b-b948-c97fa8a4e73d"},"vehicle_type_id":"4","last_reported":1737399991,"current_range_meters":0,"station_id":"ce4bhgp2rcd13ifvqfd0","pricing_plan_id":"cebpf4jnsgd1na2vs0mg"},{"bike_id":"798fc759-ca33-45d9-80ef-1210d6e2991a","system_id":"levelo_inurba_marseille","lat":43.29988,"lon":5.38516,"is_reserved":false,"is_disabled":false,"rental_uris":{"android":"levelo://app?vid=798fc759-ca33-45d9-80ef-1210d6e2991a","ios":"levelo://app?vid=798fc759-ca33-45d9-80ef-1210d6e2991a"},"vehicle_type_id":"4","last_reported":1737399991,"current_range_meters":36000,"station_id":"ce4bgj92rcd13ifvqbd0","pricing_plan_id":"cebpf4jnsgd1na2vs0mg"},{"bike_id":"f68abe3f-17ef-42a5-b3e3-f548fcbe853a","system_id":"levelo_inurba_marseille","lat":43.30333,"lon":5.40419,"is_reserved":false,"is_disabled":false,"rental_uris":{"android":"levelo://app?vid=f68abe3f-17ef-42a5-b3e3-f548fcbe853a","ios":"levelo://app?vid=f68abe3f-17ef-42a5-b3e3-f548fcbe853a"},"vehicle_type_id":"4","last_reported":1737399991,"current_range_meters":28800,"station_id":"ce4bh012rcd13ifvqd10","pricing_plan_id":"cebpf4jnsgd1na2vs0mg"},{"bike_id":"ef452395-3be9-454d-b5f5-c3f11f867018","system_id":"levelo_inurba_marseille","lat":43.3153,"lon":5.38019,"is_reserved":false,"is_disabled":false,"rental_uris":{"android":"levelo://app?vid=ef452395-3be9-454d-b5f5-c3f11f867018","ios":"levelo://app?vid=ef452395-3be9-454d-b5f5-c3f11f867018"},"vehicle_type_id":"4","last_reported":1737399991,"current_range_meters":32000,"station_id":"ce4bhsp2rcd13ifvqi50","pricing_plan_id":"cebpf4jnsgd1na2vs0mg"},{"bike_id":"b887ec45-2824-4a19-a327-1b38cefbc7dc","system_id":"levelo_inurba_marseille","lat":43.30919,"lon":5.36861,"is_reserved":false,"is_disabled":true,"rental_uris":{"android":"levelo://app?vid=b887ec45-2824-4a19-a327-1b38cefbc7dc","ios":"levelo://app?vid=b887ec45-2824-4a19-a327-1b38cefbc7dc"},"vehicle_type_id":"4","last_reported":1737399991,"current_range_meters":33600,"station_id":"ce4bgn92rcd13ifvqbvg","pricing_plan_id":"cebpf4jnsgd1na2vs0mg"},{"bike_id":"7a275a31-e3f5-48c7-b9f7-e3b50d73991d","system_id":"levelo_inurba_marseille","lat":43.2656,"lon":5.39013,"is_reserved":false,"is_disabled":false,"rental_uris":{"android":"levelo://app?vid=7a275a31-e3f5-48c7-b9f7-e3b50d73991d","ios":"levelo://app?vid=7a275a31-e3f5-48c7-b9f7-e3b50d73991d"},"vehicle_type_id":"4","last_reported":1737399991,"current_range_meters":34800,"station_id":"ce4bhe12rcd13ifvqf30","pricing_plan_id":"cebpf4jnsgd1na2vs0mg"},{"bike_id":"4b344f4f-63b5-4284-b400-eb66c5cbadff","system_id":"levelo_inurba_marseille","lat":43.31271,"lon":5.40162,"is_reserved":false,"is_disabled":false,"rental_uris":{"android":"levelo://app?vid=4b344f4f-63b5-4284-b400-eb66c5cbadff","ios":"levelo://app?vid=4b344f4f-63b5-4284-b400-eb66c5cbadff"},"vehicle_type_id":"4","last_reported":1737399991,"current_range_meters":28400,"station_id":"ce4bh092rcd13ifvqd30","pricing_plan_id":"cebpf4jnsgd1na2vs0mg"},{"bike_id":"b39f6109-7f56-4b17-b737-eaa8ed0334b8","system_id":"levelo_inurba_marseille","lat":43.30464,"lon":5.37911,"is_reserved":false,"is_disabled":true,"rental_uris":{"android":"levelo://app?vid=b39f6109-7f56-4b17-b737-eaa8ed0334b8","ios":"levelo://app?vid=b39f6109-7f56-4b17-b737-eaa8ed0334b8"},"vehicle_type_id":"4","last_reported":1737399991,"current_range_meters":37600,"station_id":"ce4bgup2rcd13ifvqcn0","pricing_plan_id":"cebpf4jnsgd1na2vs0mg"},{"bike_id":"5952fd51-0160-4f0f-b7a0-633056628b4d","system_id":"levelo_inurba_marseille","lat":43.29028,"lon":5.38633,"is_reserved":false,"is_disabled":false,"rental_uris":{"android":"levelo://app?vid=5952fd51-0160-4f0f-b7a0-633056628b4d","ios":"levelo://app?vid=5952fd51-0160-4f0f-b7a0-633056628b4d"},"vehicle_type_id":"4","last_reported":1737399991,"current_range_meters":30400,"station_id":"ce4bh4p2rcd13ifvqe0g","pricing_plan_id":"cebpf4jnsgd1na2vs0mg"},{"bike_id":"6fd346fc-5544-4854-a198-df7ee154b084","system_id":"levelo_inurba_marseille","lat":43.26507,"lon":5.39575,"is_reserved":false,"is_disabled":false,"rental_uris":{"android":"levelo://app?vid=6fd346fc-5544-4854-a198-df7ee154b084","ios":"levelo://app?vid=6fd346fc-5544-4854-a198-df7ee154b084"},"vehicle_type_id":"4","last_reported":1737399991,"current_range_meters":38800,"station_id":"ce4bhi12rcd13ifvqfq0","pricing_plan_id":"cebpf4jnsgd1na2vs0mg"},{"bike_id":"22e76ca9-981a-4cc9-b6be-a54552f2f140","system_id":"levelo_inurba_marseille","lat":43.28932,"lon":5.38408,"is_reserved":false,"is_disabled":false,"rental_uris":{"android":"levelo://app?vid=22e76ca9-981a-4cc9-b6be-a54552f2f140","ios":"levelo://app?vid=22e76ca9-981a-4cc9-b6be-a54552f2f140"},"vehicle_type_id":"4","last_reported":1737399991,"current_range_meters":22400,"station_id":"ce4bh612rcd13ifvqe6g","pricing_plan_id":"cebpf4jnsgd1na2vs0mg"},{"bike_id":"ca297010-5c72-47d6-b03a-6ec90012fb07","system_id":"levelo_inurba_marseille","lat":43.268,"lon":5.40242,"is_reserved":false,"is_disabled":false,"rental_uris":{"android":"levelo://app?vid=ca297010-5c72-47d6-b03a-6ec90012fb07","ios":"levelo://app?vid=ca297010-5c72-47d6-b03a-6ec90012fb07"},"vehicle_type_id":"4","last_reported":1737399991,"current_range_meters":12400,"station_id":"ce501612rcd8frsf0b60","pricing_plan_id":"cebpf4jnsgd1na2vs0mg"},{"bike_id":"0c741d55-e6bb-4be5-8dab-c41aff9bf1f7","system_id":"levelo_inurba_marseille","lat":43.28145,"lon":5.42637,"is_reserved":false,"is_disabled":false,"rental_uris":{"android":"levelo://app?vid=0c741d55-e6bb-4be5-8dab-c41aff9bf1f7","ios":"levelo://app?vid=0c741d55-e6bb-4be5-8dab-c41aff9bf1f7"},"vehicle_type_id":"4","last_reported":1737399991,"current_range_meters":38800,"station_id":"ce4bhnh2rcd13ifvqgug","pricing_plan_id":"cebpf4jnsgd1na2vs0mg"},{"bike_id":"6af54834-431c-4a3f-830b-0e7b4c790f85","system_id":"levelo_inurba_marseille","lat":43.28672,"lon":5.38666,"is_reserved":false,"is_disabled":false,"rental_uris":{"android":"levelo://app?vid=6af54834-431c-4a3f-830b-0e7b4c790f85","ios":"levelo://app?vid=6af54834-431c-4a3f-830b-0e7b4c790f85"},"vehicle_type_id":"4","last_reported":1737399991,"current_range_meters":38800,"station_id":"ce4bh492rcd13ifvqdug","pricing_plan_id":"cebpf4jnsgd1na2vs0mg"},{"bike_id":"de5adbf7-c4d4-49e3-ba68-72cc812f5662","system_id":"levelo_inurba_marseille","lat":43.29599,"lon":5.37716,"is_reserved":false,"is_disabled":true,"rental_uris":{"android":"levelo://app?vid=de5adbf7-c4d4-49e3-ba68-72cc812f5662","ios":"levelo://app?vid=de5adbf7-c4d4-49e3-ba68-72cc812f5662"},"vehicle_type_id":"4","last_reported":1737399991,"current_range_meters":4400,"station_id":"ce4bgi92rcd13ifvqb90","pricing_plan_id":"cebpf4jnsgd1na2vs0mg"},{"bike_id":"b697c026-1a3f-4173-8937-04c71439dde2","system_id":"levelo_inurba_marseille","lat":43.29775,"lon":5.39337,"is_reserved":false,"is_disabled":false,"rental_uris":{"android":"levelo://app?vid=b697c026-1a3f-4173-8937-04c71439dde2","ios":"levelo://app?vid=b697c026-1a3f-4173-8937-04c71439dde2"},"vehicle_type_id":"4","last_reported":1737399991,"current_range_meters":36400,"station_id":"chh1huq6cuj3fo74tm60","pricing_plan_id":"cebpf4jnsgd1na2vs0mg"},{"bike_id":"de0e2046-c69d-4a1d-a36c-55284d20df28","system_id":"levelo_inurba_marseille","lat":43.29709,"lon":5.36609,"is_reserved":false,"is_disabled":false,"rental_uris":{"android":"levelo://app?vid=de0e2046-c69d-4a1d-a36c-55284d20df28","ios":"levelo://app?vid=de0e2046-c69d-4a1d-a36c-55284d20df28"},"vehicle_type_id":"4","last_reported":1737399991,"current_range_meters":39200,"station_id":"ce4bgn12rcd13ifvqbt0","pricing_plan_id":"cebpf4jnsgd1na2vs0mg"},{"bike_id":"a64eab1e-dbe6-4f77-87db-641966b43236","system_id":"levelo_inurba_marseille","lat":43.25086,"lon":5.39523,"is_reserved":false,"is_disabled":false,"rental_uris":{"android":"levelo://app?vid=a64eab1e-dbe6-4f77-87db-641966b43236","ios":"levelo://app?vid=a64eab1e-dbe6-4f77-87db-641966b43236"},"vehicle_type_id":"4","last_reported":1737399991,"current_range_meters":33200,"station_id":"ce4bhm12rcd13ifvqgkg","pricing_plan_id":"cebpf4jnsgd1na2vs0mg"},{"bike_id":"24dcb2d8-bd21-4fd8-adf5-e488404e9232","system_id":"levelo_inurba_marseille","lat":43.24645,"lon":5.38898,"is_reserved":false,"is_disabled":false,"rental_uris":{"android":"levelo://app?vid=24dcb2d8-bd21-4fd8-adf5-e488404e9232","ios":"levelo://app?vid=24dcb2d8-bd21-4fd8-adf5-e488404e9232"},"vehicle_type_id":"4","last_reported":1737399991,"current_range_meters":28400,"station_id":"ce4bhg12rcd13ifvqf60","pricing_plan_id":"cebpf4jnsgd1na2vs0mg"},{"bike_id":"44e80b05-ae37-452d-b12b-b0112112cbe6","system_id":"levelo_inurba_marseille","lat":43.29803,"lon":5.38097,"is_reserved":false,"is_disabled":false,"rental_uris":{"android":"levelo://app?vid=44e80b05-ae37-452d-b12b-b0112112cbe6","ios":"levelo://app?vid=44e80b05-ae37-452d-b12b-b0112112cbe6"},"vehicle_type_id":"4","last_reported":1737399991,"current_range_meters":36400,"station_id":"ce4bgip2rcd13ifvqbb0","pricing_plan_id":"cebpf4jnsgd1na2vs0mg"},{"bike_id":"663306fa-d4fe-4c69-ae70-6de9e9632fa6","system_id":"levelo_inurba_marseille","lat":43.31323,"lon":5.39686,"is_reserved":false,"is_disabled":false,"rental_uris":{"android":"levelo://app?vid=663306fa-d4fe-4c69-ae70-6de9e9632fa6","ios":"levelo://app?vid=663306fa-d4fe-4c69-ae70-6de9e9632fa6"},"vehicle_type_id":"4","last_reported":1737399991,"current_range_meters":5600,"station_id":"ce4bgvp2rcd13ifvqcu0","pricing_plan_id":"cebpf4jnsgd1na2vs0mg"},{"bike_id":"def4261b-ecda-4bf3-aa61-0e5e8ee4c990","system_id":"levelo_inurba_marseille","lat":43.32335,"lon":5.40615,"is_reserved":false,"is_disabled":false,"rental_uris":{"android":"levelo://app?vid=def4261b-ecda-4bf3-aa61-0e5e8ee4c990","ios":"levelo://app?vid=def4261b-ecda-4bf3-aa61-0e5e8ee4c990"},"vehicle_type_id":"4","last_reported":1737399991,"current_range_meters":36800,"station_id":"ce4bhq92rcd13ifvqhjg","pricing_plan_id":"cebpf4jnsgd1na2vs0mg"},{"bike_id":"f7817e8d-eab7-43f4-8262-b0948daf0edd","system_id":"levelo_inurba_marseille","lat":43.31702,"lon":5.37767,"is_reserved":false,"is_disabled":false,"rental_uris":{"android":"levelo://app?vid=f7817e8d-eab7-43f4-8262-b0948daf0edd","ios":"levelo://app?vid=f7817e8d-eab7-43f4-8262-b0948daf0edd"},"vehicle_type_id":"4","last_reported":1737399991,"current_range_meters":39200,"station_id":"ce4bgth2rcd13ifvqch0","pricing_plan_id":"cebpf4jnsgd1na2vs0mg"},{"bike_id":"d30eb37c-3b87-464f-923f-e2eb6d295b51","system_id":"levelo_inurba_marseille","lat":43.30911,"lon":5.36848,"is_reserved":false,"is_disabled":false,"rental_uris":{"android":"levelo://app?vid=d30eb37c-3b87-464f-923f-e2eb6d295b51","ios":"levelo://app?vid=d30eb37c-3b87-464f-923f-e2eb6d295b51"},"vehicle_type_id":"4","last_reported":1737399991,"current_range_meters":32400,"station_id":"ce4bgn92rcd13ifvqbvg","pricing_plan_id":"cebpf4jnsgd1na2vs0mg"},{"bike_id":"794621e3-3124-4bb3-96e3-bbeccc7c03ca","system_id":"levelo_inurba_marseille","lat":43.27821,"lon":5.40717,"is_reserved":false,"is_disabled":false,"rental_uris":{"android":"levelo://app?vid=794621e3-3124-4bb3-96e3-bbeccc7c03ca","ios":"levelo://app?vid=794621e3-3124-4bb3-96e3-bbeccc7c03ca"},"vehicle_type_id":"4","last_reported":1737399991,"current_range_meters":30400,"station_id":"ce4bhnh2rcd13ifvqgtg","pricing_plan_id":"cebpf4jnsgd1na2vs0mg"},{"bike_id":"e49401c7-f7a8-418d-8b78-718a422cd25d","system_id":"levelo_inurba_marseille","lat":43.29165,"lon":5.37163,"is_reserved":false,"is_disabled":true,"rental_uris":{"android":"levelo://app?vid=e49401c7-f7a8-418d-8b78-718a422cd25d","ios":"levelo://app?vid=e49401c7-f7a8-418d-8b78-718a422cd25d"},"vehicle_type_id":"4","last_reported":1737399991,"current_range_meters":28000,"station_id":"ce4bha92rcd13ifvqeh0","pricing_plan_id":"cebpf4jnsgd1na2vs0mg"},{"bike_id":"da3a7eb9-5fa6-49b3-9e5b-6452969eedf1","system_id":"levelo_inurba_marseille","lat":43.24385,"lon":5.37058,"is_reserved":false,"is_disabled":true,"rental_uris":{"android":"levelo://app?vid=da3a7eb9-5fa6-49b3-9e5b-6452969eedf1","ios":"levelo://app?vid=da3a7eb9-5fa6-49b3-9e5b-6452969eedf1"},"vehicle_type_id":"4","last_reported":1737399991,"current_range_meters":24000,"station_id":"ce4bhhh2rcd13ifvqfk0","pricing_plan_id":"cebpf4jnsgd1na2vs0mg"},{"bike_id":"1c92ca80-b478-4b98-8b2b-ce49639e8b36","system_id":"levelo_inurba_marseille","lat":43.29541,"lon":5.3854,"is_reserved":false,"is_disabled":false,"rental_uris":{"android":"levelo://app?vid=1c92ca80-b478-4b98-8b2b-ce49639e8b36","ios":"levelo://app?vid=1c92ca80-b478-4b98-8b2b-ce49639e8b36"},"vehicle_type_id":"4","last_reported":1737399991,"current_range_meters":37600,"station_id":"ce4bgih2rcd13ifvqba0","pricing_plan_id":"cebpf4jnsgd1na2vs0mg"},{"bike_id":"46fff60c-da93-4e15-9cbf-bedd254fc83d","system_id":"levelo_inurba_marseille","lat":43.22937,"lon":5.35386,"is_reserved":false,"is_disabled":false,"rental_uris":{"android":"levelo://app?vid=46fff60c-da93-4e15-9cbf-bedd254fc83d","ios":"levelo://app?vid=46fff60c-da93-4e15-9cbf-bedd254fc83d"},"vehicle_type_id":"4","last_reported":1737399991,"current_range_meters":37600,"station_id":"cpo3532slgdg3j2ikp40","pricing_plan_id":"cebpf4jnsgd1na2vs0mg"},{"bike_id":"026c5cbe-081d-480e-8260-80cc91166677","system_id":"levelo_inurba_marseille","lat":43.28694,"lon":5.39965,"is_reserved":false,"is_disabled":true,"rental_uris":{"android":"levelo://app?vid=026c5cbe-081d-480e-8260-80cc91166677","ios":"levelo://app?vid=026c5cbe-081d-480e-8260-80cc91166677"},"vehicle_type_id":"4","last_reported":1737399991,"current_range_meters":1600,"station_id":"ce4bho92rcd13ifvqh3g","pricing_plan_id":"cebpf4jnsgd1na2vs0mg"},{"bike_id":"07d66405-2e98-4f47-a9c9-b19f49a1104c","system_id":"levelo_inurba_marseille","lat":43.294219,"lon":5.386269,"is_reserved":false,"is_disabled":false,"rental_uris":{"android":"levelo://app?vid=07d66405-2e98-4f47-a9c9-b19f49a1104c","ios":"levelo://app?vid=07d66405-2e98-4f47-a9c9-b19f49a1104c"},"vehicle_type_id":"4","last_reported":1737399991,"current_range_meters":38000,"station_id":"ce4bh2h2rcd13ifvqdh0","pricing_plan_id":"cebpf4jnsgd1na2vs0mg"},{"bike_id":"201184dd-de12-42f6-b9a8-f94cf04ddff5","system_id":"levelo_inurba_marseille","lat":43.31278,"lon":5.40165,"is_reserved":false,"is_disabled":false,"rental_uris":{"android":"levelo://app?vid=201184dd-de12-42f6-b9a8-f94cf04ddff5","ios":"levelo://app?vid=201184dd-de12-42f6-b9a8-f94cf04ddff5"},"vehicle_type_id":"4","last_reported":1737399991,"current_range_meters":32000,"station_id":"ce4bh092rcd13ifvqd30","pricing_plan_id":"cebpf4jnsgd1na2vs0mg"},{"bike_id":"1debdbc0-8302-406d-920b-a40130efb080","system_id":"levelo_inurba_marseille","lat":43.28935,"lon":5.36372,"is_reserved":false,"is_disabled":false,"rental_uris":{"android":"levelo://app?vid=1debdbc0-8302-406d-920b-a40130efb080","ios":"levelo://app?vid=1debdbc0-8302-406d-920b-a40130efb080"},"vehicle_type_id":"4","last_reported":1737399991,"current_range_meters":28800,"station_id":"ce4bhc92rcd13ifvqetg","pricing_plan_id":"cebpf4jnsgd1na2vs0mg"},{"bike_id":"a36ee2d1-1d7f-42c5-9a98-f1d3e9db357d","system_id":"levelo_inurba_marseille","lat":43.23965,"lon":5.3663,"is_reserved":false,"is_disabled":false,"rental_uris":{"android":"levelo://app?vid=a36ee2d1-1d7f-42c5-9a98-f1d3e9db357d","ios":"levelo://app?vid=a36ee2d1-1d7f-42c5-9a98-f1d3e9db357d"},"vehicle_type_id":"4","last_reported":1737399991,"current_range_meters":21600,"station_id":"ce4bhi12rcd13ifvqfp0","pricing_plan_id":"cebpf4jnsgd1na2vs0mg"},{"bike_id":"4237003f-139f-4045-9ac4-cad8fa734532","system_id":"levelo_inurba_marseille","lat":43.27993,"lon":5.41667,"is_reserved":false,"is_disabled":false,"rental_uris":{"android":"levelo://app?vid=4237003f-139f-4045-9ac4-cad8fa734532","ios":"levelo://app?vid=4237003f-139f-4045-9ac4-cad8fa734532"},"vehicle_type_id":"4","last_reported":1737399991,"current_range_meters":38800,"station_id":"ce4bho12rcd13ifvqh1g","pricing_plan_id":"cebpf4jnsgd1na2vs0mg"},{"bike_id":"a8a68a08-c628-497b-bfe5-57204ba5cc39","system_id":"levelo_inurba_marseille","lat":43.281487,"lon":5.426407,"is_reserved":false,"is_disabled":false,"rental_uris":{"android":"levelo://app?vid=a8a68a08-c628-497b-bfe5-57204ba5cc39","ios":"levelo://app?vid=a8a68a08-c628-497b-bfe5-57204ba5cc39"},"vehicle_type_id":"4","last_reported":1737399991,"current_range_meters":29600,"station_id":"ce4bhnh2rcd13ifvqgug","pricing_plan_id":"cebpf4jnsgd1na2vs0mg"},{"bike_id":"4bc49912-71c9-48b2-8244-21e1aeecfe85","system_id":"levelo_inurba_marseille","lat":43.2953,"lon":5.39017,"is_reserved":false,"is_disabled":false,"rental_uris":{"android":"levelo://app?vid=4bc49912-71c9-48b2-8244-21e1aeecfe85","ios":"levelo://app?vid=4bc49912-71c9-48b2-8244-21e1aeecfe85"},"vehicle_type_id":"4","last_reported":1737399991,"current_range_meters":28800,"station_id":"ce4bh3p2rcd13ifvqdp0","pricing_plan_id":"cebpf4jnsgd1na2vs0mg"},{"bike_id":"4b88b371-38a3-443d-96cf-2b99cc4f3954","system_id":"levelo_inurba_marseille","lat":43.29711,"lon":5.37693,"is_reserved":false,"is_disabled":true,"rental_uris":{"android":"levelo://app?vid=4b88b371-38a3-443d-96cf-2b99cc4f3954","ios":"levelo://app?vid=4b88b371-38a3-443d-96cf-2b99cc4f3954"},"vehicle_type_id":"4","last_reported":1737399991,"current_range_meters":39200,"station_id":"ce4bgkh2rcd13ifvqbl0","pricing_plan_id":"cebpf4jnsgd1na2vs0mg"},{"bike_id":"0b7dcfaf-34cc-4cc0-ad93-967da4af8bb4","system_id":"levelo_inurba_marseille","lat":43.27986,"lon":5.41641,"is_reserved":false,"is_disabled":false,"rental_uris":{"android":"levelo://app?vid=0b7dcfaf-34cc-4cc0-ad93-967da4af8bb4","ios":"levelo://app?vid=0b7dcfaf-34cc-4cc0-ad93-967da4af8bb4"},"vehicle_type_id":"4","last_reported":1737399991,"current_range_meters":24400,"station_id":"ce4bho12rcd13ifvqh1g","pricing_plan_id":"cebpf4jnsgd1na2vs0mg"},{"bike_id":"a52b2e21-9fd9-47c6-aee2-c35bb51d39be","system_id":"levelo_inurba_marseille","lat":43.30151,"lon":5.38787,"is_reserved":false,"is_disabled":false,"rental_uris":{"android":"levelo://app?vid=a52b2e21-9fd9-47c6-aee2-c35bb51d39be","ios":"levelo://app?vid=a52b2e21-9fd9-47c6-aee2-c35bb51d39be"},"vehicle_type_id":"4","last_reported":1737399991,"current_range_meters":29600,"station_id":"ce4bghh2rcd13ifvqb60","pricing_plan_id":"cebpf4jnsgd1na2vs0mg"},{"bike_id":"26806958-71ba-4757-8a50-e6868ab7f8f5","system_id":"levelo_inurba_marseille","lat":43.30133,"lon":5.39878,"is_reserved":false,"is_disabled":false,"rental_uris":{"android":"levelo://app?vid=26806958-71ba-4757-8a50-e6868ab7f8f5","ios":"levelo://app?vid=26806958-71ba-4757-8a50-e6868ab7f8f5"},"vehicle_type_id":"4","last_reported":1737399991,"current_range_meters":36000,"station_id":"ce4bh0h2rcd13ifvqd40","pricing_plan_id":"cebpf4jnsgd1na2vs0mg"},{"bike_id":"729cd9a2-fb20-4c4d-83e6-3403f2cadbc3","system_id":"levelo_inurba_marseille","lat":43.29265,"lon":5.38441,"is_reserved":false,"is_disabled":false,"rental_uris":{"android":"levelo://app?vid=729cd9a2-fb20-4c4d-83e6-3403f2cadbc3","ios":"levelo://app?vid=729cd9a2-fb20-4c4d-83e6-3403f2cadbc3"},"vehicle_type_id":"4","last_reported":1737399991,"current_range_meters":26000,"station_id":"ce4bh692rcd13ifvqea0","pricing_plan_id":"cebpf4jnsgd1na2vs0mg"},{"bike_id":"dae2cf3a-bdae-4dac-808a-bbc34097d543","system_id":"levelo_inurba_marseille","lat":43.29802,"lon":5.38096,"is_reserved":false,"is_disabled":false,"rental_uris":{"android":"levelo://app?vid=dae2cf3a-bdae-4dac-808a-bbc34097d543","ios":"levelo://app?vid=dae2cf3a-bdae-4dac-808a-bbc34097d543"},"vehicle_type_id":"4","last_reported":1737399991,"current_range_meters":36400,"station_id":"ce4bgip2rcd13ifvqbb0","pricing_plan_id":"cebpf4jnsgd1na2vs0mg"},{"bike_id":"3a4c3bce-1ff1-418b-a6c0-a0f5f72d1ae9","system_id":"levelo_inurba_marseille","lat":43.289284,"lon":5.384064,"is_reserved":false,"is_disabled":false,"rental_uris":{"android":"levelo://app?vid=3a4c3bce-1ff1-418b-a6c0-a0f5f72d1ae9","ios":"levelo://app?vid=3a4c3bce-1ff1-418b-a6c0-a0f5f72d1ae9"},"vehicle_type_id":"4","last_reported":1737399991,"current_range_meters":38800,"station_id":"ce4bh612rcd13ifvqe6g","pricing_plan_id":"cebpf4jnsgd1na2vs0mg"},{"bike_id":"a4c27cc3-c38b-466c-95a1-4dd1f3789e48","system_id":"levelo_inurba_marseille","lat":43.33012,"lon":5.39052,"is_reserved":false,"is_disabled":false,"rental_uris":{"android":"levelo://app?vid=a4c27cc3-c38b-466c-95a1-4dd1f3789e48","ios":"levelo://app?vid=a4c27cc3-c38b-466c-95a1-4dd1f3789e48"},"vehicle_type_id":"4","last_reported":1737399991,"current_range_meters":38800,"station_id":"ce4bhr92rcd13ifvqhrg","pricing_plan_id":"cebpf4jnsgd1na2vs0mg"},{"bike_id":"f2390374-e060-4fe1-bcfa-cb2711193e58","system_id":"levelo_inurba_marseille","lat":43.25095,"lon":5.39499,"is_reserved":false,"is_disabled":false,"rental_uris":{"android":"levelo://app?vid=f2390374-e060-4fe1-bcfa-cb2711193e58","ios":"levelo://app?vid=f2390374-e060-4fe1-bcfa-cb2711193e58"},"vehicle_type_id":"4","last_reported":1737399991,"current_range_meters":34000,"station_id":"ce4bhm12rcd13ifvqgkg","pricing_plan_id":"cebpf4jnsgd1na2vs0mg"},{"bike_id":"34b3e2fe-3018-482d-999a-aa40bac1e18b","system_id":"levelo_inurba_marseille","lat":43.30796,"lon":5.37641,"is_reserved":false,"is_disabled":false,"rental_uris":{"android":"levelo://app?vid=34b3e2fe-3018-482d-999a-aa40bac1e18b","ios":"levelo://app?vid=34b3e2fe-3018-482d-999a-aa40bac1e18b"},"vehicle_type_id":"4","last_reported":1737399991,"current_range_meters":20000,"station_id":"ce4bgv92rcd13ifvqcq0","pricing_plan_id":"cebpf4jnsgd1na2vs0mg"},{"bike_id":"9f3ee6aa-4bec-4f76-91c0-b7e5047ea1b6","system_id":"levelo_inurba_marseille","lat":43.28422,"lon":5.37509,"is_reserved":false,"is_disabled":false,"rental_uris":{"android":"levelo://app?vid=9f3ee6aa-4bec-4f76-91c0-b7e5047ea1b6","ios":"levelo://app?vid=9f3ee6aa-4bec-4f76-91c0-b7e5047ea1b6"},"vehicle_type_id":"4","last_reported":1737399991,"current_range_meters":38000,"station_id":"ce4bh412rcd13ifvqds0","pricing_plan_id":"cebpf4jnsgd1na2vs0mg"},{"bike_id":"6fa96e81-a119-436e-b985-1cf31a85cc4c","system_id":"levelo_inurba_marseille","lat":43.27903,"lon":5.38001,"is_reserved":false,"is_disabled":false,"rental_uris":{"android":"levelo://app?vid=6fa96e81-a119-436e-b985-1cf31a85cc4c","ios":"levelo://app?vid=6fa96e81-a119-436e-b985-1cf31a85cc4c"},"vehicle_type_id":"4","last_reported":1737399991,"current_range_meters":33200,"station_id":"ce4bhf92rcd13ifvqf50","pricing_plan_id":"cebpf4jnsgd1na2vs0mg"},{"bike_id":"51c27675-1177-492c-9119-516ee2bbe1a0","system_id":"levelo_inurba_marseille","lat":43.2984,"lon":5.36268,"is_reserved":false,"is_disabled":false,"rental_uris":{"android":"levelo://app?vid=51c27675-1177-492c-9119-516ee2bbe1a0","ios":"levelo://app?vid=51c27675-1177-492c-9119-516ee2bbe1a0"},"vehicle_type_id":"4","last_reported":1737399991,"current_range_meters":10000,"station_id":"ce4bgpp2rcd13ifvqc3g","pricing_plan_id":"cebpf4jnsgd1na2vs0mg"},{"bike_id":"8e228a20-ac43-4d17-b613-5f87cda93d96","system_id":"levelo_inurba_marseille","lat":43.30329,"lon":5.40443,"is_reserved":false,"is_disabled":false,"rental_uris":{"android":"levelo://app?vid=8e228a20-ac43-4d17-b613-5f87cda93d96","ios":"levelo://app?vid=8e228a20-ac43-4d17-b613-5f87cda93d96"},"vehicle_type_id":"4","last_reported":1737399991,"current_range_meters":38800,"station_id":"ce4bh012rcd13ifvqd10","pricing_plan_id":"cebpf4jnsgd1na2vs0mg"},{"bike_id":"681f197f-efc6-4c83-b9df-ec2a8b690c28","system_id":"levelo_inurba_marseille","lat":43.28942,"lon":5.36629,"is_reserved":false,"is_disabled":false,"rental_uris":{"android":"levelo://app?vid=681f197f-efc6-4c83-b9df-ec2a8b690c28","ios":"levelo://app?vid=681f197f-efc6-4c83-b9df-ec2a8b690c28"},"vehicle_type_id":"4","last_reported":1737399991,"current_range_meters":38800,"station_id":"ce4bhap2rcd13ifvqek0","pricing_plan_id":"cebpf4jnsgd1na2vs0mg"},{"bike_id":"412d2955-5a84-4ed2-ac27-b087c6be0824","system_id":"levelo_inurba_marseille","lat":43.32005,"lon":5.38202,"is_reserved":false,"is_disabled":false,"rental_uris":{"android":"levelo://app?vid=412d2955-5a84-4ed2-ac27-b087c6be0824","ios":"levelo://app?vid=412d2955-5a84-4ed2-ac27-b087c6be0824"},"vehicle_type_id":"4","last_reported":1737399991,"current_range_meters":38000,"station_id":"ce4bhr12rcd13ifvqhpg","pricing_plan_id":"cebpf4jnsgd1na2vs0mg"},{"bike_id":"bd0e1f72-d225-44e6-a629-43633461047f","system_id":"levelo_inurba_marseille","lat":43.27384,"lon":5.39264,"is_reserved":false,"is_disabled":false,"rental_uris":{"android":"levelo://app?vid=bd0e1f72-d225-44e6-a629-43633461047f","ios":"levelo://app?vid=bd0e1f72-d225-44e6-a629-43633461047f"},"vehicle_type_id":"4","last_reported":1737399991,"current_range_meters":38800,"station_id":"ce4bhgp2rcd13ifvqfe0","pricing_plan_id":"cebpf4jnsgd1na2vs0mg"},{"bike_id":"0e55de22-ee77-43a3-9d28-87cdb62c7b4f","system_id":"levelo_inurba_marseille","lat":43.28704,"lon":5.36114,"is_reserved":false,"is_disabled":false,"rental_uris":{"android":"levelo://app?vid=0e55de22-ee77-43a3-9d28-87cdb62c7b4f","ios":"levelo://app?vid=0e55de22-ee77-43a3-9d28-87cdb62c7b4f"},"vehicle_type_id":"4","last_reported":1737399991,"current_range_meters":38800,"station_id":"cki0cbj6b192h4jlfktg","pricing_plan_id":"cebpf4jnsgd1na2vs0mg"},{"bike_id":"949c9cd1-ae34-40df-a577-3b274ceafaf2","system_id":"levelo_inurba_marseille","lat":43.29093,"lon":5.38138,"is_reserved":false,"is_disabled":false,"rental_uris":{"android":"levelo://app?vid=949c9cd1-ae34-40df-a577-3b274ceafaf2","ios":"levelo://app?vid=949c9cd1-ae34-40df-a577-3b274ceafaf2"},"vehicle_type_id":"4","last_reported":1737399991,"current_range_meters":24400,"station_id":"ce4bh512rcd13ifvqe2g","pricing_plan_id":"cebpf4jnsgd1na2vs0mg"},{"bike_id":"3c75e182-45fc-46fc-b9ed-74fd618f5526","system_id":"levelo_inurba_marseille","lat":43.27997,"lon":5.41655,"is_reserved":false,"is_disabled":false,"rental_uris":{"android":"levelo://app?vid=3c75e182-45fc-46fc-b9ed-74fd618f5526","ios":"levelo://app?vid=3c75e182-45fc-46fc-b9ed-74fd618f5526"},"vehicle_type_id":"4","last_reported":1737399991,"current_range_meters":19600,"station_id":"ce4bho12rcd13ifvqh1g","pricing_plan_id":"cebpf4jnsgd1na2vs0mg"},{"bike_id":"36b02f5b-366d-4c8d-ac75-9c5f7c4d6ba1","system_id":"levelo_inurba_marseille","lat":43.3127,"lon":5.40157,"is_reserved":false,"is_disabled":false,"rental_uris":{"android":"levelo://app?vid=36b02f5b-366d-4c8d-ac75-9c5f7c4d6ba1","ios":"levelo://app?vid=36b02f5b-366d-4c8d-ac75-9c5f7c4d6ba1"},"vehicle_type_id":"4","last_reported":1737399991,"current_range_meters":39200,"station_id":"ce4bh092rcd13ifvqd30","pricing_plan_id":"cebpf4jnsgd1na2vs0mg"},{"bike_id":"9c768e3e-8bbb-4f76-bfbd-515ad14f4be3","system_id":"levelo_inurba_marseille","lat":43.29005,"lon":5.35616,"is_reserved":false,"is_disabled":false,"rental_uris":{"android":"levelo://app?vid=9c768e3e-8bbb-4f76-bfbd-515ad14f4be3","ios":"levelo://app?vid=9c768e3e-8bbb-4f76-bfbd-515ad14f4be3"},"vehicle_type_id":"4","last_reported":1737399991,"current_range_meters":28800,"station_id":"ce4bhb92rcd13ifvqen0","pricing_plan_id":"cebpf4jnsgd1na2vs0mg"},{"bike_id":"0e37a4bd-7850-41b7-91e1-556e8b5c7017","system_id":"levelo_inurba_marseille","lat":43.28163,"lon":5.42611,"is_reserved":false,"is_disabled":false,"rental_uris":{"android":"levelo://app?vid=0e37a4bd-7850-41b7-91e1-556e8b5c7017","ios":"levelo://app?vid=0e37a4bd-7850-41b7-91e1-556e8b5c7017"},"vehicle_type_id":"4","last_reported":1737399991,"current_range_meters":28800,"station_id":"ce4bhnh2rcd13ifvqgug","pricing_plan_id":"cebpf4jnsgd1na2vs0mg"},{"bike_id":"681633d7-2bd7-45ce-b623-9f02daeeb1ed","system_id":"levelo_inurba_marseille","lat":43.30804,"lon":5.38163,"is_reserved":false,"is_disabled":false,"rental_uris":{"android":"levelo://app?vid=681633d7-2bd7-45ce-b623-9f02daeeb1ed","ios":"levelo://app?vid=681633d7-2bd7-45ce-b623-9f02daeeb1ed"},"vehicle_type_id":"4","last_reported":1737399991,"current_range_meters":39200,"station_id":"ce4bgt12rcd13ifvqce0","pricing_plan_id":"cebpf4jnsgd1na2vs0mg"},{"bike_id":"16e3eef4-42f0-4b9f-8603-faaf29a4b50b","system_id":"levelo_inurba_marseille","lat":43.301,"lon":5.3908,"is_reserved":false,"is_disabled":false,"rental_uris":{"android":"levelo://app?vid=16e3eef4-42f0-4b9f-8603-faaf29a4b50b","ios":"levelo://app?vid=16e3eef4-42f0-4b9f-8603-faaf29a4b50b"},"vehicle_type_id":"4","last_reported":1737399991,"current_range_meters":38800,"station_id":"ce4bh192rcd13ifvqdb0","pricing_plan_id":"cebpf4jnsgd1na2vs0mg"},{"bike_id":"5957b55c-bbf3-4d79-a9fa-182e34bda710","system_id":"levelo_inurba_marseille","lat":43.26675,"lon":5.40282,"is_reserved":false,"is_disabled":false,"rental_uris":{"android":"levelo://app?vid=5957b55c-bbf3-4d79-a9fa-182e34bda710","ios":"levelo://app?vid=5957b55c-bbf3-4d79-a9fa-182e34bda710"},"vehicle_type_id":"4","last_reported":1737399991,"current_range_meters":9600,"station_id":"","pricing_plan_id":"cebpf4jnsgd1na2vs0mg"},{"bike_id":"380fe268-78de-4206-955a-560ab674eeab","system_id":"levelo_inurba_marseille","lat":43.2843,"lon":5.39182,"is_reserved":false,"is_disabled":false,"rental_uris":{"android":"levelo://app?vid=380fe268-78de-4206-955a-560ab674eeab","ios":"levelo://app?vid=380fe268-78de-4206-955a-560ab674eeab"},"vehicle_type_id":"4","last_reported":1737399991,"current_range_meters":11600,"station_id":"ce4bhoh2rcd13ifvqh5g","pricing_plan_id":"cebpf4jnsgd1na2vs0mg"},{"bike_id":"bf3ae1cd-0146-41f6-bb71-866074e25b89","system_id":"levelo_inurba_marseille","lat":43.30248,"lon":5.40074,"is_reserved":false,"is_disabled":false,"rental_uris":{"android":"levelo://app?vid=bf3ae1cd-0146-41f6-bb71-866074e25b89","ios":"levelo://app?vid=bf3ae1cd-0146-41f6-bb71-866074e25b89"},"vehicle_type_id":"4","last_reported":1737399991,"current_range_meters":38800,"station_id":"ce4bgvh2rcd13ifvqcs0","pricing_plan_id":"cebpf4jnsgd1na2vs0mg"},{"bike_id":"668f9767-c78d-438a-96bb-c0760f782967","system_id":"levelo_inurba_marseille","lat":43.2619,"lon":5.37922,"is_reserved":false,"is_disabled":false,"rental_uris":{"android":"levelo://app?vid=668f9767-c78d-438a-96bb-c0760f782967","ios":"levelo://app?vid=668f9767-c78d-438a-96bb-c0760f782967"},"vehicle_type_id":"4","last_reported":1737399991,"current_range_meters":30800,"station_id":"ce4bhjp2rcd13ifvqg90","pricing_plan_id":"cebpf4jnsgd1na2vs0mg"},{"bike_id":"19b99117-ca2c-41ff-b4a2-4386488e4773","system_id":"levelo_inurba_marseille","lat":43.31072,"lon":5.38343,"is_reserved":false,"is_disabled":false,"rental_uris":{"android":"levelo://app?vid=19b99117-ca2c-41ff-b4a2-4386488e4773","ios":"levelo://app?vid=19b99117-ca2c-41ff-b4a2-4386488e4773"},"vehicle_type_id":"4","last_reported":1737399991,"current_range_meters":27200,"station_id":"ce4bgv92rcd13ifvqcr0","pricing_plan_id":"cebpf4jnsgd1na2vs0mg"},{"bike_id":"f12aed8b-8f71-4d26-81ab-45ae907f9bc5","system_id":"levelo_inurba_marseille","lat":43.28271,"lon":5.35087,"is_reserved":false,"is_disabled":false,"rental_uris":{"android":"levelo://app?vid=f12aed8b-8f71-4d26-81ab-45ae907f9bc5","ios":"levelo://app?vid=f12aed8b-8f71-4d26-81ab-45ae907f9bc5"},"vehicle_type_id":"4","last_reported":1737399991,"current_range_meters":39200,"station_id":"ce4bhbp2rcd13ifvqerg","pricing_plan_id":"cebpf4jnsgd1na2vs0mg"},{"bike_id":"4f40d972-06fd-42b6-87d8-47b7f66628c5","system_id":"levelo_inurba_marseille","lat":43.23969,"lon":5.36631,"is_reserved":false,"is_disabled":false,"rental_uris":{"android":"levelo://app?vid=4f40d972-06fd-42b6-87d8-47b7f66628c5","ios":"levelo://app?vid=4f40d972-06fd-42b6-87d8-47b7f66628c5"},"vehicle_type_id":"4","last_reported":1737399991,"current_range_meters":5600,"station_id":"ce4bhi12rcd13ifvqfp0","pricing_plan_id":"cebpf4jnsgd1na2vs0mg"},{"bike_id":"d13e1ce9-dfb9-4338-9d34-66a2c5529080","system_id":"levelo_inurba_marseille","lat":43.28031,"lon":5.36943,"is_reserved":false,"is_disabled":false,"rental_uris":{"android":"levelo://app?vid=d13e1ce9-dfb9-4338-9d34-66a2c5529080","ios":"levelo://app?vid=d13e1ce9-dfb9-4338-9d34-66a2c5529080"},"vehicle_type_id":"4","last_reported":1737399991,"current_range_meters":37600,"station_id":"ce4bha12rcd13ifvqef0","pricing_plan_id":"cebpf4jnsgd1na2vs0mg"},{"bike_id":"3c859e28-abb0-4c58-a457-4d014bec19c7","system_id":"levelo_inurba_marseille","lat":43.30885,"lon":5.39638,"is_reserved":false,"is_disabled":false,"rental_uris":{"android":"levelo://app?vid=3c859e28-abb0-4c58-a457-4d014bec19c7","ios":"levelo://app?vid=3c859e28-abb0-4c58-a457-4d014bec19c7"},"vehicle_type_id":"4","last_reported":1737399991,"current_range_meters":38800,"station_id":"ce4bh012rcd13ifvqcv0","pricing_plan_id":"cebpf4jnsgd1na2vs0mg"},{"bike_id":"8a0b14e2-52d8-4680-82c0-475610217fd9","system_id":"levelo_inurba_marseille","lat":43.28032,"lon":5.36941,"is_reserved":false,"is_disabled":false,"rental_uris":{"android":"levelo://app?vid=8a0b14e2-52d8-4680-82c0-475610217fd9","ios":"levelo://app?vid=8a0b14e2-52d8-4680-82c0-475610217fd9"},"vehicle_type_id":"4","last_reported":1737399991,"current_range_meters":38800,"station_id":"ce4bha12rcd13ifvqef0","pricing_plan_id":"cebpf4jnsgd1na2vs0mg"},{"bike_id":"228d4274-5f58-4358-8ddb-c0d44329a1bf","system_id":"levelo_inurba_marseille","lat":43.30933,"lon":5.40153,"is_reserved":false,"is_disabled":false,"rental_uris":{"android":"levelo://app?vid=228d4274-5f58-4358-8ddb-c0d44329a1bf","ios":"levelo://app?vid=228d4274-5f58-4358-8ddb-c0d44329a1bf"},"vehicle_type_id":"4","last_reported":1737399991,"current_range_meters":21600,"station_id":"ce4bgvp2rcd13ifvqct0","pricing_plan_id":"cebpf4jnsgd1na2vs0mg"},{"bike_id":"99800dfa-c3fb-4c4f-bca2-de0fdcb37706","system_id":"levelo_inurba_marseille","lat":43.30142,"lon":5.39853,"is_reserved":false,"is_disabled":false,"rental_uris":{"android":"levelo://app?vid=99800dfa-c3fb-4c4f-bca2-de0fdcb37706","ios":"levelo://app?vid=99800dfa-c3fb-4c4f-bca2-de0fdcb37706"},"vehicle_type_id":"4","last_reported":1737399991,"current_range_meters":37600,"station_id":"ce4bh0h2rcd13ifvqd40","pricing_plan_id":"cebpf4jnsgd1na2vs0mg"},{"bike_id":"b844cec2-50bd-4997-9e69-5893a4dd3620","system_id":"levelo_inurba_marseille","lat":43.308,"lon":5.38156,"is_reserved":false,"is_disabled":false,"rental_uris":{"android":"levelo://app?vid=b844cec2-50bd-4997-9e69-5893a4dd3620","ios":"levelo://app?vid=b844cec2-50bd-4997-9e69-5893a4dd3620"},"vehicle_type_id":"4","last_reported":1737399991,"current_range_meters":35200,"station_id":"ce4bgt12rcd13ifvqce0","pricing_plan_id":"cebpf4jnsgd1na2vs0mg"},{"bike_id":"66de8db2-4a7b-451c-b559-722eeeceb427","system_id":"levelo_inurba_marseille","lat":43.33018,"lon":5.39033,"is_reserved":false,"is_disabled":false,"rental_uris":{"android":"levelo://app?vid=66de8db2-4a7b-451c-b559-722eeeceb427","ios":"levelo://app?vid=66de8db2-4a7b-451c-b559-722eeeceb427"},"vehicle_type_id":"4","last_reported":1737399991,"current_range_meters":38800,"station_id":"ce4bhr92rcd13ifvqhrg","pricing_plan_id":"cebpf4jnsgd1na2vs0mg"},{"bike_id":"3133a507-5996-4484-a064-80f7bc3eca44","system_id":"levelo_inurba_marseille","lat":43.3033,"lon":5.40441,"is_reserved":false,"is_disabled":false,"rental_uris":{"android":"levelo://app?vid=3133a507-5996-4484-a064-80f7bc3eca44","ios":"levelo://app?vid=3133a507-5996-4484-a064-80f7bc3eca44"},"vehicle_type_id":"4","last_reported":1737399991,"current_range_meters":39200,"station_id":"ce4bh012rcd13ifvqd10","pricing_plan_id":"cebpf4jnsgd1na2vs0mg"},{"bike_id":"187a71e0-c1c3-4e71-8a26-0d48a596fe6b","system_id":"levelo_inurba_marseille","lat":43.25088,"lon":5.39525,"is_reserved":false,"is_disabled":false,"rental_uris":{"android":"levelo://app?vid=187a71e0-c1c3-4e71-8a26-0d48a596fe6b","ios":"levelo://app?vid=187a71e0-c1c3-4e71-8a26-0d48a596fe6b"},"vehicle_type_id":"4","last_reported":1737399991,"current_range_meters":29600,"station_id":"ce4bhm12rcd13ifvqgkg","pricing_plan_id":"cebpf4jnsgd1na2vs0mg"},{"bike_id":"5b4a5c93-c345-4b32-961a-b6e3d1fd64a4","system_id":"levelo_inurba_marseille","lat":43.29222,"lon":5.36062,"is_reserved":false,"is_disabled":false,"rental_uris":{"android":"levelo://app?vid=5b4a5c93-c345-4b32-961a-b6e3d1fd64a4","ios":"levelo://app?vid=5b4a5c93-c345-4b32-961a-b6e3d1fd64a4"},"vehicle_type_id":"4","last_reported":1737399991,"current_range_meters":8000,"station_id":"ce4bhbh2rcd13ifvqeqg","pricing_plan_id":"cebpf4jnsgd1na2vs0mg"},{"bike_id":"1e3fba4a-cd96-47b4-bcc2-a4e9e5349885","system_id":"levelo_inurba_marseille","lat":43.29774,"lon":5.37113,"is_reserved":false,"is_disabled":false,"rental_uris":{"android":"levelo://app?vid=1e3fba4a-cd96-47b4-bcc2-a4e9e5349885","ios":"levelo://app?vid=1e3fba4a-cd96-47b4-bcc2-a4e9e5349885"},"vehicle_type_id":"4","last_reported":1737399991,"current_range_meters":38800,"station_id":"ce4bgop2rcd13ifvqc1g","pricing_plan_id":"cebpf4jnsgd1na2vs0mg"},{"bike_id":"7e1e3e5c-3b71-4538-93eb-de319f9bfe1b","system_id":"levelo_inurba_marseille","lat":43.29707,"lon":5.36592,"is_reserved":false,"is_disabled":false,"rental_uris":{"android":"levelo://app?vid=7e1e3e5c-3b71-4538-93eb-de319f9bfe1b","ios":"levelo://app?vid=7e1e3e5c-3b71-4538-93eb-de319f9bfe1b"},"vehicle_type_id":"4","last_reported":1737399991,"current_range_meters":38800,"station_id":"ce4bgn12rcd13ifvqbt0","pricing_plan_id":"cebpf4jnsgd1na2vs0mg"},{"bike_id":"72974d9e-3849-4352-8472-c235ec814289","system_id":"levelo_inurba_marseille","lat":43.27621,"lon":5.36106,"is_reserved":false,"is_disabled":false,"rental_uris":{"android":"levelo://app?vid=72974d9e-3849-4352-8472-c235ec814289","ios":"levelo://app?vid=72974d9e-3849-4352-8472-c235ec814289"},"vehicle_type_id":"4","last_reported":1737399991,"current_range_meters":28400,"station_id":"ce4bgj92rcd13ifvqbe0","pricing_plan_id":"cebpf4jnsgd1na2vs0mg"},{"bike_id":"5c10b6aa-57fc-4799-80f8-e8a6dc202c46","system_id":"levelo_inurba_marseille","lat":43.25582,"lon":5.38229,"is_reserved":false,"is_disabled":false,"rental_uris":{"android":"levelo://app?vid=5c10b6aa-57fc-4799-80f8-e8a6dc202c46","ios":"levelo://app?vid=5c10b6aa-57fc-4799-80f8-e8a6dc202c46"},"vehicle_type_id":"4","last_reported":1737399991,"current_range_meters":17200,"station_id":"ce4bhih2rcd13ifvqfs0","pricing_plan_id":"cebpf4jnsgd1na2vs0mg"},{"bike_id":"7367feb8-850f-40bd-9f83-f7a7405621fa","system_id":"levelo_inurba_marseille","lat":43.30794,"lon":5.43523,"is_reserved":false,"is_disabled":false,"rental_uris":{"android":"levelo://app?vid=7367feb8-850f-40bd-9f83-f7a7405621fa","ios":"levelo://app?vid=7367feb8-850f-40bd-9f83-f7a7405621fa"},"vehicle_type_id":"4","last_reported":1737399991,"current_range_meters":12000,"station_id":"ce4bhph2rcd13ifvqheg","pricing_plan_id":"cebpf4jnsgd1na2vs0mg"},{"bike_id":"b87b7350-2882-42c1-9ac4-d588e1c63cb7","system_id":"levelo_inurba_marseille","lat":43.27946,"lon":5.41045,"is_reserved":false,"is_disabled":false,"rental_uris":{"android":"levelo://app?vid=b87b7350-2882-42c1-9ac4-d588e1c63cb7","ios":"levelo://app?vid=b87b7350-2882-42c1-9ac4-d588e1c63cb7"},"vehicle_type_id":"4","last_reported":1737399991,"current_range_meters":26000,"station_id":"ce4bhnp2rcd13ifvqh0g","pricing_plan_id":"cebpf4jnsgd1na2vs0mg"},{"bike_id":"ba834d37-a138-4e00-bc01-7355fbf3fb3d","system_id":"levelo_inurba_marseille","lat":43.2465,"lon":5.38163,"is_reserved":false,"is_disabled":false,"rental_uris":{"android":"levelo://app?vid=ba834d37-a138-4e00-bc01-7355fbf3fb3d","ios":"levelo://app?vid=ba834d37-a138-4e00-bc01-7355fbf3fb3d"},"vehicle_type_id":"4","last_reported":1737399991,"current_range_meters":24400,"station_id":"ce4bhih2rcd13ifvqfr0","pricing_plan_id":"cebpf4jnsgd1na2vs0mg"},{"bike_id":"5434439c-80a7-45ef-8e7d-a897cb833684","system_id":"levelo_inurba_marseille","lat":43.32424,"lon":5.36757,"is_reserved":false,"is_disabled":false,"rental_uris":{"android":"levelo://app?vid=5434439c-80a7-45ef-8e7d-a897cb833684","ios":"levelo://app?vid=5434439c-80a7-45ef-8e7d-a897cb833684"},"vehicle_type_id":"4","last_reported":1737399991,"current_range_meters":6400,"station_id":"","pricing_plan_id":"cebpf4jnsgd1na2vs0mg"},{"bike_id":"6a90710c-c516-4c6e-ae5f-b292940a7c14","system_id":"levelo_inurba_marseille","lat":43.29567,"lon":5.375,"is_reserved":false,"is_disabled":false,"rental_uris":{"android":"levelo://app?vid=6a90710c-c516-4c6e-ae5f-b292940a7c14","ios":"levelo://app?vid=6a90710c-c516-4c6e-ae5f-b292940a7c14"},"vehicle_type_id":"4","last_reported":1737399991,"current_range_meters":39200,"station_id":"ce4bgh92rcd13ifvqb50","pricing_plan_id":"cebpf4jnsgd1na2vs0mg"},{"bike_id":"1be9d223-5697-41dd-9103-9ec77f9c720e","system_id":"levelo_inurba_marseille","lat":43.29579,"lon":5.37508,"is_reserved":false,"is_disabled":false,"rental_uris":{"android":"levelo://app?vid=1be9d223-5697-41dd-9103-9ec77f9c720e","ios":"levelo://app?vid=1be9d223-5697-41dd-9103-9ec77f9c720e"},"vehicle_type_id":"4","last_reported":1737399991,"current_range_meters":27600,"station_id":"ce4bgh92rcd13ifvqb50","pricing_plan_id":"cebpf4jnsgd1na2vs0mg"},{"bike_id":"8fc41019-6a5a-4abb-a592-ab1aab8081bf","system_id":"levelo_inurba_marseille","lat":43.29434,"lon":5.39753,"is_reserved":false,"is_disabled":false,"rental_uris":{"android":"levelo://app?vid=8fc41019-6a5a-4abb-a592-ab1aab8081bf","ios":"levelo://app?vid=8fc41019-6a5a-4abb-a592-ab1aab8081bf"},"vehicle_type_id":"4","last_reported":1737399991,"current_range_meters":36400,"station_id":"ce4bh3h2rcd13ifvqdo0","pricing_plan_id":"cebpf4jnsgd1na2vs0mg"},{"bike_id":"50267a36-8428-4ee1-ac27-ac6a771a71af","system_id":"levelo_inurba_marseille","lat":43.33706,"lon":5.35531,"is_reserved":false,"is_disabled":true,"rental_uris":{"android":"levelo://app?vid=50267a36-8428-4ee1-ac27-ac6a771a71af","ios":"levelo://app?vid=50267a36-8428-4ee1-ac27-ac6a771a71af"},"vehicle_type_id":"4","last_reported":1737399991,"current_range_meters":0,"station_id":"","pricing_plan_id":"cebpf4jnsgd1na2vs0mg"},{"bike_id":"f5863b18-13a1-4c6e-92de-5668ea912ad3","system_id":"levelo_inurba_marseille","lat":43.26234,"lon":5.40439,"is_reserved":false,"is_disabled":true,"rental_uris":{"android":"levelo://app?vid=f5863b18-13a1-4c6e-92de-5668ea912ad3","ios":"levelo://app?vid=f5863b18-13a1-4c6e-92de-5668ea912ad3"},"vehicle_type_id":"4","last_reported":1737399991,"current_range_meters":0,"station_id":"","pricing_plan_id":"cebpf4jnsgd1na2vs0mg"},{"bike_id":"d56f3ba3-9723-41f7-9882-3ad30310eb78","system_id":"levelo_inurba_marseille","lat":43.31262,"lon":5.40167,"is_reserved":false,"is_disabled":false,"rental_uris":{"android":"levelo://app?vid=d56f3ba3-9723-41f7-9882-3ad30310eb78","ios":"levelo://app?vid=d56f3ba3-9723-41f7-9882-3ad30310eb78"},"vehicle_type_id":"4","last_reported":1737399991,"current_range_meters":38800,"station_id":"ce4bh092rcd13ifvqd30","pricing_plan_id":"cebpf4jnsgd1na2vs0mg"},{"bike_id":"d25fce73-d5e2-4c5b-8e78-1e449d6a88dc","system_id":"levelo_inurba_marseille","lat":43.2986,"lon":5.36281,"is_reserved":false,"is_disabled":false,"rental_uris":{"android":"levelo://app?vid=d25fce73-d5e2-4c5b-8e78-1e449d6a88dc","ios":"levelo://app?vid=d25fce73-d5e2-4c5b-8e78-1e449d6a88dc"},"vehicle_type_id":"4","last_reported":1737399991,"current_range_meters":30400,"station_id":"ce4bgpp2rcd13ifvqc3g","pricing_plan_id":"cebpf4jnsgd1na2vs0mg"},{"bike_id":"0799ebb0-aab6-4f2e-81f9-a7187e44db6a","system_id":"levelo_inurba_marseille","lat":43.24385,"lon":5.37058,"is_reserved":false,"is_disabled":false,"rental_uris":{"android":"levelo://app?vid=0799ebb0-aab6-4f2e-81f9-a7187e44db6a","ios":"levelo://app?vid=0799ebb0-aab6-4f2e-81f9-a7187e44db6a"},"vehicle_type_id":"4","last_reported":1737399991,"current_range_meters":17200,"station_id":"ce4bhhh2rcd13ifvqfk0","pricing_plan_id":"cebpf4jnsgd1na2vs0mg"},{"bike_id":"eb6fcbf2-4dba-4dcc-a3a1-6b992d95097c","system_id":"levelo_inurba_marseille","lat":43.239636,"lon":5.366366,"is_reserved":false,"is_disabled":false,"rental_uris":{"android":"levelo://app?vid=eb6fcbf2-4dba-4dcc-a3a1-6b992d95097c","ios":"levelo://app?vid=eb6fcbf2-4dba-4dcc-a3a1-6b992d95097c"},"vehicle_type_id":"4","last_reported":1737399991,"current_range_meters":27600,"station_id":"ce4bhi12rcd13ifvqfp0","pricing_plan_id":"cebpf4jnsgd1na2vs0mg"},{"bike_id":"feb0a53e-d503-4d03-9cb3-fd09682aca37","system_id":"levelo_inurba_marseille","lat":43.29975,"lon":5.38502,"is_reserved":false,"is_disabled":false,"rental_uris":{"android":"levelo://app?vid=feb0a53e-d503-4d03-9cb3-fd09682aca37","ios":"levelo://app?vid=feb0a53e-d503-4d03-9cb3-fd09682aca37"},"vehicle_type_id":"4","last_reported":1737399991,"current_range_meters":15200,"station_id":"ce4bgj92rcd13ifvqbd0","pricing_plan_id":"cebpf4jnsgd1na2vs0mg"},{"bike_id":"5c113fff-0b3b-4140-bfee-3a0572f1f34f","system_id":"levelo_inurba_marseille","lat":43.308908,"lon":5.396583,"is_reserved":false,"is_disabled":false,"rental_uris":{"android":"levelo://app?vid=5c113fff-0b3b-4140-bfee-3a0572f1f34f","ios":"levelo://app?vid=5c113fff-0b3b-4140-bfee-3a0572f1f34f"},"vehicle_type_id":"4","last_reported":1737399991,"current_range_meters":39200,"station_id":"ce4bh012rcd13ifvqcv0","pricing_plan_id":"cebpf4jnsgd1na2vs0mg"},{"bike_id":"e72c2b08-7222-41a6-a3e1-de322f5142a5","system_id":"levelo_inurba_marseille","lat":43.29606,"lon":5.39918,"is_reserved":false,"is_disabled":false,"rental_uris":{"android":"levelo://app?vid=e72c2b08-7222-41a6-a3e1-de322f5142a5","ios":"levelo://app?vid=e72c2b08-7222-41a6-a3e1-de322f5142a5"},"vehicle_type_id":"4","last_reported":1737399991,"current_range_meters":28400,"station_id":"ce4bh312rcd13ifvqdj0","pricing_plan_id":"cebpf4jnsgd1na2vs0mg"},{"bike_id":"1edab787-f4fe-4b71-b7df-c17d576be891","system_id":"levelo_inurba_marseille","lat":43.29853,"lon":5.36274,"is_reserved":false,"is_disabled":false,"rental_uris":{"android":"levelo://app?vid=1edab787-f4fe-4b71-b7df-c17d576be891","ios":"levelo://app?vid=1edab787-f4fe-4b71-b7df-c17d576be891"},"vehicle_type_id":"4","last_reported":1737399991,"current_range_meters":25600,"station_id":"ce4bgpp2rcd13ifvqc3g","pricing_plan_id":"cebpf4jnsgd1na2vs0mg"},{"bike_id":"4fe58642-8ec3-4f25-a4fc-eb5dc3dc47a8","system_id":"levelo_inurba_marseille","lat":43.33545,"lon":5.36126,"is_reserved":false,"is_disabled":true,"rental_uris":{"android":"levelo://app?vid=4fe58642-8ec3-4f25-a4fc-eb5dc3dc47a8","ios":"levelo://app?vid=4fe58642-8ec3-4f25-a4fc-eb5dc3dc47a8"},"vehicle_type_id":"4","last_reported":1737399991,"current_range_meters":24800,"station_id":"","pricing_plan_id":"cebpf4jnsgd1na2vs0mg"},{"bike_id":"9cccd2ff-b864-466b-83c6-b52ec2815836","system_id":"levelo_inurba_marseille","lat":43.25656,"lon":5.4113,"is_reserved":false,"is_disabled":false,"rental_uris":{"android":"levelo://app?vid=9cccd2ff-b864-466b-83c6-b52ec2815836","ios":"levelo://app?vid=9cccd2ff-b864-466b-83c6-b52ec2815836"},"vehicle_type_id":"4","last_reported":1737399991,"current_range_meters":30800,"station_id":"","pricing_plan_id":"cebpf4jnsgd1na2vs0mg"},{"bike_id":"2134a3a7-8452-43bb-8ca4-5d090958876f","system_id":"levelo_inurba_marseille","lat":43.27988,"lon":5.40026,"is_reserved":false,"is_disabled":false,"rental_uris":{"android":"levelo://app?vid=2134a3a7-8452-43bb-8ca4-5d090958876f","ios":"levelo://app?vid=2134a3a7-8452-43bb-8ca4-5d090958876f"},"vehicle_type_id":"4","last_reported":1737399991,"current_range_meters":29600,"station_id":"ce4bho92rcd13ifvqh4g","pricing_plan_id":"cebpf4jnsgd1na2vs0mg"},{"bike_id":"2ea840fe-e160-49f7-a5d7-390c1ede4023","system_id":"levelo_inurba_marseille","lat":43.31678,"lon":5.37741,"is_reserved":false,"is_disabled":false,"rental_uris":{"android":"levelo://app?vid=2ea840fe-e160-49f7-a5d7-390c1ede4023","ios":"levelo://app?vid=2ea840fe-e160-49f7-a5d7-390c1ede4023"},"vehicle_type_id":"4","last_reported":1737399991,"current_range_meters":24800,"station_id":"ce4bgth2rcd13ifvqch0","pricing_plan_id":"cebpf4jnsgd1na2vs0mg"},{"bike_id":"637162e8-61e9-42b5-84f5-1be2b7eecf20","system_id":"levelo_inurba_marseille","lat":43.29957,"lon":5.37099,"is_reserved":false,"is_disabled":false,"rental_uris":{"android":"levelo://app?vid=637162e8-61e9-42b5-84f5-1be2b7eecf20","ios":"levelo://app?vid=637162e8-61e9-42b5-84f5-1be2b7eecf20"},"vehicle_type_id":"4","last_reported":1737399991,"current_range_meters":30800,"station_id":"","pricing_plan_id":"cebpf4jnsgd1na2vs0mg"},{"bike_id":"b5b91842-f1aa-4bba-964f-7a9484225fb0","system_id":"levelo_inurba_marseille","lat":43.2586,"lon":5.39918,"is_reserved":false,"is_disabled":false,"rental_uris":{"android":"levelo://app?vid=b5b91842-f1aa-4bba-964f-7a9484225fb0","ios":"levelo://app?vid=b5b91842-f1aa-4bba-964f-7a9484225fb0"},"vehicle_type_id":"4","last_reported":1737399991,"current_range_meters":39200,"station_id":"ce4bhl92rcd13ifvqghg","pricing_plan_id":"cebpf4jnsgd1na2vs0mg"},{"bike_id":"ec4a5bc3-cf0f-4890-b885-7db6a0794752","system_id":"levelo_inurba_marseille","lat":43.31495,"lon":5.37287,"is_reserved":false,"is_disabled":true,"rental_uris":{"android":"levelo://app?vid=ec4a5bc3-cf0f-4890-b885-7db6a0794752","ios":"levelo://app?vid=ec4a5bc3-cf0f-4890-b885-7db6a0794752"},"vehicle_type_id":"4","last_reported":1737399991,"current_range_meters":38800,"station_id":"ce4bgt12rcd13ifvqcd0","pricing_plan_id":"cebpf4jnsgd1na2vs0mg"},{"bike_id":"13a9853e-21c2-4d7a-8ae7-af374064a8b8","system_id":"levelo_inurba_marseille","lat":43.31817,"lon":5.37411,"is_reserved":false,"is_disabled":false,"rental_uris":{"android":"levelo://app?vid=13a9853e-21c2-4d7a-8ae7-af374064a8b8","ios":"levelo://app?vid=13a9853e-21c2-4d7a-8ae7-af374064a8b8"},"vehicle_type_id":"4","last_reported":1737399991,"current_range_meters":20400,"station_id":"","pricing_plan_id":"cebpf4jnsgd1na2vs0mg"},{"bike_id":"60b7d049-237a-4dbd-ad0c-436ecde1802f","system_id":"levelo_inurba_marseille","lat":43.231996,"lon":5.355641,"is_reserved":false,"is_disabled":false,"rental_uris":{"android":"levelo://app?vid=60b7d049-237a-4dbd-ad0c-436ecde1802f","ios":"levelo://app?vid=60b7d049-237a-4dbd-ad0c-436ecde1802f"},"vehicle_type_id":"4","last_reported":1737399991,"current_range_meters":24000,"station_id":"ce4bhu92rcd13ifvqi70","pricing_plan_id":"cebpf4jnsgd1na2vs0mg"},