{"last_updated":1746464921,"ttl":60,"version":"2.2","data":{"bikes":[{"bike_id":"ee931f74-c945-4d42-9401-20cdfa16d42e","system_id":"levelo_inurba_marseille","lat":43.3103,"lon":5.3711,"is_reserved":false,"is_disabled":false,"rental_uris":{"android":"levelo://app?vid=ee931f74-c945-4d42-9401-20cdfa16d42e","ios":"levelo://app?vid=ee931f74-c945-4d42-9401-20cdfa16d42e"},"vehicle_type_id":"4","last_reported":1746464921,"current_range_meters":3200,"station_id":"","pricing_plan_id":"cebpf4jnsgd1na2vs0mg"},{"bike_id":"52d67108-3832-4bbc-8ca1-9d86ee3696ec","system_id":"levelo_inurba_marseille","lat":43.30421,"lon":5.39735,"is_reserved":false,"is_disabled":false,"rental_uris":{"android":"levelo://app?vid=52d67108-3832-4bbc-8ca1-9d86ee3696ec","ios":"levelo://app?vid=52d67108-3832-4bbc-8ca1-9d86ee3696ec"},"vehicle_type_id":"4","last_reported":1746464921,"current_range_meters":2800,"station_id":"ce4bh092rcd13ifvqd20","pricing_plan_id":"cebpf4jnsgd1na2vs0mg"},{"bike_id":"745bea16-d898-4ae5-b3fa-f54a396cb0ca","system_id":"levelo_inurba_marseille","lat":43.29265,"lon":5.3843,"is_reserved":false,"is_disabled":false,"rental_uris":{"android":"levelo://app?vid=745bea16-d898-4ae5-b3fa-f54a396cb0ca","ios":"levelo://app?vid=745bea16-d898-4ae5-b3fa-f54a396cb0ca"},"vehicle_type_id":"4","last_reported":1746464921,"current_range_meters":3200,"station_id":"ce4bh692rcd13ifvqea0","pricing_plan_id":"cebpf4jnsgd1na2vs0mg"},{"bike_id":"03173189-daaa-4c17-bda0-7d86d64bf65c","system_id":"levelo_inurba_marseille","lat":43.26677,"lon":5.38266,"is_reserved":false,"is_disabled":false,"rental_uris":{"android":"levelo://app?vid=03173189-daaa-4c17-bda0-7d86d64bf65c","ios":"levelo://app?vid=03173189-daaa-4c17-bda0-7d86d64bf65c"},"vehicle_type_id":"4","last_reported":1746464921,"current_range_meters":3600,"station_id":"ce4bhg92rcd13ifvqf90","pricing_plan_id":"cebpf4jnsgd1na2vs0mg"},{"bike_id":"a5ddb695-7d30-4acd-b747-4929acdfa2cf","system_id":"levelo_inurba_marseille","lat":43.28703,"lon":5.39984,"is_reserved":false,"is_disabled":false,"rental_uris":{"android":"levelo://app?vid=a5ddb695-7d30-4acd-b747-4929acdfa2cf","ios":"levelo://app?vid=a5ddb695-7d30-4acd-b747-4929acdfa2cf"},"vehicle_type_id":"4","last_reported":1746464921,"current_range_meters":4000,"station_id":"ce4bho92rcd13ifvqh3g","pricing_plan_id":"cebpf4jnsgd1na2vs0mg"},{"bike_id":"a37c65ab-4596-435f-b18c-e589c2a47282","system_id":"levelo_inurba_marseille","lat":43.28935,"lon":5.36639,"is_reserved":false,"is_disabled":false,"rental_uris":{"android":"levelo://app?vid=a37c65ab-4596-435f-b18c-e589c2a47282","ios":"levelo://app?vid=a37c65ab-4596-435f-b18c-e589c2a47282"},"vehicle_type_id":"4","last_reported":1746464921,"current_range_meters":4000,"station_id":"ce4bhap2rcd13ifvqek0","pricing_plan_id":"cebpf4jnsgd1na2vs0mg"},{"bike_id":"62fb18e1-f388-4e4d-96bb-5a5bcbe02002","system_id":"levelo_inurba_marseille","lat":43.29528,"lon":5.38546,"is_reserved":false,"is_disabled":false,"rental_uris":{"android":"levelo://app?vid=62fb18e1-f388-4e4d-96bb-5a5bcbe02002","ios":"levelo://app?vid=62fb18e1-f388-4e4d-96bb-5a5bcbe02002"},"vehicle_type_id":"4","last_reported":1746464921,"current_range_meters":4000,"station_id":"ce4bgih2rcd13ifvqba0","pricing_plan_id":"cebpf4jnsgd1na2vs0mg"},{"bike_id":"548d85e6-9298-4cec-b5eb-595c00cbcbfb","system_id":"levelo_inurba_marseille","lat":43.318899,"lon":5.407413,"is_reserved":false,"is_disabled":false,"rental_uris":{"android":"levelo://app?vid=548d85e6-9298-4cec-b5eb-595c00cbcbfb","ios":"levelo://app?vid=548d85e6-9298-4cec-b5eb-595c00cbcbfb"},"vehicle_type_id":"4","last_reported":1746464921,"current_range_meters":4000,"station_id":"ce4bhq12rcd13ifvqhig","pricing_plan_id":"cebpf4jnsgd1na2vs0mg"},{"bike_id":"aaeb3899-1b5a-4a3c-97a1-ebf5d03d9d17","system_id":"levelo_inurba_marseille","lat":43.25869,"lon":5.39894,"is_reserved":false,"is_disabled":false,"rental_uris":{"android":"levelo://app?vid=aaeb3899-1b5a-4a3c-97a1-ebf5d03d9d17","ios":"levelo://app?vid=aaeb3899-1b5a-4a3c-97a1-ebf5d03d9d17"},"vehicle_type_id":"4","last_reported":1746464921,"current_range_meters":4000,"station_id":"ce4bhl92rcd13ifvqghg","pricing_plan_id":"cebpf4jnsgd1na2vs0mg"},{"bike_id":"697c189e-9e53-4206-af07-690dd4c97203","system_id":"levelo_inurba_marseille","lat":43.29079,"lon":5.37165,"is_reserved":false,"is_disabled":false,"rental_uris":{"android":"levelo://app?vid=697c189e-9e53-4206-af07-690dd4c97203","ios":"levelo://app?vid=697c189e-9e53-4206-af07-690dd4c97203"},"vehicle_type_id":"4","last_reported":1746464921,"current_range_meters":4000,"station_id":"","pricing_plan_id":"cebpf4jnsgd1na2vs0mg"},{"bike_id":"c7ada8cd-c3ac-4e4a-ab97-4d3281778eda","system_id":"levelo_inurba_marseille","lat":43.28667,"lon":5.36339,"is_reserved":false,"is_disabled":false,"rental_uris":{"android":"levelo://app?vid=c7ada8cd-c3ac-4e4a-ab97-4d3281778eda","ios":"levelo://app?vid=c7ada8cd-c3ac-4e4a-ab97-4d3281778eda"},"vehicle_type_id":"4","last_reported":1746464921,"current_range_meters":4000,"station_id":"ce4bhah2rcd13ifvqej0","pricing_plan_id":"cebpf4jnsgd1na2vs0mg"},{"bike_id":"3046c5d1-b46d-4e70-8146-bb5ddadd4d9f","system_id":"levelo_inurba_marseille","lat":43.25494,"lon":5.37647,"is_reserved":false,"is_disabled":false,"rental_uris":{"android":"levelo://app?vid=3046c5d1-b46d-4e70-8146-bb5ddadd4d9f","ios":"levelo://app?vid=3046c5d1-b46d-4e70-8146-bb5ddadd4d9f"},"vehicle_type_id":"4","last_reported":1746464921,"current_range_meters":4000,"station_id":"ce4bhh12rcd13ifvqff0","pricing_plan_id":"cebpf4jnsgd1na2vs0mg"},{"bike_id":"0160195b-8d46-420e-b5e6-8c2dab1cb13e","system_id":"levelo_inurba_marseille","lat":43.2315,"lon":5.43725,"is_reserved":false,"is_disabled":false,"rental_uris":{"android":"levelo://app?vid=0160195b-8d46-420e-b5e6-8c2dab1cb13e","ios":"levelo://app?vid=0160195b-8d46-420e-b5e6-8c2dab1cb13e"},"vehicle_type_id":"4","last_reported":1746464921,"current_range_meters":4000,"station_id":"ce4bhmp2rcd13ifvqgog","pricing_plan_id":"cebpf4jnsgd1na2vs0mg"},{"bike_id":"49aebb43-215c-47e3-885c-99d797b50b0f","system_id":"levelo_inurba_marseille","lat":43.27068,"lon":5.40286,"is_reserved":false,"is_disabled":false,"rental_uris":{"android":"levelo://app?vid=49aebb43-215c-47e3-885c-99d797b50b0f","ios":"levelo://app?vid=49aebb43-215c-47e3-885c-99d797b50b0f"},"vehicle_type_id":"4","last_reported":1746464921,"current_range_meters":4400,"station_id":"ce4bhk92rcd13ifvqgc0","pricing_plan_id":"cebpf4jnsgd1na2vs0mg"},{"bike_id":"54226541-e483-4b7e-93dd-fd09c0928143","system_id":"levelo_inurba_marseille","lat":43.28448,"lon":5.39207,"is_reserved":false,"is_disabled":false,"rental_uris":{"android":"levelo://app?vid=54226541-e483-4b7e-93dd-fd09c0928143","ios":"levelo://app?vid=54226541-e483-4b7e-93dd-fd09c0928143"},"vehicle_type_id":"4","last_reported":1746464921,"current_range_meters":4400,"station_id":"ce4bhoh2rcd13ifvqh5g","pricing_plan_id":"cebpf4jnsgd1na2vs0mg"},{"bike_id":"ff0a45c8-ca6e-46b5-9c74-bb069a91b8f2","system_id":"levelo_inurba_marseille","lat":43.30143,"lon":5.39892,"is_reserved":false,"is_disabled":false,"rental_uris":{"android":"levelo://app?vid=ff0a45c8-ca6e-46b5-9c74-bb069a91b8f2","ios":"levelo://app?vid=ff0a45c8-ca6e-46b5-9c74-bb069a91b8f2"},"vehicle_type_id":"4","last_reported":1746464921,"current_range_meters":4400,"station_id":"ce4bh0h2rcd13ifvqd40","pricing_plan_id":"cebpf4jnsgd1na2vs0mg"},{"bike_id":"81df4a71-e4fa-48d7-ae22-6276288f70f4","system_id":"levelo_inurba_marseille","lat":43.30888,"lon":5.39663,"is_reserved":false,"is_disabled":false,"rental_uris":{"android":"levelo://app?vid=81df4a71-e4fa-48d7-ae22-6276288f70f4","ios":"levelo://app?vid=81df4a71-e4fa-48d7-ae22-6276288f70f4"},"vehicle_type_id":"4","last_reported":1746464921,"current_range_meters":4400,"station_id":"ce4bh012rcd13ifvqcv0","pricing_plan_id":"cebpf4jnsgd1na2vs0mg"},{"bike_id":"f2770105-f2b6-4b68-9f12-b1b28d55d773","system_id":"levelo_inurba_marseille","lat":43.28157,"lon":5.42651,"is_reserved":false,"is_disabled":false,"rental_uris":{"android":"levelo://app?vid=f2770105-f2b6-4b68-9f12-b1b28d55d773","ios":"levelo://app?vid=f2770105-f2b6-4b68-9f12-b1b28d55d773"},"vehicle_type_id":"4","last_reported":1746464921,"current_range_meters":4800,"station_id":"ce4bhnh2rcd13ifvqgug","pricing_plan_id":"cebpf4jnsgd1na2vs0mg"},{"bike_id":"fd9b1163-71cc-4057-a1bb-01b9238448ac","system_id":"levelo_inurba_marseille","lat":43.27836,"lon":5.39205,"is_reserved":false,"is_disabled":false,"rental_uris":{"android":"levelo://app?vid=fd9b1163-71cc-4057-a1bb-01b9238448ac","ios":"levelo://app?vid=fd9b1163-71cc-4057-a1bb-01b9238448ac"},"vehicle_type_id":"4","last_reported":1746464921,"current_range_meters":4800,"station_id":"ce4bhjp2rcd13ifvqga0","pricing_plan_id":"cebpf4jnsgd1na2vs0mg"},{"bike_id":"adfa2b38-d562-4ad3-8c8f-5bf0fe55b948","system_id":"levelo_inurba_marseille","lat":43.24387,"lon":5.37058,"is_reserved":false,"is_disabled":false,"rental_uris":{"android":"levelo://app?vid=adfa2b38-d562-4ad3-8c8f-5bf0fe55b948","ios":"levelo://app?vid=adfa2b38-d562-4ad3-8c8f-5bf0fe55b948"},"vehicle_type_id":"4","last_reported":1746464921,"current_range_meters":4800,"station_id":"ce4bhhh2rcd13ifvqfk0","pricing_plan_id":"cebpf4jnsgd1na2vs0mg"},{"bike_id":"48571257-d602-45f4-b230-e599403ddb72","system_id":"levelo_inurba_marseille","lat":43.27428,"lon":5.39421,"is_reserved":false,"is_disabled":false,"rental_uris":{"android":"levelo://app?vid=48571257-d602-45f4-b230-e599403ddb72","ios":"levelo://app?vid=48571257-d602-45f4-b230-e599403ddb72"},"vehicle_type_id":"4","last_reported":1746464921,"current_range_meters":5600,"station_id":"ce4bhdp2rcd13ifvqf20","pricing_plan_id":"cebpf4jnsgd1na2vs0mg"},{"bike_id":"08177c2a-05c1-4f00-b301-158115ab6d14","system_id":"levelo_inurba_marseille","lat":43.30217,"lon":5.39476,"is_reserved":false,"is_disabled":false,"rental_uris":{"android":"levelo://app?vid=08177c2a-05c1-4f00-b301-158115ab6d14","ios":"levelo://app?vid=08177c2a-05c1-4f00-b301-158115ab6d14"},"vehicle_type_id":"4","last_reported":1746464921,"current_range_meters":5600,"station_id":"ce4bh0p2rcd13ifvqd70","pricing_plan_id":"cebpf4jnsgd1na2vs0mg"},{"bike_id":"e080a43d-a8b3-4a70-9ed0-c058c452f99f","system_id":"levelo_inurba_marseille","lat":43.304157,"lon":5.412857,"is_reserved":false,"is_disabled":false,"rental_uris":{"android":"levelo://app?vid=e080a43d-a8b3-4a70-9ed0-c058c452f99f","ios":"levelo://app?vid=e080a43d-a8b3-4a70-9ed0-c058c452f99f"},"vehicle_type_id":"4","last_reported":1746464921,"current_range_meters":5600,"station_id":"ce4bhop2rcd13ifvqh8g","pricing_plan_id":"cebpf4jnsgd1na2vs0mg"},{"bike_id":"7c596fa2-27b5-4910-a330-101e00592c5c","system_id":"levelo_inurba_marseille","lat":43.32545,"lon":5.40037,"is_reserved":false,"is_disabled":false,"rental_uris":{"android":"levelo://app?vid=7c596fa2-27b5-4910-a330-101e00592c5c","ios":"levelo://app?vid=7c596fa2-27b5-4910-a330-101e00592c5c"},"vehicle_type_id":"4","last_reported":1746464921,"current_range_meters":5600,"station_id":"","pricing_plan_id":"cebpf4jnsgd1na2vs0mg"},{"bike_id":"1bae6d24-f1e0-4d28-ada4-a1a132810439","system_id":"levelo_inurba_marseille","lat":43.29187,"lon":5.35802,"is_reserved":false,"is_disabled":false,"rental_uris":{"android":"levelo://app?vid=1bae6d24-f1e0-4d28-ada4-a1a132810439","ios":"levelo://app?vid=1bae6d24-f1e0-4d28-ada4-a1a132810439"},"vehicle_type_id":"4","last_reported":1746464921,"current_range_meters":5600,"station_id":"ce4bhb12rcd13ifvqel0","pricing_plan_id":"cebpf4jnsgd1na2vs0mg"},{"bike_id":"df2eb17a-4bed-4eb7-83b3-12a5f86d5878","system_id":"levelo_inurba_marseille","lat":43.26498,"lon":5.39545,"is_reserved":false,"is_disabled":false,"rental_uris":{"android":"levelo://app?vid=df2eb17a-4bed-4eb7-83b3-12a5f86d5878","ios":"levelo://app?vid=df2eb17a-4bed-4eb7-83b3-12a5f86d5878"},"vehicle_type_id":"4","last_reported":1746464921,"current_range_meters":6000,"station_id":"ce4bhi12rcd13ifvqfq0","pricing_plan_id":"cebpf4jnsgd1na2vs0mg"},{"bike_id":"c0458d7b-35ed-4380-9046-9b356a1758f1","system_id":"levelo_inurba_marseille","lat":43.29416,"lon":5.38632,"is_reserved":false,"is_disabled":false,"rental_uris":{"android":"levelo://app?vid=c0458d7b-35ed-4380-9046-9b356a1758f1","ios":"levelo://app?vid=c0458d7b-35ed-4380-9046-9b356a1758f1"},"vehicle_type_id":"4","last_reported":1746464921,"current_range_meters":5600,"station_id":"ce4bh2h2rcd13ifvqdh0","pricing_plan_id":"cebpf4jnsgd1na2vs0mg"},{"bike_id":"c8142143-9c31-4aee-a02a-a03c3f487fb5","system_id":"levelo_inurba_marseille","lat":43.29007,"lon":5.35624,"is_reserved":false,"is_disabled":false,"rental_uris":{"android":"levelo://app?vid=c8142143-9c31-4aee-a02a-a03c3f487fb5","ios":"levelo://app?vid=c8142143-9c31-4aee-a02a-a03c3f487fb5"},"vehicle_type_id":"4","last_reported":1746464921,"current_range_meters":5600,"station_id":"ce4bhb92rcd13ifvqen0","pricing_plan_id":"cebpf4jnsgd1na2vs0mg"},{"bike_id":"4cad139e-481e-42a0-9079-5516c0299978","system_id":"levelo_inurba_marseille","lat":43.28469,"lon":5.38419,"is_reserved":false,"is_disabled":false,"rental_uris":{"android":"levelo://app?vid=4cad139e-481e-42a0-9079-5516c0299978","ios":"levelo://app?vid=4cad139e-481e-42a0-9079-5516c0299978"},"vehicle_type_id":"4","last_reported":1746464921,"current_range_meters":5600,"station_id":"ce4bh512rcd13ifvqe3g","pricing_plan_id":"cebpf4jnsgd1na2vs0mg"},{"bike_id":"2ad06dba-037b-4e28-95ae-3850ca53a52c","system_id":"levelo_inurba_marseille","lat":43.258408,"lon":5.398926,"is_reserved":false,"is_disabled":false,"rental_uris":{"android":"levelo://app?vid=2ad06dba-037b-4e28-95ae-3850ca53a52c","ios":"levelo://app?vid=2ad06dba-037b-4e28-95ae-3850ca53a52c"},"vehicle_type_id":"4","last_reported":1746464921,"current_range_meters":6000,"station_id":"ce4bhl92rcd13ifvqghg","pricing_plan_id":"cebpf4jnsgd1na2vs0mg"},{"bike_id":"29ad1899-be93-42f3-84fd-82b218a91657","system_id":"levelo_inurba_marseille","lat":43.30739,"lon":5.4004,"is_reserved":false,"is_disabled":false,"rental_uris":{"android":"levelo://app?vid=29ad1899-be93-42f3-84fd-82b218a91657","ios":"levelo://app?vid=29ad1899-be93-42f3-84fd-82b218a91657"},"vehicle_type_id":"4","last_reported":1746464921,"current_range_meters":6000,"station_id":"","pricing_plan_id":"cebpf4jnsgd1na2vs0mg"},{"bike_id":"0d6d1975-a1a3-4a73-a6a7-29e7346abda4","system_id":"levelo_inurba_marseille","lat":43.292816,"lon":5.401267,"is_reserved":false,"is_disabled":false,"rental_uris":{"android":"levelo://app?vid=0d6d1975-a1a3-4a73-a6a7-29e7346abda4","ios":"levelo://app?vid=0d6d1975-a1a3-4a73-a6a7-29e7346abda4"},"vehicle_type_id":"4","last_reported":1746464921,"current_range_meters":0,"station_id":"ce4bh312rcd13ifvqdk0","pricing_plan_id":"cebpf4jnsgd1na2vs0mg"},{"bike_id":"19cc5d4a-3669-481b-add7-2079b93dcf06","system_id":"levelo_inurba_marseille","lat":43.27946,"lon":5.41046,"is_reserved":false,"is_disabled":false,"rental_uris":{"android":"levelo://app?vid=19cc5d4a-3669-481b-add7-2079b93dcf06","ios":"levelo://app?vid=19cc5d4a-3669-481b-add7-2079b93dcf06"},"vehicle_type_id":"4","last_reported":1746464921,"current_range_meters":6400,"station_id":"ce4bhnp2rcd13ifvqh0g","pricing_plan_id":"cebpf4jnsgd1na2vs0mg"},{"bike_id":"6dc49af0-0026-4cfc-bc38-748ac3006644","system_id":"levelo_inurba_marseille","lat":43.289465,"lon":5.364085,"is_reserved":false,"is_disabled":false,"rental_uris":{"android":"levelo://app?vid=6dc49af0-0026-4cfc-bc38-748ac3006644","ios":"levelo://app?vid=6dc49af0-0026-4cfc-bc38-748ac3006644"},"vehicle_type_id":"4","last_reported":1746464921,"current_range_meters":6400,"station_id":"ce4bhc92rcd13ifvqetg","pricing_plan_id":"cebpf4jnsgd1na2vs0mg"},{"bike_id":"650e0116-70ae-4a9b-9bf0-8b004d760be6","system_id":"levelo_inurba_marseille","lat":43.26226,"lon":5.3745,"is_reserved":false,"is_disabled":false,"rental_uris":{"android":"levelo://app?vid=650e0116-70ae-4a9b-9bf0-8b004d760be6","ios":"levelo://app?vid=650e0116-70ae-4a9b-9bf0-8b004d760be6"},"vehicle_type_id":"4","last_reported":1746464921,"current_range_meters":6400,"station_id":"ce4bhgp2rcd13ifvqfc0","pricing_plan_id":"cebpf4jnsgd1na2vs0mg"},{"bike_id":"15a6b90c-4c80-4873-913b-34b430ffecae","system_id":"levelo_inurba_marseille","lat":43.28033,"lon":5.36939,"is_reserved":false,"is_disabled":false,"rental_uris":{"android":"levelo://app?vid=15a6b90c-4c80-4873-913b-34b430ffecae","ios":"levelo://app?vid=15a6b90c-4c80-4873-913b-34b430ffecae"},"vehicle_type_id":"4","last_reported":1746464921,"current_range_meters":6800,"station_id":"ce4bha12rcd13ifvqef0","pricing_plan_id":"cebpf4jnsgd1na2vs0mg"},{"bike_id":"24eeb213-7862-4331-ac98-78c221426aae","system_id":"levelo_inurba_marseille","lat":43.239738,"lon":5.365917,"is_reserved":false,"is_disabled":false,"rental_uris":{"android":"levelo://app?vid=24eeb213-7862-4331-ac98-78c221426aae","ios":"levelo://app?vid=24eeb213-7862-4331-ac98-78c221426aae"},"vehicle_type_id":"4","last_reported":1746464921,"current_range_meters":6000,"station_id":"ce4bhi12rcd13ifvqfp0","pricing_plan_id":"cebpf4jnsgd1na2vs0mg"},{"bike_id":"97b9ba58-35c5-4c40-b739-31df9cdf858c","system_id":"levelo_inurba_marseille","lat":43.29691,"lon":5.36615,"is_reserved":false,"is_disabled":false,"rental_uris":{"android":"levelo://app?vid=97b9ba58-35c5-4c40-b739-31df9cdf858c","ios":"levelo://app?vid=97b9ba58-35c5-4c40-b739-31df9cdf858c"},"vehicle_type_id":"4","last_reported":1746464921,"current_range_meters":6400,"station_id":"ce4bgn12rcd13ifvqbt0","pricing_plan_id":"cebpf4jnsgd1na2vs0mg"},{"bike_id":"989e5e6c-3a95-4e11-a7b9-b99445315bd6","system_id":"levelo_inurba_marseille","lat":43.27673,"lon":5.38914,"is_reserved":false,"is_disabled":false,"rental_uris":{"android":"levelo://app?vid=989e5e6c-3a95-4e11-a7b9-b99445315bd6","ios":"levelo://app?vid=989e5e6c-3a95-4e11-a7b9-b99445315bd6"},"vehicle_type_id":"4","last_reported":1746464921,"current_range_meters":6000,"station_id":"ce4bhi12rcd13ifvqfo0","pricing_plan_id":"cebpf4jnsgd1na2vs0mg"},{"bike_id":"80c0b17c-139f-40c7-8476-0a2a39112960","system_id":"levelo_inurba_marseille","lat":43.30108,"lon":5.39068,"is_reserved":false,"is_disabled":false,"rental_uris":{"android":"levelo://app?vid=80c0b17c-139f-40c7-8476-0a2a39112960","ios":"levelo://app?vid=80c0b17c-139f-40c7-8476-0a2a39112960"},"vehicle_type_id":"4","last_reported":1746464921,"current_range_meters":6000,"station_id":"ce4bh192rcd13ifvqdb0","pricing_plan_id":"cebpf4jnsgd1na2vs0mg"},{"bike_id":"ca7b140c-180d-43dd-91a0-6ace504c1ed9","system_id":"levelo_inurba_marseille","lat":43.27997,"lon":5.40017,"is_reserved":false,"is_disabled":false,"rental_uris":{"android":"levelo://app?vid=ca7b140c-180d-43dd-91a0-6ace504c1ed9","ios":"levelo://app?vid=ca7b140c-180d-43dd-91a0-6ace504c1ed9"},"vehicle_type_id":"4","last_reported":1746464921,"current_range_meters":6000,"station_id":"","pricing_plan_id":"cebpf4jnsgd1na2vs0mg"},{"bike_id":"c0da2ce7-fdff-4d59-9bba-a10f93fd4b6b","system_id":"levelo_inurba_marseille","lat":43.290262,"lon":5.386521,"is_reserved":false,"is_disabled":false,"rental_uris":{"android":"levelo://app?vid=c0da2ce7-fdff-4d59-9bba-a10f93fd4b6b","ios":"levelo://app?vid=c0da2ce7-fdff-4d59-9bba-a10f93fd4b6b"},"vehicle_type_id":"4","last_reported":1746464921,"current_range_meters":6400,"station_id":"ce4bh4p2rcd13ifvqe0g","pricing_plan_id":"cebpf4jnsgd1na2vs0mg"},{"bike_id":"0aaab185-1839-4a36-80a2-f4c1c5199386","system_id":"levelo_inurba_marseille","lat":43.25825,"lon":5.39435,"is_reserved":false,"is_disabled":false,"rental_uris":{"android":"levelo://app?vid=0aaab185-1839-4a36-80a2-f4c1c5199386","ios":"levelo://app?vid=0aaab185-1839-4a36-80a2-f4c1c5199386"},"vehicle_type_id":"4","last_reported":1746464921,"current_range_meters":6400,"station_id":"ce4bhip2rcd13ifvqft0","pricing_plan_id":"cebpf4jnsgd1na2vs0mg"},{"bike_id":"3668bb8f-1c79-41fe-b478-84b9d19dcb5c","system_id":"levelo_inurba_marseille","lat":43.26485,"lon":5.39547,"is_reserved":false,"is_disabled":false,"rental_uris":{"android":"levelo://app?vid=3668bb8f-1c79-41fe-b478-84b9d19dcb5c","ios":"levelo://app?vid=3668bb8f-1c79-41fe-b478-84b9d19dcb5c"},"vehicle_type_id":"4","last_reported":1746464921,"current_range_meters":6000,"station_id":"","pricing_plan_id":"cebpf4jnsgd1na2vs0mg"},{"bike_id":"b0745d57-1066-48ad-97c2-7e878e7660c4","system_id":"levelo_inurba_marseille","lat":43.29369,"lon":5.37858,"is_reserved":false,"is_disabled":false,"rental_uris":{"android":"levelo://app?vid=b0745d57-1066-48ad-97c2-7e878e7660c4","ios":"levelo://app?vid=b0745d57-1066-48ad-97c2-7e878e7660c4"},"vehicle_type_id":"4","last_reported":1746464921,"current_range_meters":6800,"station_id":"ce4bgjh2rcd13ifvqbf0","pricing_plan_id":"cebpf4jnsgd1na2vs0mg"},{"bike_id":"b6229f76-53a4-4d61-a4a3-d2e459ee7f64","system_id":"levelo_inurba_marseille","lat":43.30794,"lon":5.38154,"is_reserved":false,"is_disabled":false,"rental_uris":{"android":"levelo://app?vid=b6229f76-53a4-4d61-a4a3-d2e459ee7f64","ios":"levelo://app?vid=b6229f76-53a4-4d61-a4a3-d2e459ee7f64"},"vehicle_type_id":"4","last_reported":1746464921,"current_range_meters":6800,"station_id":"ce4bgt12rcd13ifvqce0","pricing_plan_id":"cebpf4jnsgd1na2vs0mg"},{"bike_id":"624f8a8e-20ac-493e-b9c0-910ad5ec0741","system_id":"levelo_inurba_marseille","lat":43.30323,"lon":5.40438,"is_reserved":false,"is_disabled":false,"rental_uris":{"android":"levelo://app?vid=624f8a8e-20ac-493e-b9c0-910ad5ec0741","ios":"levelo://app?vid=624f8a8e-20ac-493e-b9c0-910ad5ec0741"},"vehicle_type_id":"4","last_reported":1746464921,"current_range_meters":6800,"station_id":"ce4bh012rcd13ifvqd10","pricing_plan_id":"cebpf4jnsgd1na2vs0mg"},{"bike_id":"66b646b3-6352-44bb-9bfb-21570512e3e5","system_id":"levelo_inurba_marseille","lat":43.28118,"lon":5.40412,"is_reserved":false,"is_disabled":false,"rental_uris":{"android":"levelo://app?vid=66b646b3-6352-44bb-9bfb-21570512e3e5","ios":"levelo://app?vid=66b646b3-6352-44bb-9bfb-21570512e3e5"},"vehicle_type_id":"4","last_reported":1746464921,"current_range_meters":6800,"station_id":"","pricing_plan_id":"cebpf4jnsgd1na2vs0mg"},{"bike_id":"58b10c05-4f26-42a8-867b-b313cf96d889","system_id":"levelo_inurba_marseille","lat":43.31359,"lon":5.38489,"is_reserved":false,"is_disabled":false,"rental_uris":{"android":"levelo://app?vid=58b10c05-4f26-42a8-867b-b313cf96d889","ios":"levelo://app?vid=58b10c05-4f26-42a8-867b-b313cf96d889"},"vehicle_type_id":"4","last_reported":1746464921,"current_range_meters":6800,"station_id":"ce4bgt92rcd13ifvqcf0","pricing_plan_id":"cebpf4jnsgd1na2vs0mg"},{"bike_id":"a9d71d7a-8de9-4c6f-8440-c155f4b3f864","system_id":"levelo_inurba_marseille","lat":43.24179,"lon":5.39735,"is_reserved":false,"is_disabled":false,"rental_uris":{"android":"levelo://app?vid=a9d71d7a-8de9-4c6f-8440-c155f4b3f864","ios":"levelo://app?vid=a9d71d7a-8de9-4c6f-8440-c155f4b3f864"},"vehicle_type_id":"4","last_reported":1746464921,"current_range_meters":6800,"station_id":"ce4bhn12rcd13ifvqgpg","pricing_plan_id":"cebpf4jnsgd1na2vs0mg"},{"bike_id":"26dd9f4d-ce9e-4365-b279-fc9c56040cc4","system_id":"levelo_inurba_marseille","lat":43.32365,"lon":5.36741,"is_reserved":false,"is_disabled":false,"rental_uris":{"android":"levelo://app?vid=26dd9f4d-ce9e-4365-b279-fc9c56040cc4","ios":"levelo://app?vid=26dd9f4d-ce9e-4365-b279-fc9c56040cc4"},"vehicle_type_id":"4","last_reported":1746464921,"current_range_meters":6800,"station_id":"ce4bhsh2rcd13ifvqi2g","pricing_plan_id":"cebpf4jnsgd1na2vs0mg"},{"bike_id":"c53625d3-5b6f-4264-ad1c-6e32108c22dc","system_id":"levelo_inurba_marseille","lat":43.29797,"lon":5.4041,"is_reserved":false,"is_disabled":false,"rental_uris":{"android":"levelo://app?vid=c53625d3-5b6f-4264-ad1c-6e32108c22dc","ios":"levelo://app?vid=c53625d3-5b6f-4264-ad1c-6e32108c22dc"},"vehicle_type_id":"4","last_reported":1746464921,"current_range_meters":7200,"station_id":"ce4bh112rcd13ifvqd90","pricing_plan_id":"cebpf4jnsgd1na2vs0mg"},{"bike_id":"5c3156df-03c2-47ea-8c7a-fca2bfd0f7cb","system_id":"levelo_inurba_marseille","lat":43.26204,"lon":5.37937,"is_reserved":false,"is_disabled":false,"rental_uris":{"android":"levelo://app?vid=5c3156df-03c2-47ea-8c7a-fca2bfd0f7cb","ios":"levelo://app?vid=5c3156df-03c2-47ea-8c7a-fca2bfd0f7cb"},"vehicle_type_id":"4","last_reported":1746464921,"current_range_meters":6800,"station_id":"ce4bhjp2rcd13ifvqg90","pricing_plan_id":"cebpf4jnsgd1na2vs0mg"},{"bike_id":"902a616a-fcb6-4040-ac49-5f2be08d2436","system_id":"levelo_inurba_marseille","lat":43.29229,"lon":5.36066,"is_reserved":false,"is_disabled":false,"rental_uris":{"android":"levelo://app?vid=902a616a-fcb6-4040-ac49-5f2be08d2436","ios":"levelo://app?vid=902a616a-fcb6-4040-ac49-5f2be08d2436"},"vehicle_type_id":"4","last_reported":1746464921,"current_range_meters":7200,"station_id":"ce4bhbh2rcd13ifvqeqg","pricing_plan_id":"cebpf4jnsgd1na2vs0mg"},{"bike_id":"c9f3ac56-b4b0-44c4-92dd-4e3ce171d71a","system_id":"levelo_inurba_marseille","lat":43.33012,"lon":5.41982,"is_reserved":false,"is_disabled":false,"rental_uris":{"android":"levelo://app?vid=c9f3ac56-b4b0-44c4-92dd-4e3ce171d71a","ios":"levelo://app?vid=c9f3ac56-b4b0-44c4-92dd-4e3ce171d71a"},"vehicle_type_id":"4","last_reported":1746464921,"current_range_meters":7200,"station_id":"","pricing_plan_id":"cebpf4jnsgd1na2vs0mg"},{"bike_id":"72ce879e-d715-493f-958a-46f9c7d119d9","system_id":"levelo_inurba_marseille","lat":43.33125,"lon":5.38253,"is_reserved":false,"is_disabled":false,"rental_uris":{"android":"levelo://app?vid=72ce879e-d715-493f-958a-46f9c7d119d9","ios":"levelo://app?vid=72ce879e-d715-493f-958a-46f9c7d119d9"},"vehicle_type_id":"4","last_reported":1746464921,"current_range_meters":7200,"station_id":"","pricing_plan_id":"cebpf4jnsgd1na2vs0mg"},{"bike_id":"52ea25dd-6a04-4ff0-9cde-37ffb4d6b85f","system_id":"levelo_inurba_marseille","lat":43.30226,"lon":5.40032,"is_reserved":false,"is_disabled":false,"rental_uris":{"android":"levelo://app?vid=52ea25dd-6a04-4ff0-9cde-37ffb4d6b85f","ios":"levelo://app?vid=52ea25dd-6a04-4ff0-9cde-37ffb4d6b85f"},"vehicle_type_id":"4","last_reported":1746464921,"current_range_meters":7200,"station_id":"","pricing_plan_id":"cebpf4jnsgd1na2vs0mg"},{"bike_id":"88735270-8c03-4a03-b884-34b5ff75334d","system_id":"levelo_inurba_marseille","lat":43.27668,"lon":5.38887,"is_reserved":false,"is_disabled":false,"rental_uris":{"android":"levelo://app?vid=88735270-8c03-4a03-b884-34b5ff75334d","ios":"levelo://app?vid=88735270-8c03-4a03-b884-34b5ff75334d"},"vehicle_type_id":"4","last_reported":1746464921,"current_range_meters":7200,"station_id":"ce4bhi12rcd13ifvqfo0","pricing_plan_id":"cebpf4jnsgd1na2vs0mg"},{"bike_id":"653909f3-3558-4877-aad7-324671b72f54","system_id":"levelo_inurba_marseille","lat":43.3095,"lon":5.39033,"is_reserved":false,"is_disabled":false,"rental_uris":{"android":"levelo://app?vid=653909f3-3558-4877-aad7-324671b72f54","ios":"levelo://app?vid=653909f3-3558-4877-aad7-324671b72f54"},"vehicle_type_id":"4","last_reported":1746464921,"current_range_meters":7200,"station_id":"ce4bgup2rcd13ifvqco0","pricing_plan_id":"cebpf4jnsgd1na2vs0mg"},{"bike_id":"000ceab4-f6ca-491a-800c-f136c0bb7b8d","system_id":"levelo_inurba_marseille","lat":43.31166,"lon":5.38721,"is_reserved":false,"is_disabled":false,"rental_uris":{"android":"levelo://app?vid=000ceab4-f6ca-491a-800c-f136c0bb7b8d","ios":"levelo://app?vid=000ceab4-f6ca-491a-800c-f136c0bb7b8d"},"vehicle_type_id":"4","last_reported":1746464921,"current_range_meters":6800,"station_id":"ce4bgv12rcd13ifvqcp0","pricing_plan_id":"cebpf4jnsgd1na2vs0mg"},{"bike_id":"2306010e-85bf-4d9b-a6bc-107f35580834","system_id":"levelo_inurba_marseille","lat":43.25835,"lon":5.39414,"is_reserved":false,"is_disabled":false,"rental_uris":{"android":"levelo://app?vid=2306010e-85bf-4d9b-a6bc-107f35580834","ios":"levelo://app?vid=2306010e-85bf-4d9b-a6bc-107f35580834"},"vehicle_type_id":"4","last_reported":1746464921,"current_range_meters":7200,"station_id":"ce4bhip2rcd13ifvqft0","pricing_plan_id":"cebpf4jnsgd1na2vs0mg"},{"bike_id":"f4058794-639c-4973-ab5d-8009a25ee731","system_id":"levelo_inurba_marseille","lat":43.23963,"lon":5.36645,"is_reserved":false,"is_disabled":false,"rental_uris":{"android":"levelo://app?vid=f4058794-639c-4973-ab5d-8009a25ee731","ios":"levelo://app?vid=f4058794-639c-4973-ab5d-8009a25ee731"},"vehicle_type_id":"4","last_reported":1746464921,"current_range_meters":8000,"station_id":"ce4bhi12rcd13ifvqfp0","pricing_plan_id":"cebpf4jnsgd1na2vs0mg"},{"bike_id":"d5469f86-a9e2-489d-8a10-4dc88d26e566","system_id":"levelo_inurba_marseille","lat":43.28843,"lon":5.35875,"is_reserved":false,"is_disabled":false,"rental_uris":{"android":"levelo://app?vid=d5469f86-a9e2-489d-8a10-4dc88d26e566","ios":"levelo://app?vid=d5469f86-a9e2-489d-8a10-4dc88d26e566"},"vehicle_type_id":"4","last_reported":1746464921,"current_range_meters":8000,"station_id":"ce4bhb12rcd13ifvqem0","pricing_plan_id":"cebpf4jnsgd1na2vs0mg"},{"bike_id":"7405c68c-4141-4149-a7e9-548118a8d9e5","system_id":"levelo_inurba_marseille","lat":43.30884,"lon":5.39655,"is_reserved":false,"is_disabled":false,"rental_uris":{"android":"levelo://app?vid=7405c68c-4141-4149-a7e9-548118a8d9e5","ios":"levelo://app?vid=7405c68c-4141-4149-a7e9-548118a8d9e5"},"vehicle_type_id":"4","last_reported":1746464921,"current_range_meters":8000,"station_id":"ce4bh012rcd13ifvqcv0","pricing_plan_id":"cebpf4jnsgd1na2vs0mg"},{"bike_id":"c7569f25-9bc2-4a7b-94d5-25bad92fcfaa","system_id":"levelo_inurba_marseille","lat":43.27926,"lon":5.38275,"is_reserved":false,"is_disabled":false,"rental_uris":{"android":"levelo://app?vid=c7569f25-9bc2-4a7b-94d5-25bad92fcfaa","ios":"levelo://app?vid=c7569f25-9bc2-4a7b-94d5-25bad92fcfaa"},"vehicle_type_id":"4","last_reported":1746464921,"current_range_meters":8000,"station_id":"","pricing_plan_id":"cebpf4jnsgd1na2vs0mg"},{"bike_id":"3b52a0df-5d29-4226-8aad-99176b439db0","system_id":"levelo_inurba_marseille","lat":43.281569,"lon":5.426473,"is_reserved":false,"is_disabled":false,"rental_uris":{"android":"levelo://app?vid=3b52a0df-5d29-4226-8aad-99176b439db0","ios":"levelo://app?vid=3b52a0df-5d29-4226-8aad-99176b439db0"},"vehicle_type_id":"4","last_reported":1746464921,"current_range_meters":8000,"station_id":"ce4bhnh2rcd13ifvqgug","pricing_plan_id":"cebpf4jnsgd1na2vs0mg"},{"bike_id":"27927e1e-5c20-45bd-baec-36eae91cc014","system_id":"levelo_inurba_marseille","lat":43.289485,"lon":5.364038,"is_reserved":false,"is_disabled":false,"rental_uris":{"android":"levelo://app?vid=27927e1e-5c20-45bd-baec-36eae91cc014","ios":"levelo://app?vid=27927e1e-5c20-45bd-baec-36eae91cc014"},"vehicle_type_id":"4","last_reported":1746464921,"current_range_meters":8000,"station_id":"ce4bhc92rcd13ifvqetg","pricing_plan_id":"cebpf4jnsgd1na2vs0mg"},{"bike_id":"bda5329c-0ca8-4429-8276-953c6ccd9961","system_id":"levelo_inurba_marseille","lat":43.28001,"lon":5.41664,"is_reserved":false,"is_disabled":false,"rental_uris":{"android":"levelo://app?vid=bda5329c-0ca8-4429-8276-953c6ccd9961","ios":"levelo://app?vid=bda5329c-0ca8-4429-8276-953c6ccd9961"},"vehicle_type_id":"4","last_reported":1746464921,"current_range_meters":8400,"station_id":"ce4bho12rcd13ifvqh1g","pricing_plan_id":"cebpf4jnsgd1na2vs0mg"},{"bike_id":"537d15ad-7380-408f-8f92-1f5333b40a69","system_id":"levelo_inurba_marseille","lat":43.28859,"lon":5.35868,"is_reserved":false,"is_disabled":false,"rental_uris":{"android":"levelo://app?vid=537d15ad-7380-408f-8f92-1f5333b40a69","ios":"levelo://app?vid=537d15ad-7380-408f-8f92-1f5333b40a69"},"vehicle_type_id":"4","last_reported":1746464921,"current_range_meters":8400,"station_id":"ce4bhb12rcd13ifvqem0","pricing_plan_id":"cebpf4jnsgd1na2vs0mg"},{"bike_id":"6c80be7a-d3f3-468f-884e-914bb568394f","system_id":"levelo_inurba_marseille","lat":43.281025,"lon":5.378297,"is_reserved":false,"is_disabled":false,"rental_uris":{"android":"levelo://app?vid=6c80be7a-d3f3-468f-884e-914bb568394f","ios":"levelo://app?vid=6c80be7a-d3f3-468f-884e-914bb568394f"},"vehicle_type_id":"4","last_reported":1746464921,"current_range_meters":8400,"station_id":"ce4bha12rcd13ifvqee0","pricing_plan_id":"cebpf4jnsgd1na2vs0mg"},{"bike_id":"8376f153-a3ba-482e-a8f8-2216424ba48d","system_id":"levelo_inurba_marseille","lat":43.2927,"lon":5.36845,"is_reserved":false,"is_disabled":false,"rental_uris":{"android":"levelo://app?vid=8376f153-a3ba-482e-a8f8-2216424ba48d","ios":"levelo://app?vid=8376f153-a3ba-482e-a8f8-2216424ba48d"},"vehicle_type_id":"4","last_reported":1746464921,"current_range_meters":8400,"station_id":"ce4bhbp2rcd13ifvqesg","pricing_plan_id":"cebpf4jnsgd1na2vs0mg"},{"bike_id":"10d563a4-424a-4a44-88bc-065a04b5247a","system_id":"levelo_inurba_marseille","lat":43.21748,"lon":5.34603,"is_reserved":false,"is_disabled":true,"rental_uris":{"android":"levelo://app?vid=10d563a4-424a-4a44-88bc-065a04b5247a","ios":"levelo://app?vid=10d563a4-424a-4a44-88bc-065a04b5247a"},"vehicle_type_id":"4","last_reported":1746464921,"current_range_meters":8400,"station_id":"","pricing_plan_id":"cebpf4jnsgd1na2vs0mg"},{"bike_id":"5c7249a3-596f-4101-8dbd-1087a1f3b438","system_id":"levelo_inurba_marseille","lat":43.23193,"lon":5.35579,"is_reserved":false,"is_disabled":false,"rental_uris":{"android":"levelo://app?vid=5c7249a3-596f-4101-8dbd-1087a1f3b438","ios":"levelo://app?vid=5c7249a3-596f-4101-8dbd-1087a1f3b438"},"vehicle_type_id":"4","last_reported":1746464921,"current_range_meters":8800,"station_id":"ce4bhu92rcd13ifvqi70","pricing_plan_id":"cebpf4jnsgd1na2vs0mg"},{"bike_id":"3fe64674-c146-4136-8521-692c55739e60","system_id":"levelo_inurba_marseille","lat":43.28941,"lon":5.366437,"is_reserved":false,"is_disabled":false,"rental_uris":{"android":"levelo://app?vid=3fe64674-c146-4136-8521-692c55739e60","ios":"levelo://app?vid=3fe64674-c146-4136-8521-692c55739e60"},"vehicle_type_id":"4","last_reported":1746464921,"current_range_meters":8400,"station_id":"ce4bhap2rcd13ifvqek0","pricing_plan_id":"cebpf4jnsgd1na2vs0mg"},{"bike_id":"4cc5a483-d3ef-47f1-a893-d814430111ac","system_id":"levelo_inurba_marseille","lat":43.26571,"lon":5.39016,"is_reserved":false,"is_disabled":false,"rental_uris":{"android":"levelo://app?vid=4cc5a483-d3ef-47f1-a893-d814430111ac","ios":"levelo://app?vid=4cc5a483-d3ef-47f1-a893-d814430111ac"},"vehicle_type_id":"4","last_reported":1746464921,"current_range_meters":8800,"station_id":"ce4bhe12rcd13ifvqf30","pricing_plan_id":"cebpf4jnsgd1na2vs0mg"},{"bike_id":"ddf3b327-e2f0-498b-9b42-b4da6dfde057","system_id":"levelo_inurba_marseille","lat":43.23181,"lon":5.39993,"is_reserved":false,"is_disabled":false,"rental_uris":{"android":"levelo://app?vid=ddf3b327-e2f0-498b-9b42-b4da6dfde057","ios":"levelo://app?vid=ddf3b327-e2f0-498b-9b42-b4da6dfde057"},"vehicle_type_id":"4","last_reported":1746464921,"current_range_meters":8800,"station_id":"ce4bhn12rcd13ifvqgqg","pricing_plan_id":"cebpf4jnsgd1na2vs0mg"},{"bike_id":"a602835f-f3be-491c-ada5-3e75c4508336","system_id":"levelo_inurba_marseille","lat":43.29558,"lon":5.39069,"is_reserved":false,"is_disabled":false,"rental_uris":{"android":"levelo://app?vid=a602835f-f3be-491c-ada5-3e75c4508336","ios":"levelo://app?vid=a602835f-f3be-491c-ada5-3e75c4508336"},"vehicle_type_id":"4","last_reported":1746464921,"current_range_meters":8800,"station_id":"","pricing_plan_id":"cebpf4jnsgd1na2vs0mg"},{"bike_id":"f096c087-259b-4600-89f6-65e09ae4dc71","system_id":"levelo_inurba_marseille","lat":43.27944,"lon":5.41049,"is_reserved":false,"is_disabled":false,"rental_uris":{"android":"levelo://app?vid=f096c087-259b-4600-89f6-65e09ae4dc71","ios":"levelo://app?vid=f096c087-259b-4600-89f6-65e09ae4dc71"},"vehicle_type_id":"4","last_reported":1746464921,"current_range_meters":8800,"station_id":"ce4bhnp2rcd13ifvqh0g","pricing_plan_id":"cebpf4jnsgd1na2vs0mg"},{"bike_id":"06b7f978-785e-4c96-a86b-b548e4911e90","system_id":"levelo_inurba_marseille","lat":43.231809,"lon":5.39991,"is_reserved":false,"is_disabled":false,"rental_uris":{"android":"levelo://app?vid=06b7f978-785e-4c96-a86b-b548e4911e90","ios":"levelo://app?vid=06b7f978-785e-4c96-a86b-b548e4911e90"},"vehicle_type_id":"4","last_reported":1746464921,"current_range_meters":8400,"station_id":"ce4bhn12rcd13ifvqgqg","pricing_plan_id":"cebpf4jnsgd1na2vs0mg"},{"bike_id":"e9c00e63-e6ff-4202-ab0c-946ce92cb742","system_id":"levelo_inurba_marseille","lat":43.29229,"lon":5.36076,"is_reserved":false,"is_disabled":false,"rental_uris":{"android":"levelo://app?vid=e9c00e63-e6ff-4202-ab0c-946ce92cb742","ios":"levelo://app?vid=e9c00e63-e6ff-4202-ab0c-946ce92cb742"},"vehicle_type_id":"4","last_reported":1746464921,"current_range_meters":8400,"station_id":"ce4bhbh2rcd13ifvqeqg","pricing_plan_id":"cebpf4jnsgd1na2vs0mg"},{"bike_id":"20e159c4-52af-4ab9-8f6c-e9bf828ef391","system_id":"levelo_inurba_marseille","lat":43.28279,"lon":5.35076,"is_reserved":false,"is_disabled":false,"rental_uris":{"android":"levelo://app?vid=20e159c4-52af-4ab9-8f6c-e9bf828ef391","ios":"levelo://app?vid=20e159c4-52af-4ab9-8f6c-e9bf828ef391"},"vehicle_type_id":"4","last_reported":1746464921,"current_range_meters":8800,"station_id":"ce4bhbp2rcd13ifvqerg","pricing_plan_id":"cebpf4jnsgd1na2vs0mg"},{"bike_id":"29ad2a66-70d8-4cb3-9ffe-852dcfcbe38b","system_id":"levelo_inurba_marseille","lat":43.28415,"lon":5.34975,"is_reserved":false,"is_disabled":false,"rental_uris":{"android":"levelo://app?vid=29ad2a66-70d8-4cb3-9ffe-852dcfcbe38b","ios":"levelo://app?vid=29ad2a66-70d8-4cb3-9ffe-852dcfcbe38b"},"vehicle_type_id":"4","last_reported":1746464921,"current_range_meters":9200,"station_id":"ce4bhbh2rcd13ifvqepg","pricing_plan_id":"cebpf4jnsgd1na2vs0mg"},{"bike_id":"9e1a237b-dbed-4b3f-8eea-cabf2982f7ce","system_id":"levelo_inurba_marseille","lat":43.2953,"lon":5.38539,"is_reserved":false,"is_disabled":false,"rental_uris":{"android":"levelo://app?vid=9e1a237b-dbed-4b3f-8eea-cabf2982f7ce","ios":"levelo://app?vid=9e1a237b-dbed-4b3f-8eea-cabf2982f7ce"},"vehicle_type_id":"4","last_reported":1746464921,"current_range_meters":9200,"station_id":"ce4bgih2rcd13ifvqba0","pricing_plan_id":"cebpf4jnsgd1na2vs0mg"},{"bike_id":"766777e0-ef80-46e1-a5d0-46365a23f6e9","system_id":"levelo_inurba_marseille","lat":43.30809,"lon":5.38156,"is_reserved":false,"is_disabled":false,"rental_uris":{"android":"levelo://app?vid=766777e0-ef80-46e1-a5d0-46365a23f6e9","ios":"levelo://app?vid=766777e0-ef80-46e1-a5d0-46365a23f6e9"},"vehicle_type_id":"4","last_reported":1746464921,"current_range_meters":9200,"station_id":"ce4bgt12rcd13ifvqce0","pricing_plan_id":"cebpf4jnsgd1na2vs0mg"},{"bike_id":"a3292a96-775f-449c-9ac1-b3bd49c79cc6","system_id":"levelo_inurba_marseille","lat":43.26683,"lon":5.38267,"is_reserved":false,"is_disabled":false,"rental_uris":{"android":"levelo://app?vid=a3292a96-775f-449c-9ac1-b3bd49c79cc6","ios":"levelo://app?vid=a3292a96-775f-449c-9ac1-b3bd49c79cc6"},"vehicle_type_id":"4","last_reported":1746464921,"current_range_meters":8800,"station_id":"ce4bhg92rcd13ifvqf90","pricing_plan_id":"cebpf4jnsgd1na2vs0mg"},{"bike_id":"c9ece574-f4fc-474e-9b6e-26bc75099fad","system_id":"levelo_inurba_marseille","lat":43.291817,"lon":5.39337,"is_reserved":false,"is_disabled":false,"rental_uris":{"android":"levelo://app?vid=c9ece574-f4fc-474e-9b6e-26bc75099fad","ios":"levelo://app?vid=c9ece574-f4fc-474e-9b6e-26bc75099fad"},"vehicle_type_id":"4","last_reported":1746464921,"current_range_meters":9200,"station_id":"ce4bh192rcd13ifvqdd0","pricing_plan_id":"cebpf4jnsgd1na2vs0mg"},{"bike_id":"a6052f47-b9bd-493f-9cf7-a9b5d0a84480","system_id":"levelo_inurba_marseille","lat":43.29531,"lon":5.38544,"is_reserved":false,"is_disabled":false,"rental_uris":{"android":"levelo://app?vid=a6052f47-b9bd-493f-9cf7-a9b5d0a84480","ios":"levelo://app?vid=a6052f47-b9bd-493f-9cf7-a9b5d0a84480"},"vehicle_type_id":"4","last_reported":1746464921,"current_range_meters":9200,"station_id":"ce4bgih2rcd13ifvqba0","pricing_plan_id":"cebpf4jnsgd1na2vs0mg"},{"bike_id":"e9fd85de-f1ea-4825-8967-586f247b741c","system_id":"levelo_inurba_marseille","lat":43.24545,"lon":5.39523,"is_reserved":false,"is_disabled":false,"rental_uris":{"android":"levelo://app?vid=e9fd85de-f1ea-4825-8967-586f247b741c","ios":"levelo://app?vid=e9fd85de-f1ea-4825-8967-586f247b741c"},"vehicle_type_id":"4","last_reported":1746464921,"current_range_meters":9200,"station_id":"ce4bhlp2rcd13ifvqgjg","pricing_plan_id":"cebpf4jnsgd1na2vs0mg"},{"bike_id":"a105130d-2c0b-47d7-ad9e-26b35e0360b8","system_id":"levelo_inurba_marseille","lat":43.23963,"lon":5.36657,"is_reserved":false,"is_disabled":false,"rental_uris":{"android":"levelo://app?vid=a105130d-2c0b-47d7-ad9e-26b35e0360b8","ios":"levelo://app?vid=a105130d-2c0b-47d7-ad9e-26b35e0360b8"},"vehicle_type_id":"4","last_reported":1746464921,"current_range_meters":9600,"station_id":"ce4bhi12rcd13ifvqfp0","pricing_plan_id":"cebpf4jnsgd1na2vs0mg"},{"bike_id":"482344f1-460c-48ea-83dd-01b9a385e5cf","system_id":"levelo_inurba_marseille","lat":43.30696,"lon":5.36935,"is_reserved":false,"is_disabled":false,"rental_uris":{"android":"levelo://app?vid=482344f1-460c-48ea-83dd-01b9a385e5cf","ios":"levelo://app?vid=482344f1-460c-48ea-83dd-01b9a385e5cf"},"vehicle_type_id":"4","last_reported":1746464921,"current_range_meters":9600,"station_id":"","pricing_plan_id":"cebpf4jnsgd1na2vs0mg"},{"bike_id":"f6a6f2b5-282b-4071-b814-010a1708f04a","system_id":"levelo_inurba_marseille","lat":43.27368,"lon":5.36267,"is_reserved":false,"is_disabled":false,"rental_uris":{"android":"levelo://app?vid=f6a6f2b5-282b-4071-b814-010a1708f04a","ios":"levelo://app?vid=f6a6f2b5-282b-4071-b814-010a1708f04a"},"vehicle_type_id":"4","last_reported":1746464921,"current_range_meters":9200,"station_id":"ce4bhbh2rcd13ifvqeo0","pricing_plan_id":"cebpf4jnsgd1na2vs0mg"},{"bike_id":"1baae74b-d443-41fc-92af-a5155f406821","system_id":"levelo_inurba_marseille","lat":43.27494,"lon":5.424517,"is_reserved":false,"is_disabled":false,"rental_uris":{"android":"levelo://app?vid=1baae74b-d443-41fc-92af-a5155f406821","ios":"levelo://app?vid=1baae74b-d443-41fc-92af-a5155f406821"},"vehicle_type_id":"4","last_reported":1746464921,"current_range_meters":9200,"station_id":"ce4bhn92rcd13ifvqgrg","pricing_plan_id":"cebpf4jnsgd1na2vs0mg"},{"bike_id":"25cff1dc-f4b2-475f-9d36-680af9709335","system_id":"levelo_inurba_marseille","lat":43.26196,"lon":5.37938,"is_reserved":false,"is_disabled":false,"rental_uris":{"android":"levelo://app?vid=25cff1dc-f4b2-475f-9d36-680af9709335","ios":"levelo://app?vid=25cff1dc-f4b2-475f-9d36-680af9709335"},"vehicle_type_id":"4","last_reported":1746464921,"current_range_meters":9200,"station_id":"ce4bhjp2rcd13ifvqg90","pricing_plan_id":"cebpf4jnsgd1na2vs0mg"},{"bike_id":"5c1ce37a-ffba-473c-aac0-aa608c9f45b2","system_id":"levelo_inurba_marseille","lat":43.30431,"lon":5.38888,"is_reserved":false,"is_disabled":false,"rental_uris":{"android":"levelo://app?vid=5c1ce37a-ffba-473c-aac0-aa608c9f45b2","ios":"levelo://app?vid=5c1ce37a-ffba-473c-aac0-aa608c9f45b2"},"vehicle_type_id":"4","last_reported":1746464921,"current_range_meters":7200,"station_id":"ce4bgk12rcd13ifvqbi0","pricing_plan_id":"cebpf4jnsgd1na2vs0mg"},{"bike_id":"802d3019-c005-4f8b-bd9c-547ca000a607","system_id":"levelo_inurba_marseille","lat":43.28703,"lon":5.39988,"is_reserved":false,"is_disabled":false,"rental_uris":{"android":"levelo://app?vid=802d3019-c005-4f8b-bd9c-547ca000a607","ios":"levelo://app?vid=802d3019-c005-4f8b-bd9c-547ca000a607"},"vehicle_type_id":"4","last_reported":1746464921,"current_range_meters":9200,"station_id":"ce4bho92rcd13ifvqh3g","pricing_plan_id":"cebpf4jnsgd1na2vs0mg"},{"bike_id":"46d7b820-b5db-4d4e-bdb8-f93545dbbf0b","system_id":"levelo_inurba_marseille","lat":43.28445,"lon":5.39185,"is_reserved":false,"is_disabled":false,"rental_uris":{"android":"levelo://app?vid=46d7b820-b5db-4d4e-bdb8-f93545dbbf0b","ios":"levelo://app?vid=46d7b820-b5db-4d4e-bdb8-f93545dbbf0b"},"vehicle_type_id":"4","last_reported":1746464921,"current_range_meters":9600,"station_id":"ce4bhoh2rcd13ifvqh5g","pricing_plan_id":"cebpf4jnsgd1na2vs0mg"},{"bike_id":"ff781343-5420-4962-9aa8-d7897769240e","system_id":"levelo_inurba_marseille","lat":43.30795,"lon":5.3733,"is_reserved":false,"is_disabled":false,"rental_uris":{"android":"levelo://app?vid=ff781343-5420-4962-9aa8-d7897769240e","ios":"levelo://app?vid=ff781343-5420-4962-9aa8-d7897769240e"},"vehicle_type_id":"4","last_reported":1746464921,"current_range_meters":10000,"station_id":"","pricing_plan_id":"cebpf4jnsgd1na2vs0mg"},{"bike_id":"8813436d-14ad-49cf-be07-680f2ba14ba5","system_id":"levelo_inurba_marseille","lat":43.2815,"lon":5.42676,"is_reserved":false,"is_disabled":false,"rental_uris":{"android":"levelo://app?vid=8813436d-14ad-49cf-be07-680f2ba14ba5","ios":"levelo://app?vid=8813436d-14ad-49cf-be07-680f2ba14ba5"},"vehicle_type_id":"4","last_reported":1746464921,"current_range_meters":10000,"station_id":"ce4bhnh2rcd13ifvqgug","pricing_plan_id":"cebpf4jnsgd1na2vs0mg"},{"bike_id":"2eaac6a8-2197-495f-b26f-f8a53befbe22","system_id":"levelo_inurba_marseille","lat":43.26036,"lon":5.37563,"is_reserved":false,"is_disabled":false,"rental_uris":{"android":"levelo://app?vid=2eaac6a8-2197-495f-b26f-f8a53befbe22","ios":"levelo://app?vid=2eaac6a8-2197-495f-b26f-f8a53befbe22"},"vehicle_type_id":"4","last_reported":1746464921,"current_range_meters":10000,"station_id":"ce4bhgh2rcd13ifvqfa0","pricing_plan_id":"cebpf4jnsgd1na2vs0mg"},{"bike_id":"1a82a0e9-f369-4d01-ae50-ae98884bab48","system_id":"levelo_inurba_marseille","lat":43.33075,"lon":5.38706,"is_reserved":false,"is_disabled":false,"rental_uris":{"android":"levelo://app?vid=1a82a0e9-f369-4d01-ae50-ae98884bab48","ios":"levelo://app?vid=1a82a0e9-f369-4d01-ae50-ae98884bab48"},"vehicle_type_id":"4","last_reported":1746464921,"current_range_meters":10000,"station_id":"","pricing_plan_id":"cebpf4jnsgd1na2vs0mg"},{"bike_id":"f6965056-e655-4311-bc7b-140fed5bf9b6","system_id":"levelo_inurba_marseille","lat":43.241805,"lon":5.39736,"is_reserved":false,"is_disabled":false,"rental_uris":{"android":"levelo://app?vid=f6965056-e655-4311-bc7b-140fed5bf9b6","ios":"levelo://app?vid=f6965056-e655-4311-bc7b-140fed5bf9b6"},"vehicle_type_id":"4","last_reported":1746464921,"current_range_meters":10000,"station_id":"ce4bhn12rcd13ifvqgpg","pricing_plan_id":"cebpf4jnsgd1na2vs0mg"},{"bike_id":"9fc13afb-e947-475e-b143-9f3ee51b87b5","system_id":"levelo_inurba_marseille","lat":43.30301,"lon":5.39208,"is_reserved":false,"is_disabled":true,"rental_uris":{"android":"levelo://app?vid=9fc13afb-e947-475e-b143-9f3ee51b87b5","ios":"levelo://app?vid=9fc13afb-e947-475e-b143-9f3ee51b87b5"},"vehicle_type_id":"4","last_reported":1746464921,"current_range_meters":10800,"station_id":"ce4bgkh2rcd13ifvqbk0","pricing_plan_id":"cebpf4jnsgd1na2vs0mg"},{"bike_id":"cb40916d-8162-4134-a5cc-bd3df7412215","system_id":"levelo_inurba_marseille","lat":43.29006,"lon":5.35611,"is_reserved":false,"is_disabled":false,"rental_uris":{"android":"levelo://app?vid=cb40916d-8162-4134-a5cc-bd3df7412215","ios":"levelo://app?vid=cb40916d-8162-4134-a5cc-bd3df7412215"},"vehicle_type_id":"4","last_reported":1746464921,"current_range_meters":10000,"station_id":"ce4bhb92rcd13ifvqen0","pricing_plan_id":"cebpf4jnsgd1na2vs0mg"},{"bike_id":"02235f25-174f-4e5d-bce9-a59804091448","system_id":"levelo_inurba_marseille","lat":43.31355,"lon":5.38504,"is_reserved":false,"is_disabled":true,"rental_uris":{"android":"levelo://app?vid=02235f25-174f-4e5d-bce9-a59804091448","ios":"levelo://app?vid=02235f25-174f-4e5d-bce9-a59804091448"},"vehicle_type_id":"4","last_reported":1746464921,"current_range_meters":10800,"station_id":"ce4bgt92rcd13ifvqcf0","pricing_plan_id":"cebpf4jnsgd1na2vs0mg"},{"bike_id":"d979d364-9db2-4e4c-a1cf-5f0ad72d3560","system_id":"levelo_inurba_marseille","lat":43.28927,"lon":5.38389,"is_reserved":false,"is_disabled":false,"rental_uris":{"android":"levelo://app?vid=d979d364-9db2-4e4c-a1cf-5f0ad72d3560","ios":"levelo://app?vid=d979d364-9db2-4e4c-a1cf-5f0ad72d3560"},"vehicle_type_id":"4","last_reported":1746464921,"current_range_meters":10000,"station_id":"ce4bh612rcd13ifvqe6g","pricing_plan_id":"cebpf4jnsgd1na2vs0mg"},{"bike_id":"819a1800-c0a3-4cb1-a9d8-3402b0d47d5e","system_id":"levelo_inurba_marseille","lat":43.28937,"lon":5.38404,"is_reserved":false,"is_disabled":false,"rental_uris":{"android":"levelo://app?vid=819a1800-c0a3-4cb1-a9d8-3402b0d47d5e","ios":"levelo://app?vid=819a1800-c0a3-4cb1-a9d8-3402b0d47d5e"},"vehicle_type_id":"4","last_reported":1746464921,"current_range_meters":10800,"station_id":"ce4bh612rcd13ifvqe6g","pricing_plan_id":"cebpf4jnsgd1na2vs0mg"},{"bike_id":"f82049e3-5c32-4d4c-9676-8e8bc50b105c","system_id":"levelo_inurba_marseille","lat":43.31171,"lon":5.38731,"is_reserved":false,"is_disabled":false,"rental_uris":{"android":"levelo://app?vid=f82049e3-5c32-4d4c-9676-8e8bc50b105c","ios":"levelo://app?vid=f82049e3-5c32-4d4c-9676-8e8bc50b105c"},"vehicle_type_id":"4","last_reported":1746464921,"current_range_meters":10800,"station_id":"ce4bgv12rcd13ifvqcp0","pricing_plan_id":"cebpf4jnsgd1na2vs0mg"},{"bike_id":"4508f0fd-5995-4d46-9a60-43e3b3a35920","system_id":"levelo_inurba_marseille","lat":43.28916,"lon":5.36378,"is_reserved":false,"is_disabled":false,"rental_uris":{"android":"levelo://app?vid=4508f0fd-5995-4d46-9a60-43e3b3a35920","ios":"levelo://app?vid=4508f0fd-5995-4d46-9a60-43e3b3a35920"},"vehicle_type_id":"4","last_reported":1746464921,"current_range_meters":10800,"station_id":"ce4bhc92rcd13ifvqetg","pricing_plan_id":"cebpf4jnsgd1na2vs0mg"},{"bike_id":"d1aa6e5d-6beb-440c-afb6-1d488c12e5a1","system_id":"levelo_inurba_marseille","lat":43.32084,"lon":5.36758,"is_reserved":false,"is_disabled":false,"rental_uris":{"android":"levelo://app?vid=d1aa6e5d-6beb-440c-afb6-1d488c12e5a1","ios":"levelo://app?vid=d1aa6e5d-6beb-440c-afb6-1d488c12e5a1"},"vehicle_type_id":"4","last_reported":1746464921,"current_range_meters":10800,"station_id":"ce4bhrh2rcd13ifvqhug","pricing_plan_id":"cebpf4jnsgd1na2vs0mg"},{"bike_id":"2bdec81a-9fe1-4872-bafb-8b9d374222ee","system_id":"levelo_inurba_marseille","lat":43.28155,"lon":5.42651,"is_reserved":false,"is_disabled":false,"rental_uris":{"android":"levelo://app?vid=2bdec81a-9fe1-4872-bafb-8b9d374222ee","ios":"levelo://app?vid=2bdec81a-9fe1-4872-bafb-8b9d374222ee"},"vehicle_type_id":"4","last_reported":1746464921,"current_range_meters":10800,"station_id":"ce4bhnh2rcd13ifvqgug","pricing_plan_id":"cebpf4jnsgd1na2vs0mg"},{"bike_id":"cf15e3d4-9301-4c79-9387-726526a959a2","system_id":"levelo_inurba_marseille","lat":43.30093,"lon":5.39061,"is_reserved":false,"is_disabled":false,"rental_uris":{"android":"levelo://app?vid=cf15e3d4-9301-4c79-9387-726526a959a2","ios":"levelo://app?vid=cf15e3d4-9301-4c79-9387-726526a959a2"},"vehicle_type_id":"4","last_reported":1746464921,"current_range_meters":10800,"station_id":"ce4bh192rcd13ifvqdb0","pricing_plan_id":"cebpf4jnsgd1na2vs0mg"},{"bike_id":"9984ff2b-3885-47aa-ba70-9b917581f8c7","system_id":"levelo_inurba_marseille","lat":43.28943,"lon":5.364,"is_reserved":false,"is_disabled":false,"rental_uris":{"android":"levelo://app?vid=9984ff2b-3885-47aa-ba70-9b917581f8c7","ios":"levelo://app?vid=9984ff2b-3885-47aa-ba70-9b917581f8c7"},"vehicle_type_id":"4","last_reported":1746464921,"current_range_meters":10800,"station_id":"ce4bhc92rcd13ifvqetg","pricing_plan_id":"cebpf4jnsgd1na2vs0mg"},{"bike_id":"baf3f2b3-c2f2-4961-9002-b12a86ca2634","system_id":"levelo_inurba_marseille","lat":43.29542,"lon":5.390483,"is_reserved":false,"is_disabled":false,"rental_uris":{"android":"levelo://app?vid=baf3f2b3-c2f2-4961-9002-b12a86ca2634","ios":"levelo://app?vid=baf3f2b3-c2f2-4961-9002-b12a86ca2634"},"vehicle_type_id":"4","last_reported":1746464921,"current_range_meters":11200,"station_id":"ce4bh3p2rcd13ifvqdp0","pricing_plan_id":"cebpf4jnsgd1na2vs0mg"},{"bike_id":"bae772cd-5f06-4ba4-9a46-2da073ab4433","system_id":"levelo_inurba_marseille","lat":43.2501,"lon":5.38924,"is_reserved":false,"is_disabled":false,"rental_uris":{"android":"levelo://app?vid=bae772cd-5f06-4ba4-9a46-2da073ab4433","ios":"levelo://app?vid=bae772cd-5f06-4ba4-9a46-2da073ab4433"},"vehicle_type_id":"4","last_reported":1746464921,"current_range_meters":11600,"station_id":"ce4bhgp2rcd13ifvqfd0","pricing_plan_id":"cebpf4jnsgd1na2vs0mg"},{"bike_id":"c045bd51-4a92-43ce-8d46-a524019a657c","system_id":"levelo_inurba_marseille","lat":43.30141,"lon":5.38785,"is_reserved":false,"is_disabled":false,"rental_uris":{"android":"levelo://app?vid=c045bd51-4a92-43ce-8d46-a524019a657c","ios":"levelo://app?vid=c045bd51-4a92-43ce-8d46-a524019a657c"},"vehicle_type_id":"4","last_reported":1746464921,"current_range_meters":11200,"station_id":"ce4bghh2rcd13ifvqb60","pricing_plan_id":"cebpf4jnsgd1na2vs0mg"},{"bike_id":"aff0c34d-0b07-442a-903d-b14ccce078d4","system_id":"levelo_inurba_marseille","lat":43.28473,"lon":5.38414,"is_reserved":false,"is_disabled":false,"rental_uris":{"android":"levelo://app?vid=aff0c34d-0b07-442a-903d-b14ccce078d4","ios":"levelo://app?vid=aff0c34d-0b07-442a-903d-b14ccce078d4"},"vehicle_type_id":"4","last_reported":1746464921,"current_range_meters":11600,"station_id":"ce4bh512rcd13ifvqe3g","pricing_plan_id":"cebpf4jnsgd1na2vs0mg"},{"bike_id":"05d2dd3a-c10e-4ad7-9004-769abacc801d","system_id":"levelo_inurba_marseille","lat":43.29709,"lon":5.36616,"is_reserved":false,"is_disabled":false,"rental_uris":{"android":"levelo://app?vid=05d2dd3a-c10e-4ad7-9004-769abacc801d","ios":"levelo://app?vid=05d2dd3a-c10e-4ad7-9004-769abacc801d"},"vehicle_type_id":"4","last_reported":1746464921,"current_range_meters":11600,"station_id":"ce4bgn12rcd13ifvqbt0","pricing_plan_id":"cebpf4jnsgd1na2vs0mg"},{"bike_id":"e19f07bd-cb29-4afe-8e87-d5b28f0876c5","system_id":"levelo_inurba_marseille","lat":43.27197,"lon":5.40968,"is_reserved":false,"is_disabled":false,"rental_uris":{"android":"levelo://app?vid=e19f07bd-cb29-4afe-8e87-d5b28f0876c5","ios":"levelo://app?vid=e19f07bd-cb29-4afe-8e87-d5b28f0876c5"},"vehicle_type_id":"4","last_reported":1746464921,"current_range_meters":11600,"station_id":"ce4bhl12rcd13ifvqgf0","pricing_plan_id":"cebpf4jnsgd1na2vs0mg"},{"bike_id":"85267db5-02de-4593-bf9c-9c4b659d5b27","system_id":"levelo_inurba_marseille","lat":43.25005,"lon":5.38926,"is_reserved":false,"is_disabled":false,"rental_uris":{"android":"levelo://app?vid=85267db5-02de-4593-bf9c-9c4b659d5b27","ios":"levelo://app?vid=85267db5-02de-4593-bf9c-9c4b659d5b27"},"vehicle_type_id":"4","last_reported":1746464921,"current_range_meters":11600,"station_id":"ce4bhgp2rcd13ifvqfd0","pricing_plan_id":"cebpf4jnsgd1na2vs0mg"},{"bike_id":"d1291b83-aab3-408f-937b-0f1cfab45826","system_id":"levelo_inurba_marseille","lat":43.31891,"lon":5.40736,"is_reserved":false,"is_disabled":false,"rental_uris":{"android":"levelo://app?vid=d1291b83-aab3-408f-937b-0f1cfab45826","ios":"levelo://app?vid=d1291b83-aab3-408f-937b-0f1cfab45826"},"vehicle_type_id":"4","last_reported":1746464921,"current_range_meters":11600,"station_id":"ce4bhq12rcd13ifvqhig","pricing_plan_id":"cebpf4jnsgd1na2vs0mg"},{"bike_id":"a337acb5-845f-4d6b-857d-21acb481c3d4","system_id":"levelo_inurba_marseille","lat":43.30213,"lon":5.39479,"is_reserved":false,"is_disabled":false,"rental_uris":{"android":"levelo://app?vid=a337acb5-845f-4d6b-857d-21acb481c3d4","ios":"levelo://app?vid=a337acb5-845f-4d6b-857d-21acb481c3d4"},"vehicle_type_id":"4","last_reported":1746464921,"current_range_meters":12000,"station_id":"ce4bh0p2rcd13ifvqd70","pricing_plan_id":"cebpf4jnsgd1na2vs0mg"},{"bike_id":"1a56d2e1-6609-455c-8523-959d44394069","system_id":"levelo_inurba_marseille","lat":43.30294,"lon":5.39192,"is_reserved":false,"is_disabled":true,"rental_uris":{"android":"levelo://app?vid=1a56d2e1-6609-455c-8523-959d44394069","ios":"levelo://app?vid=1a56d2e1-6609-455c-8523-959d44394069"},"vehicle_type_id":"4","last_reported":1746464921,"current_range_meters":12000,"station_id":"ce4bgkh2rcd13ifvqbk0","pricing_plan_id":"cebpf4jnsgd1na2vs0mg"},{"bike_id":"dccb1558-ffa9-4ed7-983f-422289b60b0d","system_id":"levelo_inurba_marseille","lat":43.28618,"lon":5.35106,"is_reserved":false,"is_disabled":false,"rental_uris":{"android":"levelo://app?vid=dccb1558-ffa9-4ed7-983f-422289b60b0d","ios":"levelo://app?vid=dccb1558-ffa9-4ed7-983f-422289b60b0d"},"vehicle_type_id":"4","last_reported":1746464921,"current_range_meters":12000,"station_id":"ce4bhch2rcd13ifvqeug","pricing_plan_id":"cebpf4jnsgd1na2vs0mg"},{"bike_id":"f9cec597-af13-4a8a-be1d-b7cf54819d4d","system_id":"levelo_inurba_marseille","lat":43.28968,"lon":5.40753,"is_reserved":false,"is_disabled":false,"rental_uris":{"android":"levelo://app?vid=f9cec597-af13-4a8a-be1d-b7cf54819d4d","ios":"levelo://app?vid=f9cec597-af13-4a8a-be1d-b7cf54819d4d"},"vehicle_type_id":"4","last_reported":1746464921,"current_range_meters":12000,"station_id":"","pricing_plan_id":"cebpf4jnsgd1na2vs0mg"},{"bike_id":"e72cbe9a-e56c-4e92-adf2-be011d29f87c","system_id":"levelo_inurba_marseille","lat":43.290907,"lon":5.381233,"is_reserved":false,"is_disabled":false,"rental_uris":{"android":"levelo://app?vid=e72cbe9a-e56c-4e92-adf2-be011d29f87c","ios":"levelo://app?vid=e72cbe9a-e56c-4e92-adf2-be011d29f87c"},"vehicle_type_id":"4","last_reported":1746464921,"current_range_meters":12000,"station_id":"ce4bh512rcd13ifvqe2g","pricing_plan_id":"cebpf4jnsgd1na2vs0mg"},{"bike_id":"7b30886b-d298-4d57-9e44-49745883be9d","system_id":"levelo_inurba_marseille","lat":43.29536,"lon":5.38553,"is_reserved":false,"is_disabled":false,"rental_uris":{"android":"levelo://app?vid=7b30886b-d298-4d57-9e44-49745883be9d","ios":"levelo://app?vid=7b30886b-d298-4d57-9e44-49745883be9d"},"vehicle_type_id":"4","last_reported":1746464921,"current_range_meters":11600,"station_id":"ce4bgih2rcd13ifvqba0","pricing_plan_id":"cebpf4jnsgd1na2vs0mg"},{"bike_id":"46515b8e-2c91-48c1-8869-455cffd3d0b7","system_id":"levelo_inurba_marseille","lat":43.27944,"lon":5.41044,"is_reserved":false,"is_disabled":false,"rental_uris":{"android":"levelo://app?vid=46515b8e-2c91-48c1-8869-455cffd3d0b7","ios":"levelo://app?vid=46515b8e-2c91-48c1-8869-455cffd3d0b7"},"vehicle_type_id":"4","last_reported":1746464921,"current_range_meters":12000,"station_id":"ce4bhnp2rcd13ifvqh0g","pricing_plan_id":"cebpf4jnsgd1na2vs0mg"},{"bike_id":"bd0f5d5e-963b-4fe6-aa82-9fc047b0ac51","system_id":"levelo_inurba_marseille","lat":43.299042,"lon":5.388155,"is_reserved":false,"is_disabled":false,"rental_uris":{"android":"levelo://app?vid=bd0f5d5e-963b-4fe6-aa82-9fc047b0ac51","ios":"levelo://app?vid=bd0f5d5e-963b-4fe6-aa82-9fc047b0ac51"},"vehicle_type_id":"4","last_reported":1746464921,"current_range_meters":12000,"station_id":"","pricing_plan_id":"cebpf4jnsgd1na2vs0mg"},{"bike_id":"6442d0bf-f102-4c2b-8a62-02bd9ef62a41","system_id":"levelo_inurba_marseille","lat":43.31715,"lon":5.43706,"is_reserved":false,"is_disabled":false,"rental_uris":{"android":"levelo://app?vid=6442d0bf-f102-4c2b-8a62-02bd9ef62a41","ios":"levelo://app?vid=6442d0bf-f102-4c2b-8a62-02bd9ef62a41"},"vehicle_type_id":"4","last_reported":1746464921,"current_range_meters":12000,"station_id":"ce4bhp92rcd13ifvqhcg","pricing_plan_id":"cebpf4jnsgd1na2vs0mg"},{"bike_id":"4567db42-a456-48b6-bc7d-8dd13247fcc0","system_id":"levelo_inurba_marseille","lat":43.2795,"lon":5.41045,"is_reserved":false,"is_disabled":false,"rental_uris":{"android":"levelo://app?vid=4567db42-a456-48b6-bc7d-8dd13247fcc0","ios":"levelo://app?vid=4567db42-a456-48b6-bc7d-8dd13247fcc0"},"vehicle_type_id":"4","last_reported":1746464921,"current_range_meters":12000,"station_id":"ce4bhnp2rcd13ifvqh0g","pricing_plan_id":"cebpf4jnsgd1na2vs0mg"},{"bike_id":"5b8d1337-a035-4531-8ae9-843647d6f95e","system_id":"levelo_inurba_marseille","lat":43.23188,"lon":5.39983,"is_reserved":false,"is_disabled":false,"rental_uris":{"android":"levelo://app?vid=5b8d1337-a035-4531-8ae9-843647d6f95e","ios":"levelo://app?vid=5b8d1337-a035-4531-8ae9-843647d6f95e"},"vehicle_type_id":"4","last_reported":1746464921,"current_range_meters":12400,"station_id":"ce4bhn12rcd13ifvqgqg","pricing_plan_id":"cebpf4jnsgd1na2vs0mg"},{"bike_id":"9d8f73eb-df09-4699-86a7-d631e2319093","system_id":"levelo_inurba_marseille","lat":43.26269,"lon":5.37442,"is_reserved":false,"is_disabled":false,"rental_uris":{"android":"levelo://app?vid=9d8f73eb-df09-4699-86a7-d631e2319093","ios":"levelo://app?vid=9d8f73eb-df09-4699-86a7-d631e2319093"},"vehicle_type_id":"4","last_reported":1746464921,"current_range_meters":12400,"station_id":"","pricing_plan_id":"cebpf4jnsgd1na2vs0mg"},{"bike_id":"538d364e-48ad-4326-8670-e3fa5a8d79a1","system_id":"levelo_inurba_marseille","lat":43.29306,"lon":5.37182,"is_reserved":false,"is_disabled":false,"rental_uris":{"android":"levelo://app?vid=538d364e-48ad-4326-8670-e3fa5a8d79a1","ios":"levelo://app?vid=538d364e-48ad-4326-8670-e3fa5a8d79a1"},"vehicle_type_id":"4","last_reported":1746464921,"current_range_meters":12000,"station_id":"ce4bgh92rcd13ifvqb40","pricing_plan_id":"cebpf4jnsgd1na2vs0mg"},{"bike_id":"62bfa9fa-531f-4d2b-9e57-eb50b2d48c8c","system_id":"levelo_inurba_marseille","lat":43.2429,"lon":5.38017,"is_reserved":false,"is_disabled":false,"rental_uris":{"android":"levelo://app?vid=62bfa9fa-531f-4d2b-9e57-eb50b2d48c8c","ios":"levelo://app?vid=62bfa9fa-531f-4d2b-9e57-eb50b2d48c8c"},"vehicle_type_id":"4","last_reported":1746464921,"current_range_meters":12400,"station_id":"","pricing_plan_id":"cebpf4jnsgd1na2vs0mg"},{"bike_id":"a1dc3429-997e-4290-8f05-ca5f86dd8596","system_id":"levelo_inurba_marseille","lat":43.2792,"lon":5.39578,"is_reserved":false,"is_disabled":false,"rental_uris":{"android":"levelo://app?vid=a1dc3429-997e-4290-8f05-ca5f86dd8596","ios":"levelo://app?vid=a1dc3429-997e-4290-8f05-ca5f86dd8596"},"vehicle_type_id":"4","last_reported":1746464921,"current_range_meters":12400,"station_id":"ce4bhf92rcd13ifvqf40","pricing_plan_id":"cebpf4jnsgd1na2vs0mg"},{"bike_id":"219f0553-d4b9-4c04-acf4-67e57ab6cfb2","system_id":"levelo_inurba_marseille","lat":43.2844,"lon":5.39189,"is_reserved":false,"is_disabled":false,"rental_uris":{"android":"levelo://app?vid=219f0553-d4b9-4c04-acf4-67e57ab6cfb2","ios":"levelo://app?vid=219f0553-d4b9-4c04-acf4-67e57ab6cfb2"},"vehicle_type_id":"4","last_reported":1746464921,"current_range_meters":4000,"station_id":"ce4bhoh2rcd13ifvqh5g","pricing_plan_id":"cebpf4jnsgd1na2vs0mg"},{"bike_id":"0cb139c7-ebfc-4316-b1f8-0830598824b5","system_id":"levelo_inurba_marseille","lat":43.29817,"lon":5.39352,"is_reserved":false,"is_disabled":true,"rental_uris":{"android":"levelo://app?vid=0cb139c7-ebfc-4316-b1f8-0830598824b5","ios":"levelo://app?vid=0cb139c7-ebfc-4316-b1f8-0830598824b5"},"vehicle_type_id":"4","last_reported":1746464921,"current_range_meters":12800,"station_id":"chh1huq6cuj3fo74tm60","pricing_plan_id":"cebpf4jnsgd1na2vs0mg"},{"bike_id":"06e4c18c-82c7-4b53-b36b-ccc22bc5faff","system_id":"levelo_inurba_marseille","lat":43.30323,"lon":5.40436,"is_reserved":false,"is_disabled":false,"rental_uris":{"android":"levelo://app?vid=06e4c18c-82c7-4b53-b36b-ccc22bc5faff","ios":"levelo://app?vid=06e4c18c-82c7-4b53-b36b-ccc22bc5faff"},"vehicle_type_id":"4","last_reported":1746464921,"current_range_meters":12800,"station_id":"ce4bh012rcd13ifvqd10","pricing_plan_id":"cebpf4jnsgd1na2vs0mg"},{"bike_id":"c00cf3dc-4569-4e74-8566-ec7ae0ad9c0e","system_id":"levelo_inurba_marseille","lat":43.27912,"lon":5.39588,"is_reserved":false,"is_disabled":false,"rental_uris":{"android":"levelo://app?vid=c00cf3dc-4569-4e74-8566-ec7ae0ad9c0e","ios":"levelo://app?vid=c00cf3dc-4569-4e74-8566-ec7ae0ad9c0e"},"vehicle_type_id":"4","last_reported":1746464921,"current_range_meters":12800,"station_id":"ce4bhf92rcd13ifvqf40","pricing_plan_id":"cebpf4jnsgd1na2vs0mg"},{"bike_id":"43734dda-5e8d-4ee9-ac1e-5cf05b274413","system_id":"levelo_inurba_marseille","lat":43.286686,"lon":5.386665,"is_reserved":false,"is_disabled":false,"rental_uris":{"android":"levelo://app?vid=43734dda-5e8d-4ee9-ac1e-5cf05b274413","ios":"levelo://app?vid=43734dda-5e8d-4ee9-ac1e-5cf05b274413"},"vehicle_type_id":"4","last_reported":1746464921,"current_range_meters":11200,"station_id":"ce4bh492rcd13ifvqdug","pricing_plan_id":"cebpf4jnsgd1na2vs0mg"},{"bike_id":"9112a8b2-0e24-49fc-8299-ca448204a82c","system_id":"levelo_inurba_marseille","lat":43.29726,"lon":5.36628,"is_reserved":false,"is_disabled":false,"rental_uris":{"android":"levelo://app?vid=9112a8b2-0e24-49fc-8299-ca448204a82c","ios":"levelo://app?vid=9112a8b2-0e24-49fc-8299-ca448204a82c"},"vehicle_type_id":"4","last_reported":1746464921,"current_range_meters":12800,"station_id":"ce4bgn12rcd13ifvqbt0","pricing_plan_id":"cebpf4jnsgd1na2vs0mg"},{"bike_id":"9e8165ce-7187-47bf-96c5-86a087f543d1","system_id":"levelo_inurba_marseille","lat":43.30422,"lon":5.41282,"is_reserved":false,"is_disabled":false,"rental_uris":{"android":"levelo://app?vid=9e8165ce-7187-47bf-96c5-86a087f543d1","ios":"levelo://app?vid=9e8165ce-7187-47bf-96c5-86a087f543d1"},"vehicle_type_id":"4","last_reported":1746464921,"current_range_meters":12400,"station_id":"ce4bhop2rcd13ifvqh8g","pricing_plan_id":"cebpf4jnsgd1na2vs0mg"},{"bike_id":"5c7d4c48-e77c-47e4-8dc4-c9e98834a8eb","system_id":"levelo_inurba_marseille","lat":43.2953,"lon":5.39034,"is_reserved":false,"is_disabled":false,"rental_uris":{"android":"levelo://app?vid=5c7d4c48-e77c-47e4-8dc4-c9e98834a8eb","ios":"levelo://app?vid=5c7d4c48-e77c-47e4-8dc4-c9e98834a8eb"},"vehicle_type_id":"4","last_reported":1746464921,"current_range_meters":12800,"station_id":"ce4bh3p2rcd13ifvqdp0","pricing_plan_id":"cebpf4jnsgd1na2vs0mg"},{"bike_id":"b60c17f5-436e-489e-8f3c-790e6084ac64","system_id":"levelo_inurba_marseille","lat":43.211952,"lon":5.35088,"is_reserved":false,"is_disabled":false,"rental_uris":{"android":"levelo://app?vid=b60c17f5-436e-489e-8f3c-790e6084ac64","ios":"levelo://app?vid=b60c17f5-436e-489e-8f3c-790e6084ac64"},"vehicle_type_id":"4","last_reported":1746464921,"current_range_meters":13600,"station_id":"st_cvj6sg6p6f1abm77japg","pricing_plan_id":"cebpf4jnsgd1na2vs0mg"},{"bike_id":"7d74f6e3-15c1-421e-a4d1-156fb7a7e964","system_id":"levelo_inurba_marseille","lat":43.29712,"lon":5.36606,"is_reserved":false,"is_disabled":false,"rental_uris":{"android":"levelo://app?vid=7d74f6e3-15c1-421e-a4d1-156fb7a7e964","ios":"levelo://app?vid=7d74f6e3-15c1-421e-a4d1-156fb7a7e964"},"vehicle_type_id":"4","last_reported":1746464921,"current_range_meters":12800,"station_id":"ce4bgn12rcd13ifvqbt0","pricing_plan_id":"cebpf4jnsgd1na2vs0mg"},{"bike_id":"9926577b-51b9-401e-972e-5d824540b48d","system_id":"levelo_inurba_marseille","lat":43.25831,"lon":5.39436,"is_reserved":false,"is_disabled":false,"rental_uris":{"android":"levelo://app?vid=9926577b-51b9-401e-972e-5d824540b48d","ios":"levelo://app?vid=9926577b-51b9-401e-972e-5d824540b48d"},"vehicle_type_id":"4","last_reported":1746464921,"current_range_meters":14000,"station_id":"ce4bhip2rcd13ifvqft0","pricing_plan_id":"cebpf4jnsgd1na2vs0mg"},{"bike_id":"b57cedbb-1159-4c19-a23e-045ac88626a0","system_id":"levelo_inurba_marseille","lat":43.23961,"lon":5.36627,"is_reserved":false,"is_disabled":false,"rental_uris":{"android":"levelo://app?vid=b57cedbb-1159-4c19-a23e-045ac88626a0","ios":"levelo://app?vid=b57cedbb-1159-4c19-a23e-045ac88626a0"},"vehicle_type_id":"4","last_reported":1746464921,"current_range_meters":13600,"station_id":"ce4bhi12rcd13ifvqfp0","pricing_plan_id":"cebpf4jnsgd1na2vs0mg"},{"bike_id":"0c377d9d-9a3a-47a7-9944-6039314b5e15","system_id":"levelo_inurba_marseille","lat":43.24584,"lon":5.40461,"is_reserved":false,"is_disabled":false,"rental_uris":{"android":"levelo://app?vid=0c377d9d-9a3a-47a7-9944-6039314b5e15","ios":"levelo://app?vid=0c377d9d-9a3a-47a7-9944-6039314b5e15"},"vehicle_type_id":"4","last_reported":1746464921,"current_range_meters":14000,"station_id":"","pricing_plan_id":"cebpf4jnsgd1na2vs0mg"},{"bike_id":"05a84f69-0592-442a-b098-6253d0b70e9e","system_id":"levelo_inurba_marseille","lat":43.29978,"lon":5.37224,"is_reserved":false,"is_disabled":false,"rental_uris":{"android":"levelo://app?vid=05a84f69-0592-442a-b098-6253d0b70e9e","ios":"levelo://app?vid=05a84f69-0592-442a-b098-6253d0b70e9e"},"vehicle_type_id":"4","last_reported":1746464921,"current_range_meters":14000,"station_id":"ce4bgr92rcd13ifvqc7g","pricing_plan_id":"cebpf4jnsgd1na2vs0mg"},{"bike_id":"5b234779-1003-41e8-850d-32edea3ea4bc","system_id":"levelo_inurba_marseille","lat":43.28171,"lon":5.42672,"is_reserved":false,"is_disabled":false,"rental_uris":{"android":"levelo://app?vid=5b234779-1003-41e8-850d-32edea3ea4bc","ios":"levelo://app?vid=5b234779-1003-41e8-850d-32edea3ea4bc"},"vehicle_type_id":"4","last_reported":1746464921,"current_range_meters":14000,"station_id":"ce4bhnh2rcd13ifvqgug","pricing_plan_id":"cebpf4jnsgd1na2vs0mg"},{"bike_id":"a46b5721-597c-404e-8ddb-3ba6469f967d","system_id":"levelo_inurba_marseille","lat":43.231921,"lon":5.355501,"is_reserved":false,"is_disabled":false,"rental_uris":{"android":"levelo://app?vid=a46b5721-597c-404e-8ddb-3ba6469f967d","ios":"levelo://app?vid=a46b5721-597c-404e-8ddb-3ba6469f967d"},"vehicle_type_id":"4","last_reported":1746464921,"current_range_meters":14400,"station_id":"ce4bhu92rcd13ifvqi70","pricing_plan_id":"cebpf4jnsgd1na2vs0mg"},{"bike_id":"f9c3d6fb-f805-4b18-8f66-4fd739daf610","system_id":"levelo_inurba_marseille","lat":43.25101,"lon":5.39526,"is_reserved":false,"is_disabled":false,"rental_uris":{"android":"levelo://app?vid=f9c3d6fb-f805-4b18-8f66-4fd739daf610","ios":"levelo://app?vid=f9c3d6fb-f805-4b18-8f66-4fd739daf610"},"vehicle_type_id":"4","last_reported":1746464921,"current_range_meters":14400,"station_id":"ce4bhm12rcd13ifvqgkg","pricing_plan_id":"cebpf4jnsgd1na2vs0mg"},{"bike_id":"979e0397-c76c-49f5-97c5-dca9f05b2d67","system_id":"levelo_inurba_marseille","lat":43.31551,"lon":5.38745,"is_reserved":false,"is_disabled":false,"rental_uris":{"android":"levelo://app?vid=979e0397-c76c-49f5-97c5-dca9f05b2d67","ios":"levelo://app?vid=979e0397-c76c-49f5-97c5-dca9f05b2d67"},"vehicle_type_id":"4","last_reported":1746464921,"current_range_meters":14400,"station_id":"","pricing_plan_id":"cebpf4jnsgd1na2vs0mg"},{"bike_id":"311ec4e0-482e-4b83-a693-e6b86a1abb04","system_id":"levelo_inurba_marseille","lat":43.33157,"lon":5.41378,"is_reserved":false,"is_disabled":false,"rental_uris":{"android":"levelo://app?vid=311ec4e0-482e-4b83-a693-e6b86a1abb04","ios":"levelo://app?vid=311ec4e0-482e-4b83-a693-e6b86a1abb04"},"vehicle_type_id":"4","last_reported":1746464921,"current_range_meters":14400,"station_id":"","pricing_plan_id":"cebpf4jnsgd1na2vs0mg"},{"bike_id":"16107044-420a-472f-8fe6-a2f74f16250d","system_id":"levelo_inurba_marseille","lat":43.29031,"lon":5.38645,"is_reserved":false,"is_disabled":false,"rental_uris":{"android":"levelo://app?vid=16107044-420a-472f-8fe6-a2f74f16250d","ios":"levelo://app?vid=16107044-420a-472f-8fe6-a2f74f16250d"},"vehicle_type_id":"4","last_reported":1746464921,"current_range_meters":14800,"station_id":"ce4bh4p2rcd13ifvqe0g","pricing_plan_id":"cebpf4jnsgd1na2vs0mg"},{"bike_id":"e162c7a7-4d9d-4f34-96c3-2ee8b5a21dc2","system_id":"levelo_inurba_marseille","lat":43.29916,"lon":5.37488,"is_reserved":false,"is_disabled":false,"rental_uris":{"android":"levelo://app?vid=e162c7a7-4d9d-4f34-96c3-2ee8b5a21dc2","ios":"levelo://app?vid=e162c7a7-4d9d-4f34-96c3-2ee8b5a21dc2"},"vehicle_type_id":"4","last_reported":1746464921,"current_range_meters":14800,"station_id":"ce4bgjh2rcd13ifvqbg0","pricing_plan_id":"cebpf4jnsgd1na2vs0mg"},{"bike_id":"97ee684f-b618-4722-9949-e04adce02783","system_id":"levelo_inurba_marseille","lat":43.307373,"lon":5.382126,"is_reserved":false,"is_disabled":false,"rental_uris":{"android":"levelo://app?vid=97ee684f-b618-4722-9949-e04adce02783","ios":"levelo://app?vid=97ee684f-b618-4722-9949-e04adce02783"},"vehicle_type_id":"4","last_reported":1746464921,"current_range_meters":14800,"station_id":"ce4bgt12rcd13ifvqce0","pricing_plan_id":"cebpf4jnsgd1na2vs0mg"},{"bike_id":"db607aba-0db6-423b-a818-c23224727203","system_id":"levelo_inurba_marseille","lat":43.231538,"lon":5.437006,"is_reserved":false,"is_disabled":false,"rental_uris":{"android":"levelo://app?vid=db607aba-0db6-423b-a818-c23224727203","ios":"levelo://app?vid=db607aba-0db6-423b-a818-c23224727203"},"vehicle_type_id":"4","last_reported":1746464921,"current_range_meters":14800,"station_id":"ce4bhmp2rcd13ifvqgog","pricing_plan_id":"cebpf4jnsgd1na2vs0mg"},{"bike_id":"44d1a496-4f16-46a6-b178-f49cec17003e","system_id":"levelo_inurba_marseille","lat":43.27184,"lon":5.40988,"is_reserved":false,"is_disabled":false,"rental_uris":{"android":"levelo://app?vid=44d1a496-4f16-46a6-b178-f49cec17003e","ios":"levelo://app?vid=44d1a496-4f16-46a6-b178-f49cec17003e"},"vehicle_type_id":"4","last_reported":1746464921,"current_range_meters":15200,"station_id":"ce4bhl12rcd13ifvqgf0","pricing_plan_id":"cebpf4jnsgd1na2vs0mg"},{"bike_id":"99259f7d-982b-4a06-ae18-aeb999c93a4f","system_id":"levelo_inurba_marseille","lat":43.32282,"lon":5.38275,"is_reserved":false,"is_disabled":false,"rental_uris":{"android":"levelo://app?vid=99259f7d-982b-4a06-ae18-aeb999c93a4f","ios":"levelo://app?vid=99259f7d-982b-4a06-ae18-aeb999c93a4f"},"vehicle_type_id":"4","last_reported":1746464921,"current_range_meters":14800,"station_id":"ce4bhr12rcd13ifvqhqg","pricing_plan_id":"cebpf4jnsgd1na2vs0mg"},{"bike_id":"bedd349d-0b2a-453e-9019-ecd66a0b16ea","system_id":"levelo_inurba_marseille","lat":43.27073,"lon":5.42283,"is_reserved":false,"is_disabled":false,"rental_uris":{"android":"levelo://app?vid=bedd349d-0b2a-453e-9019-ecd66a0b16ea","ios":"levelo://app?vid=bedd349d-0b2a-453e-9019-ecd66a0b16ea"},"vehicle_type_id":"4","last_reported":1746464921,"current_range_meters":15200,"station_id":"ce4bhk92rcd13ifvqgb0","pricing_plan_id":"cebpf4jnsgd1na2vs0mg"},{"bike_id":"7e7dc147-9fb8-4df0-905e-a56344049728","system_id":"levelo_inurba_marseille","lat":43.29041,"lon":5.38623,"is_reserved":false,"is_disabled":true,"rental_uris":{"android":"levelo://app?vid=7e7dc147-9fb8-4df0-905e-a56344049728","ios":"levelo://app?vid=7e7dc147-9fb8-4df0-905e-a56344049728"},"vehicle_type_id":"4","last_reported":1746464921,"current_range_meters":15200,"station_id":"ce4bh4p2rcd13ifvqe0g","pricing_plan_id":"cebpf4jnsgd1na2vs0mg"},{"bike_id":"9c2aa1ce-6a1f-43b6-a80a-38697c469b6e","system_id":"levelo_inurba_marseille","lat":43.322528,"lon":5.412758,"is_reserved":false,"is_disabled":false,"rental_uris":{"android":"levelo://app?vid=9c2aa1ce-6a1f-43b6-a80a-38697c469b6e","ios":"levelo://app?vid=9c2aa1ce-6a1f-43b6-a80a-38697c469b6e"},"vehicle_type_id":"4","last_reported":1746464921,"current_range_meters":16000,"station_id":"","pricing_plan_id":"cebpf4jnsgd1na2vs0mg"},{"bike_id":"11f97780-475b-4f21-80de-3f3008410017","system_id":"levelo_inurba_marseille","lat":43.29882,"lon":5.38893,"is_reserved":false,"is_disabled":false,"rental_uris":{"android":"levelo://app?vid=11f97780-475b-4f21-80de-3f3008410017","ios":"levelo://app?vid=11f97780-475b-4f21-80de-3f3008410017"},"vehicle_type_id":"4","last_reported":1746464921,"current_range_meters":16000,"station_id":"ce4bh392rcd13ifvqdl0","pricing_plan_id":"cebpf4jnsgd1na2vs0mg"},{"bike_id":"c9592205-9409-4f74-aed1-7c4141a58caa","system_id":"levelo_inurba_marseille","lat":43.27144,"lon":5.36388,"is_reserved":false,"is_disabled":false,"rental_uris":{"android":"levelo://app?vid=c9592205-9409-4f74-aed1-7c4141a58caa","ios":"levelo://app?vid=c9592205-9409-4f74-aed1-7c4141a58caa"},"vehicle_type_id":"4","last_reported":1746464921,"current_range_meters":16000,"station_id":"","pricing_plan_id":"cebpf4jnsgd1na2vs0mg"},{"bike_id":"8dac27be-a00b-4425-aba9-9ad4ebb57a63","system_id":"levelo_inurba_marseille","lat":43.28676,"lon":5.38689,"is_reserved":false,"is_disabled":true,"rental_uris":{"android":"levelo://app?vid=8dac27be-a00b-4425-aba9-9ad4ebb57a63","ios":"levelo://app?vid=8dac27be-a00b-4425-aba9-9ad4ebb57a63"},"vehicle_type_id":"4","last_reported":1746464921,"current_range_meters":16000,"station_id":"ce4bh492rcd13ifvqdug","pricing_plan_id":"cebpf4jnsgd1na2vs0mg"},{"bike_id":"66058b64-9d2c-4907-af96-a7e258e20c42","system_id":"levelo_inurba_marseille","lat":43.26953,"lon":5.38636,"is_reserved":false,"is_disabled":false,"rental_uris":{"android":"levelo://app?vid=66058b64-9d2c-4907-af96-a7e258e20c42","ios":"levelo://app?vid=66058b64-9d2c-4907-af96-a7e258e20c42"},"vehicle_type_id":"4","last_reported":1746464921,"current_range_meters":15200,"station_id":"ce4bhh92rcd13ifvqfh0","pricing_plan_id":"cebpf4jnsgd1na2vs0mg"},{"bike_id":"cac91e3d-039b-4e9c-aa46-4f5239c56bd1","system_id":"levelo_inurba_marseille","lat":43.308032,"lon":5.435251,"is_reserved":false,"is_disabled":false,"rental_uris":{"android":"levelo://app?vid=cac91e3d-039b-4e9c-aa46-4f5239c56bd1","ios":"levelo://app?vid=cac91e3d-039b-4e9c-aa46-4f5239c56bd1"},"vehicle_type_id":"4","last_reported":1746464921,"current_range_meters":16400,"station_id":"","pricing_plan_id":"cebpf4jnsgd1na2vs0mg"},{"bike_id":"6ac16951-6e05-424c-b166-301b645e8ff5","system_id":"levelo_inurba_marseille","lat":43.25088,"lon":5.39531,"is_reserved":false,"is_disabled":false,"rental_uris":{"android":"levelo://app?vid=6ac16951-6e05-424c-b166-301b645e8ff5","ios":"levelo://app?vid=6ac16951-6e05-424c-b166-301b645e8ff5"},"vehicle_type_id":"4","last_reported":1746464921,"current_range_meters":16400,"station_id":"ce4bhm12rcd13ifvqgkg","pricing_plan_id":"cebpf4jnsgd1na2vs0mg"},{"bike_id":"6a22f158-81bd-441c-be71-1dade920e83e","system_id":"levelo_inurba_marseille","lat":43.298505,"lon":5.362849,"is_reserved":false,"is_disabled":false,"rental_uris":{"android":"levelo://app?vid=6a22f158-81bd-441c-be71-1dade920e83e","ios":"levelo://app?vid=6a22f158-81bd-441c-be71-1dade920e83e"},"vehicle_type_id":"4","last_reported":1746464921,"current_range_meters":16400,"station_id":"ce4bgpp2rcd13ifvqc3g","pricing_plan_id":"cebpf4jnsgd1na2vs0mg"},{"bike_id":"858bed88-3c9c-4c60-b913-cfc9a1021309","system_id":"levelo_inurba_marseille","lat":43.31744,"lon":5.38997,"is_reserved":false,"is_disabled":true,"rental_uris":{"android":"levelo://app?vid=858bed88-3c9c-4c60-b913-cfc9a1021309","ios":"levelo://app?vid=858bed88-3c9c-4c60-b913-cfc9a1021309"},"vehicle_type_id":"4","last_reported":1746464921,"current_range_meters":16400,"station_id":"ce4bhqp2rcd13ifvqhng","pricing_plan_id":"cebpf4jnsgd1na2vs0mg"},{"bike_id":"19a7a432-0301-4ef3-8a3c-7ea65c4f0a8f","system_id":"levelo_inurba_marseille","lat":43.29898,"lon":5.4367,"is_reserved":false,"is_disabled":false,"rental_uris":{"android":"levelo://app?vid=19a7a432-0301-4ef3-8a3c-7ea65c4f0a8f","ios":"levelo://app?vid=19a7a432-0301-4ef3-8a3c-7ea65c4f0a8f"},"vehicle_type_id":"4","last_reported":1746464921,"current_range_meters":16400,"station_id":"ce4bhpp2rcd13ifvqhfg","pricing_plan_id":"cebpf4jnsgd1na2vs0mg"},{"bike_id":"7e51d057-14cf-4f65-9377-e5392fab515b","system_id":"levelo_inurba_marseille","lat":43.32539,"lon":5.414345,"is_reserved":false,"is_disabled":false,"rental_uris":{"android":"levelo://app?vid=7e51d057-14cf-4f65-9377-e5392fab515b","ios":"levelo://app?vid=7e51d057-14cf-4f65-9377-e5392fab515b"},"vehicle_type_id":"4","last_reported":1746464921,"current_range_meters":16000,"station_id":"ce4bhq12rcd13ifvqhhg","pricing_plan_id":"cebpf4jnsgd1na2vs0mg"},{"bike_id":"7ca09d8d-51db-4057-abe2-e9c1bdbcdfac","system_id":"levelo_inurba_marseille","lat":43.229233,"lon":5.353787,"is_reserved":false,"is_disabled":true,"rental_uris":{"android":"levelo://app?vid=7ca09d8d-51db-4057-abe2-e9c1bdbcdfac","ios":"levelo://app?vid=7ca09d8d-51db-4057-abe2-e9c1bdbcdfac"},"vehicle_type_id":"4","last_reported":1746464921,"current_range_meters":16400,"station_id":"cpo3532slgdg3j2ikp40","pricing_plan_id":"cebpf4jnsgd1na2vs0mg"},{"bike_id":"0bea9bd8-35c0-48dd-be2c-ff2f1fbd2c70","system_id":"levelo_inurba_marseille","lat":43.3206,"lon":5.41537,"is_reserved":false,"is_disabled":false,"rental_uris":{"android":"levelo://app?vid=0bea9bd8-35c0-48dd-be2c-ff2f1fbd2c70","ios":"levelo://app?vid=0bea9bd8-35c0-48dd-be2c-ff2f1fbd2c70"},"vehicle_type_id":"4","last_reported":1746464921,"current_range_meters":16800,"station_id":"ce4bhq92rcd13ifvqhkg","pricing_plan_id":"cebpf4jnsgd1na2vs0mg"},{"bike_id":"44eb2c29-47c7-48f3-9621-aeb759ed7c2d","system_id":"levelo_inurba_marseille","lat":43.31404,"lon":5.38512,"is_reserved":false,"is_disabled":false,"rental_uris":{"android":"levelo://app?vid=44eb2c29-47c7-48f3-9621-aeb759ed7c2d","ios":"levelo://app?vid=44eb2c29-47c7-48f3-9621-aeb759ed7c2d"},"vehicle_type_id":"4","last_reported":1746464921,"current_range_meters":16400,"station_id":"ce4bgt92rcd13ifvqcf0","pricing_plan_id":"cebpf4jnsgd1na2vs0mg"},{"bike_id":"b605027c-06dd-4ce8-adf2-cabf33c6fef3","system_id":"levelo_inurba_marseille","lat":43.28665,"lon":5.3636,"is_reserved":false,"is_disabled":false,"rental_uris":{"android":"levelo://app?vid=b605027c-06dd-4ce8-adf2-cabf33c6fef3","ios":"levelo://app?vid=b605027c-06dd-4ce8-adf2-cabf33c6fef3"},"vehicle_type_id":"4","last_reported":1746464921,"current_range_meters":16800,"station_id":"ce4bhah2rcd13ifvqej0","pricing_plan_id":"cebpf4jnsgd1na2vs0mg"},{"bike_id":"99097e50-dd2e-47c3-a879-f48655baf4d9","system_id":"levelo_inurba_marseille","lat":43.24609,"lon":5.40799,"is_reserved":false,"is_disabled":false,"rental_uris":{"android":"levelo://app?vid=99097e50-dd2e-47c3-a879-f48655baf4d9","ios":"levelo://app?vid=99097e50-dd2e-47c3-a879-f48655baf4d9"},"vehicle_type_id":"4","last_reported":1746464921,"current_range_meters":16800,"station_id":"","pricing_plan_id":"cebpf4jnsgd1na2vs0mg"},{"bike_id":"e3bb4c0a-ea28-4d8b-a92a-340ecfdd5f1d","system_id":"levelo_inurba_marseille","lat":43.31071,"lon":5.37548,"is_reserved":false,"is_disabled":false,"rental_uris":{"android":"levelo://app?vid=e3bb4c0a-ea28-4d8b-a92a-340ecfdd5f1d","ios":"levelo://app?vid=e3bb4c0a-ea28-4d8b-a92a-340ecfdd5f1d"},"vehicle_type_id":"4","last_reported":1746464921,"current_range_meters":16800,"station_id":"","pricing_plan_id":"cebpf4jnsgd1na2vs0mg"},{"bike_id":"c910e8bd-a108-4aa0-aaa4-565de735b1fb","system_id":"levelo_inurba_marseille","lat":43.29537,"lon":5.38541,"is_reserved":false,"is_disabled":false,"rental_uris":{"android":"levelo://app?vid=c910e8bd-a108-4aa0-aaa4-565de735b1fb","ios":"levelo://app?vid=c910e8bd-a108-4aa0-aaa4-565de735b1fb"},"vehicle_type_id":"4","last_reported":1746464921,"current_range_meters":16800,"station_id":"ce4bgih2rcd13ifvqba0","pricing_plan_id":"cebpf4jnsgd1na2vs0mg"},{"bike_id":"5a7d2749-ecbc-4351-94f2-8339d95d4c06","system_id":"levelo_inurba_marseille","lat":43.3154,"lon":5.38035,"is_reserved":false,"is_disabled":false,"rental_uris":{"android":"levelo://app?vid=5a7d2749-ecbc-4351-94f2-8339d95d4c06","ios":"levelo://app?vid=5a7d2749-ecbc-4351-94f2-8339d95d4c06"},"vehicle_type_id":"4","last_reported":1746464921,"current_range_meters":16800,"station_id":"ce4bhsp2rcd13ifvqi50","pricing_plan_id":"cebpf4jnsgd1na2vs0mg"},{"bike_id":"3f84d55c-f7b3-443f-a8ba-1f83ba8291a2","system_id":"levelo_inurba_marseille","lat":43.21193,"lon":5.3508,"is_reserved":false,"is_disabled":false,"rental_uris":{"android":"levelo://app?vid=3f84d55c-f7b3-443f-a8ba-1f83ba8291a2","ios":"levelo://app?vid=3f84d55c-f7b3-443f-a8ba-1f83ba8291a2"},"vehicle_type_id":"4","last_reported":1746464921,"current_range_meters":16800,"station_id":"st_cvj6sg6p6f1abm77japg","pricing_plan_id":"cebpf4jnsgd1na2vs0mg"},{"bike_id":"44c2bfb7-3fdc-4727-8072-840b49e408d0","system_id":"levelo_inurba_marseille","lat":43.27802,"lon":5.40715,"is_reserved":false,"is_disabled":false,"rental_uris":{"android":"levelo://app?vid=44c2bfb7-3fdc-4727-8072-840b49e408d0","ios":"levelo://app?vid=44c2bfb7-3fdc-4727-8072-840b49e408d0"},"vehicle_type_id":"4","last_reported":1746464921,"current_range_meters":16800,"station_id":"ce4bhnh2rcd13ifvqgtg","pricing_plan_id":"cebpf4jnsgd1na2vs0mg"},{"bike_id":"51deaff6-11c6-47e1-bf83-b8a707ddab2a","system_id":"levelo_inurba_marseille","lat":43.2842,"lon":5.34988,"is_reserved":false,"is_disabled":false,"rental_uris":{"android":"levelo://app?vid=51deaff6-11c6-47e1-bf83-b8a707ddab2a","ios":"levelo://app?vid=51deaff6-11c6-47e1-bf83-b8a707ddab2a"},"vehicle_type_id":"4","last_reported":1746464921,"current_range_meters":16800,"station_id":"ce4bhbh2rcd13ifvqepg","pricing_plan_id":"cebpf4jnsgd1na2vs0mg"},{"bike_id":"55beffa4-578f-41e2-a749-b091a12c09f6","system_id":"levelo_inurba_marseille","lat":43.287076,"lon":5.40001,"is_reserved":false,"is_disabled":false,"rental_uris":{"android":"levelo://app?vid=55beffa4-578f-41e2-a749-b091a12c09f6","ios":"levelo://app?vid=55beffa4-578f-41e2-a749-b091a12c09f6"},"vehicle_type_id":"4","last_reported":1746464921,"current_range_meters":16800,"station_id":"ce4bho92rcd13ifvqh3g","pricing_plan_id":"cebpf4jnsgd1na2vs0mg"},{"bike_id":"d9766e1c-c799-4d16-aa57-1d47be3d5579","system_id":"levelo_inurba_marseille","lat":43.32649,"lon":5.40388,"is_reserved":false,"is_disabled":false,"rental_uris":{"android":"levelo://app?vid=d9766e1c-c799-4d16-aa57-1d47be3d5579","ios":"levelo://app?vid=d9766e1c-c799-4d16-aa57-1d47be3d5579"},"vehicle_type_id":"4","last_reported":1746464921,"current_range_meters":17200,"station_id":"","pricing_plan_id":"cebpf4jnsgd1na2vs0mg"},{"bike_id":"5987d684-ebbc-4e3b-9225-d827a0b9ff39","system_id":"levelo_inurba_marseille","lat":43.23963,"lon":5.366441,"is_reserved":false,"is_disabled":false,"rental_uris":{"android":"levelo://app?vid=5987d684-ebbc-4e3b-9225-d827a0b9ff39","ios":"levelo://app?vid=5987d684-ebbc-4e3b-9225-d827a0b9ff39"},"vehicle_type_id":"4","last_reported":1746464921,"current_range_meters":17200,"station_id":"ce4bhi12rcd13ifvqfp0","pricing_plan_id":"cebpf4jnsgd1na2vs0mg"},{"bike_id":"bfb768d4-db43-4db8-8659-afeb33dd4edd","system_id":"levelo_inurba_marseille","lat":43.30724,"lon":5.42467,"is_reserved":false,"is_disabled":false,"rental_uris":{"android":"levelo://app?vid=bfb768d4-db43-4db8-8659-afeb33dd4edd","ios":"levelo://app?vid=bfb768d4-db43-4db8-8659-afeb33dd4edd"},"vehicle_type_id":"4","last_reported":1746464921,"current_range_meters":17200,"station_id":"st_cvj6ca6bvosntc0bfgr0","pricing_plan_id":"cebpf4jnsgd1na2vs0mg"},{"bike_id":"491ede8d-60cc-4ec8-93b1-cf28467060af","system_id":"levelo_inurba_marseille","lat":43.29776,"lon":5.3711,"is_reserved":false,"is_disabled":false,"rental_uris":{"android":"levelo://app?vid=491ede8d-60cc-4ec8-93b1-cf28467060af","ios":"levelo://app?vid=491ede8d-60cc-4ec8-93b1-cf28467060af"},"vehicle_type_id":"4","last_reported":1746464921,"current_range_meters":16000,"station_id":"ce4bgop2rcd13ifvqc1g","pricing_plan_id":"cebpf4jnsgd1na2vs0mg"},{"bike_id":"8614d70c-5274-4c95-bda3-d1d7ed02fdda","system_id":"levelo_inurba_marseille","lat":43.32364,"lon":5.36761,"is_reserved":false,"is_disabled":false,"rental_uris":{"android":"levelo://app?vid=8614d70c-5274-4c95-bda3-d1d7ed02fdda","ios":"levelo://app?vid=8614d70c-5274-4c95-bda3-d1d7ed02fdda"},"vehicle_type_id":"4","last_reported":1746464921,"current_range_meters":17200,"station_id":"ce4bhsh2rcd13ifvqi2g","pricing_plan_id":"cebpf4jnsgd1na2vs0mg"},{"bike_id":"993fbfe6-d776-4bfb-b5c0-f85f7cc80fc0","system_id":"levelo_inurba_marseille","lat":43.290266,"lon":5.386458,"is_reserved":false,"is_disabled":false,"rental_uris":{"android":"levelo://app?vid=993fbfe6-d776-4bfb-b5c0-f85f7cc80fc0","ios":"levelo://app?vid=993fbfe6-d776-4bfb-b5c0-f85f7cc80fc0"},"vehicle_type_id":"4","last_reported":1746464921,"current_range_meters":17600,"station_id":"","pricing_plan_id":"cebpf4jnsgd1na2vs0mg"},{"bike_id":"640a9e84-c79b-4a9b-92ce-27b449575476","system_id":"levelo_inurba_marseille","lat":43.28446,"lon":5.35906,"is_reserved":false,"is_disabled":false,"rental_uris":{"android":"levelo://app?vid=640a9e84-c79b-4a9b-92ce-27b449575476","ios":"levelo://app?vid=640a9e84-c79b-4a9b-92ce-27b449575476"},"vehicle_type_id":"4","last_reported":1746464921,"current_range_meters":17600,"station_id":"ce4bhah2rcd13ifvqei0","pricing_plan_id":"cebpf4jnsgd1na2vs0mg"},{"bike_id":"a07db7df-d212-4a63-ba71-2fc2a43e04a0","system_id":"levelo_inurba_marseille","lat":43.317163,"lon":5.437,"is_reserved":false,"is_disabled":false,"rental_uris":{"android":"levelo://app?vid=a07db7df-d212-4a63-ba71-2fc2a43e04a0","ios":"levelo://app?vid=a07db7df-d212-4a63-ba71-2fc2a43e04a0"},"vehicle_type_id":"4","last_reported":1746464921,"current_range_meters":17600,"station_id":"ce4bhp92rcd13ifvqhcg","pricing_plan_id":"cebpf4jnsgd1na2vs0mg"},{"bike_id":"6233d773-5051-406f-a935-d0bdec1b0dc6","system_id":"levelo_inurba_marseille","lat":43.30436,"lon":5.38886,"is_reserved":false,"is_disabled":false,"rental_uris":{"android":"levelo://app?vid=6233d773-5051-406f-a935-d0bdec1b0dc6","ios":"levelo://app?vid=6233d773-5051-406f-a935-d0bdec1b0dc6"},"vehicle_type_id":"4","last_reported":1746464921,"current_range_meters":16800,"station_id":"ce4bgk12rcd13ifvqbi0","pricing_plan_id":"cebpf4jnsgd1na2vs0mg"},{"bike_id":"4216c5eb-36a9-48c6-872f-31e355ba8b2b","system_id":"levelo_inurba_marseille","lat":43.265717,"lon":5.389962,"is_reserved":false,"is_disabled":false,"rental_uris":{"android":"levelo://app?vid=4216c5eb-36a9-48c6-872f-31e355ba8b2b","ios":"levelo://app?vid=4216c5eb-36a9-48c6-872f-31e355ba8b2b"},"vehicle_type_id":"4","last_reported":1746464921,"current_range_meters":18000,"station_id":"ce4bhh92rcd13ifvqfi0","pricing_plan_id":"cebpf4jnsgd1na2vs0mg"},{"bike_id":"10795d69-3d15-4a7c-92e5-7865842f9c23","system_id":"levelo_inurba_marseille","lat":43.28941,"lon":5.3639,"is_reserved":false,"is_disabled":false,"rental_uris":{"android":"levelo://app?vid=10795d69-3d15-4a7c-92e5-7865842f9c23","ios":"levelo://app?vid=10795d69-3d15-4a7c-92e5-7865842f9c23"},"vehicle_type_id":"4","last_reported":1746464921,"current_range_meters":18000,"station_id":"ce4bhc92rcd13ifvqetg","pricing_plan_id":"cebpf4jnsgd1na2vs0mg"},{"bike_id":"1fe6de21-c30b-47e5-a259-e83328c96cb4","system_id":"levelo_inurba_marseille","lat":43.28945,"lon":5.36402,"is_reserved":false,"is_disabled":false,"rental_uris":{"android":"levelo://app?vid=1fe6de21-c30b-47e5-a259-e83328c96cb4","ios":"levelo://app?vid=1fe6de21-c30b-47e5-a259-e83328c96cb4"},"vehicle_type_id":"4","last_reported":1746464921,"current_range_meters":18800,"station_id":"ce4bhc92rcd13ifvqetg","pricing_plan_id":"cebpf4jnsgd1na2vs0mg"},{"bike_id":"b8af3017-2f88-4bb9-a598-fb6ca90c5a7a","system_id":"levelo_inurba_marseille","lat":43.31123,"lon":5.37753,"is_reserved":false,"is_disabled":false,"rental_uris":{"android":"levelo://app?vid=b8af3017-2f88-4bb9-a598-fb6ca90c5a7a","ios":"levelo://app?vid=b8af3017-2f88-4bb9-a598-fb6ca90c5a7a"},"vehicle_type_id":"4","last_reported":1746464921,"current_range_meters":18800,"station_id":"ce4bgt92rcd13ifvqcg0","pricing_plan_id":"cebpf4jnsgd1na2vs0mg"},{"bike_id":"ab90e9b6-0de2-4ade-b5fd-575dd5de365d","system_id":"levelo_inurba_marseille","lat":43.28151,"lon":5.42675,"is_reserved":false,"is_disabled":false,"rental_uris":{"android":"levelo://app?vid=ab90e9b6-0de2-4ade-b5fd-575dd5de365d","ios":"levelo://app?vid=ab90e9b6-0de2-4ade-b5fd-575dd5de365d"},"vehicle_type_id":"4","last_reported":1746464921,"current_range_meters":18800,"station_id":"ce4bhnh2rcd13ifvqgug","pricing_plan_id":"cebpf4jnsgd1na2vs0mg"},{"bike_id":"9175d517-3c9f-4a9d-9359-bc5552cd94b8","system_id":"levelo_inurba_marseille","lat":43.28618,"lon":5.35106,"is_reserved":false,"is_disabled":false,"rental_uris":{"android":"levelo://app?vid=9175d517-3c9f-4a9d-9359-bc5552cd94b8","ios":"levelo://app?vid=9175d517-3c9f-4a9d-9359-bc5552cd94b8"},"vehicle_type_id":"4","last_reported":1746464921,"current_range_meters":18800,"station_id":"ce4bhch2rcd13ifvqeug","pricing_plan_id":"cebpf4jnsgd1na2vs0mg"},{"bike_id":"00ae1a4d-09ec-4b25-9150-f1c13707ed68","system_id":"levelo_inurba_marseille","lat":43.27948,"lon":5.4105,"is_reserved":false,"is_disabled":false,"rental_uris":{"android":"levelo://app?vid=00ae1a4d-09ec-4b25-9150-f1c13707ed68","ios":"levelo://app?vid=00ae1a4d-09ec-4b25-9150-f1c13707ed68"},"vehicle_type_id":"4","last_reported":1746464921,"current_range_meters":18800,"station_id":"ce4bhnp2rcd13ifvqh0g","pricing_plan_id":"cebpf4jnsgd1na2vs0mg"},{"bike_id":"80574cc0-4582-4e82-afe0-ecfb3fa825d6","system_id":"levelo_inurba_marseille","lat":43.27999,"lon":5.4167,"is_reserved":false,"is_disabled":false,"rental_uris":{"android":"levelo://app?vid=80574cc0-4582-4e82-afe0-ecfb3fa825d6","ios":"levelo://app?vid=80574cc0-4582-4e82-afe0-ecfb3fa825d6"},"vehicle_type_id":"4","last_reported":1746464921,"current_range_meters":19200,"station_id":"ce4bho12rcd13ifvqh1g","pricing_plan_id":"cebpf4jnsgd1na2vs0mg"},{"bike_id":"5215915d-26a3-494d-a9a5-c2b1fa7c9e54","system_id":"levelo_inurba_marseille","lat":43.2705,"lon":5.40263,"is_reserved":false,"is_disabled":false,"rental_uris":{"android":"levelo://app?vid=5215915d-26a3-494d-a9a5-c2b1fa7c9e54","ios":"levelo://app?vid=5215915d-26a3-494d-a9a5-c2b1fa7c9e54"},"vehicle_type_id":"4","last_reported":1746464921,"current_range_meters":19200,"station_id":"ce4bhk92rcd13ifvqgc0","pricing_plan_id":"cebpf4jnsgd1na2vs0mg"},{"bike_id":"14d07148-2dd0-4fc5-a0f2-a3725911d223","system_id":"levelo_inurba_marseille","lat":43.29901,"lon":5.43664,"is_reserved":false,"is_disabled":false,"rental_uris":{"android":"levelo://app?vid=14d07148-2dd0-4fc5-a0f2-a3725911d223","ios":"levelo://app?vid=14d07148-2dd0-4fc5-a0f2-a3725911d223"},"vehicle_type_id":"4","last_reported":1746464921,"current_range_meters":19200,"station_id":"ce4bhpp2rcd13ifvqhfg","pricing_plan_id":"cebpf4jnsgd1na2vs0mg"},{"bike_id":"5d38de90-4c39-486d-8072-4b82dc55fd18","system_id":"levelo_inurba_marseille","lat":43.2942,"lon":5.38623,"is_reserved":false,"is_disabled":false,"rental_uris":{"android":"levelo://app?vid=5d38de90-4c39-486d-8072-4b82dc55fd18","ios":"levelo://app?vid=5d38de90-4c39-486d-8072-4b82dc55fd18"},"vehicle_type_id":"4","last_reported":1746464921,"current_range_meters":16800,"station_id":"ce4bh2h2rcd13ifvqdh0","pricing_plan_id":"cebpf4jnsgd1na2vs0mg"},{"bike_id":"89d3f377-5a64-405e-ad75-45e8469ae3f6","system_id":"levelo_inurba_marseille","lat":43.26977,"lon":5.40273,"is_reserved":false,"is_disabled":true,"rental_uris":{"android":"levelo://app?vid=89d3f377-5a64-405e-ad75-45e8469ae3f6","ios":"levelo://app?vid=89d3f377-5a64-405e-ad75-45e8469ae3f6"},"vehicle_type_id":"4","last_reported":1746464921,"current_range_meters":19200,"station_id":"cjm6bp8fraef2m0cb0m0","pricing_plan_id":"cebpf4jnsgd1na2vs0mg"},{"bike_id":"a327ed7c-cb3d-44b1-bb3d-7951cd226f01","system_id":"levelo_inurba_marseille","lat":43.293396,"lon":5.371296,"is_reserved":false,"is_disabled":false,"rental_uris":{"android":"levelo://app?vid=a327ed7c-cb3d-44b1-bb3d-7951cd226f01","ios":"levelo://app?vid=a327ed7c-cb3d-44b1-bb3d-7951cd226f01"},"vehicle_type_id":"4","last_reported":1746464921,"current_range_meters":19200,"station_id":"","pricing_plan_id":"cebpf4jnsgd1na2vs0mg"},{"bike_id":"6ce81efa-e8f3-477a-b7a1-a1c58c727c56","system_id":"levelo_inurba_marseille","lat":43.21175,"lon":5.35087,"is_reserved":false,"is_disabled":false,"rental_uris":{"android":"levelo://app?vid=6ce81efa-e8f3-477a-b7a1-a1c58c727c56","ios":"levelo://app?vid=6ce81efa-e8f3-477a-b7a1-a1c58c727c56"},"vehicle_type_id":"4","last_reported":1746464921,"current_range_meters":19200,"station_id":"","pricing_plan_id":"cebpf4jnsgd1na2vs0mg"},{"bike_id":"13d72c90-097d-44e3-a161-c92142027aeb","system_id":"levelo_inurba_marseille","lat":43.3212,"lon":5.36758,"is_reserved":false,"is_disabled":false,"rental_uris":{"android":"levelo://app?vid=13d72c90-097d-44e3-a161-c92142027aeb","ios":"levelo://app?vid=13d72c90-097d-44e3-a161-c92142027aeb"},"vehicle_type_id":"4","last_reported":1746464921,"current_range_meters":19200,"station_id":"ce4bhrh2rcd13ifvqhug","pricing_plan_id":"cebpf4jnsgd1na2vs0mg"},{"bike_id":"87222d04-70cf-4d35-b30a-9565fafb55ac","system_id":"levelo_inurba_marseille","lat":43.28843,"lon":5.35867,"is_reserved":false,"is_disabled":false,"rental_uris":{"android":"levelo://app?vid=87222d04-70cf-4d35-b30a-9565fafb55ac","ios":"levelo://app?vid=87222d04-70cf-4d35-b30a-9565fafb55ac"},"vehicle_type_id":"4","last_reported":1746464921,"current_range_meters":18800,"station_id":"ce4bhb12rcd13ifvqem0","pricing_plan_id":"cebpf4jnsgd1na2vs0mg"},{"bike_id":"0b8d7167-f22b-4b4a-a34c-171be1727b0f","system_id":"levelo_inurba_marseille","lat":43.27609,"lon":5.36114,"is_reserved":false,"is_disabled":false,"rental_uris":{"android":"levelo://app?vid=0b8d7167-f22b-4b4a-a34c-171be1727b0f","ios":"levelo://app?vid=0b8d7167-f22b-4b4a-a34c-171be1727b0f"},"vehicle_type_id":"4","last_reported":1746464921,"current_range_meters":19600,"station_id":"ce4bgj92rcd13ifvqbe0","pricing_plan_id":"cebpf4jnsgd1na2vs0mg"},{"bike_id":"fa3384ef-698a-41cb-8af6-0e2a5e2ac7b2","system_id":"levelo_inurba_marseille","lat":43.28675,"lon":5.38661,"is_reserved":false,"is_disabled":false,"rental_uris":{"android":"levelo://app?vid=fa3384ef-698a-41cb-8af6-0e2a5e2ac7b2","ios":"levelo://app?vid=fa3384ef-698a-41cb-8af6-0e2a5e2ac7b2"},"vehicle_type_id":"4","last_reported":1746464921,"current_range_meters":19200,"station_id":"ce4bh492rcd13ifvqdug","pricing_plan_id":"cebpf4jnsgd1na2vs0mg"},{"bike_id":"0438f452-2d82-40af-a3a6-865e86bdb493","system_id":"levelo_inurba_marseille","lat":43.29888,"lon":5.38892,"is_reserved":false,"is_disabled":false,"rental_uris":{"android":"levelo://app?vid=0438f452-2d82-40af-a3a6-865e86bdb493","ios":"levelo://app?vid=0438f452-2d82-40af-a3a6-865e86bdb493"},"vehicle_type_id":"4","last_reported":1746464921,"current_range_meters":20000,"station_id":"ce4bh392rcd13ifvqdl0","pricing_plan_id":"cebpf4jnsgd1na2vs0mg"},{"bike_id":"ad3e95d1-33fd-4c52-8138-33e1a87f9b95","system_id":"levelo_inurba_marseille","lat":43.23187,"lon":5.35529,"is_reserved":false,"is_disabled":false,"rental_uris":{"android":"levelo://app?vid=ad3e95d1-33fd-4c52-8138-33e1a87f9b95","ios":"levelo://app?vid=ad3e95d1-33fd-4c52-8138-33e1a87f9b95"},"vehicle_type_id":"4","last_reported":1746464921,"current_range_meters":19600,"station_id":"ce4bhu92rcd13ifvqi70","pricing_plan_id":"cebpf4jnsgd1na2vs0mg"},{"bike_id":"ec3d7c57-abb0-46d7-9b9b-9534992c7c8f","system_id":"levelo_inurba_marseille","lat":43.28709,"lon":5.39987,"is_reserved":false,"is_disabled":false,"rental_uris":{"android":"levelo://app?vid=ec3d7c57-abb0-46d7-9b9b-9534992c7c8f","ios":"levelo://app?vid=ec3d7c57-abb0-46d7-9b9b-9534992c7c8f"},"vehicle_type_id":"4","last_reported":1746464921,"current_range_meters":19600,"station_id":"ce4bho92rcd13ifvqh3g","pricing_plan_id":"cebpf4jnsgd1na2vs0mg"},{"bike_id":"ed6c25e6-38f3-4261-a2b0-10e5352abc5e","system_id":"levelo_inurba_marseille","lat":43.29028,"lon":5.38653,"is_reserved":false,"is_disabled":false,"rental_uris":{"android":"levelo://app?vid=ed6c25e6-38f3-4261-a2b0-10e5352abc5e","ios":"levelo://app?vid=ed6c25e6-38f3-4261-a2b0-10e5352abc5e"},"vehicle_type_id":"4","last_reported":1746464921,"current_range_meters":19600,"station_id":"ce4bh4p2rcd13ifvqe0g","pricing_plan_id":"cebpf4jnsgd1na2vs0mg"},{"bike_id":"584fe72e-06fb-4156-b49d-e7b604db9ced","system_id":"levelo_inurba_marseille","lat":43.3228,"lon":5.3828,"is_reserved":false,"is_disabled":false,"rental_uris":{"android":"levelo://app?vid=584fe72e-06fb-4156-b49d-e7b604db9ced","ios":"levelo://app?vid=584fe72e-06fb-4156-b49d-e7b604db9ced"},"vehicle_type_id":"4","last_reported":1746464921,"current_range_meters":19200,"station_id":"ce4bhr12rcd13ifvqhqg","pricing_plan_id":"cebpf4jnsgd1na2vs0mg"},{"bike_id":"7f48a3b4-3b96-4a0d-b31b-a3e9819b3d87","system_id":"levelo_inurba_marseille","lat":43.30145,"lon":5.38093,"is_reserved":false,"is_disabled":false,"rental_uris":{"android":"levelo://app?vid=7f48a3b4-3b96-4a0d-b31b-a3e9819b3d87","ios":"levelo://app?vid=7f48a3b4-3b96-4a0d-b31b-a3e9819b3d87"},"vehicle_type_id":"4","last_reported":1746464921,"current_range_meters":19200,"station_id":"ce4bgjp2rcd13ifvqbh0","pricing_plan_id":"cebpf4jnsgd1na2vs0mg"},{"bike_id":"a02b8a4d-a39a-465f-9576-fa521552a7a5","system_id":"levelo_inurba_marseille","lat":43.28939,"lon":5.36396,"is_reserved":false,"is_disabled":false,"rental_uris":{"android":"levelo://app?vid=a02b8a4d-a39a-465f-9576-fa521552a7a5","ios":"levelo://app?vid=a02b8a4d-a39a-465f-9576-fa521552a7a5"},"vehicle_type_id":"4","last_reported":1746464921,"current_range_meters":20000,"station_id":"ce4bhc92rcd13ifvqetg","pricing_plan_id":"cebpf4jnsgd1na2vs0mg"},{"bike_id":"553322a2-fc26-422d-aba9-074858a2ace5","system_id":"levelo_inurba_marseille","lat":43.27947,"lon":5.41048,"is_reserved":false,"is_disabled":false,"rental_uris":{"android":"levelo://app?vid=553322a2-fc26-422d-aba9-074858a2ace5","ios":"levelo://app?vid=553322a2-fc26-422d-aba9-074858a2ace5"},"vehicle_type_id":"4","last_reported":1746464921,"current_range_meters":20000,"station_id":"ce4bhnp2rcd13ifvqh0g","pricing_plan_id":"cebpf4jnsgd1na2vs0mg"},