{"last_updated":1701879013,"ttl":30,"version":"2.2","data":{"bikes":[{"bike_id":"3a9b5267-1e6b-4241-88fe-8869541b4bcc","system_id":"levelo_inurba_marseille","lat":43.31341,"lon":5.367098,"is_reserved":false,"is_disabled":false,"rental_uris":{"android":"levelo://app?vid=3a9b5267-1e6b-4241-88fe-8869541b4bcc","ios":"levelo://app?vid=3a9b5267-1e6b-4241-88fe-8869541b4bcc"},"vehicle_type_id":"4","last_reported":1701879013,"current_range_meters":31200,"station_id":"ce4bgr92rcd13ifvqc6g","pricing_plan_id":"free"},{"bike_id":"abc62d03-4891-49c3-94b1-60d308d83518","system_id":"levelo_inurba_marseille","lat":43.31341,"lon":5.367098,"is_reserved":false,"is_disabled":false,"rental_uris":{"android":"levelo://app?vid=abc62d03-4891-49c3-94b1-60d308d83518","ios":"levelo://app?vid=abc62d03-4891-49c3-94b1-60d308d83518"},"vehicle_type_id":"4","last_reported":1701879013,"current_range_meters":30800,"station_id":"ce4bgr92rcd13ifvqc6g","pricing_plan_id":"free"},{"bike_id":"ba9bb771-dc60-40b2-b810-826e56111735","system_id":"levelo_inurba_marseille","lat":43.313391,"lon":5.36706,"is_reserved":false,"is_disabled":false,"rental_uris":{"android":"levelo://app?vid=ba9bb771-dc60-40b2-b810-826e56111735","ios":"levelo://app?vid=ba9bb771-dc60-40b2-b810-826e56111735"},"vehicle_type_id":"4","last_reported":1701879013,"current_range_meters":31600,"station_id":"ce4bgr92rcd13ifvqc6g","pricing_plan_id":"free"},{"bike_id":"3d529393-120c-4e42-a57e-af9af9e35db1","system_id":"levelo_inurba_marseille","lat":43.31341,"lon":5.367098,"is_reserved":false,"is_disabled":false,"rental_uris":{"android":"levelo://app?vid=3d529393-120c-4e42-a57e-af9af9e35db1","ios":"levelo://app?vid=3d529393-120c-4e42-a57e-af9af9e35db1"},"vehicle_type_id":"4","last_reported":1701879013,"current_range_meters":31600,"station_id":"ce4bgr92rcd13ifvqc6g","pricing_plan_id":"free"},{"bike_id":"d7cff2fc-91b2-414b-8664-514c29073941","system_id":"levelo_inurba_marseille","lat":43.313391,"lon":5.36706,"is_reserved":false,"is_disabled":false,"rental_uris":{"android":"levelo://app?vid=d7cff2fc-91b2-414b-8664-514c29073941","ios":"levelo://app?vid=d7cff2fc-91b2-414b-8664-514c29073941"},"vehicle_type_id":"4","last_reported":1701879013,"current_range_meters":18400,"station_id":"ce4bgr92rcd13ifvqc6g","pricing_plan_id":"free"},{"bike_id":"d32d7cbc-0509-42ad-9ec3-0f822d13f4b3","system_id":"levelo_inurba_marseille","lat":43.312239,"lon":5.368562,"is_reserved":false,"is_disabled":false,"rental_uris":{"android":"levelo://app?vid=d32d7cbc-0509-42ad-9ec3-0f822d13f4b3","ios":"levelo://app?vid=d32d7cbc-0509-42ad-9ec3-0f822d13f4b3"},"vehicle_type_id":"4","last_reported":1701879013,"current_range_meters":21600,"station_id":"ce4bgl92rcd13ifvqbq0","pricing_plan_id":"free"},{"bike_id":"e06c11e3-8c83-464a-b086-6ec3b40911d7","system_id":"levelo_inurba_marseille","lat":43.312239,"lon":5.368562,"is_reserved":false,"is_disabled":false,"rental_uris":{"android":"levelo://app?vid=e06c11e3-8c83-464a-b086-6ec3b40911d7","ios":"levelo://app?vid=e06c11e3-8c83-464a-b086-6ec3b40911d7"},"vehicle_type_id":"4","last_reported":1701879013,"current_range_meters":30800,"station_id":"ce4bgl92rcd13ifvqbq0","pricing_plan_id":"free"},{"bike_id":"a8feaafe-6cc6-419a-b1ec-80c15acd913a","system_id":"levelo_inurba_marseille","lat":43.314811,"lon":5.373103,"is_reserved":false,"is_disabled":false,"rental_uris":{"android":"levelo://app?vid=a8feaafe-6cc6-419a-b1ec-80c15acd913a","ios":"levelo://app?vid=a8feaafe-6cc6-419a-b1ec-80c15acd913a"},"vehicle_type_id":"4","last_reported":1701879013,"current_range_meters":15200,"station_id":"ce4bgt12rcd13ifvqcd0","pricing_plan_id":"free"},{"bike_id":"feabe519-cfa9-43fc-8495-b30bc0dbf035","system_id":"levelo_inurba_marseille","lat":43.309039,"lon":5.371797,"is_reserved":false,"is_disabled":false,"rental_uris":{"android":"levelo://app?vid=feabe519-cfa9-43fc-8495-b30bc0dbf035","ios":"levelo://app?vid=feabe519-cfa9-43fc-8495-b30bc0dbf035"},"vehicle_type_id":"4","last_reported":1701879013,"current_range_meters":21200,"station_id":"ce4bguh2rcd13ifvqckg","pricing_plan_id":"free"},{"bike_id":"985aab09-457a-4cec-9572-8c2a3ecfac74","system_id":"levelo_inurba_marseille","lat":43.306318,"lon":5.368272,"is_reserved":false,"is_disabled":false,"rental_uris":{"android":"levelo://app?vid=985aab09-457a-4cec-9572-8c2a3ecfac74","ios":"levelo://app?vid=985aab09-457a-4cec-9572-8c2a3ecfac74"},"vehicle_type_id":"4","last_reported":1701879013,"current_range_meters":21200,"station_id":"","pricing_plan_id":"free"},{"bike_id":"3a578191-6f1e-4a3d-9c82-2683572bb26d","system_id":"levelo_inurba_marseille","lat":43.319237,"lon":5.37299,"is_reserved":false,"is_disabled":false,"rental_uris":{"android":"levelo://app?vid=3a578191-6f1e-4a3d-9c82-2683572bb26d","ios":"levelo://app?vid=3a578191-6f1e-4a3d-9c82-2683572bb26d"},"vehicle_type_id":"4","last_reported":1701879013,"current_range_meters":0,"station_id":"","pricing_plan_id":"free"},{"bike_id":"4c975607-2315-4d03-9295-4dfff6f41a16","system_id":"levelo_inurba_marseille","lat":43.311131,"lon":5.377651,"is_reserved":false,"is_disabled":false,"rental_uris":{"android":"levelo://app?vid=4c975607-2315-4d03-9295-4dfff6f41a16","ios":"levelo://app?vid=4c975607-2315-4d03-9295-4dfff6f41a16"},"vehicle_type_id":"4","last_reported":1701879013,"current_range_meters":3200,"station_id":"ce4bgt92rcd13ifvqcg0","pricing_plan_id":"free"},{"bike_id":"800ba90f-0867-4c02-9cf2-27eb1a1f9bc2","system_id":"levelo_inurba_marseille","lat":43.307945,"lon":5.376487,"is_reserved":false,"is_disabled":false,"rental_uris":{"android":"levelo://app?vid=800ba90f-0867-4c02-9cf2-27eb1a1f9bc2","ios":"levelo://app?vid=800ba90f-0867-4c02-9cf2-27eb1a1f9bc2"},"vehicle_type_id":"4","last_reported":1701879013,"current_range_meters":5200,"station_id":"ce4bgv92rcd13ifvqcq0","pricing_plan_id":"free"},{"bike_id":"3c6b41dd-92dd-4f68-adbe-4c41bd7f271a","system_id":"levelo_inurba_marseille","lat":43.307921,"lon":5.376761,"is_reserved":false,"is_disabled":false,"rental_uris":{"android":"levelo://app?vid=3c6b41dd-92dd-4f68-adbe-4c41bd7f271a","ios":"levelo://app?vid=3c6b41dd-92dd-4f68-adbe-4c41bd7f271a"},"vehicle_type_id":"4","last_reported":1701879013,"current_range_meters":10800,"station_id":"ce4bgv92rcd13ifvqcq0","pricing_plan_id":"free"},{"bike_id":"adf146c5-e4e1-4668-9a33-042940925130","system_id":"levelo_inurba_marseille","lat":43.31351,"lon":5.37909,"is_reserved":false,"is_disabled":false,"rental_uris":{"android":"levelo://app?vid=adf146c5-e4e1-4668-9a33-042940925130","ios":"levelo://app?vid=adf146c5-e4e1-4668-9a33-042940925130"},"vehicle_type_id":"4","last_reported":1701879013,"current_range_meters":6000,"station_id":"","pricing_plan_id":"free"},{"bike_id":"44b639d4-c394-49b2-9e18-6098ae373bd6","system_id":"levelo_inurba_marseille","lat":43.310117,"lon":5.37936,"is_reserved":false,"is_disabled":false,"rental_uris":{"android":"levelo://app?vid=44b639d4-c394-49b2-9e18-6098ae373bd6","ios":"levelo://app?vid=44b639d4-c394-49b2-9e18-6098ae373bd6"},"vehicle_type_id":"4","last_reported":1701879013,"current_range_meters":30800,"station_id":"","pricing_plan_id":"free"},{"bike_id":"b9004071-d6a5-4048-a6eb-c4932b68b6a5","system_id":"levelo_inurba_marseille","lat":43.301939,"lon":5.366286,"is_reserved":false,"is_disabled":false,"rental_uris":{"android":"levelo://app?vid=b9004071-d6a5-4048-a6eb-c4932b68b6a5","ios":"levelo://app?vid=b9004071-d6a5-4048-a6eb-c4932b68b6a5"},"vehicle_type_id":"4","last_reported":1701879013,"current_range_meters":4000,"station_id":"ce4bgrh2rcd13ifvqc8g","pricing_plan_id":"free"},{"bike_id":"1ea60f58-75f7-4484-b705-1156df4b02ad","system_id":"levelo_inurba_marseille","lat":43.302842,"lon":5.373377,"is_reserved":false,"is_disabled":false,"rental_uris":{"android":"levelo://app?vid=1ea60f58-75f7-4484-b705-1156df4b02ad","ios":"levelo://app?vid=1ea60f58-75f7-4484-b705-1156df4b02ad"},"vehicle_type_id":"4","last_reported":1701879013,"current_range_meters":8800,"station_id":"","pricing_plan_id":"free"},{"bike_id":"a8bb7bc1-c21c-4e0c-a31a-8e7dfe708d44","system_id":"levelo_inurba_marseille","lat":43.304606,"lon":5.379026,"is_reserved":false,"is_disabled":false,"rental_uris":{"android":"levelo://app?vid=a8bb7bc1-c21c-4e0c-a31a-8e7dfe708d44","ios":"levelo://app?vid=a8bb7bc1-c21c-4e0c-a31a-8e7dfe708d44"},"vehicle_type_id":"4","last_reported":1701879013,"current_range_meters":0,"station_id":"ce4bgup2rcd13ifvqcn0","pricing_plan_id":"free"},{"bike_id":"0b63d246-2f80-4bd1-aaeb-799d8aa91c62","system_id":"levelo_inurba_marseille","lat":43.304606,"lon":5.379026,"is_reserved":false,"is_disabled":false,"rental_uris":{"android":"levelo://app?vid=0b63d246-2f80-4bd1-aaeb-799d8aa91c62","ios":"levelo://app?vid=0b63d246-2f80-4bd1-aaeb-799d8aa91c62"},"vehicle_type_id":"4","last_reported":1701879013,"current_range_meters":20000,"station_id":"ce4bgup2rcd13ifvqcn0","pricing_plan_id":"free"},{"bike_id":"e6a7946c-a7d5-4369-b254-577b631c8d1a","system_id":"levelo_inurba_marseille","lat":43.31719,"lon":5.38246,"is_reserved":false,"is_disabled":false,"rental_uris":{"android":"levelo://app?vid=e6a7946c-a7d5-4369-b254-577b631c8d1a","ios":"levelo://app?vid=e6a7946c-a7d5-4369-b254-577b631c8d1a"},"vehicle_type_id":"4","last_reported":1701879013,"current_range_meters":26400,"station_id":"","pricing_plan_id":"free"},{"bike_id":"788803fd-8919-4aea-92db-ccd573d56e3c","system_id":"levelo_inurba_marseille","lat":43.31991,"lon":5.38155,"is_reserved":false,"is_disabled":false,"rental_uris":{"android":"levelo://app?vid=788803fd-8919-4aea-92db-ccd573d56e3c","ios":"levelo://app?vid=788803fd-8919-4aea-92db-ccd573d56e3c"},"vehicle_type_id":"4","last_reported":1701879013,"current_range_meters":5600,"station_id":"ce4bhr12rcd13ifvqhpg","pricing_plan_id":"free"},{"bike_id":"9ee0ef7a-8d9c-4d78-8ae5-64e12b708d26","system_id":"levelo_inurba_marseille","lat":43.319997,"lon":5.381594,"is_reserved":false,"is_disabled":false,"rental_uris":{"android":"levelo://app?vid=9ee0ef7a-8d9c-4d78-8ae5-64e12b708d26","ios":"levelo://app?vid=9ee0ef7a-8d9c-4d78-8ae5-64e12b708d26"},"vehicle_type_id":"4","last_reported":1701879013,"current_range_meters":0,"station_id":"ce4bhr12rcd13ifvqhpg","pricing_plan_id":"free"},{"bike_id":"40f72111-30a7-4f12-b2ba-fcc8d2600d33","system_id":"levelo_inurba_marseille","lat":43.299209,"lon":5.365547,"is_reserved":false,"is_disabled":false,"rental_uris":{"android":"levelo://app?vid=40f72111-30a7-4f12-b2ba-fcc8d2600d33","ios":"levelo://app?vid=40f72111-30a7-4f12-b2ba-fcc8d2600d33"},"vehicle_type_id":"4","last_reported":1701879013,"current_range_meters":24000,"station_id":"ce4bgm92rcd13ifvqbr0","pricing_plan_id":"free"},{"bike_id":"6bbc4704-bdb7-485a-b657-3e670f011673","system_id":"levelo_inurba_marseille","lat":43.30583,"lon":5.38388,"is_reserved":false,"is_disabled":false,"rental_uris":{"android":"levelo://app?vid=6bbc4704-bdb7-485a-b657-3e670f011673","ios":"levelo://app?vid=6bbc4704-bdb7-485a-b657-3e670f011673"},"vehicle_type_id":"4","last_reported":1701879013,"current_range_meters":0,"station_id":"","pricing_plan_id":"free"},{"bike_id":"35f29493-9bda-474a-ac6d-789cf9a0e2b6","system_id":"levelo_inurba_marseille","lat":43.311722,"lon":5.387247,"is_reserved":false,"is_disabled":false,"rental_uris":{"android":"levelo://app?vid=35f29493-9bda-474a-ac6d-789cf9a0e2b6","ios":"levelo://app?vid=35f29493-9bda-474a-ac6d-789cf9a0e2b6"},"vehicle_type_id":"4","last_reported":1701879013,"current_range_meters":8000,"station_id":"ce4bgv12rcd13ifvqcp0","pricing_plan_id":"free"},{"bike_id":"3db13192-4643-47fa-929e-9c423569d0a1","system_id":"levelo_inurba_marseille","lat":43.311722,"lon":5.387247,"is_reserved":false,"is_disabled":false,"rental_uris":{"android":"levelo://app?vid=3db13192-4643-47fa-929e-9c423569d0a1","ios":"levelo://app?vid=3db13192-4643-47fa-929e-9c423569d0a1"},"vehicle_type_id":"4","last_reported":1701879013,"current_range_meters":31200,"station_id":"ce4bgv12rcd13ifvqcp0","pricing_plan_id":"free"},{"bike_id":"fd984df1-d53d-4195-a087-51d3e990438d","system_id":"levelo_inurba_marseille","lat":43.311722,"lon":5.387247,"is_reserved":false,"is_disabled":false,"rental_uris":{"android":"levelo://app?vid=fd984df1-d53d-4195-a087-51d3e990438d","ios":"levelo://app?vid=fd984df1-d53d-4195-a087-51d3e990438d"},"vehicle_type_id":"4","last_reported":1701879013,"current_range_meters":5200,"station_id":"ce4bgv12rcd13ifvqcp0","pricing_plan_id":"free"},{"bike_id":"72e97713-53e8-48fa-8c2a-b161ddb16007","system_id":"levelo_inurba_marseille","lat":43.311722,"lon":5.387247,"is_reserved":false,"is_disabled":false,"rental_uris":{"android":"levelo://app?vid=72e97713-53e8-48fa-8c2a-b161ddb16007","ios":"levelo://app?vid=72e97713-53e8-48fa-8c2a-b161ddb16007"},"vehicle_type_id":"4","last_reported":1701879013,"current_range_meters":3200,"station_id":"ce4bgv12rcd13ifvqcp0","pricing_plan_id":"free"},{"bike_id":"9ba41b11-63f4-4a2f-9d65-fa4b0cbfa75e","system_id":"levelo_inurba_marseille","lat":43.311722,"lon":5.387247,"is_reserved":false,"is_disabled":false,"rental_uris":{"android":"levelo://app?vid=9ba41b11-63f4-4a2f-9d65-fa4b0cbfa75e","ios":"levelo://app?vid=9ba41b11-63f4-4a2f-9d65-fa4b0cbfa75e"},"vehicle_type_id":"4","last_reported":1701879013,"current_range_meters":24400,"station_id":"ce4bgv12rcd13ifvqcp0","pricing_plan_id":"free"},{"bike_id":"d47c412e-4170-4dae-9180-58c9151f00c2","system_id":"levelo_inurba_marseille","lat":43.322872,"lon":5.382756,"is_reserved":false,"is_disabled":false,"rental_uris":{"android":"levelo://app?vid=d47c412e-4170-4dae-9180-58c9151f00c2","ios":"levelo://app?vid=d47c412e-4170-4dae-9180-58c9151f00c2"},"vehicle_type_id":"4","last_reported":1701879013,"current_range_meters":29600,"station_id":"ce4bhr12rcd13ifvqhqg","pricing_plan_id":"free"},{"bike_id":"04ea328d-eef9-479c-b3df-9ac03c15edf6","system_id":"levelo_inurba_marseille","lat":43.298218,"lon":5.374416,"is_reserved":false,"is_disabled":false,"rental_uris":{"android":"levelo://app?vid=04ea328d-eef9-479c-b3df-9ac03c15edf6","ios":"levelo://app?vid=04ea328d-eef9-479c-b3df-9ac03c15edf6"},"vehicle_type_id":"4","last_reported":1701879013,"current_range_meters":13200,"station_id":"","pricing_plan_id":"free"},{"bike_id":"c58a2089-b67f-42c5-ac7a-21fc01aff172","system_id":"levelo_inurba_marseille","lat":43.32831,"lon":5.36581,"is_reserved":false,"is_disabled":false,"rental_uris":{"android":"levelo://app?vid=c58a2089-b67f-42c5-ac7a-21fc01aff172","ios":"levelo://app?vid=c58a2089-b67f-42c5-ac7a-21fc01aff172"},"vehicle_type_id":"4","last_reported":1701879013,"current_range_meters":4800,"station_id":"","pricing_plan_id":"free"},{"bike_id":"94007754-7055-4e9f-884b-a69ad1a23f33","system_id":"levelo_inurba_marseille","lat":43.298832,"lon":5.378303,"is_reserved":false,"is_disabled":false,"rental_uris":{"android":"levelo://app?vid=94007754-7055-4e9f-884b-a69ad1a23f33","ios":"levelo://app?vid=94007754-7055-4e9f-884b-a69ad1a23f33"},"vehicle_type_id":"4","last_reported":1701879013,"current_range_meters":22800,"station_id":"","pricing_plan_id":"free"},{"bike_id":"92dc65d6-6823-4de3-93d4-056f738f090c","system_id":"levelo_inurba_marseille","lat":43.316538,"lon":5.38954,"is_reserved":false,"is_disabled":false,"rental_uris":{"android":"levelo://app?vid=92dc65d6-6823-4de3-93d4-056f738f090c","ios":"levelo://app?vid=92dc65d6-6823-4de3-93d4-056f738f090c"},"vehicle_type_id":"4","last_reported":1701879013,"current_range_meters":8800,"station_id":"","pricing_plan_id":"free"},{"bike_id":"194915be-5ac0-468f-9bd2-12fca5adbbf4","system_id":"levelo_inurba_marseille","lat":43.296131,"lon":5.370791,"is_reserved":false,"is_disabled":false,"rental_uris":{"android":"levelo://app?vid=194915be-5ac0-468f-9bd2-12fca5adbbf4","ios":"levelo://app?vid=194915be-5ac0-468f-9bd2-12fca5adbbf4"},"vehicle_type_id":"4","last_reported":1701879013,"current_range_meters":0,"station_id":"ce4bgnh2rcd13ifvqc0g","pricing_plan_id":"free"},{"bike_id":"483323c3-b004-4348-ba1b-f291efba59d2","system_id":"levelo_inurba_marseille","lat":43.317557,"lon":5.390173,"is_reserved":false,"is_disabled":false,"rental_uris":{"android":"levelo://app?vid=483323c3-b004-4348-ba1b-f291efba59d2","ios":"levelo://app?vid=483323c3-b004-4348-ba1b-f291efba59d2"},"vehicle_type_id":"4","last_reported":1701879013,"current_range_meters":13200,"station_id":"ce4bhqp2rcd13ifvqhng","pricing_plan_id":"free"},{"bike_id":"8eb52ab5-d45c-4304-ab0e-7aacad6d2184","system_id":"levelo_inurba_marseille","lat":43.317557,"lon":5.390173,"is_reserved":false,"is_disabled":false,"rental_uris":{"android":"levelo://app?vid=8eb52ab5-d45c-4304-ab0e-7aacad6d2184","ios":"levelo://app?vid=8eb52ab5-d45c-4304-ab0e-7aacad6d2184"},"vehicle_type_id":"4","last_reported":1701879013,"current_range_meters":26800,"station_id":"ce4bhqp2rcd13ifvqhng","pricing_plan_id":"free"},{"bike_id":"2424b203-2bfa-46d0-8b7b-b616d11edac6","system_id":"levelo_inurba_marseille","lat":43.33048,"lon":5.37026,"is_reserved":false,"is_disabled":false,"rental_uris":{"android":"levelo://app?vid=2424b203-2bfa-46d0-8b7b-b616d11edac6","ios":"levelo://app?vid=2424b203-2bfa-46d0-8b7b-b616d11edac6"},"vehicle_type_id":"4","last_reported":1701879013,"current_range_meters":8400,"station_id":"","pricing_plan_id":"free"},{"bike_id":"7ed303a0-066c-4827-9a4c-2b71a782d48e","system_id":"levelo_inurba_marseille","lat":43.298037,"lon":5.381066,"is_reserved":false,"is_disabled":false,"rental_uris":{"android":"levelo://app?vid=7ed303a0-066c-4827-9a4c-2b71a782d48e","ios":"levelo://app?vid=7ed303a0-066c-4827-9a4c-2b71a782d48e"},"vehicle_type_id":"4","last_reported":1701879013,"current_range_meters":20000,"station_id":"ce4bgip2rcd13ifvqbb0","pricing_plan_id":"free"},{"bike_id":"cff08082-5f99-4ac3-84fd-b1075c00b604","system_id":"levelo_inurba_marseille","lat":43.295279,"lon":5.375048,"is_reserved":false,"is_disabled":false,"rental_uris":{"android":"levelo://app?vid=cff08082-5f99-4ac3-84fd-b1075c00b604","ios":"levelo://app?vid=cff08082-5f99-4ac3-84fd-b1075c00b604"},"vehicle_type_id":"4","last_reported":1701879013,"current_range_meters":800,"station_id":"ce4bgkp2rcd13ifvqbmg","pricing_plan_id":"free"},{"bike_id":"9b542a1a-5edd-4904-9132-26fa21087c67","system_id":"levelo_inurba_marseille","lat":43.299717,"lon":5.384845,"is_reserved":false,"is_disabled":false,"rental_uris":{"android":"levelo://app?vid=9b542a1a-5edd-4904-9132-26fa21087c67","ios":"levelo://app?vid=9b542a1a-5edd-4904-9132-26fa21087c67"},"vehicle_type_id":"4","last_reported":1701879013,"current_range_meters":9200,"station_id":"ce4bgj92rcd13ifvqbd0","pricing_plan_id":"free"},{"bike_id":"71d25c3d-0a26-4b43-b8fc-97c556cc195b","system_id":"levelo_inurba_marseille","lat":43.32366,"lon":5.38886,"is_reserved":false,"is_disabled":false,"rental_uris":{"android":"levelo://app?vid=71d25c3d-0a26-4b43-b8fc-97c556cc195b","ios":"levelo://app?vid=71d25c3d-0a26-4b43-b8fc-97c556cc195b"},"vehicle_type_id":"4","last_reported":1701879013,"current_range_meters":18000,"station_id":"ce4bhqp2rcd13ifvqhog","pricing_plan_id":"free"},{"bike_id":"d9a300cd-6769-45ed-a1e8-f4463c083567","system_id":"levelo_inurba_marseille","lat":43.32367,"lon":5.388836,"is_reserved":false,"is_disabled":false,"rental_uris":{"android":"levelo://app?vid=d9a300cd-6769-45ed-a1e8-f4463c083567","ios":"levelo://app?vid=d9a300cd-6769-45ed-a1e8-f4463c083567"},"vehicle_type_id":"4","last_reported":1701879013,"current_range_meters":0,"station_id":"ce4bhqp2rcd13ifvqhog","pricing_plan_id":"free"},{"bike_id":"dfa43688-9811-4195-a0e7-5227fe201b11","system_id":"levelo_inurba_marseille","lat":43.32367,"lon":5.388836,"is_reserved":false,"is_disabled":false,"rental_uris":{"android":"levelo://app?vid=dfa43688-9811-4195-a0e7-5227fe201b11","ios":"levelo://app?vid=dfa43688-9811-4195-a0e7-5227fe201b11"},"vehicle_type_id":"4","last_reported":1701879013,"current_range_meters":22000,"station_id":"ce4bhqp2rcd13ifvqhog","pricing_plan_id":"free"},{"bike_id":"0f6846dd-dbbe-4c82-bf13-52b7cb769b2f","system_id":"levelo_inurba_marseille","lat":43.29602,"lon":5.381084,"is_reserved":false,"is_disabled":false,"rental_uris":{"android":"levelo://app?vid=0f6846dd-dbbe-4c82-bf13-52b7cb769b2f","ios":"levelo://app?vid=0f6846dd-dbbe-4c82-bf13-52b7cb769b2f"},"vehicle_type_id":"4","last_reported":1701879013,"current_range_meters":30000,"station_id":"ce4bgl12rcd13ifvqbo0","pricing_plan_id":"free"},{"bike_id":"092894e3-c199-4a78-85e6-deba2ebea1c3","system_id":"levelo_inurba_marseille","lat":43.293259,"lon":5.371586,"is_reserved":false,"is_disabled":false,"rental_uris":{"android":"levelo://app?vid=092894e3-c199-4a78-85e6-deba2ebea1c3","ios":"levelo://app?vid=092894e3-c199-4a78-85e6-deba2ebea1c3"},"vehicle_type_id":"4","last_reported":1701879013,"current_range_meters":25600,"station_id":"ce4bgh92rcd13ifvqb40","pricing_plan_id":"free"},{"bike_id":"1ba78703-7dcb-4432-9b49-e2565e757f62","system_id":"levelo_inurba_marseille","lat":43.292311,"lon":5.360731,"is_reserved":false,"is_disabled":false,"rental_uris":{"android":"levelo://app?vid=1ba78703-7dcb-4432-9b49-e2565e757f62","ios":"levelo://app?vid=1ba78703-7dcb-4432-9b49-e2565e757f62"},"vehicle_type_id":"4","last_reported":1701879013,"current_range_meters":0,"station_id":"ce4bhbh2rcd13ifvqeqg","pricing_plan_id":"free"},{"bike_id":"5a4c3b7c-995a-4f3e-98ae-0748c59ad83f","system_id":"levelo_inurba_marseille","lat":43.300852,"lon":5.390859,"is_reserved":false,"is_disabled":false,"rental_uris":{"android":"levelo://app?vid=5a4c3b7c-995a-4f3e-98ae-0748c59ad83f","ios":"levelo://app?vid=5a4c3b7c-995a-4f3e-98ae-0748c59ad83f"},"vehicle_type_id":"4","last_reported":1701879013,"current_range_meters":11200,"station_id":"ce4bh192rcd13ifvqdb0","pricing_plan_id":"free"},{"bike_id":"9de1a80e-a5a6-4b70-9a80-3d9a37cc8846","system_id":"levelo_inurba_marseille","lat":43.33383,"lon":5.36395,"is_reserved":false,"is_disabled":false,"rental_uris":{"android":"levelo://app?vid=9de1a80e-a5a6-4b70-9a80-3d9a37cc8846","ios":"levelo://app?vid=9de1a80e-a5a6-4b70-9a80-3d9a37cc8846"},"vehicle_type_id":"4","last_reported":1701879013,"current_range_meters":30000,"station_id":"","pricing_plan_id":"free"},{"bike_id":"43a6d915-97e6-4cbc-a584-addadcbf5761","system_id":"levelo_inurba_marseille","lat":43.291675,"lon":5.371583,"is_reserved":false,"is_disabled":false,"rental_uris":{"android":"levelo://app?vid=43a6d915-97e6-4cbc-a584-addadcbf5761","ios":"levelo://app?vid=43a6d915-97e6-4cbc-a584-addadcbf5761"},"vehicle_type_id":"4","last_reported":1701879013,"current_range_meters":20400,"station_id":"ce4bha92rcd13ifvqeh0","pricing_plan_id":"free"},{"bike_id":"c5a0142c-b8e1-459e-ba6c-c4b266e5ef74","system_id":"levelo_inurba_marseille","lat":43.290624,"lon":5.359245,"is_reserved":false,"is_disabled":false,"rental_uris":{"android":"levelo://app?vid=c5a0142c-b8e1-459e-ba6c-c4b266e5ef74","ios":"levelo://app?vid=c5a0142c-b8e1-459e-ba6c-c4b266e5ef74"},"vehicle_type_id":"4","last_reported":1701879013,"current_range_meters":19600,"station_id":"ce4bha92rcd13ifvqeg0","pricing_plan_id":"free"},{"bike_id":"7c6963f8-78e4-4c0e-8094-25aec8c71e3c","system_id":"levelo_inurba_marseille","lat":43.290327,"lon":5.375711,"is_reserved":false,"is_disabled":false,"rental_uris":{"android":"levelo://app?vid=7c6963f8-78e4-4c0e-8094-25aec8c71e3c","ios":"levelo://app?vid=7c6963f8-78e4-4c0e-8094-25aec8c71e3c"},"vehicle_type_id":"4","last_reported":1701879013,"current_range_meters":15200,"station_id":"ce4bh692rcd13ifvqe90","pricing_plan_id":"free"},{"bike_id":"a02a1b20-1fb1-4951-988a-77389649024d","system_id":"levelo_inurba_marseille","lat":43.289259,"lon":5.366364,"is_reserved":false,"is_disabled":false,"rental_uris":{"android":"levelo://app?vid=a02a1b20-1fb1-4951-988a-77389649024d","ios":"levelo://app?vid=a02a1b20-1fb1-4951-988a-77389649024d"},"vehicle_type_id":"4","last_reported":1701879013,"current_range_meters":23200,"station_id":"","pricing_plan_id":"free"},{"bike_id":"bfc84fba-fd9c-4885-b230-77c6b556f3fa","system_id":"levelo_inurba_marseille","lat":43.330442,"lon":5.389148,"is_reserved":false,"is_disabled":false,"rental_uris":{"android":"levelo://app?vid=bfc84fba-fd9c-4885-b230-77c6b556f3fa","ios":"levelo://app?vid=bfc84fba-fd9c-4885-b230-77c6b556f3fa"},"vehicle_type_id":"4","last_reported":1701879013,"current_range_meters":26800,"station_id":"ce4bhr92rcd13ifvqhrg","pricing_plan_id":"free"},{"bike_id":"3ebb2a71-d5f6-4813-81b9-c909afff64a1","system_id":"levelo_inurba_marseille","lat":43.33043,"lon":5.3892,"is_reserved":false,"is_disabled":false,"rental_uris":{"android":"levelo://app?vid=3ebb2a71-d5f6-4813-81b9-c909afff64a1","ios":"levelo://app?vid=3ebb2a71-d5f6-4813-81b9-c909afff64a1"},"vehicle_type_id":"4","last_reported":1701879013,"current_range_meters":9600,"station_id":"ce4bhr92rcd13ifvqhrg","pricing_plan_id":"free"},{"bike_id":"41264422-244a-4ee3-804a-0e79117f4bec","system_id":"levelo_inurba_marseille","lat":43.33043,"lon":5.3892,"is_reserved":false,"is_disabled":false,"rental_uris":{"android":"levelo://app?vid=41264422-244a-4ee3-804a-0e79117f4bec","ios":"levelo://app?vid=41264422-244a-4ee3-804a-0e79117f4bec"},"vehicle_type_id":"4","last_reported":1701879013,"current_range_meters":14000,"station_id":"ce4bhr92rcd13ifvqhrg","pricing_plan_id":"free"},{"bike_id":"db72e4fa-815a-40eb-9a3b-91e58adbea77","system_id":"levelo_inurba_marseille","lat":43.33041,"lon":5.38923,"is_reserved":false,"is_disabled":false,"rental_uris":{"android":"levelo://app?vid=db72e4fa-815a-40eb-9a3b-91e58adbea77","ios":"levelo://app?vid=db72e4fa-815a-40eb-9a3b-91e58adbea77"},"vehicle_type_id":"4","last_reported":1701879013,"current_range_meters":15600,"station_id":"ce4bhr92rcd13ifvqhrg","pricing_plan_id":"free"},{"bike_id":"bd57a0ff-608b-4e17-bef2-8d55e2235fbf","system_id":"levelo_inurba_marseille","lat":43.33045,"lon":5.38923,"is_reserved":false,"is_disabled":false,"rental_uris":{"android":"levelo://app?vid=bd57a0ff-608b-4e17-bef2-8d55e2235fbf","ios":"levelo://app?vid=bd57a0ff-608b-4e17-bef2-8d55e2235fbf"},"vehicle_type_id":"4","last_reported":1701879013,"current_range_meters":13200,"station_id":"ce4bhr92rcd13ifvqhrg","pricing_plan_id":"free"},{"bike_id":"358803ec-9bae-4dcb-88e5-3366453c8d80","system_id":"levelo_inurba_marseille","lat":43.330442,"lon":5.389148,"is_reserved":false,"is_disabled":false,"rental_uris":{"android":"levelo://app?vid=358803ec-9bae-4dcb-88e5-3366453c8d80","ios":"levelo://app?vid=358803ec-9bae-4dcb-88e5-3366453c8d80"},"vehicle_type_id":"4","last_reported":1701879013,"current_range_meters":31200,"station_id":"ce4bhr92rcd13ifvqhrg","pricing_plan_id":"free"},{"bike_id":"9143d033-4478-4f2b-ae6b-ceecb1aeb694","system_id":"levelo_inurba_marseille","lat":43.33047,"lon":5.38925,"is_reserved":false,"is_disabled":false,"rental_uris":{"android":"levelo://app?vid=9143d033-4478-4f2b-ae6b-ceecb1aeb694","ios":"levelo://app?vid=9143d033-4478-4f2b-ae6b-ceecb1aeb694"},"vehicle_type_id":"4","last_reported":1701879013,"current_range_meters":24800,"station_id":"ce4bhr92rcd13ifvqhrg","pricing_plan_id":"free"},{"bike_id":"fd42f959-6e54-41f9-b7eb-b7ab84a07ab6","system_id":"levelo_inurba_marseille","lat":43.330442,"lon":5.389148,"is_reserved":false,"is_disabled":false,"rental_uris":{"android":"levelo://app?vid=fd42f959-6e54-41f9-b7eb-b7ab84a07ab6","ios":"levelo://app?vid=fd42f959-6e54-41f9-b7eb-b7ab84a07ab6"},"vehicle_type_id":"4","last_reported":1701879013,"current_range_meters":12800,"station_id":"ce4bhr92rcd13ifvqhrg","pricing_plan_id":"free"},{"bike_id":"6863032c-695f-4b04-817f-9a5629e5c0dc","system_id":"levelo_inurba_marseille","lat":43.295169,"lon":5.390426,"is_reserved":false,"is_disabled":false,"rental_uris":{"android":"levelo://app?vid=6863032c-695f-4b04-817f-9a5629e5c0dc","ios":"levelo://app?vid=6863032c-695f-4b04-817f-9a5629e5c0dc"},"vehicle_type_id":"4","last_reported":1701879013,"current_range_meters":19200,"station_id":"ce4bh3p2rcd13ifvqdp0","pricing_plan_id":"free"},{"bike_id":"f0a3bc83-1db8-4dd8-aa6c-c60f2eb55a2d","system_id":"levelo_inurba_marseille","lat":43.28852,"lon":5.3585,"is_reserved":false,"is_disabled":false,"rental_uris":{"android":"levelo://app?vid=f0a3bc83-1db8-4dd8-aa6c-c60f2eb55a2d","ios":"levelo://app?vid=f0a3bc83-1db8-4dd8-aa6c-c60f2eb55a2d"},"vehicle_type_id":"4","last_reported":1701879013,"current_range_meters":0,"station_id":"ce4bhb12rcd13ifvqem0","pricing_plan_id":"free"},{"bike_id":"44c1b1b2-0973-4870-b46d-f2780c9c18c7","system_id":"levelo_inurba_marseille","lat":43.337453,"lon":5.374596,"is_reserved":false,"is_disabled":false,"rental_uris":{"android":"levelo://app?vid=44c1b1b2-0973-4870-b46d-f2780c9c18c7","ios":"levelo://app?vid=44c1b1b2-0973-4870-b46d-f2780c9c18c7"},"vehicle_type_id":"4","last_reported":1701879013,"current_range_meters":21600,"station_id":"","pricing_plan_id":"free"},{"bike_id":"e3ac798c-6343-43ea-9327-13ff9d258c8c","system_id":"levelo_inurba_marseille","lat":43.337463,"lon":5.374796,"is_reserved":false,"is_disabled":false,"rental_uris":{"android":"levelo://app?vid=e3ac798c-6343-43ea-9327-13ff9d258c8c","ios":"levelo://app?vid=e3ac798c-6343-43ea-9327-13ff9d258c8c"},"vehicle_type_id":"4","last_reported":1701879013,"current_range_meters":31200,"station_id":"","pricing_plan_id":"free"},{"bike_id":"c1dbbc09-0034-45ec-8bd0-52d9f84cbcd2","system_id":"levelo_inurba_marseille","lat":43.337515,"lon":5.374499,"is_reserved":false,"is_disabled":false,"rental_uris":{"android":"levelo://app?vid=c1dbbc09-0034-45ec-8bd0-52d9f84cbcd2","ios":"levelo://app?vid=c1dbbc09-0034-45ec-8bd0-52d9f84cbcd2"},"vehicle_type_id":"4","last_reported":1701879013,"current_range_meters":31200,"station_id":"","pricing_plan_id":"free"},{"bike_id":"736de286-1827-490e-9b81-8542a82e14a5","system_id":"levelo_inurba_marseille","lat":43.33752,"lon":5.37463,"is_reserved":false,"is_disabled":false,"rental_uris":{"android":"levelo://app?vid=736de286-1827-490e-9b81-8542a82e14a5","ios":"levelo://app?vid=736de286-1827-490e-9b81-8542a82e14a5"},"vehicle_type_id":"4","last_reported":1701879013,"current_range_meters":26000,"station_id":"","pricing_plan_id":"free"},{"bike_id":"c414c01b-a2f8-498a-b878-2b9e16cb8f02","system_id":"levelo_inurba_marseille","lat":43.337557,"lon":5.374427,"is_reserved":false,"is_disabled":false,"rental_uris":{"android":"levelo://app?vid=c414c01b-a2f8-498a-b878-2b9e16cb8f02","ios":"levelo://app?vid=c414c01b-a2f8-498a-b878-2b9e16cb8f02"},"vehicle_type_id":"4","last_reported":1701879013,"current_range_meters":28800,"station_id":"","pricing_plan_id":"free"},{"bike_id":"822605d2-7494-4f1f-8e85-7b21a1e83420","system_id":"levelo_inurba_marseille","lat":43.33752,"lon":5.37483,"is_reserved":false,"is_disabled":false,"rental_uris":{"android":"levelo://app?vid=822605d2-7494-4f1f-8e85-7b21a1e83420","ios":"levelo://app?vid=822605d2-7494-4f1f-8e85-7b21a1e83420"},"vehicle_type_id":"4","last_reported":1701879013,"current_range_meters":23600,"station_id":"","pricing_plan_id":"free"},{"bike_id":"c7696395-4b6d-47c6-ba5e-ed97d58bdf6e","system_id":"levelo_inurba_marseille","lat":43.337579,"lon":5.374603,"is_reserved":false,"is_disabled":false,"rental_uris":{"android":"levelo://app?vid=c7696395-4b6d-47c6-ba5e-ed97d58bdf6e","ios":"levelo://app?vid=c7696395-4b6d-47c6-ba5e-ed97d58bdf6e"},"vehicle_type_id":"4","last_reported":1701879013,"current_range_meters":28000,"station_id":"","pricing_plan_id":"free"},{"bike_id":"509a0ac3-40da-4788-895d-d433eeae259f","system_id":"levelo_inurba_marseille","lat":43.30642,"lon":5.401031,"is_reserved":false,"is_disabled":false,"rental_uris":{"android":"levelo://app?vid=509a0ac3-40da-4788-895d-d433eeae259f","ios":"levelo://app?vid=509a0ac3-40da-4788-895d-d433eeae259f"},"vehicle_type_id":"4","last_reported":1701879013,"current_range_meters":30800,"station_id":"ce4bh112rcd13ifvqda0","pricing_plan_id":"free"},{"bike_id":"ec10f3fa-c7e6-47da-833b-c97ed90b5b77","system_id":"levelo_inurba_marseille","lat":43.306412,"lon":5.401035,"is_reserved":false,"is_disabled":false,"rental_uris":{"android":"levelo://app?vid=ec10f3fa-c7e6-47da-833b-c97ed90b5b77","ios":"levelo://app?vid=ec10f3fa-c7e6-47da-833b-c97ed90b5b77"},"vehicle_type_id":"4","last_reported":1701879013,"current_range_meters":24400,"station_id":"ce4bh112rcd13ifvqda0","pricing_plan_id":"free"},{"bike_id":"6c6edfaa-ce13-4e61-bdda-0351f8f59fa9","system_id":"levelo_inurba_marseille","lat":43.30126,"lon":5.39869,"is_reserved":false,"is_disabled":false,"rental_uris":{"android":"levelo://app?vid=6c6edfaa-ce13-4e61-bdda-0351f8f59fa9","ios":"levelo://app?vid=6c6edfaa-ce13-4e61-bdda-0351f8f59fa9"},"vehicle_type_id":"4","last_reported":1701879013,"current_range_meters":0,"station_id":"ce4bh0h2rcd13ifvqd40","pricing_plan_id":"free"},{"bike_id":"069ea4a8-b379-484b-8ada-343c85cbaf4c","system_id":"levelo_inurba_marseille","lat":43.28727,"lon":5.36078,"is_reserved":false,"is_disabled":false,"rental_uris":{"android":"levelo://app?vid=069ea4a8-b379-484b-8ada-343c85cbaf4c","ios":"levelo://app?vid=069ea4a8-b379-484b-8ada-343c85cbaf4c"},"vehicle_type_id":"4","last_reported":1701879013,"current_range_meters":10000,"station_id":"cki0cbj6b192h4jlfktg","pricing_plan_id":"free"},{"bike_id":"347d2a26-6870-40a0-b4b7-4242cf10447e","system_id":"levelo_inurba_marseille","lat":43.298681,"lon":5.397225,"is_reserved":false,"is_disabled":false,"rental_uris":{"android":"levelo://app?vid=347d2a26-6870-40a0-b4b7-4242cf10447e","ios":"levelo://app?vid=347d2a26-6870-40a0-b4b7-4242cf10447e"},"vehicle_type_id":"4","last_reported":1701879013,"current_range_meters":400,"station_id":"ce4bh0h2rcd13ifvqd50","pricing_plan_id":"free"},{"bike_id":"f395cd9f-1c32-4393-a5c8-7d5cb2abb976","system_id":"levelo_inurba_marseille","lat":43.298681,"lon":5.397225,"is_reserved":false,"is_disabled":false,"rental_uris":{"android":"levelo://app?vid=f395cd9f-1c32-4393-a5c8-7d5cb2abb976","ios":"levelo://app?vid=f395cd9f-1c32-4393-a5c8-7d5cb2abb976"},"vehicle_type_id":"4","last_reported":1701879013,"current_range_meters":22400,"station_id":"ce4bh0h2rcd13ifvqd50","pricing_plan_id":"free"},{"bike_id":"bd97b419-074e-4c79-9f64-a69a146efc6a","system_id":"levelo_inurba_marseille","lat":43.28691,"lon":5.37397,"is_reserved":false,"is_disabled":false,"rental_uris":{"android":"levelo://app?vid=bd97b419-074e-4c79-9f64-a69a146efc6a","ios":"levelo://app?vid=bd97b419-074e-4c79-9f64-a69a146efc6a"},"vehicle_type_id":"4","last_reported":1701879013,"current_range_meters":28000,"station_id":"ce4bh3p2rcd13ifvqdq0","pricing_plan_id":"free"},{"bike_id":"cd39e128-272c-4a67-8168-673877b7d257","system_id":"levelo_inurba_marseille","lat":43.302759,"lon":5.400793,"is_reserved":false,"is_disabled":false,"rental_uris":{"android":"levelo://app?vid=cd39e128-272c-4a67-8168-673877b7d257","ios":"levelo://app?vid=cd39e128-272c-4a67-8168-673877b7d257"},"vehicle_type_id":"4","last_reported":1701879013,"current_range_meters":0,"station_id":"ce4bgvh2rcd13ifvqcs0","pricing_plan_id":"free"},{"bike_id":"75926ab2-96a8-4674-9ae5-2ce5ea1f6906","system_id":"levelo_inurba_marseille","lat":43.30256,"lon":5.40083,"is_reserved":false,"is_disabled":false,"rental_uris":{"android":"levelo://app?vid=75926ab2-96a8-4674-9ae5-2ce5ea1f6906","ios":"levelo://app?vid=75926ab2-96a8-4674-9ae5-2ce5ea1f6906"},"vehicle_type_id":"4","last_reported":1701879013,"current_range_meters":24400,"station_id":"ce4bgvh2rcd13ifvqcs0","pricing_plan_id":"free"},{"bike_id":"fd7a4198-207d-4fcd-8752-77fc5ac7197c","system_id":"levelo_inurba_marseille","lat":43.286039,"lon":5.370681,"is_reserved":false,"is_disabled":false,"rental_uris":{"android":"levelo://app?vid=fd7a4198-207d-4fcd-8752-77fc5ac7197c","ios":"levelo://app?vid=fd7a4198-207d-4fcd-8752-77fc5ac7197c"},"vehicle_type_id":"4","last_reported":1701879013,"current_range_meters":6000,"station_id":"ce4bht12rcd13ifvqi60","pricing_plan_id":"free"},{"bike_id":"3e41256f-3454-4b21-a1d9-4cbdd1096e58","system_id":"levelo_inurba_marseille","lat":43.299847,"lon":5.400937,"is_reserved":false,"is_disabled":false,"rental_uris":{"android":"levelo://app?vid=3e41256f-3454-4b21-a1d9-4cbdd1096e58","ios":"levelo://app?vid=3e41256f-3454-4b21-a1d9-4cbdd1096e58"},"vehicle_type_id":"4","last_reported":1701879013,"current_range_meters":24000,"station_id":"","pricing_plan_id":"free"},{"bike_id":"7f4c7038-a16c-4ce8-b8a4-837f588baa80","system_id":"levelo_inurba_marseille","lat":43.284534,"lon":5.358662,"is_reserved":false,"is_disabled":false,"rental_uris":{"android":"levelo://app?vid=7f4c7038-a16c-4ce8-b8a4-837f588baa80","ios":"levelo://app?vid=7f4c7038-a16c-4ce8-b8a4-837f588baa80"},"vehicle_type_id":"4","last_reported":1701879013,"current_range_meters":4000,"station_id":"ce4bhah2rcd13ifvqei0","pricing_plan_id":"free"},{"bike_id":"1be437b7-3d38-4970-a370-f5a4166817e1","system_id":"levelo_inurba_marseille","lat":43.284538,"lon":5.358657,"is_reserved":false,"is_disabled":false,"rental_uris":{"android":"levelo://app?vid=1be437b7-3d38-4970-a370-f5a4166817e1","ios":"levelo://app?vid=1be437b7-3d38-4970-a370-f5a4166817e1"},"vehicle_type_id":"4","last_reported":1701879013,"current_range_meters":23200,"station_id":"ce4bhah2rcd13ifvqei0","pricing_plan_id":"free"},{"bike_id":"7f7b8b3d-892a-4d2d-b9d1-2f1afa7a4f65","system_id":"levelo_inurba_marseille","lat":43.286165,"lon":5.351025,"is_reserved":false,"is_disabled":false,"rental_uris":{"android":"levelo://app?vid=7f7b8b3d-892a-4d2d-b9d1-2f1afa7a4f65","ios":"levelo://app?vid=7f7b8b3d-892a-4d2d-b9d1-2f1afa7a4f65"},"vehicle_type_id":"4","last_reported":1701879013,"current_range_meters":16000,"station_id":"","pricing_plan_id":"free"},{"bike_id":"f149f244-8074-4722-ae2d-e6553df6b7b9","system_id":"levelo_inurba_marseille","lat":43.285856,"lon":5.350771,"is_reserved":false,"is_disabled":false,"rental_uris":{"android":"levelo://app?vid=f149f244-8074-4722-ae2d-e6553df6b7b9","ios":"levelo://app?vid=f149f244-8074-4722-ae2d-e6553df6b7b9"},"vehicle_type_id":"4","last_reported":1701879013,"current_range_meters":17600,"station_id":"ce4bhch2rcd13ifvqeug","pricing_plan_id":"free"},{"bike_id":"5c7ce793-1220-4954-a4e3-3b64102877be","system_id":"levelo_inurba_marseille","lat":43.292571,"lon":5.409107,"is_reserved":false,"is_disabled":false,"rental_uris":{"android":"levelo://app?vid=5c7ce793-1220-4954-a4e3-3b64102877be","ios":"levelo://app?vid=5c7ce793-1220-4954-a4e3-3b64102877be"},"vehicle_type_id":"4","last_reported":1701879013,"current_range_meters":13200,"station_id":"ce4bh192rcd13ifvqdc0","pricing_plan_id":"free"},{"bike_id":"47f70068-fc8c-4884-98bc-083d8dad1d10","system_id":"levelo_inurba_marseille","lat":43.323464,"lon":5.406297,"is_reserved":false,"is_disabled":false,"rental_uris":{"android":"levelo://app?vid=47f70068-fc8c-4884-98bc-083d8dad1d10","ios":"levelo://app?vid=47f70068-fc8c-4884-98bc-083d8dad1d10"},"vehicle_type_id":"4","last_reported":1701879013,"current_range_meters":25600,"station_id":"ce4bhq92rcd13ifvqhjg","pricing_plan_id":"free"},{"bike_id":"9c76ad8f-8a7a-455c-ab4b-09c461418775","system_id":"levelo_inurba_marseille","lat":43.288501,"lon":5.393087,"is_reserved":false,"is_disabled":false,"rental_uris":{"android":"levelo://app?vid=9c76ad8f-8a7a-455c-ab4b-09c461418775","ios":"levelo://app?vid=9c76ad8f-8a7a-455c-ab4b-09c461418775"},"vehicle_type_id":"4","last_reported":1701879013,"current_range_meters":8400,"station_id":"ce4bh2p2rcd13ifvqdi0","pricing_plan_id":"free"},{"bike_id":"a6ff451b-35f4-4986-a8e3-17198df22218","system_id":"levelo_inurba_marseille","lat":43.312239,"lon":5.368562,"is_reserved":false,"is_disabled":false,"rental_uris":{"android":"levelo://app?vid=a6ff451b-35f4-4986-a8e3-17198df22218","ios":"levelo://app?vid=a6ff451b-35f4-4986-a8e3-17198df22218"},"vehicle_type_id":"4","last_reported":1701879013,"current_range_meters":10000,"station_id":"ce4bgl92rcd13ifvqbq0","pricing_plan_id":"free"},{"bike_id":"c8b2af4c-1bdb-4418-a8ee-407b4032d9ce","system_id":"levelo_inurba_marseille","lat":43.292724,"lon":5.401131,"is_reserved":false,"is_disabled":false,"rental_uris":{"android":"levelo://app?vid=c8b2af4c-1bdb-4418-a8ee-407b4032d9ce","ios":"levelo://app?vid=c8b2af4c-1bdb-4418-a8ee-407b4032d9ce"},"vehicle_type_id":"4","last_reported":1701879013,"current_range_meters":22400,"station_id":"ce4bh312rcd13ifvqdk0","pricing_plan_id":"free"},{"bike_id":"938878ee-646d-476a-b7fe-b152686eb0a5","system_id":"levelo_inurba_marseille","lat":43.282754,"lon":5.350519,"is_reserved":false,"is_disabled":false,"rental_uris":{"android":"levelo://app?vid=938878ee-646d-476a-b7fe-b152686eb0a5","ios":"levelo://app?vid=938878ee-646d-476a-b7fe-b152686eb0a5"},"vehicle_type_id":"4","last_reported":1701879013,"current_range_meters":4000,"station_id":"ce4bhbp2rcd13ifvqerg","pricing_plan_id":"free"},{"bike_id":"5b59bd5f-83f7-4b1b-8307-af0fdb58ee46","system_id":"levelo_inurba_marseille","lat":43.282744,"lon":5.350533,"is_reserved":false,"is_disabled":false,"rental_uris":{"android":"levelo://app?vid=5b59bd5f-83f7-4b1b-8307-af0fdb58ee46","ios":"levelo://app?vid=5b59bd5f-83f7-4b1b-8307-af0fdb58ee46"},"vehicle_type_id":"4","last_reported":1701879013,"current_range_meters":16400,"station_id":"ce4bhbp2rcd13ifvqerg","pricing_plan_id":"free"},{"bike_id":"beb21a94-22ad-46fb-8096-23259972dc26","system_id":"levelo_inurba_marseille","lat":43.28039,"lon":5.369297,"is_reserved":false,"is_disabled":false,"rental_uris":{"android":"levelo://app?vid=beb21a94-22ad-46fb-8096-23259972dc26","ios":"levelo://app?vid=beb21a94-22ad-46fb-8096-23259972dc26"},"vehicle_type_id":"4","last_reported":1701879013,"current_range_meters":20800,"station_id":"ce4bha12rcd13ifvqef0","pricing_plan_id":"free"},{"bike_id":"ce3ebfb1-fbfa-4288-be6b-8cf3cd2c511d","system_id":"levelo_inurba_marseille","lat":43.28039,"lon":5.369297,"is_reserved":false,"is_disabled":false,"rental_uris":{"android":"levelo://app?vid=ce3ebfb1-fbfa-4288-be6b-8cf3cd2c511d","ios":"levelo://app?vid=ce3ebfb1-fbfa-4288-be6b-8cf3cd2c511d"},"vehicle_type_id":"4","last_reported":1701879013,"current_range_meters":8400,"station_id":"ce4bha12rcd13ifvqef0","pricing_plan_id":"free"},{"bike_id":"aa7cf8f2-d7eb-4a32-a68d-dddc35fb36e7","system_id":"levelo_inurba_marseille","lat":43.284462,"lon":5.392121,"is_reserved":false,"is_disabled":false,"rental_uris":{"android":"levelo://app?vid=aa7cf8f2-d7eb-4a32-a68d-dddc35fb36e7","ios":"levelo://app?vid=aa7cf8f2-d7eb-4a32-a68d-dddc35fb36e7"},"vehicle_type_id":"4","last_reported":1701879013,"current_range_meters":17600,"station_id":"ce4bhoh2rcd13ifvqh5g","pricing_plan_id":"free"},{"bike_id":"ff4981d1-ccff-4f59-8dd0-169bbd3afa1a","system_id":"levelo_inurba_marseille","lat":43.284462,"lon":5.392121,"is_reserved":false,"is_disabled":false,"rental_uris":{"android":"levelo://app?vid=ff4981d1-ccff-4f59-8dd0-169bbd3afa1a","ios":"levelo://app?vid=ff4981d1-ccff-4f59-8dd0-169bbd3afa1a"},"vehicle_type_id":"4","last_reported":1701879013,"current_range_meters":22000,"station_id":"ce4bhoh2rcd13ifvqh5g","pricing_plan_id":"free"},{"bike_id":"1f93bbfa-587a-49a6-98e0-35bbf700b1f2","system_id":"levelo_inurba_marseille","lat":43.285742,"lon":5.395004,"is_reserved":false,"is_disabled":false,"rental_uris":{"android":"levelo://app?vid=1f93bbfa-587a-49a6-98e0-35bbf700b1f2","ios":"levelo://app?vid=1f93bbfa-587a-49a6-98e0-35bbf700b1f2"},"vehicle_type_id":"4","last_reported":1701879013,"current_range_meters":17600,"station_id":"ce4bh292rcd13ifvqdg0","pricing_plan_id":"free"},{"bike_id":"92789580-2ef6-473a-8660-20b6f57cb9dd","system_id":"levelo_inurba_marseille","lat":43.27902,"lon":5.38019,"is_reserved":false,"is_disabled":false,"rental_uris":{"android":"levelo://app?vid=92789580-2ef6-473a-8660-20b6f57cb9dd","ios":"levelo://app?vid=92789580-2ef6-473a-8660-20b6f57cb9dd"},"vehicle_type_id":"4","last_reported":1701879013,"current_range_meters":7200,"station_id":"","pricing_plan_id":"free"},{"bike_id":"c166e2d6-692a-429e-9ef3-f5fe0a1fdddf","system_id":"levelo_inurba_marseille","lat":43.292569,"lon":5.409107,"is_reserved":false,"is_disabled":false,"rental_uris":{"android":"levelo://app?vid=c166e2d6-692a-429e-9ef3-f5fe0a1fdddf","ios":"levelo://app?vid=c166e2d6-692a-429e-9ef3-f5fe0a1fdddf"},"vehicle_type_id":"4","last_reported":1701879013,"current_range_meters":18000,"station_id":"ce4bh192rcd13ifvqdc0","pricing_plan_id":"free"},{"bike_id":"533862e7-3982-4236-8105-c541e254ca62","system_id":"levelo_inurba_marseille","lat":43.27604,"lon":5.36127,"is_reserved":false,"is_disabled":false,"rental_uris":{"android":"levelo://app?vid=533862e7-3982-4236-8105-c541e254ca62","ios":"levelo://app?vid=533862e7-3982-4236-8105-c541e254ca62"},"vehicle_type_id":"4","last_reported":1701879013,"current_range_meters":2400,"station_id":"ce4bgj92rcd13ifvqbe0","pricing_plan_id":"free"},{"bike_id":"782cac25-906e-4bcc-9ec6-0213cad2c482","system_id":"levelo_inurba_marseille","lat":43.273613,"lon":5.362705,"is_reserved":false,"is_disabled":false,"rental_uris":{"android":"levelo://app?vid=782cac25-906e-4bcc-9ec6-0213cad2c482","ios":"levelo://app?vid=782cac25-906e-4bcc-9ec6-0213cad2c482"},"vehicle_type_id":"4","last_reported":1701879013,"current_range_meters":23600,"station_id":"ce4bhbh2rcd13ifvqeo0","pricing_plan_id":"free"},{"bike_id":"5f6a7ee2-a17e-4885-b446-6d08b76db490","system_id":"levelo_inurba_marseille","lat":43.275625,"lon":5.384392,"is_reserved":false,"is_disabled":false,"rental_uris":{"android":"levelo://app?vid=5f6a7ee2-a17e-4885-b446-6d08b76db490","ios":"levelo://app?vid=5f6a7ee2-a17e-4885-b446-6d08b76db490"},"vehicle_type_id":"4","last_reported":1701879013,"current_range_meters":22400,"station_id":"ce4bhh92rcd13ifvqfi0","pricing_plan_id":"free"},{"bike_id":"dab795da-133e-4055-820c-5b42e47a561a","system_id":"levelo_inurba_marseille","lat":43.275625,"lon":5.384392,"is_reserved":false,"is_disabled":false,"rental_uris":{"android":"levelo://app?vid=dab795da-133e-4055-820c-5b42e47a561a","ios":"levelo://app?vid=dab795da-133e-4055-820c-5b42e47a561a"},"vehicle_type_id":"4","last_reported":1701879013,"current_range_meters":24800,"station_id":"ce4bhh92rcd13ifvqfi0","pricing_plan_id":"free"},{"bike_id":"0f71cc46-3954-4843-960a-a9ff935a06ad","system_id":"levelo_inurba_marseille","lat":43.275625,"lon":5.384392,"is_reserved":false,"is_disabled":false,"rental_uris":{"android":"levelo://app?vid=0f71cc46-3954-4843-960a-a9ff935a06ad","ios":"levelo://app?vid=0f71cc46-3954-4843-960a-a9ff935a06ad"},"vehicle_type_id":"4","last_reported":1701879013,"current_range_meters":12400,"station_id":"ce4bhh92rcd13ifvqfi0","pricing_plan_id":"free"},{"bike_id":"03c5f7be-f218-4047-94ad-24ab34c57a88","system_id":"levelo_inurba_marseille","lat":43.279952,"lon":5.400085,"is_reserved":false,"is_disabled":false,"rental_uris":{"android":"levelo://app?vid=03c5f7be-f218-4047-94ad-24ab34c57a88","ios":"levelo://app?vid=03c5f7be-f218-4047-94ad-24ab34c57a88"},"vehicle_type_id":"4","last_reported":1701879013,"current_range_meters":29600,"station_id":"ce4bho92rcd13ifvqh4g","pricing_plan_id":"free"},{"bike_id":"283b1518-47c4-4c7a-aece-e76435d9d17e","system_id":"levelo_inurba_marseille","lat":43.27622,"lon":5.39483,"is_reserved":false,"is_disabled":false,"rental_uris":{"android":"levelo://app?vid=283b1518-47c4-4c7a-aece-e76435d9d17e","ios":"levelo://app?vid=283b1518-47c4-4c7a-aece-e76435d9d17e"},"vehicle_type_id":"4","last_reported":1701879013,"current_range_meters":8400,"station_id":"","pricing_plan_id":"free"},{"bike_id":"df2d60af-3922-4d51-83b2-28ee17dcb373","system_id":"levelo_inurba_marseille","lat":43.310785,"lon":5.424305,"is_reserved":false,"is_disabled":false,"rental_uris":{"android":"levelo://app?vid=df2d60af-3922-4d51-83b2-28ee17dcb373","ios":"levelo://app?vid=df2d60af-3922-4d51-83b2-28ee17dcb373"},"vehicle_type_id":"4","last_reported":1701879013,"current_range_meters":25200,"station_id":"ce4bhp92rcd13ifvqhag","pricing_plan_id":"free"},{"bike_id":"913b04cc-972a-4178-aa7e-9c8e3cdd695a","system_id":"levelo_inurba_marseille","lat":43.295511,"lon":5.422926,"is_reserved":false,"is_disabled":false,"rental_uris":{"android":"levelo://app?vid=913b04cc-972a-4178-aa7e-9c8e3cdd695a","ios":"levelo://app?vid=913b04cc-972a-4178-aa7e-9c8e3cdd695a"},"vehicle_type_id":"4","last_reported":1701879013,"current_range_meters":26800,"station_id":"ce4bhph2rcd13ifvqhdg","pricing_plan_id":"free"},{"bike_id":"beba9a08-285f-44d3-af5b-2adff8b59776","system_id":"levelo_inurba_marseille","lat":43.295511,"lon":5.422926,"is_reserved":false,"is_disabled":false,"rental_uris":{"android":"levelo://app?vid=beba9a08-285f-44d3-af5b-2adff8b59776","ios":"levelo://app?vid=beba9a08-285f-44d3-af5b-2adff8b59776"},"vehicle_type_id":"4","last_reported":1701879013,"current_range_meters":8000,"station_id":"ce4bhph2rcd13ifvqhdg","pricing_plan_id":"free"},{"bike_id":"50e438e1-37f2-43d7-b32a-1f2a84905e7b","system_id":"levelo_inurba_marseille","lat":43.272124,"lon":5.391768,"is_reserved":false,"is_disabled":false,"rental_uris":{"android":"levelo://app?vid=50e438e1-37f2-43d7-b32a-1f2a84905e7b","ios":"levelo://app?vid=50e438e1-37f2-43d7-b32a-1f2a84905e7b"},"vehicle_type_id":"4","last_reported":1701879013,"current_range_meters":0,"station_id":"ce4bhhp2rcd13ifvqfm0","pricing_plan_id":"free"},{"bike_id":"2cd63940-ab79-43a1-bd7f-ef0d92b83f70","system_id":"levelo_inurba_marseille","lat":43.272118,"lon":5.391758,"is_reserved":false,"is_disabled":false,"rental_uris":{"android":"levelo://app?vid=2cd63940-ab79-43a1-bd7f-ef0d92b83f70","ios":"levelo://app?vid=2cd63940-ab79-43a1-bd7f-ef0d92b83f70"},"vehicle_type_id":"4","last_reported":1701879013,"current_range_meters":14400,"station_id":"ce4bhhp2rcd13ifvqfm0","pricing_plan_id":"free"},{"bike_id":"591b1bf8-ec98-47c5-8b1f-e0a6e161fb60","system_id":"levelo_inurba_marseille","lat":43.272118,"lon":5.391758,"is_reserved":false,"is_disabled":false,"rental_uris":{"android":"levelo://app?vid=591b1bf8-ec98-47c5-8b1f-e0a6e161fb60","ios":"levelo://app?vid=591b1bf8-ec98-47c5-8b1f-e0a6e161fb60"},"vehicle_type_id":"4","last_reported":1701879013,"current_range_meters":29200,"station_id":"ce4bhhp2rcd13ifvqfm0","pricing_plan_id":"free"},{"bike_id":"77e2df1b-d75a-48fe-a6ad-744dfbe91f1d","system_id":"levelo_inurba_marseille","lat":43.27214,"lon":5.3925,"is_reserved":false,"is_disabled":false,"rental_uris":{"android":"levelo://app?vid=77e2df1b-d75a-48fe-a6ad-744dfbe91f1d","ios":"levelo://app?vid=77e2df1b-d75a-48fe-a6ad-744dfbe91f1d"},"vehicle_type_id":"4","last_reported":1701879013,"current_range_meters":12800,"station_id":"","pricing_plan_id":"free"},{"bike_id":"619589e3-6dd6-4276-b8e3-cc4d29872eed","system_id":"levelo_inurba_marseille","lat":43.269467,"lon":5.386439,"is_reserved":false,"is_disabled":false,"rental_uris":{"android":"levelo://app?vid=619589e3-6dd6-4276-b8e3-cc4d29872eed","ios":"levelo://app?vid=619589e3-6dd6-4276-b8e3-cc4d29872eed"},"vehicle_type_id":"4","last_reported":1701879013,"current_range_meters":16400,"station_id":"ce4bhh92rcd13ifvqfh0","pricing_plan_id":"free"},{"bike_id":"92e32bd8-858c-4343-8399-67245c9a706f","system_id":"levelo_inurba_marseille","lat":43.279465,"lon":5.410561,"is_reserved":false,"is_disabled":false,"rental_uris":{"android":"levelo://app?vid=92e32bd8-858c-4343-8399-67245c9a706f","ios":"levelo://app?vid=92e32bd8-858c-4343-8399-67245c9a706f"},"vehicle_type_id":"4","last_reported":1701879013,"current_range_meters":12000,"station_id":"ce4bhnp2rcd13ifvqh0g","pricing_plan_id":"free"},{"bike_id":"1dbc6cf3-5e47-4105-b490-f82255bbf65a","system_id":"levelo_inurba_marseille","lat":43.26777,"lon":5.39414,"is_reserved":false,"is_disabled":false,"rental_uris":{"android":"levelo://app?vid=1dbc6cf3-5e47-4105-b490-f82255bbf65a","ios":"levelo://app?vid=1dbc6cf3-5e47-4105-b490-f82255bbf65a"},"vehicle_type_id":"4","last_reported":1701879013,"current_range_meters":2800,"station_id":"ce4bhh12rcd13ifvqfg0","pricing_plan_id":"free"},{"bike_id":"cd2b4915-035f-41b1-99ef-574b55994c12","system_id":"levelo_inurba_marseille","lat":43.26943,"lon":5.40258,"is_reserved":false,"is_disabled":false,"rental_uris":{"android":"levelo://app?vid=cd2b4915-035f-41b1-99ef-574b55994c12","ios":"levelo://app?vid=cd2b4915-035f-41b1-99ef-574b55994c12"},"vehicle_type_id":"4","last_reported":1701879013,"current_range_meters":26000,"station_id":"cjm6bp8fraef2m0cb0m0","pricing_plan_id":"free"},{"bike_id":"d5b14e59-4520-46b2-9872-818b06b1e9bf","system_id":"levelo_inurba_marseille","lat":43.26942,"lon":5.40259,"is_reserved":false,"is_disabled":false,"rental_uris":{"android":"levelo://app?vid=d5b14e59-4520-46b2-9872-818b06b1e9bf","ios":"levelo://app?vid=d5b14e59-4520-46b2-9872-818b06b1e9bf"},"vehicle_type_id":"4","last_reported":1701879013,"current_range_meters":12400,"station_id":"cjm6bp8fraef2m0cb0m0","pricing_plan_id":"free"},{"bike_id":"5ceecc62-eb1a-4880-b41f-2229360f75c0","system_id":"levelo_inurba_marseille","lat":43.26949,"lon":5.40262,"is_reserved":false,"is_disabled":false,"rental_uris":{"android":"levelo://app?vid=5ceecc62-eb1a-4880-b41f-2229360f75c0","ios":"levelo://app?vid=5ceecc62-eb1a-4880-b41f-2229360f75c0"},"vehicle_type_id":"4","last_reported":1701879013,"current_range_meters":11200,"station_id":"cjm6bp8fraef2m0cb0m0","pricing_plan_id":"free"},{"bike_id":"a775bccd-b480-481c-b218-73310ff31cd1","system_id":"levelo_inurba_marseille","lat":43.26949,"lon":5.40262,"is_reserved":false,"is_disabled":false,"rental_uris":{"android":"levelo://app?vid=a775bccd-b480-481c-b218-73310ff31cd1","ios":"levelo://app?vid=a775bccd-b480-481c-b218-73310ff31cd1"},"vehicle_type_id":"4","last_reported":1701879013,"current_range_meters":22800,"station_id":"cjm6bp8fraef2m0cb0m0","pricing_plan_id":"free"},{"bike_id":"06c99a6b-5e50-4fc7-a1d7-d756909cfeaf","system_id":"levelo_inurba_marseille","lat":43.26184,"lon":5.37447,"is_reserved":false,"is_disabled":false,"rental_uris":{"android":"levelo://app?vid=06c99a6b-5e50-4fc7-a1d7-d756909cfeaf","ios":"levelo://app?vid=06c99a6b-5e50-4fc7-a1d7-d756909cfeaf"},"vehicle_type_id":"4","last_reported":1701879013,"current_range_meters":0,"station_id":"ce4bhgp2rcd13ifvqfc0","pricing_plan_id":"free"},{"bike_id":"bf58fee8-dca1-4d87-bbbb-9a3f7035f1b0","system_id":"levelo_inurba_marseille","lat":43.317104,"lon":5.436818,"is_reserved":false,"is_disabled":false,"rental_uris":{"android":"levelo://app?vid=bf58fee8-dca1-4d87-bbbb-9a3f7035f1b0","ios":"levelo://app?vid=bf58fee8-dca1-4d87-bbbb-9a3f7035f1b0"},"vehicle_type_id":"4","last_reported":1701879013,"current_range_meters":26400,"station_id":"ce4bhp92rcd13ifvqhcg","pricing_plan_id":"free"},{"bike_id":"509b12ab-dea2-4f83-9009-f5cc226201b0","system_id":"levelo_inurba_marseille","lat":43.267959,"lon":5.402687,"is_reserved":false,"is_disabled":false,"rental_uris":{"android":"levelo://app?vid=509b12ab-dea2-4f83-9009-f5cc226201b0","ios":"levelo://app?vid=509b12ab-dea2-4f83-9009-f5cc226201b0"},"vehicle_type_id":"4","last_reported":1701879013,"current_range_meters":5600,"station_id":"ce501612rcd8frsf0b60","pricing_plan_id":"free"},{"bike_id":"a47f3d37-9df2-4fd9-b07c-1d38ab431dbc","system_id":"levelo_inurba_marseille","lat":43.281548,"lon":5.42643,"is_reserved":false,"is_disabled":false,"rental_uris":{"android":"levelo://app?vid=a47f3d37-9df2-4fd9-b07c-1d38ab431dbc","ios":"levelo://app?vid=a47f3d37-9df2-4fd9-b07c-1d38ab431dbc"},"vehicle_type_id":"4","last_reported":1701879013,"current_range_meters":21200,"station_id":"ce4bhnh2rcd13ifvqgug","pricing_plan_id":"free"},{"bike_id":"e80a3a47-620b-4676-9864-80d5b53869ca","system_id":"levelo_inurba_marseille","lat":43.281548,"lon":5.42643,"is_reserved":false,"is_disabled":false,"rental_uris":{"android":"levelo://app?vid=e80a3a47-620b-4676-9864-80d5b53869ca","ios":"levelo://app?vid=e80a3a47-620b-4676-9864-80d5b53869ca"},"vehicle_type_id":"4","last_reported":1701879013,"current_range_meters":27600,"station_id":"ce4bhnh2rcd13ifvqgug","pricing_plan_id":"free"},{"bike_id":"93b3506a-fe06-44f4-a581-97ffadb62e2d","system_id":"levelo_inurba_marseille","lat":43.281548,"lon":5.42643,"is_reserved":false,"is_disabled":false,"rental_uris":{"android":"levelo://app?vid=93b3506a-fe06-44f4-a581-97ffadb62e2d","ios":"levelo://app?vid=93b3506a-fe06-44f4-a581-97ffadb62e2d"},"vehicle_type_id":"4","last_reported":1701879013,"current_range_meters":30400,"station_id":"ce4bhnh2rcd13ifvqgug","pricing_plan_id":"free"},{"bike_id":"e5bf4102-7ea6-4cae-a6e5-b967dadf40c2","system_id":"levelo_inurba_marseille","lat":43.281548,"lon":5.42643,"is_reserved":false,"is_disabled":false,"rental_uris":{"android":"levelo://app?vid=e5bf4102-7ea6-4cae-a6e5-b967dadf40c2","ios":"levelo://app?vid=e5bf4102-7ea6-4cae-a6e5-b967dadf40c2"},"vehicle_type_id":"4","last_reported":1701879013,"current_range_meters":23200,"station_id":"ce4bhnh2rcd13ifvqgug","pricing_plan_id":"free"},{"bike_id":"a267938e-d276-4a36-956e-9992c4dc0c16","system_id":"levelo_inurba_marseille","lat":43.281548,"lon":5.42643,"is_reserved":false,"is_disabled":false,"rental_uris":{"android":"levelo://app?vid=a267938e-d276-4a36-956e-9992c4dc0c16","ios":"levelo://app?vid=a267938e-d276-4a36-956e-9992c4dc0c16"},"vehicle_type_id":"4","last_reported":1701879013,"current_range_meters":30000,"station_id":"ce4bhnh2rcd13ifvqgug","pricing_plan_id":"free"},{"bike_id":"ee765aba-32c7-4a7f-8e72-8501e85ff29c","system_id":"levelo_inurba_marseille","lat":43.281548,"lon":5.42643,"is_reserved":false,"is_disabled":false,"rental_uris":{"android":"levelo://app?vid=ee765aba-32c7-4a7f-8e72-8501e85ff29c","ios":"levelo://app?vid=ee765aba-32c7-4a7f-8e72-8501e85ff29c"},"vehicle_type_id":"4","last_reported":1701879013,"current_range_meters":19600,"station_id":"ce4bhnh2rcd13ifvqgug","pricing_plan_id":"free"},{"bike_id":"c58b08ae-cfd5-4c14-ac02-61139ba73838","system_id":"levelo_inurba_marseille","lat":43.2607,"lon":5.393983,"is_reserved":false,"is_disabled":false,"rental_uris":{"android":"levelo://app?vid=c58b08ae-cfd5-4c14-ac02-61139ba73838","ios":"levelo://app?vid=c58b08ae-cfd5-4c14-ac02-61139ba73838"},"vehicle_type_id":"4","last_reported":1701879013,"current_range_meters":30000,"station_id":"ce4bhh92rcd13ifvqfj0","pricing_plan_id":"free"},{"bike_id":"47dd9ac3-6ed7-43ad-8637-50d915555613","system_id":"levelo_inurba_marseille","lat":43.25586,"lon":5.38236,"is_reserved":false,"is_disabled":false,"rental_uris":{"android":"levelo://app?vid=47dd9ac3-6ed7-43ad-8637-50d915555613","ios":"levelo://app?vid=47dd9ac3-6ed7-43ad-8637-50d915555613"},"vehicle_type_id":"4","last_reported":1701879013,"current_range_meters":800,"station_id":"ce4bhih2rcd13ifvqfs0","pricing_plan_id":"free"},{"bike_id":"69a8c5f6-3f67-41b0-ac3b-9373c2cdcbf7","system_id":"levelo_inurba_marseille","lat":43.25575,"lon":5.38232,"is_reserved":false,"is_disabled":false,"rental_uris":{"android":"levelo://app?vid=69a8c5f6-3f67-41b0-ac3b-9373c2cdcbf7","ios":"levelo://app?vid=69a8c5f6-3f67-41b0-ac3b-9373c2cdcbf7"},"vehicle_type_id":"4","last_reported":1701879013,"current_range_meters":0,"station_id":"ce4bhih2rcd13ifvqfs0","pricing_plan_id":"free"},{"bike_id":"c67a76af-19e2-4781-b20f-4f48d4550695","system_id":"levelo_inurba_marseille","lat":43.25572,"lon":5.3823,"is_reserved":false,"is_disabled":false,"rental_uris":{"android":"levelo://app?vid=c67a76af-19e2-4781-b20f-4f48d4550695","ios":"levelo://app?vid=c67a76af-19e2-4781-b20f-4f48d4550695"},"vehicle_type_id":"4","last_reported":1701879013,"current_range_meters":20400,"station_id":"ce4bhih2rcd13ifvqfs0","pricing_plan_id":"free"},{"bike_id":"a0906902-69b7-4545-b477-6844e841aa71","system_id":"levelo_inurba_marseille","lat":43.258224,"lon":5.394369,"is_reserved":false,"is_disabled":false,"rental_uris":{"android":"levelo://app?vid=a0906902-69b7-4545-b477-6844e841aa71","ios":"levelo://app?vid=a0906902-69b7-4545-b477-6844e841aa71"},"vehicle_type_id":"4","last_reported":1701879013,"current_range_meters":0,"station_id":"ce4bhip2rcd13ifvqft0","pricing_plan_id":"free"},{"bike_id":"8d93eeb2-1ca5-45c1-aa71-2bedec57b2ab","system_id":"levelo_inurba_marseille","lat":43.2557,"lon":5.38231,"is_reserved":false,"is_disabled":false,"rental_uris":{"android":"levelo://app?vid=8d93eeb2-1ca5-45c1-aa71-2bedec57b2ab","ios":"levelo://app?vid=8d93eeb2-1ca5-45c1-aa71-2bedec57b2ab"},"vehicle_type_id":"4","last_reported":1701879013,"current_range_meters":30000,"station_id":"ce4bhih2rcd13ifvqfs0","pricing_plan_id":"free"},{"bike_id":"4bf88f31-ab9c-43ad-9522-2aa935532e33","system_id":"levelo_inurba_marseille","lat":43.25564,"lon":5.3826,"is_reserved":false,"is_disabled":false,"rental_uris":{"android":"levelo://app?vid=4bf88f31-ab9c-43ad-9522-2aa935532e33","ios":"levelo://app?vid=4bf88f31-ab9c-43ad-9522-2aa935532e33"},"vehicle_type_id":"4","last_reported":1701879013,"current_range_meters":17600,"station_id":"ce4bhih2rcd13ifvqfs0","pricing_plan_id":"free"},{"bike_id":"f3e5cf57-c459-41b6-a009-efbb21803da6","system_id":"levelo_inurba_marseille","lat":43.254947,"lon":5.376454,"is_reserved":false,"is_disabled":false,"rental_uris":{"android":"levelo://app?vid=f3e5cf57-c459-41b6-a009-efbb21803da6","ios":"levelo://app?vid=f3e5cf57-c459-41b6-a009-efbb21803da6"},"vehicle_type_id":"4","last_reported":1701879013,"current_range_meters":17600,"station_id":"ce4bhh12rcd13ifvqff0","pricing_plan_id":"free"},{"bike_id":"cb54492e-531a-4ddd-ac05-b584fa4c27e9","system_id":"levelo_inurba_marseille","lat":43.25342,"lon":5.38205,"is_reserved":false,"is_disabled":false,"rental_uris":{"android":"levelo://app?vid=cb54492e-531a-4ddd-ac05-b584fa4c27e9","ios":"levelo://app?vid=cb54492e-531a-4ddd-ac05-b584fa4c27e9"},"vehicle_type_id":"4","last_reported":1701879013,"current_range_meters":31200,"station_id":"","pricing_plan_id":"free"},{"bike_id":"64ae2325-7dda-4e94-91b1-10574b2eb5f7","system_id":"levelo_inurba_marseille","lat":43.250087,"lon":5.389153,"is_reserved":false,"is_disabled":false,"rental_uris":{"android":"levelo://app?vid=64ae2325-7dda-4e94-91b1-10574b2eb5f7","ios":"levelo://app?vid=64ae2325-7dda-4e94-91b1-10574b2eb5f7"},"vehicle_type_id":"4","last_reported":1701879013,"current_range_meters":9600,"station_id":"ce4bhgp2rcd13ifvqfd0","pricing_plan_id":"free"},{"bike_id":"b93178d5-d6db-4fea-bbe9-084f3c966f36","system_id":"levelo_inurba_marseille","lat":43.25006,"lon":5.38915,"is_reserved":false,"is_disabled":false,"rental_uris":{"android":"levelo://app?vid=b93178d5-d6db-4fea-bbe9-084f3c966f36","ios":"levelo://app?vid=b93178d5-d6db-4fea-bbe9-084f3c966f36"},"vehicle_type_id":"4","last_reported":1701879013,"current_range_meters":0,"station_id":"ce4bhgp2rcd13ifvqfd0","pricing_plan_id":"free"},{"bike_id":"0e88fd93-5907-414b-8a74-648a6f54d886","system_id":"levelo_inurba_marseille","lat":43.2479,"lon":5.374457,"is_reserved":false,"is_disabled":false,"rental_uris":{"android":"levelo://app?vid=0e88fd93-5907-414b-8a74-648a6f54d886","ios":"levelo://app?vid=0e88fd93-5907-414b-8a74-648a6f54d886"},"vehicle_type_id":"4","last_reported":1701879013,"current_range_meters":22000,"station_id":"ce4bhgh2rcd13ifvqfb0","pricing_plan_id":"free"},{"bike_id":"3f7cf830-e6dc-48f2-9b9a-75d6360261eb","system_id":"levelo_inurba_marseille","lat":43.24805,"lon":5.37459,"is_reserved":false,"is_disabled":false,"rental_uris":{"android":"levelo://app?vid=3f7cf830-e6dc-48f2-9b9a-75d6360261eb","ios":"levelo://app?vid=3f7cf830-e6dc-48f2-9b9a-75d6360261eb"},"vehicle_type_id":"4","last_reported":1701879013,"current_range_meters":20800,"station_id":"","pricing_plan_id":"free"},{"bike_id":"d75361da-213f-4178-9c43-992e04b15555","system_id":"levelo_inurba_marseille","lat":43.250966,"lon":5.395186,"is_reserved":false,"is_disabled":false,"rental_uris":{"android":"levelo://app?vid=d75361da-213f-4178-9c43-992e04b15555","ios":"levelo://app?vid=d75361da-213f-4178-9c43-992e04b15555"},"vehicle_type_id":"4","last_reported":1701879013,"current_range_meters":30000,"station_id":"ce4bhm12rcd13ifvqgkg","pricing_plan_id":"free"},{"bike_id":"87198248-8af1-4458-a5bf-ec687f798040","system_id":"levelo_inurba_marseille","lat":43.250966,"lon":5.395186,"is_reserved":false,"is_disabled":false,"rental_uris":{"android":"levelo://app?vid=87198248-8af1-4458-a5bf-ec687f798040","ios":"levelo://app?vid=87198248-8af1-4458-a5bf-ec687f798040"},"vehicle_type_id":"4","last_reported":1701879013,"current_range_meters":6000,"station_id":"ce4bhm12rcd13ifvqgkg","pricing_plan_id":"free"},{"bike_id":"ce3a25d0-45eb-4aa5-80ef-f3cb0f722dff","system_id":"levelo_inurba_marseille","lat":43.24693,"lon":5.382096,"is_reserved":false,"is_disabled":false,"rental_uris":{"android":"levelo://app?vid=ce3a25d0-45eb-4aa5-80ef-f3cb0f722dff","ios":"levelo://app?vid=ce3a25d0-45eb-4aa5-80ef-f3cb0f722dff"},"vehicle_type_id":"4","last_reported":1701879013,"current_range_meters":27200,"station_id":"ce4bhih2rcd13ifvqfr0","pricing_plan_id":"free"},{"bike_id":"c6d32513-1e92-4358-abb9-d6c0051508cb","system_id":"levelo_inurba_marseille","lat":43.25107,"lon":5.40326,"is_reserved":false,"is_disabled":false,"rental_uris":{"android":"levelo://app?vid=c6d32513-1e92-4358-abb9-d6c0051508cb","ios":"levelo://app?vid=c6d32513-1e92-4358-abb9-d6c0051508cb"},"vehicle_type_id":"4","last_reported":1701879013,"current_range_meters":31200,"station_id":"ce4bhlh2rcd13ifvqgig","pricing_plan_id":"free"},{"bike_id":"79450119-b5f5-4c67-8102-6e174c28b471","system_id":"levelo_inurba_marseille","lat":43.25106,"lon":5.40325,"is_reserved":false,"is_disabled":false,"rental_uris":{"android":"levelo://app?vid=79450119-b5f5-4c67-8102-6e174c28b471","ios":"levelo://app?vid=79450119-b5f5-4c67-8102-6e174c28b471"},"vehicle_type_id":"4","last_reported":1701879013,"current_range_meters":0,"station_id":"ce4bhlh2rcd13ifvqgig","pricing_plan_id":"free"},{"bike_id":"d9ec241a-6aad-4227-a45f-4efbb5e6bac9","system_id":"levelo_inurba_marseille","lat":43.246467,"lon":5.388984,"is_reserved":false,"is_disabled":false,"rental_uris":{"android":"levelo://app?vid=d9ec241a-6aad-4227-a45f-4efbb5e6bac9","ios":"levelo://app?vid=d9ec241a-6aad-4227-a45f-4efbb5e6bac9"},"vehicle_type_id":"4","last_reported":1701879013,"current_range_meters":29200,"station_id":"ce4bhg12rcd13ifvqf60","pricing_plan_id":"free"},{"bike_id":"a67b4a88-55d7-4a56-b950-992e49aa3970","system_id":"levelo_inurba_marseille","lat":43.246467,"lon":5.388984,"is_reserved":false,"is_disabled":false,"rental_uris":{"android":"levelo://app?vid=a67b4a88-55d7-4a56-b950-992e49aa3970","ios":"levelo://app?vid=a67b4a88-55d7-4a56-b950-992e49aa3970"},"vehicle_type_id":"4","last_reported":1701879013,"current_range_meters":26800,"station_id":"ce4bhg12rcd13ifvqf60","pricing_plan_id":"free"},{"bike_id":"e0e51871-eb49-43e8-8bb9-126d618a1e31","system_id":"levelo_inurba_marseille","lat":43.243884,"lon":5.370736,"is_reserved":false,"is_disabled":false,"rental_uris":{"android":"levelo://app?vid=e0e51871-eb49-43e8-8bb9-126d618a1e31","ios":"levelo://app?vid=e0e51871-eb49-43e8-8bb9-126d618a1e31"},"vehicle_type_id":"4","last_reported":1701879013,"current_range_meters":28000,"station_id":"ce4bhhh2rcd13ifvqfk0","pricing_plan_id":"free"},{"bike_id":"55da7c5e-a350-4e6b-9735-64842bfa8690","system_id":"levelo_inurba_marseille","lat":43.240623,"lon":5.377642,"is_reserved":false,"is_disabled":false,"rental_uris":{"android":"levelo://app?vid=55da7c5e-a350-4e6b-9735-64842bfa8690","ios":"levelo://app?vid=55da7c5e-a350-4e6b-9735-64842bfa8690"},"vehicle_type_id":"4","last_reported":1701879013,"current_range_meters":0,"station_id":"ce4bhnp2rcd13ifvqgvg","pricing_plan_id":"free"},{"bike_id":"461f635c-7ed0-409c-9ce4-28bb0bf02f22","system_id":"levelo_inurba_marseille","lat":43.241782,"lon":5.397264,"is_reserved":false,"is_disabled":false,"rental_uris":{"android":"levelo://app?vid=461f635c-7ed0-409c-9ce4-28bb0bf02f22","ios":"levelo://app?vid=461f635c-7ed0-409c-9ce4-28bb0bf02f22"},"vehicle_type_id":"4","last_reported":1701879013,"current_range_meters":16400,"station_id":"ce4bhn12rcd13ifvqgpg","pricing_plan_id":"free"},{"bike_id":"c81b51f2-38a7-4475-9500-61cee462ef67","system_id":"levelo_inurba_marseille","lat":43.24178,"lon":5.39733,"is_reserved":false,"is_disabled":false,"rental_uris":{"android":"levelo://app?vid=c81b51f2-38a7-4475-9500-61cee462ef67","ios":"levelo://app?vid=c81b51f2-38a7-4475-9500-61cee462ef67"},"vehicle_type_id":"4","last_reported":1701879013,"current_range_meters":20000,"station_id":"ce4bhn12rcd13ifvqgpg","pricing_plan_id":"free"},{"bike_id":"b0f2214b-7af8-421a-ba18-5d84e802cbc5","system_id":"levelo_inurba_marseille","lat":43.241782,"lon":5.397264,"is_reserved":false,"is_disabled":false,"rental_uris":{"android":"levelo://app?vid=b0f2214b-7af8-421a-ba18-5d84e802cbc5","ios":"levelo://app?vid=b0f2214b-7af8-421a-ba18-5d84e802cbc5"},"vehicle_type_id":"4","last_reported":1701879013,"current_range_meters":5600,"station_id":"ce4bhn12rcd13ifvqgpg","pricing_plan_id":"free"},{"bike_id":"8fff5c51-46a6-40c9-9006-c5e54332ab2c","system_id":"levelo_inurba_marseille","lat":43.231794,"lon":5.400052,"is_reserved":false,"is_disabled":false,"rental_uris":{"android":"levelo://app?vid=8fff5c51-46a6-40c9-9006-c5e54332ab2c","ios":"levelo://app?vid=8fff5c51-46a6-40c9-9006-c5e54332ab2c"},"vehicle_type_id":"4","last_reported":1701879013,"current_range_meters":18000,"station_id":"ce4bhn12rcd13ifvqgqg","pricing_plan_id":"free"},{"bike_id":"2a73e8fa-c92c-487d-afb8-ed18138423a5","system_id":"levelo_inurba_marseille","lat":43.231794,"lon":5.400052,"is_reserved":false,"is_disabled":false,"rental_uris":{"android":"levelo://app?vid=2a73e8fa-c92c-487d-afb8-ed18138423a5","ios":"levelo://app?vid=2a73e8fa-c92c-487d-afb8-ed18138423a5"},"vehicle_type_id":"4","last_reported":1701879013,"current_range_meters":30000,"station_id":"ce4bhn12rcd13ifvqgqg","pricing_plan_id":"free"},{"bike_id":"df101544-d01e-4bfb-8dd1-52befcc63c97","system_id":"levelo_inurba_marseille","lat":43.23155,"lon":5.43698,"is_reserved":false,"is_disabled":false,"rental_uris":{"android":"levelo://app?vid=df101544-d01e-4bfb-8dd1-52befcc63c97","ios":"levelo://app?vid=df101544-d01e-4bfb-8dd1-52befcc63c97"},"vehicle_type_id":"4","last_reported":1701879013,"current_range_meters":30800,"station_id":"ce4bhmp2rcd13ifvqgog","pricing_plan_id":"free"},{"bike_id":"c580907f-c95a-429d-8441-f61ff4baec47","system_id":"levelo_inurba_marseille","lat":43.231562,"lon":5.436933,"is_reserved":false,"is_disabled":false,"rental_uris":{"android":"levelo://app?vid=c580907f-c95a-429d-8441-f61ff4baec47","ios":"levelo://app?vid=c580907f-c95a-429d-8441-f61ff4baec47"},"vehicle_type_id":"4","last_reported":1701879013,"current_range_meters":13200,"station_id":"ce4bhmp2rcd13ifvqgog","pricing_plan_id":"free"},{"bike_id":"b8c36804-31ab-4680-ad13-7ed259486cee","system_id":"levelo_inurba_marseille","lat":43.231497,"lon":5.437113,"is_reserved":false,"is_disabled":false,"rental_uris":{"android":"levelo://app?vid=b8c36804-31ab-4680-ad13-7ed259486cee","ios":"levelo://app?vid=b8c36804-31ab-4680-ad13-7ed259486cee"},"vehicle_type_id":"4","last_reported":1701879013,"current_range_meters":30000,"station_id":"ce4bhmp2rcd13ifvqgog","pricing_plan_id":"free"},{"bike_id":"cc1f465c-2a96-4d0e-9933-59899d0661dc","system_id":"levelo_inurba_marseille","lat":43.23148,"lon":5.43711,"is_reserved":false,"is_disabled":false,"rental_uris":{"android":"levelo://app?vid=cc1f465c-2a96-4d0e-9933-59899d0661dc","ios":"levelo://app?vid=cc1f465c-2a96-4d0e-9933-59899d0661dc"},"vehicle_type_id":"4","last_reported":1701879013,"current_range_meters":31200,"station_id":"ce4bhmp2rcd13ifvqgog","pricing_plan_id":"free"},{"bike_id":"ceef45cf-eb38-4c77-8919-0d17aac14d67","system_id":"levelo_inurba_marseille","lat":43.23149,"lon":5.43729,"is_reserved":false,"is_disabled":false,"rental_uris":{"android":"levelo://app?vid=ceef45cf-eb38-4c77-8919-0d17aac14d67","ios":"levelo://app?vid=ceef45cf-eb38-4c77-8919-0d17aac14d67"},"vehicle_type_id":"4","last_reported":1701879013,"current_range_meters":31200,"station_id":"ce4bhmp2rcd13ifvqgog","pricing_plan_id":"free"},{"bike_id":"237b3f5a-ee3e-47da-ae59-03f3550e998c","system_id":"levelo_inurba_marseille","lat":43.23148,"lon":5.43729,"is_reserved":false,"is_disabled":false,"rental_uris":{"android":"levelo://app?vid=237b3f5a-ee3e-47da-ae59-03f3550e998c","ios":"levelo://app?vid=237b3f5a-ee3e-47da-ae59-03f3550e998c"},"vehicle_type_id":"4","last_reported":1701879013,"current_range_meters":10800,"station_id":"ce4bhmp2rcd13ifvqgog","pricing_plan_id":"free"},{"bike_id":"778e5985-dbdd-42e1-a7d8-130a2b906c87","system_id":"levelo_inurba_marseille","lat":43.231426,"lon":5.437223,"is_reserved":false,"is_disabled":false,"rental_uris":{"android":"levelo://app?vid=778e5985-dbdd-42e1-a7d8-130a2b906c87","ios":"levelo://app?vid=778e5985-dbdd-42e1-a7d8-130a2b906c87"},"vehicle_type_id":"4","last_reported":1701879013,"current_range_meters":2400,"station_id":"ce4bhmp2rcd13ifvqgog","pricing_plan_id":"free"}]}}