{"last_updated":1766150773,"ttl":60,"version":"2.2","data":{"bikes":[{"bike_id":"60e34adf-4728-4039-abc1-8325a586baad","system_id":"levelo_inurba_marseille","lat":43.31436,"lon":5.37252,"is_reserved":false,"is_disabled":false,"rental_uris":{"android":"levelo://app?vid=60e34adf-4728-4039-abc1-8325a586baad","ios":"levelo://app?vid=60e34adf-4728-4039-abc1-8325a586baad"},"vehicle_type_id":"4","last_reported":1766150774,"current_range_meters":2800,"station_id":"","pricing_plan_id":"cebpf4jnsgd1na2vs0mg"},{"bike_id":"d235767a-3e44-44c9-893e-7ebda15e5a64","system_id":"levelo_inurba_marseille","lat":43.254036,"lon":5.385575,"is_reserved":false,"is_disabled":false,"rental_uris":{"android":"levelo://app?vid=d235767a-3e44-44c9-893e-7ebda15e5a64","ios":"levelo://app?vid=d235767a-3e44-44c9-893e-7ebda15e5a64"},"vehicle_type_id":"4","last_reported":1766150774,"current_range_meters":2800,"station_id":"","pricing_plan_id":"cebpf4jnsgd1na2vs0mg"},{"bike_id":"07102bbf-8e43-4cc8-abfb-b7bffaf00185","system_id":"levelo_inurba_marseille","lat":43.293809,"lon":5.36279,"is_reserved":false,"is_disabled":false,"rental_uris":{"android":"levelo://app?vid=07102bbf-8e43-4cc8-abfb-b7bffaf00185","ios":"levelo://app?vid=07102bbf-8e43-4cc8-abfb-b7bffaf00185"},"vehicle_type_id":"4","last_reported":1766150774,"current_range_meters":2800,"station_id":"","pricing_plan_id":"cebpf4jnsgd1na2vs0mg"},{"bike_id":"c7e5daf3-a6b0-4ffc-8e95-134c47362fa1","system_id":"levelo_inurba_marseille","lat":43.30121,"lon":5.36873,"is_reserved":false,"is_disabled":false,"rental_uris":{"android":"levelo://app?vid=c7e5daf3-a6b0-4ffc-8e95-134c47362fa1","ios":"levelo://app?vid=c7e5daf3-a6b0-4ffc-8e95-134c47362fa1"},"vehicle_type_id":"4","last_reported":1766150774,"current_range_meters":2800,"station_id":"","pricing_plan_id":"cebpf4jnsgd1na2vs0mg"},{"bike_id":"7bd6d03f-573d-417e-baed-7ec22cfb5f3f","system_id":"levelo_inurba_marseille","lat":43.29689,"lon":5.37275,"is_reserved":false,"is_disabled":false,"rental_uris":{"android":"levelo://app?vid=7bd6d03f-573d-417e-baed-7ec22cfb5f3f","ios":"levelo://app?vid=7bd6d03f-573d-417e-baed-7ec22cfb5f3f"},"vehicle_type_id":"4","last_reported":1766150774,"current_range_meters":2800,"station_id":"ce4bgk12rcd13ifvqbj0","pricing_plan_id":"cebpf4jnsgd1na2vs0mg"},{"bike_id":"600d55a4-2f20-4fd7-90f6-704497e65a89","system_id":"levelo_inurba_marseille","lat":43.292772,"lon":5.401137,"is_reserved":false,"is_disabled":false,"rental_uris":{"android":"levelo://app?vid=600d55a4-2f20-4fd7-90f6-704497e65a89","ios":"levelo://app?vid=600d55a4-2f20-4fd7-90f6-704497e65a89"},"vehicle_type_id":"4","last_reported":1766150774,"current_range_meters":3200,"station_id":"","pricing_plan_id":"cebpf4jnsgd1na2vs0mg"},{"bike_id":"fdb18b9b-3b90-486e-b306-62bb1a73300b","system_id":"levelo_inurba_marseille","lat":43.2465,"lon":5.38172,"is_reserved":false,"is_disabled":true,"rental_uris":{"android":"levelo://app?vid=fdb18b9b-3b90-486e-b306-62bb1a73300b","ios":"levelo://app?vid=fdb18b9b-3b90-486e-b306-62bb1a73300b"},"vehicle_type_id":"4","last_reported":1766150774,"current_range_meters":3200,"station_id":"ce4bhih2rcd13ifvqfr0","pricing_plan_id":"cebpf4jnsgd1na2vs0mg"},{"bike_id":"07ccf228-2da9-4744-bee6-c1a885aa23c6","system_id":"levelo_inurba_marseille","lat":43.286153,"lon":5.384718,"is_reserved":false,"is_disabled":false,"rental_uris":{"android":"levelo://app?vid=07ccf228-2da9-4744-bee6-c1a885aa23c6","ios":"levelo://app?vid=07ccf228-2da9-4744-bee6-c1a885aa23c6"},"vehicle_type_id":"4","last_reported":1766150774,"current_range_meters":3200,"station_id":"ce4bh8p2rcd13ifvqeb0","pricing_plan_id":"cebpf4jnsgd1na2vs0mg"},{"bike_id":"50e6eefe-8aea-4054-ab8f-87d6e301ff34","system_id":"levelo_inurba_marseille","lat":43.242998,"lon":5.438436,"is_reserved":false,"is_disabled":false,"rental_uris":{"android":"levelo://app?vid=50e6eefe-8aea-4054-ab8f-87d6e301ff34","ios":"levelo://app?vid=50e6eefe-8aea-4054-ab8f-87d6e301ff34"},"vehicle_type_id":"4","last_reported":1766150774,"current_range_meters":3200,"station_id":"","pricing_plan_id":"cebpf4jnsgd1na2vs0mg"},{"bike_id":"6348f28d-b39b-40ce-a943-e182df42f4c4","system_id":"levelo_inurba_marseille","lat":43.28698,"lon":5.39978,"is_reserved":false,"is_disabled":false,"rental_uris":{"android":"levelo://app?vid=6348f28d-b39b-40ce-a943-e182df42f4c4","ios":"levelo://app?vid=6348f28d-b39b-40ce-a943-e182df42f4c4"},"vehicle_type_id":"4","last_reported":1766150774,"current_range_meters":3600,"station_id":"ce4bho92rcd13ifvqh3g","pricing_plan_id":"cebpf4jnsgd1na2vs0mg"},{"bike_id":"d88f83fc-7a24-4804-9301-839b1ae399e9","system_id":"levelo_inurba_marseille","lat":43.29531,"lon":5.37854,"is_reserved":false,"is_disabled":false,"rental_uris":{"android":"levelo://app?vid=d88f83fc-7a24-4804-9301-839b1ae399e9","ios":"levelo://app?vid=d88f83fc-7a24-4804-9301-839b1ae399e9"},"vehicle_type_id":"4","last_reported":1766150774,"current_range_meters":3600,"station_id":"","pricing_plan_id":"cebpf4jnsgd1na2vs0mg"},{"bike_id":"116278f1-c1f6-4978-beb9-3e199a9963ca","system_id":"levelo_inurba_marseille","lat":43.28536,"lon":5.44095,"is_reserved":false,"is_disabled":false,"rental_uris":{"android":"levelo://app?vid=116278f1-c1f6-4978-beb9-3e199a9963ca","ios":"levelo://app?vid=116278f1-c1f6-4978-beb9-3e199a9963ca"},"vehicle_type_id":"4","last_reported":1766150774,"current_range_meters":3600,"station_id":"st_d3j3df2ikq2c7380ej80","pricing_plan_id":"cebpf4jnsgd1na2vs0mg"},{"bike_id":"c194a18a-77ef-403b-9eeb-22624c7dc88c","system_id":"levelo_inurba_marseille","lat":43.3014,"lon":5.37403,"is_reserved":false,"is_disabled":false,"rental_uris":{"android":"levelo://app?vid=c194a18a-77ef-403b-9eeb-22624c7dc88c","ios":"levelo://app?vid=c194a18a-77ef-403b-9eeb-22624c7dc88c"},"vehicle_type_id":"4","last_reported":1766150774,"current_range_meters":3600,"station_id":"ce4bgs92rcd13ifvqcc0","pricing_plan_id":"cebpf4jnsgd1na2vs0mg"},{"bike_id":"d5dd2e1f-6caa-403c-b144-e678f4b6bd63","system_id":"levelo_inurba_marseille","lat":43.32104,"lon":5.36765,"is_reserved":false,"is_disabled":false,"rental_uris":{"android":"levelo://app?vid=d5dd2e1f-6caa-403c-b144-e678f4b6bd63","ios":"levelo://app?vid=d5dd2e1f-6caa-403c-b144-e678f4b6bd63"},"vehicle_type_id":"4","last_reported":1766150774,"current_range_meters":3600,"station_id":"ce4bhrh2rcd13ifvqhug","pricing_plan_id":"cebpf4jnsgd1na2vs0mg"},{"bike_id":"d2bcf7e6-9e6c-48c1-8c64-5337f19dad07","system_id":"levelo_inurba_marseille","lat":43.22872,"lon":5.39956,"is_reserved":false,"is_disabled":false,"rental_uris":{"android":"levelo://app?vid=d2bcf7e6-9e6c-48c1-8c64-5337f19dad07","ios":"levelo://app?vid=d2bcf7e6-9e6c-48c1-8c64-5337f19dad07"},"vehicle_type_id":"4","last_reported":1766150774,"current_range_meters":3600,"station_id":"","pricing_plan_id":"cebpf4jnsgd1na2vs0mg"},{"bike_id":"b6854b9e-285a-41b8-b38f-c6714c86274c","system_id":"levelo_inurba_marseille","lat":43.30125,"lon":5.39858,"is_reserved":false,"is_disabled":false,"rental_uris":{"android":"levelo://app?vid=b6854b9e-285a-41b8-b38f-c6714c86274c","ios":"levelo://app?vid=b6854b9e-285a-41b8-b38f-c6714c86274c"},"vehicle_type_id":"4","last_reported":1766150774,"current_range_meters":4000,"station_id":"ce4bh0h2rcd13ifvqd40","pricing_plan_id":"cebpf4jnsgd1na2vs0mg"},{"bike_id":"00fd2dcb-6faf-4c7a-8c99-525909084655","system_id":"levelo_inurba_marseille","lat":43.28167,"lon":5.42646,"is_reserved":false,"is_disabled":true,"rental_uris":{"android":"levelo://app?vid=00fd2dcb-6faf-4c7a-8c99-525909084655","ios":"levelo://app?vid=00fd2dcb-6faf-4c7a-8c99-525909084655"},"vehicle_type_id":"4","last_reported":1766150774,"current_range_meters":4000,"station_id":"ce4bhnh2rcd13ifvqgug","pricing_plan_id":"cebpf4jnsgd1na2vs0mg"},{"bike_id":"a9adc8bf-52f1-4c31-a2de-42743dd086bf","system_id":"levelo_inurba_marseille","lat":43.33723,"lon":5.3748,"is_reserved":false,"is_disabled":false,"rental_uris":{"android":"levelo://app?vid=a9adc8bf-52f1-4c31-a2de-42743dd086bf","ios":"levelo://app?vid=a9adc8bf-52f1-4c31-a2de-42743dd086bf"},"vehicle_type_id":"4","last_reported":1766150774,"current_range_meters":4000,"station_id":"","pricing_plan_id":"cebpf4jnsgd1na2vs0mg"},{"bike_id":"916aebd5-59b2-4973-8f6c-d294b523a7be","system_id":"levelo_inurba_marseille","lat":43.26946,"lon":5.38656,"is_reserved":false,"is_disabled":false,"rental_uris":{"android":"levelo://app?vid=916aebd5-59b2-4973-8f6c-d294b523a7be","ios":"levelo://app?vid=916aebd5-59b2-4973-8f6c-d294b523a7be"},"vehicle_type_id":"4","last_reported":1766150774,"current_range_meters":4000,"station_id":"ce4bhh92rcd13ifvqfh0","pricing_plan_id":"cebpf4jnsgd1na2vs0mg"},{"bike_id":"560624a9-8e2b-4281-a3c5-5634c1633399","system_id":"levelo_inurba_marseille","lat":43.28102,"lon":5.37837,"is_reserved":false,"is_disabled":false,"rental_uris":{"android":"levelo://app?vid=560624a9-8e2b-4281-a3c5-5634c1633399","ios":"levelo://app?vid=560624a9-8e2b-4281-a3c5-5634c1633399"},"vehicle_type_id":"4","last_reported":1766150774,"current_range_meters":4400,"station_id":"ce4bha12rcd13ifvqee0","pricing_plan_id":"cebpf4jnsgd1na2vs0mg"},{"bike_id":"69520959-8927-47cc-880d-5a787a790734","system_id":"levelo_inurba_marseille","lat":43.29569,"lon":5.37524,"is_reserved":false,"is_disabled":false,"rental_uris":{"android":"levelo://app?vid=69520959-8927-47cc-880d-5a787a790734","ios":"levelo://app?vid=69520959-8927-47cc-880d-5a787a790734"},"vehicle_type_id":"4","last_reported":1766150774,"current_range_meters":4400,"station_id":"ce4bgh92rcd13ifvqb50","pricing_plan_id":"cebpf4jnsgd1na2vs0mg"},{"bike_id":"4d6a6f42-b3f9-4700-96f3-65304a750794","system_id":"levelo_inurba_marseille","lat":43.27829,"lon":5.39213,"is_reserved":false,"is_disabled":false,"rental_uris":{"android":"levelo://app?vid=4d6a6f42-b3f9-4700-96f3-65304a750794","ios":"levelo://app?vid=4d6a6f42-b3f9-4700-96f3-65304a750794"},"vehicle_type_id":"4","last_reported":1766150774,"current_range_meters":4400,"station_id":"ce4bhjp2rcd13ifvqga0","pricing_plan_id":"cebpf4jnsgd1na2vs0mg"},{"bike_id":"bbbae4a6-d873-4201-b22a-d2be63eda305","system_id":"levelo_inurba_marseille","lat":43.29567,"lon":5.39977,"is_reserved":false,"is_disabled":false,"rental_uris":{"android":"levelo://app?vid=bbbae4a6-d873-4201-b22a-d2be63eda305","ios":"levelo://app?vid=bbbae4a6-d873-4201-b22a-d2be63eda305"},"vehicle_type_id":"4","last_reported":1766150774,"current_range_meters":4800,"station_id":"ce4bh312rcd13ifvqdj0","pricing_plan_id":"cebpf4jnsgd1na2vs0mg"},{"bike_id":"43bf7a8b-6319-416f-a2c2-6a913eddb12a","system_id":"levelo_inurba_marseille","lat":43.27199,"lon":5.39179,"is_reserved":false,"is_disabled":false,"rental_uris":{"android":"levelo://app?vid=43bf7a8b-6319-416f-a2c2-6a913eddb12a","ios":"levelo://app?vid=43bf7a8b-6319-416f-a2c2-6a913eddb12a"},"vehicle_type_id":"4","last_reported":1766150774,"current_range_meters":4800,"station_id":"ce4bhhp2rcd13ifvqfm0","pricing_plan_id":"cebpf4jnsgd1na2vs0mg"},{"bike_id":"da00a82b-c0dd-4981-b0e3-6751eb247983","system_id":"levelo_inurba_marseille","lat":43.31683,"lon":5.40473,"is_reserved":false,"is_disabled":false,"rental_uris":{"android":"levelo://app?vid=da00a82b-c0dd-4981-b0e3-6751eb247983","ios":"levelo://app?vid=da00a82b-c0dd-4981-b0e3-6751eb247983"},"vehicle_type_id":"4","last_reported":1766150774,"current_range_meters":4800,"station_id":"ce4bh012rcd13ifvqd00","pricing_plan_id":"cebpf4jnsgd1na2vs0mg"},{"bike_id":"135034e9-a9ba-448f-8fb7-1a6ab7b9598e","system_id":"levelo_inurba_marseille","lat":43.265433,"lon":5.372887,"is_reserved":false,"is_disabled":false,"rental_uris":{"android":"levelo://app?vid=135034e9-a9ba-448f-8fb7-1a6ab7b9598e","ios":"levelo://app?vid=135034e9-a9ba-448f-8fb7-1a6ab7b9598e"},"vehicle_type_id":"4","last_reported":1766150774,"current_range_meters":5600,"station_id":"ce4bhg12rcd13ifvqf70","pricing_plan_id":"cebpf4jnsgd1na2vs0mg"},{"bike_id":"3cde007c-a409-4597-91e7-ca2461274ad1","system_id":"levelo_inurba_marseille","lat":43.26567,"lon":5.40191,"is_reserved":false,"is_disabled":false,"rental_uris":{"android":"levelo://app?vid=3cde007c-a409-4597-91e7-ca2461274ad1","ios":"levelo://app?vid=3cde007c-a409-4597-91e7-ca2461274ad1"},"vehicle_type_id":"4","last_reported":1766150774,"current_range_meters":5600,"station_id":"","pricing_plan_id":"cebpf4jnsgd1na2vs0mg"},{"bike_id":"391c3106-5610-4da9-9633-1ff0fa7a1bc1","system_id":"levelo_inurba_marseille","lat":43.302227,"lon":5.400809,"is_reserved":false,"is_disabled":false,"rental_uris":{"android":"levelo://app?vid=391c3106-5610-4da9-9633-1ff0fa7a1bc1","ios":"levelo://app?vid=391c3106-5610-4da9-9633-1ff0fa7a1bc1"},"vehicle_type_id":"4","last_reported":1766150774,"current_range_meters":5600,"station_id":"","pricing_plan_id":"cebpf4jnsgd1na2vs0mg"},{"bike_id":"81508f0a-e327-4705-ae72-228165570b37","system_id":"levelo_inurba_marseille","lat":43.250878,"lon":5.389539,"is_reserved":false,"is_disabled":false,"rental_uris":{"android":"levelo://app?vid=81508f0a-e327-4705-ae72-228165570b37","ios":"levelo://app?vid=81508f0a-e327-4705-ae72-228165570b37"},"vehicle_type_id":"4","last_reported":1766150774,"current_range_meters":5600,"station_id":"","pricing_plan_id":"cebpf4jnsgd1na2vs0mg"},{"bike_id":"5652a8f9-45a7-4eae-b785-3a6fece1807a","system_id":"levelo_inurba_marseille","lat":43.27436,"lon":5.3941,"is_reserved":false,"is_disabled":false,"rental_uris":{"android":"levelo://app?vid=5652a8f9-45a7-4eae-b785-3a6fece1807a","ios":"levelo://app?vid=5652a8f9-45a7-4eae-b785-3a6fece1807a"},"vehicle_type_id":"4","last_reported":1766150774,"current_range_meters":6000,"station_id":"ce4bhdp2rcd13ifvqf20","pricing_plan_id":"cebpf4jnsgd1na2vs0mg"},{"bike_id":"f297c977-3380-4557-a67a-a111ce73bc2d","system_id":"levelo_inurba_marseille","lat":43.296371,"lon":5.405967,"is_reserved":false,"is_disabled":false,"rental_uris":{"android":"levelo://app?vid=f297c977-3380-4557-a67a-a111ce73bc2d","ios":"levelo://app?vid=f297c977-3380-4557-a67a-a111ce73bc2d"},"vehicle_type_id":"4","last_reported":1766150774,"current_range_meters":6000,"station_id":"","pricing_plan_id":"cebpf4jnsgd1na2vs0mg"},{"bike_id":"da18a3b0-ce97-43eb-b181-936e440b40e5","system_id":"levelo_inurba_marseille","lat":43.31711,"lon":5.4038,"is_reserved":false,"is_disabled":false,"rental_uris":{"android":"levelo://app?vid=da18a3b0-ce97-43eb-b181-936e440b40e5","ios":"levelo://app?vid=da18a3b0-ce97-43eb-b181-936e440b40e5"},"vehicle_type_id":"4","last_reported":1766150774,"current_range_meters":6000,"station_id":"","pricing_plan_id":"cebpf4jnsgd1na2vs0mg"},{"bike_id":"e7f619a5-4c4d-4753-a009-cafc330248ae","system_id":"levelo_inurba_marseille","lat":43.29191,"lon":5.39324,"is_reserved":false,"is_disabled":false,"rental_uris":{"android":"levelo://app?vid=e7f619a5-4c4d-4753-a009-cafc330248ae","ios":"levelo://app?vid=e7f619a5-4c4d-4753-a009-cafc330248ae"},"vehicle_type_id":"4","last_reported":1766150774,"current_range_meters":6000,"station_id":"ce4bh192rcd13ifvqdd0","pricing_plan_id":"cebpf4jnsgd1na2vs0mg"},{"bike_id":"48e30a46-3a61-4ed5-93c8-2b0ee8661bac","system_id":"levelo_inurba_marseille","lat":43.30192,"lon":5.38086,"is_reserved":false,"is_disabled":false,"rental_uris":{"android":"levelo://app?vid=48e30a46-3a61-4ed5-93c8-2b0ee8661bac","ios":"levelo://app?vid=48e30a46-3a61-4ed5-93c8-2b0ee8661bac"},"vehicle_type_id":"4","last_reported":1766150774,"current_range_meters":6000,"station_id":"","pricing_plan_id":"cebpf4jnsgd1na2vs0mg"},{"bike_id":"0f790576-6061-4c09-aa76-5fb8223294e2","system_id":"levelo_inurba_marseille","lat":43.273241,"lon":5.390715,"is_reserved":false,"is_disabled":true,"rental_uris":{"android":"levelo://app?vid=0f790576-6061-4c09-aa76-5fb8223294e2","ios":"levelo://app?vid=0f790576-6061-4c09-aa76-5fb8223294e2"},"vehicle_type_id":"4","last_reported":1766150774,"current_range_meters":6400,"station_id":"","pricing_plan_id":"cebpf4jnsgd1na2vs0mg"},{"bike_id":"0dd746f4-bda4-4002-9eaa-95bf05762e2f","system_id":"levelo_inurba_marseille","lat":43.29979,"lon":5.38491,"is_reserved":false,"is_disabled":false,"rental_uris":{"android":"levelo://app?vid=0dd746f4-bda4-4002-9eaa-95bf05762e2f","ios":"levelo://app?vid=0dd746f4-bda4-4002-9eaa-95bf05762e2f"},"vehicle_type_id":"4","last_reported":1766150774,"current_range_meters":6400,"station_id":"ce4bgj92rcd13ifvqbd0","pricing_plan_id":"cebpf4jnsgd1na2vs0mg"},{"bike_id":"40c51ff6-bcdf-4189-b2f9-53259a9dc236","system_id":"levelo_inurba_marseille","lat":43.28306,"lon":5.38919,"is_reserved":false,"is_disabled":true,"rental_uris":{"android":"levelo://app?vid=40c51ff6-bcdf-4189-b2f9-53259a9dc236","ios":"levelo://app?vid=40c51ff6-bcdf-4189-b2f9-53259a9dc236"},"vehicle_type_id":"4","last_reported":1766150774,"current_range_meters":6400,"station_id":"","pricing_plan_id":"cebpf4jnsgd1na2vs0mg"},{"bike_id":"7bc0a956-55db-4f34-8224-ada659ba7b2c","system_id":"levelo_inurba_marseille","lat":43.29266,"lon":5.37626,"is_reserved":false,"is_disabled":false,"rental_uris":{"android":"levelo://app?vid=7bc0a956-55db-4f34-8224-ada659ba7b2c","ios":"levelo://app?vid=7bc0a956-55db-4f34-8224-ada659ba7b2c"},"vehicle_type_id":"4","last_reported":1766150774,"current_range_meters":6400,"station_id":"ce4bgi12rcd13ifvqb80","pricing_plan_id":"cebpf4jnsgd1na2vs0mg"},{"bike_id":"9b790724-59f8-4627-84c7-75465a264306","system_id":"levelo_inurba_marseille","lat":43.26215,"lon":5.37445,"is_reserved":false,"is_disabled":false,"rental_uris":{"android":"levelo://app?vid=9b790724-59f8-4627-84c7-75465a264306","ios":"levelo://app?vid=9b790724-59f8-4627-84c7-75465a264306"},"vehicle_type_id":"4","last_reported":1766150774,"current_range_meters":6400,"station_id":"ce4bhgp2rcd13ifvqfc0","pricing_plan_id":"cebpf4jnsgd1na2vs0mg"},{"bike_id":"7efd8898-1477-464f-8afc-dae3f39e2e2f","system_id":"levelo_inurba_marseille","lat":43.31219,"lon":5.36845,"is_reserved":false,"is_disabled":false,"rental_uris":{"android":"levelo://app?vid=7efd8898-1477-464f-8afc-dae3f39e2e2f","ios":"levelo://app?vid=7efd8898-1477-464f-8afc-dae3f39e2e2f"},"vehicle_type_id":"4","last_reported":1766150774,"current_range_meters":6400,"station_id":"ce4bgl92rcd13ifvqbq0","pricing_plan_id":"cebpf4jnsgd1na2vs0mg"},{"bike_id":"21e5fd9f-e5d4-4aeb-929a-a23be3e8819d","system_id":"levelo_inurba_marseille","lat":43.30933,"lon":5.40141,"is_reserved":false,"is_disabled":false,"rental_uris":{"android":"levelo://app?vid=21e5fd9f-e5d4-4aeb-929a-a23be3e8819d","ios":"levelo://app?vid=21e5fd9f-e5d4-4aeb-929a-a23be3e8819d"},"vehicle_type_id":"4","last_reported":1766150774,"current_range_meters":6800,"station_id":"ce4bgvp2rcd13ifvqct0","pricing_plan_id":"cebpf4jnsgd1na2vs0mg"},{"bike_id":"467517c8-ed87-4e02-bef8-4ed63963538d","system_id":"levelo_inurba_marseille","lat":43.272,"lon":5.4099,"is_reserved":false,"is_disabled":true,"rental_uris":{"android":"levelo://app?vid=467517c8-ed87-4e02-bef8-4ed63963538d","ios":"levelo://app?vid=467517c8-ed87-4e02-bef8-4ed63963538d"},"vehicle_type_id":"4","last_reported":1766150774,"current_range_meters":6800,"station_id":"ce4bhl12rcd13ifvqgf0","pricing_plan_id":"cebpf4jnsgd1na2vs0mg"},{"bike_id":"7ca36e65-29f2-4389-9847-4bff73ecf20a","system_id":"levelo_inurba_marseille","lat":43.32362,"lon":5.36743,"is_reserved":false,"is_disabled":false,"rental_uris":{"android":"levelo://app?vid=7ca36e65-29f2-4389-9847-4bff73ecf20a","ios":"levelo://app?vid=7ca36e65-29f2-4389-9847-4bff73ecf20a"},"vehicle_type_id":"4","last_reported":1766150774,"current_range_meters":6800,"station_id":"ce4bhsh2rcd13ifvqi2g","pricing_plan_id":"cebpf4jnsgd1na2vs0mg"},{"bike_id":"37d6994a-0bdb-4f12-989d-64fc65c91ec3","system_id":"levelo_inurba_marseille","lat":43.269531,"lon":5.38629,"is_reserved":false,"is_disabled":false,"rental_uris":{"android":"levelo://app?vid=37d6994a-0bdb-4f12-989d-64fc65c91ec3","ios":"levelo://app?vid=37d6994a-0bdb-4f12-989d-64fc65c91ec3"},"vehicle_type_id":"4","last_reported":1766150774,"current_range_meters":6800,"station_id":"","pricing_plan_id":"cebpf4jnsgd1na2vs0mg"},{"bike_id":"062e4fb9-ffea-4a2c-a0c2-86cd651ea2ca","system_id":"levelo_inurba_marseille","lat":43.28232,"lon":5.39065,"is_reserved":false,"is_disabled":false,"rental_uris":{"android":"levelo://app?vid=062e4fb9-ffea-4a2c-a0c2-86cd651ea2ca","ios":"levelo://app?vid=062e4fb9-ffea-4a2c-a0c2-86cd651ea2ca"},"vehicle_type_id":"4","last_reported":1766150774,"current_range_meters":7200,"station_id":"ce4bhn92rcd13ifvqgsg","pricing_plan_id":"cebpf4jnsgd1na2vs0mg"},{"bike_id":"568adf15-4be5-4a04-8361-9ae4962d84fe","system_id":"levelo_inurba_marseille","lat":43.28414,"lon":5.34998,"is_reserved":false,"is_disabled":false,"rental_uris":{"android":"levelo://app?vid=568adf15-4be5-4a04-8361-9ae4962d84fe","ios":"levelo://app?vid=568adf15-4be5-4a04-8361-9ae4962d84fe"},"vehicle_type_id":"4","last_reported":1766150774,"current_range_meters":7200,"station_id":"ce4bhbh2rcd13ifvqepg","pricing_plan_id":"cebpf4jnsgd1na2vs0mg"},{"bike_id":"cf0e2dfe-8751-4251-bbd3-3ad00be9f3ad","system_id":"levelo_inurba_marseille","lat":43.2849,"lon":5.48402,"is_reserved":false,"is_disabled":false,"rental_uris":{"android":"levelo://app?vid=cf0e2dfe-8751-4251-bbd3-3ad00be9f3ad","ios":"levelo://app?vid=cf0e2dfe-8751-4251-bbd3-3ad00be9f3ad"},"vehicle_type_id":"4","last_reported":1766150774,"current_range_meters":7200,"station_id":"","pricing_plan_id":"cebpf4jnsgd1na2vs0mg"},{"bike_id":"f0552324-7f16-45f2-af53-7d50398c0e4b","system_id":"levelo_inurba_marseille","lat":43.29098,"lon":5.39325,"is_reserved":false,"is_disabled":true,"rental_uris":{"android":"levelo://app?vid=f0552324-7f16-45f2-af53-7d50398c0e4b","ios":"levelo://app?vid=f0552324-7f16-45f2-af53-7d50398c0e4b"},"vehicle_type_id":"4","last_reported":1766150774,"current_range_meters":7200,"station_id":"","pricing_plan_id":"cebpf4jnsgd1na2vs0mg"},{"bike_id":"63e82573-2474-4a1d-9d3f-c01e03a95473","system_id":"levelo_inurba_marseille","lat":43.33603,"lon":5.41028,"is_reserved":false,"is_disabled":false,"rental_uris":{"android":"levelo://app?vid=63e82573-2474-4a1d-9d3f-c01e03a95473","ios":"levelo://app?vid=63e82573-2474-4a1d-9d3f-c01e03a95473"},"vehicle_type_id":"4","last_reported":1766150774,"current_range_meters":7200,"station_id":"ce4bhqh2rcd13ifvqhmg","pricing_plan_id":"cebpf4jnsgd1na2vs0mg"},{"bike_id":"0a598fce-978f-4f90-b03f-b8be1902feff","system_id":"levelo_inurba_marseille","lat":43.31296,"lon":5.37823,"is_reserved":false,"is_disabled":false,"rental_uris":{"android":"levelo://app?vid=0a598fce-978f-4f90-b03f-b8be1902feff","ios":"levelo://app?vid=0a598fce-978f-4f90-b03f-b8be1902feff"},"vehicle_type_id":"4","last_reported":1766150774,"current_range_meters":8000,"station_id":"","pricing_plan_id":"cebpf4jnsgd1na2vs0mg"},{"bike_id":"13d3967b-4cfe-47bf-8d35-564fb9330955","system_id":"levelo_inurba_marseille","lat":43.28419,"lon":5.37522,"is_reserved":false,"is_disabled":true,"rental_uris":{"android":"levelo://app?vid=13d3967b-4cfe-47bf-8d35-564fb9330955","ios":"levelo://app?vid=13d3967b-4cfe-47bf-8d35-564fb9330955"},"vehicle_type_id":"4","last_reported":1766150774,"current_range_meters":8000,"station_id":"ce4bh412rcd13ifvqds0","pricing_plan_id":"cebpf4jnsgd1na2vs0mg"},{"bike_id":"92e2511c-c371-4d33-95ca-5e7881da6b56","system_id":"levelo_inurba_marseille","lat":43.31357,"lon":5.36718,"is_reserved":false,"is_disabled":false,"rental_uris":{"android":"levelo://app?vid=92e2511c-c371-4d33-95ca-5e7881da6b56","ios":"levelo://app?vid=92e2511c-c371-4d33-95ca-5e7881da6b56"},"vehicle_type_id":"4","last_reported":1766150774,"current_range_meters":8000,"station_id":"ce4bgr92rcd13ifvqc6g","pricing_plan_id":"cebpf4jnsgd1na2vs0mg"},{"bike_id":"24bdf439-eafa-4725-949f-48e8f3329db0","system_id":"levelo_inurba_marseille","lat":43.28409,"lon":5.34983,"is_reserved":false,"is_disabled":false,"rental_uris":{"android":"levelo://app?vid=24bdf439-eafa-4725-949f-48e8f3329db0","ios":"levelo://app?vid=24bdf439-eafa-4725-949f-48e8f3329db0"},"vehicle_type_id":"4","last_reported":1766150774,"current_range_meters":8400,"station_id":"ce4bhbh2rcd13ifvqepg","pricing_plan_id":"cebpf4jnsgd1na2vs0mg"},{"bike_id":"436e467e-3ef8-4484-b12e-82fd46509f97","system_id":"levelo_inurba_marseille","lat":43.23298,"lon":5.4439,"is_reserved":false,"is_disabled":false,"rental_uris":{"android":"levelo://app?vid=436e467e-3ef8-4484-b12e-82fd46509f97","ios":"levelo://app?vid=436e467e-3ef8-4484-b12e-82fd46509f97"},"vehicle_type_id":"4","last_reported":1766150774,"current_range_meters":8400,"station_id":"","pricing_plan_id":"cebpf4jnsgd1na2vs0mg"},{"bike_id":"4a614ce4-d61c-499d-8955-0569e02f377b","system_id":"levelo_inurba_marseille","lat":43.27517,"lon":5.37263,"is_reserved":false,"is_disabled":false,"rental_uris":{"android":"levelo://app?vid=4a614ce4-d61c-499d-8955-0569e02f377b","ios":"levelo://app?vid=4a614ce4-d61c-499d-8955-0569e02f377b"},"vehicle_type_id":"4","last_reported":1766150774,"current_range_meters":8400,"station_id":"","pricing_plan_id":"cebpf4jnsgd1na2vs0mg"},{"bike_id":"6065b8a9-1bd4-4279-a665-6c385154ff6d","system_id":"levelo_inurba_marseille","lat":43.2958,"lon":5.38111,"is_reserved":false,"is_disabled":false,"rental_uris":{"android":"levelo://app?vid=6065b8a9-1bd4-4279-a665-6c385154ff6d","ios":"levelo://app?vid=6065b8a9-1bd4-4279-a665-6c385154ff6d"},"vehicle_type_id":"4","last_reported":1766150774,"current_range_meters":8400,"station_id":"ce4bgl12rcd13ifvqbo0","pricing_plan_id":"cebpf4jnsgd1na2vs0mg"},{"bike_id":"aa614a3d-a958-427e-bdb6-e23c94b7052b","system_id":"levelo_inurba_marseille","lat":43.31715,"lon":5.43709,"is_reserved":false,"is_disabled":false,"rental_uris":{"android":"levelo://app?vid=aa614a3d-a958-427e-bdb6-e23c94b7052b","ios":"levelo://app?vid=aa614a3d-a958-427e-bdb6-e23c94b7052b"},"vehicle_type_id":"4","last_reported":1766150774,"current_range_meters":8400,"station_id":"ce4bhp92rcd13ifvqhcg","pricing_plan_id":"cebpf4jnsgd1na2vs0mg"},{"bike_id":"7646bb24-8e97-4ec7-8f0b-3bd06c67dd5d","system_id":"levelo_inurba_marseille","lat":43.310819,"lon":5.424329,"is_reserved":false,"is_disabled":false,"rental_uris":{"android":"levelo://app?vid=7646bb24-8e97-4ec7-8f0b-3bd06c67dd5d","ios":"levelo://app?vid=7646bb24-8e97-4ec7-8f0b-3bd06c67dd5d"},"vehicle_type_id":"4","last_reported":1766150774,"current_range_meters":8400,"station_id":"ce4bhp92rcd13ifvqhag","pricing_plan_id":"cebpf4jnsgd1na2vs0mg"},{"bike_id":"21773796-24c4-4fd9-837c-05f1753acd33","system_id":"levelo_inurba_marseille","lat":43.3111,"lon":5.3778,"is_reserved":false,"is_disabled":false,"rental_uris":{"android":"levelo://app?vid=21773796-24c4-4fd9-837c-05f1753acd33","ios":"levelo://app?vid=21773796-24c4-4fd9-837c-05f1753acd33"},"vehicle_type_id":"4","last_reported":1766150774,"current_range_meters":8400,"station_id":"ce4bgt92rcd13ifvqcg0","pricing_plan_id":"cebpf4jnsgd1na2vs0mg"},{"bike_id":"d132c48f-99c7-4dcc-8cd3-245e9e4af63c","system_id":"levelo_inurba_marseille","lat":43.262886,"lon":5.412263,"is_reserved":false,"is_disabled":false,"rental_uris":{"android":"levelo://app?vid=d132c48f-99c7-4dcc-8cd3-245e9e4af63c","ios":"levelo://app?vid=d132c48f-99c7-4dcc-8cd3-245e9e4af63c"},"vehicle_type_id":"4","last_reported":1766150774,"current_range_meters":8400,"station_id":"ce4bhb92rcd13ifvqen0","pricing_plan_id":"cebpf4jnsgd1na2vs0mg"},{"bike_id":"e3545456-9ccd-47b9-9f35-1db0fbdf5c17","system_id":"levelo_inurba_marseille","lat":43.28526,"lon":5.44106,"is_reserved":false,"is_disabled":false,"rental_uris":{"android":"levelo://app?vid=e3545456-9ccd-47b9-9f35-1db0fbdf5c17","ios":"levelo://app?vid=e3545456-9ccd-47b9-9f35-1db0fbdf5c17"},"vehicle_type_id":"4","last_reported":1766150774,"current_range_meters":8400,"station_id":"st_d3j3df2ikq2c7380ej80","pricing_plan_id":"cebpf4jnsgd1na2vs0mg"},{"bike_id":"ee6f7e5c-24b4-4046-a3ec-072080785116","system_id":"levelo_inurba_marseille","lat":43.21746,"lon":5.34594,"is_reserved":false,"is_disabled":true,"rental_uris":{"android":"levelo://app?vid=ee6f7e5c-24b4-4046-a3ec-072080785116","ios":"levelo://app?vid=ee6f7e5c-24b4-4046-a3ec-072080785116"},"vehicle_type_id":"4","last_reported":1766150774,"current_range_meters":8800,"station_id":"st_cvj6r9ubvosntc0bgbag","pricing_plan_id":"cebpf4jnsgd1na2vs0mg"},{"bike_id":"fbe2ff79-96ee-4eff-9f7d-31c36b260c77","system_id":"levelo_inurba_marseille","lat":43.31371,"lon":5.3851,"is_reserved":false,"is_disabled":false,"rental_uris":{"android":"levelo://app?vid=fbe2ff79-96ee-4eff-9f7d-31c36b260c77","ios":"levelo://app?vid=fbe2ff79-96ee-4eff-9f7d-31c36b260c77"},"vehicle_type_id":"4","last_reported":1766150774,"current_range_meters":8800,"station_id":"ce4bgt92rcd13ifvqcf0","pricing_plan_id":"cebpf4jnsgd1na2vs0mg"},{"bike_id":"d0dd282f-2c05-49dd-834d-6d93cee6c88a","system_id":"levelo_inurba_marseille","lat":43.30191,"lon":5.36627,"is_reserved":false,"is_disabled":true,"rental_uris":{"android":"levelo://app?vid=d0dd282f-2c05-49dd-834d-6d93cee6c88a","ios":"levelo://app?vid=d0dd282f-2c05-49dd-834d-6d93cee6c88a"},"vehicle_type_id":"4","last_reported":1766150774,"current_range_meters":8800,"station_id":"ce4bgrh2rcd13ifvqc8g","pricing_plan_id":"cebpf4jnsgd1na2vs0mg"},{"bike_id":"228ed5e4-a793-4f90-a46f-1e70b2793524","system_id":"levelo_inurba_marseille","lat":43.28612,"lon":5.39873,"is_reserved":false,"is_disabled":true,"rental_uris":{"android":"levelo://app?vid=228ed5e4-a793-4f90-a46f-1e70b2793524","ios":"levelo://app?vid=228ed5e4-a793-4f90-a46f-1e70b2793524"},"vehicle_type_id":"4","last_reported":1766150774,"current_range_meters":8800,"station_id":"st_d4a7ka997mjs738ck50g","pricing_plan_id":"cebpf4jnsgd1na2vs0mg"},{"bike_id":"4ab1cf9e-3a6c-446b-b72d-82cb261b6439","system_id":"levelo_inurba_marseille","lat":43.30305,"lon":5.3921,"is_reserved":false,"is_disabled":false,"rental_uris":{"android":"levelo://app?vid=4ab1cf9e-3a6c-446b-b72d-82cb261b6439","ios":"levelo://app?vid=4ab1cf9e-3a6c-446b-b72d-82cb261b6439"},"vehicle_type_id":"4","last_reported":1766150774,"current_range_meters":8800,"station_id":"ce4bgkh2rcd13ifvqbk0","pricing_plan_id":"cebpf4jnsgd1na2vs0mg"},{"bike_id":"c5365846-c619-4f12-8c92-97c9f9725a15","system_id":"levelo_inurba_marseille","lat":43.295168,"lon":5.379314,"is_reserved":false,"is_disabled":false,"rental_uris":{"android":"levelo://app?vid=c5365846-c619-4f12-8c92-97c9f9725a15","ios":"levelo://app?vid=c5365846-c619-4f12-8c92-97c9f9725a15"},"vehicle_type_id":"4","last_reported":1766150774,"current_range_meters":8800,"station_id":"","pricing_plan_id":"cebpf4jnsgd1na2vs0mg"},{"bike_id":"1626daf3-5722-4708-8aed-cbc8067f87db","system_id":"levelo_inurba_marseille","lat":43.28634,"lon":5.35088,"is_reserved":false,"is_disabled":false,"rental_uris":{"android":"levelo://app?vid=1626daf3-5722-4708-8aed-cbc8067f87db","ios":"levelo://app?vid=1626daf3-5722-4708-8aed-cbc8067f87db"},"vehicle_type_id":"4","last_reported":1766150774,"current_range_meters":8800,"station_id":"ce4bhch2rcd13ifvqeug","pricing_plan_id":"cebpf4jnsgd1na2vs0mg"},{"bike_id":"13aa3589-a5d7-43bc-8e8f-185c890844f7","system_id":"levelo_inurba_marseille","lat":43.30123,"lon":5.39854,"is_reserved":false,"is_disabled":false,"rental_uris":{"android":"levelo://app?vid=13aa3589-a5d7-43bc-8e8f-185c890844f7","ios":"levelo://app?vid=13aa3589-a5d7-43bc-8e8f-185c890844f7"},"vehicle_type_id":"4","last_reported":1766150774,"current_range_meters":8800,"station_id":"ce4bh0h2rcd13ifvqd40","pricing_plan_id":"cebpf4jnsgd1na2vs0mg"},{"bike_id":"56618555-07dd-421f-b982-e9c356439bd9","system_id":"levelo_inurba_marseille","lat":43.337444,"lon":5.374475,"is_reserved":false,"is_disabled":false,"rental_uris":{"android":"levelo://app?vid=56618555-07dd-421f-b982-e9c356439bd9","ios":"levelo://app?vid=56618555-07dd-421f-b982-e9c356439bd9"},"vehicle_type_id":"4","last_reported":1766150774,"current_range_meters":9200,"station_id":"cpo3342slgdg3j2ifvpg","pricing_plan_id":"cebpf4jnsgd1na2vs0mg"},{"bike_id":"f07708a6-82af-4792-a815-0ab5057b5c95","system_id":"levelo_inurba_marseille","lat":43.306441,"lon":5.400716,"is_reserved":false,"is_disabled":false,"rental_uris":{"android":"levelo://app?vid=f07708a6-82af-4792-a815-0ab5057b5c95","ios":"levelo://app?vid=f07708a6-82af-4792-a815-0ab5057b5c95"},"vehicle_type_id":"4","last_reported":1766150774,"current_range_meters":9200,"station_id":"ce4bh112rcd13ifvqda0","pricing_plan_id":"cebpf4jnsgd1na2vs0mg"},{"bike_id":"d50867a0-a974-4546-a28c-eba4c2e0b399","system_id":"levelo_inurba_marseille","lat":43.23192,"lon":5.35548,"is_reserved":false,"is_disabled":false,"rental_uris":{"android":"levelo://app?vid=d50867a0-a974-4546-a28c-eba4c2e0b399","ios":"levelo://app?vid=d50867a0-a974-4546-a28c-eba4c2e0b399"},"vehicle_type_id":"4","last_reported":1766150774,"current_range_meters":9200,"station_id":"ce4bhu92rcd13ifvqi70","pricing_plan_id":"cebpf4jnsgd1na2vs0mg"},{"bike_id":"1f8bf9e3-c9bd-4c05-9201-34f9580d25af","system_id":"levelo_inurba_marseille","lat":43.21192,"lon":5.35074,"is_reserved":false,"is_disabled":false,"rental_uris":{"android":"levelo://app?vid=1f8bf9e3-c9bd-4c05-9201-34f9580d25af","ios":"levelo://app?vid=1f8bf9e3-c9bd-4c05-9201-34f9580d25af"},"vehicle_type_id":"4","last_reported":1766150774,"current_range_meters":9200,"station_id":"st_cvj6sg6p6f1abm77japg","pricing_plan_id":"cebpf4jnsgd1na2vs0mg"},{"bike_id":"91dc96a9-ec51-4128-814e-ce3aa80480d3","system_id":"levelo_inurba_marseille","lat":43.300299,"lon":5.380729,"is_reserved":false,"is_disabled":false,"rental_uris":{"android":"levelo://app?vid=91dc96a9-ec51-4128-814e-ce3aa80480d3","ios":"levelo://app?vid=91dc96a9-ec51-4128-814e-ce3aa80480d3"},"vehicle_type_id":"4","last_reported":1766150774,"current_range_meters":9200,"station_id":"","pricing_plan_id":"cebpf4jnsgd1na2vs0mg"},{"bike_id":"98e099d2-08e9-4c40-9e2a-579d5bf4e32a","system_id":"levelo_inurba_marseille","lat":43.27372,"lon":5.36252,"is_reserved":false,"is_disabled":false,"rental_uris":{"android":"levelo://app?vid=98e099d2-08e9-4c40-9e2a-579d5bf4e32a","ios":"levelo://app?vid=98e099d2-08e9-4c40-9e2a-579d5bf4e32a"},"vehicle_type_id":"4","last_reported":1766150774,"current_range_meters":9200,"station_id":"ce4bhbh2rcd13ifvqeo0","pricing_plan_id":"cebpf4jnsgd1na2vs0mg"},{"bike_id":"40e8fa07-58ee-4e68-90b2-c8821e9bc3b3","system_id":"levelo_inurba_marseille","lat":43.30379,"lon":5.42497,"is_reserved":false,"is_disabled":false,"rental_uris":{"android":"levelo://app?vid=40e8fa07-58ee-4e68-90b2-c8821e9bc3b3","ios":"levelo://app?vid=40e8fa07-58ee-4e68-90b2-c8821e9bc3b3"},"vehicle_type_id":"4","last_reported":1766150774,"current_range_meters":9200,"station_id":"ce4bhoh2rcd13ifvqh6g","pricing_plan_id":"cebpf4jnsgd1na2vs0mg"},{"bike_id":"bd9f5726-57b9-4211-811f-03f39d31409a","system_id":"levelo_inurba_marseille","lat":43.26362,"lon":5.4108,"is_reserved":false,"is_disabled":false,"rental_uris":{"android":"levelo://app?vid=bd9f5726-57b9-4211-811f-03f39d31409a","ios":"levelo://app?vid=bd9f5726-57b9-4211-811f-03f39d31409a"},"vehicle_type_id":"4","last_reported":1766150774,"current_range_meters":9200,"station_id":"st_d4e5ca6na9uc73bfl5fg","pricing_plan_id":"cebpf4jnsgd1na2vs0mg"},{"bike_id":"04591676-1ba0-4ddc-b3b9-3114a843b83d","system_id":"levelo_inurba_marseille","lat":43.3029,"lon":5.37807,"is_reserved":false,"is_disabled":false,"rental_uris":{"android":"levelo://app?vid=04591676-1ba0-4ddc-b3b9-3114a843b83d","ios":"levelo://app?vid=04591676-1ba0-4ddc-b3b9-3114a843b83d"},"vehicle_type_id":"4","last_reported":1766150774,"current_range_meters":9200,"station_id":"ce4bguh2rcd13ifvqcj0","pricing_plan_id":"cebpf4jnsgd1na2vs0mg"},{"bike_id":"374a0371-4968-4fe9-88a9-ac5ffa94b236","system_id":"levelo_inurba_marseille","lat":43.31463,"lon":5.45384,"is_reserved":false,"is_disabled":false,"rental_uris":{"android":"levelo://app?vid=374a0371-4968-4fe9-88a9-ac5ffa94b236","ios":"levelo://app?vid=374a0371-4968-4fe9-88a9-ac5ffa94b236"},"vehicle_type_id":"4","last_reported":1766150774,"current_range_meters":9200,"station_id":"","pricing_plan_id":"cebpf4jnsgd1na2vs0mg"},{"bike_id":"a6bb7fde-2db0-447e-8cac-38a0c3844ce6","system_id":"levelo_inurba_marseille","lat":43.27761,"lon":5.38843,"is_reserved":false,"is_disabled":false,"rental_uris":{"android":"levelo://app?vid=a6bb7fde-2db0-447e-8cac-38a0c3844ce6","ios":"levelo://app?vid=a6bb7fde-2db0-447e-8cac-38a0c3844ce6"},"vehicle_type_id":"4","last_reported":1766150774,"current_range_meters":9600,"station_id":"","pricing_plan_id":"cebpf4jnsgd1na2vs0mg"},{"bike_id":"3600545b-6af9-4527-916c-36a9c126b47e","system_id":"levelo_inurba_marseille","lat":43.301361,"lon":5.374264,"is_reserved":false,"is_disabled":false,"rental_uris":{"android":"levelo://app?vid=3600545b-6af9-4527-916c-36a9c126b47e","ios":"levelo://app?vid=3600545b-6af9-4527-916c-36a9c126b47e"},"vehicle_type_id":"4","last_reported":1766150774,"current_range_meters":9600,"station_id":"ce4bgs92rcd13ifvqcc0","pricing_plan_id":"cebpf4jnsgd1na2vs0mg"},{"bike_id":"cd8ea67b-02ff-44a2-9f1e-0f06c2acc51a","system_id":"levelo_inurba_marseille","lat":43.33139,"lon":5.37708,"is_reserved":false,"is_disabled":false,"rental_uris":{"android":"levelo://app?vid=cd8ea67b-02ff-44a2-9f1e-0f06c2acc51a","ios":"levelo://app?vid=cd8ea67b-02ff-44a2-9f1e-0f06c2acc51a"},"vehicle_type_id":"4","last_reported":1766150774,"current_range_meters":9600,"station_id":"st_d46cu089ee8s73dldbu0","pricing_plan_id":"cebpf4jnsgd1na2vs0mg"},{"bike_id":"cf5eb2c1-c87d-4ae3-9256-41d8d82f1276","system_id":"levelo_inurba_marseille","lat":43.292246,"lon":5.360772,"is_reserved":false,"is_disabled":false,"rental_uris":{"android":"levelo://app?vid=cf5eb2c1-c87d-4ae3-9256-41d8d82f1276","ios":"levelo://app?vid=cf5eb2c1-c87d-4ae3-9256-41d8d82f1276"},"vehicle_type_id":"4","last_reported":1766150774,"current_range_meters":9600,"station_id":"ce4bhbh2rcd13ifvqeqg","pricing_plan_id":"cebpf4jnsgd1na2vs0mg"},{"bike_id":"6a3aadf4-a990-44c9-b1c7-fab51d6b0c67","system_id":"levelo_inurba_marseille","lat":43.26189,"lon":5.37938,"is_reserved":false,"is_disabled":false,"rental_uris":{"android":"levelo://app?vid=6a3aadf4-a990-44c9-b1c7-fab51d6b0c67","ios":"levelo://app?vid=6a3aadf4-a990-44c9-b1c7-fab51d6b0c67"},"vehicle_type_id":"4","last_reported":1766150774,"current_range_meters":9600,"station_id":"ce4bhjp2rcd13ifvqg90","pricing_plan_id":"cebpf4jnsgd1na2vs0mg"},{"bike_id":"f3a4c2fd-c27a-4ca6-bbe5-3949d2a88808","system_id":"levelo_inurba_marseille","lat":43.28584,"lon":5.43,"is_reserved":false,"is_disabled":false,"rental_uris":{"android":"levelo://app?vid=f3a4c2fd-c27a-4ca6-bbe5-3949d2a88808","ios":"levelo://app?vid=f3a4c2fd-c27a-4ca6-bbe5-3949d2a88808"},"vehicle_type_id":"4","last_reported":1766150774,"current_range_meters":9600,"station_id":"","pricing_plan_id":"cebpf4jnsgd1na2vs0mg"},{"bike_id":"3115deff-1c7b-4ffa-ae5e-4597a9338a81","system_id":"levelo_inurba_marseille","lat":43.27052,"lon":5.40257,"is_reserved":false,"is_disabled":false,"rental_uris":{"android":"levelo://app?vid=3115deff-1c7b-4ffa-ae5e-4597a9338a81","ios":"levelo://app?vid=3115deff-1c7b-4ffa-ae5e-4597a9338a81"},"vehicle_type_id":"4","last_reported":1766150774,"current_range_meters":9600,"station_id":"ce4bhk92rcd13ifvqgc0","pricing_plan_id":"cebpf4jnsgd1na2vs0mg"},{"bike_id":"17a49efb-d179-4b85-b20c-4afe87c0613f","system_id":"levelo_inurba_marseille","lat":43.31034,"lon":5.37162,"is_reserved":false,"is_disabled":true,"rental_uris":{"android":"levelo://app?vid=17a49efb-d179-4b85-b20c-4afe87c0613f","ios":"levelo://app?vid=17a49efb-d179-4b85-b20c-4afe87c0613f"},"vehicle_type_id":"4","last_reported":1766150774,"current_range_meters":9600,"station_id":"st_d4kl2rp97mjs73e7tdfg","pricing_plan_id":"cebpf4jnsgd1na2vs0mg"},{"bike_id":"c6c355b6-5a31-4c14-bd7c-f5a2aaecc12d","system_id":"levelo_inurba_marseille","lat":43.29232,"lon":5.36073,"is_reserved":false,"is_disabled":false,"rental_uris":{"android":"levelo://app?vid=c6c355b6-5a31-4c14-bd7c-f5a2aaecc12d","ios":"levelo://app?vid=c6c355b6-5a31-4c14-bd7c-f5a2aaecc12d"},"vehicle_type_id":"4","last_reported":1766150774,"current_range_meters":9600,"station_id":"ce4bhbh2rcd13ifvqeqg","pricing_plan_id":"cebpf4jnsgd1na2vs0mg"},{"bike_id":"c60e2749-bf10-4061-afe4-a4ec52b4dc04","system_id":"levelo_inurba_marseille","lat":43.244832,"lon":5.425512,"is_reserved":false,"is_disabled":false,"rental_uris":{"android":"levelo://app?vid=c60e2749-bf10-4061-afe4-a4ec52b4dc04","ios":"levelo://app?vid=c60e2749-bf10-4061-afe4-a4ec52b4dc04"},"vehicle_type_id":"4","last_reported":1766150774,"current_range_meters":9600,"station_id":"st_d4a3vfp97mjs738cd8kg","pricing_plan_id":"cebpf4jnsgd1na2vs0mg"},{"bike_id":"305412fd-41fd-4f48-b0ce-d25b5a7eb63f","system_id":"levelo_inurba_marseille","lat":43.34588,"lon":5.38194,"is_reserved":false,"is_disabled":false,"rental_uris":{"android":"levelo://app?vid=305412fd-41fd-4f48-b0ce-d25b5a7eb63f","ios":"levelo://app?vid=305412fd-41fd-4f48-b0ce-d25b5a7eb63f"},"vehicle_type_id":"4","last_reported":1766150774,"current_range_meters":10000,"station_id":"","pricing_plan_id":"cebpf4jnsgd1na2vs0mg"},{"bike_id":"4a4511f8-e03d-4104-bc90-a58fb016d12a","system_id":"levelo_inurba_marseille","lat":43.31123,"lon":5.37781,"is_reserved":false,"is_disabled":false,"rental_uris":{"android":"levelo://app?vid=4a4511f8-e03d-4104-bc90-a58fb016d12a","ios":"levelo://app?vid=4a4511f8-e03d-4104-bc90-a58fb016d12a"},"vehicle_type_id":"4","last_reported":1766150774,"current_range_meters":10000,"station_id":"ce4bgt92rcd13ifvqcg0","pricing_plan_id":"cebpf4jnsgd1na2vs0mg"},{"bike_id":"467de831-2f68-4e35-b5b7-2fd9784f5260","system_id":"levelo_inurba_marseille","lat":43.31412,"lon":5.36736,"is_reserved":false,"is_disabled":false,"rental_uris":{"android":"levelo://app?vid=467de831-2f68-4e35-b5b7-2fd9784f5260","ios":"levelo://app?vid=467de831-2f68-4e35-b5b7-2fd9784f5260"},"vehicle_type_id":"4","last_reported":1766150774,"current_range_meters":10000,"station_id":"ce4bgr92rcd13ifvqc6g","pricing_plan_id":"cebpf4jnsgd1na2vs0mg"},{"bike_id":"413557ff-13d9-40fb-81ee-6ad5e7d92bea","system_id":"levelo_inurba_marseille","lat":43.21176,"lon":5.35057,"is_reserved":false,"is_disabled":false,"rental_uris":{"android":"levelo://app?vid=413557ff-13d9-40fb-81ee-6ad5e7d92bea","ios":"levelo://app?vid=413557ff-13d9-40fb-81ee-6ad5e7d92bea"},"vehicle_type_id":"4","last_reported":1766150774,"current_range_meters":10000,"station_id":"st_cvj6sg6p6f1abm77japg","pricing_plan_id":"cebpf4jnsgd1na2vs0mg"},{"bike_id":"dfbce69e-f6e8-4b7d-b65d-85deba113350","system_id":"levelo_inurba_marseille","lat":43.282766,"lon":5.35075,"is_reserved":false,"is_disabled":false,"rental_uris":{"android":"levelo://app?vid=dfbce69e-f6e8-4b7d-b65d-85deba113350","ios":"levelo://app?vid=dfbce69e-f6e8-4b7d-b65d-85deba113350"},"vehicle_type_id":"4","last_reported":1766150774,"current_range_meters":10000,"station_id":"ce4bhbp2rcd13ifvqerg","pricing_plan_id":"cebpf4jnsgd1na2vs0mg"},{"bike_id":"212913cc-edbe-465e-9367-b63552bde39f","system_id":"levelo_inurba_marseille","lat":43.289993,"lon":5.356168,"is_reserved":false,"is_disabled":false,"rental_uris":{"android":"levelo://app?vid=212913cc-edbe-465e-9367-b63552bde39f","ios":"levelo://app?vid=212913cc-edbe-465e-9367-b63552bde39f"},"vehicle_type_id":"4","last_reported":1766150774,"current_range_meters":10000,"station_id":"ce4bhb92rcd13ifvqen0","pricing_plan_id":"cebpf4jnsgd1na2vs0mg"},{"bike_id":"eb2f1394-c905-4c3f-ac7f-96358134c3e2","system_id":"levelo_inurba_marseille","lat":43.29963,"lon":5.38502,"is_reserved":false,"is_disabled":false,"rental_uris":{"android":"levelo://app?vid=eb2f1394-c905-4c3f-ac7f-96358134c3e2","ios":"levelo://app?vid=eb2f1394-c905-4c3f-ac7f-96358134c3e2"},"vehicle_type_id":"4","last_reported":1766150774,"current_range_meters":10800,"station_id":"ce4bgj92rcd13ifvqbd0","pricing_plan_id":"cebpf4jnsgd1na2vs0mg"},{"bike_id":"8f4a549b-344a-4fc6-aab0-739441a53b76","system_id":"levelo_inurba_marseille","lat":43.31091,"lon":5.42433,"is_reserved":false,"is_disabled":false,"rental_uris":{"android":"levelo://app?vid=8f4a549b-344a-4fc6-aab0-739441a53b76","ios":"levelo://app?vid=8f4a549b-344a-4fc6-aab0-739441a53b76"},"vehicle_type_id":"4","last_reported":1766150774,"current_range_meters":10800,"station_id":"ce4bhp92rcd13ifvqhag","pricing_plan_id":"cebpf4jnsgd1na2vs0mg"},{"bike_id":"27c8e6be-d422-4208-903a-9bcccf07649a","system_id":"levelo_inurba_marseille","lat":43.30151,"lon":5.37393,"is_reserved":false,"is_disabled":false,"rental_uris":{"android":"levelo://app?vid=27c8e6be-d422-4208-903a-9bcccf07649a","ios":"levelo://app?vid=27c8e6be-d422-4208-903a-9bcccf07649a"},"vehicle_type_id":"4","last_reported":1766150774,"current_range_meters":10800,"station_id":"ce4bgs92rcd13ifvqcc0","pricing_plan_id":"cebpf4jnsgd1na2vs0mg"},{"bike_id":"28e7ea25-d676-49ca-8be6-ac1c19bc94ea","system_id":"levelo_inurba_marseille","lat":43.33445,"lon":5.40057,"is_reserved":false,"is_disabled":false,"rental_uris":{"android":"levelo://app?vid=28e7ea25-d676-49ca-8be6-ac1c19bc94ea","ios":"levelo://app?vid=28e7ea25-d676-49ca-8be6-ac1c19bc94ea"},"vehicle_type_id":"4","last_reported":1766150774,"current_range_meters":10800,"station_id":"","pricing_plan_id":"cebpf4jnsgd1na2vs0mg"},{"bike_id":"700442f5-a082-454e-8bc7-ab3bbb77bfce","system_id":"levelo_inurba_marseille","lat":43.26668,"lon":5.37465,"is_reserved":false,"is_disabled":false,"rental_uris":{"android":"levelo://app?vid=700442f5-a082-454e-8bc7-ab3bbb77bfce","ios":"levelo://app?vid=700442f5-a082-454e-8bc7-ab3bbb77bfce"},"vehicle_type_id":"4","last_reported":1766150774,"current_range_meters":10800,"station_id":"","pricing_plan_id":"cebpf4jnsgd1na2vs0mg"},{"bike_id":"76fb7a73-a5f9-4340-855e-fcbbe13e759a","system_id":"levelo_inurba_marseille","lat":43.3187,"lon":5.39991,"is_reserved":false,"is_disabled":false,"rental_uris":{"android":"levelo://app?vid=76fb7a73-a5f9-4340-855e-fcbbe13e759a","ios":"levelo://app?vid=76fb7a73-a5f9-4340-855e-fcbbe13e759a"},"vehicle_type_id":"4","last_reported":1766150774,"current_range_meters":11200,"station_id":"","pricing_plan_id":"cebpf4jnsgd1na2vs0mg"},{"bike_id":"5c1f0183-cbe5-4a9e-a493-d80ce3862cbd","system_id":"levelo_inurba_marseille","lat":43.32095,"lon":5.36794,"is_reserved":false,"is_disabled":false,"rental_uris":{"android":"levelo://app?vid=5c1f0183-cbe5-4a9e-a493-d80ce3862cbd","ios":"levelo://app?vid=5c1f0183-cbe5-4a9e-a493-d80ce3862cbd"},"vehicle_type_id":"4","last_reported":1766150774,"current_range_meters":11200,"station_id":"ce4bhrh2rcd13ifvqhug","pricing_plan_id":"cebpf4jnsgd1na2vs0mg"},{"bike_id":"221325bd-ec9a-4285-9407-f23495128f9a","system_id":"levelo_inurba_marseille","lat":43.29035,"lon":5.39975,"is_reserved":false,"is_disabled":false,"rental_uris":{"android":"levelo://app?vid=221325bd-ec9a-4285-9407-f23495128f9a","ios":"levelo://app?vid=221325bd-ec9a-4285-9407-f23495128f9a"},"vehicle_type_id":"4","last_reported":1766150774,"current_range_meters":11200,"station_id":"ce4bh392rcd13ifvqdm0","pricing_plan_id":"cebpf4jnsgd1na2vs0mg"},{"bike_id":"ecbf33d1-ea9e-4c73-86a0-bbf927870a65","system_id":"levelo_inurba_marseille","lat":43.32331,"lon":5.38493,"is_reserved":false,"is_disabled":false,"rental_uris":{"android":"levelo://app?vid=ecbf33d1-ea9e-4c73-86a0-bbf927870a65","ios":"levelo://app?vid=ecbf33d1-ea9e-4c73-86a0-bbf927870a65"},"vehicle_type_id":"4","last_reported":1766150774,"current_range_meters":11200,"station_id":"st_d45171o9ee8s73djdqug","pricing_plan_id":"cebpf4jnsgd1na2vs0mg"},{"bike_id":"945e7778-3526-442d-8b7b-13387b65d2c8","system_id":"levelo_inurba_marseille","lat":43.297856,"lon":5.380887,"is_reserved":false,"is_disabled":false,"rental_uris":{"android":"levelo://app?vid=945e7778-3526-442d-8b7b-13387b65d2c8","ios":"levelo://app?vid=945e7778-3526-442d-8b7b-13387b65d2c8"},"vehicle_type_id":"4","last_reported":1766150774,"current_range_meters":11200,"station_id":"ce4bgt12rcd13ifvqce0","pricing_plan_id":"cebpf4jnsgd1na2vs0mg"},{"bike_id":"c4abbaa3-7af7-4368-b98a-728d1f5349cc","system_id":"levelo_inurba_marseille","lat":43.25338,"lon":5.42175,"is_reserved":false,"is_disabled":false,"rental_uris":{"android":"levelo://app?vid=c4abbaa3-7af7-4368-b98a-728d1f5349cc","ios":"levelo://app?vid=c4abbaa3-7af7-4368-b98a-728d1f5349cc"},"vehicle_type_id":"4","last_reported":1766150774,"current_range_meters":11200,"station_id":"st_d2m65c5bi1j21697t3ng","pricing_plan_id":"cebpf4jnsgd1na2vs0mg"},{"bike_id":"bb1a4ad0-96cf-4976-b7ef-f710869ce918","system_id":"levelo_inurba_marseille","lat":43.25092,"lon":5.39509,"is_reserved":false,"is_disabled":false,"rental_uris":{"android":"levelo://app?vid=bb1a4ad0-96cf-4976-b7ef-f710869ce918","ios":"levelo://app?vid=bb1a4ad0-96cf-4976-b7ef-f710869ce918"},"vehicle_type_id":"4","last_reported":1766150774,"current_range_meters":11200,"station_id":"ce4bhm12rcd13ifvqgkg","pricing_plan_id":"cebpf4jnsgd1na2vs0mg"},{"bike_id":"80078d04-d65f-4f17-a175-7840a8c592ce","system_id":"levelo_inurba_marseille","lat":43.31057,"lon":5.37182,"is_reserved":false,"is_disabled":false,"rental_uris":{"android":"levelo://app?vid=80078d04-d65f-4f17-a175-7840a8c592ce","ios":"levelo://app?vid=80078d04-d65f-4f17-a175-7840a8c592ce"},"vehicle_type_id":"4","last_reported":1766150774,"current_range_meters":11200,"station_id":"st_d4kl2rp97mjs73e7tdfg","pricing_plan_id":"cebpf4jnsgd1na2vs0mg"},{"bike_id":"51850788-6d18-4067-a22e-183a3dbd8b5e","system_id":"levelo_inurba_marseille","lat":43.28628,"lon":5.35086,"is_reserved":false,"is_disabled":false,"rental_uris":{"android":"levelo://app?vid=51850788-6d18-4067-a22e-183a3dbd8b5e","ios":"levelo://app?vid=51850788-6d18-4067-a22e-183a3dbd8b5e"},"vehicle_type_id":"4","last_reported":1766150774,"current_range_meters":11200,"station_id":"ce4bhch2rcd13ifvqeug","pricing_plan_id":"cebpf4jnsgd1na2vs0mg"},{"bike_id":"689e1e25-96b9-418c-bbe1-0e8f9558c52f","system_id":"levelo_inurba_marseille","lat":43.31365,"lon":5.37709,"is_reserved":false,"is_disabled":false,"rental_uris":{"android":"levelo://app?vid=689e1e25-96b9-418c-bbe1-0e8f9558c52f","ios":"levelo://app?vid=689e1e25-96b9-418c-bbe1-0e8f9558c52f"},"vehicle_type_id":"4","last_reported":1766150774,"current_range_meters":11200,"station_id":"","pricing_plan_id":"cebpf4jnsgd1na2vs0mg"},{"bike_id":"63c18695-af2b-4d18-9fab-38837b20054e","system_id":"levelo_inurba_marseille","lat":43.26963,"lon":5.38639,"is_reserved":false,"is_disabled":false,"rental_uris":{"android":"levelo://app?vid=63c18695-af2b-4d18-9fab-38837b20054e","ios":"levelo://app?vid=63c18695-af2b-4d18-9fab-38837b20054e"},"vehicle_type_id":"4","last_reported":1766150774,"current_range_meters":11200,"station_id":"ce4bhh92rcd13ifvqfh0","pricing_plan_id":"cebpf4jnsgd1na2vs0mg"},{"bike_id":"5eceab28-0e44-47bf-b67e-ac79c4c34d62","system_id":"levelo_inurba_marseille","lat":43.28937,"lon":5.36389,"is_reserved":false,"is_disabled":false,"rental_uris":{"android":"levelo://app?vid=5eceab28-0e44-47bf-b67e-ac79c4c34d62","ios":"levelo://app?vid=5eceab28-0e44-47bf-b67e-ac79c4c34d62"},"vehicle_type_id":"4","last_reported":1766150774,"current_range_meters":11600,"station_id":"ce4bhc92rcd13ifvqetg","pricing_plan_id":"cebpf4jnsgd1na2vs0mg"},{"bike_id":"1c79eb29-135e-40c1-8651-901759d4aaa6","system_id":"levelo_inurba_marseille","lat":43.28564,"lon":5.35297,"is_reserved":false,"is_disabled":false,"rental_uris":{"android":"levelo://app?vid=1c79eb29-135e-40c1-8651-901759d4aaa6","ios":"levelo://app?vid=1c79eb29-135e-40c1-8651-901759d4aaa6"},"vehicle_type_id":"4","last_reported":1766150774,"current_range_meters":11600,"station_id":"","pricing_plan_id":"cebpf4jnsgd1na2vs0mg"},{"bike_id":"dcebbb45-765e-44b9-9596-1f8fdae0f25e","system_id":"levelo_inurba_marseille","lat":43.246488,"lon":5.388887,"is_reserved":false,"is_disabled":false,"rental_uris":{"android":"levelo://app?vid=dcebbb45-765e-44b9-9596-1f8fdae0f25e","ios":"levelo://app?vid=dcebbb45-765e-44b9-9596-1f8fdae0f25e"},"vehicle_type_id":"4","last_reported":1766150774,"current_range_meters":11600,"station_id":"ce4bhg12rcd13ifvqf60","pricing_plan_id":"cebpf4jnsgd1na2vs0mg"},{"bike_id":"545c4cd4-8ff2-4661-8441-b5febf6eec48","system_id":"levelo_inurba_marseille","lat":43.337444,"lon":5.374475,"is_reserved":false,"is_disabled":false,"rental_uris":{"android":"levelo://app?vid=545c4cd4-8ff2-4661-8441-b5febf6eec48","ios":"levelo://app?vid=545c4cd4-8ff2-4661-8441-b5febf6eec48"},"vehicle_type_id":"4","last_reported":1766150774,"current_range_meters":11600,"station_id":"cpo3342slgdg3j2ifvpg","pricing_plan_id":"cebpf4jnsgd1na2vs0mg"},{"bike_id":"8755d223-05e9-4114-9649-649ac4ae545a","system_id":"levelo_inurba_marseille","lat":43.28349,"lon":5.38103,"is_reserved":false,"is_disabled":false,"rental_uris":{"android":"levelo://app?vid=8755d223-05e9-4114-9649-649ac4ae545a","ios":"levelo://app?vid=8755d223-05e9-4114-9649-649ac4ae545a"},"vehicle_type_id":"4","last_reported":1766150774,"current_range_meters":11600,"station_id":"ce4bh412rcd13ifvqdr0","pricing_plan_id":"cebpf4jnsgd1na2vs0mg"},{"bike_id":"fdde03c4-f3c6-4562-b5d1-e681d3e4b56e","system_id":"levelo_inurba_marseille","lat":43.32367,"lon":5.36729,"is_reserved":false,"is_disabled":false,"rental_uris":{"android":"levelo://app?vid=fdde03c4-f3c6-4562-b5d1-e681d3e4b56e","ios":"levelo://app?vid=fdde03c4-f3c6-4562-b5d1-e681d3e4b56e"},"vehicle_type_id":"4","last_reported":1766150774,"current_range_meters":12000,"station_id":"ce4bhsh2rcd13ifvqi2g","pricing_plan_id":"cebpf4jnsgd1na2vs0mg"},{"bike_id":"47b454cd-01f9-4de3-b129-3f7a7abb6370","system_id":"levelo_inurba_marseille","lat":43.29225,"lon":5.36057,"is_reserved":false,"is_disabled":false,"rental_uris":{"android":"levelo://app?vid=47b454cd-01f9-4de3-b129-3f7a7abb6370","ios":"levelo://app?vid=47b454cd-01f9-4de3-b129-3f7a7abb6370"},"vehicle_type_id":"4","last_reported":1766150774,"current_range_meters":12000,"station_id":"ce4bhbh2rcd13ifvqeqg","pricing_plan_id":"cebpf4jnsgd1na2vs0mg"},{"bike_id":"29ff8d65-fbca-42c1-b12e-cd4dc579808a","system_id":"levelo_inurba_marseille","lat":43.30151,"lon":5.37407,"is_reserved":false,"is_disabled":false,"rental_uris":{"android":"levelo://app?vid=29ff8d65-fbca-42c1-b12e-cd4dc579808a","ios":"levelo://app?vid=29ff8d65-fbca-42c1-b12e-cd4dc579808a"},"vehicle_type_id":"4","last_reported":1766150774,"current_range_meters":12000,"station_id":"ce4bgs92rcd13ifvqcc0","pricing_plan_id":"cebpf4jnsgd1na2vs0mg"},{"bike_id":"353191d5-c85e-4d2b-8a88-8af8c037e499","system_id":"levelo_inurba_marseille","lat":43.30157,"lon":5.37411,"is_reserved":false,"is_disabled":false,"rental_uris":{"android":"levelo://app?vid=353191d5-c85e-4d2b-8a88-8af8c037e499","ios":"levelo://app?vid=353191d5-c85e-4d2b-8a88-8af8c037e499"},"vehicle_type_id":"4","last_reported":1766150774,"current_range_meters":12000,"station_id":"ce4bgs92rcd13ifvqcc0","pricing_plan_id":"cebpf4jnsgd1na2vs0mg"},{"bike_id":"e0effb5a-e8c9-4234-ae32-e89cc890b254","system_id":"levelo_inurba_marseille","lat":43.28874,"lon":5.42512,"is_reserved":false,"is_disabled":false,"rental_uris":{"android":"levelo://app?vid=e0effb5a-e8c9-4234-ae32-e89cc890b254","ios":"levelo://app?vid=e0effb5a-e8c9-4234-ae32-e89cc890b254"},"vehicle_type_id":"4","last_reported":1766150774,"current_range_meters":12000,"station_id":"st_d3b462108ojc7389ooeg","pricing_plan_id":"cebpf4jnsgd1na2vs0mg"},{"bike_id":"94b2df92-0862-4302-b7b8-3b94d0f2222a","system_id":"levelo_inurba_marseille","lat":43.31895,"lon":5.40737,"is_reserved":false,"is_disabled":false,"rental_uris":{"android":"levelo://app?vid=94b2df92-0862-4302-b7b8-3b94d0f2222a","ios":"levelo://app?vid=94b2df92-0862-4302-b7b8-3b94d0f2222a"},"vehicle_type_id":"4","last_reported":1766150774,"current_range_meters":12000,"station_id":"ce4bhq12rcd13ifvqhig","pricing_plan_id":"cebpf4jnsgd1na2vs0mg"},{"bike_id":"9059853e-cbe4-4135-a44d-2e6b73d8c077","system_id":"levelo_inurba_marseille","lat":43.29765,"lon":5.42782,"is_reserved":false,"is_disabled":false,"rental_uris":{"android":"levelo://app?vid=9059853e-cbe4-4135-a44d-2e6b73d8c077","ios":"levelo://app?vid=9059853e-cbe4-4135-a44d-2e6b73d8c077"},"vehicle_type_id":"4","last_reported":1766150774,"current_range_meters":12000,"station_id":"st_d3md5207bmas73dh9klg","pricing_plan_id":"cebpf4jnsgd1na2vs0mg"},{"bike_id":"507acc6e-20f1-4034-a983-ebad9661ecff","system_id":"levelo_inurba_marseille","lat":43.28463,"lon":5.35887,"is_reserved":false,"is_disabled":false,"rental_uris":{"android":"levelo://app?vid=507acc6e-20f1-4034-a983-ebad9661ecff","ios":"levelo://app?vid=507acc6e-20f1-4034-a983-ebad9661ecff"},"vehicle_type_id":"4","last_reported":1766150774,"current_range_meters":12000,"station_id":"ce4bhah2rcd13ifvqei0","pricing_plan_id":"cebpf4jnsgd1na2vs0mg"},{"bike_id":"67d835a6-21e4-471b-bcce-6e8b660c295a","system_id":"levelo_inurba_marseille","lat":43.28612,"lon":5.35109,"is_reserved":false,"is_disabled":false,"rental_uris":{"android":"levelo://app?vid=67d835a6-21e4-471b-bcce-6e8b660c295a","ios":"levelo://app?vid=67d835a6-21e4-471b-bcce-6e8b660c295a"},"vehicle_type_id":"4","last_reported":1766150774,"current_range_meters":12000,"station_id":"ce4bhch2rcd13ifvqeug","pricing_plan_id":"cebpf4jnsgd1na2vs0mg"},{"bike_id":"24df08af-7a2c-4580-b263-bcb3f62d73e3","system_id":"levelo_inurba_marseille","lat":43.2447,"lon":5.42541,"is_reserved":false,"is_disabled":false,"rental_uris":{"android":"levelo://app?vid=24df08af-7a2c-4580-b263-bcb3f62d73e3","ios":"levelo://app?vid=24df08af-7a2c-4580-b263-bcb3f62d73e3"},"vehicle_type_id":"4","last_reported":1766150774,"current_range_meters":12000,"station_id":"st_d4a3vfp97mjs738cd8kg","pricing_plan_id":"cebpf4jnsgd1na2vs0mg"},{"bike_id":"12ddb4c5-9a4d-4a0b-8db4-6d16d71da3e9","system_id":"levelo_inurba_marseille","lat":43.28746,"lon":5.352184,"is_reserved":false,"is_disabled":true,"rental_uris":{"android":"levelo://app?vid=12ddb4c5-9a4d-4a0b-8db4-6d16d71da3e9","ios":"levelo://app?vid=12ddb4c5-9a4d-4a0b-8db4-6d16d71da3e9"},"vehicle_type_id":"4","last_reported":1766150774,"current_range_meters":12400,"station_id":"","pricing_plan_id":"cebpf4jnsgd1na2vs0mg"},{"bike_id":"fcae12e9-dde1-430e-95a7-f5567d679aa5","system_id":"levelo_inurba_marseille","lat":43.29259,"lon":5.38432,"is_reserved":false,"is_disabled":true,"rental_uris":{"android":"levelo://app?vid=fcae12e9-dde1-430e-95a7-f5567d679aa5","ios":"levelo://app?vid=fcae12e9-dde1-430e-95a7-f5567d679aa5"},"vehicle_type_id":"4","last_reported":1766150774,"current_range_meters":12400,"station_id":"ce4bh692rcd13ifvqea0","pricing_plan_id":"cebpf4jnsgd1na2vs0mg"},{"bike_id":"eace70d9-abc4-463e-ad30-564a1fb2f71d","system_id":"levelo_inurba_marseille","lat":43.2587,"lon":5.39897,"is_reserved":false,"is_disabled":false,"rental_uris":{"android":"levelo://app?vid=eace70d9-abc4-463e-ad30-564a1fb2f71d","ios":"levelo://app?vid=eace70d9-abc4-463e-ad30-564a1fb2f71d"},"vehicle_type_id":"4","last_reported":1766150774,"current_range_meters":12400,"station_id":"ce4bhl92rcd13ifvqghg","pricing_plan_id":"cebpf4jnsgd1na2vs0mg"},{"bike_id":"128f68df-e6c8-471d-bf6e-3a9c347712de","system_id":"levelo_inurba_marseille","lat":43.29234,"lon":5.40898,"is_reserved":false,"is_disabled":false,"rental_uris":{"android":"levelo://app?vid=128f68df-e6c8-471d-bf6e-3a9c347712de","ios":"levelo://app?vid=128f68df-e6c8-471d-bf6e-3a9c347712de"},"vehicle_type_id":"4","last_reported":1766150774,"current_range_meters":12400,"station_id":"ce4bh192rcd13ifvqdc0","pricing_plan_id":"cebpf4jnsgd1na2vs0mg"},{"bike_id":"d4019682-44c3-455d-93b8-3f5cb1951937","system_id":"levelo_inurba_marseille","lat":43.2621,"lon":5.37444,"is_reserved":false,"is_disabled":false,"rental_uris":{"android":"levelo://app?vid=d4019682-44c3-455d-93b8-3f5cb1951937","ios":"levelo://app?vid=d4019682-44c3-455d-93b8-3f5cb1951937"},"vehicle_type_id":"4","last_reported":1766150774,"current_range_meters":12400,"station_id":"ce4bhgp2rcd13ifvqfc0","pricing_plan_id":"cebpf4jnsgd1na2vs0mg"},{"bike_id":"06748b7c-eda5-4a8f-b18e-dbd677cb729d","system_id":"levelo_inurba_marseille","lat":43.30151,"lon":5.37411,"is_reserved":false,"is_disabled":false,"rental_uris":{"android":"levelo://app?vid=06748b7c-eda5-4a8f-b18e-dbd677cb729d","ios":"levelo://app?vid=06748b7c-eda5-4a8f-b18e-dbd677cb729d"},"vehicle_type_id":"4","last_reported":1766150774,"current_range_meters":12400,"station_id":"ce4bgs92rcd13ifvqcc0","pricing_plan_id":"cebpf4jnsgd1na2vs0mg"},{"bike_id":"05ed3cd5-5916-4223-9962-6a5ab1064540","system_id":"levelo_inurba_marseille","lat":43.30592,"lon":5.39346,"is_reserved":false,"is_disabled":false,"rental_uris":{"android":"levelo://app?vid=05ed3cd5-5916-4223-9962-6a5ab1064540","ios":"levelo://app?vid=05ed3cd5-5916-4223-9962-6a5ab1064540"},"vehicle_type_id":"4","last_reported":1766150774,"current_range_meters":12400,"station_id":"ce4bh0p2rcd13ifvqd80","pricing_plan_id":"cebpf4jnsgd1na2vs0mg"},{"bike_id":"d54651ee-52a6-40c2-8c73-798568414042","system_id":"levelo_inurba_marseille","lat":43.30152,"lon":5.38085,"is_reserved":false,"is_disabled":false,"rental_uris":{"android":"levelo://app?vid=d54651ee-52a6-40c2-8c73-798568414042","ios":"levelo://app?vid=d54651ee-52a6-40c2-8c73-798568414042"},"vehicle_type_id":"4","last_reported":1766150774,"current_range_meters":12400,"station_id":"ce4bgjp2rcd13ifvqbh0","pricing_plan_id":"cebpf4jnsgd1na2vs0mg"},{"bike_id":"1d7a2ca0-8161-4459-b5d5-06113213bda9","system_id":"levelo_inurba_marseille","lat":43.23191,"lon":5.35563,"is_reserved":false,"is_disabled":false,"rental_uris":{"android":"levelo://app?vid=1d7a2ca0-8161-4459-b5d5-06113213bda9","ios":"levelo://app?vid=1d7a2ca0-8161-4459-b5d5-06113213bda9"},"vehicle_type_id":"4","last_reported":1766150774,"current_range_meters":12400,"station_id":"ce4bhu92rcd13ifvqi70","pricing_plan_id":"cebpf4jnsgd1na2vs0mg"},{"bike_id":"02cb24cc-e062-4b73-80fd-141f91a697f7","system_id":"levelo_inurba_marseille","lat":43.31567,"lon":5.37653,"is_reserved":false,"is_disabled":false,"rental_uris":{"android":"levelo://app?vid=02cb24cc-e062-4b73-80fd-141f91a697f7","ios":"levelo://app?vid=02cb24cc-e062-4b73-80fd-141f91a697f7"},"vehicle_type_id":"4","last_reported":1766150774,"current_range_meters":12400,"station_id":"","pricing_plan_id":"cebpf4jnsgd1na2vs0mg"},{"bike_id":"d3fcd822-177c-4652-bd1b-c4847def5cc0","system_id":"levelo_inurba_marseille","lat":43.306482,"lon":5.400783,"is_reserved":false,"is_disabled":false,"rental_uris":{"android":"levelo://app?vid=d3fcd822-177c-4652-bd1b-c4847def5cc0","ios":"levelo://app?vid=d3fcd822-177c-4652-bd1b-c4847def5cc0"},"vehicle_type_id":"4","last_reported":1766150774,"current_range_meters":12800,"station_id":"ce4bh112rcd13ifvqda0","pricing_plan_id":"cebpf4jnsgd1na2vs0mg"},{"bike_id":"00a29bb1-88ca-440d-9219-07d673c689ed","system_id":"levelo_inurba_marseille","lat":43.29825,"lon":5.36274,"is_reserved":false,"is_disabled":false,"rental_uris":{"android":"levelo://app?vid=00a29bb1-88ca-440d-9219-07d673c689ed","ios":"levelo://app?vid=00a29bb1-88ca-440d-9219-07d673c689ed"},"vehicle_type_id":"4","last_reported":1766150774,"current_range_meters":12800,"station_id":"ce4bgpp2rcd13ifvqc3g","pricing_plan_id":"cebpf4jnsgd1na2vs0mg"},{"bike_id":"67486f1b-a40b-4e91-8dc3-2d661fa8d1bb","system_id":"levelo_inurba_marseille","lat":43.29219,"lon":5.36073,"is_reserved":false,"is_disabled":false,"rental_uris":{"android":"levelo://app?vid=67486f1b-a40b-4e91-8dc3-2d661fa8d1bb","ios":"levelo://app?vid=67486f1b-a40b-4e91-8dc3-2d661fa8d1bb"},"vehicle_type_id":"4","last_reported":1766150774,"current_range_meters":12800,"station_id":"ce4bhbh2rcd13ifvqeqg","pricing_plan_id":"cebpf4jnsgd1na2vs0mg"},{"bike_id":"2804a5d3-faa8-4e3b-a458-ce91cd4919af","system_id":"levelo_inurba_marseille","lat":43.29224,"lon":5.36068,"is_reserved":false,"is_disabled":false,"rental_uris":{"android":"levelo://app?vid=2804a5d3-faa8-4e3b-a458-ce91cd4919af","ios":"levelo://app?vid=2804a5d3-faa8-4e3b-a458-ce91cd4919af"},"vehicle_type_id":"4","last_reported":1766150774,"current_range_meters":12800,"station_id":"ce4bhbh2rcd13ifvqeqg","pricing_plan_id":"cebpf4jnsgd1na2vs0mg"},{"bike_id":"d67904e3-d432-4bb6-9c59-13ac7cead46a","system_id":"levelo_inurba_marseille","lat":43.3236,"lon":5.3676,"is_reserved":false,"is_disabled":false,"rental_uris":{"android":"levelo://app?vid=d67904e3-d432-4bb6-9c59-13ac7cead46a","ios":"levelo://app?vid=d67904e3-d432-4bb6-9c59-13ac7cead46a"},"vehicle_type_id":"4","last_reported":1766150774,"current_range_meters":12800,"station_id":"ce4bhsh2rcd13ifvqi2g","pricing_plan_id":"cebpf4jnsgd1na2vs0mg"},{"bike_id":"0e831b8a-ba65-4401-84c3-afd3e8869534","system_id":"levelo_inurba_marseille","lat":43.29618,"lon":5.37156,"is_reserved":false,"is_disabled":false,"rental_uris":{"android":"levelo://app?vid=0e831b8a-ba65-4401-84c3-afd3e8869534","ios":"levelo://app?vid=0e831b8a-ba65-4401-84c3-afd3e8869534"},"vehicle_type_id":"4","last_reported":1766150774,"current_range_meters":12800,"station_id":"ce4bgnh2rcd13ifvqc0g","pricing_plan_id":"cebpf4jnsgd1na2vs0mg"},{"bike_id":"6ec9a6be-eed9-4adb-a34f-9a64c85ea37b","system_id":"levelo_inurba_marseille","lat":43.3061,"lon":5.37573,"is_reserved":false,"is_disabled":false,"rental_uris":{"android":"levelo://app?vid=6ec9a6be-eed9-4adb-a34f-9a64c85ea37b","ios":"levelo://app?vid=6ec9a6be-eed9-4adb-a34f-9a64c85ea37b"},"vehicle_type_id":"4","last_reported":1766150774,"current_range_meters":12800,"station_id":"","pricing_plan_id":"cebpf4jnsgd1na2vs0mg"},{"bike_id":"78527fb6-e0b5-4d87-bb25-acbf16f9fd80","system_id":"levelo_inurba_marseille","lat":43.231841,"lon":5.399868,"is_reserved":false,"is_disabled":false,"rental_uris":{"android":"levelo://app?vid=78527fb6-e0b5-4d87-bb25-acbf16f9fd80","ios":"levelo://app?vid=78527fb6-e0b5-4d87-bb25-acbf16f9fd80"},"vehicle_type_id":"4","last_reported":1766150774,"current_range_meters":12800,"station_id":"ce4bhn12rcd13ifvqgqg","pricing_plan_id":"cebpf4jnsgd1na2vs0mg"},{"bike_id":"7d04a59d-052f-40a7-8094-4edf07c71710","system_id":"levelo_inurba_marseille","lat":43.28614,"lon":5.35106,"is_reserved":false,"is_disabled":false,"rental_uris":{"android":"levelo://app?vid=7d04a59d-052f-40a7-8094-4edf07c71710","ios":"levelo://app?vid=7d04a59d-052f-40a7-8094-4edf07c71710"},"vehicle_type_id":"4","last_reported":1766150774,"current_range_meters":13600,"station_id":"ce4bhch2rcd13ifvqeug","pricing_plan_id":"cebpf4jnsgd1na2vs0mg"},{"bike_id":"dcf784f4-8fb6-484a-a880-b53a6c3cae38","system_id":"levelo_inurba_marseille","lat":43.2447,"lon":5.42529,"is_reserved":false,"is_disabled":false,"rental_uris":{"android":"levelo://app?vid=dcf784f4-8fb6-484a-a880-b53a6c3cae38","ios":"levelo://app?vid=dcf784f4-8fb6-484a-a880-b53a6c3cae38"},"vehicle_type_id":"4","last_reported":1766150774,"current_range_meters":13600,"station_id":"st_d4a3vfp97mjs738cd8kg","pricing_plan_id":"cebpf4jnsgd1na2vs0mg"},{"bike_id":"342831ac-e927-49d6-8b43-22fa72e5bef8","system_id":"levelo_inurba_marseille","lat":43.28025,"lon":5.38745,"is_reserved":false,"is_disabled":false,"rental_uris":{"android":"levelo://app?vid=342831ac-e927-49d6-8b43-22fa72e5bef8","ios":"levelo://app?vid=342831ac-e927-49d6-8b43-22fa72e5bef8"},"vehicle_type_id":"4","last_reported":1766150774,"current_range_meters":13600,"station_id":"","pricing_plan_id":"cebpf4jnsgd1na2vs0mg"},{"bike_id":"14251d14-b599-400f-a188-8fa1e91609a3","system_id":"levelo_inurba_marseille","lat":43.29896,"lon":5.38144,"is_reserved":false,"is_disabled":false,"rental_uris":{"android":"levelo://app?vid=14251d14-b599-400f-a188-8fa1e91609a3","ios":"levelo://app?vid=14251d14-b599-400f-a188-8fa1e91609a3"},"vehicle_type_id":"4","last_reported":1766150774,"current_range_meters":13600,"station_id":"ce4bgj12rcd13ifvqbc0","pricing_plan_id":"cebpf4jnsgd1na2vs0mg"},{"bike_id":"17e6a6d7-a83e-4be6-ac4f-a147c0b56fba","system_id":"levelo_inurba_marseille","lat":43.23792,"lon":5.36632,"is_reserved":false,"is_disabled":false,"rental_uris":{"android":"levelo://app?vid=17e6a6d7-a83e-4be6-ac4f-a147c0b56fba","ios":"levelo://app?vid=17e6a6d7-a83e-4be6-ac4f-a147c0b56fba"},"vehicle_type_id":"4","last_reported":1766150774,"current_range_meters":13600,"station_id":"st_d3nk18o9ro0c73en2l3g","pricing_plan_id":"cebpf4jnsgd1na2vs0mg"},{"bike_id":"c76b9112-70ae-49df-ba3c-1f6392709988","system_id":"levelo_inurba_marseille","lat":43.26801,"lon":5.39445,"is_reserved":false,"is_disabled":false,"rental_uris":{"android":"levelo://app?vid=c76b9112-70ae-49df-ba3c-1f6392709988","ios":"levelo://app?vid=c76b9112-70ae-49df-ba3c-1f6392709988"},"vehicle_type_id":"4","last_reported":1766150774,"current_range_meters":13600,"station_id":"ce4bhh12rcd13ifvqfg0","pricing_plan_id":"cebpf4jnsgd1na2vs0mg"},{"bike_id":"fcd75001-1344-42ec-a013-2f4c6240ace8","system_id":"levelo_inurba_marseille","lat":43.2978,"lon":5.38664,"is_reserved":false,"is_disabled":false,"rental_uris":{"android":"levelo://app?vid=fcd75001-1344-42ec-a013-2f4c6240ace8","ios":"levelo://app?vid=fcd75001-1344-42ec-a013-2f4c6240ace8"},"vehicle_type_id":"4","last_reported":1766150774,"current_range_meters":14000,"station_id":"","pricing_plan_id":"cebpf4jnsgd1na2vs0mg"},{"bike_id":"ffdcd8d1-6d2a-445e-821a-8a5cdebedd77","system_id":"levelo_inurba_marseille","lat":43.246577,"lon":5.381716,"is_reserved":false,"is_disabled":false,"rental_uris":{"android":"levelo://app?vid=ffdcd8d1-6d2a-445e-821a-8a5cdebedd77","ios":"levelo://app?vid=ffdcd8d1-6d2a-445e-821a-8a5cdebedd77"},"vehicle_type_id":"4","last_reported":1766150774,"current_range_meters":14000,"station_id":"ce4bhg12rcd13ifvqf60","pricing_plan_id":"cebpf4jnsgd1na2vs0mg"},{"bike_id":"207776d7-b88e-48a6-b74f-2b1aae5e54c7","system_id":"levelo_inurba_marseille","lat":43.268961,"lon":5.387159,"is_reserved":false,"is_disabled":false,"rental_uris":{"android":"levelo://app?vid=207776d7-b88e-48a6-b74f-2b1aae5e54c7","ios":"levelo://app?vid=207776d7-b88e-48a6-b74f-2b1aae5e54c7"},"vehicle_type_id":"4","last_reported":1766150774,"current_range_meters":14000,"station_id":"","pricing_plan_id":"cebpf4jnsgd1na2vs0mg"},{"bike_id":"6dd02831-3476-40a3-9648-da8b220f9ce0","system_id":"levelo_inurba_marseille","lat":43.3017,"lon":5.38101,"is_reserved":false,"is_disabled":false,"rental_uris":{"android":"levelo://app?vid=6dd02831-3476-40a3-9648-da8b220f9ce0","ios":"levelo://app?vid=6dd02831-3476-40a3-9648-da8b220f9ce0"},"vehicle_type_id":"4","last_reported":1766150774,"current_range_meters":14000,"station_id":"ce4bgjp2rcd13ifvqbh0","pricing_plan_id":"cebpf4jnsgd1na2vs0mg"},{"bike_id":"bb67b255-5e37-444f-b7a3-316dd67e2430","system_id":"levelo_inurba_marseille","lat":43.29177,"lon":5.35789,"is_reserved":false,"is_disabled":false,"rental_uris":{"android":"levelo://app?vid=bb67b255-5e37-444f-b7a3-316dd67e2430","ios":"levelo://app?vid=bb67b255-5e37-444f-b7a3-316dd67e2430"},"vehicle_type_id":"4","last_reported":1766150774,"current_range_meters":14000,"station_id":"ce4bgh92rcd13ifvqb40","pricing_plan_id":"cebpf4jnsgd1na2vs0mg"},{"bike_id":"8ddf5f0b-8638-4227-b0ee-efe27c023df6","system_id":"levelo_inurba_marseille","lat":43.308014,"lon":5.381433,"is_reserved":false,"is_disabled":false,"rental_uris":{"android":"levelo://app?vid=8ddf5f0b-8638-4227-b0ee-efe27c023df6","ios":"levelo://app?vid=8ddf5f0b-8638-4227-b0ee-efe27c023df6"},"vehicle_type_id":"4","last_reported":1766150774,"current_range_meters":14000,"station_id":"ce4bgjp2rcd13ifvqbh0","pricing_plan_id":"cebpf4jnsgd1na2vs0mg"},{"bike_id":"657677ff-bd0f-45b9-a985-0cee09b5fde2","system_id":"levelo_inurba_marseille","lat":43.31701,"lon":5.43702,"is_reserved":false,"is_disabled":false,"rental_uris":{"android":"levelo://app?vid=657677ff-bd0f-45b9-a985-0cee09b5fde2","ios":"levelo://app?vid=657677ff-bd0f-45b9-a985-0cee09b5fde2"},"vehicle_type_id":"4","last_reported":1766150774,"current_range_meters":14000,"station_id":"ce4bhp92rcd13ifvqhcg","pricing_plan_id":"cebpf4jnsgd1na2vs0mg"},{"bike_id":"5cfdf108-64c2-4b38-8628-9d012576cd8b","system_id":"levelo_inurba_marseille","lat":43.335405,"lon":5.374705,"is_reserved":false,"is_disabled":false,"rental_uris":{"android":"levelo://app?vid=5cfdf108-64c2-4b38-8628-9d012576cd8b","ios":"levelo://app?vid=5cfdf108-64c2-4b38-8628-9d012576cd8b"},"vehicle_type_id":"4","last_reported":1766150774,"current_range_meters":14000,"station_id":"st_d46tts09ee8s73dlu43g","pricing_plan_id":"cebpf4jnsgd1na2vs0mg"},{"bike_id":"f1c6ef30-df40-4531-b632-19b3b8de3f93","system_id":"levelo_inurba_marseille","lat":43.337444,"lon":5.374475,"is_reserved":false,"is_disabled":false,"rental_uris":{"android":"levelo://app?vid=f1c6ef30-df40-4531-b632-19b3b8de3f93","ios":"levelo://app?vid=f1c6ef30-df40-4531-b632-19b3b8de3f93"},"vehicle_type_id":"4","last_reported":1766150774,"current_range_meters":14400,"station_id":"","pricing_plan_id":"cebpf4jnsgd1na2vs0mg"},{"bike_id":"3632f2ab-b221-4863-b774-2c55ea753df5","system_id":"levelo_inurba_marseille","lat":43.29808,"lon":5.38054,"is_reserved":false,"is_disabled":false,"rental_uris":{"android":"levelo://app?vid=3632f2ab-b221-4863-b774-2c55ea753df5","ios":"levelo://app?vid=3632f2ab-b221-4863-b774-2c55ea753df5"},"vehicle_type_id":"4","last_reported":1766150774,"current_range_meters":14400,"station_id":"","pricing_plan_id":"cebpf4jnsgd1na2vs0mg"},{"bike_id":"572d18d1-388e-446b-b652-a351df440543","system_id":"levelo_inurba_marseille","lat":43.29983,"lon":5.38505,"is_reserved":false,"is_disabled":false,"rental_uris":{"android":"levelo://app?vid=572d18d1-388e-446b-b652-a351df440543","ios":"levelo://app?vid=572d18d1-388e-446b-b652-a351df440543"},"vehicle_type_id":"4","last_reported":1766150774,"current_range_meters":14400,"station_id":"ce4bgj92rcd13ifvqbd0","pricing_plan_id":"cebpf4jnsgd1na2vs0mg"},{"bike_id":"5dc013a0-6d5f-425a-8554-3da4042bc007","system_id":"levelo_inurba_marseille","lat":43.22923,"lon":5.35369,"is_reserved":false,"is_disabled":false,"rental_uris":{"android":"levelo://app?vid=5dc013a0-6d5f-425a-8554-3da4042bc007","ios":"levelo://app?vid=5dc013a0-6d5f-425a-8554-3da4042bc007"},"vehicle_type_id":"4","last_reported":1766150774,"current_range_meters":14400,"station_id":"cpo3532slgdg3j2ikp40","pricing_plan_id":"cebpf4jnsgd1na2vs0mg"},{"bike_id":"0d9297ce-f2d0-4d3a-b34b-40c0d18a1dd9","system_id":"levelo_inurba_marseille","lat":43.22925,"lon":5.353774,"is_reserved":false,"is_disabled":true,"rental_uris":{"android":"levelo://app?vid=0d9297ce-f2d0-4d3a-b34b-40c0d18a1dd9","ios":"levelo://app?vid=0d9297ce-f2d0-4d3a-b34b-40c0d18a1dd9"},"vehicle_type_id":"4","last_reported":1766150774,"current_range_meters":14400,"station_id":"cpo3532slgdg3j2ikp40","pricing_plan_id":"cebpf4jnsgd1na2vs0mg"},{"bike_id":"305ed03b-15ad-425e-810c-5ccb0dbadc90","system_id":"levelo_inurba_marseille","lat":43.30199,"lon":5.37406,"is_reserved":false,"is_disabled":false,"rental_uris":{"android":"levelo://app?vid=305ed03b-15ad-425e-810c-5ccb0dbadc90","ios":"levelo://app?vid=305ed03b-15ad-425e-810c-5ccb0dbadc90"},"vehicle_type_id":"4","last_reported":1766150774,"current_range_meters":14400,"station_id":"ce4bgs92rcd13ifvqcc0","pricing_plan_id":"cebpf4jnsgd1na2vs0mg"},{"bike_id":"aa8be09f-7ae6-49cc-a1d3-ad9b024bba3d","system_id":"levelo_inurba_marseille","lat":43.29559,"lon":5.42282,"is_reserved":false,"is_disabled":false,"rental_uris":{"android":"levelo://app?vid=aa8be09f-7ae6-49cc-a1d3-ad9b024bba3d","ios":"levelo://app?vid=aa8be09f-7ae6-49cc-a1d3-ad9b024bba3d"},"vehicle_type_id":"4","last_reported":1766150774,"current_range_meters":14400,"station_id":"ce4bhph2rcd13ifvqhdg","pricing_plan_id":"cebpf4jnsgd1na2vs0mg"},{"bike_id":"193dde23-059f-4b62-bdb9-9a88c87e88d2","system_id":"levelo_inurba_marseille","lat":43.29626,"lon":5.40595,"is_reserved":false,"is_disabled":false,"rental_uris":{"android":"levelo://app?vid=193dde23-059f-4b62-bdb9-9a88c87e88d2","ios":"levelo://app?vid=193dde23-059f-4b62-bdb9-9a88c87e88d2"},"vehicle_type_id":"4","last_reported":1766150774,"current_range_meters":14400,"station_id":"ce4bh0h2rcd13ifvqd60","pricing_plan_id":"cebpf4jnsgd1na2vs0mg"},{"bike_id":"e8b68253-44c0-4693-aa5c-510214b59dcd","system_id":"levelo_inurba_marseille","lat":43.29573,"lon":5.37511,"is_reserved":false,"is_disabled":false,"rental_uris":{"android":"levelo://app?vid=e8b68253-44c0-4693-aa5c-510214b59dcd","ios":"levelo://app?vid=e8b68253-44c0-4693-aa5c-510214b59dcd"},"vehicle_type_id":"4","last_reported":1766150774,"current_range_meters":14400,"station_id":"ce4bgh92rcd13ifvqb50","pricing_plan_id":"cebpf4jnsgd1na2vs0mg"},{"bike_id":"e45fc750-a40f-4470-9f2d-3ae9abaa3c0d","system_id":"levelo_inurba_marseille","lat":43.28441,"lon":5.39207,"is_reserved":false,"is_disabled":false,"rental_uris":{"android":"levelo://app?vid=e45fc750-a40f-4470-9f2d-3ae9abaa3c0d","ios":"levelo://app?vid=e45fc750-a40f-4470-9f2d-3ae9abaa3c0d"},"vehicle_type_id":"4","last_reported":1766150774,"current_range_meters":14400,"station_id":"ce4bhoh2rcd13ifvqh5g","pricing_plan_id":"cebpf4jnsgd1na2vs0mg"},{"bike_id":"62f5c004-1e9f-4d5e-afaa-33b08a7310d9","system_id":"levelo_inurba_marseille","lat":43.273664,"lon":5.393144,"is_reserved":false,"is_disabled":false,"rental_uris":{"android":"levelo://app?vid=62f5c004-1e9f-4d5e-afaa-33b08a7310d9","ios":"levelo://app?vid=62f5c004-1e9f-4d5e-afaa-33b08a7310d9"},"vehicle_type_id":"4","last_reported":1766150774,"current_range_meters":14800,"station_id":"","pricing_plan_id":"cebpf4jnsgd1na2vs0mg"},{"bike_id":"99ad97c1-5a83-4b1c-9cf1-08492f7d7210","system_id":"levelo_inurba_marseille","lat":43.29249,"lon":5.409,"is_reserved":false,"is_disabled":false,"rental_uris":{"android":"levelo://app?vid=99ad97c1-5a83-4b1c-9cf1-08492f7d7210","ios":"levelo://app?vid=99ad97c1-5a83-4b1c-9cf1-08492f7d7210"},"vehicle_type_id":"4","last_reported":1766150774,"current_range_meters":14800,"station_id":"ce4bh192rcd13ifvqdc0","pricing_plan_id":"cebpf4jnsgd1na2vs0mg"},{"bike_id":"bcb638ec-1f7a-45bb-913f-62a7a0a453a1","system_id":"levelo_inurba_marseille","lat":43.29826,"lon":5.38583,"is_reserved":false,"is_disabled":false,"rental_uris":{"android":"levelo://app?vid=bcb638ec-1f7a-45bb-913f-62a7a0a453a1","ios":"levelo://app?vid=bcb638ec-1f7a-45bb-913f-62a7a0a453a1"},"vehicle_type_id":"4","last_reported":1766150774,"current_range_meters":14800,"station_id":"","pricing_plan_id":"cebpf4jnsgd1na2vs0mg"},{"bike_id":"aed44b94-9da3-4d3c-a739-39b49164f988","system_id":"levelo_inurba_marseille","lat":43.27065,"lon":5.42274,"is_reserved":false,"is_disabled":false,"rental_uris":{"android":"levelo://app?vid=aed44b94-9da3-4d3c-a739-39b49164f988","ios":"levelo://app?vid=aed44b94-9da3-4d3c-a739-39b49164f988"},"vehicle_type_id":"4","last_reported":1766150774,"current_range_meters":14800,"station_id":"ce4bhk92rcd13ifvqgb0","pricing_plan_id":"cebpf4jnsgd1na2vs0mg"},{"bike_id":"0d303fc7-606f-4943-9629-57c31a744736","system_id":"levelo_inurba_marseille","lat":43.28531,"lon":5.44095,"is_reserved":false,"is_disabled":false,"rental_uris":{"android":"levelo://app?vid=0d303fc7-606f-4943-9629-57c31a744736","ios":"levelo://app?vid=0d303fc7-606f-4943-9629-57c31a744736"},"vehicle_type_id":"4","last_reported":1766150774,"current_range_meters":14800,"station_id":"st_d3j3df2ikq2c7380ej80","pricing_plan_id":"cebpf4jnsgd1na2vs0mg"},{"bike_id":"b3209cad-600b-4d77-a062-3b110acc5940","system_id":"levelo_inurba_marseille","lat":43.337165,"lon":5.39186,"is_reserved":false,"is_disabled":false,"rental_uris":{"android":"levelo://app?vid=b3209cad-600b-4d77-a062-3b110acc5940","ios":"levelo://app?vid=b3209cad-600b-4d77-a062-3b110acc5940"},"vehicle_type_id":"4","last_reported":1766150774,"current_range_meters":14800,"station_id":"","pricing_plan_id":"cebpf4jnsgd1na2vs0mg"},{"bike_id":"80e8783e-3db0-4d29-8267-328078fe1a78","system_id":"levelo_inurba_marseille","lat":43.25058,"lon":5.3949,"is_reserved":false,"is_disabled":false,"rental_uris":{"android":"levelo://app?vid=80e8783e-3db0-4d29-8267-328078fe1a78","ios":"levelo://app?vid=80e8783e-3db0-4d29-8267-328078fe1a78"},"vehicle_type_id":"4","last_reported":1766150774,"current_range_meters":14800,"station_id":"ce4bhm12rcd13ifvqgkg","pricing_plan_id":"cebpf4jnsgd1na2vs0mg"},{"bike_id":"ca146c2e-28d6-4f35-80b1-efb3bde5d07a","system_id":"levelo_inurba_marseille","lat":43.26545,"lon":5.37286,"is_reserved":false,"is_disabled":false,"rental_uris":{"android":"levelo://app?vid=ca146c2e-28d6-4f35-80b1-efb3bde5d07a","ios":"levelo://app?vid=ca146c2e-28d6-4f35-80b1-efb3bde5d07a"},"vehicle_type_id":"4","last_reported":1766150774,"current_range_meters":14800,"station_id":"ce4bhg12rcd13ifvqf70","pricing_plan_id":"cebpf4jnsgd1na2vs0mg"},{"bike_id":"9db9525b-b8b9-4be1-b8a6-eba8fccfec66","system_id":"levelo_inurba_marseille","lat":43.253249,"lon":5.421721,"is_reserved":false,"is_disabled":false,"rental_uris":{"android":"levelo://app?vid=9db9525b-b8b9-4be1-b8a6-eba8fccfec66","ios":"levelo://app?vid=9db9525b-b8b9-4be1-b8a6-eba8fccfec66"},"vehicle_type_id":"4","last_reported":1766150774,"current_range_meters":14800,"station_id":"st_d2m65c5bi1j21697t3ng","pricing_plan_id":"cebpf4jnsgd1na2vs0mg"},{"bike_id":"f5150c85-6734-4ab4-9d3a-e8353796c0da","system_id":"levelo_inurba_marseille","lat":43.23781,"lon":5.36631,"is_reserved":false,"is_disabled":false,"rental_uris":{"android":"levelo://app?vid=f5150c85-6734-4ab4-9d3a-e8353796c0da","ios":"levelo://app?vid=f5150c85-6734-4ab4-9d3a-e8353796c0da"},"vehicle_type_id":"4","last_reported":1766150774,"current_range_meters":14800,"station_id":"st_d3nk18o9ro0c73en2l3g","pricing_plan_id":"cebpf4jnsgd1na2vs0mg"},{"bike_id":"8fcf17e9-6f12-40c5-b477-90499f0bb83c","system_id":"levelo_inurba_marseille","lat":43.337444,"lon":5.374475,"is_reserved":false,"is_disabled":false,"rental_uris":{"android":"levelo://app?vid=8fcf17e9-6f12-40c5-b477-90499f0bb83c","ios":"levelo://app?vid=8fcf17e9-6f12-40c5-b477-90499f0bb83c"},"vehicle_type_id":"4","last_reported":1766150774,"current_range_meters":15200,"station_id":"","pricing_plan_id":"cebpf4jnsgd1na2vs0mg"},{"bike_id":"63b71f61-0ce8-4f6b-8098-b32775a7e568","system_id":"levelo_inurba_marseille","lat":43.32127,"lon":5.36755,"is_reserved":false,"is_disabled":false,"rental_uris":{"android":"levelo://app?vid=63b71f61-0ce8-4f6b-8098-b32775a7e568","ios":"levelo://app?vid=63b71f61-0ce8-4f6b-8098-b32775a7e568"},"vehicle_type_id":"4","last_reported":1766150774,"current_range_meters":15200,"station_id":"ce4bhrh2rcd13ifvqhug","pricing_plan_id":"cebpf4jnsgd1na2vs0mg"},{"bike_id":"1ab520c6-2adf-40c4-8d5f-aebec418bd5b","system_id":"levelo_inurba_marseille","lat":43.32658,"lon":5.40989,"is_reserved":false,"is_disabled":false,"rental_uris":{"android":"levelo://app?vid=1ab520c6-2adf-40c4-8d5f-aebec418bd5b","ios":"levelo://app?vid=1ab520c6-2adf-40c4-8d5f-aebec418bd5b"},"vehicle_type_id":"4","last_reported":1766150774,"current_range_meters":15200,"station_id":"ce4bhpp2rcd13ifvqhgg","pricing_plan_id":"cebpf4jnsgd1na2vs0mg"},{"bike_id":"c770c5ef-15e0-436a-803e-ab05afe1a0d7","system_id":"levelo_inurba_marseille","lat":43.296,"lon":5.37714,"is_reserved":false,"is_disabled":false,"rental_uris":{"android":"levelo://app?vid=c770c5ef-15e0-436a-803e-ab05afe1a0d7","ios":"levelo://app?vid=c770c5ef-15e0-436a-803e-ab05afe1a0d7"},"vehicle_type_id":"4","last_reported":1766150774,"current_range_meters":15200,"station_id":"ce4bgi92rcd13ifvqb90","pricing_plan_id":"cebpf4jnsgd1na2vs0mg"},{"bike_id":"68b52151-88b1-4698-96c1-adf80b02a94c","system_id":"levelo_inurba_marseille","lat":43.27811,"lon":5.40707,"is_reserved":false,"is_disabled":false,"rental_uris":{"android":"levelo://app?vid=68b52151-88b1-4698-96c1-adf80b02a94c","ios":"levelo://app?vid=68b52151-88b1-4698-96c1-adf80b02a94c"},"vehicle_type_id":"4","last_reported":1766150774,"current_range_meters":15200,"station_id":"ce4bhnh2rcd13ifvqgtg","pricing_plan_id":"cebpf4jnsgd1na2vs0mg"},{"bike_id":"4c6371cd-3444-4a6d-896a-7ee2fb82ed15","system_id":"levelo_inurba_marseille","lat":43.244748,"lon":5.425501,"is_reserved":false,"is_disabled":false,"rental_uris":{"android":"levelo://app?vid=4c6371cd-3444-4a6d-896a-7ee2fb82ed15","ios":"levelo://app?vid=4c6371cd-3444-4a6d-896a-7ee2fb82ed15"},"vehicle_type_id":"4","last_reported":1766150774,"current_range_meters":15200,"station_id":"st_d4a3vfp97mjs738cd8kg","pricing_plan_id":"cebpf4jnsgd1na2vs0mg"},{"bike_id":"3ba34826-0ea0-4004-8901-abc053ff3324","system_id":"levelo_inurba_marseille","lat":43.28466,"lon":5.35891,"is_reserved":false,"is_disabled":false,"rental_uris":{"android":"levelo://app?vid=3ba34826-0ea0-4004-8901-abc053ff3324","ios":"levelo://app?vid=3ba34826-0ea0-4004-8901-abc053ff3324"},"vehicle_type_id":"4","last_reported":1766150774,"current_range_meters":15200,"station_id":"ce4bhah2rcd13ifvqei0","pricing_plan_id":"cebpf4jnsgd1na2vs0mg"},{"bike_id":"37ad0014-e20e-4970-a8b5-6a81c900e08e","system_id":"levelo_inurba_marseille","lat":43.26557,"lon":5.39007,"is_reserved":false,"is_disabled":false,"rental_uris":{"android":"levelo://app?vid=37ad0014-e20e-4970-a8b5-6a81c900e08e","ios":"levelo://app?vid=37ad0014-e20e-4970-a8b5-6a81c900e08e"},"vehicle_type_id":"4","last_reported":1766150774,"current_range_meters":15200,"station_id":"ce4bhe12rcd13ifvqf30","pricing_plan_id":"cebpf4jnsgd1na2vs0mg"},{"bike_id":"d34be69e-ffbd-4138-a29d-26d0231aa187","system_id":"levelo_inurba_marseille","lat":43.28474,"lon":5.38551,"is_reserved":false,"is_disabled":false,"rental_uris":{"android":"levelo://app?vid=d34be69e-ffbd-4138-a29d-26d0231aa187","ios":"levelo://app?vid=d34be69e-ffbd-4138-a29d-26d0231aa187"},"vehicle_type_id":"4","last_reported":1766150774,"current_range_meters":15200,"station_id":"ce4bh8p2rcd13ifvqeb0","pricing_plan_id":"cebpf4jnsgd1na2vs0mg"},{"bike_id":"95f304e3-c883-4a70-ae20-f199bb720a93","system_id":"levelo_inurba_marseille","lat":43.30449,"lon":5.38888,"is_reserved":false,"is_disabled":false,"rental_uris":{"android":"levelo://app?vid=95f304e3-c883-4a70-ae20-f199bb720a93","ios":"levelo://app?vid=95f304e3-c883-4a70-ae20-f199bb720a93"},"vehicle_type_id":"4","last_reported":1766150774,"current_range_meters":15200,"station_id":"ce4bgk12rcd13ifvqbi0","pricing_plan_id":"cebpf4jnsgd1na2vs0mg"},{"bike_id":"c2368f23-7bcd-4c72-af08-a84c442a2ae2","system_id":"levelo_inurba_marseille","lat":43.275601,"lon":5.384098,"is_reserved":false,"is_disabled":false,"rental_uris":{"android":"levelo://app?vid=c2368f23-7bcd-4c72-af08-a84c442a2ae2","ios":"levelo://app?vid=c2368f23-7bcd-4c72-af08-a84c442a2ae2"},"vehicle_type_id":"4","last_reported":1766150774,"current_range_meters":15200,"station_id":"ce4bhh92rcd13ifvqfi0","pricing_plan_id":"cebpf4jnsgd1na2vs0mg"},{"bike_id":"20e9dd8e-ed66-4bff-9188-35cbfde59a24","system_id":"levelo_inurba_marseille","lat":43.32323,"lon":5.39369,"is_reserved":false,"is_disabled":false,"rental_uris":{"android":"levelo://app?vid=20e9dd8e-ed66-4bff-9188-35cbfde59a24","ios":"levelo://app?vid=20e9dd8e-ed66-4bff-9188-35cbfde59a24"},"vehicle_type_id":"4","last_reported":1766150774,"current_range_meters":15200,"station_id":"","pricing_plan_id":"cebpf4jnsgd1na2vs0mg"},{"bike_id":"e18d88c4-447f-4613-ac8f-5a6e3bb9a21c","system_id":"levelo_inurba_marseille","lat":43.29809,"lon":5.44064,"is_reserved":false,"is_disabled":false,"rental_uris":{"android":"levelo://app?vid=e18d88c4-447f-4613-ac8f-5a6e3bb9a21c","ios":"levelo://app?vid=e18d88c4-447f-4613-ac8f-5a6e3bb9a21c"},"vehicle_type_id":"4","last_reported":1766150774,"current_range_meters":15200,"station_id":"st_d3jp68qikq2c7381ktn0","pricing_plan_id":"cebpf4jnsgd1na2vs0mg"},{"bike_id":"eff3ba1c-255b-41d6-a3e4-fa7507517d18","system_id":"levelo_inurba_marseille","lat":43.308863,"lon":5.371922,"is_reserved":false,"is_disabled":true,"rental_uris":{"android":"levelo://app?vid=eff3ba1c-255b-41d6-a3e4-fa7507517d18","ios":"levelo://app?vid=eff3ba1c-255b-41d6-a3e4-fa7507517d18"},"vehicle_type_id":"4","last_reported":1766150774,"current_range_meters":15200,"station_id":"ce4bguh2rcd13ifvqckg","pricing_plan_id":"cebpf4jnsgd1na2vs0mg"},{"bike_id":"f7839686-7e1e-4ec1-b87e-d8478aa2b463","system_id":"levelo_inurba_marseille","lat":43.28696,"lon":5.3739,"is_reserved":false,"is_disabled":false,"rental_uris":{"android":"levelo://app?vid=f7839686-7e1e-4ec1-b87e-d8478aa2b463","ios":"levelo://app?vid=f7839686-7e1e-4ec1-b87e-d8478aa2b463"},"vehicle_type_id":"4","last_reported":1766150774,"current_range_meters":15200,"station_id":"ce4bh3p2rcd13ifvqdq0","pricing_plan_id":"cebpf4jnsgd1na2vs0mg"},{"bike_id":"92f63dcb-31e1-43e1-80cb-8399f301b63d","system_id":"levelo_inurba_marseille","lat":43.28704,"lon":5.37936,"is_reserved":false,"is_disabled":false,"rental_uris":{"android":"levelo://app?vid=92f63dcb-31e1-43e1-80cb-8399f301b63d","ios":"levelo://app?vid=92f63dcb-31e1-43e1-80cb-8399f301b63d"},"vehicle_type_id":"4","last_reported":1766150774,"current_range_meters":15200,"station_id":"ce4bh9p2rcd13ifvqec0","pricing_plan_id":"cebpf4jnsgd1na2vs0mg"},{"bike_id":"29f4586e-a24a-4834-a195-c73b547e5869","system_id":"levelo_inurba_marseille","lat":43.32359,"lon":5.36742,"is_reserved":false,"is_disabled":false,"rental_uris":{"android":"levelo://app?vid=29f4586e-a24a-4834-a195-c73b547e5869","ios":"levelo://app?vid=29f4586e-a24a-4834-a195-c73b547e5869"},"vehicle_type_id":"4","last_reported":1766150774,"current_range_meters":16000,"station_id":"ce4bhsh2rcd13ifvqi2g","pricing_plan_id":"cebpf4jnsgd1na2vs0mg"},{"bike_id":"960000b9-5f6a-4874-8ba2-61bf0329fc25","system_id":"levelo_inurba_marseille","lat":43.30619,"lon":5.41019,"is_reserved":false,"is_disabled":false,"rental_uris":{"android":"levelo://app?vid=960000b9-5f6a-4874-8ba2-61bf0329fc25","ios":"levelo://app?vid=960000b9-5f6a-4874-8ba2-61bf0329fc25"},"vehicle_type_id":"4","last_reported":1766150774,"current_range_meters":16000,"station_id":"","pricing_plan_id":"cebpf4jnsgd1na2vs0mg"},{"bike_id":"9e1886ee-5978-4b4e-a4ad-7b1a3973e38d","system_id":"levelo_inurba_marseille","lat":43.311717,"lon":5.387126,"is_reserved":false,"is_disabled":false,"rental_uris":{"android":"levelo://app?vid=9e1886ee-5978-4b4e-a4ad-7b1a3973e38d","ios":"levelo://app?vid=9e1886ee-5978-4b4e-a4ad-7b1a3973e38d"},"vehicle_type_id":"4","last_reported":1766150774,"current_range_meters":16000,"station_id":"ce4bgv12rcd13ifvqcp0","pricing_plan_id":"cebpf4jnsgd1na2vs0mg"},{"bike_id":"7a2810d9-a7a2-4f55-a626-e3338912c6bf","system_id":"levelo_inurba_marseille","lat":43.33763,"lon":5.37475,"is_reserved":false,"is_disabled":false,"rental_uris":{"android":"levelo://app?vid=7a2810d9-a7a2-4f55-a626-e3338912c6bf","ios":"levelo://app?vid=7a2810d9-a7a2-4f55-a626-e3338912c6bf"},"vehicle_type_id":"4","last_reported":1766150774,"current_range_meters":16000,"station_id":"","pricing_plan_id":"cebpf4jnsgd1na2vs0mg"},{"bike_id":"3dfe5889-af27-4d32-8d39-acf5edcdf83e","system_id":"levelo_inurba_marseille","lat":43.325283,"lon":5.374978,"is_reserved":false,"is_disabled":false,"rental_uris":{"android":"levelo://app?vid=3dfe5889-af27-4d32-8d39-acf5edcdf83e","ios":"levelo://app?vid=3dfe5889-af27-4d32-8d39-acf5edcdf83e"},"vehicle_type_id":"4","last_reported":1766150774,"current_range_meters":16000,"station_id":"","pricing_plan_id":"cebpf4jnsgd1na2vs0mg"},{"bike_id":"f2364b2e-178e-40c8-8681-6c34f1d777d6","system_id":"levelo_inurba_marseille","lat":43.30808,"lon":5.37641,"is_reserved":false,"is_disabled":false,"rental_uris":{"android":"levelo://app?vid=f2364b2e-178e-40c8-8681-6c34f1d777d6","ios":"levelo://app?vid=f2364b2e-178e-40c8-8681-6c34f1d777d6"},"vehicle_type_id":"4","last_reported":1766150774,"current_range_meters":16000,"station_id":"ce4bgv92rcd13ifvqcq0","pricing_plan_id":"cebpf4jnsgd1na2vs0mg"},{"bike_id":"d6d2bb3a-fbb7-4a3d-8530-972c5de173fe","system_id":"levelo_inurba_marseille","lat":43.231979,"lon":5.355559,"is_reserved":false,"is_disabled":false,"rental_uris":{"android":"levelo://app?vid=d6d2bb3a-fbb7-4a3d-8530-972c5de173fe","ios":"levelo://app?vid=d6d2bb3a-fbb7-4a3d-8530-972c5de173fe"},"vehicle_type_id":"4","last_reported":1766150774,"current_range_meters":16000,"station_id":"ce4bhu92rcd13ifvqi70","pricing_plan_id":"cebpf4jnsgd1na2vs0mg"},{"bike_id":"19f83498-9c2c-438c-9319-9c90e9928c89","system_id":"levelo_inurba_marseille","lat":43.30281,"lon":5.37707,"is_reserved":false,"is_disabled":false,"rental_uris":{"android":"levelo://app?vid=19f83498-9c2c-438c-9319-9c90e9928c89","ios":"levelo://app?vid=19f83498-9c2c-438c-9319-9c90e9928c89"},"vehicle_type_id":"4","last_reported":1766150774,"current_range_meters":16000,"station_id":"ce4bguh2rcd13ifvqcj0","pricing_plan_id":"cebpf4jnsgd1na2vs0mg"},{"bike_id":"5aa6494d-0eee-4a3c-bc5e-0d25343561e5","system_id":"levelo_inurba_marseille","lat":43.27043,"lon":5.38306,"is_reserved":false,"is_disabled":false,"rental_uris":{"android":"levelo://app?vid=5aa6494d-0eee-4a3c-bc5e-0d25343561e5","ios":"levelo://app?vid=5aa6494d-0eee-4a3c-bc5e-0d25343561e5"},"vehicle_type_id":"4","last_reported":1766150774,"current_range_meters":16000,"station_id":"st_d3n2fo6cfp8s73cte1j0","pricing_plan_id":"cebpf4jnsgd1na2vs0mg"},{"bike_id":"eaa78c39-81ae-4e60-b205-821feda66770","system_id":"levelo_inurba_marseille","lat":43.27209,"lon":5.39215,"is_reserved":false,"is_disabled":false,"rental_uris":{"android":"levelo://app?vid=eaa78c39-81ae-4e60-b205-821feda66770","ios":"levelo://app?vid=eaa78c39-81ae-4e60-b205-821feda66770"},"vehicle_type_id":"4","last_reported":1766150774,"current_range_meters":16000,"station_id":"ce4bhhp2rcd13ifvqfm0","pricing_plan_id":"cebpf4jnsgd1na2vs0mg"},{"bike_id":"42b48f98-c47c-4b19-8ddf-a461aba3ebb3","system_id":"levelo_inurba_marseille","lat":43.28737,"lon":5.37936,"is_reserved":false,"is_disabled":false,"rental_uris":{"android":"levelo://app?vid=42b48f98-c47c-4b19-8ddf-a461aba3ebb3","ios":"levelo://app?vid=42b48f98-c47c-4b19-8ddf-a461aba3ebb3"},"vehicle_type_id":"4","last_reported":1766150774,"current_range_meters":16000,"station_id":"ce4bh9p2rcd13ifvqec0","pricing_plan_id":"cebpf4jnsgd1na2vs0mg"},{"bike_id":"596f9f2e-754a-4bff-95d7-fb2758b09a2e","system_id":"levelo_inurba_marseille","lat":43.3235,"lon":5.36732,"is_reserved":false,"is_disabled":false,"rental_uris":{"android":"levelo://app?vid=596f9f2e-754a-4bff-95d7-fb2758b09a2e","ios":"levelo://app?vid=596f9f2e-754a-4bff-95d7-fb2758b09a2e"},"vehicle_type_id":"4","last_reported":1766150774,"current_range_meters":16000,"station_id":"ce4bhsh2rcd13ifvqi2g","pricing_plan_id":"cebpf4jnsgd1na2vs0mg"},{"bike_id":"0e58a4a2-a882-4528-8aa6-92cca1ee7b62","system_id":"levelo_inurba_marseille","lat":43.28862,"lon":5.35844,"is_reserved":false,"is_disabled":false,"rental_uris":{"android":"levelo://app?vid=0e58a4a2-a882-4528-8aa6-92cca1ee7b62","ios":"levelo://app?vid=0e58a4a2-a882-4528-8aa6-92cca1ee7b62"},"vehicle_type_id":"4","last_reported":1766150774,"current_range_meters":16000,"station_id":"ce4bhb12rcd13ifvqem0","pricing_plan_id":"cebpf4jnsgd1na2vs0mg"},{"bike_id":"5ec2bfc0-8f2f-46c6-b873-19391b3b35ad","system_id":"levelo_inurba_marseille","lat":43.27468,"lon":5.38456,"is_reserved":false,"is_disabled":false,"rental_uris":{"android":"levelo://app?vid=5ec2bfc0-8f2f-46c6-b873-19391b3b35ad","ios":"levelo://app?vid=5ec2bfc0-8f2f-46c6-b873-19391b3b35ad"},"vehicle_type_id":"4","last_reported":1766150774,"current_range_meters":16000,"station_id":"ce4bhh92rcd13ifvqfi0","pricing_plan_id":"cebpf4jnsgd1na2vs0mg"},{"bike_id":"d2a86950-00b0-4344-a51f-0dc364389c5b","system_id":"levelo_inurba_marseille","lat":43.289387,"lon":5.366334,"is_reserved":false,"is_disabled":true,"rental_uris":{"android":"levelo://app?vid=d2a86950-00b0-4344-a51f-0dc364389c5b","ios":"levelo://app?vid=d2a86950-00b0-4344-a51f-0dc364389c5b"},"vehicle_type_id":"4","last_reported":1766150774,"current_range_meters":16400,"station_id":"","pricing_plan_id":"cebpf4jnsgd1na2vs0mg"},{"bike_id":"025bcf3c-9127-4e0c-b7ed-8709d35ce958","system_id":"levelo_inurba_marseille","lat":43.31655,"lon":5.37363,"is_reserved":false,"is_disabled":false,"rental_uris":{"android":"levelo://app?vid=025bcf3c-9127-4e0c-b7ed-8709d35ce958","ios":"levelo://app?vid=025bcf3c-9127-4e0c-b7ed-8709d35ce958"},"vehicle_type_id":"4","last_reported":1766150774,"current_range_meters":16400,"station_id":"","pricing_plan_id":"cebpf4jnsgd1na2vs0mg"},{"bike_id":"e9d58d1e-c5b2-41a8-b6ef-892cd112849c","system_id":"levelo_inurba_marseille","lat":43.30181,"lon":5.38074,"is_reserved":false,"is_disabled":false,"rental_uris":{"android":"levelo://app?vid=e9d58d1e-c5b2-41a8-b6ef-892cd112849c","ios":"levelo://app?vid=e9d58d1e-c5b2-41a8-b6ef-892cd112849c"},"vehicle_type_id":"4","last_reported":1766150774,"current_range_meters":16400,"station_id":"ce4bgjp2rcd13ifvqbh0","pricing_plan_id":"cebpf4jnsgd1na2vs0mg"},{"bike_id":"ce634916-e630-4474-8c32-4b2bfe924f7f","system_id":"levelo_inurba_marseille","lat":43.24638,"lon":5.43146,"is_reserved":false,"is_disabled":false,"rental_uris":{"android":"levelo://app?vid=ce634916-e630-4474-8c32-4b2bfe924f7f","ios":"levelo://app?vid=ce634916-e630-4474-8c32-4b2bfe924f7f"},"vehicle_type_id":"4","last_reported":1766150774,"current_range_meters":16400,"station_id":"st_d2m6c4gdas8pm72e190g","pricing_plan_id":"cebpf4jnsgd1na2vs0mg"},{"bike_id":"9798fc7a-0d8b-4295-a29c-ce8ea92d6dbb","system_id":"levelo_inurba_marseille","lat":43.299441,"lon":5.365616,"is_reserved":false,"is_disabled":false,"rental_uris":{"android":"levelo://app?vid=9798fc7a-0d8b-4295-a29c-ce8ea92d6dbb","ios":"levelo://app?vid=9798fc7a-0d8b-4295-a29c-ce8ea92d6dbb"},"vehicle_type_id":"4","last_reported":1766150774,"current_range_meters":16400,"station_id":"ce4bgm92rcd13ifvqbr0","pricing_plan_id":"cebpf4jnsgd1na2vs0mg"},{"bike_id":"06c5fccb-feb8-4ccd-ba7b-a53b73e5ec3a","system_id":"levelo_inurba_marseille","lat":43.269432,"lon":5.389319,"is_reserved":false,"is_disabled":false,"rental_uris":{"android":"levelo://app?vid=06c5fccb-feb8-4ccd-ba7b-a53b73e5ec3a","ios":"levelo://app?vid=06c5fccb-feb8-4ccd-ba7b-a53b73e5ec3a"},"vehicle_type_id":"4","last_reported":1766150774,"current_range_meters":16400,"station_id":"ce4bhhh2rcd13ifvqfl0","pricing_plan_id":"cebpf4jnsgd1na2vs0mg"},{"bike_id":"6bb7cf08-cc4f-43ae-aed3-8d6ab6b6c137","system_id":"levelo_inurba_marseille","lat":43.33053,"lon":5.37668,"is_reserved":false,"is_disabled":false,"rental_uris":{"android":"levelo://app?vid=6bb7cf08-cc4f-43ae-aed3-8d6ab6b6c137","ios":"levelo://app?vid=6bb7cf08-cc4f-43ae-aed3-8d6ab6b6c137"},"vehicle_type_id":"4","last_reported":1766150774,"current_range_meters":16400,"station_id":"","pricing_plan_id":"cebpf4jnsgd1na2vs0mg"},{"bike_id":"6244ba23-4432-4050-a6de-b074545c45d3","system_id":"levelo_inurba_marseille","lat":43.2416,"lon":5.36398,"is_reserved":false,"is_disabled":false,"rental_uris":{"android":"levelo://app?vid=6244ba23-4432-4050-a6de-b074545c45d3","ios":"levelo://app?vid=6244ba23-4432-4050-a6de-b074545c45d3"},"vehicle_type_id":"4","last_reported":1766150774,"current_range_meters":16400,"station_id":"cpo36qri1sfpv3e86is0","pricing_plan_id":"cebpf4jnsgd1na2vs0mg"},{"bike_id":"ff400a14-182c-4479-9723-f211d61c81db","system_id":"levelo_inurba_marseille","lat":43.32008,"lon":5.40387,"is_reserved":false,"is_disabled":false,"rental_uris":{"android":"levelo://app?vid=ff400a14-182c-4479-9723-f211d61c81db","ios":"levelo://app?vid=ff400a14-182c-4479-9723-f211d61c81db"},"vehicle_type_id":"4","last_reported":1766150774,"current_range_meters":16400,"station_id":"","pricing_plan_id":"cebpf4jnsgd1na2vs0mg"},{"bike_id":"fb3d0d8b-6e6e-4592-945c-ee698f8b0527","system_id":"levelo_inurba_marseille","lat":43.22565,"lon":5.41636,"is_reserved":false,"is_disabled":false,"rental_uris":{"android":"levelo://app?vid=fb3d0d8b-6e6e-4592-945c-ee698f8b0527","ios":"levelo://app?vid=fb3d0d8b-6e6e-4592-945c-ee698f8b0527"},"vehicle_type_id":"4","last_reported":1766150774,"current_range_meters":16400,"station_id":"st_d2o4gvlbi1j2169b742g","pricing_plan_id":"cebpf4jnsgd1na2vs0mg"},{"bike_id":"fcb0620e-8b82-4399-a8ee-b30624889949","system_id":"levelo_inurba_marseille","lat":43.25946,"lon":5.40894,"is_reserved":false,"is_disabled":false,"rental_uris":{"android":"levelo://app?vid=fcb0620e-8b82-4399-a8ee-b30624889949","ios":"levelo://app?vid=fcb0620e-8b82-4399-a8ee-b30624889949"},"vehicle_type_id":"4","last_reported":1766150774,"current_range_meters":16400,"station_id":"ce4bhm92rcd13ifvqglg","pricing_plan_id":"cebpf4jnsgd1na2vs0mg"},{"bike_id":"5be77277-1ed6-48c9-bc7c-d55bf9375110","system_id":"levelo_inurba_marseille","lat":43.28077,"lon":5.39663,"is_reserved":false,"is_disabled":false,"rental_uris":{"android":"levelo://app?vid=5be77277-1ed6-48c9-bc7c-d55bf9375110","ios":"levelo://app?vid=5be77277-1ed6-48c9-bc7c-d55bf9375110"},"vehicle_type_id":"4","last_reported":1766150774,"current_range_meters":16400,"station_id":"ce4bho12rcd13ifvqh2g","pricing_plan_id":"cebpf4jnsgd1na2vs0mg"},{"bike_id":"d26729f5-210b-4096-acd6-99d477896379","system_id":"levelo_inurba_marseille","lat":43.25009,"lon":5.38918,"is_reserved":false,"is_disabled":false,"rental_uris":{"android":"levelo://app?vid=d26729f5-210b-4096-acd6-99d477896379","ios":"levelo://app?vid=d26729f5-210b-4096-acd6-99d477896379"},