{"last_updated":1740492576,"ttl":60,"version":"2.2","data":{"bikes":[{"bike_id":"f626cb21-124f-418e-abb7-73c4fcee0d36","system_id":"levelo_inurba_marseille","lat":43.28144,"lon":5.42643,"is_reserved":false,"is_disabled":true,"rental_uris":{"android":"levelo://app?vid=f626cb21-124f-418e-abb7-73c4fcee0d36","ios":"levelo://app?vid=f626cb21-124f-418e-abb7-73c4fcee0d36"},"vehicle_type_id":"4","last_reported":1740492577,"current_range_meters":2800,"station_id":"","pricing_plan_id":"cebpf4jnsgd1na2vs0mg"},{"bike_id":"d910d49f-24dd-4679-b24f-cfe006465996","system_id":"levelo_inurba_marseille","lat":43.26562,"lon":5.39032,"is_reserved":false,"is_disabled":true,"rental_uris":{"android":"levelo://app?vid=d910d49f-24dd-4679-b24f-cfe006465996","ios":"levelo://app?vid=d910d49f-24dd-4679-b24f-cfe006465996"},"vehicle_type_id":"4","last_reported":1740492577,"current_range_meters":3200,"station_id":"ce4bhe12rcd13ifvqf30","pricing_plan_id":"cebpf4jnsgd1na2vs0mg"},{"bike_id":"e768e4af-3fad-4592-b48d-4c9485d91344","system_id":"levelo_inurba_marseille","lat":43.28677,"lon":5.3635,"is_reserved":false,"is_disabled":false,"rental_uris":{"android":"levelo://app?vid=e768e4af-3fad-4592-b48d-4c9485d91344","ios":"levelo://app?vid=e768e4af-3fad-4592-b48d-4c9485d91344"},"vehicle_type_id":"4","last_reported":1740492577,"current_range_meters":8000,"station_id":"ce4bhah2rcd13ifvqej0","pricing_plan_id":"cebpf4jnsgd1na2vs0mg"},{"bike_id":"09dd527a-a770-420f-9673-dcd5d4ab39aa","system_id":"levelo_inurba_marseille","lat":43.2872,"lon":5.36091,"is_reserved":false,"is_disabled":false,"rental_uris":{"android":"levelo://app?vid=09dd527a-a770-420f-9673-dcd5d4ab39aa","ios":"levelo://app?vid=09dd527a-a770-420f-9673-dcd5d4ab39aa"},"vehicle_type_id":"4","last_reported":1740492577,"current_range_meters":4000,"station_id":"cki0cbj6b192h4jlfktg","pricing_plan_id":"cebpf4jnsgd1na2vs0mg"},{"bike_id":"ceb0b4a3-243b-4eb8-b7c2-dcbdfe576fbd","system_id":"levelo_inurba_marseille","lat":43.27212,"lon":5.39197,"is_reserved":false,"is_disabled":false,"rental_uris":{"android":"levelo://app?vid=ceb0b4a3-243b-4eb8-b7c2-dcbdfe576fbd","ios":"levelo://app?vid=ceb0b4a3-243b-4eb8-b7c2-dcbdfe576fbd"},"vehicle_type_id":"4","last_reported":1740492577,"current_range_meters":4400,"station_id":"ce4bhhp2rcd13ifvqfm0","pricing_plan_id":"cebpf4jnsgd1na2vs0mg"},{"bike_id":"bd1c9204-109d-453d-a655-cc2878aad0c5","system_id":"levelo_inurba_marseille","lat":43.29898,"lon":5.43666,"is_reserved":false,"is_disabled":false,"rental_uris":{"android":"levelo://app?vid=bd1c9204-109d-453d-a655-cc2878aad0c5","ios":"levelo://app?vid=bd1c9204-109d-453d-a655-cc2878aad0c5"},"vehicle_type_id":"4","last_reported":1740492577,"current_range_meters":4800,"station_id":"ce4bhpp2rcd13ifvqhfg","pricing_plan_id":"cebpf4jnsgd1na2vs0mg"},{"bike_id":"c1a594da-49ad-4e30-8854-81191389d794","system_id":"levelo_inurba_marseille","lat":43.30659,"lon":5.3689,"is_reserved":false,"is_disabled":false,"rental_uris":{"android":"levelo://app?vid=c1a594da-49ad-4e30-8854-81191389d794","ios":"levelo://app?vid=c1a594da-49ad-4e30-8854-81191389d794"},"vehicle_type_id":"4","last_reported":1740492577,"current_range_meters":4400,"station_id":"","pricing_plan_id":"cebpf4jnsgd1na2vs0mg"},{"bike_id":"a78b00f6-fb08-418c-aa96-faf05d0a9db5","system_id":"levelo_inurba_marseille","lat":43.2845,"lon":5.35901,"is_reserved":false,"is_disabled":false,"rental_uris":{"android":"levelo://app?vid=a78b00f6-fb08-418c-aa96-faf05d0a9db5","ios":"levelo://app?vid=a78b00f6-fb08-418c-aa96-faf05d0a9db5"},"vehicle_type_id":"4","last_reported":1740492577,"current_range_meters":4400,"station_id":"ce4bhah2rcd13ifvqei0","pricing_plan_id":"cebpf4jnsgd1na2vs0mg"},{"bike_id":"863539c7-9c2b-44e5-81f5-9eaa34a6b8c7","system_id":"levelo_inurba_marseille","lat":43.25933,"lon":5.40874,"is_reserved":false,"is_disabled":false,"rental_uris":{"android":"levelo://app?vid=863539c7-9c2b-44e5-81f5-9eaa34a6b8c7","ios":"levelo://app?vid=863539c7-9c2b-44e5-81f5-9eaa34a6b8c7"},"vehicle_type_id":"4","last_reported":1740492577,"current_range_meters":9200,"station_id":"ce4bhm92rcd13ifvqglg","pricing_plan_id":"cebpf4jnsgd1na2vs0mg"},{"bike_id":"15d63c41-d467-4e01-ab9d-1a4d98399eb8","system_id":"levelo_inurba_marseille","lat":43.28081,"lon":5.39672,"is_reserved":false,"is_disabled":true,"rental_uris":{"android":"levelo://app?vid=15d63c41-d467-4e01-ab9d-1a4d98399eb8","ios":"levelo://app?vid=15d63c41-d467-4e01-ab9d-1a4d98399eb8"},"vehicle_type_id":"4","last_reported":1740492577,"current_range_meters":6800,"station_id":"ce4bho12rcd13ifvqh2g","pricing_plan_id":"cebpf4jnsgd1na2vs0mg"},{"bike_id":"71f606a5-4879-4b26-9ccd-1543fb1a6ec7","system_id":"levelo_inurba_marseille","lat":43.2839,"lon":5.39049,"is_reserved":false,"is_disabled":false,"rental_uris":{"android":"levelo://app?vid=71f606a5-4879-4b26-9ccd-1543fb1a6ec7","ios":"levelo://app?vid=71f606a5-4879-4b26-9ccd-1543fb1a6ec7"},"vehicle_type_id":"4","last_reported":1740492577,"current_range_meters":6400,"station_id":"","pricing_plan_id":"cebpf4jnsgd1na2vs0mg"},{"bike_id":"3eb9b231-c1ca-4744-b0f7-4f1d3b1e6417","system_id":"levelo_inurba_marseille","lat":43.29895,"lon":5.43659,"is_reserved":false,"is_disabled":false,"rental_uris":{"android":"levelo://app?vid=3eb9b231-c1ca-4744-b0f7-4f1d3b1e6417","ios":"levelo://app?vid=3eb9b231-c1ca-4744-b0f7-4f1d3b1e6417"},"vehicle_type_id":"4","last_reported":1740492577,"current_range_meters":6000,"station_id":"ce4bhpp2rcd13ifvqhfg","pricing_plan_id":"cebpf4jnsgd1na2vs0mg"},{"bike_id":"f5da3e71-1daf-4716-9c49-f4f30c7616b9","system_id":"levelo_inurba_marseille","lat":43.29046,"lon":5.39972,"is_reserved":false,"is_disabled":false,"rental_uris":{"android":"levelo://app?vid=f5da3e71-1daf-4716-9c49-f4f30c7616b9","ios":"levelo://app?vid=f5da3e71-1daf-4716-9c49-f4f30c7616b9"},"vehicle_type_id":"4","last_reported":1740492577,"current_range_meters":6000,"station_id":"ce4bh392rcd13ifvqdm0","pricing_plan_id":"cebpf4jnsgd1na2vs0mg"},{"bike_id":"0a786833-631f-4919-a9dc-22f115630556","system_id":"levelo_inurba_marseille","lat":43.26927,"lon":5.38672,"is_reserved":false,"is_disabled":false,"rental_uris":{"android":"levelo://app?vid=0a786833-631f-4919-a9dc-22f115630556","ios":"levelo://app?vid=0a786833-631f-4919-a9dc-22f115630556"},"vehicle_type_id":"4","last_reported":1740492577,"current_range_meters":6400,"station_id":"ce4bhh92rcd13ifvqfh0","pricing_plan_id":"cebpf4jnsgd1na2vs0mg"},{"bike_id":"f3e2d31b-bf16-4d93-8358-e1b5fc69cdb1","system_id":"levelo_inurba_marseille","lat":43.28105,"lon":5.39895,"is_reserved":false,"is_disabled":false,"rental_uris":{"android":"levelo://app?vid=f3e2d31b-bf16-4d93-8358-e1b5fc69cdb1","ios":"levelo://app?vid=f3e2d31b-bf16-4d93-8358-e1b5fc69cdb1"},"vehicle_type_id":"4","last_reported":1740492577,"current_range_meters":6800,"station_id":"","pricing_plan_id":"cebpf4jnsgd1na2vs0mg"},{"bike_id":"193466e7-42c2-463c-a1e6-388ffbf4fa20","system_id":"levelo_inurba_marseille","lat":43.287,"lon":5.37393,"is_reserved":false,"is_disabled":false,"rental_uris":{"android":"levelo://app?vid=193466e7-42c2-463c-a1e6-388ffbf4fa20","ios":"levelo://app?vid=193466e7-42c2-463c-a1e6-388ffbf4fa20"},"vehicle_type_id":"4","last_reported":1740492577,"current_range_meters":5600,"station_id":"ce4bh3p2rcd13ifvqdq0","pricing_plan_id":"cebpf4jnsgd1na2vs0mg"},{"bike_id":"64be79db-72da-4184-b4ef-43cc1a2f299a","system_id":"levelo_inurba_marseille","lat":43.26963,"lon":5.38631,"is_reserved":false,"is_disabled":false,"rental_uris":{"android":"levelo://app?vid=64be79db-72da-4184-b4ef-43cc1a2f299a","ios":"levelo://app?vid=64be79db-72da-4184-b4ef-43cc1a2f299a"},"vehicle_type_id":"4","last_reported":1740492577,"current_range_meters":6800,"station_id":"ce4bhh92rcd13ifvqfh0","pricing_plan_id":"cebpf4jnsgd1na2vs0mg"},{"bike_id":"49a26439-f7d0-492c-8c03-d2cf13520784","system_id":"levelo_inurba_marseille","lat":43.27311,"lon":5.39132,"is_reserved":false,"is_disabled":false,"rental_uris":{"android":"levelo://app?vid=49a26439-f7d0-492c-8c03-d2cf13520784","ios":"levelo://app?vid=49a26439-f7d0-492c-8c03-d2cf13520784"},"vehicle_type_id":"4","last_reported":1740492577,"current_range_meters":6800,"station_id":"ce4bhgp2rcd13ifvqfe0","pricing_plan_id":"cebpf4jnsgd1na2vs0mg"},{"bike_id":"b52b99ab-0898-4dfe-87fe-9513713caf1b","system_id":"levelo_inurba_marseille","lat":43.31072,"lon":5.38363,"is_reserved":false,"is_disabled":false,"rental_uris":{"android":"levelo://app?vid=b52b99ab-0898-4dfe-87fe-9513713caf1b","ios":"levelo://app?vid=b52b99ab-0898-4dfe-87fe-9513713caf1b"},"vehicle_type_id":"4","last_reported":1740492577,"current_range_meters":6800,"station_id":"ce4bgv92rcd13ifvqcr0","pricing_plan_id":"cebpf4jnsgd1na2vs0mg"},{"bike_id":"4e3483dc-0e4a-419b-bff7-c5274db2d5fa","system_id":"levelo_inurba_marseille","lat":43.30952,"lon":5.39014,"is_reserved":false,"is_disabled":false,"rental_uris":{"android":"levelo://app?vid=4e3483dc-0e4a-419b-bff7-c5274db2d5fa","ios":"levelo://app?vid=4e3483dc-0e4a-419b-bff7-c5274db2d5fa"},"vehicle_type_id":"4","last_reported":1740492577,"current_range_meters":7200,"station_id":"ce4bgup2rcd13ifvqco0","pricing_plan_id":"cebpf4jnsgd1na2vs0mg"},{"bike_id":"613284f3-f791-4e38-9833-5e88224a41e8","system_id":"levelo_inurba_marseille","lat":43.28715,"lon":5.37955,"is_reserved":false,"is_disabled":false,"rental_uris":{"android":"levelo://app?vid=613284f3-f791-4e38-9833-5e88224a41e8","ios":"levelo://app?vid=613284f3-f791-4e38-9833-5e88224a41e8"},"vehicle_type_id":"4","last_reported":1740492577,"current_range_meters":7200,"station_id":"ce4bh9p2rcd13ifvqec0","pricing_plan_id":"cebpf4jnsgd1na2vs0mg"},{"bike_id":"62a98753-2d05-4885-8ae9-ddccaa0dcf03","system_id":"levelo_inurba_marseille","lat":43.27495,"lon":5.42462,"is_reserved":false,"is_disabled":false,"rental_uris":{"android":"levelo://app?vid=62a98753-2d05-4885-8ae9-ddccaa0dcf03","ios":"levelo://app?vid=62a98753-2d05-4885-8ae9-ddccaa0dcf03"},"vehicle_type_id":"4","last_reported":1740492577,"current_range_meters":7200,"station_id":"ce4bhn92rcd13ifvqgrg","pricing_plan_id":"cebpf4jnsgd1na2vs0mg"},{"bike_id":"ec17ff6a-26f9-4514-bd43-4ec7017c0b01","system_id":"levelo_inurba_marseille","lat":43.29327,"lon":5.37667,"is_reserved":false,"is_disabled":false,"rental_uris":{"android":"levelo://app?vid=ec17ff6a-26f9-4514-bd43-4ec7017c0b01","ios":"levelo://app?vid=ec17ff6a-26f9-4514-bd43-4ec7017c0b01"},"vehicle_type_id":"4","last_reported":1740492577,"current_range_meters":8000,"station_id":"","pricing_plan_id":"cebpf4jnsgd1na2vs0mg"},{"bike_id":"146aebc9-098b-47c2-b26e-46c1350561bc","system_id":"levelo_inurba_marseille","lat":43.3377,"lon":5.37492,"is_reserved":false,"is_disabled":false,"rental_uris":{"android":"levelo://app?vid=146aebc9-098b-47c2-b26e-46c1350561bc","ios":"levelo://app?vid=146aebc9-098b-47c2-b26e-46c1350561bc"},"vehicle_type_id":"4","last_reported":1740492577,"current_range_meters":8000,"station_id":"","pricing_plan_id":"cebpf4jnsgd1na2vs0mg"},{"bike_id":"edfb7d4c-92c8-47d3-8016-410c6bf04155","system_id":"levelo_inurba_marseille","lat":43.27897,"lon":5.38032,"is_reserved":false,"is_disabled":false,"rental_uris":{"android":"levelo://app?vid=edfb7d4c-92c8-47d3-8016-410c6bf04155","ios":"levelo://app?vid=edfb7d4c-92c8-47d3-8016-410c6bf04155"},"vehicle_type_id":"4","last_reported":1740492577,"current_range_meters":9600,"station_id":"ce4bhf92rcd13ifvqf50","pricing_plan_id":"cebpf4jnsgd1na2vs0mg"},{"bike_id":"20b57cb2-f504-49bf-b1b5-932814c3f93b","system_id":"levelo_inurba_marseille","lat":43.29597,"lon":5.38104,"is_reserved":false,"is_disabled":false,"rental_uris":{"android":"levelo://app?vid=20b57cb2-f504-49bf-b1b5-932814c3f93b","ios":"levelo://app?vid=20b57cb2-f504-49bf-b1b5-932814c3f93b"},"vehicle_type_id":"4","last_reported":1740492577,"current_range_meters":8400,"station_id":"ce4bgl12rcd13ifvqbo0","pricing_plan_id":"cebpf4jnsgd1na2vs0mg"},{"bike_id":"1f2df738-29ca-4206-9f13-91b4be99064f","system_id":"levelo_inurba_marseille","lat":43.31389,"lon":5.3671,"is_reserved":false,"is_disabled":false,"rental_uris":{"android":"levelo://app?vid=1f2df738-29ca-4206-9f13-91b4be99064f","ios":"levelo://app?vid=1f2df738-29ca-4206-9f13-91b4be99064f"},"vehicle_type_id":"4","last_reported":1740492577,"current_range_meters":8400,"station_id":"ce4bgr92rcd13ifvqc6g","pricing_plan_id":"cebpf4jnsgd1na2vs0mg"},{"bike_id":"3171cfa6-133f-4e1d-8b14-73e57eb5f785","system_id":"levelo_inurba_marseille","lat":43.29612,"lon":5.37725,"is_reserved":false,"is_disabled":false,"rental_uris":{"android":"levelo://app?vid=3171cfa6-133f-4e1d-8b14-73e57eb5f785","ios":"levelo://app?vid=3171cfa6-133f-4e1d-8b14-73e57eb5f785"},"vehicle_type_id":"4","last_reported":1740492577,"current_range_meters":11200,"station_id":"ce4bgi92rcd13ifvqb90","pricing_plan_id":"cebpf4jnsgd1na2vs0mg"},{"bike_id":"5162c2ce-a731-4d3b-a21a-a1c8cb63150f","system_id":"levelo_inurba_marseille","lat":43.31711,"lon":5.43699,"is_reserved":false,"is_disabled":false,"rental_uris":{"android":"levelo://app?vid=5162c2ce-a731-4d3b-a21a-a1c8cb63150f","ios":"levelo://app?vid=5162c2ce-a731-4d3b-a21a-a1c8cb63150f"},"vehicle_type_id":"4","last_reported":1740492577,"current_range_meters":8400,"station_id":"ce4bhp92rcd13ifvqhcg","pricing_plan_id":"cebpf4jnsgd1na2vs0mg"},{"bike_id":"fbdb8f79-f2ba-44a7-8779-12eada6115ed","system_id":"levelo_inurba_marseille","lat":43.25905,"lon":5.40901,"is_reserved":false,"is_disabled":false,"rental_uris":{"android":"levelo://app?vid=fbdb8f79-f2ba-44a7-8779-12eada6115ed","ios":"levelo://app?vid=fbdb8f79-f2ba-44a7-8779-12eada6115ed"},"vehicle_type_id":"4","last_reported":1740492577,"current_range_meters":8400,"station_id":"ce4bhm92rcd13ifvqglg","pricing_plan_id":"cebpf4jnsgd1na2vs0mg"},{"bike_id":"57eed615-c283-4dc3-a510-22dba226a673","system_id":"levelo_inurba_marseille","lat":43.29742,"lon":5.37744,"is_reserved":false,"is_disabled":false,"rental_uris":{"android":"levelo://app?vid=57eed615-c283-4dc3-a510-22dba226a673","ios":"levelo://app?vid=57eed615-c283-4dc3-a510-22dba226a673"},"vehicle_type_id":"4","last_reported":1740492577,"current_range_meters":8400,"station_id":"","pricing_plan_id":"cebpf4jnsgd1na2vs0mg"},{"bike_id":"ce08e129-3210-4784-8e00-3661099c392d","system_id":"levelo_inurba_marseille","lat":43.29905,"lon":5.43651,"is_reserved":false,"is_disabled":false,"rental_uris":{"android":"levelo://app?vid=ce08e129-3210-4784-8e00-3661099c392d","ios":"levelo://app?vid=ce08e129-3210-4784-8e00-3661099c392d"},"vehicle_type_id":"4","last_reported":1740492577,"current_range_meters":8800,"station_id":"ce4bhpp2rcd13ifvqhfg","pricing_plan_id":"cebpf4jnsgd1na2vs0mg"},{"bike_id":"134e832a-aa90-4ef3-8ba6-b68c12ac5055","system_id":"levelo_inurba_marseille","lat":43.31321,"lon":5.39708,"is_reserved":false,"is_disabled":false,"rental_uris":{"android":"levelo://app?vid=134e832a-aa90-4ef3-8ba6-b68c12ac5055","ios":"levelo://app?vid=134e832a-aa90-4ef3-8ba6-b68c12ac5055"},"vehicle_type_id":"4","last_reported":1740492577,"current_range_meters":8800,"station_id":"ce4bgvp2rcd13ifvqcu0","pricing_plan_id":"cebpf4jnsgd1na2vs0mg"},{"bike_id":"2d9f0777-5b96-4c1e-80c5-10449636aa92","system_id":"levelo_inurba_marseille","lat":43.32371,"lon":5.3888,"is_reserved":false,"is_disabled":false,"rental_uris":{"android":"levelo://app?vid=2d9f0777-5b96-4c1e-80c5-10449636aa92","ios":"levelo://app?vid=2d9f0777-5b96-4c1e-80c5-10449636aa92"},"vehicle_type_id":"4","last_reported":1740492577,"current_range_meters":8800,"station_id":"ce4bhqp2rcd13ifvqhog","pricing_plan_id":"cebpf4jnsgd1na2vs0mg"},{"bike_id":"1652a3b2-3a12-4724-bcde-9b9ef817b805","system_id":"levelo_inurba_marseille","lat":43.28676,"lon":5.38666,"is_reserved":false,"is_disabled":false,"rental_uris":{"android":"levelo://app?vid=1652a3b2-3a12-4724-bcde-9b9ef817b805","ios":"levelo://app?vid=1652a3b2-3a12-4724-bcde-9b9ef817b805"},"vehicle_type_id":"4","last_reported":1740492577,"current_range_meters":8800,"station_id":"ce4bh492rcd13ifvqdug","pricing_plan_id":"cebpf4jnsgd1na2vs0mg"},{"bike_id":"e10546ad-6294-4afc-82bb-67f99aa6c4be","system_id":"levelo_inurba_marseille","lat":43.25007,"lon":5.38939,"is_reserved":false,"is_disabled":false,"rental_uris":{"android":"levelo://app?vid=e10546ad-6294-4afc-82bb-67f99aa6c4be","ios":"levelo://app?vid=e10546ad-6294-4afc-82bb-67f99aa6c4be"},"vehicle_type_id":"4","last_reported":1740492577,"current_range_meters":9200,"station_id":"ce4bhgp2rcd13ifvqfd0","pricing_plan_id":"cebpf4jnsgd1na2vs0mg"},{"bike_id":"e4d253b1-bed8-4007-8de6-68c7c5badcca","system_id":"levelo_inurba_marseille","lat":43.29272,"lon":5.36852,"is_reserved":false,"is_disabled":false,"rental_uris":{"android":"levelo://app?vid=e4d253b1-bed8-4007-8de6-68c7c5badcca","ios":"levelo://app?vid=e4d253b1-bed8-4007-8de6-68c7c5badcca"},"vehicle_type_id":"4","last_reported":1740492577,"current_range_meters":9600,"station_id":"ce4bhbp2rcd13ifvqesg","pricing_plan_id":"cebpf4jnsgd1na2vs0mg"},{"bike_id":"e5c275a2-a964-47d8-9489-ed1126cf4cef","system_id":"levelo_inurba_marseille","lat":43.29631,"lon":5.37867,"is_reserved":false,"is_disabled":false,"rental_uris":{"android":"levelo://app?vid=e5c275a2-a964-47d8-9489-ed1126cf4cef","ios":"levelo://app?vid=e5c275a2-a964-47d8-9489-ed1126cf4cef"},"vehicle_type_id":"4","last_reported":1740492577,"current_range_meters":10000,"station_id":"","pricing_plan_id":"cebpf4jnsgd1na2vs0mg"},{"bike_id":"b86f6d09-16f9-40a7-b718-fbd2f6f5e660","system_id":"levelo_inurba_marseille","lat":43.25585,"lon":5.3823,"is_reserved":false,"is_disabled":false,"rental_uris":{"android":"levelo://app?vid=b86f6d09-16f9-40a7-b718-fbd2f6f5e660","ios":"levelo://app?vid=b86f6d09-16f9-40a7-b718-fbd2f6f5e660"},"vehicle_type_id":"4","last_reported":1740492577,"current_range_meters":10000,"station_id":"ce4bhih2rcd13ifvqfs0","pricing_plan_id":"cebpf4jnsgd1na2vs0mg"},{"bike_id":"b8ce8132-e8a7-4e14-aa42-3537bd2b6a78","system_id":"levelo_inurba_marseille","lat":43.2465,"lon":5.38184,"is_reserved":false,"is_disabled":false,"rental_uris":{"android":"levelo://app?vid=b8ce8132-e8a7-4e14-aa42-3537bd2b6a78","ios":"levelo://app?vid=b8ce8132-e8a7-4e14-aa42-3537bd2b6a78"},"vehicle_type_id":"4","last_reported":1740492577,"current_range_meters":17600,"station_id":"ce4bhih2rcd13ifvqfr0","pricing_plan_id":"cebpf4jnsgd1na2vs0mg"},{"bike_id":"cb1dca2d-42b0-4b63-b8de-48ac3f2952bb","system_id":"levelo_inurba_marseille","lat":43.3303,"lon":5.39043,"is_reserved":false,"is_disabled":false,"rental_uris":{"android":"levelo://app?vid=cb1dca2d-42b0-4b63-b8de-48ac3f2952bb","ios":"levelo://app?vid=cb1dca2d-42b0-4b63-b8de-48ac3f2952bb"},"vehicle_type_id":"4","last_reported":1740492577,"current_range_meters":10000,"station_id":"ce4bhr92rcd13ifvqhrg","pricing_plan_id":"cebpf4jnsgd1na2vs0mg"},{"bike_id":"975dd747-20cd-4bf5-b88d-218b60babb5e","system_id":"levelo_inurba_marseille","lat":43.3028,"lon":5.37716,"is_reserved":false,"is_disabled":false,"rental_uris":{"android":"levelo://app?vid=975dd747-20cd-4bf5-b88d-218b60babb5e","ios":"levelo://app?vid=975dd747-20cd-4bf5-b88d-218b60babb5e"},"vehicle_type_id":"4","last_reported":1740492577,"current_range_meters":10000,"station_id":"ce4bguh2rcd13ifvqcj0","pricing_plan_id":"cebpf4jnsgd1na2vs0mg"},{"bike_id":"723864c1-6cc4-47c6-9ea7-8902d9b08bd4","system_id":"levelo_inurba_marseille","lat":43.29534,"lon":5.38538,"is_reserved":false,"is_disabled":false,"rental_uris":{"android":"levelo://app?vid=723864c1-6cc4-47c6-9ea7-8902d9b08bd4","ios":"levelo://app?vid=723864c1-6cc4-47c6-9ea7-8902d9b08bd4"},"vehicle_type_id":"4","last_reported":1740492577,"current_range_meters":10800,"station_id":"ce4bgih2rcd13ifvqba0","pricing_plan_id":"cebpf4jnsgd1na2vs0mg"},{"bike_id":"fb882053-c9da-4ac0-a6ba-3b807d608aaa","system_id":"levelo_inurba_marseille","lat":43.28469,"lon":5.38565,"is_reserved":false,"is_disabled":false,"rental_uris":{"android":"levelo://app?vid=fb882053-c9da-4ac0-a6ba-3b807d608aaa","ios":"levelo://app?vid=fb882053-c9da-4ac0-a6ba-3b807d608aaa"},"vehicle_type_id":"4","last_reported":1740492577,"current_range_meters":11600,"station_id":"ce4bh8p2rcd13ifvqeb0","pricing_plan_id":"cebpf4jnsgd1na2vs0mg"},{"bike_id":"c640630b-5c3d-4547-88c2-bba54d07cac2","system_id":"levelo_inurba_marseille","lat":43.30226,"lon":5.37342,"is_reserved":false,"is_disabled":false,"rental_uris":{"android":"levelo://app?vid=c640630b-5c3d-4547-88c2-bba54d07cac2","ios":"levelo://app?vid=c640630b-5c3d-4547-88c2-bba54d07cac2"},"vehicle_type_id":"4","last_reported":1740492577,"current_range_meters":10800,"station_id":"","pricing_plan_id":"cebpf4jnsgd1na2vs0mg"},{"bike_id":"65e3dbf5-cb43-4afc-9f8b-0026fd886e1f","system_id":"levelo_inurba_marseille","lat":43.32467,"lon":5.36537,"is_reserved":false,"is_disabled":false,"rental_uris":{"android":"levelo://app?vid=65e3dbf5-cb43-4afc-9f8b-0026fd886e1f","ios":"levelo://app?vid=65e3dbf5-cb43-4afc-9f8b-0026fd886e1f"},"vehicle_type_id":"4","last_reported":1740492577,"current_range_meters":10800,"station_id":"ce4bhs12rcd13ifvqhvg","pricing_plan_id":"cebpf4jnsgd1na2vs0mg"},{"bike_id":"b8056528-61d4-45d9-b2dd-e6ab8ef50c51","system_id":"levelo_inurba_marseille","lat":43.31279,"lon":5.40158,"is_reserved":false,"is_disabled":false,"rental_uris":{"android":"levelo://app?vid=b8056528-61d4-45d9-b2dd-e6ab8ef50c51","ios":"levelo://app?vid=b8056528-61d4-45d9-b2dd-e6ab8ef50c51"},"vehicle_type_id":"4","last_reported":1740492577,"current_range_meters":11200,"station_id":"ce4bh092rcd13ifvqd30","pricing_plan_id":"cebpf4jnsgd1na2vs0mg"},{"bike_id":"41c45514-78ef-4437-b6cf-da857a9e58ef","system_id":"levelo_inurba_marseille","lat":43.25873,"lon":5.39442,"is_reserved":false,"is_disabled":false,"rental_uris":{"android":"levelo://app?vid=41c45514-78ef-4437-b6cf-da857a9e58ef","ios":"levelo://app?vid=41c45514-78ef-4437-b6cf-da857a9e58ef"},"vehicle_type_id":"4","last_reported":1740492577,"current_range_meters":11600,"station_id":"","pricing_plan_id":"cebpf4jnsgd1na2vs0mg"},{"bike_id":"878c32b5-179a-4ac2-a49d-7c559b23f22f","system_id":"levelo_inurba_marseille","lat":43.29627,"lon":5.3772,"is_reserved":false,"is_disabled":false,"rental_uris":{"android":"levelo://app?vid=878c32b5-179a-4ac2-a49d-7c559b23f22f","ios":"levelo://app?vid=878c32b5-179a-4ac2-a49d-7c559b23f22f"},"vehicle_type_id":"4","last_reported":1740492577,"current_range_meters":10800,"station_id":"ce4bgi92rcd13ifvqb90","pricing_plan_id":"cebpf4jnsgd1na2vs0mg"},{"bike_id":"902dd7ea-c076-4eac-add9-7f947c774650","system_id":"levelo_inurba_marseille","lat":43.28942,"lon":5.3663,"is_reserved":false,"is_disabled":false,"rental_uris":{"android":"levelo://app?vid=902dd7ea-c076-4eac-add9-7f947c774650","ios":"levelo://app?vid=902dd7ea-c076-4eac-add9-7f947c774650"},"vehicle_type_id":"4","last_reported":1740492577,"current_range_meters":11200,"station_id":"ce4bhap2rcd13ifvqek0","pricing_plan_id":"cebpf4jnsgd1na2vs0mg"},{"bike_id":"c53ed6e7-916e-40f4-9e84-94eccc7a73ea","system_id":"levelo_inurba_marseille","lat":43.23144,"lon":5.43728,"is_reserved":false,"is_disabled":false,"rental_uris":{"android":"levelo://app?vid=c53ed6e7-916e-40f4-9e84-94eccc7a73ea","ios":"levelo://app?vid=c53ed6e7-916e-40f4-9e84-94eccc7a73ea"},"vehicle_type_id":"4","last_reported":1740492577,"current_range_meters":11200,"station_id":"ce4bhmp2rcd13ifvqgog","pricing_plan_id":"cebpf4jnsgd1na2vs0mg"},{"bike_id":"b8b4ce43-e0a2-4354-82d5-9023082898eb","system_id":"levelo_inurba_marseille","lat":43.29935,"lon":5.36567,"is_reserved":false,"is_disabled":false,"rental_uris":{"android":"levelo://app?vid=b8b4ce43-e0a2-4354-82d5-9023082898eb","ios":"levelo://app?vid=b8b4ce43-e0a2-4354-82d5-9023082898eb"},"vehicle_type_id":"4","last_reported":1740492577,"current_range_meters":16400,"station_id":"ce4bgm92rcd13ifvqbr0","pricing_plan_id":"cebpf4jnsgd1na2vs0mg"},{"bike_id":"05f51bd6-bf8c-4b6c-ba2f-d7bf7cec3006","system_id":"levelo_inurba_marseille","lat":43.23191,"lon":5.35564,"is_reserved":false,"is_disabled":false,"rental_uris":{"android":"levelo://app?vid=05f51bd6-bf8c-4b6c-ba2f-d7bf7cec3006","ios":"levelo://app?vid=05f51bd6-bf8c-4b6c-ba2f-d7bf7cec3006"},"vehicle_type_id":"4","last_reported":1740492577,"current_range_meters":11600,"station_id":"ce4bhu92rcd13ifvqi70","pricing_plan_id":"cebpf4jnsgd1na2vs0mg"},{"bike_id":"8b50cb91-471e-4bba-86b9-2a8678b6b9ea","system_id":"levelo_inurba_marseille","lat":43.29549,"lon":5.38544,"is_reserved":false,"is_disabled":false,"rental_uris":{"android":"levelo://app?vid=8b50cb91-471e-4bba-86b9-2a8678b6b9ea","ios":"levelo://app?vid=8b50cb91-471e-4bba-86b9-2a8678b6b9ea"},"vehicle_type_id":"4","last_reported":1740492577,"current_range_meters":11600,"station_id":"ce4bgih2rcd13ifvqba0","pricing_plan_id":"cebpf4jnsgd1na2vs0mg"},{"bike_id":"4a40bf19-bec1-4fda-8ce8-dcca5326a159","system_id":"levelo_inurba_marseille","lat":43.25714,"lon":5.41123,"is_reserved":false,"is_disabled":false,"rental_uris":{"android":"levelo://app?vid=4a40bf19-bec1-4fda-8ce8-dcca5326a159","ios":"levelo://app?vid=4a40bf19-bec1-4fda-8ce8-dcca5326a159"},"vehicle_type_id":"4","last_reported":1740492577,"current_range_meters":12000,"station_id":"ce4bhkp2rcd13ifvqgd0","pricing_plan_id":"cebpf4jnsgd1na2vs0mg"},{"bike_id":"1745ff5b-91bf-4118-945a-d24708d322b1","system_id":"levelo_inurba_marseille","lat":43.3113,"lon":5.37804,"is_reserved":false,"is_disabled":false,"rental_uris":{"android":"levelo://app?vid=1745ff5b-91bf-4118-945a-d24708d322b1","ios":"levelo://app?vid=1745ff5b-91bf-4118-945a-d24708d322b1"},"vehicle_type_id":"4","last_reported":1740492577,"current_range_meters":11200,"station_id":"ce4bgt92rcd13ifvqcg0","pricing_plan_id":"cebpf4jnsgd1na2vs0mg"},{"bike_id":"49cf1781-1184-40b1-919a-bd84a9db0fc1","system_id":"levelo_inurba_marseille","lat":43.30804,"lon":5.40074,"is_reserved":false,"is_disabled":false,"rental_uris":{"android":"levelo://app?vid=49cf1781-1184-40b1-919a-bd84a9db0fc1","ios":"levelo://app?vid=49cf1781-1184-40b1-919a-bd84a9db0fc1"},"vehicle_type_id":"4","last_reported":1740492577,"current_range_meters":12400,"station_id":"ce4bh092rcd13ifvqd20","pricing_plan_id":"cebpf4jnsgd1na2vs0mg"},{"bike_id":"6bb7a600-4627-48d6-a6ba-24a72f10b0e3","system_id":"levelo_inurba_marseille","lat":43.23159,"lon":5.43713,"is_reserved":false,"is_disabled":false,"rental_uris":{"android":"levelo://app?vid=6bb7a600-4627-48d6-a6ba-24a72f10b0e3","ios":"levelo://app?vid=6bb7a600-4627-48d6-a6ba-24a72f10b0e3"},"vehicle_type_id":"4","last_reported":1740492577,"current_range_meters":12400,"station_id":"ce4bhmp2rcd13ifvqgog","pricing_plan_id":"cebpf4jnsgd1na2vs0mg"},{"bike_id":"aa461733-5cf8-4735-867e-49f8d4ad6795","system_id":"levelo_inurba_marseille","lat":43.2928,"lon":5.36846,"is_reserved":false,"is_disabled":false,"rental_uris":{"android":"levelo://app?vid=aa461733-5cf8-4735-867e-49f8d4ad6795","ios":"levelo://app?vid=aa461733-5cf8-4735-867e-49f8d4ad6795"},"vehicle_type_id":"4","last_reported":1740492577,"current_range_meters":12800,"station_id":"ce4bhbp2rcd13ifvqesg","pricing_plan_id":"cebpf4jnsgd1na2vs0mg"},{"bike_id":"ba353e72-b588-4062-b8a0-6bc1629aa033","system_id":"levelo_inurba_marseille","lat":43.29267,"lon":5.36843,"is_reserved":false,"is_disabled":false,"rental_uris":{"android":"levelo://app?vid=ba353e72-b588-4062-b8a0-6bc1629aa033","ios":"levelo://app?vid=ba353e72-b588-4062-b8a0-6bc1629aa033"},"vehicle_type_id":"4","last_reported":1740492577,"current_range_meters":12400,"station_id":"ce4bhbp2rcd13ifvqesg","pricing_plan_id":"cebpf4jnsgd1na2vs0mg"},{"bike_id":"60e4088c-22e7-4e01-b892-be99f37e2e26","system_id":"levelo_inurba_marseille","lat":43.29425,"lon":5.38627,"is_reserved":false,"is_disabled":false,"rental_uris":{"android":"levelo://app?vid=60e4088c-22e7-4e01-b892-be99f37e2e26","ios":"levelo://app?vid=60e4088c-22e7-4e01-b892-be99f37e2e26"},"vehicle_type_id":"4","last_reported":1740492577,"current_range_meters":12000,"station_id":"ce4bh2h2rcd13ifvqdh0","pricing_plan_id":"cebpf4jnsgd1na2vs0mg"},{"bike_id":"c2336e3d-90a2-4750-a7a4-7124c33ece43","system_id":"levelo_inurba_marseille","lat":43.23156,"lon":5.43723,"is_reserved":false,"is_disabled":false,"rental_uris":{"android":"levelo://app?vid=c2336e3d-90a2-4750-a7a4-7124c33ece43","ios":"levelo://app?vid=c2336e3d-90a2-4750-a7a4-7124c33ece43"},"vehicle_type_id":"4","last_reported":1740492577,"current_range_meters":12800,"station_id":"ce4bhmp2rcd13ifvqgog","pricing_plan_id":"cebpf4jnsgd1na2vs0mg"},{"bike_id":"14fa95ea-5b71-47de-b78a-949fcb225e5d","system_id":"levelo_inurba_marseille","lat":43.28484,"lon":5.38569,"is_reserved":false,"is_disabled":false,"rental_uris":{"android":"levelo://app?vid=14fa95ea-5b71-47de-b78a-949fcb225e5d","ios":"levelo://app?vid=14fa95ea-5b71-47de-b78a-949fcb225e5d"},"vehicle_type_id":"4","last_reported":1740492577,"current_range_meters":12800,"station_id":"ce4bh8p2rcd13ifvqeb0","pricing_plan_id":"cebpf4jnsgd1na2vs0mg"},{"bike_id":"3c5f949b-6f7c-4175-884a-b85816e22df3","system_id":"levelo_inurba_marseille","lat":43.31336,"lon":5.39678,"is_reserved":false,"is_disabled":false,"rental_uris":{"android":"levelo://app?vid=3c5f949b-6f7c-4175-884a-b85816e22df3","ios":"levelo://app?vid=3c5f949b-6f7c-4175-884a-b85816e22df3"},"vehicle_type_id":"4","last_reported":1740492577,"current_range_meters":12800,"station_id":"ce4bgvp2rcd13ifvqcu0","pricing_plan_id":"cebpf4jnsgd1na2vs0mg"},{"bike_id":"2a28bcfe-6497-4079-988a-cc641db203ed","system_id":"levelo_inurba_marseille","lat":43.2794,"lon":5.41047,"is_reserved":false,"is_disabled":false,"rental_uris":{"android":"levelo://app?vid=2a28bcfe-6497-4079-988a-cc641db203ed","ios":"levelo://app?vid=2a28bcfe-6497-4079-988a-cc641db203ed"},"vehicle_type_id":"4","last_reported":1740492577,"current_range_meters":12800,"station_id":"ce4bhnp2rcd13ifvqh0g","pricing_plan_id":"cebpf4jnsgd1na2vs0mg"},{"bike_id":"64515ed0-7107-4b97-86ea-07910f22d534","system_id":"levelo_inurba_marseille","lat":43.31711,"lon":5.43711,"is_reserved":false,"is_disabled":false,"rental_uris":{"android":"levelo://app?vid=64515ed0-7107-4b97-86ea-07910f22d534","ios":"levelo://app?vid=64515ed0-7107-4b97-86ea-07910f22d534"},"vehicle_type_id":"4","last_reported":1740492577,"current_range_meters":13600,"station_id":"ce4bhp92rcd13ifvqhcg","pricing_plan_id":"cebpf4jnsgd1na2vs0mg"},{"bike_id":"278c8dfa-dce5-4580-9f98-1e5bf687fe79","system_id":"levelo_inurba_marseille","lat":43.32484,"lon":5.36565,"is_reserved":false,"is_disabled":false,"rental_uris":{"android":"levelo://app?vid=278c8dfa-dce5-4580-9f98-1e5bf687fe79","ios":"levelo://app?vid=278c8dfa-dce5-4580-9f98-1e5bf687fe79"},"vehicle_type_id":"4","last_reported":1740492577,"current_range_meters":14000,"station_id":"ce4bhs12rcd13ifvqhvg","pricing_plan_id":"cebpf4jnsgd1na2vs0mg"},{"bike_id":"8a84b22a-cb9c-48aa-9755-f8a2807b20d8","system_id":"levelo_inurba_marseille","lat":43.26788,"lon":5.39414,"is_reserved":false,"is_disabled":false,"rental_uris":{"android":"levelo://app?vid=8a84b22a-cb9c-48aa-9755-f8a2807b20d8","ios":"levelo://app?vid=8a84b22a-cb9c-48aa-9755-f8a2807b20d8"},"vehicle_type_id":"4","last_reported":1740492577,"current_range_meters":11600,"station_id":"ce4bhh12rcd13ifvqfg0","pricing_plan_id":"cebpf4jnsgd1na2vs0mg"},{"bike_id":"9062f7b6-9c81-49b8-a1bd-5df58202afcd","system_id":"levelo_inurba_marseille","lat":43.31703,"lon":5.437,"is_reserved":false,"is_disabled":false,"rental_uris":{"android":"levelo://app?vid=9062f7b6-9c81-49b8-a1bd-5df58202afcd","ios":"levelo://app?vid=9062f7b6-9c81-49b8-a1bd-5df58202afcd"},"vehicle_type_id":"4","last_reported":1740492577,"current_range_meters":13600,"station_id":"ce4bhp92rcd13ifvqhcg","pricing_plan_id":"cebpf4jnsgd1na2vs0mg"},{"bike_id":"da44370b-39cc-4902-bda0-b0c51a3d8219","system_id":"levelo_inurba_marseille","lat":43.2678,"lon":5.39419,"is_reserved":false,"is_disabled":false,"rental_uris":{"android":"levelo://app?vid=da44370b-39cc-4902-bda0-b0c51a3d8219","ios":"levelo://app?vid=da44370b-39cc-4902-bda0-b0c51a3d8219"},"vehicle_type_id":"4","last_reported":1740492577,"current_range_meters":12800,"station_id":"ce4bhh12rcd13ifvqfg0","pricing_plan_id":"cebpf4jnsgd1na2vs0mg"},{"bike_id":"634d85c0-44a9-4c88-be29-143f48c8c80f","system_id":"levelo_inurba_marseille","lat":43.29027,"lon":5.38641,"is_reserved":false,"is_disabled":false,"rental_uris":{"android":"levelo://app?vid=634d85c0-44a9-4c88-be29-143f48c8c80f","ios":"levelo://app?vid=634d85c0-44a9-4c88-be29-143f48c8c80f"},"vehicle_type_id":"4","last_reported":1740492577,"current_range_meters":14400,"station_id":"ce4bh4p2rcd13ifvqe0g","pricing_plan_id":"cebpf4jnsgd1na2vs0mg"},{"bike_id":"ade1bda9-a7d0-447d-90fc-df962831887e","system_id":"levelo_inurba_marseille","lat":43.309508,"lon":5.390261,"is_reserved":false,"is_disabled":false,"rental_uris":{"android":"levelo://app?vid=ade1bda9-a7d0-447d-90fc-df962831887e","ios":"levelo://app?vid=ade1bda9-a7d0-447d-90fc-df962831887e"},"vehicle_type_id":"4","last_reported":1740492577,"current_range_meters":13600,"station_id":"ce4bh192rcd13ifvqdb0","pricing_plan_id":"cebpf4jnsgd1na2vs0mg"},{"bike_id":"36427cee-8fdc-4a4f-9ac9-c2ae0b53a1e7","system_id":"levelo_inurba_marseille","lat":43.32368,"lon":5.389,"is_reserved":false,"is_disabled":false,"rental_uris":{"android":"levelo://app?vid=36427cee-8fdc-4a4f-9ac9-c2ae0b53a1e7","ios":"levelo://app?vid=36427cee-8fdc-4a4f-9ac9-c2ae0b53a1e7"},"vehicle_type_id":"4","last_reported":1740492577,"current_range_meters":13600,"station_id":"ce4bhqp2rcd13ifvqhog","pricing_plan_id":"cebpf4jnsgd1na2vs0mg"},{"bike_id":"ceb9fb3d-9ed0-4f4c-a3b6-02069e7f6eee","system_id":"levelo_inurba_marseille","lat":43.292,"lon":5.35809,"is_reserved":false,"is_disabled":false,"rental_uris":{"android":"levelo://app?vid=ceb9fb3d-9ed0-4f4c-a3b6-02069e7f6eee","ios":"levelo://app?vid=ceb9fb3d-9ed0-4f4c-a3b6-02069e7f6eee"},"vehicle_type_id":"4","last_reported":1740492577,"current_range_meters":12800,"station_id":"ce4bhb12rcd13ifvqel0","pricing_plan_id":"cebpf4jnsgd1na2vs0mg"},{"bike_id":"c1a6f2b9-0759-4679-b9e3-aa8adf885b07","system_id":"levelo_inurba_marseille","lat":43.29262,"lon":5.38436,"is_reserved":false,"is_disabled":false,"rental_uris":{"android":"levelo://app?vid=c1a6f2b9-0759-4679-b9e3-aa8adf885b07","ios":"levelo://app?vid=c1a6f2b9-0759-4679-b9e3-aa8adf885b07"},"vehicle_type_id":"4","last_reported":1740492577,"current_range_meters":14400,"station_id":"ce4bh692rcd13ifvqea0","pricing_plan_id":"cebpf4jnsgd1na2vs0mg"},{"bike_id":"6433cc9a-a305-4634-ae05-67bf1e361cc9","system_id":"levelo_inurba_marseille","lat":43.29053,"lon":5.37579,"is_reserved":false,"is_disabled":false,"rental_uris":{"android":"levelo://app?vid=6433cc9a-a305-4634-ae05-67bf1e361cc9","ios":"levelo://app?vid=6433cc9a-a305-4634-ae05-67bf1e361cc9"},"vehicle_type_id":"4","last_reported":1740492577,"current_range_meters":14000,"station_id":"ce4bh692rcd13ifvqe90","pricing_plan_id":"cebpf4jnsgd1na2vs0mg"},{"bike_id":"6f207b35-4400-4fec-a36f-c4c946355a95","system_id":"levelo_inurba_marseille","lat":43.27944,"lon":5.41036,"is_reserved":false,"is_disabled":false,"rental_uris":{"android":"levelo://app?vid=6f207b35-4400-4fec-a36f-c4c946355a95","ios":"levelo://app?vid=6f207b35-4400-4fec-a36f-c4c946355a95"},"vehicle_type_id":"4","last_reported":1740492577,"current_range_meters":16000,"station_id":"ce4bhnp2rcd13ifvqh0g","pricing_plan_id":"cebpf4jnsgd1na2vs0mg"},{"bike_id":"7c45866a-bd99-4c12-9747-66203f12a96e","system_id":"levelo_inurba_marseille","lat":43.23133,"lon":5.3551,"is_reserved":false,"is_disabled":false,"rental_uris":{"android":"levelo://app?vid=7c45866a-bd99-4c12-9747-66203f12a96e","ios":"levelo://app?vid=7c45866a-bd99-4c12-9747-66203f12a96e"},"vehicle_type_id":"4","last_reported":1740492577,"current_range_meters":14000,"station_id":"","pricing_plan_id":"cebpf4jnsgd1na2vs0mg"},{"bike_id":"078ec0b8-f3ee-40a5-83dd-16c6ac25214b","system_id":"levelo_inurba_marseille","lat":43.25014,"lon":5.38928,"is_reserved":false,"is_disabled":false,"rental_uris":{"android":"levelo://app?vid=078ec0b8-f3ee-40a5-83dd-16c6ac25214b","ios":"levelo://app?vid=078ec0b8-f3ee-40a5-83dd-16c6ac25214b"},"vehicle_type_id":"4","last_reported":1740492577,"current_range_meters":14000,"station_id":"ce4bhgp2rcd13ifvqfd0","pricing_plan_id":"cebpf4jnsgd1na2vs0mg"},{"bike_id":"d0801915-0de0-4f9d-9726-750b42c06614","system_id":"levelo_inurba_marseille","lat":43.32104,"lon":5.36775,"is_reserved":false,"is_disabled":false,"rental_uris":{"android":"levelo://app?vid=d0801915-0de0-4f9d-9726-750b42c06614","ios":"levelo://app?vid=d0801915-0de0-4f9d-9726-750b42c06614"},"vehicle_type_id":"4","last_reported":1740492577,"current_range_meters":14000,"station_id":"ce4bhrh2rcd13ifvqhug","pricing_plan_id":"cebpf4jnsgd1na2vs0mg"},{"bike_id":"d1be27af-1a2b-44ff-915e-b0796cf8ca52","system_id":"levelo_inurba_marseille","lat":43.29043,"lon":5.37577,"is_reserved":false,"is_disabled":false,"rental_uris":{"android":"levelo://app?vid=d1be27af-1a2b-44ff-915e-b0796cf8ca52","ios":"levelo://app?vid=d1be27af-1a2b-44ff-915e-b0796cf8ca52"},"vehicle_type_id":"4","last_reported":1740492577,"current_range_meters":14000,"station_id":"ce4bh692rcd13ifvqe90","pricing_plan_id":"cebpf4jnsgd1na2vs0mg"},{"bike_id":"60853161-068b-40e6-93ed-08f6dba97e47","system_id":"levelo_inurba_marseille","lat":43.29876,"lon":5.39733,"is_reserved":false,"is_disabled":false,"rental_uris":{"android":"levelo://app?vid=60853161-068b-40e6-93ed-08f6dba97e47","ios":"levelo://app?vid=60853161-068b-40e6-93ed-08f6dba97e47"},"vehicle_type_id":"4","last_reported":1740492577,"current_range_meters":11200,"station_id":"ce4bh0h2rcd13ifvqd50","pricing_plan_id":"cebpf4jnsgd1na2vs0mg"},{"bike_id":"bb76425b-b3d5-4276-b78e-6ba609d47b37","system_id":"levelo_inurba_marseille","lat":43.29929,"lon":5.38135,"is_reserved":false,"is_disabled":false,"rental_uris":{"android":"levelo://app?vid=bb76425b-b3d5-4276-b78e-6ba609d47b37","ios":"levelo://app?vid=bb76425b-b3d5-4276-b78e-6ba609d47b37"},"vehicle_type_id":"4","last_reported":1740492577,"current_range_meters":14800,"station_id":"ce4bgj12rcd13ifvqbc0","pricing_plan_id":"cebpf4jnsgd1na2vs0mg"},{"bike_id":"5c16bfc0-8c67-4248-b6e3-2d2b062a88b5","system_id":"levelo_inurba_marseille","lat":43.24049,"lon":5.37725,"is_reserved":false,"is_disabled":false,"rental_uris":{"android":"levelo://app?vid=5c16bfc0-8c67-4248-b6e3-2d2b062a88b5","ios":"levelo://app?vid=5c16bfc0-8c67-4248-b6e3-2d2b062a88b5"},"vehicle_type_id":"4","last_reported":1740492577,"current_range_meters":15200,"station_id":"ce4bhnp2rcd13ifvqgvg","pricing_plan_id":"cebpf4jnsgd1na2vs0mg"},{"bike_id":"19fc91b8-7ac0-4caa-89c0-b395ae6b9802","system_id":"levelo_inurba_marseille","lat":43.26188,"lon":5.3744,"is_reserved":false,"is_disabled":false,"rental_uris":{"android":"levelo://app?vid=19fc91b8-7ac0-4caa-89c0-b395ae6b9802","ios":"levelo://app?vid=19fc91b8-7ac0-4caa-89c0-b395ae6b9802"},"vehicle_type_id":"4","last_reported":1740492577,"current_range_meters":14800,"station_id":"ce4bhgp2rcd13ifvqfc0","pricing_plan_id":"cebpf4jnsgd1na2vs0mg"},{"bike_id":"af0d9327-4bf1-4fcf-91c8-92b5b20071ee","system_id":"levelo_inurba_marseille","lat":43.27321,"lon":5.39067,"is_reserved":false,"is_disabled":false,"rental_uris":{"android":"levelo://app?vid=af0d9327-4bf1-4fcf-91c8-92b5b20071ee","ios":"levelo://app?vid=af0d9327-4bf1-4fcf-91c8-92b5b20071ee"},"vehicle_type_id":"4","last_reported":1740492577,"current_range_meters":14800,"station_id":"ce4bhgp2rcd13ifvqfe0","pricing_plan_id":"cebpf4jnsgd1na2vs0mg"},{"bike_id":"7521262a-df32-496c-bb53-5f9fa91d7a81","system_id":"levelo_inurba_marseille","lat":43.27377,"lon":5.36246,"is_reserved":false,"is_disabled":false,"rental_uris":{"android":"levelo://app?vid=7521262a-df32-496c-bb53-5f9fa91d7a81","ios":"levelo://app?vid=7521262a-df32-496c-bb53-5f9fa91d7a81"},"vehicle_type_id":"4","last_reported":1740492577,"current_range_meters":14800,"station_id":"ce4bhbh2rcd13ifvqeo0","pricing_plan_id":"cebpf4jnsgd1na2vs0mg"},{"bike_id":"07091a64-27dd-40d7-b3df-782d1d719f04","system_id":"levelo_inurba_marseille","lat":43.287444,"lon":5.426117,"is_reserved":false,"is_disabled":false,"rental_uris":{"android":"levelo://app?vid=07091a64-27dd-40d7-b3df-782d1d719f04","ios":"levelo://app?vid=07091a64-27dd-40d7-b3df-782d1d719f04"},"vehicle_type_id":"4","last_reported":1740492577,"current_range_meters":14800,"station_id":"ce4bhp92rcd13ifvqhag","pricing_plan_id":"cebpf4jnsgd1na2vs0mg"},{"bike_id":"559d2ff5-c6e9-406e-80a0-efc22c94c078","system_id":"levelo_inurba_marseille","lat":43.299652,"lon":5.384862,"is_reserved":false,"is_disabled":false,"rental_uris":{"android":"levelo://app?vid=559d2ff5-c6e9-406e-80a0-efc22c94c078","ios":"levelo://app?vid=559d2ff5-c6e9-406e-80a0-efc22c94c078"},"vehicle_type_id":"4","last_reported":1740492577,"current_range_meters":15200,"station_id":"ce4bh012rcd13ifvqd10","pricing_plan_id":"cebpf4jnsgd1na2vs0mg"},{"bike_id":"f9aeb58a-c82d-47a8-9513-8a76751490c3","system_id":"levelo_inurba_marseille","lat":43.28727,"lon":5.36091,"is_reserved":false,"is_disabled":false,"rental_uris":{"android":"levelo://app?vid=f9aeb58a-c82d-47a8-9513-8a76751490c3","ios":"levelo://app?vid=f9aeb58a-c82d-47a8-9513-8a76751490c3"},"vehicle_type_id":"4","last_reported":1740492577,"current_range_meters":15200,"station_id":"cki0cbj6b192h4jlfktg","pricing_plan_id":"cebpf4jnsgd1na2vs0mg"},{"bike_id":"7750d85b-1fe2-4c07-981c-76163abfa8ef","system_id":"levelo_inurba_marseille","lat":43.28421,"lon":5.34973,"is_reserved":false,"is_disabled":false,"rental_uris":{"android":"levelo://app?vid=7750d85b-1fe2-4c07-981c-76163abfa8ef","ios":"levelo://app?vid=7750d85b-1fe2-4c07-981c-76163abfa8ef"},"vehicle_type_id":"4","last_reported":1740492577,"current_range_meters":15200,"station_id":"ce4bhbh2rcd13ifvqepg","pricing_plan_id":"cebpf4jnsgd1na2vs0mg"},{"bike_id":"77aea034-d40b-44ec-a3b0-a9bd9b158889","system_id":"levelo_inurba_marseille","lat":43.2828,"lon":5.35072,"is_reserved":false,"is_disabled":false,"rental_uris":{"android":"levelo://app?vid=77aea034-d40b-44ec-a3b0-a9bd9b158889","ios":"levelo://app?vid=77aea034-d40b-44ec-a3b0-a9bd9b158889"},"vehicle_type_id":"4","last_reported":1740492577,"current_range_meters":16000,"station_id":"ce4bhbp2rcd13ifvqerg","pricing_plan_id":"cebpf4jnsgd1na2vs0mg"},{"bike_id":"a4a24fb6-46b6-4074-af2f-eab4dc504424","system_id":"levelo_inurba_marseille","lat":43.27329,"lon":5.39082,"is_reserved":false,"is_disabled":false,"rental_uris":{"android":"levelo://app?vid=a4a24fb6-46b6-4074-af2f-eab4dc504424","ios":"levelo://app?vid=a4a24fb6-46b6-4074-af2f-eab4dc504424"},"vehicle_type_id":"4","last_reported":1740492577,"current_range_meters":16400,"station_id":"ce4bhgp2rcd13ifvqfe0","pricing_plan_id":"cebpf4jnsgd1na2vs0mg"},{"bike_id":"ebf18b50-37ba-4ef9-8eca-f595f189e384","system_id":"levelo_inurba_marseille","lat":43.28118,"lon":5.37822,"is_reserved":false,"is_disabled":false,"rental_uris":{"android":"levelo://app?vid=ebf18b50-37ba-4ef9-8eca-f595f189e384","ios":"levelo://app?vid=ebf18b50-37ba-4ef9-8eca-f595f189e384"},"vehicle_type_id":"4","last_reported":1740492577,"current_range_meters":16000,"station_id":"ce4bha12rcd13ifvqee0","pricing_plan_id":"cebpf4jnsgd1na2vs0mg"},{"bike_id":"63577696-17e3-4145-84fc-40c776ef9816","system_id":"levelo_inurba_marseille","lat":43.2851,"lon":5.38599,"is_reserved":false,"is_disabled":false,"rental_uris":{"android":"levelo://app?vid=63577696-17e3-4145-84fc-40c776ef9816","ios":"levelo://app?vid=63577696-17e3-4145-84fc-40c776ef9816"},"vehicle_type_id":"4","last_reported":1740492577,"current_range_meters":16000,"station_id":"ce4bh8p2rcd13ifvqeb0","pricing_plan_id":"cebpf4jnsgd1na2vs0mg"},{"bike_id":"4277977f-2081-4f4c-b8fa-7068f0c99ab8","system_id":"levelo_inurba_marseille","lat":43.34153,"lon":5.40905,"is_reserved":false,"is_disabled":false,"rental_uris":{"android":"levelo://app?vid=4277977f-2081-4f4c-b8fa-7068f0c99ab8","ios":"levelo://app?vid=4277977f-2081-4f4c-b8fa-7068f0c99ab8"},"vehicle_type_id":"4","last_reported":1740492577,"current_range_meters":16000,"station_id":"ce4bhqh2rcd13ifvqhlg","pricing_plan_id":"cebpf4jnsgd1na2vs0mg"},{"bike_id":"d0a3fe22-2a5d-42f7-9bb5-7580bd83a172","system_id":"levelo_inurba_marseille","lat":43.27322,"lon":5.39077,"is_reserved":false,"is_disabled":false,"rental_uris":{"android":"levelo://app?vid=d0a3fe22-2a5d-42f7-9bb5-7580bd83a172","ios":"levelo://app?vid=d0a3fe22-2a5d-42f7-9bb5-7580bd83a172"},"vehicle_type_id":"4","last_reported":1740492577,"current_range_meters":16000,"station_id":"ce4bhgp2rcd13ifvqfe0","pricing_plan_id":"cebpf4jnsgd1na2vs0mg"},{"bike_id":"0f6031aa-7eb9-478c-b923-f578a08b5083","system_id":"levelo_inurba_marseille","lat":43.30139,"lon":5.39871,"is_reserved":false,"is_disabled":false,"rental_uris":{"android":"levelo://app?vid=0f6031aa-7eb9-478c-b923-f578a08b5083","ios":"levelo://app?vid=0f6031aa-7eb9-478c-b923-f578a08b5083"},"vehicle_type_id":"4","last_reported":1740492577,"current_range_meters":16400,"station_id":"ce4bh0h2rcd13ifvqd40","pricing_plan_id":"cebpf4jnsgd1na2vs0mg"},{"bike_id":"aba51740-29e3-48c1-9870-e759fd1be32d","system_id":"levelo_inurba_marseille","lat":43.28854,"lon":5.35846,"is_reserved":false,"is_disabled":false,"rental_uris":{"android":"levelo://app?vid=aba51740-29e3-48c1-9870-e759fd1be32d","ios":"levelo://app?vid=aba51740-29e3-48c1-9870-e759fd1be32d"},"vehicle_type_id":"4","last_reported":1740492577,"current_range_meters":16000,"station_id":"ce4bhb12rcd13ifvqem0","pricing_plan_id":"cebpf4jnsgd1na2vs0mg"},{"bike_id":"00c6a2c9-78ec-4cb4-9bdb-3404a4229ede","system_id":"levelo_inurba_marseille","lat":43.298,"lon":5.380936,"is_reserved":false,"is_disabled":false,"rental_uris":{"android":"levelo://app?vid=00c6a2c9-78ec-4cb4-9bdb-3404a4229ede","ios":"levelo://app?vid=00c6a2c9-78ec-4cb4-9bdb-3404a4229ede"},"vehicle_type_id":"4","last_reported":1740492577,"current_range_meters":16400,"station_id":"ce4bgip2rcd13ifvqbb0","pricing_plan_id":"cebpf4jnsgd1na2vs0mg"},{"bike_id":"67ee95a1-160f-49c1-b11e-b3640680cd0d","system_id":"levelo_inurba_marseille","lat":43.32097,"lon":5.36799,"is_reserved":false,"is_disabled":false,"rental_uris":{"android":"levelo://app?vid=67ee95a1-160f-49c1-b11e-b3640680cd0d","ios":"levelo://app?vid=67ee95a1-160f-49c1-b11e-b3640680cd0d"},"vehicle_type_id":"4","last_reported":1740492577,"current_range_meters":16000,"station_id":"ce4bhrh2rcd13ifvqhug","pricing_plan_id":"cebpf4jnsgd1na2vs0mg"},{"bike_id":"83890c7b-209f-411f-8d9b-0a0d91e48d1a","system_id":"levelo_inurba_marseille","lat":43.262,"lon":5.37936,"is_reserved":false,"is_disabled":false,"rental_uris":{"android":"levelo://app?vid=83890c7b-209f-411f-8d9b-0a0d91e48d1a","ios":"levelo://app?vid=83890c7b-209f-411f-8d9b-0a0d91e48d1a"},"vehicle_type_id":"4","last_reported":1740492577,"current_range_meters":16800,"station_id":"ce4bhjp2rcd13ifvqg90","pricing_plan_id":"cebpf4jnsgd1na2vs0mg"},{"bike_id":"e243d213-ed43-4e21-80e0-52a63e903cce","system_id":"levelo_inurba_marseille","lat":43.29925,"lon":5.36511,"is_reserved":false,"is_disabled":false,"rental_uris":{"android":"levelo://app?vid=e243d213-ed43-4e21-80e0-52a63e903cce","ios":"levelo://app?vid=e243d213-ed43-4e21-80e0-52a63e903cce"},"vehicle_type_id":"4","last_reported":1740492577,"current_range_meters":19600,"station_id":"ce4bgm92rcd13ifvqbr0","pricing_plan_id":"cebpf4jnsgd1na2vs0mg"},{"bike_id":"57f655d6-190e-4e44-b667-ec1f702c996d","system_id":"levelo_inurba_marseille","lat":43.26804,"lon":5.39404,"is_reserved":false,"is_disabled":false,"rental_uris":{"android":"levelo://app?vid=57f655d6-190e-4e44-b667-ec1f702c996d","ios":"levelo://app?vid=57f655d6-190e-4e44-b667-ec1f702c996d"},"vehicle_type_id":"4","last_reported":1740492577,"current_range_meters":16800,"station_id":"ce4bhh12rcd13ifvqfg0","pricing_plan_id":"cebpf4jnsgd1na2vs0mg"},{"bike_id":"fd185638-92de-4ddc-bf01-e88230db275f","system_id":"levelo_inurba_marseille","lat":43.25787,"lon":5.39437,"is_reserved":false,"is_disabled":false,"rental_uris":{"android":"levelo://app?vid=fd185638-92de-4ddc-bf01-e88230db275f","ios":"levelo://app?vid=fd185638-92de-4ddc-bf01-e88230db275f"},"vehicle_type_id":"4","last_reported":1740492577,"current_range_meters":16800,"station_id":"ce4bhip2rcd13ifvqft0","pricing_plan_id":"cebpf4jnsgd1na2vs0mg"},{"bike_id":"b68c4a8d-14d8-4987-9dce-59319ae96c78","system_id":"levelo_inurba_marseille","lat":43.30903,"lon":5.36841,"is_reserved":false,"is_disabled":false,"rental_uris":{"android":"levelo://app?vid=b68c4a8d-14d8-4987-9dce-59319ae96c78","ios":"levelo://app?vid=b68c4a8d-14d8-4987-9dce-59319ae96c78"},"vehicle_type_id":"4","last_reported":1740492577,"current_range_meters":16800,"station_id":"","pricing_plan_id":"cebpf4jnsgd1na2vs0mg"},{"bike_id":"c0ed74a2-e2a8-41f0-9b03-a680909f2682","system_id":"levelo_inurba_marseille","lat":43.27943,"lon":5.4104,"is_reserved":false,"is_disabled":false,"rental_uris":{"android":"levelo://app?vid=c0ed74a2-e2a8-41f0-9b03-a680909f2682","ios":"levelo://app?vid=c0ed74a2-e2a8-41f0-9b03-a680909f2682"},"vehicle_type_id":"4","last_reported":1740492577,"current_range_meters":16800,"station_id":"ce4bhnp2rcd13ifvqh0g","pricing_plan_id":"cebpf4jnsgd1na2vs0mg"},{"bike_id":"59fa1c82-615e-4542-926f-b3beed36c55e","system_id":"levelo_inurba_marseille","lat":43.29573,"lon":5.37508,"is_reserved":false,"is_disabled":false,"rental_uris":{"android":"levelo://app?vid=59fa1c82-615e-4542-926f-b3beed36c55e","ios":"levelo://app?vid=59fa1c82-615e-4542-926f-b3beed36c55e"},"vehicle_type_id":"4","last_reported":1740492577,"current_range_meters":16800,"station_id":"ce4bgh92rcd13ifvqb50","pricing_plan_id":"cebpf4jnsgd1na2vs0mg"},{"bike_id":"99ecdcac-415f-4765-98a3-24c1718bdda8","system_id":"levelo_inurba_marseille","lat":43.30547,"lon":5.36681,"is_reserved":false,"is_disabled":false,"rental_uris":{"android":"levelo://app?vid=99ecdcac-415f-4765-98a3-24c1718bdda8","ios":"levelo://app?vid=99ecdcac-415f-4765-98a3-24c1718bdda8"},"vehicle_type_id":"4","last_reported":1740492577,"current_range_meters":16800,"station_id":"ce4bgrp2rcd13ifvqc9g","pricing_plan_id":"cebpf4jnsgd1na2vs0mg"},{"bike_id":"e6fc22a1-775d-41a6-85f7-328372e6e1eb","system_id":"levelo_inurba_marseille","lat":43.29261,"lon":5.3844,"is_reserved":false,"is_disabled":false,"rental_uris":{"android":"levelo://app?vid=e6fc22a1-775d-41a6-85f7-328372e6e1eb","ios":"levelo://app?vid=e6fc22a1-775d-41a6-85f7-328372e6e1eb"},"vehicle_type_id":"4","last_reported":1740492577,"current_range_meters":16800,"station_id":"ce4bh692rcd13ifvqea0","pricing_plan_id":"cebpf4jnsgd1na2vs0mg"},{"bike_id":"f4421d8b-4b81-46ee-8db0-0f77bd74c197","system_id":"levelo_inurba_marseille","lat":43.27324,"lon":5.39104,"is_reserved":false,"is_disabled":false,"rental_uris":{"android":"levelo://app?vid=f4421d8b-4b81-46ee-8db0-0f77bd74c197","ios":"levelo://app?vid=f4421d8b-4b81-46ee-8db0-0f77bd74c197"},"vehicle_type_id":"4","last_reported":1740492577,"current_range_meters":12800,"station_id":"ce4bhgp2rcd13ifvqfe0","pricing_plan_id":"cebpf4jnsgd1na2vs0mg"},{"bike_id":"62052d8c-b5e5-4a8c-b970-371303b57ddb","system_id":"levelo_inurba_marseille","lat":43.3266,"lon":5.40993,"is_reserved":false,"is_disabled":false,"rental_uris":{"android":"levelo://app?vid=62052d8c-b5e5-4a8c-b970-371303b57ddb","ios":"levelo://app?vid=62052d8c-b5e5-4a8c-b970-371303b57ddb"},"vehicle_type_id":"4","last_reported":1740492577,"current_range_meters":17600,"station_id":"ce4bhpp2rcd13ifvqhgg","pricing_plan_id":"cebpf4jnsgd1na2vs0mg"},{"bike_id":"1fe19272-a045-487f-8975-2b2a31d8ebb8","system_id":"levelo_inurba_marseille","lat":43.28617,"lon":5.35107,"is_reserved":false,"is_disabled":false,"rental_uris":{"android":"levelo://app?vid=1fe19272-a045-487f-8975-2b2a31d8ebb8","ios":"levelo://app?vid=1fe19272-a045-487f-8975-2b2a31d8ebb8"},"vehicle_type_id":"4","last_reported":1740492577,"current_range_meters":16800,"station_id":"ce4bhch2rcd13ifvqeug","pricing_plan_id":"cebpf4jnsgd1na2vs0mg"},{"bike_id":"0b2f5009-1e4e-4593-8abd-b74dc1937c26","system_id":"levelo_inurba_marseille","lat":43.23191,"lon":5.39991,"is_reserved":false,"is_disabled":false,"rental_uris":{"android":"levelo://app?vid=0b2f5009-1e4e-4593-8abd-b74dc1937c26","ios":"levelo://app?vid=0b2f5009-1e4e-4593-8abd-b74dc1937c26"},"vehicle_type_id":"4","last_reported":1740492577,"current_range_meters":16800,"station_id":"ce4bhn12rcd13ifvqgqg","pricing_plan_id":"cebpf4jnsgd1na2vs0mg"},{"bike_id":"4c0004af-5979-4109-b355-0b5abba3cfea","system_id":"levelo_inurba_marseille","lat":43.28268,"lon":5.35087,"is_reserved":false,"is_disabled":false,"rental_uris":{"android":"levelo://app?vid=4c0004af-5979-4109-b355-0b5abba3cfea","ios":"levelo://app?vid=4c0004af-5979-4109-b355-0b5abba3cfea"},"vehicle_type_id":"4","last_reported":1740492577,"current_range_meters":17200,"station_id":"ce4bhbp2rcd13ifvqerg","pricing_plan_id":"cebpf4jnsgd1na2vs0mg"},{"bike_id":"213567d1-3505-401c-a126-d07140b5bd92","system_id":"levelo_inurba_marseille","lat":43.26223,"lon":5.37462,"is_reserved":false,"is_disabled":false,"rental_uris":{"android":"levelo://app?vid=213567d1-3505-401c-a126-d07140b5bd92","ios":"levelo://app?vid=213567d1-3505-401c-a126-d07140b5bd92"},"vehicle_type_id":"4","last_reported":1740492577,"current_range_meters":17200,"station_id":"ce4bhgp2rcd13ifvqfc0","pricing_plan_id":"cebpf4jnsgd1na2vs0mg"},{"bike_id":"9eb54328-3733-476f-8a18-7b22967af4ec","system_id":"levelo_inurba_marseille","lat":43.30145,"lon":5.38088,"is_reserved":false,"is_disabled":false,"rental_uris":{"android":"levelo://app?vid=9eb54328-3733-476f-8a18-7b22967af4ec","ios":"levelo://app?vid=9eb54328-3733-476f-8a18-7b22967af4ec"},"vehicle_type_id":"4","last_reported":1740492577,"current_range_meters":16800,"station_id":"ce4bgjp2rcd13ifvqbh0","pricing_plan_id":"cebpf4jnsgd1na2vs0mg"},{"bike_id":"deb99ec7-cfb7-4c16-9a1a-630b44602de3","system_id":"levelo_inurba_marseille","lat":43.30145,"lon":5.37426,"is_reserved":false,"is_disabled":false,"rental_uris":{"android":"levelo://app?vid=deb99ec7-cfb7-4c16-9a1a-630b44602de3","ios":"levelo://app?vid=deb99ec7-cfb7-4c16-9a1a-630b44602de3"},"vehicle_type_id":"4","last_reported":1740492577,"current_range_meters":17200,"station_id":"ce4bgs92rcd13ifvqcc0","pricing_plan_id":"cebpf4jnsgd1na2vs0mg"},{"bike_id":"5028adc9-58e6-4dc1-b5fa-93640c035bb5","system_id":"levelo_inurba_marseille","lat":43.24546,"lon":5.39512,"is_reserved":false,"is_disabled":false,"rental_uris":{"android":"levelo://app?vid=5028adc9-58e6-4dc1-b5fa-93640c035bb5","ios":"levelo://app?vid=5028adc9-58e6-4dc1-b5fa-93640c035bb5"},"vehicle_type_id":"4","last_reported":1740492577,"current_range_meters":16800,"station_id":"ce4bhlp2rcd13ifvqgjg","pricing_plan_id":"cebpf4jnsgd1na2vs0mg"},{"bike_id":"89dbbdc6-1d6c-4fdb-9988-b07833133cc7","system_id":"levelo_inurba_marseille","lat":43.23967,"lon":5.3663,"is_reserved":false,"is_disabled":false,"rental_uris":{"android":"levelo://app?vid=89dbbdc6-1d6c-4fdb-9988-b07833133cc7","ios":"levelo://app?vid=89dbbdc6-1d6c-4fdb-9988-b07833133cc7"},"vehicle_type_id":"4","last_reported":1740492577,"current_range_meters":16800,"station_id":"ce4bhi12rcd13ifvqfp0","pricing_plan_id":"cebpf4jnsgd1na2vs0mg"},{"bike_id":"02261c0a-e32b-40d6-bd07-1f00940d609b","system_id":"levelo_inurba_marseille","lat":43.29687,"lon":5.37289,"is_reserved":false,"is_disabled":false,"rental_uris":{"android":"levelo://app?vid=02261c0a-e32b-40d6-bd07-1f00940d609b","ios":"levelo://app?vid=02261c0a-e32b-40d6-bd07-1f00940d609b"},"vehicle_type_id":"4","last_reported":1740492577,"current_range_meters":16800,"station_id":"ce4bgk12rcd13ifvqbj0","pricing_plan_id":"cebpf4jnsgd1na2vs0mg"},{"bike_id":"ad45f892-d70d-4ee2-b49b-6f5b55f6868a","system_id":"levelo_inurba_marseille","lat":43.308891,"lon":5.396497,"is_reserved":false,"is_disabled":false,"rental_uris":{"android":"levelo://app?vid=ad45f892-d70d-4ee2-b49b-6f5b55f6868a","ios":"levelo://app?vid=ad45f892-d70d-4ee2-b49b-6f5b55f6868a"},"vehicle_type_id":"4","last_reported":1740492577,"current_range_meters":17200,"station_id":"ce4bh012rcd13ifvqcv0","pricing_plan_id":"cebpf4jnsgd1na2vs0mg"},{"bike_id":"c835e532-2e8f-4d67-b752-0deea01931ef","system_id":"levelo_inurba_marseille","lat":43.27824,"lon":5.39213,"is_reserved":false,"is_disabled":false,"rental_uris":{"android":"levelo://app?vid=c835e532-2e8f-4d67-b752-0deea01931ef","ios":"levelo://app?vid=c835e532-2e8f-4d67-b752-0deea01931ef"},"vehicle_type_id":"4","last_reported":1740492577,"current_range_meters":17600,"station_id":"ce4bhjp2rcd13ifvqga0","pricing_plan_id":"cebpf4jnsgd1na2vs0mg"},{"bike_id":"acaad507-f80f-4403-b05f-9cfb80c33adf","system_id":"levelo_inurba_marseille","lat":43.30642,"lon":5.40066,"is_reserved":false,"is_disabled":false,"rental_uris":{"android":"levelo://app?vid=acaad507-f80f-4403-b05f-9cfb80c33adf","ios":"levelo://app?vid=acaad507-f80f-4403-b05f-9cfb80c33adf"},"vehicle_type_id":"4","last_reported":1740492577,"current_range_meters":18000,"station_id":"ce4bh112rcd13ifvqda0","pricing_plan_id":"cebpf4jnsgd1na2vs0mg"},{"bike_id":"a8961a16-4d9d-4026-81b4-70f1059f57c6","system_id":"levelo_inurba_marseille","lat":43.24169,"lon":5.36393,"is_reserved":false,"is_disabled":false,"rental_uris":{"android":"levelo://app?vid=a8961a16-4d9d-4026-81b4-70f1059f57c6","ios":"levelo://app?vid=a8961a16-4d9d-4026-81b4-70f1059f57c6"},"vehicle_type_id":"4","last_reported":1740492577,"current_range_meters":17600,"station_id":"cpo36qri1sfpv3e86is0","pricing_plan_id":"cebpf4jnsgd1na2vs0mg"},{"bike_id":"1488785c-5764-46a0-909a-48738cb9d31b","system_id":"levelo_inurba_marseille","lat":43.28428,"lon":5.35002,"is_reserved":false,"is_disabled":false,"rental_uris":{"android":"levelo://app?vid=1488785c-5764-46a0-909a-48738cb9d31b","ios":"levelo://app?vid=1488785c-5764-46a0-909a-48738cb9d31b"},"vehicle_type_id":"4","last_reported":1740492577,"current_range_meters":18000,"station_id":"ce4bhbh2rcd13ifvqepg","pricing_plan_id":"cebpf4jnsgd1na2vs0mg"},{"bike_id":"c696ad9a-9b68-4977-82bb-f7e0b53efe6f","system_id":"levelo_inurba_marseille","lat":43.29584,"lon":5.36729,"is_reserved":false,"is_disabled":false,"rental_uris":{"android":"levelo://app?vid=c696ad9a-9b68-4977-82bb-f7e0b53efe6f","ios":"levelo://app?vid=c696ad9a-9b68-4977-82bb-f7e0b53efe6f"},"vehicle_type_id":"4","last_reported":1740492577,"current_range_meters":17600,"station_id":"ce4bgph2rcd13ifvqc2g","pricing_plan_id":"cebpf4jnsgd1na2vs0mg"},{"bike_id":"dedd94c8-bd81-4ee6-a712-bd0272747939","system_id":"levelo_inurba_marseille","lat":43.27501,"lon":5.42461,"is_reserved":false,"is_disabled":false,"rental_uris":{"android":"levelo://app?vid=dedd94c8-bd81-4ee6-a712-bd0272747939","ios":"levelo://app?vid=dedd94c8-bd81-4ee6-a712-bd0272747939"},"vehicle_type_id":"4","last_reported":1740492577,"current_range_meters":17600,"station_id":"ce4bhn92rcd13ifvqgrg","pricing_plan_id":"cebpf4jnsgd1na2vs0mg"},{"bike_id":"51d9e664-362c-4ba6-905e-d58fae2d828b","system_id":"levelo_inurba_marseille","lat":43.28847,"lon":5.39299,"is_reserved":false,"is_disabled":false,"rental_uris":{"android":"levelo://app?vid=51d9e664-362c-4ba6-905e-d58fae2d828b","ios":"levelo://app?vid=51d9e664-362c-4ba6-905e-d58fae2d828b"},"vehicle_type_id":"4","last_reported":1740492577,"current_range_meters":17200,"station_id":"ce4bh2p2rcd13ifvqdi0","pricing_plan_id":"cebpf4jnsgd1na2vs0mg"},{"bike_id":"a4b5fdfe-eee4-4204-9a59-b368bc41d70b","system_id":"levelo_inurba_marseille","lat":43.26199,"lon":5.37458,"is_reserved":false,"is_disabled":false,"rental_uris":{"android":"levelo://app?vid=a4b5fdfe-eee4-4204-9a59-b368bc41d70b","ios":"levelo://app?vid=a4b5fdfe-eee4-4204-9a59-b368bc41d70b"},"vehicle_type_id":"4","last_reported":1740492577,"current_range_meters":17600,"station_id":"ce4bhgp2rcd13ifvqfc0","pricing_plan_id":"cebpf4jnsgd1na2vs0mg"},{"bike_id":"c3d0fefa-5db4-49bd-a964-1a22da440d36","system_id":"levelo_inurba_marseille","lat":43.269559,"lon":5.386313,"is_reserved":false,"is_disabled":true,"rental_uris":{"android":"levelo://app?vid=c3d0fefa-5db4-49bd-a964-1a22da440d36","ios":"levelo://app?vid=c3d0fefa-5db4-49bd-a964-1a22da440d36"},"vehicle_type_id":"4","last_reported":1740492577,"current_range_meters":17600,"station_id":"","pricing_plan_id":"cebpf4jnsgd1na2vs0mg"},{"bike_id":"ba62d646-5c0f-4f76-95f8-a059fd5f5144","system_id":"levelo_inurba_marseille","lat":43.30151,"lon":5.38087,"is_reserved":false,"is_disabled":false,"rental_uris":{"android":"levelo://app?vid=ba62d646-5c0f-4f76-95f8-a059fd5f5144","ios":"levelo://app?vid=ba62d646-5c0f-4f76-95f8-a059fd5f5144"},"vehicle_type_id":"4","last_reported":1740492577,"current_range_meters":18000,"station_id":"ce4bgjp2rcd13ifvqbh0","pricing_plan_id":"cebpf4jnsgd1na2vs0mg"},{"bike_id":"cb8576df-458a-4f2e-8d17-a0b4a02cb3a7","system_id":"levelo_inurba_marseille","lat":43.29923,"lon":5.37483,"is_reserved":false,"is_disabled":false,"rental_uris":{"android":"levelo://app?vid=cb8576df-458a-4f2e-8d17-a0b4a02cb3a7","ios":"levelo://app?vid=cb8576df-458a-4f2e-8d17-a0b4a02cb3a7"},"vehicle_type_id":"4","last_reported":1740492577,"current_range_meters":18800,"station_id":"ce4bgjh2rcd13ifvqbg0","pricing_plan_id":"cebpf4jnsgd1na2vs0mg"},{"bike_id":"50f19b18-a63e-4a12-9378-fc7a1b104525","system_id":"levelo_inurba_marseille","lat":43.28689,"lon":5.38664,"is_reserved":false,"is_disabled":false,"rental_uris":{"android":"levelo://app?vid=50f19b18-a63e-4a12-9378-fc7a1b104525","ios":"levelo://app?vid=50f19b18-a63e-4a12-9378-fc7a1b104525"},"vehicle_type_id":"4","last_reported":1740492577,"current_range_meters":18000,"station_id":"ce4bh492rcd13ifvqdug","pricing_plan_id":"cebpf4jnsgd1na2vs0mg"},{"bike_id":"6a322d10-e576-4838-b30b-1ffd02f84288","system_id":"levelo_inurba_marseille","lat":43.23163,"lon":5.4371,"is_reserved":false,"is_disabled":false,"rental_uris":{"android":"levelo://app?vid=6a322d10-e576-4838-b30b-1ffd02f84288","ios":"levelo://app?vid=6a322d10-e576-4838-b30b-1ffd02f84288"},"vehicle_type_id":"4","last_reported":1740492577,"current_range_meters":18800,"station_id":"ce4bhmp2rcd13ifvqgog","pricing_plan_id":"cebpf4jnsgd1na2vs0mg"},{"bike_id":"b8aeb784-84a4-41d0-b567-8a61cf5abd88","system_id":"levelo_inurba_marseille","lat":43.28456,"lon":5.35887,"is_reserved":false,"is_disabled":false,"rental_uris":{"android":"levelo://app?vid=b8aeb784-84a4-41d0-b567-8a61cf5abd88","ios":"levelo://app?vid=b8aeb784-84a4-41d0-b567-8a61cf5abd88"},"vehicle_type_id":"4","last_reported":1740492577,"current_range_meters":18000,"station_id":"ce4bhah2rcd13ifvqei0","pricing_plan_id":"cebpf4jnsgd1na2vs0mg"},{"bike_id":"0c45db8a-f07f-468d-a6ef-c08290b1a757","system_id":"levelo_inurba_marseille","lat":43.29741,"lon":5.37686,"is_reserved":false,"is_disabled":false,"rental_uris":{"android":"levelo://app?vid=0c45db8a-f07f-468d-a6ef-c08290b1a757","ios":"levelo://app?vid=0c45db8a-f07f-468d-a6ef-c08290b1a757"},"vehicle_type_id":"4","last_reported":1740492577,"current_range_meters":18000,"station_id":"ce4bgkh2rcd13ifvqbl0","pricing_plan_id":"cebpf4jnsgd1na2vs0mg"},{"bike_id":"2c278711-5fb9-47ea-b347-675b3452b9ca","system_id":"levelo_inurba_marseille","lat":43.28847,"lon":5.39546,"is_reserved":false,"is_disabled":false,"rental_uris":{"android":"levelo://app?vid=2c278711-5fb9-47ea-b347-675b3452b9ca","ios":"levelo://app?vid=2c278711-5fb9-47ea-b347-675b3452b9ca"},"vehicle_type_id":"4","last_reported":1740492577,"current_range_meters":18000,"station_id":"ce4bh292rcd13ifvqdg0","pricing_plan_id":"cebpf4jnsgd1na2vs0mg"},{"bike_id":"0f12edd9-d77b-4614-a616-b20a18fd421f","system_id":"levelo_inurba_marseille","lat":43.29681,"lon":5.37277,"is_reserved":false,"is_disabled":false,"rental_uris":{"android":"levelo://app?vid=0f12edd9-d77b-4614-a616-b20a18fd421f","ios":"levelo://app?vid=0f12edd9-d77b-4614-a616-b20a18fd421f"},"vehicle_type_id":"4","last_reported":1740492577,"current_range_meters":19200,"station_id":"ce4bgk12rcd13ifvqbj0","pricing_plan_id":"cebpf4jnsgd1na2vs0mg"},{"bike_id":"c333214c-e858-4d83-ae11-52fad9cac016","system_id":"levelo_inurba_marseille","lat":43.3176,"lon":5.39019,"is_reserved":false,"is_disabled":false,"rental_uris":{"android":"levelo://app?vid=c333214c-e858-4d83-ae11-52fad9cac016","ios":"levelo://app?vid=c333214c-e858-4d83-ae11-52fad9cac016"},"vehicle_type_id":"4","last_reported":1740492577,"current_range_meters":18800,"station_id":"ce4bhqp2rcd13ifvqhng","pricing_plan_id":"cebpf4jnsgd1na2vs0mg"},{"bike_id":"1ab2acce-d2cb-47a4-abbb-c62d2d1f274d","system_id":"levelo_inurba_marseille","lat":43.2959,"lon":5.36756,"is_reserved":false,"is_disabled":false,"rental_uris":{"android":"levelo://app?vid=1ab2acce-d2cb-47a4-abbb-c62d2d1f274d","ios":"levelo://app?vid=1ab2acce-d2cb-47a4-abbb-c62d2d1f274d"},"vehicle_type_id":"4","last_reported":1740492577,"current_range_meters":18800,"station_id":"ce4bgph2rcd13ifvqc2g","pricing_plan_id":"cebpf4jnsgd1na2vs0mg"},{"bike_id":"eaeac06d-26ad-4f57-9623-35eea07c2cb7","system_id":"levelo_inurba_marseille","lat":43.30893,"lon":5.3962,"is_reserved":false,"is_disabled":false,"rental_uris":{"android":"levelo://app?vid=eaeac06d-26ad-4f57-9623-35eea07c2cb7","ios":"levelo://app?vid=eaeac06d-26ad-4f57-9623-35eea07c2cb7"},"vehicle_type_id":"4","last_reported":1740492577,"current_range_meters":18800,"station_id":"ce4bh012rcd13ifvqcv0","pricing_plan_id":"cebpf4jnsgd1na2vs0mg"},{"bike_id":"1a856f10-c5bc-4b12-a5aa-06d011bd52a2","system_id":"levelo_inurba_marseille","lat":43.27826,"lon":5.40693,"is_reserved":false,"is_disabled":false,"rental_uris":{"android":"levelo://app?vid=1a856f10-c5bc-4b12-a5aa-06d011bd52a2","ios":"levelo://app?vid=1a856f10-c5bc-4b12-a5aa-06d011bd52a2"},"vehicle_type_id":"4","last_reported":1740492577,"current_range_meters":18800,"station_id":"ce4bhnh2rcd13ifvqgtg","pricing_plan_id":"cebpf4jnsgd1na2vs0mg"},{"bike_id":"aadbd789-9acb-4a82-b775-289849f57762","system_id":"levelo_inurba_marseille","lat":43.27322,"lon":5.39128,"is_reserved":false,"is_disabled":false,"rental_uris":{"android":"levelo://app?vid=aadbd789-9acb-4a82-b775-289849f57762","ios":"levelo://app?vid=aadbd789-9acb-4a82-b775-289849f57762"},"vehicle_type_id":"4","last_reported":1740492577,"current_range_meters":14000,"station_id":"ce4bhgp2rcd13ifvqfe0","pricing_plan_id":"cebpf4jnsgd1na2vs0mg"},{"bike_id":"c2e6e6f2-61ad-4410-9f43-a72e88907af9","system_id":"levelo_inurba_marseille","lat":43.30191,"lon":5.36615,"is_reserved":false,"is_disabled":false,"rental_uris":{"android":"levelo://app?vid=c2e6e6f2-61ad-4410-9f43-a72e88907af9","ios":"levelo://app?vid=c2e6e6f2-61ad-4410-9f43-a72e88907af9"},"vehicle_type_id":"4","last_reported":1740492577,"current_range_meters":18800,"station_id":"ce4bgrh2rcd13ifvqc8g","pricing_plan_id":"cebpf4jnsgd1na2vs0mg"},{"bike_id":"92bca143-f401-4e91-9a25-65f71df938a6","system_id":"levelo_inurba_marseille","lat":43.27619,"lon":5.36118,"is_reserved":false,"is_disabled":false,"rental_uris":{"android":"levelo://app?vid=92bca143-f401-4e91-9a25-65f71df938a6","ios":"levelo://app?vid=92bca143-f401-4e91-9a25-65f71df938a6"},"vehicle_type_id":"4","last_reported":1740492577,"current_range_meters":18800,"station_id":"ce4bgj92rcd13ifvqbe0","pricing_plan_id":"cebpf4jnsgd1na2vs0mg"},{"bike_id":"883f8347-0a1a-469f-b39f-af3ab784d027","system_id":"levelo_inurba_marseille","lat":43.29277,"lon":5.36853,"is_reserved":false,"is_disabled":false,"rental_uris":{"android":"levelo://app?vid=883f8347-0a1a-469f-b39f-af3ab784d027","ios":"levelo://app?vid=883f8347-0a1a-469f-b39f-af3ab784d027"},"vehicle_type_id":"4","last_reported":1740492577,"current_range_meters":18800,"station_id":"ce4bhbp2rcd13ifvqesg","pricing_plan_id":"cebpf4jnsgd1na2vs0mg"},{"bike_id":"ca2d36d8-a45b-446e-abaa-f35bfe017e85","system_id":"levelo_inurba_marseille","lat":43.24664,"lon":5.38165,"is_reserved":false,"is_disabled":false,"rental_uris":{"android":"levelo://app?vid=ca2d36d8-a45b-446e-abaa-f35bfe017e85","ios":"levelo://app?vid=ca2d36d8-a45b-446e-abaa-f35bfe017e85"},"vehicle_type_id":"4","last_reported":1740492577,"current_range_meters":18800,"station_id":"ce4bhih2rcd13ifvqfr0","pricing_plan_id":"cebpf4jnsgd1na2vs0mg"},{"bike_id":"efaff286-fa42-41a1-ad4e-53f0f463ea3c","system_id":"levelo_inurba_marseille","lat":43.29256,"lon":5.38453,"is_reserved":false,"is_disabled":false,"rental_uris":{"android":"levelo://app?vid=efaff286-fa42-41a1-ad4e-53f0f463ea3c","ios":"levelo://app?vid=efaff286-fa42-41a1-ad4e-53f0f463ea3c"},"vehicle_type_id":"4","last_reported":1740492577,"current_range_meters":19200,"station_id":"ce4bh692rcd13ifvqea0","pricing_plan_id":"cebpf4jnsgd1na2vs0mg"},{"bike_id":"900a18dd-1f6d-49af-a0f0-9ea03a4d5a04","system_id":"levelo_inurba_marseille","lat":43.24667,"lon":5.38147,"is_reserved":false,"is_disabled":false,"rental_uris":{"android":"levelo://app?vid=900a18dd-1f6d-49af-a0f0-9ea03a4d5a04","ios":"levelo://app?vid=900a18dd-1f6d-49af-a0f0-9ea03a4d5a04"},"vehicle_type_id":"4","last_reported":1740492577,"current_range_meters":19200,"station_id":"ce4bhih2rcd13ifvqfr0","pricing_plan_id":"cebpf4jnsgd1na2vs0mg"},{"bike_id":"25411262-23d1-41bb-a382-a545d4af1ec3","system_id":"levelo_inurba_marseille","lat":43.25126,"lon":5.40323,"is_reserved":false,"is_disabled":false,"rental_uris":{"android":"levelo://app?vid=25411262-23d1-41bb-a382-a545d4af1ec3","ios":"levelo://app?vid=25411262-23d1-41bb-a382-a545d4af1ec3"},"vehicle_type_id":"4","last_reported":1740492577,"current_range_meters":19200,"station_id":"ce4bhlh2rcd13ifvqgig","pricing_plan_id":"cebpf4jnsgd1na2vs0mg"},{"bike_id":"b8df15b7-3d3a-4767-8564-130258eefd73","system_id":"levelo_inurba_marseille","lat":43.28862,"lon":5.35829,"is_reserved":false,"is_disabled":false,"rental_uris":{"android":"levelo://app?vid=b8df15b7-3d3a-4767-8564-130258eefd73","ios":"levelo://app?vid=b8df15b7-3d3a-4767-8564-130258eefd73"},"vehicle_type_id":"4","last_reported":1740492577,"current_range_meters":17600,"station_id":"ce4bhb12rcd13ifvqem0","pricing_plan_id":"cebpf4jnsgd1na2vs0mg"},{"bike_id":"70a08011-abbf-46ba-a3fc-d0518c9017de","system_id":"levelo_inurba_marseille","lat":43.28936,"lon":5.36639,"is_reserved":false,"is_disabled":false,"rental_uris":{"android":"levelo://app?vid=70a08011-abbf-46ba-a3fc-d0518c9017de","ios":"levelo://app?vid=70a08011-abbf-46ba-a3fc-d0518c9017de"},"vehicle_type_id":"4","last_reported":1740492577,"current_range_meters":19200,"station_id":"ce4bhap2rcd13ifvqek0","pricing_plan_id":"cebpf4jnsgd1na2vs0mg"},{"bike_id":"b7d3c0bb-7d03-4d09-a6c9-12107485a8da","system_id":"levelo_inurba_marseille","lat":43.31991,"lon":5.38138,"is_reserved":false,"is_disabled":false,"rental_uris":{"android":"levelo://app?vid=b7d3c0bb-7d03-4d09-a6c9-12107485a8da","ios":"levelo://app?vid=b7d3c0bb-7d03-4d09-a6c9-12107485a8da"},"vehicle_type_id":"4","last_reported":1740492577,"current_range_meters":19200,"station_id":"ce4bhr12rcd13ifvqhpg","pricing_plan_id":"cebpf4jnsgd1na2vs0mg"},{"bike_id":"e4b61e67-5c22-4221-873e-01cee989859c","system_id":"levelo_inurba_marseille","lat":43.29894,"lon":5.43666,"is_reserved":false,"is_disabled":false,"rental_uris":{"android":"levelo://app?vid=e4b61e67-5c22-4221-873e-01cee989859c","ios":"levelo://app?vid=e4b61e67-5c22-4221-873e-01cee989859c"},"vehicle_type_id":"4","last_reported":1740492577,"current_range_meters":19200,"station_id":"ce4bhpp2rcd13ifvqhfg","pricing_plan_id":"cebpf4jnsgd1na2vs0mg"},{"bike_id":"c8a16170-4d61-4ad6-958a-6c144cbbb947","system_id":"levelo_inurba_marseille","lat":43.27503,"lon":5.42443,"is_reserved":false,"is_disabled":false,"rental_uris":{"android":"levelo://app?vid=c8a16170-4d61-4ad6-958a-6c144cbbb947","ios":"levelo://app?vid=c8a16170-4d61-4ad6-958a-6c144cbbb947"},"vehicle_type_id":"4","last_reported":1740492577,"current_range_meters":19200,"station_id":"ce4bhn92rcd13ifvqgrg","pricing_plan_id":"cebpf4jnsgd1na2vs0mg"},{"bike_id":"3bd8c65f-d3da-4b9a-9660-60162769328b","system_id":"levelo_inurba_marseille","lat":43.300865,"lon":5.370365,"is_reserved":false,"is_disabled":false,"rental_uris":{"android":"levelo://app?vid=3bd8c65f-d3da-4b9a-9660-60162769328b","ios":"levelo://app?vid=3bd8c65f-d3da-4b9a-9660-60162769328b"},"vehicle_type_id":"4","last_reported":1740492577,"current_range_meters":4000,"station_id":"ce4bgr92rcd13ifvqc6g","pricing_plan_id":"cebpf4jnsgd1na2vs0mg"},{"bike_id":"1d560c91-594c-43d2-abb0-e94061ddd8c0","system_id":"levelo_inurba_marseille","lat":43.23182,"lon":5.39995,"is_reserved":false,"is_disabled":false,"rental_uris":{"android":"levelo://app?vid=1d560c91-594c-43d2-abb0-e94061ddd8c0","ios":"levelo://app?vid=1d560c91-594c-43d2-abb0-e94061ddd8c0"},"vehicle_type_id":"4","last_reported":1740492577,"current_range_meters":18800,"station_id":"ce4bhn12rcd13ifvqgqg","pricing_plan_id":"cebpf4jnsgd1na2vs0mg"},{"bike_id":"45127abe-699f-4c02-9aab-c9892981149b","system_id":"levelo_inurba_marseille","lat":43.27179,"lon":5.40988,"is_reserved":false,"is_disabled":false,"rental_uris":{"android":"levelo://app?vid=45127abe-699f-4c02-9aab-c9892981149b","ios":"levelo://app?vid=45127abe-699f-4c02-9aab-c9892981149b"},"vehicle_type_id":"4","last_reported":1740492577,"current_range_meters":19600,"station_id":"ce4bhl12rcd13ifvqgf0","pricing_plan_id":"cebpf4jnsgd1na2vs0mg"},{"bike_id":"74613cd9-8372-460d-b7a5-33f22a0d2702","system_id":"levelo_inurba_marseille","lat":43.25506,"lon":5.3765,"is_reserved":false,"is_disabled":false,"rental_uris":{"android":"levelo://app?vid=74613cd9-8372-460d-b7a5-33f22a0d2702","ios":"levelo://app?vid=74613cd9-8372-460d-b7a5-33f22a0d2702"},"vehicle_type_id":"4","last_reported":1740492577,"current_range_meters":19600,"station_id":"ce4bhh12rcd13ifvqff0","pricing_plan_id":"cebpf4jnsgd1na2vs0mg"},{"bike_id":"1df32ffb-b6d0-42f0-8856-8dbb268b7110","system_id":"levelo_inurba_marseille","lat":43.31713,"lon":5.43714,"is_reserved":false,"is_disabled":false,"rental_uris":{"android":"levelo://app?vid=1df32ffb-b6d0-42f0-8856-8dbb268b7110","ios":"levelo://app?vid=1df32ffb-b6d0-42f0-8856-8dbb268b7110"},"vehicle_type_id":"4","last_reported":1740492577,"current_range_meters":19600,"station_id":"ce4bhp92rcd13ifvqhcg","pricing_plan_id":"cebpf4jnsgd1na2vs0mg"},{"bike_id":"16139490-0881-4755-84d7-a13a456fa301","system_id":"levelo_inurba_marseille","lat":43.290732,"lon":5.37169,"is_reserved":false,"is_disabled":false,"rental_uris":{"android":"levelo://app?vid=16139490-0881-4755-84d7-a13a456fa301","ios":"levelo://app?vid=16139490-0881-4755-84d7-a13a456fa301"},"vehicle_type_id":"4","last_reported":1740492577,"current_range_meters":19600,"station_id":"ce4bh5p2rcd13ifvqe4g","pricing_plan_id":"cebpf4jnsgd1na2vs0mg"},{"bike_id":"9cae26cf-a2fc-4e9c-92e8-f854f5e4fb45","system_id":"levelo_inurba_marseille","lat":43.32479,"lon":5.36576,"is_reserved":false,"is_disabled":true,"rental_uris":{"android":"levelo://app?vid=9cae26cf-a2fc-4e9c-92e8-f854f5e4fb45","ios":"levelo://app?vid=9cae26cf-a2fc-4e9c-92e8-f854f5e4fb45"},"vehicle_type_id":"4","last_reported":1740492577,"current_range_meters":19600,"station_id":"ce4bhs12rcd13ifvqhvg","pricing_plan_id":"cebpf4jnsgd1na2vs0mg"},{"bike_id":"c17f70a8-0b90-4785-a8bb-0bdf80ba2011","system_id":"levelo_inurba_marseille","lat":43.30157,"lon":5.37411,"is_reserved":false,"is_disabled":false,"rental_uris":{"android":"levelo://app?vid=c17f70a8-0b90-4785-a8bb-0bdf80ba2011","ios":"levelo://app?vid=c17f70a8-0b90-4785-a8bb-0bdf80ba2011"},"vehicle_type_id":"4","last_reported":1740492577,"current_range_meters":20400,"station_id":"ce4bgs92rcd13ifvqcc0","pricing_plan_id":"cebpf4jnsgd1na2vs0mg"},{"bike_id":"c43b050f-7f23-467d-b65b-33c760f3de58","system_id":"levelo_inurba_marseille","lat":43.32447,"lon":5.36559,"is_reserved":false,"is_disabled":false,"rental_uris":{"android":"levelo://app?vid=c43b050f-7f23-467d-b65b-33c760f3de58","ios":"levelo://app?vid=c43b050f-7f23-467d-b65b-33c760f3de58"},"vehicle_type_id":"4","last_reported":1740492577,"current_range_meters":20000,"station_id":"ce4bhs12rcd13ifvqhvg","pricing_plan_id":"cebpf4jnsgd1na2vs0mg"},{"bike_id":"16b10589-0ee3-4420-bf12-962709afbe7b","system_id":"levelo_inurba_marseille","lat":43.29567,"lon":5.37519,"is_reserved":false,"is_disabled":false,"rental_uris":{"android":"levelo://app?vid=16b10589-0ee3-4420-bf12-962709afbe7b","ios":"levelo://app?vid=16b10589-0ee3-4420-bf12-962709afbe7b"},"vehicle_type_id":"4","last_reported":1740492577,"current_range_meters":19200,"station_id":"ce4bgh92rcd13ifvqb50","pricing_plan_id":"cebpf4jnsgd1na2vs0mg"},{"bike_id":"9573858b-e206-49f2-a648-0ae2bb06901f","system_id":"levelo_inurba_marseille","lat":43.29358,"lon":5.37863,"is_reserved":false,"is_disabled":false,"rental_uris":{"android":"levelo://app?vid=9573858b-e206-49f2-a648-0ae2bb06901f","ios":"levelo://app?vid=9573858b-e206-49f2-a648-0ae2bb06901f"},"vehicle_type_id":"4","last_reported":1740492577,"current_range_meters":20000,"station_id":"ce4bgjh2rcd13ifvqbf0","pricing_plan_id":"cebpf4jnsgd1na2vs0mg"},{"bike_id":"1be76638-c594-4d92-84a3-0e8d43847e76","system_id":"levelo_inurba_marseille","lat":43.28699,"lon":5.39979,"is_reserved":false,"is_disabled":false,"rental_uris":{"android":"levelo://app?vid=1be76638-c594-4d92-84a3-0e8d43847e76","ios":"levelo://app?vid=1be76638-c594-4d92-84a3-0e8d43847e76"},"vehicle_type_id":"4","last_reported":1740492577,"current_range_meters":20400,"station_id":"ce4bho92rcd13ifvqh3g","pricing_plan_id":"cebpf4jnsgd1na2vs0mg"},{"bike_id":"658e10dc-9ec8-4c82-a86c-f0d37535b96d","system_id":"levelo_inurba_marseille","lat":43.23185,"lon":5.39988,"is_reserved":false,"is_disabled":false,"rental_uris":{"android":"levelo://app?vid=658e10dc-9ec8-4c82-a86c-f0d37535b96d","ios":"levelo://app?vid=658e10dc-9ec8-4c82-a86c-f0d37535b96d"},"vehicle_type_id":"4","last_reported":1740492577,"current_range_meters":19600,"station_id":"ce4bhn12rcd13ifvqgqg","pricing_plan_id":"cebpf4jnsgd1na2vs0mg"},{"bike_id":"3aaca506-5054-4b1b-b29a-24232f7f02a2","system_id":"levelo_inurba_marseille","lat":43.24653,"lon":5.38894,"is_reserved":false,"is_disabled":false,"rental_uris":{"android":"levelo://app?vid=3aaca506-5054-4b1b-b29a-24232f7f02a2","ios":"levelo://app?vid=3aaca506-5054-4b1b-b29a-24232f7f02a2"},"vehicle_type_id":"4","last_reported":1740492577,"current_range_meters":20800,"station_id":"ce4bhg12rcd13ifvqf60","pricing_plan_id":"cebpf4jnsgd1na2vs0mg"},{"bike_id":"b7c09535-9389-45fc-8971-cbc7b7282bc9","system_id":"levelo_inurba_marseille","lat":43.251,"lon":5.39509,"is_reserved":false,"is_disabled":false,"rental_uris":{"android":"levelo://app?vid=b7c09535-9389-45fc-8971-cbc7b7282bc9","ios":"levelo://app?vid=b7c09535-9389-45fc-8971-cbc7b7282bc9"},"vehicle_type_id":"4","last_reported":1740492577,"current_range_meters":20400,"station_id":"ce4bhm12rcd13ifvqgkg","pricing_plan_id":"cebpf4jnsgd1na2vs0mg"},{"bike_id":"bd9a744c-86c8-46e9-b6d2-d94cb9448edb","system_id":"levelo_inurba_marseille","lat":43.31494,"lon":5.37286,"is_reserved":false,"is_disabled":false,"rental_uris":{"android":"levelo://app?vid=bd9a744c-86c8-46e9-b6d2-d94cb9448edb","ios":"levelo://app?vid=bd9a744c-86c8-46e9-b6d2-d94cb9448edb"},"vehicle_type_id":"4","last_reported":1740492577,"current_range_meters":20400,"station_id":"ce4bgt12rcd13ifvqcd0","pricing_plan_id":"cebpf4jnsgd1na2vs0mg"},{"bike_id":"ce6c3a57-2472-4142-ab26-fc6dee861395","system_id":"levelo_inurba_marseille","lat":43.29853,"lon":5.36249,"is_reserved":false,"is_disabled":false,"rental_uris":{"android":"levelo://app?vid=ce6c3a57-2472-4142-ab26-fc6dee861395","ios":"levelo://app?vid=ce6c3a57-2472-4142-ab26-fc6dee861395"},"vehicle_type_id":"4","last_reported":1740492577,"current_range_meters":20400,"station_id":"ce4bgpp2rcd13ifvqc3g","pricing_plan_id":"cebpf4jnsgd1na2vs0mg"},{"bike_id":"23837618-c775-43bc-82e6-97e2ff89b957","system_id":"levelo_inurba_marseille","lat":43.3124,"lon":5.36875,"is_reserved":false,"is_disabled":false,"rental_uris":{"android":"levelo://app?vid=23837618-c775-43bc-82e6-97e2ff89b957","ios":"levelo://app?vid=23837618-c775-43bc-82e6-97e2ff89b957"},"vehicle_type_id":"4","last_reported":1740492577,"current_range_meters":20000,"station_id":"ce4bgl92rcd13ifvqbq0","pricing_plan_id":"cebpf4jnsgd1na2vs0mg"},{"bike_id":"29d2a6ce-a73a-4fdd-985d-84e9c66e7f97","system_id":"levelo_inurba_marseille","lat":43.27938,"lon":5.41037,"is_reserved":false,"is_disabled":false,"rental_uris":{"android":"levelo://app?vid=29d2a6ce-a73a-4fdd-985d-84e9c66e7f97","ios":"levelo://app?vid=29d2a6ce-a73a-4fdd-985d-84e9c66e7f97"},"vehicle_type_id":"4","last_reported":1740492577,"current_range_meters":21600,"station_id":"ce4bhnp2rcd13ifvqh0g","pricing_plan_id":"cebpf4jnsgd1na2vs0mg"},{"bike_id":"ba169ec5-ffa7-4037-ab17-71da76fe902e","system_id":"levelo_inurba_marseille","lat":43.31367,"lon":5.36706,"is_reserved":false,"is_disabled":false,"rental_uris":{"android":"levelo://app?vid=ba169ec5-ffa7-4037-ab17-71da76fe902e","ios":"levelo://app?vid=ba169ec5-ffa7-4037-ab17-71da76fe902e"},"vehicle_type_id":"4","last_reported":1740492577,"current_range_meters":20400,"station_id":"ce4bgr92rcd13ifvqc6g","pricing_plan_id":"cebpf4jnsgd1na2vs0mg"},{"bike_id":"cf764087-27bf-4913-984c-037eac441215","system_id":"levelo_inurba_marseille","lat":43.28416,"lon":5.34977,"is_reserved":false,"is_disabled":false,"rental_uris":{"android":"levelo://app?vid=cf764087-27bf-4913-984c-037eac441215","ios":"levelo://app?vid=cf764087-27bf-4913-984c-037eac441215"},"vehicle_type_id":"4","last_reported":1740492577,"current_range_meters":20800,"station_id":"ce4bhbh2rcd13ifvqepg","pricing_plan_id":"cebpf4jnsgd1na2vs0mg"},{"bike_id":"04264387-929d-44fb-9b3e-3bfe01d5bccc","system_id":"levelo_inurba_marseille","lat":43.3154,"lon":5.37266,"is_reserved":false,"is_disabled":false,"rental_uris":{"android":"levelo://app?vid=04264387-929d-44fb-9b3e-3bfe01d5bccc","ios":"levelo://app?vid=04264387-929d-44fb-9b3e-3bfe01d5bccc"},"vehicle_type_id":"4","last_reported":1740492577,"current_range_meters":20800,"station_id":"ce4bgt12rcd13ifvqcd0","pricing_plan_id":"cebpf4jnsgd1na2vs0mg"},{"bike_id":"56cedde2-db31-4598-9fd2-18719739a9aa","system_id":"levelo_inurba_marseille","lat":43.31279,"lon":5.3689,"is_reserved":false,"is_disabled":false,"rental_uris":{"android":"levelo://app?vid=56cedde2-db31-4598-9fd2-18719739a9aa","ios":"levelo://app?vid=56cedde2-db31-4598-9fd2-18719739a9aa"},"vehicle_type_id":"4","last_reported":1740492577,"current_range_meters":20400,"station_id":"ce4bgl92rcd13ifvqbq0","pricing_plan_id":"cebpf4jnsgd1na2vs0mg"},{"bike_id":"1015abbd-7082-4ba1-86ea-5a0ad2804113","system_id":"levelo_inurba_marseille","lat":43.29896,"lon":5.43659,"is_reserved":false,"is_disabled":false,"rental_uris":{"android":"levelo://app?vid=1015abbd-7082-4ba1-86ea-5a0ad2804113","ios":"levelo://app?vid=1015abbd-7082-4ba1-86ea-5a0ad2804113"},"vehicle_type_id":"4","last_reported":1740492577,"current_range_meters":20800,"station_id":"ce4bhpp2rcd13ifvqhfg","pricing_plan_id":"cebpf4jnsgd1na2vs0mg"},{"bike_id":"b2d0ea14-9d13-4a6f-b9fc-bac921bfcd2d","system_id":"levelo_inurba_marseille","lat":43.29567,"lon":5.3752,"is_reserved":false,"is_disabled":false,"rental_uris":{"android":"levelo://app?vid=b2d0ea14-9d13-4a6f-b9fc-bac921bfcd2d","ios":"levelo://app?vid=b2d0ea14-9d13-4a6f-b9fc-bac921bfcd2d"},"vehicle_type_id":"4","last_reported":1740492577,"current_range_meters":20800,"station_id":"ce4bgh92rcd13ifvqb50","pricing_plan_id":"cebpf4jnsgd1na2vs0mg"},{"bike_id":"cadcd3f7-36da-45a0-afe7-3d3cf34b3425","system_id":"levelo_inurba_marseille","lat":43.2957,"lon":5.37502,"is_reserved":false,"is_disabled":false,"rental_uris":{"android":"levelo://app?vid=cadcd3f7-36da-45a0-afe7-3d3cf34b3425","ios":"levelo://app?vid=cadcd3f7-36da-45a0-afe7-3d3cf34b3425"},"vehicle_type_id":"4","last_reported":1740492577,"current_range_meters":20800,"station_id":"ce4bgh92rcd13ifvqb50","pricing_plan_id":"cebpf4jnsgd1na2vs0mg"},{"bike_id":"a44448d4-23f9-4497-b91c-039a8a7a409f","system_id":"levelo_inurba_marseille","lat":43.28724,"lon":5.3609,"is_reserved":false,"is_disabled":false,"rental_uris":{"android":"levelo://app?vid=a44448d4-23f9-4497-b91c-039a8a7a409f","ios":"levelo://app?vid=a44448d4-23f9-4497-b91c-039a8a7a409f"},"vehicle_type_id":"4","last_reported":1740492577,"current_range_meters":21600,"station_id":"cki0cbj6b192h4jlfktg","pricing_plan_id":"cebpf4jnsgd1na2vs0mg"},{"bike_id":"d7fceee5-61fb-427f-b42d-925d12647cc9","system_id":"levelo_inurba_marseille","lat":43.26945,"lon":5.38648,"is_reserved":false,"is_disabled":false,"rental_uris":{"android":"levelo://app?vid=d7fceee5-61fb-427f-b42d-925d12647cc9","ios":"levelo://app?vid=d7fceee5-61fb-427f-b42d-925d12647cc9"},"vehicle_type_id":"4","last_reported":1740492577,"current_range_meters":21600,"station_id":"ce4bhh92rcd13ifvqfh0","pricing_plan_id":"cebpf4jnsgd1na2vs0mg"},{"bike_id":"db471fcd-59a1-4519-9e98-11fcea85dac4","system_id":"levelo_inurba_marseille","lat":43.251,"lon":5.40315,"is_reserved":false,"is_disabled":false,"rental_uris":{"android":"levelo://app?vid=db471fcd-59a1-4519-9e98-11fcea85dac4","ios":"levelo://app?vid=db471fcd-59a1-4519-9e98-11fcea85dac4"},"vehicle_type_id":"4","last_reported":1740492577,"current_range_meters":21600,"station_id":"ce4bhlh2rcd13ifvqgig","pricing_plan_id":"cebpf4jnsgd1na2vs0mg"},{"bike_id":"a6bc59b0-4261-4628-953f-6e052f54fac5","system_id":"levelo_inurba_marseille","lat":43.28855,"lon":5.35839,"is_reserved":false,"is_disabled":false,"rental_uris":{"android":"levelo://app?vid=a6bc59b0-4261-4628-953f-6e052f54fac5","ios":"levelo://app?vid=a6bc59b0-4261-4628-953f-6e052f54fac5"},"vehicle_type_id":"4","last_reported":1740492577,"current_range_meters":21600,"station_id":"ce4bhb12rcd13ifvqem0","pricing_plan_id":"cebpf4jnsgd1na2vs0mg"},{"bike_id":"2aca1087-2e8d-44f7-9721-482dd5b7c878","system_id":"levelo_inurba_marseille","lat":43.29051,"lon":5.39975,"is_reserved":false,"is_disabled":false,"rental_uris":{"android":"levelo://app?vid=2aca1087-2e8d-44f7-9721-482dd5b7c878","ios":"levelo://app?vid=2aca1087-2e8d-44f7-9721-482dd5b7c878"},"vehicle_type_id":"4","last_reported":1740492577,"current_range_meters":21600,"station_id":"ce4bh392rcd13ifvqdm0","pricing_plan_id":"cebpf4jnsgd1na2vs0mg"},{"bike_id":"377f72f2-55aa-42fd-b784-b82fb2d5dad5","system_id":"levelo_inurba_marseille","lat":43.31486,"lon":5.37264,"is_reserved":false,"is_disabled":false,"rental_uris":{"android":"levelo://app?vid=377f72f2-55aa-42fd-b784-b82fb2d5dad5","ios":"levelo://app?vid=377f72f2-55aa-42fd-b784-b82fb2d5dad5"},"vehicle_type_id":"4","last_reported":1740492577,"current_range_meters":21600,"station_id":"ce4bgt12rcd13ifvqcd0","pricing_plan_id":"cebpf4jnsgd1na2vs0mg"},{"bike_id":"9eb10ab9-ef97-459e-a893-bed63e589588","system_id":"levelo_inurba_marseille","lat":43.25012,"lon":5.38915,"is_reserved":false,"is_disabled":false,"rental_uris":{"android":"levelo://app?vid=9eb10ab9-ef97-459e-a893-bed63e589588","ios":"levelo://app?vid=9eb10ab9-ef97-459e-a893-bed63e589588"},"vehicle_type_id":"4","last_reported":1740492577,"current_range_meters":22000,"station_id":"ce4bhgp2rcd13ifvqfd0","pricing_plan_id":"cebpf4jnsgd1na2vs0mg"},{"bike_id":"a84908e6-fc6f-48a6-8576-d4587402bd0a","system_id":"levelo_inurba_marseille","lat":43.29629,"lon":5.38045,"is_reserved":false,"is_disabled":false,"rental_uris":{"android":"levelo://app?vid=a84908e6-fc6f-48a6-8576-d4587402bd0a","ios":"levelo://app?vid=a84908e6-fc6f-48a6-8576-d4587402bd0a"},"vehicle_type_id":"4","last_reported":1740492577,"current_range_meters":22000,"station_id":"ce4bgl12rcd13ifvqbo0","pricing_plan_id":"cebpf4jnsgd1na2vs0mg"},{"bike_id":"2c6aaea4-1349-44f6-8d2b-bf6f79a83cbc","system_id":"levelo_inurba_marseille","lat":43.30309,"lon":5.40534,"is_reserved":false,"is_disabled":false,"rental_uris":{"android":"levelo://app?vid=2c6aaea4-1349-44f6-8d2b-bf6f79a83cbc","ios":"levelo://app?vid=2c6aaea4-1349-44f6-8d2b-bf6f79a83cbc"},"vehicle_type_id":"4","last_reported":1740492577,"current_range_meters":21600,"station_id":"ce4bh012rcd13ifvqd10","pricing_plan_id":"cebpf4jnsgd1na2vs0mg"},{"bike_id":"1a4dca53-4541-4179-88e4-d3690f77473f","system_id":"levelo_inurba_marseille","lat":43.29916,"lon":5.38145,"is_reserved":false,"is_disabled":false,"rental_uris":{"android":"levelo://app?vid=1a4dca53-4541-4179-88e4-d3690f77473f","ios":"levelo://app?vid=1a4dca53-4541-4179-88e4-d3690f77473f"},"vehicle_type_id":"4","last_reported":1740492577,"current_range_meters":22000,"station_id":"ce4bgj12rcd13ifvqbc0","pricing_plan_id":"cebpf4jnsgd1na2vs0mg"},{"bike_id":"ee7498ac-afae-4101-a827-ddb2ec43033c","system_id":"levelo_inurba_marseille","lat":43.23197,"lon":5.39986,"is_reserved":false,"is_disabled":false,"rental_uris":{"android":"levelo://app?vid=ee7498ac-afae-4101-a827-ddb2ec43033c","ios":"levelo://app?vid=ee7498ac-afae-4101-a827-ddb2ec43033c"},"vehicle_type_id":"4","last_reported":1740492577,"current_range_meters":22000,"station_id":"ce4bhn12rcd13ifvqgqg","pricing_plan_id":"cebpf4jnsgd1na2vs0mg"},{"bike_id":"b69d2ca7-a48b-4651-a829-0793f0051084","system_id":"levelo_inurba_marseille","lat":43.2868,"lon":5.386617,"is_reserved":false,"is_disabled":false,"rental_uris":{"android":"levelo://app?vid=b69d2ca7-a48b-4651-a829-0793f0051084","ios":"levelo://app?vid=b69d2ca7-a48b-4651-a829-0793f0051084"},"vehicle_type_id":"4","last_reported":1740492577,"current_range_meters":22400,"station_id":"ce4bh492rcd13ifvqdug","pricing_plan_id":"cebpf4jnsgd1na2vs0mg"},{"bike_id":"0edf3a85-0e12-4f65-a670-900a1988fcf3","system_id":"levelo_inurba_marseille","lat":43.30411,"lon":5.41273,"is_reserved":false,"is_disabled":true,"rental_uris":{"android":"levelo://app?vid=0edf3a85-0e12-4f65-a670-900a1988fcf3","ios":"levelo://app?vid=0edf3a85-0e12-4f65-a670-900a1988fcf3"},"vehicle_type_id":"4","last_reported":1740492577,"current_range_meters":22000,"station_id":"ce4bhop2rcd13ifvqh8g","pricing_plan_id":"cebpf4jnsgd1na2vs0mg"},{"bike_id":"95f05b6e-2c2a-4940-b7cb-ec4781dfe40c","system_id":"levelo_inurba_marseille","lat":43.25956,"lon":5.40906,"is_reserved":false,"is_disabled":false,"rental_uris":{"android":"levelo://app?vid=95f05b6e-2c2a-4940-b7cb-ec4781dfe40c","ios":"levelo://app?vid=95f05b6e-2c2a-4940-b7cb-ec4781dfe40c"},"vehicle_type_id":"4","last_reported":1740492577,"current_range_meters":22000,"station_id":"ce4bhm92rcd13ifvqglg","pricing_plan_id":"cebpf4jnsgd1na2vs0mg"},{"bike_id":"ff7fa568-076e-4c51-9ea1-454528ce189e","system_id":"levelo_inurba_marseille","lat":43.3095,"lon":5.39034,"is_reserved":false,"is_disabled":false,"rental_uris":{"android":"levelo://app?vid=ff7fa568-076e-4c51-9ea1-454528ce189e","ios":"levelo://app?vid=ff7fa568-076e-4c51-9ea1-454528ce189e"},"vehicle_type_id":"4","last_reported":1740492577,"current_range_meters":21600,"station_id":"ce4bgup2rcd13ifvqco0","pricing_plan_id":"cebpf4jnsgd1na2vs0mg"},{"bike_id":"12086211-d78a-45aa-9a4a-711de59f7d50","system_id":"levelo_inurba_marseille","lat":43.30808,"lon":5.38138,"is_reserved":false,"is_disabled":false,"rental_uris":{"android":"levelo://app?vid=12086211-d78a-45aa-9a4a-711de59f7d50","ios":"levelo://app?vid=12086211-d78a-45aa-9a4a-711de59f7d50"},"vehicle_type_id":"4","last_reported":1740492577,"current_range_meters":22400,"station_id":"ce4bgt12rcd13ifvqce0","pricing_plan_id":"cebpf4jnsgd1na2vs0mg"},{"bike_id":"efbf3a9a-d664-4b35-9694-a88dcfe08770","system_id":"levelo_inurba_marseille","lat":43.24174,"lon":5.39731,"is_reserved":false,"is_disabled":false,"rental_uris":{"android":"levelo://app?vid=efbf3a9a-d664-4b35-9694-a88dcfe08770","ios":"levelo://app?vid=efbf3a9a-d664-4b35-9694-a88dcfe08770"},"vehicle_type_id":"4","last_reported":1740492577,"current_range_meters":22800,"station_id":"ce4bhn12rcd13ifvqgpg","pricing_plan_id":"cebpf4jnsgd1na2vs0mg"},{"bike_id":"7b072264-296b-4c4e-af0d-e8f87c1d3df7","system_id":"levelo_inurba_marseille","lat":43.29921,"lon":5.3749,"is_reserved":false,"is_disabled":false,"rental_uris":{"android":"levelo://app?vid=7b072264-296b-4c4e-af0d-e8f87c1d3df7","ios":"levelo://app?vid=7b072264-296b-4c4e-af0d-e8f87c1d3df7"},"vehicle_type_id":"4","last_reported":1740492577,"current_range_meters":22000,"station_id":"ce4bgjh2rcd13ifvqbg0","pricing_plan_id":"cebpf4jnsgd1na2vs0mg"},{"bike_id":"1720ecc2-ac4d-4511-8f0c-53362d7f903a","system_id":"levelo_inurba_marseille","lat":43.26176,"lon":5.40373,"is_reserved":false,"is_disabled":false,"rental_uris":{"android":"levelo://app?vid=1720ecc2-ac4d-4511-8f0c-53362d7f903a","ios":"levelo://app?vid=1720ecc2-ac4d-4511-8f0c-53362d7f903a"},"vehicle_type_id":"4","last_reported":1740492577,"current_range_meters":22400,"station_id":"","pricing_plan_id":"cebpf4jnsgd1na2vs0mg"},{"bike_id":"a350e25a-a0a4-4cd3-bad8-8a5727b6f4c4","system_id":"levelo_inurba_marseille","lat":43.29042,"lon":5.37577,"is_reserved":false,"is_disabled":false,"rental_uris":{"android":"levelo://app?vid=a350e25a-a0a4-4cd3-bad8-8a5727b6f4c4","ios":"levelo://app?vid=a350e25a-a0a4-4cd3-bad8-8a5727b6f4c4"},"vehicle_type_id":"4","last_reported":1740492577,"current_range_meters":22400,"station_id":"ce4bh692rcd13ifvqe90","pricing_plan_id":"cebpf4jnsgd1na2vs0mg"},{"bike_id":"b0a18b26-683f-4e72-b0b5-445f147276b2","system_id":"levelo_inurba_marseille","lat":43.28409,"lon":5.37536,"is_reserved":false,"is_disabled":false,"rental_uris":{"android":"levelo://app?vid=b0a18b26-683f-4e72-b0b5-445f147276b2","ios":"levelo://app?vid=b0a18b26-683f-4e72-b0b5-445f147276b2"},"vehicle_type_id":"4","last_reported":1740492577,"current_range_meters":22400,"station_id":"ce4bh412rcd13ifvqds0","pricing_plan_id":"cebpf4jnsgd1na2vs0mg"},{"bike_id":"63ecf096-3677-414e-b092-f10e1a6488a4","system_id":"levelo_inurba_marseille","lat":43.31195,"lon":5.36827,"is_reserved":false,"is_disabled":false,"rental_uris":{"android":"levelo://app?vid=63ecf096-3677-414e-b092-f10e1a6488a4","ios":"levelo://app?vid=63ecf096-3677-414e-b092-f10e1a6488a4"},"vehicle_type_id":"4","last_reported":1740492577,"current_range_meters":22400,"station_id":"ce4bgl92rcd13ifvqbq0","pricing_plan_id":"cebpf4jnsgd1na2vs0mg"},{"bike_id":"dd889138-4e54-4adb-85d0-394bd31af506","system_id":"levelo_inurba_marseille","lat":43.24163,"lon":5.39744,"is_reserved":false,"is_disabled":false,"rental_uris":{"android":"levelo://app?vid=dd889138-4e54-4adb-85d0-394bd31af506","ios":"levelo://app?vid=dd889138-4e54-4adb-85d0-394bd31af506"},"vehicle_type_id":"4","last_reported":1740492577,"current_range_meters":22400,"station_id":"ce4bhn12rcd13ifvqgpg","pricing_plan_id":"cebpf4jnsgd1na2vs0mg"},{"bike_id":"fd1ed085-10b5-4cac-be8e-c7df03c5e16d","system_id":"levelo_inurba_marseille","lat":43.29799,"lon":5.3808,"is_reserved":false,"is_disabled":false,"rental_uris":{"android":"levelo://app?vid=fd1ed085-10b5-4cac-be8e-c7df03c5e16d","ios":"levelo://app?vid=fd1ed085-10b5-4cac-be8e-c7df03c5e16d"},"vehicle_type_id":"4","last_reported":1740492577,"current_range_meters":22400,"station_id":"ce4bgip2rcd13ifvqbb0","pricing_plan_id":"cebpf4jnsgd1na2vs0mg"},{"bike_id":"b0fe0843-8b52-43e5-906b-13cc23d2ed6a","system_id":"levelo_inurba_marseille","lat":43.2988,"lon":5.38927,"is_reserved":false,"is_disabled":false,"rental_uris":{"android":"levelo://app?vid=b0fe0843-8b52-43e5-906b-13cc23d2ed6a","ios":"levelo://app?vid=b0fe0843-8b52-43e5-906b-13cc23d2ed6a"},"vehicle_type_id":"4","last_reported":1740492577,"current_range_meters":20400,"station_id":"ce4bh392rcd13ifvqdl0","pricing_plan_id":"cebpf4jnsgd1na2vs0mg"},{"bike_id":"5ffa7d72-60e7-4c36-872e-b63a6e5a0c59","system_id":"levelo_inurba_marseille","lat":43.27319,"lon":5.3914,"is_reserved":false,"is_disabled":false,"rental_uris":{"android":"levelo://app?vid=5ffa7d72-60e7-4c36-872e-b63a6e5a0c59","ios":"levelo://app?vid=5ffa7d72-60e7-4c36-872e-b63a6e5a0c59"},"vehicle_type_id":"4","last_reported":1740492577,"current_range_meters":22800,"station_id":"ce4bhgp2rcd13ifvqfe0","pricing_plan_id":"cebpf4jnsgd1na2vs0mg"},{"bike_id":"d6890522-2253-43aa-91af-20379cbeed7f","system_id":"levelo_inurba_marseille","lat":43.25947,"lon":5.40906,"is_reserved":false,"is_disabled":false,"rental_uris":{"android":"levelo://app?vid=d6890522-2253-43aa-91af-20379cbeed7f","ios":"levelo://app?vid=d6890522-2253-43aa-91af-20379cbeed7f"},"vehicle_type_id":"4","last_reported":1740492577,"current_range_meters":22800,"station_id":"ce4bhm92rcd13ifvqglg","pricing_plan_id":"cebpf4jnsgd1na2vs0mg"},{"bike_id":"5e8aa902-416f-4e9f-99c2-0cd50021da51","system_id":"levelo_inurba_marseille","lat":43.28695,"lon":5.38678,"is_reserved":false,"is_disabled":false,"rental_uris":{"android":"levelo://app?vid=5e8aa902-416f-4e9f-99c2-0cd50021da51","ios":"levelo://app?vid=5e8aa902-416f-4e9f-99c2-0cd50021da51"},"vehicle_type_id":"4","last_reported":1740492577,"current_range_meters":22800,"station_id":"ce4bh492rcd13ifvqdug","pricing_plan_id":"cebpf4jnsgd1na2vs0mg"},{"bike_id":"245c9ee4-a552-4737-8cda-71747db953a0","system_id":"levelo_inurba_marseille","lat":43.2501,"lon":5.38918,"is_reserved":false,"is_disabled":false,"rental_uris":{"android":"levelo://app?vid=245c9ee4-a552-4737-8cda-71747db953a0","ios":"levelo://app?vid=245c9ee4-a552-4737-8cda-71747db953a0"},"vehicle_type_id":"4","last_reported":1740492577,"current_range_meters":22800,"station_id":"ce4bhgp2rcd13ifvqfd0","pricing_plan_id":"cebpf4jnsgd1na2vs0mg"},{"bike_id":"fdc42753-3578-4c23-8d62-4092e838b654","system_id":"levelo_inurba_marseille","lat":43.29573,"lon":5.37523,"is_reserved":false,"is_disabled":false,"rental_uris":{"android":"levelo://app?vid=fdc42753-3578-4c23-8d62-4092e838b654","ios":"levelo://app?vid=fdc42753-3578-4c23-8d62-4092e838b654"},"vehicle_type_id":"4","last_reported":1740492577,"current_range_meters":22800,"station_id":"ce4bgh92rcd13ifvqb50","pricing_plan_id":"cebpf4jnsgd1na2vs0mg"},{"bike_id":"3b9320bb-2672-45d5-85bc-19626c5ce853","system_id":"levelo_inurba_marseille","lat":43.25586,"lon":5.38238,"is_reserved":false,"is_disabled":false,"rental_uris":{"android":"levelo://app?vid=3b9320bb-2672-45d5-85bc-19626c5ce853","ios":"levelo://app?vid=3b9320bb-2672-45d5-85bc-19626c5ce853"},"vehicle_type_id":"4","last_reported":1740492577,"current_range_meters":22800,"station_id":"ce4bhih2rcd13ifvqfs0","pricing_plan_id":"cebpf4jnsgd1na2vs0mg"},{"bike_id":"9b364c6c-a469-4fd4-a5ab-723339868f18","system_id":"levelo_inurba_marseille","lat":43.29268,"lon":5.37632,"is_reserved":false,"is_disabled":false,"rental_uris":{"android":"levelo://app?vid=9b364c6c-a469-4fd4-a5ab-723339868f18","ios":"levelo://app?vid=9b364c6c-a469-4fd4-a5ab-723339868f18"},"vehicle_type_id":"4","last_reported":1740492577,"current_range_meters":22800,"station_id":"ce4bgi12rcd13ifvqb80","pricing_plan_id":"cebpf4jnsgd1na2vs0mg"},{"bike_id":"dd9e108f-be34-48a5-9f9d-f3800e9315d6","system_id":"levelo_inurba_marseille","lat":43.29856,"lon":5.36289,"is_reserved":false,"is_disabled":false,"rental_uris":{"android":"levelo://app?vid=dd9e108f-be34-48a5-9f9d-f3800e9315d6","ios":"levelo://app?vid=dd9e108f-be34-48a5-9f9d-f3800e9315d6"},"vehicle_type_id":"4","last_reported":1740492577,"current_range_meters":22800,"station_id":"ce4bgpp2rcd13ifvqc3g","pricing_plan_id":"cebpf4jnsgd1na2vs0mg"},{"bike_id":"5083812a-5abf-4823-bdd1-696b957e721e","system_id":"levelo_inurba_marseille","lat":43.28424,"lon":5.349952,"is_reserved":false,"is_disabled":false,"rental_uris":{"android":"levelo://app?vid=5083812a-5abf-4823-bdd1-696b957e721e","ios":"levelo://app?vid=5083812a-5abf-4823-bdd1-696b957e721e"},"vehicle_type_id":"4","last_reported":1740492577,"current_range_meters":23200,"station_id":"ce4bhbh2rcd13ifvqepg","pricing_plan_id":"cebpf4jnsgd1na2vs0mg"},{"bike_id":"1b4dde54-b0a7-4e03-b5b9-57c84a3e1e64","system_id":"levelo_inurba_marseille","lat":43.28436,"lon":5.39185,"is_reserved":false,"is_disabled":false,"rental_uris":{"android":"levelo://app?vid=1b4dde54-b0a7-4e03-b5b9-57c84a3e1e64","ios":"levelo://app?vid=1b4dde54-b0a7-4e03-b5b9-57c84a3e1e64"},"vehicle_type_id":"4","last_reported":1740492577,"current_range_meters":22800,"station_id":"ce4bhoh2rcd13ifvqh5g","pricing_plan_id":"cebpf4jnsgd1na2vs0mg"},{"bike_id":"3f0de286-6576-40ab-ba95-9a806ac10009","system_id":"levelo_inurba_marseille","lat":43.24171,"lon":5.39739,"is_reserved":false,"is_disabled":false,"rental_uris":{"android":"levelo://app?vid=3f0de286-6576-40ab-ba95-9a806ac10009","ios":"levelo://app?vid=3f0de286-6576-40ab-ba95-9a806ac10009"},"vehicle_type_id":"4","last_reported":1740492577,"current_range_meters":23200,"station_id":"ce4bhn12rcd13ifvqgpg","pricing_plan_id":"cebpf4jnsgd1na2vs0mg"},{"bike_id":"58a02763-d442-4d63-af80-3425f996c6e8","system_id":"levelo_inurba_marseille","lat":43.25942,"lon":5.40907,"is_reserved":false,"is_disabled":false,"rental_uris":{"android":"levelo://app?vid=58a02763-d442-4d63-af80-3425f996c6e8","ios":"levelo://app?vid=58a02763-d442-4d63-af80-3425f996c6e8"},"vehicle_type_id":"4","last_reported":1740492577,"current_range_meters":23200,"station_id":"ce4bhm92rcd13ifvqglg","pricing_plan_id":"cebpf4jnsgd1na2vs0mg"},