{"last_updated":1702890497,"ttl":30,"version":"2.2","data":{"bikes":[{"bike_id":"19d38c64-1f80-4241-ae3f-24cc0f2bed28","system_id":"levelo_inurba_marseille","lat":43.31341,"lon":5.367098,"is_reserved":false,"is_disabled":false,"rental_uris":{"android":"levelo://app?vid=19d38c64-1f80-4241-ae3f-24cc0f2bed28","ios":"levelo://app?vid=19d38c64-1f80-4241-ae3f-24cc0f2bed28"},"vehicle_type_id":"4","last_reported":1702890497,"current_range_meters":20400,"station_id":"ce4bgr92rcd13ifvqc6g","pricing_plan_id":"free"},{"bike_id":"03995a8a-88ef-45ae-bc9d-810c260cb9cf","system_id":"levelo_inurba_marseille","lat":43.31341,"lon":5.367098,"is_reserved":false,"is_disabled":false,"rental_uris":{"android":"levelo://app?vid=03995a8a-88ef-45ae-bc9d-810c260cb9cf","ios":"levelo://app?vid=03995a8a-88ef-45ae-bc9d-810c260cb9cf"},"vehicle_type_id":"4","last_reported":1702890497,"current_range_meters":5200,"station_id":"ce4bgr92rcd13ifvqc6g","pricing_plan_id":"free"},{"bike_id":"704be55e-ba58-4bb8-8e77-48c57e6c6634","system_id":"levelo_inurba_marseille","lat":43.313391,"lon":5.36706,"is_reserved":false,"is_disabled":false,"rental_uris":{"android":"levelo://app?vid=704be55e-ba58-4bb8-8e77-48c57e6c6634","ios":"levelo://app?vid=704be55e-ba58-4bb8-8e77-48c57e6c6634"},"vehicle_type_id":"4","last_reported":1702890497,"current_range_meters":6800,"station_id":"ce4bgr92rcd13ifvqc6g","pricing_plan_id":"free"},{"bike_id":"4cf2c463-4fcf-4b40-8f47-d4c001339294","system_id":"levelo_inurba_marseille","lat":43.313391,"lon":5.36706,"is_reserved":false,"is_disabled":false,"rental_uris":{"android":"levelo://app?vid=4cf2c463-4fcf-4b40-8f47-d4c001339294","ios":"levelo://app?vid=4cf2c463-4fcf-4b40-8f47-d4c001339294"},"vehicle_type_id":"4","last_reported":1702890497,"current_range_meters":32000,"station_id":"ce4bgr92rcd13ifvqc6g","pricing_plan_id":"free"},{"bike_id":"f3b0c131-5380-4666-98fa-6affed18498a","system_id":"levelo_inurba_marseille","lat":43.31341,"lon":5.367098,"is_reserved":false,"is_disabled":false,"rental_uris":{"android":"levelo://app?vid=f3b0c131-5380-4666-98fa-6affed18498a","ios":"levelo://app?vid=f3b0c131-5380-4666-98fa-6affed18498a"},"vehicle_type_id":"4","last_reported":1702890497,"current_range_meters":9200,"station_id":"ce4bgr92rcd13ifvqc6g","pricing_plan_id":"free"},{"bike_id":"fa2e2d65-3bf1-4878-b6a5-930d3bf7892f","system_id":"levelo_inurba_marseille","lat":43.313391,"lon":5.36706,"is_reserved":false,"is_disabled":false,"rental_uris":{"android":"levelo://app?vid=fa2e2d65-3bf1-4878-b6a5-930d3bf7892f","ios":"levelo://app?vid=fa2e2d65-3bf1-4878-b6a5-930d3bf7892f"},"vehicle_type_id":"4","last_reported":1702890497,"current_range_meters":22000,"station_id":"ce4bgr92rcd13ifvqc6g","pricing_plan_id":"free"},{"bike_id":"ab7a7104-f849-4234-8d21-da7063b2b5ab","system_id":"levelo_inurba_marseille","lat":43.31341,"lon":5.367098,"is_reserved":false,"is_disabled":false,"rental_uris":{"android":"levelo://app?vid=ab7a7104-f849-4234-8d21-da7063b2b5ab","ios":"levelo://app?vid=ab7a7104-f849-4234-8d21-da7063b2b5ab"},"vehicle_type_id":"4","last_reported":1702890497,"current_range_meters":13200,"station_id":"ce4bgr92rcd13ifvqc6g","pricing_plan_id":"free"},{"bike_id":"b9e387d8-18f5-443a-b524-a9bc938b3c3c","system_id":"levelo_inurba_marseille","lat":43.31347,"lon":5.36718,"is_reserved":false,"is_disabled":false,"rental_uris":{"android":"levelo://app?vid=b9e387d8-18f5-443a-b524-a9bc938b3c3c","ios":"levelo://app?vid=b9e387d8-18f5-443a-b524-a9bc938b3c3c"},"vehicle_type_id":"4","last_reported":1702890497,"current_range_meters":22800,"station_id":"ce4bgr92rcd13ifvqc6g","pricing_plan_id":"free"},{"bike_id":"b2988eb2-5692-47e1-90d4-040e9464d95b","system_id":"levelo_inurba_marseille","lat":43.313391,"lon":5.36706,"is_reserved":false,"is_disabled":false,"rental_uris":{"android":"levelo://app?vid=b2988eb2-5692-47e1-90d4-040e9464d95b","ios":"levelo://app?vid=b2988eb2-5692-47e1-90d4-040e9464d95b"},"vehicle_type_id":"4","last_reported":1702890497,"current_range_meters":22400,"station_id":"ce4bgr92rcd13ifvqc6g","pricing_plan_id":"free"},{"bike_id":"2a35484a-0926-4daa-abd1-ee8694286426","system_id":"levelo_inurba_marseille","lat":43.31341,"lon":5.367098,"is_reserved":false,"is_disabled":false,"rental_uris":{"android":"levelo://app?vid=2a35484a-0926-4daa-abd1-ee8694286426","ios":"levelo://app?vid=2a35484a-0926-4daa-abd1-ee8694286426"},"vehicle_type_id":"4","last_reported":1702890497,"current_range_meters":17200,"station_id":"ce4bgr92rcd13ifvqc6g","pricing_plan_id":"free"},{"bike_id":"4fc9f832-7db8-4188-af64-2e5c98dde42e","system_id":"levelo_inurba_marseille","lat":43.313391,"lon":5.36706,"is_reserved":false,"is_disabled":false,"rental_uris":{"android":"levelo://app?vid=4fc9f832-7db8-4188-af64-2e5c98dde42e","ios":"levelo://app?vid=4fc9f832-7db8-4188-af64-2e5c98dde42e"},"vehicle_type_id":"4","last_reported":1702890497,"current_range_meters":28800,"station_id":"ce4bgr92rcd13ifvqc6g","pricing_plan_id":"free"},{"bike_id":"e223c69a-1d61-4a03-811f-5db9cad1005b","system_id":"levelo_inurba_marseille","lat":43.31341,"lon":5.367098,"is_reserved":false,"is_disabled":false,"rental_uris":{"android":"levelo://app?vid=e223c69a-1d61-4a03-811f-5db9cad1005b","ios":"levelo://app?vid=e223c69a-1d61-4a03-811f-5db9cad1005b"},"vehicle_type_id":"4","last_reported":1702890497,"current_range_meters":26800,"station_id":"ce4bgr92rcd13ifvqc6g","pricing_plan_id":"free"},{"bike_id":"98b54974-3b1d-47c7-af5d-e6243eb800ea","system_id":"levelo_inurba_marseille","lat":43.31341,"lon":5.367098,"is_reserved":false,"is_disabled":false,"rental_uris":{"android":"levelo://app?vid=98b54974-3b1d-47c7-af5d-e6243eb800ea","ios":"levelo://app?vid=98b54974-3b1d-47c7-af5d-e6243eb800ea"},"vehicle_type_id":"4","last_reported":1702890497,"current_range_meters":6000,"station_id":"ce4bgr92rcd13ifvqc6g","pricing_plan_id":"free"},{"bike_id":"b3e0af21-ee86-4aa8-9916-d7bac4d530f0","system_id":"levelo_inurba_marseille","lat":43.313391,"lon":5.36706,"is_reserved":false,"is_disabled":false,"rental_uris":{"android":"levelo://app?vid=b3e0af21-ee86-4aa8-9916-d7bac4d530f0","ios":"levelo://app?vid=b3e0af21-ee86-4aa8-9916-d7bac4d530f0"},"vehicle_type_id":"4","last_reported":1702890497,"current_range_meters":31600,"station_id":"ce4bgr92rcd13ifvqc6g","pricing_plan_id":"free"},{"bike_id":"a7d09204-ac96-4aae-9dae-4eebaad8480f","system_id":"levelo_inurba_marseille","lat":43.31341,"lon":5.367098,"is_reserved":false,"is_disabled":false,"rental_uris":{"android":"levelo://app?vid=a7d09204-ac96-4aae-9dae-4eebaad8480f","ios":"levelo://app?vid=a7d09204-ac96-4aae-9dae-4eebaad8480f"},"vehicle_type_id":"4","last_reported":1702890497,"current_range_meters":6800,"station_id":"ce4bgr92rcd13ifvqc6g","pricing_plan_id":"free"},{"bike_id":"7ab59877-030b-4329-b4fb-e9d31e0f999c","system_id":"levelo_inurba_marseille","lat":43.312239,"lon":5.368562,"is_reserved":false,"is_disabled":false,"rental_uris":{"android":"levelo://app?vid=7ab59877-030b-4329-b4fb-e9d31e0f999c","ios":"levelo://app?vid=7ab59877-030b-4329-b4fb-e9d31e0f999c"},"vehicle_type_id":"4","last_reported":1702890497,"current_range_meters":28000,"station_id":"ce4bgl92rcd13ifvqbq0","pricing_plan_id":"free"},{"bike_id":"ccbc476a-ba92-43c6-898d-76d2c8beed82","system_id":"levelo_inurba_marseille","lat":43.312239,"lon":5.368562,"is_reserved":false,"is_disabled":false,"rental_uris":{"android":"levelo://app?vid=ccbc476a-ba92-43c6-898d-76d2c8beed82","ios":"levelo://app?vid=ccbc476a-ba92-43c6-898d-76d2c8beed82"},"vehicle_type_id":"4","last_reported":1702890497,"current_range_meters":22800,"station_id":"ce4bgl92rcd13ifvqbq0","pricing_plan_id":"free"},{"bike_id":"c14e76f4-310e-454a-a6d0-23b530eee53c","system_id":"levelo_inurba_marseille","lat":43.312239,"lon":5.368562,"is_reserved":false,"is_disabled":false,"rental_uris":{"android":"levelo://app?vid=c14e76f4-310e-454a-a6d0-23b530eee53c","ios":"levelo://app?vid=c14e76f4-310e-454a-a6d0-23b530eee53c"},"vehicle_type_id":"4","last_reported":1702890497,"current_range_meters":13200,"station_id":"ce4bgl92rcd13ifvqbq0","pricing_plan_id":"free"},{"bike_id":"2e8fcba5-9b1c-46d6-90cc-2f415dcd7753","system_id":"levelo_inurba_marseille","lat":43.312239,"lon":5.368562,"is_reserved":false,"is_disabled":false,"rental_uris":{"android":"levelo://app?vid=2e8fcba5-9b1c-46d6-90cc-2f415dcd7753","ios":"levelo://app?vid=2e8fcba5-9b1c-46d6-90cc-2f415dcd7753"},"vehicle_type_id":"4","last_reported":1702890497,"current_range_meters":22000,"station_id":"ce4bgl92rcd13ifvqbq0","pricing_plan_id":"free"},{"bike_id":"a20719af-a94d-488f-9df3-f3ef1b2553c5","system_id":"levelo_inurba_marseille","lat":43.312239,"lon":5.368562,"is_reserved":false,"is_disabled":false,"rental_uris":{"android":"levelo://app?vid=a20719af-a94d-488f-9df3-f3ef1b2553c5","ios":"levelo://app?vid=a20719af-a94d-488f-9df3-f3ef1b2553c5"},"vehicle_type_id":"4","last_reported":1702890497,"current_range_meters":20800,"station_id":"ce4bgl92rcd13ifvqbq0","pricing_plan_id":"free"},{"bike_id":"d03066d9-96cf-4f9f-812f-6e75e1aad218","system_id":"levelo_inurba_marseille","lat":43.309076,"lon":5.368465,"is_reserved":false,"is_disabled":false,"rental_uris":{"android":"levelo://app?vid=d03066d9-96cf-4f9f-812f-6e75e1aad218","ios":"levelo://app?vid=d03066d9-96cf-4f9f-812f-6e75e1aad218"},"vehicle_type_id":"4","last_reported":1702890497,"current_range_meters":20000,"station_id":"ce4bgn92rcd13ifvqbvg","pricing_plan_id":"free"},{"bike_id":"d59fb552-14ce-429d-920f-2fb16cf74279","system_id":"levelo_inurba_marseille","lat":43.309076,"lon":5.368465,"is_reserved":false,"is_disabled":false,"rental_uris":{"android":"levelo://app?vid=d59fb552-14ce-429d-920f-2fb16cf74279","ios":"levelo://app?vid=d59fb552-14ce-429d-920f-2fb16cf74279"},"vehicle_type_id":"4","last_reported":1702890497,"current_range_meters":19600,"station_id":"ce4bgn92rcd13ifvqbvg","pricing_plan_id":"free"},{"bike_id":"1d465e15-52d1-44a7-8df6-28df6d416bfd","system_id":"levelo_inurba_marseille","lat":43.309076,"lon":5.368465,"is_reserved":false,"is_disabled":false,"rental_uris":{"android":"levelo://app?vid=1d465e15-52d1-44a7-8df6-28df6d416bfd","ios":"levelo://app?vid=1d465e15-52d1-44a7-8df6-28df6d416bfd"},"vehicle_type_id":"4","last_reported":1702890497,"current_range_meters":28000,"station_id":"ce4bgn92rcd13ifvqbvg","pricing_plan_id":"free"},{"bike_id":"47726aa0-e745-4d9c-9908-3d4ddab2a909","system_id":"levelo_inurba_marseille","lat":43.309076,"lon":5.368465,"is_reserved":false,"is_disabled":false,"rental_uris":{"android":"levelo://app?vid=47726aa0-e745-4d9c-9908-3d4ddab2a909","ios":"levelo://app?vid=47726aa0-e745-4d9c-9908-3d4ddab2a909"},"vehicle_type_id":"4","last_reported":1702890497,"current_range_meters":31600,"station_id":"ce4bgn92rcd13ifvqbvg","pricing_plan_id":"free"},{"bike_id":"17518c11-9ff9-4e3b-8858-32d744eb9e16","system_id":"levelo_inurba_marseille","lat":43.309076,"lon":5.368465,"is_reserved":false,"is_disabled":false,"rental_uris":{"android":"levelo://app?vid=17518c11-9ff9-4e3b-8858-32d744eb9e16","ios":"levelo://app?vid=17518c11-9ff9-4e3b-8858-32d744eb9e16"},"vehicle_type_id":"4","last_reported":1702890497,"current_range_meters":31600,"station_id":"ce4bgn92rcd13ifvqbvg","pricing_plan_id":"free"},{"bike_id":"b68c4dbf-fd47-480a-bc56-568c1ee4f600","system_id":"levelo_inurba_marseille","lat":43.309076,"lon":5.368465,"is_reserved":false,"is_disabled":false,"rental_uris":{"android":"levelo://app?vid=b68c4dbf-fd47-480a-bc56-568c1ee4f600","ios":"levelo://app?vid=b68c4dbf-fd47-480a-bc56-568c1ee4f600"},"vehicle_type_id":"4","last_reported":1702890497,"current_range_meters":18800,"station_id":"ce4bgn92rcd13ifvqbvg","pricing_plan_id":"free"},{"bike_id":"ba1c86e2-219f-48d1-8d59-82885676ea84","system_id":"levelo_inurba_marseille","lat":43.309076,"lon":5.368465,"is_reserved":false,"is_disabled":false,"rental_uris":{"android":"levelo://app?vid=ba1c86e2-219f-48d1-8d59-82885676ea84","ios":"levelo://app?vid=ba1c86e2-219f-48d1-8d59-82885676ea84"},"vehicle_type_id":"4","last_reported":1702890497,"current_range_meters":26000,"station_id":"ce4bgn92rcd13ifvqbvg","pricing_plan_id":"free"},{"bike_id":"bac86082-66e6-4e22-9987-d47588ff7666","system_id":"levelo_inurba_marseille","lat":43.309076,"lon":5.368465,"is_reserved":false,"is_disabled":false,"rental_uris":{"android":"levelo://app?vid=bac86082-66e6-4e22-9987-d47588ff7666","ios":"levelo://app?vid=bac86082-66e6-4e22-9987-d47588ff7666"},"vehicle_type_id":"4","last_reported":1702890497,"current_range_meters":20800,"station_id":"ce4bgn92rcd13ifvqbvg","pricing_plan_id":"free"},{"bike_id":"b2819221-57af-4835-9092-151e2c662355","system_id":"levelo_inurba_marseille","lat":43.309076,"lon":5.368465,"is_reserved":false,"is_disabled":false,"rental_uris":{"android":"levelo://app?vid=b2819221-57af-4835-9092-151e2c662355","ios":"levelo://app?vid=b2819221-57af-4835-9092-151e2c662355"},"vehicle_type_id":"4","last_reported":1702890497,"current_range_meters":18000,"station_id":"ce4bgn92rcd13ifvqbvg","pricing_plan_id":"free"},{"bike_id":"a55a1d8f-937c-4b19-a132-3e37b6bb6e06","system_id":"levelo_inurba_marseille","lat":43.314811,"lon":5.373103,"is_reserved":false,"is_disabled":false,"rental_uris":{"android":"levelo://app?vid=a55a1d8f-937c-4b19-a132-3e37b6bb6e06","ios":"levelo://app?vid=a55a1d8f-937c-4b19-a132-3e37b6bb6e06"},"vehicle_type_id":"4","last_reported":1702890497,"current_range_meters":31200,"station_id":"ce4bgt12rcd13ifvqcd0","pricing_plan_id":"free"},{"bike_id":"4bfcbd8b-2b50-45f7-adf2-c115c892a5ec","system_id":"levelo_inurba_marseille","lat":43.314811,"lon":5.373103,"is_reserved":false,"is_disabled":false,"rental_uris":{"android":"levelo://app?vid=4bfcbd8b-2b50-45f7-adf2-c115c892a5ec","ios":"levelo://app?vid=4bfcbd8b-2b50-45f7-adf2-c115c892a5ec"},"vehicle_type_id":"4","last_reported":1702890497,"current_range_meters":9600,"station_id":"ce4bgt12rcd13ifvqcd0","pricing_plan_id":"free"},{"bike_id":"a5b0931e-669c-4384-9801-64676f15f9c1","system_id":"levelo_inurba_marseille","lat":43.305368,"lon":5.367343,"is_reserved":false,"is_disabled":false,"rental_uris":{"android":"levelo://app?vid=a5b0931e-669c-4384-9801-64676f15f9c1","ios":"levelo://app?vid=a5b0931e-669c-4384-9801-64676f15f9c1"},"vehicle_type_id":"4","last_reported":1702890497,"current_range_meters":14000,"station_id":"ce4bgrp2rcd13ifvqc9g","pricing_plan_id":"free"},{"bike_id":"4cfd0133-0a42-4630-ade2-52a6cb8165ca","system_id":"levelo_inurba_marseille","lat":43.305712,"lon":5.365641,"is_reserved":false,"is_disabled":false,"rental_uris":{"android":"levelo://app?vid=4cfd0133-0a42-4630-ade2-52a6cb8165ca","ios":"levelo://app?vid=4cfd0133-0a42-4630-ade2-52a6cb8165ca"},"vehicle_type_id":"4","last_reported":1702890497,"current_range_meters":30400,"station_id":"ce4bgs12rcd13ifvqcag","pricing_plan_id":"free"},{"bike_id":"99c51a4d-8d55-4074-973c-5cb6d318730f","system_id":"levelo_inurba_marseille","lat":43.3054,"lon":5.36716,"is_reserved":false,"is_disabled":false,"rental_uris":{"android":"levelo://app?vid=99c51a4d-8d55-4074-973c-5cb6d318730f","ios":"levelo://app?vid=99c51a4d-8d55-4074-973c-5cb6d318730f"},"vehicle_type_id":"4","last_reported":1702890497,"current_range_meters":23200,"station_id":"ce4bgrp2rcd13ifvqc9g","pricing_plan_id":"free"},{"bike_id":"1fb55ffe-7d20-4e7c-9ed5-ee9777700e9f","system_id":"levelo_inurba_marseille","lat":43.305368,"lon":5.367343,"is_reserved":false,"is_disabled":false,"rental_uris":{"android":"levelo://app?vid=1fb55ffe-7d20-4e7c-9ed5-ee9777700e9f","ios":"levelo://app?vid=1fb55ffe-7d20-4e7c-9ed5-ee9777700e9f"},"vehicle_type_id":"4","last_reported":1702890497,"current_range_meters":2400,"station_id":"ce4bgrp2rcd13ifvqc9g","pricing_plan_id":"free"},{"bike_id":"a9bd40c7-fefa-4ddb-a9fc-704c20cea26a","system_id":"levelo_inurba_marseille","lat":43.305714,"lon":5.365633,"is_reserved":false,"is_disabled":false,"rental_uris":{"android":"levelo://app?vid=a9bd40c7-fefa-4ddb-a9fc-704c20cea26a","ios":"levelo://app?vid=a9bd40c7-fefa-4ddb-a9fc-704c20cea26a"},"vehicle_type_id":"4","last_reported":1702890497,"current_range_meters":23600,"station_id":"ce4bgs12rcd13ifvqcag","pricing_plan_id":"free"},{"bike_id":"3644b26c-bab2-4e31-8ce9-ddf01a8eb439","system_id":"levelo_inurba_marseille","lat":43.305706,"lon":5.365654,"is_reserved":false,"is_disabled":false,"rental_uris":{"android":"levelo://app?vid=3644b26c-bab2-4e31-8ce9-ddf01a8eb439","ios":"levelo://app?vid=3644b26c-bab2-4e31-8ce9-ddf01a8eb439"},"vehicle_type_id":"4","last_reported":1702890497,"current_range_meters":3200,"station_id":"ce4bgs12rcd13ifvqcag","pricing_plan_id":"free"},{"bike_id":"f5243271-d4dd-4b90-86d9-af9cbf375878","system_id":"levelo_inurba_marseille","lat":43.305368,"lon":5.367343,"is_reserved":false,"is_disabled":false,"rental_uris":{"android":"levelo://app?vid=f5243271-d4dd-4b90-86d9-af9cbf375878","ios":"levelo://app?vid=f5243271-d4dd-4b90-86d9-af9cbf375878"},"vehicle_type_id":"4","last_reported":1702890497,"current_range_meters":14400,"station_id":"ce4bgrp2rcd13ifvqc9g","pricing_plan_id":"free"},{"bike_id":"28ccea3c-6fe7-494c-b049-b69db180f246","system_id":"levelo_inurba_marseille","lat":43.305714,"lon":5.365633,"is_reserved":false,"is_disabled":false,"rental_uris":{"android":"levelo://app?vid=28ccea3c-6fe7-494c-b049-b69db180f246","ios":"levelo://app?vid=28ccea3c-6fe7-494c-b049-b69db180f246"},"vehicle_type_id":"4","last_reported":1702890497,"current_range_meters":26400,"station_id":"ce4bgs12rcd13ifvqcag","pricing_plan_id":"free"},{"bike_id":"955e4ab2-16e5-44e8-a986-a2f50ff96c06","system_id":"levelo_inurba_marseille","lat":43.305382,"lon":5.365389,"is_reserved":false,"is_disabled":false,"rental_uris":{"android":"levelo://app?vid=955e4ab2-16e5-44e8-a986-a2f50ff96c06","ios":"levelo://app?vid=955e4ab2-16e5-44e8-a986-a2f50ff96c06"},"vehicle_type_id":"4","last_reported":1702890497,"current_range_meters":8400,"station_id":"","pricing_plan_id":"free"},{"bike_id":"01b3e51f-8419-4fc9-b3f9-79d66c79b271","system_id":"levelo_inurba_marseille","lat":43.305368,"lon":5.367343,"is_reserved":false,"is_disabled":false,"rental_uris":{"android":"levelo://app?vid=01b3e51f-8419-4fc9-b3f9-79d66c79b271","ios":"levelo://app?vid=01b3e51f-8419-4fc9-b3f9-79d66c79b271"},"vehicle_type_id":"4","last_reported":1702890497,"current_range_meters":12800,"station_id":"ce4bgrp2rcd13ifvqc9g","pricing_plan_id":"free"},{"bike_id":"05fa78bb-31b8-4484-a9b9-352b2251b854","system_id":"levelo_inurba_marseille","lat":43.305706,"lon":5.365654,"is_reserved":false,"is_disabled":false,"rental_uris":{"android":"levelo://app?vid=05fa78bb-31b8-4484-a9b9-352b2251b854","ios":"levelo://app?vid=05fa78bb-31b8-4484-a9b9-352b2251b854"},"vehicle_type_id":"4","last_reported":1702890497,"current_range_meters":31200,"station_id":"ce4bgs12rcd13ifvqcag","pricing_plan_id":"free"},{"bike_id":"4a0e6fc8-9b58-4c96-a49a-e16922bdeed0","system_id":"levelo_inurba_marseille","lat":43.305989,"lon":5.37225,"is_reserved":false,"is_disabled":false,"rental_uris":{"android":"levelo://app?vid=4a0e6fc8-9b58-4c96-a49a-e16922bdeed0","ios":"levelo://app?vid=4a0e6fc8-9b58-4c96-a49a-e16922bdeed0"},"vehicle_type_id":"4","last_reported":1702890497,"current_range_meters":31600,"station_id":"ce4bgqh2rcd13ifvqc4g","pricing_plan_id":"free"},{"bike_id":"896e0850-70b3-4958-9a73-a8f747cb77e8","system_id":"levelo_inurba_marseille","lat":43.30318,"lon":5.36888,"is_reserved":false,"is_disabled":false,"rental_uris":{"android":"levelo://app?vid=896e0850-70b3-4958-9a73-a8f747cb77e8","ios":"levelo://app?vid=896e0850-70b3-4958-9a73-a8f747cb77e8"},"vehicle_type_id":"4","last_reported":1702890497,"current_range_meters":9600,"station_id":"ce4bgqh2rcd13ifvqc5g","pricing_plan_id":"free"},{"bike_id":"4be336b9-4170-4f2a-af86-6940ece7a31c","system_id":"levelo_inurba_marseille","lat":43.30304,"lon":5.368987,"is_reserved":false,"is_disabled":false,"rental_uris":{"android":"levelo://app?vid=4be336b9-4170-4f2a-af86-6940ece7a31c","ios":"levelo://app?vid=4be336b9-4170-4f2a-af86-6940ece7a31c"},"vehicle_type_id":"4","last_reported":1702890497,"current_range_meters":12800,"station_id":"ce4bgqh2rcd13ifvqc5g","pricing_plan_id":"free"},{"bike_id":"22af3c0d-698d-4966-9ca5-ef6393b2cf41","system_id":"levelo_inurba_marseille","lat":43.30304,"lon":5.368987,"is_reserved":false,"is_disabled":false,"rental_uris":{"android":"levelo://app?vid=22af3c0d-698d-4966-9ca5-ef6393b2cf41","ios":"levelo://app?vid=22af3c0d-698d-4966-9ca5-ef6393b2cf41"},"vehicle_type_id":"4","last_reported":1702890497,"current_range_meters":31200,"station_id":"ce4bgqh2rcd13ifvqc5g","pricing_plan_id":"free"},{"bike_id":"176d4498-f385-45b6-87d2-01361b612698","system_id":"levelo_inurba_marseille","lat":43.3153,"lon":5.38025,"is_reserved":false,"is_disabled":false,"rental_uris":{"android":"levelo://app?vid=176d4498-f385-45b6-87d2-01361b612698","ios":"levelo://app?vid=176d4498-f385-45b6-87d2-01361b612698"},"vehicle_type_id":"4","last_reported":1702890497,"current_range_meters":4800,"station_id":"ce4bhsp2rcd13ifvqi50","pricing_plan_id":"free"},{"bike_id":"539d3c4e-eea0-4ecc-8726-c1845524695a","system_id":"levelo_inurba_marseille","lat":43.3153,"lon":5.38027,"is_reserved":false,"is_disabled":false,"rental_uris":{"android":"levelo://app?vid=539d3c4e-eea0-4ecc-8726-c1845524695a","ios":"levelo://app?vid=539d3c4e-eea0-4ecc-8726-c1845524695a"},"vehicle_type_id":"4","last_reported":1702890497,"current_range_meters":2800,"station_id":"ce4bhsp2rcd13ifvqi50","pricing_plan_id":"free"},{"bike_id":"dea51c5e-08f6-4229-ae28-d88a5172a353","system_id":"levelo_inurba_marseille","lat":43.301939,"lon":5.366286,"is_reserved":false,"is_disabled":false,"rental_uris":{"android":"levelo://app?vid=dea51c5e-08f6-4229-ae28-d88a5172a353","ios":"levelo://app?vid=dea51c5e-08f6-4229-ae28-d88a5172a353"},"vehicle_type_id":"4","last_reported":1702890497,"current_range_meters":20000,"station_id":"ce4bgrh2rcd13ifvqc8g","pricing_plan_id":"free"},{"bike_id":"89fac772-b18e-4cb9-ada4-713b9f9add64","system_id":"levelo_inurba_marseille","lat":43.301939,"lon":5.366286,"is_reserved":false,"is_disabled":false,"rental_uris":{"android":"levelo://app?vid=89fac772-b18e-4cb9-ada4-713b9f9add64","ios":"levelo://app?vid=89fac772-b18e-4cb9-ada4-713b9f9add64"},"vehicle_type_id":"4","last_reported":1702890497,"current_range_meters":0,"station_id":"ce4bgrh2rcd13ifvqc8g","pricing_plan_id":"free"},{"bike_id":"039e6286-4ec3-461b-bda5-0aa8b09ecdc3","system_id":"levelo_inurba_marseille","lat":43.308012,"lon":5.381511,"is_reserved":false,"is_disabled":false,"rental_uris":{"android":"levelo://app?vid=039e6286-4ec3-461b-bda5-0aa8b09ecdc3","ios":"levelo://app?vid=039e6286-4ec3-461b-bda5-0aa8b09ecdc3"},"vehicle_type_id":"4","last_reported":1702890497,"current_range_meters":15200,"station_id":"ce4bgt12rcd13ifvqce0","pricing_plan_id":"free"},{"bike_id":"88c7a406-69d0-4789-9d82-0f49f4a21b9c","system_id":"levelo_inurba_marseille","lat":43.30461,"lon":5.37891,"is_reserved":false,"is_disabled":false,"rental_uris":{"android":"levelo://app?vid=88c7a406-69d0-4789-9d82-0f49f4a21b9c","ios":"levelo://app?vid=88c7a406-69d0-4789-9d82-0f49f4a21b9c"},"vehicle_type_id":"4","last_reported":1702890497,"current_range_meters":0,"station_id":"ce4bgup2rcd13ifvqcn0","pricing_plan_id":"free"},{"bike_id":"8b97c3f1-bb5f-4c4b-bae8-74bcb68230ca","system_id":"levelo_inurba_marseille","lat":43.310713,"lon":5.383315,"is_reserved":false,"is_disabled":false,"rental_uris":{"android":"levelo://app?vid=8b97c3f1-bb5f-4c4b-bae8-74bcb68230ca","ios":"levelo://app?vid=8b97c3f1-bb5f-4c4b-bae8-74bcb68230ca"},"vehicle_type_id":"4","last_reported":1702890497,"current_range_meters":2400,"station_id":"","pricing_plan_id":"free"},{"bike_id":"9b58d5ad-138b-4778-b570-100774f25238","system_id":"levelo_inurba_marseille","lat":43.302784,"lon":5.377158,"is_reserved":false,"is_disabled":false,"rental_uris":{"android":"levelo://app?vid=9b58d5ad-138b-4778-b570-100774f25238","ios":"levelo://app?vid=9b58d5ad-138b-4778-b570-100774f25238"},"vehicle_type_id":"4","last_reported":1702890497,"current_range_meters":25200,"station_id":"ce4bguh2rcd13ifvqcj0","pricing_plan_id":"free"},{"bike_id":"ab13031f-347a-4944-99ce-109da1ba1bab","system_id":"levelo_inurba_marseille","lat":43.301429,"lon":5.37413,"is_reserved":false,"is_disabled":false,"rental_uris":{"android":"levelo://app?vid=ab13031f-347a-4944-99ce-109da1ba1bab","ios":"levelo://app?vid=ab13031f-347a-4944-99ce-109da1ba1bab"},"vehicle_type_id":"4","last_reported":1702890497,"current_range_meters":11200,"station_id":"ce4bgs92rcd13ifvqcc0","pricing_plan_id":"free"},{"bike_id":"48a185fa-c66b-4a1c-a63b-88786140fb58","system_id":"levelo_inurba_marseille","lat":43.301429,"lon":5.37413,"is_reserved":false,"is_disabled":false,"rental_uris":{"android":"levelo://app?vid=48a185fa-c66b-4a1c-a63b-88786140fb58","ios":"levelo://app?vid=48a185fa-c66b-4a1c-a63b-88786140fb58"},"vehicle_type_id":"4","last_reported":1702890497,"current_range_meters":15200,"station_id":"ce4bgs92rcd13ifvqcc0","pricing_plan_id":"free"},{"bike_id":"819cb438-2e9c-4e0b-902b-5e19ef554d5c","system_id":"levelo_inurba_marseille","lat":43.305495,"lon":5.384294,"is_reserved":false,"is_disabled":false,"rental_uris":{"android":"levelo://app?vid=819cb438-2e9c-4e0b-902b-5e19ef554d5c","ios":"levelo://app?vid=819cb438-2e9c-4e0b-902b-5e19ef554d5c"},"vehicle_type_id":"4","last_reported":1702890497,"current_range_meters":7200,"station_id":"ce4bgg92rcd13ifvqb30","pricing_plan_id":"free"},{"bike_id":"c4e77394-aef9-4077-b745-e99148625344","system_id":"levelo_inurba_marseille","lat":43.32733,"lon":5.36707,"is_reserved":false,"is_disabled":false,"rental_uris":{"android":"levelo://app?vid=c4e77394-aef9-4077-b745-e99148625344","ios":"levelo://app?vid=c4e77394-aef9-4077-b745-e99148625344"},"vehicle_type_id":"4","last_reported":1702890497,"current_range_meters":15600,"station_id":"","pricing_plan_id":"free"},{"bike_id":"4ce836d1-a5c5-4627-9212-a40dae2edd6f","system_id":"levelo_inurba_marseille","lat":43.298433,"lon":5.362774,"is_reserved":false,"is_disabled":false,"rental_uris":{"android":"levelo://app?vid=4ce836d1-a5c5-4627-9212-a40dae2edd6f","ios":"levelo://app?vid=4ce836d1-a5c5-4627-9212-a40dae2edd6f"},"vehicle_type_id":"4","last_reported":1702890497,"current_range_meters":24000,"station_id":"ce4bgpp2rcd13ifvqc3g","pricing_plan_id":"free"},{"bike_id":"cf2b3a71-7cac-4f41-a0a2-cc9caf25ac09","system_id":"levelo_inurba_marseille","lat":43.298433,"lon":5.362774,"is_reserved":false,"is_disabled":false,"rental_uris":{"android":"levelo://app?vid=cf2b3a71-7cac-4f41-a0a2-cc9caf25ac09","ios":"levelo://app?vid=cf2b3a71-7cac-4f41-a0a2-cc9caf25ac09"},"vehicle_type_id":"4","last_reported":1702890497,"current_range_meters":28000,"station_id":"ce4bgpp2rcd13ifvqc3g","pricing_plan_id":"free"},{"bike_id":"bf2c9ed9-a57e-44bd-8878-9025cae714a9","system_id":"levelo_inurba_marseille","lat":43.299243,"lon":5.374807,"is_reserved":false,"is_disabled":false,"rental_uris":{"android":"levelo://app?vid=bf2c9ed9-a57e-44bd-8878-9025cae714a9","ios":"levelo://app?vid=bf2c9ed9-a57e-44bd-8878-9025cae714a9"},"vehicle_type_id":"4","last_reported":1702890497,"current_range_meters":28400,"station_id":"ce4bgjh2rcd13ifvqbg0","pricing_plan_id":"free"},{"bike_id":"bf396ea0-702d-4781-982c-672118f7745c","system_id":"levelo_inurba_marseille","lat":43.297794,"lon":5.370888,"is_reserved":false,"is_disabled":false,"rental_uris":{"android":"levelo://app?vid=bf396ea0-702d-4781-982c-672118f7745c","ios":"levelo://app?vid=bf396ea0-702d-4781-982c-672118f7745c"},"vehicle_type_id":"4","last_reported":1702890497,"current_range_meters":21200,"station_id":"ce4bgop2rcd13ifvqc1g","pricing_plan_id":"free"},{"bike_id":"b71be933-e47a-4a04-86c7-28b5bcf36fd0","system_id":"levelo_inurba_marseille","lat":43.29773,"lon":5.37122,"is_reserved":false,"is_disabled":false,"rental_uris":{"android":"levelo://app?vid=b71be933-e47a-4a04-86c7-28b5bcf36fd0","ios":"levelo://app?vid=b71be933-e47a-4a04-86c7-28b5bcf36fd0"},"vehicle_type_id":"4","last_reported":1702890497,"current_range_meters":25600,"station_id":"ce4bgop2rcd13ifvqc1g","pricing_plan_id":"free"},{"bike_id":"3737aebe-1cce-415b-8132-94746ed5f00f","system_id":"levelo_inurba_marseille","lat":43.32297,"lon":5.38268,"is_reserved":false,"is_disabled":false,"rental_uris":{"android":"levelo://app?vid=3737aebe-1cce-415b-8132-94746ed5f00f","ios":"levelo://app?vid=3737aebe-1cce-415b-8132-94746ed5f00f"},"vehicle_type_id":"4","last_reported":1702890497,"current_range_meters":400,"station_id":"ce4bhr12rcd13ifvqhqg","pricing_plan_id":"free"},{"bike_id":"1c4e0be7-4a56-4d58-8b2f-9899334fc7b6","system_id":"levelo_inurba_marseille","lat":43.32834,"lon":5.36673,"is_reserved":false,"is_disabled":false,"rental_uris":{"android":"levelo://app?vid=1c4e0be7-4a56-4d58-8b2f-9899334fc7b6","ios":"levelo://app?vid=1c4e0be7-4a56-4d58-8b2f-9899334fc7b6"},"vehicle_type_id":"4","last_reported":1702890497,"current_range_meters":22400,"station_id":"ce4bhs92rcd13ifvqi0g","pricing_plan_id":"free"},{"bike_id":"b359cbac-f143-4a28-8f00-1151fa80b564","system_id":"levelo_inurba_marseille","lat":43.297163,"lon":5.365866,"is_reserved":false,"is_disabled":false,"rental_uris":{"android":"levelo://app?vid=b359cbac-f143-4a28-8f00-1151fa80b564","ios":"levelo://app?vid=b359cbac-f143-4a28-8f00-1151fa80b564"},"vehicle_type_id":"4","last_reported":1702890497,"current_range_meters":16400,"station_id":"ce4bgn12rcd13ifvqbt0","pricing_plan_id":"free"},{"bike_id":"2c2fe785-ad09-4588-b2e9-1e79a89cf7c9","system_id":"levelo_inurba_marseille","lat":43.296935,"lon":5.376544,"is_reserved":false,"is_disabled":false,"rental_uris":{"android":"levelo://app?vid=2c2fe785-ad09-4588-b2e9-1e79a89cf7c9","ios":"levelo://app?vid=2c2fe785-ad09-4588-b2e9-1e79a89cf7c9"},"vehicle_type_id":"4","last_reported":1702890497,"current_range_meters":29600,"station_id":"ce4bgkh2rcd13ifvqbl0","pricing_plan_id":"free"},{"bike_id":"5954f080-7147-4f70-807c-a10404fd5e03","system_id":"levelo_inurba_marseille","lat":43.309589,"lon":5.390258,"is_reserved":false,"is_disabled":false,"rental_uris":{"android":"levelo://app?vid=5954f080-7147-4f70-807c-a10404fd5e03","ios":"levelo://app?vid=5954f080-7147-4f70-807c-a10404fd5e03"},"vehicle_type_id":"4","last_reported":1702890497,"current_range_meters":30400,"station_id":"ce4bgup2rcd13ifvqco0","pricing_plan_id":"free"},{"bike_id":"d9b5f534-603c-44c3-8d0e-6ed32bc570cd","system_id":"levelo_inurba_marseille","lat":43.309589,"lon":5.390258,"is_reserved":false,"is_disabled":false,"rental_uris":{"android":"levelo://app?vid=d9b5f534-603c-44c3-8d0e-6ed32bc570cd","ios":"levelo://app?vid=d9b5f534-603c-44c3-8d0e-6ed32bc570cd"},"vehicle_type_id":"4","last_reported":1702890497,"current_range_meters":26800,"station_id":"ce4bgup2rcd13ifvqco0","pricing_plan_id":"free"},{"bike_id":"97ba166e-6fa6-4e97-9d17-e0f195ef1e6a","system_id":"levelo_inurba_marseille","lat":43.309589,"lon":5.390258,"is_reserved":false,"is_disabled":false,"rental_uris":{"android":"levelo://app?vid=97ba166e-6fa6-4e97-9d17-e0f195ef1e6a","ios":"levelo://app?vid=97ba166e-6fa6-4e97-9d17-e0f195ef1e6a"},"vehicle_type_id":"4","last_reported":1702890497,"current_range_meters":20000,"station_id":"ce4bgup2rcd13ifvqco0","pricing_plan_id":"free"},{"bike_id":"b606776a-4145-4545-9791-b4e54777090d","system_id":"levelo_inurba_marseille","lat":43.309589,"lon":5.390258,"is_reserved":false,"is_disabled":false,"rental_uris":{"android":"levelo://app?vid=b606776a-4145-4545-9791-b4e54777090d","ios":"levelo://app?vid=b606776a-4145-4545-9791-b4e54777090d"},"vehicle_type_id":"4","last_reported":1702890497,"current_range_meters":8800,"station_id":"ce4bgup2rcd13ifvqco0","pricing_plan_id":"free"},{"bike_id":"baacfbaa-921a-4a5d-9a3f-2b9b2288340f","system_id":"levelo_inurba_marseille","lat":43.29799,"lon":5.3809,"is_reserved":false,"is_disabled":false,"rental_uris":{"android":"levelo://app?vid=baacfbaa-921a-4a5d-9a3f-2b9b2288340f","ios":"levelo://app?vid=baacfbaa-921a-4a5d-9a3f-2b9b2288340f"},"vehicle_type_id":"4","last_reported":1702890497,"current_range_meters":18000,"station_id":"ce4bgip2rcd13ifvqbb0","pricing_plan_id":"free"},{"bike_id":"75382ec9-b447-43e1-88c0-ce29a47a1bf9","system_id":"levelo_inurba_marseille","lat":43.295748,"lon":5.37522,"is_reserved":false,"is_disabled":false,"rental_uris":{"android":"levelo://app?vid=75382ec9-b447-43e1-88c0-ce29a47a1bf9","ios":"levelo://app?vid=75382ec9-b447-43e1-88c0-ce29a47a1bf9"},"vehicle_type_id":"4","last_reported":1702890497,"current_range_meters":16000,"station_id":"ce4bgh92rcd13ifvqb50","pricing_plan_id":"free"},{"bike_id":"03680dfd-a2ed-4ebb-a270-dc7d2a1c1bc1","system_id":"levelo_inurba_marseille","lat":43.295748,"lon":5.37522,"is_reserved":false,"is_disabled":false,"rental_uris":{"android":"levelo://app?vid=03680dfd-a2ed-4ebb-a270-dc7d2a1c1bc1","ios":"levelo://app?vid=03680dfd-a2ed-4ebb-a270-dc7d2a1c1bc1"},"vehicle_type_id":"4","last_reported":1702890497,"current_range_meters":26400,"station_id":"ce4bgh92rcd13ifvqb50","pricing_plan_id":"free"},{"bike_id":"f1b2163f-7feb-4cc5-a85d-cd5f5d25cbd3","system_id":"levelo_inurba_marseille","lat":43.297817,"lon":5.380947,"is_reserved":false,"is_disabled":false,"rental_uris":{"android":"levelo://app?vid=f1b2163f-7feb-4cc5-a85d-cd5f5d25cbd3","ios":"levelo://app?vid=f1b2163f-7feb-4cc5-a85d-cd5f5d25cbd3"},"vehicle_type_id":"4","last_reported":1702890497,"current_range_meters":8400,"station_id":"ce4bgip2rcd13ifvqbb0","pricing_plan_id":"free"},{"bike_id":"377659b3-e9d8-4b1c-8818-fac80ee4d567","system_id":"levelo_inurba_marseille","lat":43.29787,"lon":5.38108,"is_reserved":false,"is_disabled":false,"rental_uris":{"android":"levelo://app?vid=377659b3-e9d8-4b1c-8818-fac80ee4d567","ios":"levelo://app?vid=377659b3-e9d8-4b1c-8818-fac80ee4d567"},"vehicle_type_id":"4","last_reported":1702890497,"current_range_meters":13200,"station_id":"","pricing_plan_id":"free"},{"bike_id":"a58457d2-793d-4290-9a60-d1638b6d4828","system_id":"levelo_inurba_marseille","lat":43.29788,"lon":5.38112,"is_reserved":false,"is_disabled":false,"rental_uris":{"android":"levelo://app?vid=a58457d2-793d-4290-9a60-d1638b6d4828","ios":"levelo://app?vid=a58457d2-793d-4290-9a60-d1638b6d4828"},"vehicle_type_id":"4","last_reported":1702890497,"current_range_meters":8800,"station_id":"","pricing_plan_id":"free"},{"bike_id":"4e28213e-9dd4-4dc5-9267-ba1a25921c0f","system_id":"levelo_inurba_marseille","lat":43.29525,"lon":5.37498,"is_reserved":false,"is_disabled":false,"rental_uris":{"android":"levelo://app?vid=4e28213e-9dd4-4dc5-9267-ba1a25921c0f","ios":"levelo://app?vid=4e28213e-9dd4-4dc5-9267-ba1a25921c0f"},"vehicle_type_id":"4","last_reported":1702890497,"current_range_meters":28400,"station_id":"ce4bgkp2rcd13ifvqbmg","pricing_plan_id":"free"},{"bike_id":"601355ef-7e01-4652-b0b2-1bd2865408d1","system_id":"levelo_inurba_marseille","lat":43.29573,"lon":5.367355,"is_reserved":false,"is_disabled":false,"rental_uris":{"android":"levelo://app?vid=601355ef-7e01-4652-b0b2-1bd2865408d1","ios":"levelo://app?vid=601355ef-7e01-4652-b0b2-1bd2865408d1"},"vehicle_type_id":"4","last_reported":1702890497,"current_range_meters":28400,"station_id":"ce4bgph2rcd13ifvqc2g","pricing_plan_id":"free"},{"bike_id":"c4f9bc29-7317-49d5-8bdc-66e7c764e3ea","system_id":"levelo_inurba_marseille","lat":43.32367,"lon":5.388836,"is_reserved":false,"is_disabled":false,"rental_uris":{"android":"levelo://app?vid=c4f9bc29-7317-49d5-8bdc-66e7c764e3ea","ios":"levelo://app?vid=c4f9bc29-7317-49d5-8bdc-66e7c764e3ea"},"vehicle_type_id":"4","last_reported":1702890497,"current_range_meters":0,"station_id":"ce4bhqp2rcd13ifvqhog","pricing_plan_id":"free"},{"bike_id":"48dd33e5-7d92-4919-831b-665e5a97cd9b","system_id":"levelo_inurba_marseille","lat":43.29279,"lon":5.36873,"is_reserved":false,"is_disabled":false,"rental_uris":{"android":"levelo://app?vid=48dd33e5-7d92-4919-831b-665e5a97cd9b","ios":"levelo://app?vid=48dd33e5-7d92-4919-831b-665e5a97cd9b"},"vehicle_type_id":"4","last_reported":1702890497,"current_range_meters":16000,"station_id":"ce4bhbp2rcd13ifvqesg","pricing_plan_id":"free"},{"bike_id":"53c51bbf-7f4c-41f7-81a6-981cb39b0790","system_id":"levelo_inurba_marseille","lat":43.293259,"lon":5.371586,"is_reserved":false,"is_disabled":false,"rental_uris":{"android":"levelo://app?vid=53c51bbf-7f4c-41f7-81a6-981cb39b0790","ios":"levelo://app?vid=53c51bbf-7f4c-41f7-81a6-981cb39b0790"},"vehicle_type_id":"4","last_reported":1702890497,"current_range_meters":0,"station_id":"ce4bgh92rcd13ifvqb40","pricing_plan_id":"free"},{"bike_id":"1c9ecdcb-ac37-4d67-ab67-bcc854d6a420","system_id":"levelo_inurba_marseille","lat":43.293249,"lon":5.371578,"is_reserved":false,"is_disabled":false,"rental_uris":{"android":"levelo://app?vid=1c9ecdcb-ac37-4d67-ab67-bcc854d6a420","ios":"levelo://app?vid=1c9ecdcb-ac37-4d67-ab67-bcc854d6a420"},"vehicle_type_id":"4","last_reported":1702890497,"current_range_meters":9200,"station_id":"ce4bgh92rcd13ifvqb40","pricing_plan_id":"free"},{"bike_id":"fe3c4f8b-c2b9-4af4-97fc-33d1879afcc9","system_id":"levelo_inurba_marseille","lat":43.293009,"lon":5.374584,"is_reserved":false,"is_disabled":false,"rental_uris":{"android":"levelo://app?vid=fe3c4f8b-c2b9-4af4-97fc-33d1879afcc9","ios":"levelo://app?vid=fe3c4f8b-c2b9-4af4-97fc-33d1879afcc9"},"vehicle_type_id":"4","last_reported":1702890497,"current_range_meters":5600,"station_id":"ce4bgi12rcd13ifvqb70","pricing_plan_id":"free"},{"bike_id":"0ec9ea99-92eb-4508-ba3d-043aa882e888","system_id":"levelo_inurba_marseille","lat":43.305994,"lon":5.393687,"is_reserved":false,"is_disabled":false,"rental_uris":{"android":"levelo://app?vid=0ec9ea99-92eb-4508-ba3d-043aa882e888","ios":"levelo://app?vid=0ec9ea99-92eb-4508-ba3d-043aa882e888"},"vehicle_type_id":"4","last_reported":1702890497,"current_range_meters":6400,"station_id":"ce4bh0p2rcd13ifvqd80","pricing_plan_id":"free"},{"bike_id":"580fe6f7-794e-487b-be5c-c8cdaa053dab","system_id":"levelo_inurba_marseille","lat":43.292311,"lon":5.360731,"is_reserved":false,"is_disabled":false,"rental_uris":{"android":"levelo://app?vid=580fe6f7-794e-487b-be5c-c8cdaa053dab","ios":"levelo://app?vid=580fe6f7-794e-487b-be5c-c8cdaa053dab"},"vehicle_type_id":"4","last_reported":1702890497,"current_range_meters":19600,"station_id":"ce4bhbh2rcd13ifvqeqg","pricing_plan_id":"free"},{"bike_id":"e571cc38-ce17-414e-898e-d0ad52efc7e7","system_id":"levelo_inurba_marseille","lat":43.292311,"lon":5.360731,"is_reserved":false,"is_disabled":false,"rental_uris":{"android":"levelo://app?vid=e571cc38-ce17-414e-898e-d0ad52efc7e7","ios":"levelo://app?vid=e571cc38-ce17-414e-898e-d0ad52efc7e7"},"vehicle_type_id":"4","last_reported":1702890497,"current_range_meters":4400,"station_id":"ce4bhbh2rcd13ifvqeqg","pricing_plan_id":"free"},{"bike_id":"5be94510-572b-430d-9b58-e7172c56a7a5","system_id":"levelo_inurba_marseille","lat":43.3133,"lon":5.39693,"is_reserved":false,"is_disabled":false,"rental_uris":{"android":"levelo://app?vid=5be94510-572b-430d-9b58-e7172c56a7a5","ios":"levelo://app?vid=5be94510-572b-430d-9b58-e7172c56a7a5"},"vehicle_type_id":"4","last_reported":1702890497,"current_range_meters":2800,"station_id":"ce4bgvp2rcd13ifvqcu0","pricing_plan_id":"free"},{"bike_id":"c0d04b61-a52d-4500-859c-766cf82d2ac1","system_id":"levelo_inurba_marseille","lat":43.290104,"lon":5.356111,"is_reserved":false,"is_disabled":false,"rental_uris":{"android":"levelo://app?vid=c0d04b61-a52d-4500-859c-766cf82d2ac1","ios":"levelo://app?vid=c0d04b61-a52d-4500-859c-766cf82d2ac1"},"vehicle_type_id":"4","last_reported":1702890497,"current_range_meters":11600,"station_id":"ce4bhb92rcd13ifvqen0","pricing_plan_id":"free"},{"bike_id":"67363968-42a1-48a5-925b-07e29c313830","system_id":"levelo_inurba_marseille","lat":43.290104,"lon":5.356111,"is_reserved":false,"is_disabled":false,"rental_uris":{"android":"levelo://app?vid=67363968-42a1-48a5-925b-07e29c313830","ios":"levelo://app?vid=67363968-42a1-48a5-925b-07e29c313830"},"vehicle_type_id":"4","last_reported":1702890497,"current_range_meters":31600,"station_id":"ce4bhb92rcd13ifvqen0","pricing_plan_id":"free"},{"bike_id":"b38d85d1-29a2-4dac-bb4c-7d8fd4ed71f9","system_id":"levelo_inurba_marseille","lat":43.290103,"lon":5.356114,"is_reserved":false,"is_disabled":false,"rental_uris":{"android":"levelo://app?vid=b38d85d1-29a2-4dac-bb4c-7d8fd4ed71f9","ios":"levelo://app?vid=b38d85d1-29a2-4dac-bb4c-7d8fd4ed71f9"},"vehicle_type_id":"4","last_reported":1702890497,"current_range_meters":18800,"station_id":"ce4bhb92rcd13ifvqen0","pricing_plan_id":"free"},{"bike_id":"bbba1b73-76b7-46f6-a79b-b0ae58ae3843","system_id":"levelo_inurba_marseille","lat":43.295169,"lon":5.390426,"is_reserved":false,"is_disabled":false,"rental_uris":{"android":"levelo://app?vid=bbba1b73-76b7-46f6-a79b-b0ae58ae3843","ios":"levelo://app?vid=bbba1b73-76b7-46f6-a79b-b0ae58ae3843"},"vehicle_type_id":"4","last_reported":1702890497,"current_range_meters":24800,"station_id":"ce4bh3p2rcd13ifvqdp0","pricing_plan_id":"free"},{"bike_id":"b1790d27-df9a-4366-ae16-61cbcec0b9aa","system_id":"levelo_inurba_marseille","lat":43.28856,"lon":5.358371,"is_reserved":false,"is_disabled":false,"rental_uris":{"android":"levelo://app?vid=b1790d27-df9a-4366-ae16-61cbcec0b9aa","ios":"levelo://app?vid=b1790d27-df9a-4366-ae16-61cbcec0b9aa"},"vehicle_type_id":"4","last_reported":1702890497,"current_range_meters":17600,"station_id":"ce4bhb12rcd13ifvqem0","pricing_plan_id":"free"},{"bike_id":"fc8d24bb-0c26-4688-9bac-affcc075aa4d","system_id":"levelo_inurba_marseille","lat":43.33726,"lon":5.37413,"is_reserved":false,"is_disabled":false,"rental_uris":{"android":"levelo://app?vid=fc8d24bb-0c26-4688-9bac-affcc075aa4d","ios":"levelo://app?vid=fc8d24bb-0c26-4688-9bac-affcc075aa4d"},"vehicle_type_id":"4","last_reported":1702890497,"current_range_meters":31200,"station_id":"","pricing_plan_id":"free"},{"bike_id":"f5da107a-d14a-44e2-9add-5d3a346dc0f3","system_id":"levelo_inurba_marseille","lat":43.290345,"lon":5.38646,"is_reserved":false,"is_disabled":false,"rental_uris":{"android":"levelo://app?vid=f5da107a-d14a-44e2-9add-5d3a346dc0f3","ios":"levelo://app?vid=f5da107a-d14a-44e2-9add-5d3a346dc0f3"},"vehicle_type_id":"4","last_reported":1702890497,"current_range_meters":22000,"station_id":"ce4bh4p2rcd13ifvqe0g","pricing_plan_id":"free"},{"bike_id":"8321f1a3-969a-44d5-99e4-d37e4fac7dd1","system_id":"levelo_inurba_marseille","lat":43.286039,"lon":5.370681,"is_reserved":false,"is_disabled":false,"rental_uris":{"android":"levelo://app?vid=8321f1a3-969a-44d5-99e4-d37e4fac7dd1","ios":"levelo://app?vid=8321f1a3-969a-44d5-99e4-d37e4fac7dd1"},"vehicle_type_id":"4","last_reported":1702890497,"current_range_meters":10800,"station_id":"ce4bht12rcd13ifvqi60","pricing_plan_id":"free"},{"bike_id":"cf2cbeb5-cf9c-40b6-bc26-a86974dfdcf9","system_id":"levelo_inurba_marseille","lat":43.287184,"lon":5.37937,"is_reserved":false,"is_disabled":false,"rental_uris":{"android":"levelo://app?vid=cf2cbeb5-cf9c-40b6-bc26-a86974dfdcf9","ios":"levelo://app?vid=cf2cbeb5-cf9c-40b6-bc26-a86974dfdcf9"},"vehicle_type_id":"4","last_reported":1702890497,"current_range_meters":28000,"station_id":"ce4bh9p2rcd13ifvqec0","pricing_plan_id":"free"},{"bike_id":"e7c64580-5c3e-4b32-a619-d4372c86d48f","system_id":"levelo_inurba_marseille","lat":43.287184,"lon":5.37937,"is_reserved":false,"is_disabled":false,"rental_uris":{"android":"levelo://app?vid=e7c64580-5c3e-4b32-a619-d4372c86d48f","ios":"levelo://app?vid=e7c64580-5c3e-4b32-a619-d4372c86d48f"},"vehicle_type_id":"4","last_reported":1702890497,"current_range_meters":5200,"station_id":"ce4bh9p2rcd13ifvqec0","pricing_plan_id":"free"},{"bike_id":"3a7a37db-16f3-42b3-b9fb-9c1b01fd2e16","system_id":"levelo_inurba_marseille","lat":43.294314,"lon":5.397498,"is_reserved":false,"is_disabled":false,"rental_uris":{"android":"levelo://app?vid=3a7a37db-16f3-42b3-b9fb-9c1b01fd2e16","ios":"levelo://app?vid=3a7a37db-16f3-42b3-b9fb-9c1b01fd2e16"},"vehicle_type_id":"4","last_reported":1702890497,"current_range_meters":21200,"station_id":"ce4bh3h2rcd13ifvqdo0","pricing_plan_id":"free"},{"bike_id":"662d6fbc-af01-41e8-903b-747f40c220dd","system_id":"levelo_inurba_marseille","lat":43.286132,"lon":5.350993,"is_reserved":false,"is_disabled":false,"rental_uris":{"android":"levelo://app?vid=662d6fbc-af01-41e8-903b-747f40c220dd","ios":"levelo://app?vid=662d6fbc-af01-41e8-903b-747f40c220dd"},"vehicle_type_id":"4","last_reported":1702890497,"current_range_meters":21600,"station_id":"ce4bhch2rcd13ifvqeug","pricing_plan_id":"free"},{"bike_id":"25ca799f-5485-40db-aa09-f5ba8372ab23","system_id":"levelo_inurba_marseille","lat":43.283998,"lon":5.375062,"is_reserved":false,"is_disabled":false,"rental_uris":{"android":"levelo://app?vid=25ca799f-5485-40db-aa09-f5ba8372ab23","ios":"levelo://app?vid=25ca799f-5485-40db-aa09-f5ba8372ab23"},"vehicle_type_id":"4","last_reported":1702890497,"current_range_meters":20000,"station_id":"ce4bh412rcd13ifvqds0","pricing_plan_id":"free"},{"bike_id":"2dfa5049-0e1b-4839-b5c3-156910a65dbd","system_id":"levelo_inurba_marseille","lat":43.33218,"lon":5.397067,"is_reserved":false,"is_disabled":false,"rental_uris":{"android":"levelo://app?vid=2dfa5049-0e1b-4839-b5c3-156910a65dbd","ios":"levelo://app?vid=2dfa5049-0e1b-4839-b5c3-156910a65dbd"},"vehicle_type_id":"4","last_reported":1702890497,"current_range_meters":6000,"station_id":"","pricing_plan_id":"free"},{"bike_id":"5980cf3d-9afe-42f8-b551-4c80355c3655","system_id":"levelo_inurba_marseille","lat":43.295713,"lon":5.399639,"is_reserved":false,"is_disabled":false,"rental_uris":{"android":"levelo://app?vid=5980cf3d-9afe-42f8-b551-4c80355c3655","ios":"levelo://app?vid=5980cf3d-9afe-42f8-b551-4c80355c3655"},"vehicle_type_id":"4","last_reported":1702890497,"current_range_meters":5600,"station_id":"ce4bh312rcd13ifvqdj0","pricing_plan_id":"free"},{"bike_id":"831e2d4c-5f0e-4ae5-9050-c85672a4a9fb","system_id":"levelo_inurba_marseille","lat":43.319179,"lon":5.407725,"is_reserved":false,"is_disabled":false,"rental_uris":{"android":"levelo://app?vid=831e2d4c-5f0e-4ae5-9050-c85672a4a9fb","ios":"levelo://app?vid=831e2d4c-5f0e-4ae5-9050-c85672a4a9fb"},"vehicle_type_id":"4","last_reported":1702890497,"current_range_meters":13200,"station_id":"ce4bhq12rcd13ifvqhig","pricing_plan_id":"free"},{"bike_id":"56d08d69-abee-48e6-a6f2-ffd71d0b1412","system_id":"levelo_inurba_marseille","lat":43.284793,"lon":5.384119,"is_reserved":false,"is_disabled":false,"rental_uris":{"android":"levelo://app?vid=56d08d69-abee-48e6-a6f2-ffd71d0b1412","ios":"levelo://app?vid=56d08d69-abee-48e6-a6f2-ffd71d0b1412"},"vehicle_type_id":"4","last_reported":1702890497,"current_range_meters":6400,"station_id":"ce4bh512rcd13ifvqe3g","pricing_plan_id":"free"},{"bike_id":"709a94c0-12dd-4317-a935-5b06e002f23d","system_id":"levelo_inurba_marseille","lat":43.284219,"lon":5.3497,"is_reserved":false,"is_disabled":false,"rental_uris":{"android":"levelo://app?vid=709a94c0-12dd-4317-a935-5b06e002f23d","ios":"levelo://app?vid=709a94c0-12dd-4317-a935-5b06e002f23d"},"vehicle_type_id":"4","last_reported":1702890497,"current_range_meters":21600,"station_id":"ce4bhbh2rcd13ifvqepg","pricing_plan_id":"free"},{"bike_id":"250c8703-1d78-4d26-a5b4-11d48c0d98a8","system_id":"levelo_inurba_marseille","lat":43.283502,"lon":5.386471,"is_reserved":false,"is_disabled":false,"rental_uris":{"android":"levelo://app?vid=250c8703-1d78-4d26-a5b4-11d48c0d98a8","ios":"levelo://app?vid=250c8703-1d78-4d26-a5b4-11d48c0d98a8"},"vehicle_type_id":"4","last_reported":1702890497,"current_range_meters":10400,"station_id":"ce4bh492rcd13ifvqdvg","pricing_plan_id":"free"},{"bike_id":"acc6db62-c10c-4feb-9a2c-e6187cec974c","system_id":"levelo_inurba_marseille","lat":43.28036,"lon":5.36939,"is_reserved":false,"is_disabled":false,"rental_uris":{"android":"levelo://app?vid=acc6db62-c10c-4feb-9a2c-e6187cec974c","ios":"levelo://app?vid=acc6db62-c10c-4feb-9a2c-e6187cec974c"},"vehicle_type_id":"4","last_reported":1702890497,"current_range_meters":6800,"station_id":"ce4bha12rcd13ifvqef0","pricing_plan_id":"free"},{"bike_id":"b1bba2b6-372d-49dd-b13b-1b4d710db23d","system_id":"levelo_inurba_marseille","lat":43.32405,"lon":5.4097,"is_reserved":false,"is_disabled":false,"rental_uris":{"android":"levelo://app?vid=b1bba2b6-372d-49dd-b13b-1b4d710db23d","ios":"levelo://app?vid=b1bba2b6-372d-49dd-b13b-1b4d710db23d"},"vehicle_type_id":"4","last_reported":1702890497,"current_range_meters":28400,"station_id":"","pricing_plan_id":"free"},{"bike_id":"a0862cb6-31b7-495d-a074-81e70ff0d25d","system_id":"levelo_inurba_marseille","lat":43.279087,"lon":5.380114,"is_reserved":false,"is_disabled":false,"rental_uris":{"android":"levelo://app?vid=a0862cb6-31b7-495d-a074-81e70ff0d25d","ios":"levelo://app?vid=a0862cb6-31b7-495d-a074-81e70ff0d25d"},"vehicle_type_id":"4","last_reported":1702890497,"current_range_meters":12400,"station_id":"ce4bhf92rcd13ifvqf50","pricing_plan_id":"free"},{"bike_id":"276e1d57-a796-49ef-9f91-b625b4c09399","system_id":"levelo_inurba_marseille","lat":43.287154,"lon":5.399979,"is_reserved":false,"is_disabled":false,"rental_uris":{"android":"levelo://app?vid=276e1d57-a796-49ef-9f91-b625b4c09399","ios":"levelo://app?vid=276e1d57-a796-49ef-9f91-b625b4c09399"},"vehicle_type_id":"4","last_reported":1702890497,"current_range_meters":21200,"station_id":"ce4bho92rcd13ifvqh3g","pricing_plan_id":"free"},{"bike_id":"a6198255-e5ca-4d33-baa9-0690f5e46a2e","system_id":"levelo_inurba_marseille","lat":43.32041,"lon":5.4154,"is_reserved":false,"is_disabled":false,"rental_uris":{"android":"levelo://app?vid=a6198255-e5ca-4d33-baa9-0690f5e46a2e","ios":"levelo://app?vid=a6198255-e5ca-4d33-baa9-0690f5e46a2e"},"vehicle_type_id":"4","last_reported":1702890497,"current_range_meters":24000,"station_id":"ce4bhq92rcd13ifvqhkg","pricing_plan_id":"free"},{"bike_id":"cf75a6d8-3502-4f9e-a4e1-9961562d262f","system_id":"levelo_inurba_marseille","lat":43.325233,"lon":5.414318,"is_reserved":false,"is_disabled":false,"rental_uris":{"android":"levelo://app?vid=cf75a6d8-3502-4f9e-a4e1-9961562d262f","ios":"levelo://app?vid=cf75a6d8-3502-4f9e-a4e1-9961562d262f"},"vehicle_type_id":"4","last_reported":1702890497,"current_range_meters":31600,"station_id":"ce4bhq12rcd13ifvqhhg","pricing_plan_id":"free"},{"bike_id":"d7151524-9488-473d-b2b2-11de02aab3d9","system_id":"levelo_inurba_marseille","lat":43.325243,"lon":5.414326,"is_reserved":false,"is_disabled":false,"rental_uris":{"android":"levelo://app?vid=d7151524-9488-473d-b2b2-11de02aab3d9","ios":"levelo://app?vid=d7151524-9488-473d-b2b2-11de02aab3d9"},"vehicle_type_id":"4","last_reported":1702890497,"current_range_meters":19200,"station_id":"ce4bhq12rcd13ifvqhhg","pricing_plan_id":"free"},{"bike_id":"9783b029-37a4-4b0f-b2eb-c8b4f0a0e6a4","system_id":"levelo_inurba_marseille","lat":43.325233,"lon":5.414318,"is_reserved":false,"is_disabled":false,"rental_uris":{"android":"levelo://app?vid=9783b029-37a4-4b0f-b2eb-c8b4f0a0e6a4","ios":"levelo://app?vid=9783b029-37a4-4b0f-b2eb-c8b4f0a0e6a4"},"vehicle_type_id":"4","last_reported":1702890497,"current_range_meters":31600,"station_id":"ce4bhq12rcd13ifvqhhg","pricing_plan_id":"free"},{"bike_id":"8186afef-cdf8-4794-a6e6-9d466b17c367","system_id":"levelo_inurba_marseille","lat":43.325233,"lon":5.414318,"is_reserved":false,"is_disabled":false,"rental_uris":{"android":"levelo://app?vid=8186afef-cdf8-4794-a6e6-9d466b17c367","ios":"levelo://app?vid=8186afef-cdf8-4794-a6e6-9d466b17c367"},"vehicle_type_id":"4","last_reported":1702890497,"current_range_meters":28000,"station_id":"ce4bhq12rcd13ifvqhhg","pricing_plan_id":"free"},{"bike_id":"6439764e-1017-4b79-b1ee-0830cac99bcd","system_id":"levelo_inurba_marseille","lat":43.325233,"lon":5.414318,"is_reserved":false,"is_disabled":false,"rental_uris":{"android":"levelo://app?vid=6439764e-1017-4b79-b1ee-0830cac99bcd","ios":"levelo://app?vid=6439764e-1017-4b79-b1ee-0830cac99bcd"},"vehicle_type_id":"4","last_reported":1702890497,"current_range_meters":30400,"station_id":"ce4bhq12rcd13ifvqhhg","pricing_plan_id":"free"},{"bike_id":"224bcffd-86fc-4c77-ac09-12306f63094d","system_id":"levelo_inurba_marseille","lat":43.325233,"lon":5.414318,"is_reserved":false,"is_disabled":false,"rental_uris":{"android":"levelo://app?vid=224bcffd-86fc-4c77-ac09-12306f63094d","ios":"levelo://app?vid=224bcffd-86fc-4c77-ac09-12306f63094d"},"vehicle_type_id":"4","last_reported":1702890497,"current_range_meters":32000,"station_id":"ce4bhq12rcd13ifvqhhg","pricing_plan_id":"free"},{"bike_id":"8b89a6cf-b837-45b4-ae98-4ba2c5780b41","system_id":"levelo_inurba_marseille","lat":43.325243,"lon":5.414326,"is_reserved":false,"is_disabled":false,"rental_uris":{"android":"levelo://app?vid=8b89a6cf-b837-45b4-ae98-4ba2c5780b41","ios":"levelo://app?vid=8b89a6cf-b837-45b4-ae98-4ba2c5780b41"},"vehicle_type_id":"4","last_reported":1702890497,"current_range_meters":30400,"station_id":"ce4bhq12rcd13ifvqhhg","pricing_plan_id":"free"},{"bike_id":"0996178a-e20e-429d-88c9-783e15747b15","system_id":"levelo_inurba_marseille","lat":43.325243,"lon":5.414326,"is_reserved":false,"is_disabled":false,"rental_uris":{"android":"levelo://app?vid=0996178a-e20e-429d-88c9-783e15747b15","ios":"levelo://app?vid=0996178a-e20e-429d-88c9-783e15747b15"},"vehicle_type_id":"4","last_reported":1702890497,"current_range_meters":6000,"station_id":"ce4bhq12rcd13ifvqhhg","pricing_plan_id":"free"},{"bike_id":"83289de5-55cc-4e4f-9bbb-654116efe61e","system_id":"levelo_inurba_marseille","lat":43.303837,"lon":5.418724,"is_reserved":false,"is_disabled":false,"rental_uris":{"android":"levelo://app?vid=83289de5-55cc-4e4f-9bbb-654116efe61e","ios":"levelo://app?vid=83289de5-55cc-4e4f-9bbb-654116efe61e"},"vehicle_type_id":"4","last_reported":1702890497,"current_range_meters":11200,"station_id":"ce4bhop2rcd13ifvqh7g","pricing_plan_id":"free"},{"bike_id":"0f014589-7e6c-4a45-831b-50035a1188b5","system_id":"levelo_inurba_marseille","lat":43.278401,"lon":5.392152,"is_reserved":false,"is_disabled":false,"rental_uris":{"android":"levelo://app?vid=0f014589-7e6c-4a45-831b-50035a1188b5","ios":"levelo://app?vid=0f014589-7e6c-4a45-831b-50035a1188b5"},"vehicle_type_id":"4","last_reported":1702890497,"current_range_meters":29600,"station_id":"ce4bhjp2rcd13ifvqga0","pricing_plan_id":"free"},{"bike_id":"58ada6ab-d1f9-466f-8fbb-598d5159b236","system_id":"levelo_inurba_marseille","lat":43.2738,"lon":5.36253,"is_reserved":false,"is_disabled":false,"rental_uris":{"android":"levelo://app?vid=58ada6ab-d1f9-466f-8fbb-598d5159b236","ios":"levelo://app?vid=58ada6ab-d1f9-466f-8fbb-598d5159b236"},"vehicle_type_id":"4","last_reported":1702890497,"current_range_meters":27200,"station_id":"ce4bhbh2rcd13ifvqeo0","pricing_plan_id":"free"},{"bike_id":"93c94a27-0d9c-48ee-8330-5f9267a7a9ca","system_id":"levelo_inurba_marseille","lat":43.336148,"lon":5.410349,"is_reserved":false,"is_disabled":false,"rental_uris":{"android":"levelo://app?vid=93c94a27-0d9c-48ee-8330-5f9267a7a9ca","ios":"levelo://app?vid=93c94a27-0d9c-48ee-8330-5f9267a7a9ca"},"vehicle_type_id":"4","last_reported":1702890497,"current_range_meters":13600,"station_id":"ce4bhqh2rcd13ifvqhmg","pricing_plan_id":"free"},{"bike_id":"cc9e8090-d409-4318-bd41-5ddf4e042c25","system_id":"levelo_inurba_marseille","lat":43.273613,"lon":5.362705,"is_reserved":false,"is_disabled":false,"rental_uris":{"android":"levelo://app?vid=cc9e8090-d409-4318-bd41-5ddf4e042c25","ios":"levelo://app?vid=cc9e8090-d409-4318-bd41-5ddf4e042c25"},"vehicle_type_id":"4","last_reported":1702890497,"current_range_meters":21600,"station_id":"ce4bhbh2rcd13ifvqeo0","pricing_plan_id":"free"},{"bike_id":"e0cd3a40-1fd5-431f-8ec2-5e2a03862373","system_id":"levelo_inurba_marseille","lat":43.336134,"lon":5.410341,"is_reserved":false,"is_disabled":false,"rental_uris":{"android":"levelo://app?vid=e0cd3a40-1fd5-431f-8ec2-5e2a03862373","ios":"levelo://app?vid=e0cd3a40-1fd5-431f-8ec2-5e2a03862373"},"vehicle_type_id":"4","last_reported":1702890497,"current_range_meters":32000,"station_id":"ce4bhqh2rcd13ifvqhmg","pricing_plan_id":"free"},{"bike_id":"73bab7f4-fb2d-40ae-8e6d-6d9b2737007d","system_id":"levelo_inurba_marseille","lat":43.336134,"lon":5.410341,"is_reserved":false,"is_disabled":false,"rental_uris":{"android":"levelo://app?vid=73bab7f4-fb2d-40ae-8e6d-6d9b2737007d","ios":"levelo://app?vid=73bab7f4-fb2d-40ae-8e6d-6d9b2737007d"},"vehicle_type_id":"4","last_reported":1702890497,"current_range_meters":28400,"station_id":"ce4bhqh2rcd13ifvqhmg","pricing_plan_id":"free"},{"bike_id":"9d472012-eed1-4527-8c81-76cacbe40e57","system_id":"levelo_inurba_marseille","lat":43.336134,"lon":5.410341,"is_reserved":false,"is_disabled":false,"rental_uris":{"android":"levelo://app?vid=9d472012-eed1-4527-8c81-76cacbe40e57","ios":"levelo://app?vid=9d472012-eed1-4527-8c81-76cacbe40e57"},"vehicle_type_id":"4","last_reported":1702890497,"current_range_meters":16800,"station_id":"ce4bhqh2rcd13ifvqhmg","pricing_plan_id":"free"},{"bike_id":"ba23a49f-f752-40f9-b881-d731ba920e07","system_id":"levelo_inurba_marseille","lat":43.325421,"lon":5.421209,"is_reserved":false,"is_disabled":false,"rental_uris":{"android":"levelo://app?vid=ba23a49f-f752-40f9-b881-d731ba920e07","ios":"levelo://app?vid=ba23a49f-f752-40f9-b881-d731ba920e07"},"vehicle_type_id":"4","last_reported":1702890497,"current_range_meters":29200,"station_id":"","pricing_plan_id":"free"},{"bike_id":"3ca2c2d2-99b0-4aa6-a05d-e30f02e6a7fb","system_id":"levelo_inurba_marseille","lat":43.276092,"lon":5.395289,"is_reserved":false,"is_disabled":false,"rental_uris":{"android":"levelo://app?vid=3ca2c2d2-99b0-4aa6-a05d-e30f02e6a7fb","ios":"levelo://app?vid=3ca2c2d2-99b0-4aa6-a05d-e30f02e6a7fb"},"vehicle_type_id":"4","last_reported":1702890497,"current_range_meters":14400,"station_id":"","pricing_plan_id":"free"},{"bike_id":"9bcb7e59-a3e1-4e37-ac21-273d395eefd5","system_id":"levelo_inurba_marseille","lat":43.273129,"lon":5.390725,"is_reserved":false,"is_disabled":false,"rental_uris":{"android":"levelo://app?vid=9bcb7e59-a3e1-4e37-ac21-273d395eefd5","ios":"levelo://app?vid=9bcb7e59-a3e1-4e37-ac21-273d395eefd5"},"vehicle_type_id":"4","last_reported":1702890497,"current_range_meters":13600,"station_id":"ce4bhgp2rcd13ifvqfe0","pricing_plan_id":"free"},{"bike_id":"27e2ef33-286c-4332-b1a9-71016ce44dee","system_id":"levelo_inurba_marseille","lat":43.304096,"lon":5.425385,"is_reserved":false,"is_disabled":false,"rental_uris":{"android":"levelo://app?vid=27e2ef33-286c-4332-b1a9-71016ce44dee","ios":"levelo://app?vid=27e2ef33-286c-4332-b1a9-71016ce44dee"},"vehicle_type_id":"4","last_reported":1702890497,"current_range_meters":0,"station_id":"ce4bhoh2rcd13ifvqh6g","pricing_plan_id":"free"},{"bike_id":"628a1844-4de6-4ff8-b7b8-44bb12a39376","system_id":"levelo_inurba_marseille","lat":43.295548,"lon":5.422915,"is_reserved":false,"is_disabled":false,"rental_uris":{"android":"levelo://app?vid=628a1844-4de6-4ff8-b7b8-44bb12a39376","ios":"levelo://app?vid=628a1844-4de6-4ff8-b7b8-44bb12a39376"},"vehicle_type_id":"4","last_reported":1702890497,"current_range_meters":14800,"station_id":"ce4bhph2rcd13ifvqhdg","pricing_plan_id":"free"},{"bike_id":"7c5e5a9a-9f39-4a14-9573-d5b8ab599dd5","system_id":"levelo_inurba_marseille","lat":43.27188,"lon":5.39224,"is_reserved":false,"is_disabled":false,"rental_uris":{"android":"levelo://app?vid=7c5e5a9a-9f39-4a14-9573-d5b8ab599dd5","ios":"levelo://app?vid=7c5e5a9a-9f39-4a14-9573-d5b8ab599dd5"},"vehicle_type_id":"4","last_reported":1702890497,"current_range_meters":14800,"station_id":"ce4bhhp2rcd13ifvqfm0","pricing_plan_id":"free"},{"bike_id":"06e1c1e0-1728-4be6-97fb-992e17ab8a1d","system_id":"levelo_inurba_marseille","lat":43.27811,"lon":5.4072,"is_reserved":false,"is_disabled":false,"rental_uris":{"android":"levelo://app?vid=06e1c1e0-1728-4be6-97fb-992e17ab8a1d","ios":"levelo://app?vid=06e1c1e0-1728-4be6-97fb-992e17ab8a1d"},"vehicle_type_id":"4","last_reported":1702890497,"current_range_meters":400,"station_id":"ce4bhnh2rcd13ifvqgtg","pricing_plan_id":"free"},{"bike_id":"0de62f8b-6399-497c-88b7-a0b2dca616bf","system_id":"levelo_inurba_marseille","lat":43.269467,"lon":5.386439,"is_reserved":false,"is_disabled":false,"rental_uris":{"android":"levelo://app?vid=0de62f8b-6399-497c-88b7-a0b2dca616bf","ios":"levelo://app?vid=0de62f8b-6399-497c-88b7-a0b2dca616bf"},"vehicle_type_id":"4","last_reported":1702890497,"current_range_meters":18000,"station_id":"ce4bhh92rcd13ifvqfh0","pricing_plan_id":"free"},{"bike_id":"b0472b00-a63f-4d3d-8623-06754bf17353","system_id":"levelo_inurba_marseille","lat":43.279465,"lon":5.410561,"is_reserved":false,"is_disabled":false,"rental_uris":{"android":"levelo://app?vid=b0472b00-a63f-4d3d-8623-06754bf17353","ios":"levelo://app?vid=b0472b00-a63f-4d3d-8623-06754bf17353"},"vehicle_type_id":"4","last_reported":1702890497,"current_range_meters":0,"station_id":"ce4bhnp2rcd13ifvqh0g","pricing_plan_id":"free"},{"bike_id":"f33e9bc7-60ac-412f-92ec-616fbb03f109","system_id":"levelo_inurba_marseille","lat":43.279465,"lon":5.410561,"is_reserved":false,"is_disabled":false,"rental_uris":{"android":"levelo://app?vid=f33e9bc7-60ac-412f-92ec-616fbb03f109","ios":"levelo://app?vid=f33e9bc7-60ac-412f-92ec-616fbb03f109"},"vehicle_type_id":"4","last_reported":1702890497,"current_range_meters":23600,"station_id":"ce4bhnp2rcd13ifvqh0g","pricing_plan_id":"free"},{"bike_id":"3a1c9308-85fc-4311-9903-34e1bf744246","system_id":"levelo_inurba_marseille","lat":43.269319,"lon":5.389397,"is_reserved":false,"is_disabled":false,"rental_uris":{"android":"levelo://app?vid=3a1c9308-85fc-4311-9903-34e1bf744246","ios":"levelo://app?vid=3a1c9308-85fc-4311-9903-34e1bf744246"},"vehicle_type_id":"4","last_reported":1702890497,"current_range_meters":3600,"station_id":"ce4bhhh2rcd13ifvqfl0","pricing_plan_id":"free"},{"bike_id":"db774753-4382-453e-a138-c32d538f9839","system_id":"levelo_inurba_marseille","lat":43.358673,"lon":5.356887,"is_reserved":false,"is_disabled":false,"rental_uris":{"android":"levelo://app?vid=db774753-4382-453e-a138-c32d538f9839","ios":"levelo://app?vid=db774753-4382-453e-a138-c32d538f9839"},"vehicle_type_id":"4","last_reported":1702890497,"current_range_meters":10000,"station_id":"","pricing_plan_id":"free"},{"bike_id":"f948964a-3a3c-44c4-96e2-4c66297a1ddf","system_id":"levelo_inurba_marseille","lat":43.26681,"lon":5.382694,"is_reserved":false,"is_disabled":false,"rental_uris":{"android":"levelo://app?vid=f948964a-3a3c-44c4-96e2-4c66297a1ddf","ios":"levelo://app?vid=f948964a-3a3c-44c4-96e2-4c66297a1ddf"},"vehicle_type_id":"4","last_reported":1702890497,"current_range_meters":14800,"station_id":"ce4bhg92rcd13ifvqf90","pricing_plan_id":"free"},{"bike_id":"18362084-cae0-4751-b141-9300d4f7dd83","system_id":"levelo_inurba_marseille","lat":43.26681,"lon":5.382694,"is_reserved":false,"is_disabled":false,"rental_uris":{"android":"levelo://app?vid=18362084-cae0-4751-b141-9300d4f7dd83","ios":"levelo://app?vid=18362084-cae0-4751-b141-9300d4f7dd83"},"vehicle_type_id":"4","last_reported":1702890497,"current_range_meters":31600,"station_id":"ce4bhg92rcd13ifvqf90","pricing_plan_id":"free"},{"bike_id":"716c9dd2-78bf-494e-a669-c8e867d5bdf2","system_id":"levelo_inurba_marseille","lat":43.2656,"lon":5.37284,"is_reserved":false,"is_disabled":false,"rental_uris":{"android":"levelo://app?vid=716c9dd2-78bf-494e-a669-c8e867d5bdf2","ios":"levelo://app?vid=716c9dd2-78bf-494e-a669-c8e867d5bdf2"},"vehicle_type_id":"4","last_reported":1702890497,"current_range_meters":23600,"station_id":"ce4bhg12rcd13ifvqf70","pricing_plan_id":"free"},{"bike_id":"521b0377-cc4f-4a6f-afad-39e2f88f14b3","system_id":"levelo_inurba_marseille","lat":43.26681,"lon":5.382694,"is_reserved":false,"is_disabled":false,"rental_uris":{"android":"levelo://app?vid=521b0377-cc4f-4a6f-afad-39e2f88f14b3","ios":"levelo://app?vid=521b0377-cc4f-4a6f-afad-39e2f88f14b3"},"vehicle_type_id":"4","last_reported":1702890497,"current_range_meters":28400,"station_id":"ce4bhg92rcd13ifvqf90","pricing_plan_id":"free"},{"bike_id":"cbf8ad84-81e4-4d8d-9ca5-2b9c3fbb949a","system_id":"levelo_inurba_marseille","lat":43.26555,"lon":5.3728,"is_reserved":false,"is_disabled":false,"rental_uris":{"android":"levelo://app?vid=cbf8ad84-81e4-4d8d-9ca5-2b9c3fbb949a","ios":"levelo://app?vid=cbf8ad84-81e4-4d8d-9ca5-2b9c3fbb949a"},"vehicle_type_id":"4","last_reported":1702890497,"current_range_meters":11200,"station_id":"ce4bhg12rcd13ifvqf70","pricing_plan_id":"free"},{"bike_id":"6c5b5142-8085-4891-bc53-c596acef58b4","system_id":"levelo_inurba_marseille","lat":43.26555,"lon":5.37284,"is_reserved":false,"is_disabled":false,"rental_uris":{"android":"levelo://app?vid=6c5b5142-8085-4891-bc53-c596acef58b4","ios":"levelo://app?vid=6c5b5142-8085-4891-bc53-c596acef58b4"},"vehicle_type_id":"4","last_reported":1702890497,"current_range_meters":28000,"station_id":"ce4bhg12rcd13ifvqf70","pricing_plan_id":"free"},{"bike_id":"0eeda4b9-7cc3-49cc-a102-c74d5ca38e8e","system_id":"levelo_inurba_marseille","lat":43.27989,"lon":5.41658,"is_reserved":false,"is_disabled":false,"rental_uris":{"android":"levelo://app?vid=0eeda4b9-7cc3-49cc-a102-c74d5ca38e8e","ios":"levelo://app?vid=0eeda4b9-7cc3-49cc-a102-c74d5ca38e8e"},"vehicle_type_id":"4","last_reported":1702890497,"current_range_meters":0,"station_id":"ce4bho12rcd13ifvqh1g","pricing_plan_id":"free"},{"bike_id":"52d02a16-98a7-42b3-9676-007c2ae8e728","system_id":"levelo_inurba_marseille","lat":43.27996,"lon":5.416624,"is_reserved":false,"is_disabled":false,"rental_uris":{"android":"levelo://app?vid=52d02a16-98a7-42b3-9676-007c2ae8e728","ios":"levelo://app?vid=52d02a16-98a7-42b3-9676-007c2ae8e728"},"vehicle_type_id":"4","last_reported":1702890497,"current_range_meters":800,"station_id":"ce4bho12rcd13ifvqh1g","pricing_plan_id":"free"},{"bike_id":"0519215d-32e4-4f20-abcf-50d7be4e3298","system_id":"levelo_inurba_marseille","lat":43.27996,"lon":5.416624,"is_reserved":false,"is_disabled":false,"rental_uris":{"android":"levelo://app?vid=0519215d-32e4-4f20-abcf-50d7be4e3298","ios":"levelo://app?vid=0519215d-32e4-4f20-abcf-50d7be4e3298"},"vehicle_type_id":"4","last_reported":1702890497,"current_range_meters":2000,"station_id":"ce4bho12rcd13ifvqh1g","pricing_plan_id":"free"},{"bike_id":"61913a3b-348a-4780-9c29-b29ac6d11f6f","system_id":"levelo_inurba_marseille","lat":43.265714,"lon":5.372891,"is_reserved":false,"is_disabled":false,"rental_uris":{"android":"levelo://app?vid=61913a3b-348a-4780-9c29-b29ac6d11f6f","ios":"levelo://app?vid=61913a3b-348a-4780-9c29-b29ac6d11f6f"},"vehicle_type_id":"4","last_reported":1702890497,"current_range_meters":28000,"station_id":"ce4bhg12rcd13ifvqf70","pricing_plan_id":"free"},{"bike_id":"1e4e2d3c-2c40-4f75-ac12-0387ae124292","system_id":"levelo_inurba_marseille","lat":43.267966,"lon":5.393976,"is_reserved":false,"is_disabled":false,"rental_uris":{"android":"levelo://app?vid=1e4e2d3c-2c40-4f75-ac12-0387ae124292","ios":"levelo://app?vid=1e4e2d3c-2c40-4f75-ac12-0387ae124292"},"vehicle_type_id":"4","last_reported":1702890497,"current_range_meters":29600,"station_id":"ce4bhh12rcd13ifvqfg0","pricing_plan_id":"free"},{"bike_id":"f7a4f998-677d-4a7d-90e1-b8de5057f1fb","system_id":"levelo_inurba_marseille","lat":43.26567,"lon":5.39007,"is_reserved":false,"is_disabled":false,"rental_uris":{"android":"levelo://app?vid=f7a4f998-677d-4a7d-90e1-b8de5057f1fb","ios":"levelo://app?vid=f7a4f998-677d-4a7d-90e1-b8de5057f1fb"},"vehicle_type_id":"4","last_reported":1702890497,"current_range_meters":18800,"station_id":"ce4bhe12rcd13ifvqf30","pricing_plan_id":"free"},{"bike_id":"3042b76f-1592-4fbc-8f83-84084c9728dc","system_id":"levelo_inurba_marseille","lat":43.26946,"lon":5.40244,"is_reserved":false,"is_disabled":false,"rental_uris":{"android":"levelo://app?vid=3042b76f-1592-4fbc-8f83-84084c9728dc","ios":"levelo://app?vid=3042b76f-1592-4fbc-8f83-84084c9728dc"},"vehicle_type_id":"4","last_reported":1702890497,"current_range_meters":20400,"station_id":"cjm6bp8fraef2m0cb0m0","pricing_plan_id":"free"},{"bike_id":"49d6aca4-8a10-46bf-a5b3-917b0868a751","system_id":"levelo_inurba_marseille","lat":43.26949,"lon":5.40262,"is_reserved":false,"is_disabled":false,"rental_uris":{"android":"levelo://app?vid=49d6aca4-8a10-46bf-a5b3-917b0868a751","ios":"levelo://app?vid=49d6aca4-8a10-46bf-a5b3-917b0868a751"},"vehicle_type_id":"4","last_reported":1702890497,"current_range_meters":2000,"station_id":"cjm6bp8fraef2m0cb0m0","pricing_plan_id":"free"},{"bike_id":"f21ea516-e527-4625-8729-1139d7e585e5","system_id":"levelo_inurba_marseille","lat":43.26938,"lon":5.40259,"is_reserved":false,"is_disabled":false,"rental_uris":{"android":"levelo://app?vid=f21ea516-e527-4625-8729-1139d7e585e5","ios":"levelo://app?vid=f21ea516-e527-4625-8729-1139d7e585e5"},"vehicle_type_id":"4","last_reported":1702890497,"current_range_meters":3600,"station_id":"cjm6bp8fraef2m0cb0m0","pricing_plan_id":"free"},{"bike_id":"3c8971de-e0a5-4b81-b220-200886b0600a","system_id":"levelo_inurba_marseille","lat":43.261782,"lon":5.374515,"is_reserved":false,"is_disabled":false,"rental_uris":{"android":"levelo://app?vid=3c8971de-e0a5-4b81-b220-200886b0600a","ios":"levelo://app?vid=3c8971de-e0a5-4b81-b220-200886b0600a"},"vehicle_type_id":"4","last_reported":1702890497,"current_range_meters":10400,"station_id":"ce4bhgp2rcd13ifvqfc0","pricing_plan_id":"free"},{"bike_id":"c5f1943b-15ae-40ff-a6c8-b2bab011c3bb","system_id":"levelo_inurba_marseille","lat":43.26202,"lon":5.379299,"is_reserved":false,"is_disabled":false,"rental_uris":{"android":"levelo://app?vid=c5f1943b-15ae-40ff-a6c8-b2bab011c3bb","ios":"levelo://app?vid=c5f1943b-15ae-40ff-a6c8-b2bab011c3bb"},"vehicle_type_id":"4","last_reported":1702890497,"current_range_meters":14800,"station_id":"ce4bhjp2rcd13ifvqg90","pricing_plan_id":"free"},{"bike_id":"7a6af108-6355-4d85-9213-ca56151380c7","system_id":"levelo_inurba_marseille","lat":43.262012,"lon":5.379307,"is_reserved":false,"is_disabled":false,"rental_uris":{"android":"levelo://app?vid=7a6af108-6355-4d85-9213-ca56151380c7","ios":"levelo://app?vid=7a6af108-6355-4d85-9213-ca56151380c7"},"vehicle_type_id":"4","last_reported":1702890497,"current_range_meters":30400,"station_id":"ce4bhjp2rcd13ifvqg90","pricing_plan_id":"free"},{"bike_id":"4d2f94b6-89fd-4934-b631-4bde17164171","system_id":"levelo_inurba_marseille","lat":43.26023,"lon":5.3755,"is_reserved":false,"is_disabled":false,"rental_uris":{"android":"levelo://app?vid=4d2f94b6-89fd-4934-b631-4bde17164171","ios":"levelo://app?vid=4d2f94b6-89fd-4934-b631-4bde17164171"},"vehicle_type_id":"4","last_reported":1702890497,"current_range_meters":27600,"station_id":"ce4bhgh2rcd13ifvqfa0","pricing_plan_id":"free"},{"bike_id":"7bd30b8c-d34e-4b55-a5a3-898b9d728a98","system_id":"levelo_inurba_marseille","lat":43.2607,"lon":5.393983,"is_reserved":false,"is_disabled":false,"rental_uris":{"android":"levelo://app?vid=7bd30b8c-d34e-4b55-a5a3-898b9d728a98","ios":"levelo://app?vid=7bd30b8c-d34e-4b55-a5a3-898b9d728a98"},"vehicle_type_id":"4","last_reported":1702890497,"current_range_meters":19600,"station_id":"ce4bhh92rcd13ifvqfj0","pricing_plan_id":"free"},{"bike_id":"2645ff2e-e207-49fd-8a58-0e67336036e8","system_id":"levelo_inurba_marseille","lat":43.2607,"lon":5.393983,"is_reserved":false,"is_disabled":false,"rental_uris":{"android":"levelo://app?vid=2645ff2e-e207-49fd-8a58-0e67336036e8","ios":"levelo://app?vid=2645ff2e-e207-49fd-8a58-0e67336036e8"},"vehicle_type_id":"4","last_reported":1702890497,"current_range_meters":16800,"station_id":"ce4bhh92rcd13ifvqfj0","pricing_plan_id":"free"},{"bike_id":"75c648ad-bb5c-498c-8702-26f3c1000389","system_id":"levelo_inurba_marseille","lat":43.275028,"lon":5.424534,"is_reserved":false,"is_disabled":false,"rental_uris":{"android":"levelo://app?vid=75c648ad-bb5c-498c-8702-26f3c1000389","ios":"levelo://app?vid=75c648ad-bb5c-498c-8702-26f3c1000389"},"vehicle_type_id":"4","last_reported":1702890497,"current_range_meters":20400,"station_id":"ce4bhn92rcd13ifvqgrg","pricing_plan_id":"free"},{"bike_id":"798bb3bc-2292-4785-8d78-de07a7b640e4","system_id":"levelo_inurba_marseille","lat":43.275028,"lon":5.424534,"is_reserved":false,"is_disabled":false,"rental_uris":{"android":"levelo://app?vid=798bb3bc-2292-4785-8d78-de07a7b640e4","ios":"levelo://app?vid=798bb3bc-2292-4785-8d78-de07a7b640e4"},"vehicle_type_id":"4","last_reported":1702890497,"current_range_meters":18800,"station_id":"ce4bhn92rcd13ifvqgrg","pricing_plan_id":"free"},{"bike_id":"152e125e-7225-4ec6-8728-7823316384b7","system_id":"levelo_inurba_marseille","lat":43.275028,"lon":5.424534,"is_reserved":false,"is_disabled":false,"rental_uris":{"android":"levelo://app?vid=152e125e-7225-4ec6-8728-7823316384b7","ios":"levelo://app?vid=152e125e-7225-4ec6-8728-7823316384b7"},"vehicle_type_id":"4","last_reported":1702890497,"current_range_meters":22800,"station_id":"ce4bhn92rcd13ifvqgrg","pricing_plan_id":"free"},{"bike_id":"2737255d-fa68-4586-9e3b-54a6ad3d9547","system_id":"levelo_inurba_marseille","lat":43.275028,"lon":5.424534,"is_reserved":false,"is_disabled":false,"rental_uris":{"android":"levelo://app?vid=2737255d-fa68-4586-9e3b-54a6ad3d9547","ios":"levelo://app?vid=2737255d-fa68-4586-9e3b-54a6ad3d9547"},"vehicle_type_id":"4","last_reported":1702890497,"current_range_meters":22000,"station_id":"ce4bhn92rcd13ifvqgrg","pricing_plan_id":"free"},{"bike_id":"45baab9e-6fe0-4451-8ff2-5be7fb590c65","system_id":"levelo_inurba_marseille","lat":43.275028,"lon":5.424534,"is_reserved":false,"is_disabled":false,"rental_uris":{"android":"levelo://app?vid=45baab9e-6fe0-4451-8ff2-5be7fb590c65","ios":"levelo://app?vid=45baab9e-6fe0-4451-8ff2-5be7fb590c65"},"vehicle_type_id":"4","last_reported":1702890497,"current_range_meters":1600,"station_id":"ce4bhn92rcd13ifvqgrg","pricing_plan_id":"free"},{"bike_id":"b9e168a5-bfcd-4bea-9c6f-dd7e3cd7ad17","system_id":"levelo_inurba_marseille","lat":43.275028,"lon":5.424534,"is_reserved":false,"is_disabled":false,"rental_uris":{"android":"levelo://app?vid=b9e168a5-bfcd-4bea-9c6f-dd7e3cd7ad17","ios":"levelo://app?vid=b9e168a5-bfcd-4bea-9c6f-dd7e3cd7ad17"},"vehicle_type_id":"4","last_reported":1702890497,"current_range_meters":24000,"station_id":"ce4bhn92rcd13ifvqgrg","pricing_plan_id":"free"},{"bike_id":"82e1bcac-6eee-4604-b918-7a993f253195","system_id":"levelo_inurba_marseille","lat":43.275028,"lon":5.424534,"is_reserved":false,"is_disabled":false,"rental_uris":{"android":"levelo://app?vid=82e1bcac-6eee-4604-b918-7a993f253195","ios":"levelo://app?vid=82e1bcac-6eee-4604-b918-7a993f253195"},"vehicle_type_id":"4","last_reported":1702890497,"current_range_meters":24000,"station_id":"ce4bhn92rcd13ifvqgrg","pricing_plan_id":"free"},{"bike_id":"b41d8c65-a328-409e-a2f2-8750a4fd551a","system_id":"levelo_inurba_marseille","lat":43.275028,"lon":5.424534,"is_reserved":false,"is_disabled":false,"rental_uris":{"android":"levelo://app?vid=b41d8c65-a328-409e-a2f2-8750a4fd551a","ios":"levelo://app?vid=b41d8c65-a328-409e-a2f2-8750a4fd551a"},"vehicle_type_id":"4","last_reported":1702890497,"current_range_meters":6400,"station_id":"ce4bhn92rcd13ifvqgrg","pricing_plan_id":"free"},{"bike_id":"6a198bc7-c88f-4264-bd28-798ff934092f","system_id":"levelo_inurba_marseille","lat":43.275028,"lon":5.424534,"is_reserved":false,"is_disabled":false,"rental_uris":{"android":"levelo://app?vid=6a198bc7-c88f-4264-bd28-798ff934092f","ios":"levelo://app?vid=6a198bc7-c88f-4264-bd28-798ff934092f"},"vehicle_type_id":"4","last_reported":1702890497,"current_range_meters":26000,"station_id":"ce4bhn92rcd13ifvqgrg","pricing_plan_id":"free"},{"bike_id":"9d996e84-0694-4cd4-b5da-e9c86eaccfc0","system_id":"levelo_inurba_marseille","lat":43.275028,"lon":5.424534,"is_reserved":false,"is_disabled":false,"rental_uris":{"android":"levelo://app?vid=9d996e84-0694-4cd4-b5da-e9c86eaccfc0","ios":"levelo://app?vid=9d996e84-0694-4cd4-b5da-e9c86eaccfc0"},"vehicle_type_id":"4","last_reported":1702890497,"current_range_meters":12400,"station_id":"ce4bhn92rcd13ifvqgrg","pricing_plan_id":"free"},{"bike_id":"ff00ffc6-1f36-457c-a38b-c213194d2ed3","system_id":"levelo_inurba_marseille","lat":43.275028,"lon":5.424534,"is_reserved":false,"is_disabled":false,"rental_uris":{"android":"levelo://app?vid=ff00ffc6-1f36-457c-a38b-c213194d2ed3","ios":"levelo://app?vid=ff00ffc6-1f36-457c-a38b-c213194d2ed3"},"vehicle_type_id":"4","last_reported":1702890497,"current_range_meters":400,"station_id":"ce4bhn92rcd13ifvqgrg","pricing_plan_id":"free"},{"bike_id":"d2007443-4338-42cb-923c-147041d30edf","system_id":"levelo_inurba_marseille","lat":43.275028,"lon":5.424534,"is_reserved":false,"is_disabled":false,"rental_uris":{"android":"levelo://app?vid=d2007443-4338-42cb-923c-147041d30edf","ios":"levelo://app?vid=d2007443-4338-42cb-923c-147041d30edf"},"vehicle_type_id":"4","last_reported":1702890497,"current_range_meters":31600,"station_id":"ce4bhn92rcd13ifvqgrg","pricing_plan_id":"free"},{"bike_id":"8ce65bd2-6385-4b97-8ac6-1877d7ca4f72","system_id":"levelo_inurba_marseille","lat":43.26088,"lon":5.39766,"is_reserved":false,"is_disabled":false,"rental_uris":{"android":"levelo://app?vid=8ce65bd2-6385-4b97-8ac6-1877d7ca4f72","ios":"levelo://app?vid=8ce65bd2-6385-4b97-8ac6-1877d7ca4f72"},"vehicle_type_id":"4","last_reported":1702890497,"current_range_meters":31200,"station_id":"","pricing_plan_id":"free"},{"bike_id":"6a24c9c2-0536-4d05-8056-8d8332f4bc28","system_id":"levelo_inurba_marseille","lat":43.275028,"lon":5.424534,"is_reserved":false,"is_disabled":false,"rental_uris":{"android":"levelo://app?vid=6a24c9c2-0536-4d05-8056-8d8332f4bc28","ios":"levelo://app?vid=6a24c9c2-0536-4d05-8056-8d8332f4bc28"},"vehicle_type_id":"4","last_reported":1702890497,"current_range_meters":31600,"station_id":"ce4bhn92rcd13ifvqgrg","pricing_plan_id":"free"},{"bike_id":"e82b9179-ac15-4808-988e-5b39d7493a22","system_id":"levelo_inurba_marseille","lat":43.27488,"lon":5.42457,"is_reserved":false,"is_disabled":false,"rental_uris":{"android":"levelo://app?vid=e82b9179-ac15-4808-988e-5b39d7493a22","ios":"levelo://app?vid=e82b9179-ac15-4808-988e-5b39d7493a22"},"vehicle_type_id":"4","last_reported":1702890497,"current_range_meters":22400,"station_id":"ce4bhn92rcd13ifvqgrg","pricing_plan_id":"free"},{"bike_id":"d8462519-3900-41c1-94d9-b64e74aa18ca","system_id":"levelo_inurba_marseille","lat":43.25586,"lon":5.3823,"is_reserved":false,"is_disabled":false,"rental_uris":{"android":"levelo://app?vid=d8462519-3900-41c1-94d9-b64e74aa18ca","ios":"levelo://app?vid=d8462519-3900-41c1-94d9-b64e74aa18ca"},"vehicle_type_id":"4","last_reported":1702890497,"current_range_meters":12800,"station_id":"ce4bhih2rcd13ifvqfs0","pricing_plan_id":"free"},{"bike_id":"27c6c1a8-d68c-4c31-bc92-277019ff1e06","system_id":"levelo_inurba_marseille","lat":43.25584,"lon":5.38225,"is_reserved":false,"is_disabled":false,"rental_uris":{"android":"levelo://app?vid=27c6c1a8-d68c-4c31-bc92-277019ff1e06","ios":"levelo://app?vid=27c6c1a8-d68c-4c31-bc92-277019ff1e06"},"vehicle_type_id":"4","last_reported":1702890497,"current_range_meters":22800,"station_id":"ce4bhih2rcd13ifvqfs0","pricing_plan_id":"free"},{"bike_id":"8a0f3294-cc06-48d5-8fa5-dc22459822a8","system_id":"levelo_inurba_marseille","lat":43.25582,"lon":5.38227,"is_reserved":false,"is_disabled":false,"rental_uris":{"android":"levelo://app?vid=8a0f3294-cc06-48d5-8fa5-dc22459822a8","ios":"levelo://app?vid=8a0f3294-cc06-48d5-8fa5-dc22459822a8"},"vehicle_type_id":"4","last_reported":1702890497,"current_range_meters":10800,"station_id":"ce4bhih2rcd13ifvqfs0","pricing_plan_id":"free"},{"bike_id":"fdceae04-adce-4951-89fc-a39188c2b1d8","system_id":"levelo_inurba_marseille","lat":43.25579,"lon":5.38231,"is_reserved":false,"is_disabled":false,"rental_uris":{"android":"levelo://app?vid=fdceae04-adce-4951-89fc-a39188c2b1d8","ios":"levelo://app?vid=fdceae04-adce-4951-89fc-a39188c2b1d8"},"vehicle_type_id":"4","last_reported":1702890497,"current_range_meters":16800,"station_id":"ce4bhih2rcd13ifvqfs0","pricing_plan_id":"free"},{"bike_id":"8f8ca80d-0df0-4f47-a7b5-5fe6d60e1474","system_id":"levelo_inurba_marseille","lat":43.25578,"lon":5.38235,"is_reserved":false,"is_disabled":false,"rental_uris":{"android":"levelo://app?vid=8f8ca80d-0df0-4f47-a7b5-5fe6d60e1474","ios":"levelo://app?vid=8f8ca80d-0df0-4f47-a7b5-5fe6d60e1474"},"vehicle_type_id":"4","last_reported":1702890497,"current_range_meters":22400,"station_id":"ce4bhih2rcd13ifvqfs0","pricing_plan_id":"free"},{"bike_id":"83ae4143-0b80-4b86-af8d-bced285766a8","system_id":"levelo_inurba_marseille","lat":43.25575,"lon":5.3823,"is_reserved":false,"is_disabled":false,"rental_uris":{"android":"levelo://app?vid=83ae4143-0b80-4b86-af8d-bced285766a8","ios":"levelo://app?vid=83ae4143-0b80-4b86-af8d-bced285766a8"},"vehicle_type_id":"4","last_reported":1702890497,"current_range_meters":21200,"station_id":"ce4bhih2rcd13ifvqfs0","pricing_plan_id":"free"},{"bike_id":"aca2dcca-a316-4f0c-ac24-39f4a3a60bd2","system_id":"levelo_inurba_marseille","lat":43.254947,"lon":5.376454,"is_reserved":false,"is_disabled":false,"rental_uris":{"android":"levelo://app?vid=aca2dcca-a316-4f0c-ac24-39f4a3a60bd2","ios":"levelo://app?vid=aca2dcca-a316-4f0c-ac24-39f4a3a60bd2"},"vehicle_type_id":"4","last_reported":1702890497,"current_range_meters":31600,"station_id":"ce4bhh12rcd13ifvqff0","pricing_plan_id":"free"},{"bike_id":"af1d6e6f-c8ae-49d9-b837-da8f4814c726","system_id":"levelo_inurba_marseille","lat":43.270721,"lon":5.422764,"is_reserved":false,"is_disabled":false,"rental_uris":{"android":"levelo://app?vid=af1d6e6f-c8ae-49d9-b837-da8f4814c726","ios":"levelo://app?vid=af1d6e6f-c8ae-49d9-b837-da8f4814c726"},"vehicle_type_id":"4","last_reported":1702890497,"current_range_meters":27200,"station_id":"ce4bhk92rcd13ifvqgb0","pricing_plan_id":"free"},{"bike_id":"ee354c33-94c7-44d9-8009-d3ce5dd1be85","system_id":"levelo_inurba_marseille","lat":43.258658,"lon":5.398935,"is_reserved":false,"is_disabled":false,"rental_uris":{"android":"levelo://app?vid=ee354c33-94c7-44d9-8009-d3ce5dd1be85","ios":"levelo://app?vid=ee354c33-94c7-44d9-8009-d3ce5dd1be85"},"vehicle_type_id":"4","last_reported":1702890497,"current_range_meters":16400,"station_id":"ce4bhl92rcd13ifvqghg","pricing_plan_id":"free"},{"bike_id":"32b50033-3f96-4ba2-adbf-286226a1a634","system_id":"levelo_inurba_marseille","lat":43.258658,"lon":5.398935,"is_reserved":false,"is_disabled":false,"rental_uris":{"android":"levelo://app?vid=32b50033-3f96-4ba2-adbf-286226a1a634","ios":"levelo://app?vid=32b50033-3f96-4ba2-adbf-286226a1a634"},"vehicle_type_id":"4","last_reported":1702890497,"current_range_meters":1200,"station_id":"ce4bhl92rcd13ifvqghg","pricing_plan_id":"free"},{"bike_id":"0cd848dc-36f9-4e70-94ac-d04a8757364b","system_id":"levelo_inurba_marseille","lat":43.259009,"lon":5.40929,"is_reserved":false,"is_disabled":false,"rental_uris":{"android":"levelo://app?vid=0cd848dc-36f9-4e70-94ac-d04a8757364b","ios":"levelo://app?vid=0cd848dc-36f9-4e70-94ac-d04a8757364b"},"vehicle_type_id":"4","last_reported":1702890497,"current_range_meters":19600,"station_id":"ce4bhm92rcd13ifvqglg","pricing_plan_id":"free"},{"bike_id":"774bdb46-3f25-4d06-a8ba-576a2aaf295a","system_id":"levelo_inurba_marseille","lat":43.259009,"lon":5.40929,"is_reserved":false,"is_disabled":false,"rental_uris":{"android":"levelo://app?vid=774bdb46-3f25-4d06-a8ba-576a2aaf295a","ios":"levelo://app?vid=774bdb46-3f25-4d06-a8ba-576a2aaf295a"},"vehicle_type_id":"4","last_reported":1702890497,"current_range_meters":28400,"station_id":"ce4bhm92rcd13ifvqglg","pricing_plan_id":"free"},{"bike_id":"7b9dbebe-a91a-4333-86e7-f71bb8ba3e5e","system_id":"levelo_inurba_marseille","lat":43.259013,"lon":5.409301,"is_reserved":false,"is_disabled":false,"rental_uris":{"android":"levelo://app?vid=7b9dbebe-a91a-4333-86e7-f71bb8ba3e5e","ios":"levelo://app?vid=7b9dbebe-a91a-4333-86e7-f71bb8ba3e5e"},"vehicle_type_id":"4","last_reported":1702890497,"current_range_meters":16400,"station_id":"ce4bhm92rcd13ifvqglg","pricing_plan_id":"free"},{"bike_id":"75b58ad3-589c-4015-9a40-0297bf20ca67","system_id":"levelo_inurba_marseille","lat":43.25933,"lon":5.40914,"is_reserved":false,"is_disabled":false,"rental_uris":{"android":"levelo://app?vid=75b58ad3-589c-4015-9a40-0297bf20ca67","ios":"levelo://app?vid=75b58ad3-589c-4015-9a40-0297bf20ca67"},"vehicle_type_id":"4","last_reported":1702890497,"current_range_meters":5200,"station_id":"ce4bhm92rcd13ifvqglg","pricing_plan_id":"free"},{"bike_id":"7af5d6b9-01d1-4dbe-a1ef-63878ea59995","system_id":"levelo_inurba_marseille","lat":43.259013,"lon":5.409301,"is_reserved":false,"is_disabled":false,"rental_uris":{"android":"levelo://app?vid=7af5d6b9-01d1-4dbe-a1ef-63878ea59995","ios":"levelo://app?vid=7af5d6b9-01d1-4dbe-a1ef-63878ea59995"},"vehicle_type_id":"4","last_reported":1702890497,"current_range_meters":22400,"station_id":"ce4bhm92rcd13ifvqglg","pricing_plan_id":"free"},{"bike_id":"61a4c449-70c1-4d31-941e-a3fe596474dd","system_id":"levelo_inurba_marseille","lat":43.2589,"lon":5.40922,"is_reserved":false,"is_disabled":false,"rental_uris":{"android":"levelo://app?vid=61a4c449-70c1-4d31-941e-a3fe596474dd","ios":"levelo://app?vid=61a4c449-70c1-4d31-941e-a3fe596474dd"},"vehicle_type_id":"4","last_reported":1702890497,"current_range_meters":30400,"station_id":"ce4bhm92rcd13ifvqglg","pricing_plan_id":"free"},{"bike_id":"1b5b8572-9f39-4d0f-8e18-fca8919c82a0","system_id":"levelo_inurba_marseille","lat":43.257079,"lon":5.411051,"is_reserved":false,"is_disabled":false,"rental_uris":{"android":"levelo://app?vid=1b5b8572-9f39-4d0f-8e18-fca8919c82a0","ios":"levelo://app?vid=1b5b8572-9f39-4d0f-8e18-fca8919c82a0"},"vehicle_type_id":"4","last_reported":1702890497,"current_range_meters":15600,"station_id":"ce4bhkp2rcd13ifvqgd0","pricing_plan_id":"free"},{"bike_id":"96521001-8cb5-418e-b39d-124b00bcb70f","system_id":"levelo_inurba_marseille","lat":43.250009,"lon":5.389195,"is_reserved":false,"is_disabled":false,"rental_uris":{"android":"levelo://app?vid=96521001-8cb5-418e-b39d-124b00bcb70f","ios":"levelo://app?vid=96521001-8cb5-418e-b39d-124b00bcb70f"},"vehicle_type_id":"4","last_reported":1702890497,"current_range_meters":13200,"station_id":"ce4bhgp2rcd13ifvqfd0","pricing_plan_id":"free"},{"bike_id":"78dc20d4-c153-4938-b99b-aec94edcf1c7","system_id":"levelo_inurba_marseille","lat":43.2479,"lon":5.374457,"is_reserved":false,"is_disabled":false,"rental_uris":{"android":"levelo://app?vid=78dc20d4-c153-4938-b99b-aec94edcf1c7","ios":"levelo://app?vid=78dc20d4-c153-4938-b99b-aec94edcf1c7"},"vehicle_type_id":"4","last_reported":1702890497,"current_range_meters":16800,"station_id":"ce4bhgh2rcd13ifvqfb0","pricing_plan_id":"free"},{"bike_id":"70dd9549-4da1-4026-ae08-a050b3271417","system_id":"levelo_inurba_marseille","lat":43.250966,"lon":5.395186,"is_reserved":false,"is_disabled":false,"rental_uris":{"android":"levelo://app?vid=70dd9549-4da1-4026-ae08-a050b3271417","ios":"levelo://app?vid=70dd9549-4da1-4026-ae08-a050b3271417"},"vehicle_type_id":"4","last_reported":1702890497,"current_range_meters":12800,"station_id":"ce4bhm12rcd13ifvqgkg","pricing_plan_id":"free"},{"bike_id":"d8ceb2a8-18be-43c6-956b-be6402a8c876","system_id":"levelo_inurba_marseille","lat":43.25107,"lon":5.40322,"is_reserved":false,"is_disabled":false,"rental_uris":{"android":"levelo://app?vid=d8ceb2a8-18be-43c6-956b-be6402a8c876","ios":"levelo://app?vid=d8ceb2a8-18be-43c6-956b-be6402a8c876"},"vehicle_type_id":"4","last_reported":1702890497,"current_range_meters":0,"station_id":"ce4bhlh2rcd13ifvqgig","pricing_plan_id":"free"},{"bike_id":"2e5af4e7-0063-4ef0-a26f-48b83d6e3146","system_id":"levelo_inurba_marseille","lat":43.25102,"lon":5.403214,"is_reserved":false,"is_disabled":false,"rental_uris":{"android":"levelo://app?vid=2e5af4e7-0063-4ef0-a26f-48b83d6e3146","ios":"levelo://app?vid=2e5af4e7-0063-4ef0-a26f-48b83d6e3146"},"vehicle_type_id":"4","last_reported":1702890497,"current_range_meters":12400,"station_id":"ce4bhlh2rcd13ifvqgig","pricing_plan_id":"free"},{"bike_id":"938d5efe-09ed-4de5-9e4f-37c97df5b158","system_id":"levelo_inurba_marseille","lat":43.25102,"lon":5.403214,"is_reserved":false,"is_disabled":false,"rental_uris":{"android":"levelo://app?vid=938d5efe-09ed-4de5-9e4f-37c97df5b158","ios":"levelo://app?vid=938d5efe-09ed-4de5-9e4f-37c97df5b158"},"vehicle_type_id":"4","last_reported":1702890497,"current_range_meters":29200,"station_id":"ce4bhlh2rcd13ifvqgig","pricing_plan_id":"free"},{"bike_id":"ffcc093c-fe06-4bfb-b328-099fde211ebd","system_id":"levelo_inurba_marseille","lat":43.243884,"lon":5.370736,"is_reserved":false,"is_disabled":false,"rental_uris":{"android":"levelo://app?vid=ffcc093c-fe06-4bfb-b328-099fde211ebd","ios":"levelo://app?vid=ffcc093c-fe06-4bfb-b328-099fde211ebd"},"vehicle_type_id":"4","last_reported":1702890497,"current_range_meters":21600,"station_id":"ce4bhhh2rcd13ifvqfk0","pricing_plan_id":"free"},{"bike_id":"56e6f466-561f-4d14-ba34-5b755024a38b","system_id":"levelo_inurba_marseille","lat":43.245581,"lon":5.395069,"is_reserved":false,"is_disabled":false,"rental_uris":{"android":"levelo://app?vid=56e6f466-561f-4d14-ba34-5b755024a38b","ios":"levelo://app?vid=56e6f466-561f-4d14-ba34-5b755024a38b"},"vehicle_type_id":"4","last_reported":1702890497,"current_range_meters":21200,"station_id":"ce4bhlp2rcd13ifvqgjg","pricing_plan_id":"free"},{"bike_id":"214d7074-2db1-4f37-ad86-901422f26280","system_id":"levelo_inurba_marseille","lat":43.24077,"lon":5.37757,"is_reserved":false,"is_disabled":false,"rental_uris":{"android":"levelo://app?vid=214d7074-2db1-4f37-ad86-901422f26280","ios":"levelo://app?vid=214d7074-2db1-4f37-ad86-901422f26280"},"vehicle_type_id":"4","last_reported":1702890497,"current_range_meters":6000,"station_id":"ce4bhnp2rcd13ifvqgvg","pricing_plan_id":"free"},{"bike_id":"6a2b9560-32a2-4a66-840d-df41e2022019","system_id":"levelo_inurba_marseille","lat":43.24077,"lon":5.37758,"is_reserved":false,"is_disabled":false,"rental_uris":{"android":"levelo://app?vid=6a2b9560-32a2-4a66-840d-df41e2022019","ios":"levelo://app?vid=6a2b9560-32a2-4a66-840d-df41e2022019"},"vehicle_type_id":"4","last_reported":1702890497,"current_range_meters":26400,"station_id":"ce4bhnp2rcd13ifvqgvg","pricing_plan_id":"free"},{"bike_id":"e78bc2af-e73f-494a-9aa6-6c457810cee4","system_id":"levelo_inurba_marseille","lat":43.24077,"lon":5.37758,"is_reserved":false,"is_disabled":false,"rental_uris":{"android":"levelo://app?vid=e78bc2af-e73f-494a-9aa6-6c457810cee4","ios":"levelo://app?vid=e78bc2af-e73f-494a-9aa6-6c457810cee4"},"vehicle_type_id":"4","last_reported":1702890497,"current_range_meters":13600,"station_id":"ce4bhnp2rcd13ifvqgvg","pricing_plan_id":"free"},{"bike_id":"0d16ff54-2231-46a8-ac32-54c4986ae53d","system_id":"levelo_inurba_marseille","lat":43.24075,"lon":5.37756,"is_reserved":false,"is_disabled":false,"rental_uris":{"android":"levelo://app?vid=0d16ff54-2231-46a8-ac32-54c4986ae53d","ios":"levelo://app?vid=0d16ff54-2231-46a8-ac32-54c4986ae53d"},"vehicle_type_id":"4","last_reported":1702890497,"current_range_meters":12800,"station_id":"ce4bhnp2rcd13ifvqgvg","pricing_plan_id":"free"},{"bike_id":"2eff520d-0ff3-41f2-9ac1-37fcd441767c","system_id":"levelo_inurba_marseille","lat":43.24075,"lon":5.37757,"is_reserved":false,"is_disabled":false,"rental_uris":{"android":"levelo://app?vid=2eff520d-0ff3-41f2-9ac1-37fcd441767c","ios":"levelo://app?vid=2eff520d-0ff3-41f2-9ac1-37fcd441767c"},"vehicle_type_id":"4","last_reported":1702890497,"current_range_meters":19600,"station_id":"ce4bhnp2rcd13ifvqgvg","pricing_plan_id":"free"},{"bike_id":"87a97936-15e6-498e-8834-01329c279da4","system_id":"levelo_inurba_marseille","lat":43.24074,"lon":5.37762,"is_reserved":false,"is_disabled":false,"rental_uris":{"android":"levelo://app?vid=87a97936-15e6-498e-8834-01329c279da4","ios":"levelo://app?vid=87a97936-15e6-498e-8834-01329c279da4"},"vehicle_type_id":"4","last_reported":1702890497,"current_range_meters":30400,"station_id":"ce4bhnp2rcd13ifvqgvg","pricing_plan_id":"free"},{"bike_id":"93da6ba6-09bc-42c3-9941-50a719734970","system_id":"levelo_inurba_marseille","lat":43.24074,"lon":5.37764,"is_reserved":false,"is_disabled":false,"rental_uris":{"android":"levelo://app?vid=93da6ba6-09bc-42c3-9941-50a719734970","ios":"levelo://app?vid=93da6ba6-09bc-42c3-9941-50a719734970"},"vehicle_type_id":"4","last_reported":1702890497,"current_range_meters":12800,"station_id":"ce4bhnp2rcd13ifvqgvg","pricing_plan_id":"free"},{"bike_id":"24a92dcb-1625-4052-9088-54267c1999e6","system_id":"levelo_inurba_marseille","lat":43.24073,"lon":5.37758,"is_reserved":false,"is_disabled":false,"rental_uris":{"android":"levelo://app?vid=24a92dcb-1625-4052-9088-54267c1999e6","ios":"levelo://app?vid=24a92dcb-1625-4052-9088-54267c1999e6"},"vehicle_type_id":"4","last_reported":1702890497,"current_range_meters":21200,"station_id":"ce4bhnp2rcd13ifvqgvg","pricing_plan_id":"free"},{"bike_id":"1eeb6adb-2a74-46e6-8304-792c9742e52e","system_id":"levelo_inurba_marseille","lat":43.240623,"lon":5.377642,"is_reserved":false,"is_disabled":false,"rental_uris":{"android":"levelo://app?vid=1eeb6adb-2a74-46e6-8304-792c9742e52e","ios":"levelo://app?vid=1eeb6adb-2a74-46e6-8304-792c9742e52e"},"vehicle_type_id":"4","last_reported":1702890497,"current_range_meters":24800,"station_id":"ce4bhnp2rcd13ifvqgvg","pricing_plan_id":"free"},{"bike_id":"aa94b4b0-d0c8-4d3a-86f0-ad0e94f9097a","system_id":"levelo_inurba_marseille","lat":43.240623,"lon":5.377642,"is_reserved":false,"is_disabled":false,"rental_uris":{"android":"levelo://app?vid=aa94b4b0-d0c8-4d3a-86f0-ad0e94f9097a","ios":"levelo://app?vid=aa94b4b0-d0c8-4d3a-86f0-ad0e94f9097a"},"vehicle_type_id":"4","last_reported":1702890497,"current_range_meters":19200,"station_id":"ce4bhnp2rcd13ifvqgvg","pricing_plan_id":"free"},{"bike_id":"f547a153-461d-4695-94d6-040032fb7c84","system_id":"levelo_inurba_marseille","lat":43.2407,"lon":5.37752,"is_reserved":false,"is_disabled":false,"rental_uris":{"android":"levelo://app?vid=f547a153-461d-4695-94d6-040032fb7c84","ios":"levelo://app?vid=f547a153-461d-4695-94d6-040032fb7c84"},"vehicle_type_id":"4","last_reported":1702890497,"current_range_meters":1200,"station_id":"ce4bhnp2rcd13ifvqgvg","pricing_plan_id":"free"},{"bike_id":"98cbe604-ea29-4ffb-8b6b-c83ac358b30f","system_id":"levelo_inurba_marseille","lat":43.240623,"lon":5.377642,"is_reserved":false,"is_disabled":false,"rental_uris":{"android":"levelo://app?vid=98cbe604-ea29-4ffb-8b6b-c83ac358b30f","ios":"levelo://app?vid=98cbe604-ea29-4ffb-8b6b-c83ac358b30f"},"vehicle_type_id":"4","last_reported":1702890497,"current_range_meters":3600,"station_id":"ce4bhnp2rcd13ifvqgvg","pricing_plan_id":"free"},{"bike_id":"2b0ce332-97bb-4c92-961a-331302cd0b08","system_id":"levelo_inurba_marseille","lat":43.240623,"lon":5.377642,"is_reserved":false,"is_disabled":false,"rental_uris":{"android":"levelo://app?vid=2b0ce332-97bb-4c92-961a-331302cd0b08","ios":"levelo://app?vid=2b0ce332-97bb-4c92-961a-331302cd0b08"},"vehicle_type_id":"4","last_reported":1702890497,"current_range_meters":0,"station_id":"ce4bhnp2rcd13ifvqgvg","pricing_plan_id":"free"},{"bike_id":"e430be78-4d52-4038-a85e-73168841aa60","system_id":"levelo_inurba_marseille","lat":43.240623,"lon":5.377642,"is_reserved":false,"is_disabled":false,"rental_uris":{"android":"levelo://app?vid=e430be78-4d52-4038-a85e-73168841aa60","ios":"levelo://app?vid=e430be78-4d52-4038-a85e-73168841aa60"},"vehicle_type_id":"4","last_reported":1702890497,"current_range_meters":18000,"station_id":"ce4bhnp2rcd13ifvqgvg","pricing_plan_id":"free"},{"bike_id":"a5feab27-5231-43bb-8a34-fd786e596aed","system_id":"levelo_inurba_marseille","lat":43.240623,"lon":5.377642,"is_reserved":false,"is_disabled":false,"rental_uris":{"android":"levelo://app?vid=a5feab27-5231-43bb-8a34-fd786e596aed","ios":"levelo://app?vid=a5feab27-5231-43bb-8a34-fd786e596aed"},"vehicle_type_id":"4","last_reported":1702890497,"current_range_meters":10800,"station_id":"ce4bhnp2rcd13ifvqgvg","pricing_plan_id":"free"},{"bike_id":"4951b99f-711f-41b3-82c7-4cc420dcfe5a","system_id":"levelo_inurba_marseille","lat":43.241782,"lon":5.397261,"is_reserved":false,"is_disabled":false,"rental_uris":{"android":"levelo://app?vid=4951b99f-711f-41b3-82c7-4cc420dcfe5a","ios":"levelo://app?vid=4951b99f-711f-41b3-82c7-4cc420dcfe5a"},"vehicle_type_id":"4","last_reported":1702890497,"current_range_meters":12000,"station_id":"ce4bhn12rcd13ifvqgpg","pricing_plan_id":"free"},{"bike_id":"65b89341-cbe3-4bc7-80c4-6037e855ac29","system_id":"levelo_inurba_marseille","lat":43.241782,"lon":5.397261,"is_reserved":false,"is_disabled":false,"rental_uris":{"android":"levelo://app?vid=65b89341-cbe3-4bc7-80c4-6037e855ac29","ios":"levelo://app?vid=65b89341-cbe3-4bc7-80c4-6037e855ac29"},"vehicle_type_id":"4","last_reported":1702890497,"current_range_meters":25600,"station_id":"ce4bhn12rcd13ifvqgpg","pricing_plan_id":"free"},{"bike_id":"7544b8c0-a29f-44c5-8842-21760cbddff8","system_id":"levelo_inurba_marseille","lat":43.241782,"lon":5.397261,"is_reserved":false,"is_disabled":false,"rental_uris":{"android":"levelo://app?vid=7544b8c0-a29f-44c5-8842-21760cbddff8","ios":"levelo://app?vid=7544b8c0-a29f-44c5-8842-21760cbddff8"},"vehicle_type_id":"4","last_reported":1702890497,"current_range_meters":31200,"station_id":"ce4bhn12rcd13ifvqgpg","pricing_plan_id":"free"},{"bike_id":"deb8549c-895f-4c6d-b68c-130ea343f1e6","system_id":"levelo_inurba_marseille","lat":43.23193,"lon":5.3556,"is_reserved":false,"is_disabled":false,"rental_uris":{"android":"levelo://app?vid=deb8549c-895f-4c6d-b68c-130ea343f1e6","ios":"levelo://app?vid=deb8549c-895f-4c6d-b68c-130ea343f1e6"},"vehicle_type_id":"4","last_reported":1702890497,"current_range_meters":16400,"station_id":"ce4bhu92rcd13ifvqi70","pricing_plan_id":"free"},{"bike_id":"d9e90a00-4eaf-4c9c-9eec-79e0be0c0bc3","system_id":"levelo_inurba_marseille","lat":43.231853,"lon":5.399776,"is_reserved":false,"is_disabled":false,"rental_uris":{"android":"levelo://app?vid=d9e90a00-4eaf-4c9c-9eec-79e0be0c0bc3","ios":"levelo://app?vid=d9e90a00-4eaf-4c9c-9eec-79e0be0c0bc3"},"vehicle_type_id":"4","last_reported":1702890497,"current_range_meters":9600,"station_id":"ce4bhn12rcd13ifvqgqg","pricing_plan_id":"free"},{"bike_id":"3ee0ea00-8e05-48c0-a38d-caf8a81146cd","system_id":"levelo_inurba_marseille","lat":43.231794,"lon":5.400052,"is_reserved":false,"is_disabled":false,"rental_uris":{"android":"levelo://app?vid=3ee0ea00-8e05-48c0-a38d-caf8a81146cd","ios":"levelo://app?vid=3ee0ea00-8e05-48c0-a38d-caf8a81146cd"},"vehicle_type_id":"4","last_reported":1702890497,"current_range_meters":31200,"station_id":"ce4bhn12rcd13ifvqgqg","pricing_plan_id":"free"},{"bike_id":"aa03cdc7-0dad-41c6-8257-864e298aac11","system_id":"levelo_inurba_marseille","lat":43.231562,"lon":5.436933,"is_reserved":false,"is_disabled":false,"rental_uris":{"android":"levelo://app?vid=aa03cdc7-0dad-41c6-8257-864e298aac11","ios":"levelo://app?vid=aa03cdc7-0dad-41c6-8257-864e298aac11"},"vehicle_type_id":"4","last_reported":1702890497,"current_range_meters":12800,"station_id":"ce4bhmp2rcd13ifvqgog","pricing_plan_id":"free"},{"bike_id":"5ce8fc6e-4e0a-4dfd-a9a5-884cb789ef12","system_id":"levelo_inurba_marseille","lat":43.231562,"lon":5.436933,"is_reserved":false,"is_disabled":false,"rental_uris":{"android":"levelo://app?vid=5ce8fc6e-4e0a-4dfd-a9a5-884cb789ef12","ios":"levelo://app?vid=5ce8fc6e-4e0a-4dfd-a9a5-884cb789ef12"},"vehicle_type_id":"4","last_reported":1702890497,"current_range_meters":14000,"station_id":"ce4bhmp2rcd13ifvqgog","pricing_plan_id":"free"},{"bike_id":"1fda6d9b-238c-4d92-b885-31f562a03362","system_id":"levelo_inurba_marseille","lat":43.231562,"lon":5.436933,"is_reserved":false,"is_disabled":false,"rental_uris":{"android":"levelo://app?vid=1fda6d9b-238c-4d92-b885-31f562a03362","ios":"levelo://app?vid=1fda6d9b-238c-4d92-b885-31f562a03362"},"vehicle_type_id":"4","last_reported":1702890497,"current_range_meters":22800,"station_id":"ce4bhmp2rcd13ifvqgog","pricing_plan_id":"free"},{"bike_id":"26b64840-ef8d-4a64-ba9e-b951d8acc7fd","system_id":"levelo_inurba_marseille","lat":43.23154,"lon":5.43714,"is_reserved":false,"is_disabled":false,"rental_uris":{"android":"levelo://app?vid=26b64840-ef8d-4a64-ba9e-b951d8acc7fd","ios":"levelo://app?vid=26b64840-ef8d-4a64-ba9e-b951d8acc7fd"},"vehicle_type_id":"4","last_reported":1702890497,"current_range_meters":3600,"station_id":"ce4bhmp2rcd13ifvqgog","pricing_plan_id":"free"},{"bike_id":"7dc70694-c42e-4a80-984c-9fe82f81c13d","system_id":"levelo_inurba_marseille","lat":43.231562,"lon":5.436933,"is_reserved":false,"is_disabled":false,"rental_uris":{"android":"levelo://app?vid=7dc70694-c42e-4a80-984c-9fe82f81c13d","ios":"levelo://app?vid=7dc70694-c42e-4a80-984c-9fe82f81c13d"},