{"last_updated":1712340563,"ttl":30,"version":"2.2","data":{"bikes":[{"bike_id":"2f8e4471-d58b-41c5-9309-d29d0f7b97eb","system_id":"levelo_inurba_marseille","lat":43.312239,"lon":5.368562,"is_reserved":false,"is_disabled":false,"rental_uris":{"android":"levelo://app?vid=2f8e4471-d58b-41c5-9309-d29d0f7b97eb","ios":"levelo://app?vid=2f8e4471-d58b-41c5-9309-d29d0f7b97eb"},"vehicle_type_id":"4","last_reported":1712340563,"current_range_meters":2000,"station_id":"ce4bgl92rcd13ifvqbq0","pricing_plan_id":"cebpf4jnsgd1na2vs0mg"},{"bike_id":"3ab6e9e4-300a-4827-9085-a94b8a349b21","system_id":"levelo_inurba_marseille","lat":43.309076,"lon":5.368465,"is_reserved":false,"is_disabled":false,"rental_uris":{"android":"levelo://app?vid=3ab6e9e4-300a-4827-9085-a94b8a349b21","ios":"levelo://app?vid=3ab6e9e4-300a-4827-9085-a94b8a349b21"},"vehicle_type_id":"4","last_reported":1712340563,"current_range_meters":13600,"station_id":"ce4bgn92rcd13ifvqbvg","pricing_plan_id":"cebpf4jnsgd1na2vs0mg"},{"bike_id":"e2382bd2-c01d-4eee-a041-0f7b3cfa2c03","system_id":"levelo_inurba_marseille","lat":43.309076,"lon":5.368465,"is_reserved":false,"is_disabled":false,"rental_uris":{"android":"levelo://app?vid=e2382bd2-c01d-4eee-a041-0f7b3cfa2c03","ios":"levelo://app?vid=e2382bd2-c01d-4eee-a041-0f7b3cfa2c03"},"vehicle_type_id":"4","last_reported":1712340563,"current_range_meters":0,"station_id":"ce4bgn92rcd13ifvqbvg","pricing_plan_id":"cebpf4jnsgd1na2vs0mg"},{"bike_id":"ca4868bc-2caf-449f-8e1e-67dc26a47293","system_id":"levelo_inurba_marseille","lat":43.309076,"lon":5.368465,"is_reserved":false,"is_disabled":false,"rental_uris":{"android":"levelo://app?vid=ca4868bc-2caf-449f-8e1e-67dc26a47293","ios":"levelo://app?vid=ca4868bc-2caf-449f-8e1e-67dc26a47293"},"vehicle_type_id":"4","last_reported":1712340563,"current_range_meters":5600,"station_id":"ce4bgn92rcd13ifvqbvg","pricing_plan_id":"cebpf4jnsgd1na2vs0mg"},{"bike_id":"4b8e5fed-0f98-4962-8a50-81f545644f07","system_id":"levelo_inurba_marseille","lat":43.309076,"lon":5.368465,"is_reserved":false,"is_disabled":false,"rental_uris":{"android":"levelo://app?vid=4b8e5fed-0f98-4962-8a50-81f545644f07","ios":"levelo://app?vid=4b8e5fed-0f98-4962-8a50-81f545644f07"},"vehicle_type_id":"4","last_reported":1712340563,"current_range_meters":0,"station_id":"ce4bgn92rcd13ifvqbvg","pricing_plan_id":"cebpf4jnsgd1na2vs0mg"},{"bike_id":"e69efe2e-a85f-4d1f-bf21-70570abb6e8d","system_id":"levelo_inurba_marseille","lat":43.309076,"lon":5.368465,"is_reserved":false,"is_disabled":false,"rental_uris":{"android":"levelo://app?vid=e69efe2e-a85f-4d1f-bf21-70570abb6e8d","ios":"levelo://app?vid=e69efe2e-a85f-4d1f-bf21-70570abb6e8d"},"vehicle_type_id":"4","last_reported":1712340563,"current_range_meters":0,"station_id":"ce4bgn92rcd13ifvqbvg","pricing_plan_id":"cebpf4jnsgd1na2vs0mg"},{"bike_id":"a63854fc-79cd-4deb-93ed-5608c47fb6bc","system_id":"levelo_inurba_marseille","lat":43.314987,"lon":5.372623,"is_reserved":false,"is_disabled":false,"rental_uris":{"android":"levelo://app?vid=a63854fc-79cd-4deb-93ed-5608c47fb6bc","ios":"levelo://app?vid=a63854fc-79cd-4deb-93ed-5608c47fb6bc"},"vehicle_type_id":"4","last_reported":1712340563,"current_range_meters":0,"station_id":"ce4bgt12rcd13ifvqcd0","pricing_plan_id":"cebpf4jnsgd1na2vs0mg"},{"bike_id":"f02f1e0e-8668-48b5-ac87-5bdd73e35314","system_id":"levelo_inurba_marseille","lat":43.314811,"lon":5.373103,"is_reserved":false,"is_disabled":false,"rental_uris":{"android":"levelo://app?vid=f02f1e0e-8668-48b5-ac87-5bdd73e35314","ios":"levelo://app?vid=f02f1e0e-8668-48b5-ac87-5bdd73e35314"},"vehicle_type_id":"4","last_reported":1712340563,"current_range_meters":13600,"station_id":"ce4bgt12rcd13ifvqcd0","pricing_plan_id":"cebpf4jnsgd1na2vs0mg"},{"bike_id":"00b3c5e3-2a97-415b-83f9-58a720499332","system_id":"levelo_inurba_marseille","lat":43.314811,"lon":5.373103,"is_reserved":false,"is_disabled":false,"rental_uris":{"android":"levelo://app?vid=00b3c5e3-2a97-415b-83f9-58a720499332","ios":"levelo://app?vid=00b3c5e3-2a97-415b-83f9-58a720499332"},"vehicle_type_id":"4","last_reported":1712340563,"current_range_meters":1200,"station_id":"ce4bgt12rcd13ifvqcd0","pricing_plan_id":"cebpf4jnsgd1na2vs0mg"},{"bike_id":"cdc0c688-b74a-4fac-97f1-9b87d231c943","system_id":"levelo_inurba_marseille","lat":43.314811,"lon":5.373103,"is_reserved":false,"is_disabled":false,"rental_uris":{"android":"levelo://app?vid=cdc0c688-b74a-4fac-97f1-9b87d231c943","ios":"levelo://app?vid=cdc0c688-b74a-4fac-97f1-9b87d231c943"},"vehicle_type_id":"4","last_reported":1712340563,"current_range_meters":19200,"station_id":"ce4bgt12rcd13ifvqcd0","pricing_plan_id":"cebpf4jnsgd1na2vs0mg"},{"bike_id":"657f4410-418c-4825-99f1-8fa3c82ad611","system_id":"levelo_inurba_marseille","lat":43.314811,"lon":5.373104,"is_reserved":false,"is_disabled":false,"rental_uris":{"android":"levelo://app?vid=657f4410-418c-4825-99f1-8fa3c82ad611","ios":"levelo://app?vid=657f4410-418c-4825-99f1-8fa3c82ad611"},"vehicle_type_id":"4","last_reported":1712340563,"current_range_meters":1600,"station_id":"ce4bgt12rcd13ifvqcd0","pricing_plan_id":"cebpf4jnsgd1na2vs0mg"},{"bike_id":"c1f28705-e745-47a4-9fdb-ca12ad1398f0","system_id":"levelo_inurba_marseille","lat":43.309034,"lon":5.371783,"is_reserved":false,"is_disabled":false,"rental_uris":{"android":"levelo://app?vid=c1f28705-e745-47a4-9fdb-ca12ad1398f0","ios":"levelo://app?vid=c1f28705-e745-47a4-9fdb-ca12ad1398f0"},"vehicle_type_id":"4","last_reported":1712340563,"current_range_meters":0,"station_id":"ce4bguh2rcd13ifvqckg","pricing_plan_id":"cebpf4jnsgd1na2vs0mg"},{"bike_id":"4a70e619-6bee-468c-9d22-219a9805b171","system_id":"levelo_inurba_marseille","lat":43.305368,"lon":5.367343,"is_reserved":false,"is_disabled":false,"rental_uris":{"android":"levelo://app?vid=4a70e619-6bee-468c-9d22-219a9805b171","ios":"levelo://app?vid=4a70e619-6bee-468c-9d22-219a9805b171"},"vehicle_type_id":"4","last_reported":1712340563,"current_range_meters":14400,"station_id":"ce4bgrp2rcd13ifvqc9g","pricing_plan_id":"cebpf4jnsgd1na2vs0mg"},{"bike_id":"0c9a903e-0fcc-430f-b932-424fe943c046","system_id":"levelo_inurba_marseille","lat":43.31121,"lon":5.377645,"is_reserved":false,"is_disabled":false,"rental_uris":{"android":"levelo://app?vid=0c9a903e-0fcc-430f-b932-424fe943c046","ios":"levelo://app?vid=0c9a903e-0fcc-430f-b932-424fe943c046"},"vehicle_type_id":"4","last_reported":1712340563,"current_range_meters":0,"station_id":"ce4bgt92rcd13ifvqcg0","pricing_plan_id":"cebpf4jnsgd1na2vs0mg"},{"bike_id":"2a0e1734-9893-4751-96e6-ee5c9a95810e","system_id":"levelo_inurba_marseille","lat":43.311131,"lon":5.377651,"is_reserved":false,"is_disabled":false,"rental_uris":{"android":"levelo://app?vid=2a0e1734-9893-4751-96e6-ee5c9a95810e","ios":"levelo://app?vid=2a0e1734-9893-4751-96e6-ee5c9a95810e"},"vehicle_type_id":"4","last_reported":1712340563,"current_range_meters":0,"station_id":"ce4bgt92rcd13ifvqcg0","pricing_plan_id":"cebpf4jnsgd1na2vs0mg"},{"bike_id":"48c95726-47b5-4598-82ec-6767f267ea77","system_id":"levelo_inurba_marseille","lat":43.3047,"lon":5.36842,"is_reserved":false,"is_disabled":false,"rental_uris":{"android":"levelo://app?vid=48c95726-47b5-4598-82ec-6767f267ea77","ios":"levelo://app?vid=48c95726-47b5-4598-82ec-6767f267ea77"},"vehicle_type_id":"4","last_reported":1712340563,"current_range_meters":400,"station_id":"","pricing_plan_id":"cebpf4jnsgd1na2vs0mg"},{"bike_id":"442ec3dd-edf0-45b7-9ddf-1369d03733fb","system_id":"levelo_inurba_marseille","lat":43.307945,"lon":5.376487,"is_reserved":false,"is_disabled":false,"rental_uris":{"android":"levelo://app?vid=442ec3dd-edf0-45b7-9ddf-1369d03733fb","ios":"levelo://app?vid=442ec3dd-edf0-45b7-9ddf-1369d03733fb"},"vehicle_type_id":"4","last_reported":1712340563,"current_range_meters":0,"station_id":"ce4bgv92rcd13ifvqcq0","pricing_plan_id":"cebpf4jnsgd1na2vs0mg"},{"bike_id":"5a548eec-e829-48fb-b397-60ff3a1e0a80","system_id":"levelo_inurba_marseille","lat":43.317075,"lon":5.377367,"is_reserved":false,"is_disabled":false,"rental_uris":{"android":"levelo://app?vid=5a548eec-e829-48fb-b397-60ff3a1e0a80","ios":"levelo://app?vid=5a548eec-e829-48fb-b397-60ff3a1e0a80"},"vehicle_type_id":"4","last_reported":1712340563,"current_range_meters":0,"station_id":"ce4bgth2rcd13ifvqch0","pricing_plan_id":"cebpf4jnsgd1na2vs0mg"},{"bike_id":"bbfed310-f5ca-41c8-bf3a-f83cd6959697","system_id":"levelo_inurba_marseille","lat":43.313254,"lon":5.37881,"is_reserved":false,"is_disabled":false,"rental_uris":{"android":"levelo://app?vid=bbfed310-f5ca-41c8-bf3a-f83cd6959697","ios":"levelo://app?vid=bbfed310-f5ca-41c8-bf3a-f83cd6959697"},"vehicle_type_id":"4","last_reported":1712340563,"current_range_meters":4400,"station_id":"","pricing_plan_id":"cebpf4jnsgd1na2vs0mg"},{"bike_id":"538c02de-05b0-424e-8d40-87f24b26eb0e","system_id":"levelo_inurba_marseille","lat":43.317075,"lon":5.377367,"is_reserved":false,"is_disabled":false,"rental_uris":{"android":"levelo://app?vid=538c02de-05b0-424e-8d40-87f24b26eb0e","ios":"levelo://app?vid=538c02de-05b0-424e-8d40-87f24b26eb0e"},"vehicle_type_id":"4","last_reported":1712340563,"current_range_meters":8800,"station_id":"ce4bgth2rcd13ifvqch0","pricing_plan_id":"cebpf4jnsgd1na2vs0mg"},{"bike_id":"0738c54f-e47c-4ab6-8144-a38189daef21","system_id":"levelo_inurba_marseille","lat":43.317075,"lon":5.377367,"is_reserved":false,"is_disabled":false,"rental_uris":{"android":"levelo://app?vid=0738c54f-e47c-4ab6-8144-a38189daef21","ios":"levelo://app?vid=0738c54f-e47c-4ab6-8144-a38189daef21"},"vehicle_type_id":"4","last_reported":1712340563,"current_range_meters":4000,"station_id":"ce4bgth2rcd13ifvqch0","pricing_plan_id":"cebpf4jnsgd1na2vs0mg"},{"bike_id":"7994965a-8f1d-4b10-9b5b-de85eb9f6eab","system_id":"levelo_inurba_marseille","lat":43.317075,"lon":5.377367,"is_reserved":false,"is_disabled":false,"rental_uris":{"android":"levelo://app?vid=7994965a-8f1d-4b10-9b5b-de85eb9f6eab","ios":"levelo://app?vid=7994965a-8f1d-4b10-9b5b-de85eb9f6eab"},"vehicle_type_id":"4","last_reported":1712340563,"current_range_meters":17200,"station_id":"ce4bgth2rcd13ifvqch0","pricing_plan_id":"cebpf4jnsgd1na2vs0mg"},{"bike_id":"4a496ff7-26ba-4480-b5c3-c9bfacf251da","system_id":"levelo_inurba_marseille","lat":43.317075,"lon":5.377367,"is_reserved":false,"is_disabled":false,"rental_uris":{"android":"levelo://app?vid=4a496ff7-26ba-4480-b5c3-c9bfacf251da","ios":"levelo://app?vid=4a496ff7-26ba-4480-b5c3-c9bfacf251da"},"vehicle_type_id":"4","last_reported":1712340563,"current_range_meters":12800,"station_id":"ce4bgth2rcd13ifvqch0","pricing_plan_id":"cebpf4jnsgd1na2vs0mg"},{"bike_id":"444cc6e2-6738-4453-877c-dd75392c97e9","system_id":"levelo_inurba_marseille","lat":43.317075,"lon":5.377367,"is_reserved":false,"is_disabled":false,"rental_uris":{"android":"levelo://app?vid=444cc6e2-6738-4453-877c-dd75392c97e9","ios":"levelo://app?vid=444cc6e2-6738-4453-877c-dd75392c97e9"},"vehicle_type_id":"4","last_reported":1712340563,"current_range_meters":28400,"station_id":"ce4bgth2rcd13ifvqch0","pricing_plan_id":"cebpf4jnsgd1na2vs0mg"},{"bike_id":"6e93843d-a0da-4661-91dc-bf6308963369","system_id":"levelo_inurba_marseille","lat":43.30304,"lon":5.368987,"is_reserved":false,"is_disabled":false,"rental_uris":{"android":"levelo://app?vid=6e93843d-a0da-4661-91dc-bf6308963369","ios":"levelo://app?vid=6e93843d-a0da-4661-91dc-bf6308963369"},"vehicle_type_id":"4","last_reported":1712340563,"current_range_meters":4000,"station_id":"ce4bgqh2rcd13ifvqc5g","pricing_plan_id":"cebpf4jnsgd1na2vs0mg"},{"bike_id":"eb6330f6-206f-4e15-8b7c-2bb4897691ce","system_id":"levelo_inurba_marseille","lat":43.30304,"lon":5.368987,"is_reserved":false,"is_disabled":false,"rental_uris":{"android":"levelo://app?vid=eb6330f6-206f-4e15-8b7c-2bb4897691ce","ios":"levelo://app?vid=eb6330f6-206f-4e15-8b7c-2bb4897691ce"},"vehicle_type_id":"4","last_reported":1712340563,"current_range_meters":10000,"station_id":"ce4bgqh2rcd13ifvqc5g","pricing_plan_id":"cebpf4jnsgd1na2vs0mg"},{"bike_id":"1179b424-e642-4cc9-8eef-6573e93ba9dd","system_id":"levelo_inurba_marseille","lat":43.302957,"lon":5.372327,"is_reserved":false,"is_disabled":false,"rental_uris":{"android":"levelo://app?vid=1179b424-e642-4cc9-8eef-6573e93ba9dd","ios":"levelo://app?vid=1179b424-e642-4cc9-8eef-6573e93ba9dd"},"vehicle_type_id":"4","last_reported":1712340563,"current_range_meters":0,"station_id":"","pricing_plan_id":"cebpf4jnsgd1na2vs0mg"},{"bike_id":"b252d7a5-b6b0-4baf-8be4-5ef89a241489","system_id":"levelo_inurba_marseille","lat":43.301939,"lon":5.366286,"is_reserved":false,"is_disabled":false,"rental_uris":{"android":"levelo://app?vid=b252d7a5-b6b0-4baf-8be4-5ef89a241489","ios":"levelo://app?vid=b252d7a5-b6b0-4baf-8be4-5ef89a241489"},"vehicle_type_id":"4","last_reported":1712340563,"current_range_meters":1600,"station_id":"ce4bgrh2rcd13ifvqc8g","pricing_plan_id":"cebpf4jnsgd1na2vs0mg"},{"bike_id":"4c275306-8bb4-40ac-bc99-70f7e0d82482","system_id":"levelo_inurba_marseille","lat":43.301939,"lon":5.366286,"is_reserved":false,"is_disabled":false,"rental_uris":{"android":"levelo://app?vid=4c275306-8bb4-40ac-bc99-70f7e0d82482","ios":"levelo://app?vid=4c275306-8bb4-40ac-bc99-70f7e0d82482"},"vehicle_type_id":"4","last_reported":1712340563,"current_range_meters":12000,"station_id":"ce4bgrh2rcd13ifvqc8g","pricing_plan_id":"cebpf4jnsgd1na2vs0mg"},{"bike_id":"b217420d-1704-49bf-b44b-963672e9c421","system_id":"levelo_inurba_marseille","lat":43.301833,"lon":5.366107,"is_reserved":false,"is_disabled":false,"rental_uris":{"android":"levelo://app?vid=b217420d-1704-49bf-b44b-963672e9c421","ios":"levelo://app?vid=b217420d-1704-49bf-b44b-963672e9c421"},"vehicle_type_id":"4","last_reported":1712340563,"current_range_meters":0,"station_id":"ce4bgrh2rcd13ifvqc8g","pricing_plan_id":"cebpf4jnsgd1na2vs0mg"},{"bike_id":"117cda85-54d2-4718-8bc1-8b8be36cc2e5","system_id":"levelo_inurba_marseille","lat":43.308012,"lon":5.381511,"is_reserved":false,"is_disabled":false,"rental_uris":{"android":"levelo://app?vid=117cda85-54d2-4718-8bc1-8b8be36cc2e5","ios":"levelo://app?vid=117cda85-54d2-4718-8bc1-8b8be36cc2e5"},"vehicle_type_id":"4","last_reported":1712340563,"current_range_meters":0,"station_id":"ce4bgt12rcd13ifvqce0","pricing_plan_id":"cebpf4jnsgd1na2vs0mg"},{"bike_id":"7bf5d164-4c07-45cf-8245-2474d8a99266","system_id":"levelo_inurba_marseille","lat":43.32323,"lon":5.37425,"is_reserved":false,"is_disabled":false,"rental_uris":{"android":"levelo://app?vid=7bf5d164-4c07-45cf-8245-2474d8a99266","ios":"levelo://app?vid=7bf5d164-4c07-45cf-8245-2474d8a99266"},"vehicle_type_id":"4","last_reported":1712340563,"current_range_meters":16400,"station_id":"","pricing_plan_id":"cebpf4jnsgd1na2vs0mg"},{"bike_id":"d2a54c7d-ed98-483a-a753-0d2e702bc4b2","system_id":"levelo_inurba_marseille","lat":43.304777,"lon":5.379131,"is_reserved":false,"is_disabled":false,"rental_uris":{"android":"levelo://app?vid=d2a54c7d-ed98-483a-a753-0d2e702bc4b2","ios":"levelo://app?vid=d2a54c7d-ed98-483a-a753-0d2e702bc4b2"},"vehicle_type_id":"4","last_reported":1712340563,"current_range_meters":0,"station_id":"ce4bgup2rcd13ifvqcn0","pricing_plan_id":"cebpf4jnsgd1na2vs0mg"},{"bike_id":"97d99041-02d5-41ec-89cb-063483d3cfea","system_id":"levelo_inurba_marseille","lat":43.302759,"lon":5.400793,"is_reserved":false,"is_disabled":false,"rental_uris":{"android":"levelo://app?vid=97d99041-02d5-41ec-89cb-063483d3cfea","ios":"levelo://app?vid=97d99041-02d5-41ec-89cb-063483d3cfea"},"vehicle_type_id":"4","last_reported":1712340563,"current_range_meters":800,"station_id":"ce4bgvh2rcd13ifvqcs0","pricing_plan_id":"cebpf4jnsgd1na2vs0mg"},{"bike_id":"3db5eb68-5901-4ec2-a28a-a4af9eff71a2","system_id":"levelo_inurba_marseille","lat":43.30453,"lon":5.37905,"is_reserved":false,"is_disabled":false,"rental_uris":{"android":"levelo://app?vid=3db5eb68-5901-4ec2-a28a-a4af9eff71a2","ios":"levelo://app?vid=3db5eb68-5901-4ec2-a28a-a4af9eff71a2"},"vehicle_type_id":"4","last_reported":1712340563,"current_range_meters":0,"station_id":"ce4bgup2rcd13ifvqcn0","pricing_plan_id":"cebpf4jnsgd1na2vs0mg"},{"bike_id":"7c7a7e67-eb9a-496b-8455-2147a8a53299","system_id":"levelo_inurba_marseille","lat":43.304578,"lon":5.379127,"is_reserved":false,"is_disabled":false,"rental_uris":{"android":"levelo://app?vid=7c7a7e67-eb9a-496b-8455-2147a8a53299","ios":"levelo://app?vid=7c7a7e67-eb9a-496b-8455-2147a8a53299"},"vehicle_type_id":"4","last_reported":1712340563,"current_range_meters":7600,"station_id":"ce4bh692rcd13ifvqea0","pricing_plan_id":"cebpf4jnsgd1na2vs0mg"},{"bike_id":"f068cb47-965e-4bbb-ba72-9c43db08334a","system_id":"levelo_inurba_marseille","lat":43.324771,"lon":5.36557,"is_reserved":false,"is_disabled":false,"rental_uris":{"android":"levelo://app?vid=f068cb47-965e-4bbb-ba72-9c43db08334a","ios":"levelo://app?vid=f068cb47-965e-4bbb-ba72-9c43db08334a"},"vehicle_type_id":"4","last_reported":1712340563,"current_range_meters":12400,"station_id":"ce4bhs12rcd13ifvqhvg","pricing_plan_id":"cebpf4jnsgd1na2vs0mg"},{"bike_id":"019a0c31-2bd2-44ad-957e-60a7f3d7cbd9","system_id":"levelo_inurba_marseille","lat":43.30447,"lon":5.37908,"is_reserved":false,"is_disabled":false,"rental_uris":{"android":"levelo://app?vid=019a0c31-2bd2-44ad-957e-60a7f3d7cbd9","ios":"levelo://app?vid=019a0c31-2bd2-44ad-957e-60a7f3d7cbd9"},"vehicle_type_id":"4","last_reported":1712340563,"current_range_meters":0,"station_id":"ce4bgup2rcd13ifvqcn0","pricing_plan_id":"cebpf4jnsgd1na2vs0mg"},{"bike_id":"bf994b08-9e12-459b-87d9-40eb153fee5e","system_id":"levelo_inurba_marseille","lat":43.31067,"lon":5.383416,"is_reserved":false,"is_disabled":false,"rental_uris":{"android":"levelo://app?vid=bf994b08-9e12-459b-87d9-40eb153fee5e","ios":"levelo://app?vid=bf994b08-9e12-459b-87d9-40eb153fee5e"},"vehicle_type_id":"4","last_reported":1712340563,"current_range_meters":0,"station_id":"ce4bgv92rcd13ifvqcr0","pricing_plan_id":"cebpf4jnsgd1na2vs0mg"},{"bike_id":"cf40ade9-f4d5-468a-9d89-88dfb93d8ae6","system_id":"levelo_inurba_marseille","lat":43.317075,"lon":5.377367,"is_reserved":false,"is_disabled":false,"rental_uris":{"android":"levelo://app?vid=cf40ade9-f4d5-468a-9d89-88dfb93d8ae6","ios":"levelo://app?vid=cf40ade9-f4d5-468a-9d89-88dfb93d8ae6"},"vehicle_type_id":"4","last_reported":1712340563,"current_range_meters":7200,"station_id":"ce4bgth2rcd13ifvqch0","pricing_plan_id":"cebpf4jnsgd1na2vs0mg"},{"bike_id":"99ebec1c-904a-489a-8ab2-79bfa325fb5b","system_id":"levelo_inurba_marseille","lat":43.310804,"lon":5.38359,"is_reserved":false,"is_disabled":false,"rental_uris":{"android":"levelo://app?vid=99ebec1c-904a-489a-8ab2-79bfa325fb5b","ios":"levelo://app?vid=99ebec1c-904a-489a-8ab2-79bfa325fb5b"},"vehicle_type_id":"4","last_reported":1712340563,"current_range_meters":14000,"station_id":"ce4bgv92rcd13ifvqcr0","pricing_plan_id":"cebpf4jnsgd1na2vs0mg"},{"bike_id":"48412429-161d-414e-8ad9-a34a3002915f","system_id":"levelo_inurba_marseille","lat":43.31069,"lon":5.38362,"is_reserved":false,"is_disabled":false,"rental_uris":{"android":"levelo://app?vid=48412429-161d-414e-8ad9-a34a3002915f","ios":"levelo://app?vid=48412429-161d-414e-8ad9-a34a3002915f"},"vehicle_type_id":"4","last_reported":1712340563,"current_range_meters":0,"station_id":"ce4bgv92rcd13ifvqcr0","pricing_plan_id":"cebpf4jnsgd1na2vs0mg"},{"bike_id":"4c599715-521a-4087-96e2-143fd894954e","system_id":"levelo_inurba_marseille","lat":43.302784,"lon":5.377158,"is_reserved":false,"is_disabled":false,"rental_uris":{"android":"levelo://app?vid=4c599715-521a-4087-96e2-143fd894954e","ios":"levelo://app?vid=4c599715-521a-4087-96e2-143fd894954e"},"vehicle_type_id":"4","last_reported":1712340563,"current_range_meters":21600,"station_id":"ce4bguh2rcd13ifvqcj0","pricing_plan_id":"cebpf4jnsgd1na2vs0mg"},{"bike_id":"f6c92934-8666-40dd-a110-b530dd1f9470","system_id":"levelo_inurba_marseille","lat":43.319935,"lon":5.381699,"is_reserved":false,"is_disabled":false,"rental_uris":{"android":"levelo://app?vid=f6c92934-8666-40dd-a110-b530dd1f9470","ios":"levelo://app?vid=f6c92934-8666-40dd-a110-b530dd1f9470"},"vehicle_type_id":"4","last_reported":1712340563,"current_range_meters":2000,"station_id":"ce4bhr12rcd13ifvqhpg","pricing_plan_id":"cebpf4jnsgd1na2vs0mg"},{"bike_id":"da4af5c6-73c2-4738-9a2d-cc0c250b8563","system_id":"levelo_inurba_marseille","lat":43.31993,"lon":5.3815,"is_reserved":false,"is_disabled":false,"rental_uris":{"android":"levelo://app?vid=da4af5c6-73c2-4738-9a2d-cc0c250b8563","ios":"levelo://app?vid=da4af5c6-73c2-4738-9a2d-cc0c250b8563"},"vehicle_type_id":"4","last_reported":1712340563,"current_range_meters":3600,"station_id":"ce4bhr12rcd13ifvqhpg","pricing_plan_id":"cebpf4jnsgd1na2vs0mg"},{"bike_id":"6482488a-baa7-4b18-babc-ebcf4ca26a36","system_id":"levelo_inurba_marseille","lat":43.319935,"lon":5.381699,"is_reserved":false,"is_disabled":false,"rental_uris":{"android":"levelo://app?vid=6482488a-baa7-4b18-babc-ebcf4ca26a36","ios":"levelo://app?vid=6482488a-baa7-4b18-babc-ebcf4ca26a36"},"vehicle_type_id":"4","last_reported":1712340563,"current_range_meters":2400,"station_id":"ce4bhr12rcd13ifvqhpg","pricing_plan_id":"cebpf4jnsgd1na2vs0mg"},{"bike_id":"d2d03f1d-564d-43fb-a48d-fec0e34f1cde","system_id":"levelo_inurba_marseille","lat":43.319935,"lon":5.381699,"is_reserved":false,"is_disabled":false,"rental_uris":{"android":"levelo://app?vid=d2d03f1d-564d-43fb-a48d-fec0e34f1cde","ios":"levelo://app?vid=d2d03f1d-564d-43fb-a48d-fec0e34f1cde"},"vehicle_type_id":"4","last_reported":1712340563,"current_range_meters":16000,"station_id":"ce4bhr12rcd13ifvqhpg","pricing_plan_id":"cebpf4jnsgd1na2vs0mg"},{"bike_id":"03b22978-e23f-4a8a-9365-da6acdb60b49","system_id":"levelo_inurba_marseille","lat":43.319935,"lon":5.381699,"is_reserved":false,"is_disabled":false,"rental_uris":{"android":"levelo://app?vid=03b22978-e23f-4a8a-9365-da6acdb60b49","ios":"levelo://app?vid=03b22978-e23f-4a8a-9365-da6acdb60b49"},"vehicle_type_id":"4","last_reported":1712340563,"current_range_meters":6400,"station_id":"ce4bhr12rcd13ifvqhpg","pricing_plan_id":"cebpf4jnsgd1na2vs0mg"},{"bike_id":"5b07c063-eb23-4950-bdea-6d49a51d9fb4","system_id":"levelo_inurba_marseille","lat":43.3135,"lon":5.385,"is_reserved":false,"is_disabled":false,"rental_uris":{"android":"levelo://app?vid=5b07c063-eb23-4950-bdea-6d49a51d9fb4","ios":"levelo://app?vid=5b07c063-eb23-4950-bdea-6d49a51d9fb4"},"vehicle_type_id":"4","last_reported":1712340563,"current_range_meters":2000,"station_id":"ce4bgt92rcd13ifvqcf0","pricing_plan_id":"cebpf4jnsgd1na2vs0mg"},{"bike_id":"5c713080-a34f-478d-a605-26dc9768b27b","system_id":"levelo_inurba_marseille","lat":43.31358,"lon":5.385,"is_reserved":false,"is_disabled":false,"rental_uris":{"android":"levelo://app?vid=5c713080-a34f-478d-a605-26dc9768b27b","ios":"levelo://app?vid=5c713080-a34f-478d-a605-26dc9768b27b"},"vehicle_type_id":"4","last_reported":1712340563,"current_range_meters":0,"station_id":"ce4bgt92rcd13ifvqcf0","pricing_plan_id":"cebpf4jnsgd1na2vs0mg"},{"bike_id":"55d36624-4799-4f8a-a112-e62d6c7ecda2","system_id":"levelo_inurba_marseille","lat":43.299448,"lon":5.372163,"is_reserved":false,"is_disabled":false,"rental_uris":{"android":"levelo://app?vid=55d36624-4799-4f8a-a112-e62d6c7ecda2","ios":"levelo://app?vid=55d36624-4799-4f8a-a112-e62d6c7ecda2"},"vehicle_type_id":"4","last_reported":1712340563,"current_range_meters":0,"station_id":"ce4bgr92rcd13ifvqc7g","pricing_plan_id":"cebpf4jnsgd1na2vs0mg"},{"bike_id":"61c7ad58-4521-4ebc-92d7-b8d44ffa6261","system_id":"levelo_inurba_marseille","lat":43.299243,"lon":5.374807,"is_reserved":false,"is_disabled":false,"rental_uris":{"android":"levelo://app?vid=61c7ad58-4521-4ebc-92d7-b8d44ffa6261","ios":"levelo://app?vid=61c7ad58-4521-4ebc-92d7-b8d44ffa6261"},"vehicle_type_id":"4","last_reported":1712340563,"current_range_meters":0,"station_id":"ce4bgjh2rcd13ifvqbg0","pricing_plan_id":"cebpf4jnsgd1na2vs0mg"},{"bike_id":"bab7ce7d-1c78-4d70-8795-5fcaa5ed1960","system_id":"levelo_inurba_marseille","lat":43.300852,"lon":5.390859,"is_reserved":false,"is_disabled":false,"rental_uris":{"android":"levelo://app?vid=bab7ce7d-1c78-4d70-8795-5fcaa5ed1960","ios":"levelo://app?vid=bab7ce7d-1c78-4d70-8795-5fcaa5ed1960"},"vehicle_type_id":"4","last_reported":1712340563,"current_range_meters":3600,"station_id":"ce4bh192rcd13ifvqdb0","pricing_plan_id":"cebpf4jnsgd1na2vs0mg"},{"bike_id":"d0090b0b-b7ce-4231-a436-3236929d8028","system_id":"levelo_inurba_marseille","lat":43.322872,"lon":5.382756,"is_reserved":false,"is_disabled":false,"rental_uris":{"android":"levelo://app?vid=d0090b0b-b7ce-4231-a436-3236929d8028","ios":"levelo://app?vid=d0090b0b-b7ce-4231-a436-3236929d8028"},"vehicle_type_id":"4","last_reported":1712340563,"current_range_meters":16000,"station_id":"ce4bhr12rcd13ifvqhqg","pricing_plan_id":"cebpf4jnsgd1na2vs0mg"},{"bike_id":"68429282-a577-4dd3-b446-806f0ff86c83","system_id":"levelo_inurba_marseille","lat":43.322872,"lon":5.382756,"is_reserved":false,"is_disabled":false,"rental_uris":{"android":"levelo://app?vid=68429282-a577-4dd3-b446-806f0ff86c83","ios":"levelo://app?vid=68429282-a577-4dd3-b446-806f0ff86c83"},"vehicle_type_id":"4","last_reported":1712340563,"current_range_meters":13200,"station_id":"ce4bhr12rcd13ifvqhqg","pricing_plan_id":"cebpf4jnsgd1na2vs0mg"},{"bike_id":"12868420-cd43-4d41-9cd6-9b5eadd40bbb","system_id":"levelo_inurba_marseille","lat":43.322872,"lon":5.382756,"is_reserved":false,"is_disabled":false,"rental_uris":{"android":"levelo://app?vid=12868420-cd43-4d41-9cd6-9b5eadd40bbb","ios":"levelo://app?vid=12868420-cd43-4d41-9cd6-9b5eadd40bbb"},"vehicle_type_id":"4","last_reported":1712340563,"current_range_meters":31600,"station_id":"ce4bhr12rcd13ifvqhqg","pricing_plan_id":"cebpf4jnsgd1na2vs0mg"},{"bike_id":"760cbcdc-c3dd-40c6-8fa4-2b83a3911ea4","system_id":"levelo_inurba_marseille","lat":43.322872,"lon":5.382756,"is_reserved":false,"is_disabled":false,"rental_uris":{"android":"levelo://app?vid=760cbcdc-c3dd-40c6-8fa4-2b83a3911ea4","ios":"levelo://app?vid=760cbcdc-c3dd-40c6-8fa4-2b83a3911ea4"},"vehicle_type_id":"4","last_reported":1712340563,"current_range_meters":16400,"station_id":"ce4bhr12rcd13ifvqhqg","pricing_plan_id":"cebpf4jnsgd1na2vs0mg"},{"bike_id":"33b985e8-b6d8-4ea8-84fd-34b0b614d5e3","system_id":"levelo_inurba_marseille","lat":43.322872,"lon":5.382756,"is_reserved":false,"is_disabled":false,"rental_uris":{"android":"levelo://app?vid=33b985e8-b6d8-4ea8-84fd-34b0b614d5e3","ios":"levelo://app?vid=33b985e8-b6d8-4ea8-84fd-34b0b614d5e3"},"vehicle_type_id":"4","last_reported":1712340563,"current_range_meters":21200,"station_id":"ce4bhr12rcd13ifvqhqg","pricing_plan_id":"cebpf4jnsgd1na2vs0mg"},{"bike_id":"dad8de42-b10d-4ad4-b426-d0016e89d810","system_id":"levelo_inurba_marseille","lat":43.322872,"lon":5.382756,"is_reserved":false,"is_disabled":false,"rental_uris":{"android":"levelo://app?vid=dad8de42-b10d-4ad4-b426-d0016e89d810","ios":"levelo://app?vid=dad8de42-b10d-4ad4-b426-d0016e89d810"},"vehicle_type_id":"4","last_reported":1712340563,"current_range_meters":22000,"station_id":"ce4bhr12rcd13ifvqhqg","pricing_plan_id":"cebpf4jnsgd1na2vs0mg"},{"bike_id":"3f2835e5-a51e-4529-8eba-48f6b95ac4a9","system_id":"levelo_inurba_marseille","lat":43.322872,"lon":5.382756,"is_reserved":false,"is_disabled":false,"rental_uris":{"android":"levelo://app?vid=3f2835e5-a51e-4529-8eba-48f6b95ac4a9","ios":"levelo://app?vid=3f2835e5-a51e-4529-8eba-48f6b95ac4a9"},"vehicle_type_id":"4","last_reported":1712340563,"current_range_meters":20800,"station_id":"ce4bhr12rcd13ifvqhqg","pricing_plan_id":"cebpf4jnsgd1na2vs0mg"},{"bike_id":"f9cbb650-aadf-49f6-a3e7-b397f3d0f9e2","system_id":"levelo_inurba_marseille","lat":43.322872,"lon":5.382756,"is_reserved":false,"is_disabled":false,"rental_uris":{"android":"levelo://app?vid=f9cbb650-aadf-49f6-a3e7-b397f3d0f9e2","ios":"levelo://app?vid=f9cbb650-aadf-49f6-a3e7-b397f3d0f9e2"},"vehicle_type_id":"4","last_reported":1712340563,"current_range_meters":10000,"station_id":"ce4bhr12rcd13ifvqhqg","pricing_plan_id":"cebpf4jnsgd1na2vs0mg"},{"bike_id":"a53d3985-9e33-437a-9979-77b9c3f817ac","system_id":"levelo_inurba_marseille","lat":43.322872,"lon":5.382756,"is_reserved":false,"is_disabled":false,"rental_uris":{"android":"levelo://app?vid=a53d3985-9e33-437a-9979-77b9c3f817ac","ios":"levelo://app?vid=a53d3985-9e33-437a-9979-77b9c3f817ac"},"vehicle_type_id":"4","last_reported":1712340563,"current_range_meters":6000,"station_id":"ce4bhr12rcd13ifvqhqg","pricing_plan_id":"cebpf4jnsgd1na2vs0mg"},{"bike_id":"d9d0fad4-bb5e-4fd7-aa14-bc36fdd7e62b","system_id":"levelo_inurba_marseille","lat":43.322872,"lon":5.382756,"is_reserved":false,"is_disabled":false,"rental_uris":{"android":"levelo://app?vid=d9d0fad4-bb5e-4fd7-aa14-bc36fdd7e62b","ios":"levelo://app?vid=d9d0fad4-bb5e-4fd7-aa14-bc36fdd7e62b"},"vehicle_type_id":"4","last_reported":1712340563,"current_range_meters":15200,"station_id":"ce4bhr12rcd13ifvqhqg","pricing_plan_id":"cebpf4jnsgd1na2vs0mg"},{"bike_id":"c78e3508-ec59-44b9-b552-66f435a0864b","system_id":"levelo_inurba_marseille","lat":43.322872,"lon":5.382756,"is_reserved":false,"is_disabled":false,"rental_uris":{"android":"levelo://app?vid=c78e3508-ec59-44b9-b552-66f435a0864b","ios":"levelo://app?vid=c78e3508-ec59-44b9-b552-66f435a0864b"},"vehicle_type_id":"4","last_reported":1712340563,"current_range_meters":31600,"station_id":"ce4bhr12rcd13ifvqhqg","pricing_plan_id":"cebpf4jnsgd1na2vs0mg"},{"bike_id":"13f314f6-ce2c-4f4c-8e69-676e19c8f775","system_id":"levelo_inurba_marseille","lat":43.322872,"lon":5.382756,"is_reserved":false,"is_disabled":false,"rental_uris":{"android":"levelo://app?vid=13f314f6-ce2c-4f4c-8e69-676e19c8f775","ios":"levelo://app?vid=13f314f6-ce2c-4f4c-8e69-676e19c8f775"},"vehicle_type_id":"4","last_reported":1712340563,"current_range_meters":10800,"station_id":"ce4bhr12rcd13ifvqhqg","pricing_plan_id":"cebpf4jnsgd1na2vs0mg"},{"bike_id":"d0f919a2-8232-4c3d-9ee8-3058217ec4fa","system_id":"levelo_inurba_marseille","lat":43.297163,"lon":5.365866,"is_reserved":false,"is_disabled":false,"rental_uris":{"android":"levelo://app?vid=d0f919a2-8232-4c3d-9ee8-3058217ec4fa","ios":"levelo://app?vid=d0f919a2-8232-4c3d-9ee8-3058217ec4fa"},"vehicle_type_id":"4","last_reported":1712340563,"current_range_meters":800,"station_id":"ce4bgn12rcd13ifvqbt0","pricing_plan_id":"cebpf4jnsgd1na2vs0mg"},{"bike_id":"f350f8de-0d20-4172-ac5e-711eedcbd86c","system_id":"levelo_inurba_marseille","lat":43.313391,"lon":5.36706,"is_reserved":false,"is_disabled":false,"rental_uris":{"android":"levelo://app?vid=f350f8de-0d20-4172-ac5e-711eedcbd86c","ios":"levelo://app?vid=f350f8de-0d20-4172-ac5e-711eedcbd86c"},"vehicle_type_id":"4","last_reported":1712340563,"current_range_meters":8400,"station_id":"ce4bgr92rcd13ifvqc6g","pricing_plan_id":"cebpf4jnsgd1na2vs0mg"},{"bike_id":"21f80e5c-e4ea-47d5-a7af-7aa11ee0256f","system_id":"levelo_inurba_marseille","lat":43.29573,"lon":5.367355,"is_reserved":false,"is_disabled":false,"rental_uris":{"android":"levelo://app?vid=21f80e5c-e4ea-47d5-a7af-7aa11ee0256f","ios":"levelo://app?vid=21f80e5c-e4ea-47d5-a7af-7aa11ee0256f"},"vehicle_type_id":"4","last_reported":1712340563,"current_range_meters":18400,"station_id":"ce4bgph2rcd13ifvqc2g","pricing_plan_id":"cebpf4jnsgd1na2vs0mg"},{"bike_id":"e08813cb-bb0e-40ba-9d23-52158e219d97","system_id":"levelo_inurba_marseille","lat":43.299028,"lon":5.381509,"is_reserved":false,"is_disabled":false,"rental_uris":{"android":"levelo://app?vid=e08813cb-bb0e-40ba-9d23-52158e219d97","ios":"levelo://app?vid=e08813cb-bb0e-40ba-9d23-52158e219d97"},"vehicle_type_id":"4","last_reported":1712340563,"current_range_meters":23600,"station_id":"ce4bgj12rcd13ifvqbc0","pricing_plan_id":"cebpf4jnsgd1na2vs0mg"},{"bike_id":"9fef4695-53a7-4416-87cd-4e604ab087c6","system_id":"levelo_inurba_marseille","lat":43.31754,"lon":5.39017,"is_reserved":false,"is_disabled":false,"rental_uris":{"android":"levelo://app?vid=9fef4695-53a7-4416-87cd-4e604ab087c6","ios":"levelo://app?vid=9fef4695-53a7-4416-87cd-4e604ab087c6"},"vehicle_type_id":"4","last_reported":1712340563,"current_range_meters":7200,"station_id":"ce4bhqp2rcd13ifvqhng","pricing_plan_id":"cebpf4jnsgd1na2vs0mg"},{"bike_id":"71c78635-7107-46a8-bcd2-3f4d1ed0d02a","system_id":"levelo_inurba_marseille","lat":43.31753,"lon":5.3902,"is_reserved":false,"is_disabled":false,"rental_uris":{"android":"levelo://app?vid=71c78635-7107-46a8-bcd2-3f4d1ed0d02a","ios":"levelo://app?vid=71c78635-7107-46a8-bcd2-3f4d1ed0d02a"},"vehicle_type_id":"4","last_reported":1712340563,"current_range_meters":10000,"station_id":"ce4bhqp2rcd13ifvqhng","pricing_plan_id":"cebpf4jnsgd1na2vs0mg"},{"bike_id":"f8b18ce6-bc2b-4adb-8943-b35fb7bb0280","system_id":"levelo_inurba_marseille","lat":43.31759,"lon":5.39018,"is_reserved":false,"is_disabled":false,"rental_uris":{"android":"levelo://app?vid=f8b18ce6-bc2b-4adb-8943-b35fb7bb0280","ios":"levelo://app?vid=f8b18ce6-bc2b-4adb-8943-b35fb7bb0280"},"vehicle_type_id":"4","last_reported":1712340563,"current_range_meters":13600,"station_id":"ce4bhqp2rcd13ifvqhng","pricing_plan_id":"cebpf4jnsgd1na2vs0mg"},{"bike_id":"ec5623be-ef69-448a-b5f5-c0b093b66f68","system_id":"levelo_inurba_marseille","lat":43.317557,"lon":5.390173,"is_reserved":false,"is_disabled":false,"rental_uris":{"android":"levelo://app?vid=ec5623be-ef69-448a-b5f5-c0b093b66f68","ios":"levelo://app?vid=ec5623be-ef69-448a-b5f5-c0b093b66f68"},"vehicle_type_id":"4","last_reported":1712340563,"current_range_meters":3600,"station_id":"ce4bhqp2rcd13ifvqhng","pricing_plan_id":"cebpf4jnsgd1na2vs0mg"},{"bike_id":"81f9462a-73ce-4fc3-a764-4a798a45a7ec","system_id":"levelo_inurba_marseille","lat":43.298037,"lon":5.381066,"is_reserved":false,"is_disabled":false,"rental_uris":{"android":"levelo://app?vid=81f9462a-73ce-4fc3-a764-4a798a45a7ec","ios":"levelo://app?vid=81f9462a-73ce-4fc3-a764-4a798a45a7ec"},"vehicle_type_id":"4","last_reported":1712340563,"current_range_meters":7200,"station_id":"ce4bgip2rcd13ifvqbb0","pricing_plan_id":"cebpf4jnsgd1na2vs0mg"},{"bike_id":"3be3493a-0841-4619-8e0f-6c17d9163139","system_id":"levelo_inurba_marseille","lat":43.298037,"lon":5.381066,"is_reserved":false,"is_disabled":false,"rental_uris":{"android":"levelo://app?vid=3be3493a-0841-4619-8e0f-6c17d9163139","ios":"levelo://app?vid=3be3493a-0841-4619-8e0f-6c17d9163139"},"vehicle_type_id":"4","last_reported":1712340563,"current_range_meters":18000,"station_id":"ce4bgip2rcd13ifvqbb0","pricing_plan_id":"cebpf4jnsgd1na2vs0mg"},{"bike_id":"5f458a18-4b88-42e9-a10f-d0351586a5dd","system_id":"levelo_inurba_marseille","lat":43.298037,"lon":5.381066,"is_reserved":false,"is_disabled":false,"rental_uris":{"android":"levelo://app?vid=5f458a18-4b88-42e9-a10f-d0351586a5dd","ios":"levelo://app?vid=5f458a18-4b88-42e9-a10f-d0351586a5dd"},"vehicle_type_id":"4","last_reported":1712340563,"current_range_meters":4400,"station_id":"ce4bgip2rcd13ifvqbb0","pricing_plan_id":"cebpf4jnsgd1na2vs0mg"},{"bike_id":"a208f699-afda-426f-afde-20c07a74ea90","system_id":"levelo_inurba_marseille","lat":43.29577,"lon":5.37515,"is_reserved":false,"is_disabled":false,"rental_uris":{"android":"levelo://app?vid=a208f699-afda-426f-afde-20c07a74ea90","ios":"levelo://app?vid=a208f699-afda-426f-afde-20c07a74ea90"},"vehicle_type_id":"4","last_reported":1712340563,"current_range_meters":0,"station_id":"ce4bgh92rcd13ifvqb50","pricing_plan_id":"cebpf4jnsgd1na2vs0mg"},{"bike_id":"5a273842-f863-4a31-bf75-e84b20e3da2f","system_id":"levelo_inurba_marseille","lat":43.29572,"lon":5.37521,"is_reserved":false,"is_disabled":false,"rental_uris":{"android":"levelo://app?vid=5a273842-f863-4a31-bf75-e84b20e3da2f","ios":"levelo://app?vid=5a273842-f863-4a31-bf75-e84b20e3da2f"},"vehicle_type_id":"4","last_reported":1712340563,"current_range_meters":4800,"station_id":"ce4bgh92rcd13ifvqb50","pricing_plan_id":"cebpf4jnsgd1na2vs0mg"},{"bike_id":"5faea7fe-710a-458b-8df3-ebc492968164","system_id":"levelo_inurba_marseille","lat":43.296277,"lon":5.377108,"is_reserved":false,"is_disabled":false,"rental_uris":{"android":"levelo://app?vid=5faea7fe-710a-458b-8df3-ebc492968164","ios":"levelo://app?vid=5faea7fe-710a-458b-8df3-ebc492968164"},"vehicle_type_id":"4","last_reported":1712340563,"current_range_meters":28800,"station_id":"ce4bgi92rcd13ifvqb90","pricing_plan_id":"cebpf4jnsgd1na2vs0mg"},{"bike_id":"2211e886-81cc-4c76-a658-3c30c27f5fc8","system_id":"levelo_inurba_marseille","lat":43.29785,"lon":5.38107,"is_reserved":false,"is_disabled":false,"rental_uris":{"android":"levelo://app?vid=2211e886-81cc-4c76-a658-3c30c27f5fc8","ios":"levelo://app?vid=2211e886-81cc-4c76-a658-3c30c27f5fc8"},"vehicle_type_id":"4","last_reported":1712340563,"current_range_meters":0,"station_id":"ce4bgip2rcd13ifvqbb0","pricing_plan_id":"cebpf4jnsgd1na2vs0mg"},{"bike_id":"80bcd634-b669-4b1d-aef3-c272f54a7720","system_id":"levelo_inurba_marseille","lat":43.298037,"lon":5.381066,"is_reserved":false,"is_disabled":false,"rental_uris":{"android":"levelo://app?vid=80bcd634-b669-4b1d-aef3-c272f54a7720","ios":"levelo://app?vid=80bcd634-b669-4b1d-aef3-c272f54a7720"},"vehicle_type_id":"4","last_reported":1712340563,"current_range_meters":0,"station_id":"ce4bgip2rcd13ifvqbb0","pricing_plan_id":"cebpf4jnsgd1na2vs0mg"},{"bike_id":"138d25c0-8f2e-46b4-99d5-e3ad95f680bd","system_id":"levelo_inurba_marseille","lat":43.296277,"lon":5.377108,"is_reserved":false,"is_disabled":false,"rental_uris":{"android":"levelo://app?vid=138d25c0-8f2e-46b4-99d5-e3ad95f680bd","ios":"levelo://app?vid=138d25c0-8f2e-46b4-99d5-e3ad95f680bd"},"vehicle_type_id":"4","last_reported":1712340563,"current_range_meters":0,"station_id":"ce4bgi92rcd13ifvqb90","pricing_plan_id":"cebpf4jnsgd1na2vs0mg"},{"bike_id":"502ca9c7-012a-474a-8400-b7af7fab48a7","system_id":"levelo_inurba_marseille","lat":43.289743,"lon":5.378304,"is_reserved":false,"is_disabled":false,"rental_uris":{"android":"levelo://app?vid=502ca9c7-012a-474a-8400-b7af7fab48a7","ios":"levelo://app?vid=502ca9c7-012a-474a-8400-b7af7fab48a7"},"vehicle_type_id":"4","last_reported":1712340563,"current_range_meters":16000,"station_id":"ce4bh9p2rcd13ifvqed0","pricing_plan_id":"cebpf4jnsgd1na2vs0mg"},{"bike_id":"0aa9edc7-6204-4ba3-8550-23db0b3557e8","system_id":"levelo_inurba_marseille","lat":43.29608,"lon":5.37729,"is_reserved":false,"is_disabled":false,"rental_uris":{"android":"levelo://app?vid=0aa9edc7-6204-4ba3-8550-23db0b3557e8","ios":"levelo://app?vid=0aa9edc7-6204-4ba3-8550-23db0b3557e8"},"vehicle_type_id":"4","last_reported":1712340563,"current_range_meters":0,"station_id":"ce4bgi92rcd13ifvqb90","pricing_plan_id":"cebpf4jnsgd1na2vs0mg"},{"bike_id":"4ba22350-92ba-4776-b48c-70c35e6e476b","system_id":"levelo_inurba_marseille","lat":43.29977,"lon":5.384783,"is_reserved":false,"is_disabled":false,"rental_uris":{"android":"levelo://app?vid=4ba22350-92ba-4776-b48c-70c35e6e476b","ios":"levelo://app?vid=4ba22350-92ba-4776-b48c-70c35e6e476b"},"vehicle_type_id":"4","last_reported":1712340563,"current_range_meters":0,"station_id":"ce4bgj92rcd13ifvqbd0","pricing_plan_id":"cebpf4jnsgd1na2vs0mg"},{"bike_id":"84a3d4fc-ea03-4f52-9d74-85d3c1dc8d3b","system_id":"levelo_inurba_marseille","lat":43.29967,"lon":5.38465,"is_reserved":false,"is_disabled":false,"rental_uris":{"android":"levelo://app?vid=84a3d4fc-ea03-4f52-9d74-85d3c1dc8d3b","ios":"levelo://app?vid=84a3d4fc-ea03-4f52-9d74-85d3c1dc8d3b"},"vehicle_type_id":"4","last_reported":1712340563,"current_range_meters":400,"station_id":"ce4bgj92rcd13ifvqbd0","pricing_plan_id":"cebpf4jnsgd1na2vs0mg"},{"bike_id":"57368471-9d62-4b32-9a60-31c11c487e1c","system_id":"levelo_inurba_marseille","lat":43.299717,"lon":5.384845,"is_reserved":false,"is_disabled":false,"rental_uris":{"android":"levelo://app?vid=57368471-9d62-4b32-9a60-31c11c487e1c","ios":"levelo://app?vid=57368471-9d62-4b32-9a60-31c11c487e1c"},"vehicle_type_id":"4","last_reported":1712340563,"current_range_meters":1600,"station_id":"ce4bgj92rcd13ifvqbd0","pricing_plan_id":"cebpf4jnsgd1na2vs0mg"},{"bike_id":"431dc417-bcab-4aea-9219-59e17e8f945d","system_id":"levelo_inurba_marseille","lat":43.29976,"lon":5.38491,"is_reserved":false,"is_disabled":false,"rental_uris":{"android":"levelo://app?vid=431dc417-bcab-4aea-9219-59e17e8f945d","ios":"levelo://app?vid=431dc417-bcab-4aea-9219-59e17e8f945d"},"vehicle_type_id":"4","last_reported":1712340563,"current_range_meters":4000,"station_id":"ce4bgj92rcd13ifvqbd0","pricing_plan_id":"cebpf4jnsgd1na2vs0mg"},{"bike_id":"741c33cc-7534-449f-a8b5-74eee9daeb17","system_id":"levelo_inurba_marseille","lat":43.299707,"lon":5.384859,"is_reserved":false,"is_disabled":false,"rental_uris":{"android":"levelo://app?vid=741c33cc-7534-449f-a8b5-74eee9daeb17","ios":"levelo://app?vid=741c33cc-7534-449f-a8b5-74eee9daeb17"},"vehicle_type_id":"4","last_reported":1712340563,"current_range_meters":0,"station_id":"ce4bgj92rcd13ifvqbd0","pricing_plan_id":"cebpf4jnsgd1na2vs0mg"},{"bike_id":"0b9415d2-5ff3-43c0-8f96-298a344c9ab1","system_id":"levelo_inurba_marseille","lat":43.282744,"lon":5.350533,"is_reserved":false,"is_disabled":false,"rental_uris":{"android":"levelo://app?vid=0b9415d2-5ff3-43c0-8f96-298a344c9ab1","ios":"levelo://app?vid=0b9415d2-5ff3-43c0-8f96-298a344c9ab1"},"vehicle_type_id":"4","last_reported":1712340563,"current_range_meters":16800,"station_id":"ce4bhbp2rcd13ifvqerg","pricing_plan_id":"cebpf4jnsgd1na2vs0mg"},{"bike_id":"8b8a49ef-c1f5-4b12-9164-ed21de4adc50","system_id":"levelo_inurba_marseille","lat":43.299707,"lon":5.384859,"is_reserved":false,"is_disabled":false,"rental_uris":{"android":"levelo://app?vid=8b8a49ef-c1f5-4b12-9164-ed21de4adc50","ios":"levelo://app?vid=8b8a49ef-c1f5-4b12-9164-ed21de4adc50"},"vehicle_type_id":"4","last_reported":1712340563,"current_range_meters":19200,"station_id":"ce4bgj92rcd13ifvqbd0","pricing_plan_id":"cebpf4jnsgd1na2vs0mg"},{"bike_id":"e7dae2cf-84ce-4f88-814d-04b2a5d68ff4","system_id":"levelo_inurba_marseille","lat":43.29524,"lon":5.37511,"is_reserved":false,"is_disabled":false,"rental_uris":{"android":"levelo://app?vid=e7dae2cf-84ce-4f88-814d-04b2a5d68ff4","ios":"levelo://app?vid=e7dae2cf-84ce-4f88-814d-04b2a5d68ff4"},"vehicle_type_id":"4","last_reported":1712340563,"current_range_meters":0,"station_id":"ce4bgkp2rcd13ifvqbmg","pricing_plan_id":"cebpf4jnsgd1na2vs0mg"},{"bike_id":"b23cccf0-f0cc-46f4-9135-2848cd3cd427","system_id":"levelo_inurba_marseille","lat":43.29961,"lon":5.384887,"is_reserved":false,"is_disabled":false,"rental_uris":{"android":"levelo://app?vid=b23cccf0-f0cc-46f4-9135-2848cd3cd427","ios":"levelo://app?vid=b23cccf0-f0cc-46f4-9135-2848cd3cd427"},"vehicle_type_id":"4","last_reported":1712340563,"current_range_meters":0,"station_id":"ce4bgj92rcd13ifvqbd0","pricing_plan_id":"cebpf4jnsgd1na2vs0mg"},{"bike_id":"5db13462-703b-4025-8f13-dd59930b11dd","system_id":"levelo_inurba_marseille","lat":43.29966,"lon":5.384967,"is_reserved":false,"is_disabled":false,"rental_uris":{"android":"levelo://app?vid=5db13462-703b-4025-8f13-dd59930b11dd","ios":"levelo://app?vid=5db13462-703b-4025-8f13-dd59930b11dd"},"vehicle_type_id":"4","last_reported":1712340563,"current_range_meters":0,"station_id":"ce4bgj92rcd13ifvqbd0","pricing_plan_id":"cebpf4jnsgd1na2vs0mg"},{"bike_id":"a79bdfd9-26b0-4918-8ac3-1a1e65224ad6","system_id":"levelo_inurba_marseille","lat":43.299707,"lon":5.384859,"is_reserved":false,"is_disabled":false,"rental_uris":{"android":"levelo://app?vid=a79bdfd9-26b0-4918-8ac3-1a1e65224ad6","ios":"levelo://app?vid=a79bdfd9-26b0-4918-8ac3-1a1e65224ad6"},"vehicle_type_id":"4","last_reported":1712340563,"current_range_meters":0,"station_id":"ce4bgj92rcd13ifvqbd0","pricing_plan_id":"cebpf4jnsgd1na2vs0mg"},{"bike_id":"e98d3a90-79a4-4882-9dfd-53f5898b958f","system_id":"levelo_inurba_marseille","lat":43.299717,"lon":5.384845,"is_reserved":false,"is_disabled":false,"rental_uris":{"android":"levelo://app?vid=e98d3a90-79a4-4882-9dfd-53f5898b958f","ios":"levelo://app?vid=e98d3a90-79a4-4882-9dfd-53f5898b958f"},"vehicle_type_id":"4","last_reported":1712340563,"current_range_meters":1200,"station_id":"ce4bgj92rcd13ifvqbd0","pricing_plan_id":"cebpf4jnsgd1na2vs0mg"},{"bike_id":"89ea1596-0b7b-4d1f-a4dd-026d4472b6b1","system_id":"levelo_inurba_marseille","lat":43.299717,"lon":5.384845,"is_reserved":false,"is_disabled":false,"rental_uris":{"android":"levelo://app?vid=89ea1596-0b7b-4d1f-a4dd-026d4472b6b1","ios":"levelo://app?vid=89ea1596-0b7b-4d1f-a4dd-026d4472b6b1"},"vehicle_type_id":"4","last_reported":1712340563,"current_range_meters":400,"station_id":"ce4bgj92rcd13ifvqbd0","pricing_plan_id":"cebpf4jnsgd1na2vs0mg"},{"bike_id":"0adfb6b8-b3b4-4f79-94ce-126a7a056e2c","system_id":"levelo_inurba_marseille","lat":43.299717,"lon":5.384845,"is_reserved":false,"is_disabled":false,"rental_uris":{"android":"levelo://app?vid=0adfb6b8-b3b4-4f79-94ce-126a7a056e2c","ios":"levelo://app?vid=0adfb6b8-b3b4-4f79-94ce-126a7a056e2c"},"vehicle_type_id":"4","last_reported":1712340563,"current_range_meters":0,"station_id":"ce4bgj92rcd13ifvqbd0","pricing_plan_id":"cebpf4jnsgd1na2vs0mg"},{"bike_id":"2fa64c59-55cf-426e-9cc1-a93cb05e2613","system_id":"levelo_inurba_marseille","lat":43.296609,"lon":5.380523,"is_reserved":false,"is_disabled":false,"rental_uris":{"android":"levelo://app?vid=2fa64c59-55cf-426e-9cc1-a93cb05e2613","ios":"levelo://app?vid=2fa64c59-55cf-426e-9cc1-a93cb05e2613"},"vehicle_type_id":"4","last_reported":1712340563,"current_range_meters":10800,"station_id":"ce4bgkp2rcd13ifvqbmg","pricing_plan_id":"cebpf4jnsgd1na2vs0mg"},{"bike_id":"f626097b-2c08-43b9-8fb4-b8cecf66fe1d","system_id":"levelo_inurba_marseille","lat":43.29667,"lon":5.38128,"is_reserved":false,"is_disabled":false,"rental_uris":{"android":"levelo://app?vid=f626097b-2c08-43b9-8fb4-b8cecf66fe1d","ios":"levelo://app?vid=f626097b-2c08-43b9-8fb4-b8cecf66fe1d"},"vehicle_type_id":"4","last_reported":1712340563,"current_range_meters":8000,"station_id":"","pricing_plan_id":"cebpf4jnsgd1na2vs0mg"},{"bike_id":"6764966f-cefe-4fca-bf3c-8aca491660ab","system_id":"levelo_inurba_marseille","lat":43.32357,"lon":5.38881,"is_reserved":false,"is_disabled":false,"rental_uris":{"android":"levelo://app?vid=6764966f-cefe-4fca-bf3c-8aca491660ab","ios":"levelo://app?vid=6764966f-cefe-4fca-bf3c-8aca491660ab"},"vehicle_type_id":"4","last_reported":1712340563,"current_range_meters":2400,"station_id":"ce4bhqp2rcd13ifvqhog","pricing_plan_id":"cebpf4jnsgd1na2vs0mg"},{"bike_id":"3abbef0d-ab62-4d7c-a818-d49cb2aafb88","system_id":"levelo_inurba_marseille","lat":43.32367,"lon":5.388836,"is_reserved":false,"is_disabled":false,"rental_uris":{"android":"levelo://app?vid=3abbef0d-ab62-4d7c-a818-d49cb2aafb88","ios":"levelo://app?vid=3abbef0d-ab62-4d7c-a818-d49cb2aafb88"},"vehicle_type_id":"4","last_reported":1712340563,"current_range_meters":10400,"station_id":"ce4bhqp2rcd13ifvqhog","pricing_plan_id":"cebpf4jnsgd1na2vs0mg"},{"bike_id":"b9f145ce-647f-4be7-9520-872e8c16a474","system_id":"levelo_inurba_marseille","lat":43.323644,"lon":5.388849,"is_reserved":false,"is_disabled":false,"rental_uris":{"android":"levelo://app?vid=b9f145ce-647f-4be7-9520-872e8c16a474","ios":"levelo://app?vid=b9f145ce-647f-4be7-9520-872e8c16a474"},"vehicle_type_id":"4","last_reported":1712340563,"current_range_meters":0,"station_id":"ce4bhqp2rcd13ifvqhog","pricing_plan_id":"cebpf4jnsgd1na2vs0mg"},{"bike_id":"c5ed90dd-85d0-4191-b4fa-f5b81de4b1cc","system_id":"levelo_inurba_marseille","lat":43.32372,"lon":5.38878,"is_reserved":false,"is_disabled":false,"rental_uris":{"android":"levelo://app?vid=c5ed90dd-85d0-4191-b4fa-f5b81de4b1cc","ios":"levelo://app?vid=c5ed90dd-85d0-4191-b4fa-f5b81de4b1cc"},"vehicle_type_id":"4","last_reported":1712340563,"current_range_meters":6000,"station_id":"ce4bhqp2rcd13ifvqhog","pricing_plan_id":"cebpf4jnsgd1na2vs0mg"},{"bike_id":"6ffd0c17-918b-4766-9a8a-720454d66190","system_id":"levelo_inurba_marseille","lat":43.32367,"lon":5.388836,"is_reserved":false,"is_disabled":false,"rental_uris":{"android":"levelo://app?vid=6ffd0c17-918b-4766-9a8a-720454d66190","ios":"levelo://app?vid=6ffd0c17-918b-4766-9a8a-720454d66190"},"vehicle_type_id":"4","last_reported":1712340563,"current_range_meters":18000,"station_id":"ce4bhqp2rcd13ifvqhog","pricing_plan_id":"cebpf4jnsgd1na2vs0mg"},{"bike_id":"63c5e04b-8d84-4205-a085-3e99d1f867ad","system_id":"levelo_inurba_marseille","lat":43.32367,"lon":5.388836,"is_reserved":false,"is_disabled":false,"rental_uris":{"android":"levelo://app?vid=63c5e04b-8d84-4205-a085-3e99d1f867ad","ios":"levelo://app?vid=63c5e04b-8d84-4205-a085-3e99d1f867ad"},"vehicle_type_id":"4","last_reported":1712340563,"current_range_meters":9200,"station_id":"ce4bhqp2rcd13ifvqhog","pricing_plan_id":"cebpf4jnsgd1na2vs0mg"},{"bike_id":"bee4723c-8c5f-4aec-809e-2c4c31351fd7","system_id":"levelo_inurba_marseille","lat":43.32369,"lon":5.38883,"is_reserved":false,"is_disabled":false,"rental_uris":{"android":"levelo://app?vid=bee4723c-8c5f-4aec-809e-2c4c31351fd7","ios":"levelo://app?vid=bee4723c-8c5f-4aec-809e-2c4c31351fd7"},"vehicle_type_id":"4","last_reported":1712340563,"current_range_meters":3200,"station_id":"ce4bhqp2rcd13ifvqhog","pricing_plan_id":"cebpf4jnsgd1na2vs0mg"},{"bike_id":"e961ec59-d062-4d1f-95f8-1f763cab65db","system_id":"levelo_inurba_marseille","lat":43.32367,"lon":5.388836,"is_reserved":false,"is_disabled":false,"rental_uris":{"android":"levelo://app?vid=e961ec59-d062-4d1f-95f8-1f763cab65db","ios":"levelo://app?vid=e961ec59-d062-4d1f-95f8-1f763cab65db"},"vehicle_type_id":"4","last_reported":1712340563,"current_range_meters":2800,"station_id":"ce4bhqp2rcd13ifvqhog","pricing_plan_id":"cebpf4jnsgd1na2vs0mg"},{"bike_id":"41405296-cc57-4517-995e-a1d8f1fd6e67","system_id":"levelo_inurba_marseille","lat":43.32367,"lon":5.388836,"is_reserved":false,"is_disabled":false,"rental_uris":{"android":"levelo://app?vid=41405296-cc57-4517-995e-a1d8f1fd6e67","ios":"levelo://app?vid=41405296-cc57-4517-995e-a1d8f1fd6e67"},"vehicle_type_id":"4","last_reported":1712340563,"current_range_meters":0,"station_id":"ce4bhqp2rcd13ifvqhog","pricing_plan_id":"cebpf4jnsgd1na2vs0mg"},{"bike_id":"a8234da1-d3fe-48a0-b78d-6eb502b91f18","system_id":"levelo_inurba_marseille","lat":43.29601,"lon":5.381084,"is_reserved":false,"is_disabled":false,"rental_uris":{"android":"levelo://app?vid=a8234da1-d3fe-48a0-b78d-6eb502b91f18","ios":"levelo://app?vid=a8234da1-d3fe-48a0-b78d-6eb502b91f18"},"vehicle_type_id":"4","last_reported":1712340563,"current_range_meters":3600,"station_id":"ce4bgl12rcd13ifvqbo0","pricing_plan_id":"cebpf4jnsgd1na2vs0mg"},{"bike_id":"57ba9e13-c539-4da9-be31-9ddc45f910d0","system_id":"levelo_inurba_marseille","lat":43.29602,"lon":5.381084,"is_reserved":false,"is_disabled":false,"rental_uris":{"android":"levelo://app?vid=57ba9e13-c539-4da9-be31-9ddc45f910d0","ios":"levelo://app?vid=57ba9e13-c539-4da9-be31-9ddc45f910d0"},"vehicle_type_id":"4","last_reported":1712340563,"current_range_meters":7200,"station_id":"ce4bgl12rcd13ifvqbo0","pricing_plan_id":"cebpf4jnsgd1na2vs0mg"},{"bike_id":"f484bd00-a579-4e0f-aa34-868ce79c826b","system_id":"levelo_inurba_marseille","lat":43.29602,"lon":5.381084,"is_reserved":false,"is_disabled":false,"rental_uris":{"android":"levelo://app?vid=f484bd00-a579-4e0f-aa34-868ce79c826b","ios":"levelo://app?vid=f484bd00-a579-4e0f-aa34-868ce79c826b"},"vehicle_type_id":"4","last_reported":1712340563,"current_range_meters":0,"station_id":"ce4bgl12rcd13ifvqbo0","pricing_plan_id":"cebpf4jnsgd1na2vs0mg"},{"bike_id":"c24b8dc0-c886-4751-8209-e8582c6e4b46","system_id":"levelo_inurba_marseille","lat":43.29602,"lon":5.381084,"is_reserved":false,"is_disabled":false,"rental_uris":{"android":"levelo://app?vid=c24b8dc0-c886-4751-8209-e8582c6e4b46","ios":"levelo://app?vid=c24b8dc0-c886-4751-8209-e8582c6e4b46"},"vehicle_type_id":"4","last_reported":1712340563,"current_range_meters":9200,"station_id":"ce4bgl12rcd13ifvqbo0","pricing_plan_id":"cebpf4jnsgd1na2vs0mg"},{"bike_id":"66fa3526-927c-4b86-900a-7f1132edf365","system_id":"levelo_inurba_marseille","lat":43.295928,"lon":5.38097,"is_reserved":false,"is_disabled":false,"rental_uris":{"android":"levelo://app?vid=66fa3526-927c-4b86-900a-7f1132edf365","ios":"levelo://app?vid=66fa3526-927c-4b86-900a-7f1132edf365"},"vehicle_type_id":"4","last_reported":1712340563,"current_range_meters":0,"station_id":"ce4bgl12rcd13ifvqbo0","pricing_plan_id":"cebpf4jnsgd1na2vs0mg"},{"bike_id":"5f38a37d-29f2-400f-8fa9-7b3a972b0dac","system_id":"levelo_inurba_marseille","lat":43.295947,"lon":5.38108,"is_reserved":false,"is_disabled":false,"rental_uris":{"android":"levelo://app?vid=5f38a37d-29f2-400f-8fa9-7b3a972b0dac","ios":"levelo://app?vid=5f38a37d-29f2-400f-8fa9-7b3a972b0dac"},"vehicle_type_id":"4","last_reported":1712340563,"current_range_meters":0,"station_id":"ce4bgl12rcd13ifvqbo0","pricing_plan_id":"cebpf4jnsgd1na2vs0mg"},{"bike_id":"e8100ed1-95d7-45ff-979a-1d9df5d4bc49","system_id":"levelo_inurba_marseille","lat":43.32367,"lon":5.388836,"is_reserved":false,"is_disabled":false,"rental_uris":{"android":"levelo://app?vid=e8100ed1-95d7-45ff-979a-1d9df5d4bc49","ios":"levelo://app?vid=e8100ed1-95d7-45ff-979a-1d9df5d4bc49"},"vehicle_type_id":"4","last_reported":1712340563,"current_range_meters":7600,"station_id":"ce4bhqp2rcd13ifvqhog","pricing_plan_id":"cebpf4jnsgd1na2vs0mg"},{"bike_id":"f5f82a27-81ab-45bf-92c3-6ed346f05b2b","system_id":"levelo_inurba_marseille","lat":43.29591,"lon":5.3811,"is_reserved":false,"is_disabled":false,"rental_uris":{"android":"levelo://app?vid=f5f82a27-81ab-45bf-92c3-6ed346f05b2b","ios":"levelo://app?vid=f5f82a27-81ab-45bf-92c3-6ed346f05b2b"},"vehicle_type_id":"4","last_reported":1712340563,"current_range_meters":0,"station_id":"ce4bgl12rcd13ifvqbo0","pricing_plan_id":"cebpf4jnsgd1na2vs0mg"},{"bike_id":"5be8964a-3570-453f-9b82-f48d4539e992","system_id":"levelo_inurba_marseille","lat":43.293259,"lon":5.371586,"is_reserved":false,"is_disabled":false,"rental_uris":{"android":"levelo://app?vid=5be8964a-3570-453f-9b82-f48d4539e992","ios":"levelo://app?vid=5be8964a-3570-453f-9b82-f48d4539e992"},"vehicle_type_id":"4","last_reported":1712340563,"current_range_meters":18400,"station_id":"ce4bgh92rcd13ifvqb40","pricing_plan_id":"cebpf4jnsgd1na2vs0mg"},{"bike_id":"ade1d917-8251-4dd2-a53d-f0c0f04d86e0","system_id":"levelo_inurba_marseille","lat":43.29308,"lon":5.371642,"is_reserved":false,"is_disabled":false,"rental_uris":{"android":"levelo://app?vid=ade1d917-8251-4dd2-a53d-f0c0f04d86e0","ios":"levelo://app?vid=ade1d917-8251-4dd2-a53d-f0c0f04d86e0"},"vehicle_type_id":"4","last_reported":1712340563,"current_range_meters":0,"station_id":"ce4bgh92rcd13ifvqb40","pricing_plan_id":"cebpf4jnsgd1na2vs0mg"},{"bike_id":"f255aabd-1d3f-468c-8feb-b1f50a6b3b23","system_id":"levelo_inurba_marseille","lat":43.292749,"lon":5.368402,"is_reserved":false,"is_disabled":false,"rental_uris":{"android":"levelo://app?vid=f255aabd-1d3f-468c-8feb-b1f50a6b3b23","ios":"levelo://app?vid=f255aabd-1d3f-468c-8feb-b1f50a6b3b23"},"vehicle_type_id":"4","last_reported":1712340563,"current_range_meters":0,"station_id":"ce4bhbp2rcd13ifvqesg","pricing_plan_id":"cebpf4jnsgd1na2vs0mg"},{"bike_id":"59a66b82-0d64-47f1-a592-59554729ab12","system_id":"levelo_inurba_marseille","lat":43.292749,"lon":5.368398,"is_reserved":false,"is_disabled":false,"rental_uris":{"android":"levelo://app?vid=59a66b82-0d64-47f1-a592-59554729ab12","ios":"levelo://app?vid=59a66b82-0d64-47f1-a592-59554729ab12"},"vehicle_type_id":"4","last_reported":1712340563,"current_range_meters":1600,"station_id":"ce4bhbp2rcd13ifvqesg","pricing_plan_id":"cebpf4jnsgd1na2vs0mg"},{"bike_id":"b7f6a1b0-044c-46b8-84b7-482a2208a4ee","system_id":"levelo_inurba_marseille","lat":43.292749,"lon":5.368402,"is_reserved":false,"is_disabled":false,"rental_uris":{"android":"levelo://app?vid=b7f6a1b0-044c-46b8-84b7-482a2208a4ee","ios":"levelo://app?vid=b7f6a1b0-044c-46b8-84b7-482a2208a4ee"},"vehicle_type_id":"4","last_reported":1712340563,"current_range_meters":24800,"station_id":"ce4bhbp2rcd13ifvqesg","pricing_plan_id":"cebpf4jnsgd1na2vs0mg"},{"bike_id":"021f785a-85df-47ba-b7b3-b4eb607ebeff","system_id":"levelo_inurba_marseille","lat":43.293009,"lon":5.374584,"is_reserved":false,"is_disabled":false,"rental_uris":{"android":"levelo://app?vid=021f785a-85df-47ba-b7b3-b4eb607ebeff","ios":"levelo://app?vid=021f785a-85df-47ba-b7b3-b4eb607ebeff"},"vehicle_type_id":"4","last_reported":1712340563,"current_range_meters":7600,"station_id":"ce4bgi12rcd13ifvqb70","pricing_plan_id":"cebpf4jnsgd1na2vs0mg"},{"bike_id":"f27129b3-c169-44f0-9894-bec6acc2ad48","system_id":"levelo_inurba_marseille","lat":43.293009,"lon":5.374584,"is_reserved":false,"is_disabled":false,"rental_uris":{"android":"levelo://app?vid=f27129b3-c169-44f0-9894-bec6acc2ad48","ios":"levelo://app?vid=f27129b3-c169-44f0-9894-bec6acc2ad48"},"vehicle_type_id":"4","last_reported":1712340563,"current_range_meters":4000,"station_id":"ce4bgi12rcd13ifvqb70","pricing_plan_id":"cebpf4jnsgd1na2vs0mg"},{"bike_id":"ea579481-9702-4f47-9633-1979e2c184da","system_id":"levelo_inurba_marseille","lat":43.293009,"lon":5.374584,"is_reserved":false,"is_disabled":false,"rental_uris":{"android":"levelo://app?vid=ea579481-9702-4f47-9633-1979e2c184da","ios":"levelo://app?vid=ea579481-9702-4f47-9633-1979e2c184da"},"vehicle_type_id":"4","last_reported":1712340563,"current_range_meters":0,"station_id":"ce4bgi12rcd13ifvqb70","pricing_plan_id":"cebpf4jnsgd1na2vs0mg"},{"bike_id":"f493f95e-61ab-4017-99e4-271243edc2ff","system_id":"levelo_inurba_marseille","lat":43.29298,"lon":5.37447,"is_reserved":false,"is_disabled":false,"rental_uris":{"android":"levelo://app?vid=f493f95e-61ab-4017-99e4-271243edc2ff","ios":"levelo://app?vid=f493f95e-61ab-4017-99e4-271243edc2ff"},"vehicle_type_id":"4","last_reported":1712340563,"current_range_meters":0,"station_id":"ce4bgi12rcd13ifvqb70","pricing_plan_id":"cebpf4jnsgd1na2vs0mg"},{"bike_id":"fe43d688-835a-4658-89cc-69512e8ebfb9","system_id":"levelo_inurba_marseille","lat":43.293009,"lon":5.374584,"is_reserved":false,"is_disabled":false,"rental_uris":{"android":"levelo://app?vid=fe43d688-835a-4658-89cc-69512e8ebfb9","ios":"levelo://app?vid=fe43d688-835a-4658-89cc-69512e8ebfb9"},"vehicle_type_id":"4","last_reported":1712340563,"current_range_meters":6800,"station_id":"ce4bgi12rcd13ifvqb70","pricing_plan_id":"cebpf4jnsgd1na2vs0mg"},{"bike_id":"0a5c8814-2456-4202-9dc3-2cabfdf2d4fc","system_id":"levelo_inurba_marseille","lat":43.29295,"lon":5.37469,"is_reserved":false,"is_disabled":false,"rental_uris":{"android":"levelo://app?vid=0a5c8814-2456-4202-9dc3-2cabfdf2d4fc","ios":"levelo://app?vid=0a5c8814-2456-4202-9dc3-2cabfdf2d4fc"},"vehicle_type_id":"4","last_reported":1712340563,"current_range_meters":0,"station_id":"ce4bgi12rcd13ifvqb70","pricing_plan_id":"cebpf4jnsgd1na2vs0mg"},{"bike_id":"1e1713bc-f69d-4749-a9c2-cf9680fa927f","system_id":"levelo_inurba_marseille","lat":43.305994,"lon":5.393687,"is_reserved":false,"is_disabled":false,"rental_uris":{"android":"levelo://app?vid=1e1713bc-f69d-4749-a9c2-cf9680fa927f","ios":"levelo://app?vid=1e1713bc-f69d-4749-a9c2-cf9680fa927f"},"vehicle_type_id":"4","last_reported":1712340563,"current_range_meters":6000,"station_id":"ce4bh0p2rcd13ifvqd80","pricing_plan_id":"cebpf4jnsgd1na2vs0mg"},{"bike_id":"7b430e1b-2ce4-48c8-b0e0-27e85f95dc27","system_id":"levelo_inurba_marseille","lat":43.305994,"lon":5.393687,"is_reserved":false,"is_disabled":false,"rental_uris":{"android":"levelo://app?vid=7b430e1b-2ce4-48c8-b0e0-27e85f95dc27","ios":"levelo://app?vid=7b430e1b-2ce4-48c8-b0e0-27e85f95dc27"},"vehicle_type_id":"4","last_reported":1712340563,"current_range_meters":2400,"station_id":"ce4bh0p2rcd13ifvqd80","pricing_plan_id":"cebpf4jnsgd1na2vs0mg"},{"bike_id":"deecfee7-13f8-4a8e-9bd4-b2e24afe28c7","system_id":"levelo_inurba_marseille","lat":43.29529,"lon":5.385581,"is_reserved":false,"is_disabled":false,"rental_uris":{"android":"levelo://app?vid=deecfee7-13f8-4a8e-9bd4-b2e24afe28c7","ios":"levelo://app?vid=deecfee7-13f8-4a8e-9bd4-b2e24afe28c7"},"vehicle_type_id":"4","last_reported":1712340563,"current_range_meters":3600,"station_id":"ce4bgih2rcd13ifvqba0","pricing_plan_id":"cebpf4jnsgd1na2vs0mg"},{"bike_id":"47df0fee-a319-4afc-aa0b-a816e41ac2fd","system_id":"levelo_inurba_marseille","lat":43.30085,"lon":5.390856,"is_reserved":false,"is_disabled":false,"rental_uris":{"android":"levelo://app?vid=47df0fee-a319-4afc-aa0b-a816e41ac2fd","ios":"levelo://app?vid=47df0fee-a319-4afc-aa0b-a816e41ac2fd"},"vehicle_type_id":"4","last_reported":1712340563,"current_range_meters":14400,"station_id":"ce4bh192rcd13ifvqdb0","pricing_plan_id":"cebpf4jnsgd1na2vs0mg"},{"bike_id":"de072a53-0e44-47e3-941c-b745ef0dc91e","system_id":"levelo_inurba_marseille","lat":43.292311,"lon":5.360731,"is_reserved":false,"is_disabled":false,"rental_uris":{"android":"levelo://app?vid=de072a53-0e44-47e3-941c-b745ef0dc91e","ios":"levelo://app?vid=de072a53-0e44-47e3-941c-b745ef0dc91e"},"vehicle_type_id":"4","last_reported":1712340563,"current_range_meters":0,"station_id":"ce4bhbh2rcd13ifvqeqg","pricing_plan_id":"cebpf4jnsgd1na2vs0mg"},{"bike_id":"355e60a6-c74f-492b-a6dc-366551afc6ae","system_id":"levelo_inurba_marseille","lat":43.292118,"lon":5.360492,"is_reserved":false,"is_disabled":false,"rental_uris":{"android":"levelo://app?vid=355e60a6-c74f-492b-a6dc-366551afc6ae","ios":"levelo://app?vid=355e60a6-c74f-492b-a6dc-366551afc6ae"},"vehicle_type_id":"4","last_reported":1712340563,"current_range_meters":0,"station_id":"ce4bhbh2rcd13ifvqeqg","pricing_plan_id":"cebpf4jnsgd1na2vs0mg"},{"bike_id":"eb1c327d-fdb6-439a-80ae-1967c0752583","system_id":"levelo_inurba_marseille","lat":43.292009,"lon":5.359994,"is_reserved":false,"is_disabled":false,"rental_uris":{"android":"levelo://app?vid=eb1c327d-fdb6-439a-80ae-1967c0752583","ios":"levelo://app?vid=eb1c327d-fdb6-439a-80ae-1967c0752583"},"vehicle_type_id":"4","last_reported":1712340563,"current_range_meters":30400,"station_id":"ce4bhch2rcd13ifvqeug","pricing_plan_id":"cebpf4jnsgd1na2vs0mg"},{"bike_id":"8ece573e-c6e5-45c4-b000-bb02fcfa8ddb","system_id":"levelo_inurba_marseille","lat":43.2936,"lon":5.37835,"is_reserved":false,"is_disabled":false,"rental_uris":{"android":"levelo://app?vid=8ece573e-c6e5-45c4-b000-bb02fcfa8ddb","ios":"levelo://app?vid=8ece573e-c6e5-45c4-b000-bb02fcfa8ddb"},"vehicle_type_id":"4","last_reported":1712340563,"current_range_meters":4400,"station_id":"ce4bgjh2rcd13ifvqbf0","pricing_plan_id":"cebpf4jnsgd1na2vs0mg"},{"bike_id":"74df4a04-7cf3-42cb-b593-9b03ab0d60cf","system_id":"levelo_inurba_marseille","lat":43.292083,"lon":5.358457,"is_reserved":false,"is_disabled":false,"rental_uris":{"android":"levelo://app?vid=74df4a04-7cf3-42cb-b593-9b03ab0d60cf","ios":"levelo://app?vid=74df4a04-7cf3-42cb-b593-9b03ab0d60cf"},"vehicle_type_id":"4","last_reported":1712340563,"current_range_meters":0,"station_id":"ce4bha92rcd13ifvqeh0","pricing_plan_id":"cebpf4jnsgd1na2vs0mg"},{"bike_id":"a00e75e3-ef3c-4534-8d10-012b8d884a1f","system_id":"levelo_inurba_marseille","lat":43.291994,"lon":5.357886,"is_reserved":false,"is_disabled":false,"rental_uris":{"android":"levelo://app?vid=a00e75e3-ef3c-4534-8d10-012b8d884a1f","ios":"levelo://app?vid=a00e75e3-ef3c-4534-8d10-012b8d884a1f"},"vehicle_type_id":"4","last_reported":1712340563,"current_range_meters":0,"station_id":"ce4bhb12rcd13ifvqel0","pricing_plan_id":"cebpf4jnsgd1na2vs0mg"},{"bike_id":"5a4878b9-510c-44b7-9f65-5d95249fdfca","system_id":"levelo_inurba_marseille","lat":43.2919,"lon":5.35798,"is_reserved":false,"is_disabled":false,"rental_uris":{"android":"levelo://app?vid=5a4878b9-510c-44b7-9f65-5d95249fdfca","ios":"levelo://app?vid=5a4878b9-510c-44b7-9f65-5d95249fdfca"},"vehicle_type_id":"4","last_reported":1712340563,"current_range_meters":0,"station_id":"ce4bhb12rcd13ifvqel0","pricing_plan_id":"cebpf4jnsgd1na2vs0mg"},{"bike_id":"2263d08d-abd4-4a6a-a9b1-751dcc6d338c","system_id":"levelo_inurba_marseille","lat":43.291994,"lon":5.357886,"is_reserved":false,"is_disabled":false,"rental_uris":{"android":"levelo://app?vid=2263d08d-abd4-4a6a-a9b1-751dcc6d338c","ios":"levelo://app?vid=2263d08d-abd4-4a6a-a9b1-751dcc6d338c"},"vehicle_type_id":"4","last_reported":1712340563,"current_range_meters":20800,"station_id":"ce4bhb12rcd13ifvqel0","pricing_plan_id":"cebpf4jnsgd1na2vs0mg"},{"bike_id":"ad58aa6d-7f00-4477-856f-72fcc16b8be7","system_id":"levelo_inurba_marseille","lat":43.291675,"lon":5.371583,"is_reserved":false,"is_disabled":false,"rental_uris":{"android":"levelo://app?vid=ad58aa6d-7f00-4477-856f-72fcc16b8be7","ios":"levelo://app?vid=ad58aa6d-7f00-4477-856f-72fcc16b8be7"},"vehicle_type_id":"4","last_reported":1712340563,"current_range_meters":0,"station_id":"ce4bha92rcd13ifvqeh0","pricing_plan_id":"cebpf4jnsgd1na2vs0mg"},{"bike_id":"9cdd74e1-7206-47f4-bf5a-ba84bc800d77","system_id":"levelo_inurba_marseille","lat":43.299028,"lon":5.381509,"is_reserved":false,"is_disabled":false,"rental_uris":{"android":"levelo://app?vid=9cdd74e1-7206-47f4-bf5a-ba84bc800d77","ios":"levelo://app?vid=9cdd74e1-7206-47f4-bf5a-ba84bc800d77"},"vehicle_type_id":"4","last_reported":1712340563,"current_range_meters":8000,"station_id":"ce4bgj12rcd13ifvqbc0","pricing_plan_id":"cebpf4jnsgd1na2vs0mg"},{"bike_id":"8ca3af53-efdc-4d58-9fde-51bbb148d599","system_id":"levelo_inurba_marseille","lat":43.313291,"lon":5.396838,"is_reserved":false,"is_disabled":false,"rental_uris":{"android":"levelo://app?vid=8ca3af53-efdc-4d58-9fde-51bbb148d599","ios":"levelo://app?vid=8ca3af53-efdc-4d58-9fde-51bbb148d599"},"vehicle_type_id":"4","last_reported":1712340563,"current_range_meters":6400,"station_id":"ce4bgvp2rcd13ifvqcu0","pricing_plan_id":"cebpf4jnsgd1na2vs0mg"},{"bike_id":"5efb1ceb-6872-495b-8d52-21f1dac9a5e8","system_id":"levelo_inurba_marseille","lat":43.313291,"lon":5.396838,"is_reserved":false,"is_disabled":false,"rental_uris":{"android":"levelo://app?vid=5efb1ceb-6872-495b-8d52-21f1dac9a5e8","ios":"levelo://app?vid=5efb1ceb-6872-495b-8d52-21f1dac9a5e8"},"vehicle_type_id":"4","last_reported":1712340563,"current_range_meters":9200,"station_id":"ce4bgvp2rcd13ifvqcu0","pricing_plan_id":"cebpf4jnsgd1na2vs0mg"},{"bike_id":"621267ef-484c-4af6-b9fd-ed953f637dd2","system_id":"levelo_inurba_marseille","lat":43.309038,"lon":5.396546,"is_reserved":false,"is_disabled":false,"rental_uris":{"android":"levelo://app?vid=621267ef-484c-4af6-b9fd-ed953f637dd2","ios":"levelo://app?vid=621267ef-484c-4af6-b9fd-ed953f637dd2"},"vehicle_type_id":"4","last_reported":1712340563,"current_range_meters":3200,"station_id":"ce4bh012rcd13ifvqcv0","pricing_plan_id":"cebpf4jnsgd1na2vs0mg"},{"bike_id":"121f6c9f-2715-4db5-9093-fdbd45acbf7f","system_id":"levelo_inurba_marseille","lat":43.29529,"lon":5.38535,"is_reserved":false,"is_disabled":false,"rental_uris":{"android":"levelo://app?vid=121f6c9f-2715-4db5-9093-fdbd45acbf7f","ios":"levelo://app?vid=121f6c9f-2715-4db5-9093-fdbd45acbf7f"},"vehicle_type_id":"4","last_reported":1712340563,"current_range_meters":0,"station_id":"ce4bgih2rcd13ifvqba0","pricing_plan_id":"cebpf4jnsgd1na2vs0mg"},{"bike_id":"a911e12b-1874-4da9-970f-385330237a04","system_id":"levelo_inurba_marseille","lat":43.273613,"lon":5.362705,"is_reserved":false,"is_disabled":false,"rental_uris":{"android":"levelo://app?vid=a911e12b-1874-4da9-970f-385330237a04","ios":"levelo://app?vid=a911e12b-1874-4da9-970f-385330237a04"},"vehicle_type_id":"4","last_reported":1712340563,"current_range_meters":1200,"station_id":"ce4bhbh2rcd13ifvqeo0","pricing_plan_id":"cebpf4jnsgd1na2vs0mg"},{"bike_id":"c18d0a7e-5b87-4245-b7c3-13adaa3fbb49","system_id":"levelo_inurba_marseille","lat":43.29527,"lon":5.38536,"is_reserved":false,"is_disabled":false,"rental_uris":{"android":"levelo://app?vid=c18d0a7e-5b87-4245-b7c3-13adaa3fbb49","ios":"levelo://app?vid=c18d0a7e-5b87-4245-b7c3-13adaa3fbb49"},"vehicle_type_id":"4","last_reported":1712340563,"current_range_meters":0,"station_id":"ce4bgih2rcd13ifvqba0","pricing_plan_id":"cebpf4jnsgd1na2vs0mg"},{"bike_id":"8d812814-31af-4ba5-b1d2-35d498e6e9f1","system_id":"levelo_inurba_marseille","lat":43.29529,"lon":5.385581,"is_reserved":false,"is_disabled":false,"rental_uris":{"android":"levelo://app?vid=8d812814-31af-4ba5-b1d2-35d498e6e9f1","ios":"levelo://app?vid=8d812814-31af-4ba5-b1d2-35d498e6e9f1"},"vehicle_type_id":"4","last_reported":1712340563,"current_range_meters":10800,"station_id":"ce4bgih2rcd13ifvqba0","pricing_plan_id":"cebpf4jnsgd1na2vs0mg"},{"bike_id":"08bc09dc-81b5-4c4f-9d25-5aabbf182807","system_id":"levelo_inurba_marseille","lat":43.29529,"lon":5.385581,"is_reserved":false,"is_disabled":false,"rental_uris":{"android":"levelo://app?vid=08bc09dc-81b5-4c4f-9d25-5aabbf182807","ios":"levelo://app?vid=08bc09dc-81b5-4c4f-9d25-5aabbf182807"},"vehicle_type_id":"4","last_reported":1712340563,"current_range_meters":0,"station_id":"ce4bgih2rcd13ifvqba0","pricing_plan_id":"cebpf4jnsgd1na2vs0mg"},{"bike_id":"0f720269-cda5-417f-a7a7-0d05a0448ddd","system_id":"levelo_inurba_marseille","lat":43.29529,"lon":5.385581,"is_reserved":false,"is_disabled":false,"rental_uris":{"android":"levelo://app?vid=0f720269-cda5-417f-a7a7-0d05a0448ddd","ios":"levelo://app?vid=0f720269-cda5-417f-a7a7-0d05a0448ddd"},"vehicle_type_id":"4","last_reported":1712340563,"current_range_meters":0,"station_id":"ce4bgih2rcd13ifvqba0","pricing_plan_id":"cebpf4jnsgd1na2vs0mg"},{"bike_id":"12c352c8-ff75-4fd1-b544-b39f9cccb882","system_id":"levelo_inurba_marseille","lat":43.290779,"lon":5.371482,"is_reserved":false,"is_disabled":false,"rental_uris":{"android":"levelo://app?vid=12c352c8-ff75-4fd1-b544-b39f9cccb882","ios":"levelo://app?vid=12c352c8-ff75-4fd1-b544-b39f9cccb882"},"vehicle_type_id":"4","last_reported":1712340563,"current_range_meters":3600,"station_id":"ce4bh5p2rcd13ifvqe4g","pricing_plan_id":"cebpf4jnsgd1na2vs0mg"},{"bike_id":"f54e9f3f-44a3-4d8c-9820-4df84b28b066","system_id":"levelo_inurba_marseille","lat":43.302008,"lon":5.394694,"is_reserved":false,"is_disabled":false,"rental_uris":{"android":"levelo://app?vid=f54e9f3f-44a3-4d8c-9820-4df84b28b066","ios":"levelo://app?vid=f54e9f3f-44a3-4d8c-9820-4df84b28b066"},"vehicle_type_id":"4","last_reported":1712340563,"current_range_meters":0,"station_id":"ce4bh0p2rcd13ifvqd70","pricing_plan_id":"cebpf4jnsgd1na2vs0mg"},{"bike_id":"25750090-faab-40ea-ada5-5b90888aa042","system_id":"levelo_inurba_marseille","lat":43.302008,"lon":5.394694,"is_reserved":false,"is_disabled":false,"rental_uris":{"android":"levelo://app?vid=25750090-faab-40ea-ada5-5b90888aa042","ios":"levelo://app?vid=25750090-faab-40ea-ada5-5b90888aa042"},"vehicle_type_id":"4","last_reported":1712340563,"current_range_meters":0,"station_id":"ce4bh0p2rcd13ifvqd70","pricing_plan_id":"cebpf4jnsgd1na2vs0mg"},{"bike_id":"55b75aa5-9fac-4b7e-869f-64e0e2463680","system_id":"levelo_inurba_marseille","lat":43.30206,"lon":5.39467,"is_reserved":false,"is_disabled":false,"rental_uris":{"android":"levelo://app?vid=55b75aa5-9fac-4b7e-869f-64e0e2463680","ios":"levelo://app?vid=55b75aa5-9fac-4b7e-869f-64e0e2463680"},"vehicle_type_id":"4","last_reported":1712340563,"current_range_meters":0,"station_id":"ce4bh0p2rcd13ifvqd70","pricing_plan_id":"cebpf4jnsgd1na2vs0mg"},{"bike_id":"6d2670ac-c37d-4858-8672-05fb3f5c9a7c","system_id":"levelo_inurba_marseille","lat":43.294162,"lon":5.386292,"is_reserved":false,"is_disabled":false,"rental_uris":{"android":"levelo://app?vid=6d2670ac-c37d-4858-8672-05fb3f5c9a7c","ios":"levelo://app?vid=6d2670ac-c37d-4858-8672-05fb3f5c9a7c"},"vehicle_type_id":"4","last_reported":1712340563,"current_range_meters":21200,"station_id":"ce4bh2h2rcd13ifvqdh0","pricing_plan_id":"cebpf4jnsgd1na2vs0mg"},{"bike_id":"a7569774-f51f-4423-a76e-71c5deb3f2e0","system_id":"levelo_inurba_marseille","lat":43.290383,"lon":5.37557,"is_reserved":false,"is_disabled":false,"rental_uris":{"android":"levelo://app?vid=a7569774-f51f-4423-a76e-71c5deb3f2e0","ios":"levelo://app?vid=a7569774-f51f-4423-a76e-71c5deb3f2e0"},"vehicle_type_id":"4","last_reported":1712340563,"current_range_meters":0,"station_id":"ce4bh692rcd13ifvqe90","pricing_plan_id":"cebpf4jnsgd1na2vs0mg"},{"bike_id":"8b0900b3-575f-4335-8ac5-aae033d3e604","system_id":"levelo_inurba_marseille","lat":43.294153,"lon":5.386305,"is_reserved":false,"is_disabled":false,"rental_uris":{"android":"levelo://app?vid=8b0900b3-575f-4335-8ac5-aae033d3e604","ios":"levelo://app?vid=8b0900b3-575f-4335-8ac5-aae033d3e604"},"vehicle_type_id":"4","last_reported":1712340563,"current_range_meters":400,"station_id":"ce4bh2h2rcd13ifvqdh0","pricing_plan_id":"cebpf4jnsgd1na2vs0mg"},{"bike_id":"ee9863d8-ed8d-4698-b634-14336dda3e73","system_id":"levelo_inurba_marseille","lat":43.289477,"lon":5.366385,"is_reserved":false,"is_disabled":false,"rental_uris":{"android":"levelo://app?vid=ee9863d8-ed8d-4698-b634-14336dda3e73","ios":"levelo://app?vid=ee9863d8-ed8d-4698-b634-14336dda3e73"},"vehicle_type_id":"4","last_reported":1712340563,"current_range_meters":0,"station_id":"ce4bhap2rcd13ifvqek0","pricing_plan_id":"cebpf4jnsgd1na2vs0mg"},{"bike_id":"3bc587aa-ff7d-4015-b56f-1c9490e63950","system_id":"levelo_inurba_marseille","lat":43.292005,"lon":5.357875,"is_reserved":false,"is_disabled":false,"rental_uris":{"android":"levelo://app?vid=3bc587aa-ff7d-4015-b56f-1c9490e63950","ios":"levelo://app?vid=3bc587aa-ff7d-4015-b56f-1c9490e63950"},"vehicle_type_id":"4","last_reported":1712340563,"current_range_meters":23600,"station_id":"ce4bhb12rcd13ifvqel0","pricing_plan_id":"cebpf4jnsgd1na2vs0mg"},{"bike_id":"258c6510-b103-482f-8774-0f6864e8783e","system_id":"levelo_inurba_marseille","lat":43.294153,"lon":5.386305,"is_reserved":false,"is_disabled":false,"rental_uris":{"android":"levelo://app?vid=258c6510-b103-482f-8774-0f6864e8783e","ios":"levelo://app?vid=258c6510-b103-482f-8774-0f6864e8783e"},"vehicle_type_id":"4","last_reported":1712340563,"current_range_meters":4000,"station_id":"ce4bh2h2rcd13ifvqdh0","pricing_plan_id":"cebpf4jnsgd1na2vs0mg"},{"bike_id":"74b79d8e-ff6c-46b4-ae62-c38067addfc5","system_id":"levelo_inurba_marseille","lat":43.309371,"lon":5.401449,"is_reserved":false,"is_disabled":false,"rental_uris":{"android":"levelo://app?vid=74b79d8e-ff6c-46b4-ae62-c38067addfc5","ios":"levelo://app?vid=74b79d8e-ff6c-46b4-ae62-c38067addfc5"},"vehicle_type_id":"4","last_reported":1712340563,"current_range_meters":9600,"station_id":"ce4bgvp2rcd13ifvqct0","pricing_plan_id":"cebpf4jnsgd1na2vs0mg"},{"bike_id":"640e6712-2737-4f2b-85c4-35f17964da81","system_id":"levelo_inurba_marseille","lat":43.298037,"lon":5.381066,"is_reserved":false,"is_disabled":false,"rental_uris":{"android":"levelo://app?vid=640e6712-2737-4f2b-85c4-35f17964da81","ios":"levelo://app?vid=640e6712-2737-4f2b-85c4-35f17964da81"},"vehicle_type_id":"4","last_reported":1712340563,"current_range_meters":15600,"station_id":"ce4bgip2rcd13ifvqbb0","pricing_plan_id":"cebpf4jnsgd1na2vs0mg"},{"bike_id":"e370740b-b621-4ab1-8e89-479a9c40ae32","system_id":"levelo_inurba_marseille","lat":43.294153,"lon":5.386305,"is_reserved":false,"is_disabled":false,"rental_uris":{"android":"levelo://app?vid=e370740b-b621-4ab1-8e89-479a9c40ae32","ios":"levelo://app?vid=e370740b-b621-4ab1-8e89-479a9c40ae32"},"vehicle_type_id":"4","last_reported":1712340563,"current_range_meters":3200,"station_id":"ce4bh2h2rcd13ifvqdh0","pricing_plan_id":"cebpf4jnsgd1na2vs0mg"},{"bike_id":"e672d95f-ee35-4ee7-b5b1-2302db8db323","system_id":"levelo_inurba_marseille","lat":43.29418,"lon":5.386285,"is_reserved":false,"is_disabled":false,"rental_uris":{"android":"levelo://app?vid=e672d95f-ee35-4ee7-b5b1-2302db8db323","ios":"levelo://app?vid=e672d95f-ee35-4ee7-b5b1-2302db8db323"},"vehicle_type_id":"4","last_reported":1712340563,"current_range_meters":0,"station_id":"ce4bh2h2rcd13ifvqdh0","pricing_plan_id":"cebpf4jnsgd1na2vs0mg"},{"bike_id":"90354cab-046f-4acb-a6e1-a1db7ed11c31","system_id":"levelo_inurba_marseille","lat":43.2941,"lon":5.38616,"is_reserved":false,"is_disabled":false,"rental_uris":{"android":"levelo://app?vid=90354cab-046f-4acb-a6e1-a1db7ed11c31","ios":"levelo://app?vid=90354cab-046f-4acb-a6e1-a1db7ed11c31"},"vehicle_type_id":"4","last_reported":1712340563,"current_range_meters":1200,"station_id":"ce4bh2h2rcd13ifvqdh0","pricing_plan_id":"cebpf4jnsgd1na2vs0mg"},{"bike_id":"c58df94f-8772-48b6-9880-398818d7310e","system_id":"levelo_inurba_marseille","lat":43.29415,"lon":5.38626,"is_reserved":false,"is_disabled":false,"rental_uris":{"android":"levelo://app?vid=c58df94f-8772-48b6-9880-398818d7310e","ios":"levelo://app?vid=c58df94f-8772-48b6-9880-398818d7310e"},"vehicle_type_id":"4","last_reported":1712340563,"current_range_meters":0,"station_id":"ce4bh2h2rcd13ifvqdh0","pricing_plan_id":"cebpf4jnsgd1na2vs0mg"},{"bike_id":"6586bc41-ed39-4ae6-97df-8e84d7e4a0de","system_id":"levelo_inurba_marseille","lat":43.294153,"lon":5.386305,"is_reserved":false,"is_disabled":false,"rental_uris":{"android":"levelo://app?vid=6586bc41-ed39-4ae6-97df-8e84d7e4a0de","ios":"levelo://app?vid=6586bc41-ed39-4ae6-97df-8e84d7e4a0de"},"vehicle_type_id":"4","last_reported":1712340563,"current_range_meters":0,"station_id":"ce4bh2h2rcd13ifvqdh0","pricing_plan_id":"cebpf4jnsgd1na2vs0mg"},{"bike_id":"82c076d8-0338-423e-be0a-69b5bbd23785","system_id":"levelo_inurba_marseille","lat":43.28941,"lon":5.36637,"is_reserved":false,"is_disabled":false,"rental_uris":{"android":"levelo://app?vid=82c076d8-0338-423e-be0a-69b5bbd23785","ios":"levelo://app?vid=82c076d8-0338-423e-be0a-69b5bbd23785"},"vehicle_type_id":"4","last_reported":1712340563,"current_range_meters":0,"station_id":"ce4bhap2rcd13ifvqek0","pricing_plan_id":"cebpf4jnsgd1na2vs0mg"},{"bike_id":"4fcc261e-5bd0-4729-9f85-f4d0d47795d7","system_id":"levelo_inurba_marseille","lat":43.29413,"lon":5.38628,"is_reserved":false,"is_disabled":false,"rental_uris":{"android":"levelo://app?vid=4fcc261e-5bd0-4729-9f85-f4d0d47795d7","ios":"levelo://app?vid=4fcc261e-5bd0-4729-9f85-f4d0d47795d7"},"vehicle_type_id":"4","last_reported":1712340563,"current_range_meters":0,"station_id":"ce4bh2h2rcd13ifvqdh0","pricing_plan_id":"cebpf4jnsgd1na2vs0mg"},{"bike_id":"dc172f65-0dc5-4400-84f7-5c3082c16442","system_id":"levelo_inurba_marseille","lat":43.2894,"lon":5.36629,"is_reserved":false,"is_disabled":false,"rental_uris":{"android":"levelo://app?vid=dc172f65-0dc5-4400-84f7-5c3082c16442","ios":"levelo://app?vid=dc172f65-0dc5-4400-84f7-5c3082c16442"},"vehicle_type_id":"4","last_reported":1712340563,"current_range_meters":0,"station_id":"ce4bhap2rcd13ifvqek0","pricing_plan_id":"cebpf4jnsgd1na2vs0mg"},{"bike_id":"49810d3e-6b42-46cb-be4d-63349364be59","system_id":"levelo_inurba_marseille","lat":43.28939,"lon":5.36633,"is_reserved":false,"is_disabled":false,"rental_uris":{"android":"levelo://app?vid=49810d3e-6b42-46cb-be4d-63349364be59","ios":"levelo://app?vid=49810d3e-6b42-46cb-be4d-63349364be59"},"vehicle_type_id":"4","last_reported":1712340563,"current_range_meters":0,"station_id":"ce4bhap2rcd13ifvqek0","pricing_plan_id":"cebpf4jnsgd1na2vs0mg"},{"bike_id":"f7f58005-16e3-4078-a5f5-df9c059164d4","system_id":"levelo_inurba_marseille","lat":43.28938,"lon":5.36638,"is_reserved":false,"is_disabled":false,"rental_uris":{"android":"levelo://app?vid=f7f58005-16e3-4078-a5f5-df9c059164d4","ios":"levelo://app?vid=f7f58005-16e3-4078-a5f5-df9c059164d4"},"vehicle_type_id":"4","last_reported":1712340563,"current_range_meters":0,"station_id":"ce4bh692rcd13ifvqea0","pricing_plan_id":"cebpf4jnsgd1na2vs0mg"},{"bike_id":"b1812ee4-f131-471d-a591-f58ee6f1b76b","system_id":"levelo_inurba_marseille","lat":43.29412,"lon":5.38634,"is_reserved":false,"is_disabled":false,"rental_uris":{"android":"levelo://app?vid=b1812ee4-f131-471d-a591-f58ee6f1b76b","ios":"levelo://app?vid=b1812ee4-f131-471d-a591-f58ee6f1b76b"},"vehicle_type_id":"4","last_reported":1712340563,"current_range_meters":0,"station_id":"ce4bh2h2rcd13ifvqdh0","pricing_plan_id":"cebpf4jnsgd1na2vs0mg"},{"bike_id":"dfb30f6b-15f5-4452-af0a-13d654676e81","system_id":"levelo_inurba_marseille","lat":43.289184,"lon":5.366408,"is_reserved":false,"is_disabled":false,"rental_uris":{"android":"levelo://app?vid=dfb30f6b-15f5-4452-af0a-13d654676e81","ios":"levelo://app?vid=dfb30f6b-15f5-4452-af0a-13d654676e81"},"vehicle_type_id":"4","last_reported":1712340563,"current_range_meters":8800,"station_id":"ce4bhap2rcd13ifvqek0","pricing_plan_id":"cebpf4jnsgd1na2vs0mg"},{"bike_id":"27574dfb-d5a5-40e0-934d-ad6c945431ec","system_id":"levelo_inurba_marseille","lat":43.28935,"lon":5.3664,"is_reserved":false,"is_disabled":false,"rental_uris":{"android":"levelo://app?vid=27574dfb-d5a5-40e0-934d-ad6c945431ec","ios":"levelo://app?vid=27574dfb-d5a5-40e0-934d-ad6c945431ec"},"vehicle_type_id":"4","last_reported":1712340563,"current_range_meters":3200,"station_id":"ce4bhap2rcd13ifvqek0","pricing_plan_id":"cebpf4jnsgd1na2vs0mg"},{"bike_id":"6b7d0008-7929-41d0-96a2-0f53d647bc9b","system_id":"levelo_inurba_marseille","lat":43.28935,"lon":5.36634,"is_reserved":false,"is_disabled":false,"rental_uris":{"android":"levelo://app?vid=6b7d0008-7929-41d0-96a2-0f53d647bc9b","ios":"levelo://app?vid=6b7d0008-7929-41d0-96a2-0f53d647bc9b"},"vehicle_type_id":"4","last_reported":1712340563,"current_range_meters":0,"station_id":"ce4bhap2rcd13ifvqek0","pricing_plan_id":"cebpf4jnsgd1na2vs0mg"},{"bike_id":"702d2ab3-415d-4e03-8cda-17f7b05a8cbe","system_id":"levelo_inurba_marseille","lat":43.28945,"lon":5.36381,"is_reserved":false,"is_disabled":false,"rental_uris":{"android":"levelo://app?vid=702d2ab3-415d-4e03-8cda-17f7b05a8cbe","ios":"levelo://app?vid=702d2ab3-415d-4e03-8cda-17f7b05a8cbe"},"vehicle_type_id":"4","last_reported":1712340563,"current_range_meters":4800,"station_id":"ce4bhc92rcd13ifvqetg","pricing_plan_id":"cebpf4jnsgd1na2vs0mg"},{"bike_id":"6896cd95-9058-4444-9223-8384d9157372","system_id":"levelo_inurba_marseille","lat":43.28934,"lon":5.366432,"is_reserved":false,"is_disabled":false,"rental_uris":{"android":"levelo://app?vid=6896cd95-9058-4444-9223-8384d9157372","ios":"levelo://app?vid=6896cd95-9058-4444-9223-8384d9157372"},"vehicle_type_id":"4","last_reported":1712340563,"current_range_meters":16800,"station_id":"","pricing_plan_id":"cebpf4jnsgd1na2vs0mg"},{"bike_id":"4a10477b-032d-4b45-beab-7d3103115868","system_id":"levelo_inurba_marseille","lat":43.28933,"lon":5.36641,"is_reserved":false,"is_disabled":false,"rental_uris":{"android":"levelo://app?vid=4a10477b-032d-4b45-beab-7d3103115868","ios":"levelo://app?vid=4a10477b-032d-4b45-beab-7d3103115868"},"vehicle_type_id":"4","last_reported":1712340563,"current_range_meters":0,"station_id":"ce4bhap2rcd13ifvqek0","pricing_plan_id":"cebpf4jnsgd1na2vs0mg"},{"bike_id":"07d0e67d-c77e-4a28-aeb0-12944506aff6","system_id":"levelo_inurba_marseille","lat":43.2893,"lon":5.36642,"is_reserved":false,"is_disabled":false,"rental_uris":{"android":"levelo://app?vid=07d0e67d-c77e-4a28-aeb0-12944506aff6","ios":"levelo://app?vid=07d0e67d-c77e-4a28-aeb0-12944506aff6"},"vehicle_type_id":"4","last_reported":1712340563,"current_range_meters":10400,"station_id":"ce4bhap2rcd13ifvqek0","pricing_plan_id":"cebpf4jnsgd1na2vs0mg"},{"bike_id":"f949e47f-34f7-49f2-8183-bf6e5ec360aa","system_id":"levelo_inurba_marseille","lat":43.2893,"lon":5.36635,"is_reserved":false,"is_disabled":false,"rental_uris":{"android":"levelo://app?vid=f949e47f-34f7-49f2-8183-bf6e5ec360aa","ios":"levelo://app?vid=f949e47f-34f7-49f2-8183-bf6e5ec360aa"},"vehicle_type_id":"4","last_reported":1712340563,"current_range_meters":0,"station_id":"ce4bhap2rcd13ifvqek0","pricing_plan_id":"cebpf4jnsgd1na2vs0mg"},{"bike_id":"babf7040-1524-40b9-bd53-8e4d249f2ed1","system_id":"levelo_inurba_marseille","lat":43.28926,"lon":5.36635,"is_reserved":false,"is_disabled":false,"rental_uris":{"android":"levelo://app?vid=babf7040-1524-40b9-bd53-8e4d249f2ed1","ios":"levelo://app?vid=babf7040-1524-40b9-bd53-8e4d249f2ed1"},"vehicle_type_id":"4","last_reported":1712340563,"current_range_meters":0,"station_id":"ce4bhap2rcd13ifvqek0","pricing_plan_id":"cebpf4jnsgd1na2vs0mg"},{"bike_id":"e371a5c5-90fe-4e00-8202-29d78138f131","system_id":"levelo_inurba_marseille","lat":43.294153,"lon":5.386305,"is_reserved":false,"is_disabled":false,"rental_uris":{"android":"levelo://app?vid=e371a5c5-90fe-4e00-8202-29d78138f131","ios":"levelo://app?vid=e371a5c5-90fe-4e00-8202-29d78138f131"},"vehicle_type_id":"4","last_reported":1712340563,"current_range_meters":0,"station_id":"ce4bh2h2rcd13ifvqdh0","pricing_plan_id":"cebpf4jnsgd1na2vs0mg"},{"bike_id":"85226643-55a6-4e2f-8354-670290b1fc3c","system_id":"levelo_inurba_marseille","lat":43.289315,"lon":5.36393,"is_reserved":false,"is_disabled":false,"rental_uris":{"android":"levelo://app?vid=85226643-55a6-4e2f-8354-670290b1fc3c","ios":"levelo://app?vid=85226643-55a6-4e2f-8354-670290b1fc3c"},"vehicle_type_id":"4","last_reported":1712340563,"current_range_meters":0,"station_id":"ce4bhc92rcd13ifvqetg","pricing_plan_id":"cebpf4jnsgd1na2vs0mg"},{"bike_id":"08e1276a-4df6-4813-b280-434110c8a693","system_id":"levelo_inurba_marseille","lat":43.289306,"lon":5.363982,"is_reserved":false,"is_disabled":false,"rental_uris":{"android":"levelo://app?vid=08e1276a-4df6-4813-b280-434110c8a693","ios":"levelo://app?vid=08e1276a-4df6-4813-b280-434110c8a693"},"vehicle_type_id":"4","last_reported":1712340563,"current_range_meters":0,"station_id":"ce4bhc92rcd13ifvqetg","pricing_plan_id":"cebpf4jnsgd1na2vs0mg"},{"bike_id":"4f4fe881-aeb7-4a31-bfc1-57176cd061de","system_id":"levelo_inurba_marseille","lat":43.288501,"lon":5.393087,"is_reserved":false,"is_disabled":false,"rental_uris":{"android":"levelo://app?vid=4f4fe881-aeb7-4a31-bfc1-57176cd061de","ios":"levelo://app?vid=4f4fe881-aeb7-4a31-bfc1-57176cd061de"},"vehicle_type_id":"4","last_reported":1712340563,"current_range_meters":23600,"station_id":"ce4bh2p2rcd13ifvqdi0","pricing_plan_id":"cebpf4jnsgd1na2vs0mg"},{"bike_id":"bbe13161-e0d9-4f60-b7bb-5df6718e116f","system_id":"levelo_inurba_marseille","lat":43.2893,"lon":5.36387,"is_reserved":false,"is_disabled":false,"rental_uris":{"android":"levelo://app?vid=bbe13161-e0d9-4f60-b7bb-5df6718e116f","ios":"levelo://app?vid=bbe13161-e0d9-4f60-b7bb-5df6718e116f"},"vehicle_type_id":"4","last_reported":1712340563,"current_range_meters":0,"station_id":"ce4bhc92rcd13ifvqetg","pricing_plan_id":"cebpf4jnsgd1na2vs0mg"},{"bike_id":"19c1f321-a30f-47c8-aedd-12ea124f1a39","system_id":"levelo_inurba_marseille","lat":43.29277,"lon":5.38446,"is_reserved":false,"is_disabled":false,"rental_uris":{"android":"levelo://app?vid=19c1f321-a30f-47c8-aedd-12ea124f1a39","ios":"levelo://app?vid=19c1f321-a30f-47c8-aedd-12ea124f1a39"},"vehicle_type_id":"4","last_reported":1712340563,"current_range_meters":19200,"station_id":"ce4bh692rcd13ifvqea0","pricing_plan_id":"cebpf4jnsgd1na2vs0mg"},{"bike_id":"0dd45f0e-02f1-40c5-a34c-c3609452924f","system_id":"levelo_inurba_marseille","lat":43.29269,"lon":5.38429,"is_reserved":false,"is_disabled":false,"rental_uris":{"android":"levelo://app?vid=0dd45f0e-02f1-40c5-a34c-c3609452924f","ios":"levelo://app?vid=0dd45f0e-02f1-40c5-a34c-c3609452924f"},"vehicle_type_id":"4","last_reported":1712340563,"current_range_meters":2400,"station_id":"ce4bh692rcd13ifvqea0","pricing_plan_id":"cebpf4jnsgd1na2vs0mg"},{"bike_id":"ae94c1ca-2808-407f-a3c3-a1769b2eddef","system_id":"levelo_inurba_marseille","lat":43.29271,"lon":5.38436,"is_reserved":false,"is_disabled":false,"rental_uris":{"android":"levelo://app?vid=ae94c1ca-2808-407f-a3c3-a1769b2eddef","ios":"levelo://app?vid=ae94c1ca-2808-407f-a3c3-a1769b2eddef"},"vehicle_type_id":"4","last_reported":1712340563,"current_range_meters":6000,"station_id":"ce4bh692rcd13ifvqea0","pricing_plan_id":"cebpf4jnsgd1na2vs0mg"},{"bike_id":"7e3870b6-be61-4a75-a975-0d8c697d425b","system_id":"levelo_inurba_marseille","lat":43.292687,"lon":5.384361,"is_reserved":false,"is_disabled":false,"rental_uris":{"android":"levelo://app?vid=7e3870b6-be61-4a75-a975-0d8c697d425b","ios":"levelo://app?vid=7e3870b6-be61-4a75-a975-0d8c697d425b"},"vehicle_type_id":"4","last_reported":1712340563,"current_range_meters":20400,"station_id":"ce4bh692rcd13ifvqea0","pricing_plan_id":"cebpf4jnsgd1na2vs0mg"},{"bike_id":"01b09701-d83e-4163-8d63-db0dd5384c42","system_id":"levelo_inurba_marseille","lat":43.29267,"lon":5.38434,"is_reserved":false,"is_disabled":false,"rental_uris":{"android":"levelo://app?vid=01b09701-d83e-4163-8d63-db0dd5384c42","ios":"levelo://app?vid=01b09701-d83e-4163-8d63-db0dd5384c42"},"vehicle_type_id":"4","last_reported":1712340563,"current_range_meters":1600,"station_id":"ce4bh692rcd13ifvqea0","pricing_plan_id":"cebpf4jnsgd1na2vs0mg"},{"bike_id":"e85e372a-67c1-4ad4-b640-8d5614cf7e64","system_id":"levelo_inurba_marseille","lat":43.29052,"lon":5.37842,"is_reserved":false,"is_disabled":false,"rental_uris":{"android":"levelo://app?vid=e85e372a-67c1-4ad4-b640-8d5614cf7e64","ios":"levelo://app?vid=e85e372a-67c1-4ad4-b640-8d5614cf7e64"},"vehicle_type_id":"4","last_reported":1712340563,"current_range_meters":4400,"station_id":"","pricing_plan_id":"cebpf4jnsgd1na2vs0mg"},{"bike_id":"0aad1750-83b6-499d-b682-b9ddfe1c9d70","system_id":"levelo_inurba_marseille","lat":43.29272,"lon":5.38447,"is_reserved":false,"is_disabled":false,"rental_uris":{"android":"levelo://app?vid=0aad1750-83b6-499d-b682-b9ddfe1c9d70","ios":"levelo://app?vid=0aad1750-83b6-499d-b682-b9ddfe1c9d70"},"vehicle_type_id":"4","last_reported":1712340563,"current_range_meters":0,"station_id":"ce4bh692rcd13ifvqea0","pricing_plan_id":"cebpf4jnsgd1na2vs0mg"},{"bike_id":"35425e44-2bf4-4463-aae2-7d549eb21b6f","system_id":"levelo_inurba_marseille","lat":43.2927,"lon":5.38444,"is_reserved":false,"is_disabled":false,"rental_uris":{"android":"levelo://app?vid=35425e44-2bf4-4463-aae2-7d549eb21b6f","ios":"levelo://app?vid=35425e44-2bf4-4463-aae2-7d549eb21b6f"},"vehicle_type_id":"4","last_reported":1712340563,"current_range_meters":400,"station_id":"ce4bh692rcd13ifvqea0","pricing_plan_id":"cebpf4jnsgd1na2vs0mg"},{"bike_id":"d77c2950-5bdc-4dd5-86aa-02e9ea382e98","system_id":"levelo_inurba_marseille","lat":43.29269,"lon":5.38442,"is_reserved":false,"is_disabled":false,"rental_uris":{"android":"levelo://app?vid=d77c2950-5bdc-4dd5-86aa-02e9ea382e98","ios":"levelo://app?vid=d77c2950-5bdc-4dd5-86aa-02e9ea382e98"},"vehicle_type_id":"4","last_reported":1712340563,"current_range_meters":0,"station_id":"ce4bh692rcd13ifvqea0","pricing_plan_id":"cebpf4jnsgd1na2vs0mg"},{"bike_id":"9d7ea0f4-a23b-4653-a3b7-46f7903294c1","system_id":"levelo_inurba_marseille","lat":43.29266,"lon":5.38438,"is_reserved":false,"is_disabled":false,"rental_uris":{"android":"levelo://app?vid=9d7ea0f4-a23b-4653-a3b7-46f7903294c1","ios":"levelo://app?vid=9d7ea0f4-a23b-4653-a3b7-46f7903294c1"},"vehicle_type_id":"4","last_reported":1712340563,"current_range_meters":5600,"station_id":"ce4bh692rcd13ifvqea0","pricing_plan_id":"cebpf4jnsgd1na2vs0mg"},{"bike_id":"a78f8543-3b60-4e11-a363-25cb098e1daa","system_id":"levelo_inurba_marseille","lat":43.292644,"lon":5.384257,"is_reserved":false,"is_disabled":false,"rental_uris":{"android":"levelo://app?vid=a78f8543-3b60-4e11-a363-25cb098e1daa","ios":"levelo://app?vid=a78f8543-3b60-4e11-a363-25cb098e1daa"},"vehicle_type_id":"4","last_reported":1712340563,"current_range_meters":8800,"station_id":"ce4bh692rcd13ifvqea0","pricing_plan_id":"cebpf4jnsgd1na2vs0mg"},{"bike_id":"eaa175dd-3134-47fe-9903-37583ba77d41","system_id":"levelo_inurba_marseille","lat":43.292644,"lon":5.384257,"is_reserved":false,"is_disabled":false,"rental_uris":{"android":"levelo://app?vid=eaa175dd-3134-47fe-9903-37583ba77d41","ios":"levelo://app?vid=eaa175dd-3134-47fe-9903-37583ba77d41"},"vehicle_type_id":"4","last_reported":1712340563,"current_range_meters":21200,"station_id":"ce4bh692rcd13ifvqea0","pricing_plan_id":"cebpf4jnsgd1na2vs0mg"},{"bike_id":"196f5109-741a-4b1c-b22a-c8f276d44410","system_id":"levelo_inurba_marseille","lat":43.292492,"lon":5.384069,"is_reserved":false,"is_disabled":false,"rental_uris":{"android":"levelo://app?vid=196f5109-741a-4b1c-b22a-c8f276d44410","ios":"levelo://app?vid=196f5109-741a-4b1c-b22a-c8f276d44410"},"vehicle_type_id":"4","last_reported":1712340563,"current_range_meters":24400,"station_id":"ce4bh692rcd13ifvqea0","pricing_plan_id":"cebpf4jnsgd1na2vs0mg"},{"bike_id":"07892ccf-9cd6-48c4-b54d-bd804072361e","system_id":"levelo_inurba_marseille","lat":43.29263,"lon":5.38443,"is_reserved":false,"is_disabled":false,"rental_uris":{"android":"levelo://app?vid=07892ccf-9cd6-48c4-b54d-bd804072361e","ios":"levelo://app?vid=07892ccf-9cd6-48c4-b54d-bd804072361e"},"vehicle_type_id":"4","last_reported":1712340563,"current_range_meters":7200,"station_id":"ce4bh692rcd13ifvqea0","pricing_plan_id":"cebpf4jnsgd1na2vs0mg"},{"bike_id":"70c5cb82-654f-41a5-8c6c-9a4d7eb6d42c","system_id":"levelo_inurba_marseille","lat":43.29257,"lon":5.38431,"is_reserved":false,"is_disabled":false,"rental_uris":{"android":"levelo://app?vid=70c5cb82-654f-41a5-8c6c-9a4d7eb6d42c","ios":"levelo://app?vid=70c5cb82-654f-41a5-8c6c-9a4d7eb6d42c"},"vehicle_type_id":"4","last_reported":1712340563,"current_range_meters":3200,"station_id":"ce4bh692rcd13ifvqea0","pricing_plan_id":"cebpf4jnsgd1na2vs0mg"},{"bike_id":"9a717a88-e96e-48be-b34d-08fb7e86d6f2","system_id":"levelo_inurba_marseille","lat":43.292644,"lon":5.384257,"is_reserved":false,"is_disabled":false,"rental_uris":{"android":"levelo://app?vid=9a717a88-e96e-48be-b34d-08fb7e86d6f2","ios":"levelo://app?vid=9a717a88-e96e-48be-b34d-08fb7e86d6f2"},"vehicle_type_id":"4","last_reported":1712340563,"current_range_meters":0,"station_id":"ce4bh692rcd13ifvqea0","pricing_plan_id":"cebpf4jnsgd1na2vs0mg"},{"bike_id":"5940985c-0bdf-479f-9f89-5fb64ab90306","system_id":"levelo_inurba_marseille","lat":43.29262,"lon":5.38443,"is_reserved":false,"is_disabled":false,"rental_uris":{"android":"levelo://app?vid=5940985c-0bdf-479f-9f89-5fb64ab90306","ios":"levelo://app?vid=5940985c-0bdf-479f-9f89-5fb64ab90306"},"vehicle_type_id":"4","last_reported":1712340563,"current_range_meters":4800,"station_id":"ce4bh692rcd13ifvqea0","pricing_plan_id":"cebpf4jnsgd1na2vs0mg"},{"bike_id":"ebebcad7-4b9f-4132-aa60-c49553214e77","system_id":"levelo_inurba_marseille","lat":43.29261,"lon":5.38444,"is_reserved":false,"is_disabled":false,"rental_uris":{"android":"levelo://app?vid=ebebcad7-4b9f-4132-aa60-c49553214e77","ios":"levelo://app?vid=ebebcad7-4b9f-4132-aa60-c49553214e77"},"vehicle_type_id":"4","last_reported":1712340563,"current_range_meters":11600,"station_id":"ce4bh692rcd13ifvqea0","pricing_plan_id":"cebpf4jnsgd1na2vs0mg"},{"bike_id":"f3e18b93-5d4b-486b-ab77-d1362c4717d9","system_id":"levelo_inurba_marseille","lat":43.29257,"lon":5.38436,"is_reserved":false,"is_disabled":false,"rental_uris":{"android":"levelo://app?vid=f3e18b93-5d4b-486b-ab77-d1362c4717d9","ios":"levelo://app?vid=f3e18b93-5d4b-486b-ab77-d1362c4717d9"},"vehicle_type_id":"4","last_reported":1712340563,"current_range_meters":0,"station_id":"ce4bh692rcd13ifvqea0","pricing_plan_id":"cebpf4jnsgd1na2vs0mg"},{"bike_id":"81d8911b-5698-4e8a-8fbb-699fb4f7129e","system_id":"levelo_inurba_marseille","lat":43.29267,"lon":5.38461,"is_reserved":false,"is_disabled":false,"rental_uris":{"android":"levelo://app?vid=81d8911b-5698-4e8a-8fbb-699fb4f7129e","ios":"levelo://app?vid=81d8911b-5698-4e8a-8fbb-699fb4f7129e"},"vehicle_type_id":"4","last_reported":1712340563,"current_range_meters":1600,"station_id":"ce4bh692rcd13ifvqea0","pricing_plan_id":"cebpf4jnsgd1na2vs0mg"},{"bike_id":"9ba0aaa4-441b-493b-9097-61f66bf526ea","system_id":"levelo_inurba_marseille","lat":43.29258,"lon":5.38445,"is_reserved":false,"is_disabled":false,"rental_uris":{"android":"levelo://app?vid=9ba0aaa4-441b-493b-9097-61f66bf526ea","ios":"levelo://app?vid=9ba0aaa4-441b-493b-9097-61f66bf526ea"},"vehicle_type_id":"4","last_reported":1712340563,"current_range_meters":0,"station_id":"ce4bh692rcd13ifvqea0","pricing_plan_id":"cebpf4jnsgd1na2vs0mg"},{"bike_id":"1ccae9e4-4548-4f9c-a8fa-7d3b3354174f","system_id":"levelo_inurba_marseille","lat":43.309047,"lon":5.396551,"is_reserved":false,"is_disabled":false,"rental_uris":{"android":"levelo://app?vid=1ccae9e4-4548-4f9c-a8fa-7d3b3354174f","ios":"levelo://app?vid=1ccae9e4-4548-4f9c-a8fa-7d3b3354174f"},"vehicle_type_id":"4","last_reported":1712340563,"current_range_meters":24400,"station_id":"ce4bh012rcd13ifvqcv0","pricing_plan_id":"cebpf4jnsgd1na2vs0mg"},{"bike_id":"b2905768-b4bb-4826-8ed7-89a618e3c9c8","system_id":"levelo_inurba_marseille","lat":43.29253,"lon":5.38445,"is_reserved":false,"is_disabled":false,"rental_uris":{"android":"levelo://app?vid=b2905768-b4bb-4826-8ed7-89a618e3c9c8","ios":"levelo://app?vid=b2905768-b4bb-4826-8ed7-89a618e3c9c8"},"vehicle_type_id":"4","last_reported":1712340563,"current_range_meters":7200,"station_id":"ce4bh692rcd13ifvqea0","pricing_plan_id":"cebpf4jnsgd1na2vs0mg"},{"bike_id":"96195d77-3239-4ad7-8ea5-2596aa784aa3","system_id":"levelo_inurba_marseille","lat":43.290104,"lon":5.356111,"is_reserved":false,"is_disabled":false,"rental_uris":{"android":"levelo://app?vid=96195d77-3239-4ad7-8ea5-2596aa784aa3","ios":"levelo://app?vid=96195d77-3239-4ad7-8ea5-2596aa784aa3"},"vehicle_type_id":"4","last_reported":1712340563,"current_range_meters":8800,"station_id":"ce4bhb92rcd13ifvqen0","pricing_plan_id":"cebpf4jnsgd1na2vs0mg"},{"bike_id":"1183fe3f-38e7-43a2-8d4c-d445513ffabd","system_id":"levelo_inurba_marseille","lat":43.289969,"lon":5.35629,"is_reserved":false,"is_disabled":false,"rental_uris":{"android":"levelo://app?vid=1183fe3f-38e7-43a2-8d4c-d445513ffabd","ios":"levelo://app?vid=1183fe3f-38e7-43a2-8d4c-d445513ffabd"},"vehicle_type_id":"4","last_reported":1712340563,"current_range_meters":1200,"station_id":"ce4bhap2rcd13ifvqek0","pricing_plan_id":"cebpf4jnsgd1na2vs0mg"},{"bike_id":"8c4b524b-1996-43b4-ad24-8753d44155cf","system_id":"levelo_inurba_marseille","lat":43.290995,"lon":5.381361,"is_reserved":false,"is_disabled":false,"rental_uris":{"android":"levelo://app?vid=8c4b524b-1996-43b4-ad24-8753d44155cf","ios":"levelo://app?vid=8c4b524b-1996-43b4-ad24-8753d44155cf"},"vehicle_type_id":"4","last_reported":1712340563,"current_range_meters":2400,"station_id":"ce4bh512rcd13ifvqe2g","pricing_plan_id":"cebpf4jnsgd1na2vs0mg"},{"bike_id":"7fd64579-be49-45b9-83c9-ba5d1805f490","system_id":"levelo_inurba_marseille","lat":43.33021,"lon":5.39032,"is_reserved":false,"is_disabled":false,"rental_uris":{"android":"levelo://app?vid=7fd64579-be49-45b9-83c9-ba5d1805f490","ios":"levelo://app?vid=7fd64579-be49-45b9-83c9-ba5d1805f490"},"vehicle_type_id":"4","last_reported":1712340563,"current_range_meters":400,"station_id":"ce4bhr92rcd13ifvqhrg","pricing_plan_id":"cebpf4jnsgd1na2vs0mg"},{"bike_id":"f5efb968-c2c9-46b2-8c96-74076d3513fc","system_id":"levelo_inurba_marseille","lat":43.33023,"lon":5.39031,"is_reserved":false,"is_disabled":false,"rental_uris":{"android":"levelo://app?vid=f5efb968-c2c9-46b2-8c96-74076d3513fc","ios":"levelo://app?vid=f5efb968-c2c9-46b2-8c96-74076d3513fc"},"vehicle_type_id":"4","last_reported":1712340563,"current_range_meters":0,"station_id":"ce4bhr92rcd13ifvqhrg","pricing_plan_id":"cebpf4jnsgd1na2vs0mg"},{"bike_id":"c2e9d430-2537-43af-85e1-448ce2a265cf","system_id":"levelo_inurba_marseille","lat":43.33021,"lon":5.39035,"is_reserved":false,"is_disabled":false,"rental_uris":{"android":"levelo://app?vid=c2e9d430-2537-43af-85e1-448ce2a265cf","ios":"levelo://app?vid=c2e9d430-2537-43af-85e1-448ce2a265cf"},"vehicle_type_id":"4","last_reported":1712340563,"current_range_meters":16400,"station_id":"ce4bhr92rcd13ifvqhrg","pricing_plan_id":"cebpf4jnsgd1na2vs0mg"},{"bike_id":"51100bf3-a1c9-4109-8461-0302ab0d4978","system_id":"levelo_inurba_marseille","lat":43.330442,"lon":5.389148,"is_reserved":false,"is_disabled":false,"rental_uris":{"android":"levelo://app?vid=51100bf3-a1c9-4109-8461-0302ab0d4978","ios":"levelo://app?vid=51100bf3-a1c9-4109-8461-0302ab0d4978"},"vehicle_type_id":"4","last_reported":1712340563,"current_range_meters":7600,"station_id":"ce4bhr92rcd13ifvqhrg","pricing_plan_id":"cebpf4jnsgd1na2vs0mg"},{"bike_id":"11016847-0738-439f-9732-5321270350ea","system_id":"levelo_inurba_marseille","lat":43.33023,"lon":5.39035,"is_reserved":false,"is_disabled":false,"rental_uris":{"android":"levelo://app?vid=11016847-0738-439f-9732-5321270350ea","ios":"levelo://app?vid=11016847-0738-439f-9732-5321270350ea"},"vehicle_type_id":"4","last_reported":1712340563,"current_range_meters":14400,"station_id":"ce4bhr92rcd13ifvqhrg","pricing_plan_id":"cebpf4jnsgd1na2vs0mg"},