{"last_updated":1760807248,"ttl":60,"version":"2.2","data":{"bikes":[{"bike_id":"6a5a8602-087d-4cf9-bbab-c2451ef82e9a","system_id":"levelo_inurba_marseille","lat":43.275709,"lon":5.384197,"is_reserved":false,"is_disabled":false,"rental_uris":{"android":"levelo://app?vid=6a5a8602-087d-4cf9-bbab-c2451ef82e9a","ios":"levelo://app?vid=6a5a8602-087d-4cf9-bbab-c2451ef82e9a"},"vehicle_type_id":"4","last_reported":1760807248,"current_range_meters":2800,"station_id":"ce4bhh92rcd13ifvqfi0","pricing_plan_id":"cebpf4jnsgd1na2vs0mg"},{"bike_id":"8f46405d-52fa-4e1c-9e8f-d2887f47b105","system_id":"levelo_inurba_marseille","lat":43.28994,"lon":5.37561,"is_reserved":false,"is_disabled":false,"rental_uris":{"android":"levelo://app?vid=8f46405d-52fa-4e1c-9e8f-d2887f47b105","ios":"levelo://app?vid=8f46405d-52fa-4e1c-9e8f-d2887f47b105"},"vehicle_type_id":"4","last_reported":1760807248,"current_range_meters":2800,"station_id":"ce4bh692rcd13ifvqe90","pricing_plan_id":"cebpf4jnsgd1na2vs0mg"},{"bike_id":"4d714a26-2b1a-4bd4-b60e-cfe8419df733","system_id":"levelo_inurba_marseille","lat":43.229261,"lon":5.353721,"is_reserved":false,"is_disabled":false,"rental_uris":{"android":"levelo://app?vid=4d714a26-2b1a-4bd4-b60e-cfe8419df733","ios":"levelo://app?vid=4d714a26-2b1a-4bd4-b60e-cfe8419df733"},"vehicle_type_id":"4","last_reported":1760807248,"current_range_meters":2800,"station_id":"cpo3532slgdg3j2ikp40","pricing_plan_id":"cebpf4jnsgd1na2vs0mg"},{"bike_id":"1bcb2573-d979-42ab-bbe8-9907ec40d47d","system_id":"levelo_inurba_marseille","lat":43.29256,"lon":5.40907,"is_reserved":false,"is_disabled":false,"rental_uris":{"android":"levelo://app?vid=1bcb2573-d979-42ab-bbe8-9907ec40d47d","ios":"levelo://app?vid=1bcb2573-d979-42ab-bbe8-9907ec40d47d"},"vehicle_type_id":"4","last_reported":1760807248,"current_range_meters":2800,"station_id":"ce4bh192rcd13ifvqdc0","pricing_plan_id":"cebpf4jnsgd1na2vs0mg"},{"bike_id":"3a753e08-87f7-408e-8fe5-7b3e9ec9724f","system_id":"levelo_inurba_marseille","lat":43.24073,"lon":5.3777,"is_reserved":false,"is_disabled":false,"rental_uris":{"android":"levelo://app?vid=3a753e08-87f7-408e-8fe5-7b3e9ec9724f","ios":"levelo://app?vid=3a753e08-87f7-408e-8fe5-7b3e9ec9724f"},"vehicle_type_id":"4","last_reported":1760807248,"current_range_meters":2800,"station_id":"ce4bhnp2rcd13ifvqgvg","pricing_plan_id":"cebpf4jnsgd1na2vs0mg"},{"bike_id":"e081c8d2-95dc-47dc-912f-90026f555914","system_id":"levelo_inurba_marseille","lat":43.304982,"lon":5.414996,"is_reserved":false,"is_disabled":false,"rental_uris":{"android":"levelo://app?vid=e081c8d2-95dc-47dc-912f-90026f555914","ios":"levelo://app?vid=e081c8d2-95dc-47dc-912f-90026f555914"},"vehicle_type_id":"4","last_reported":1760807248,"current_range_meters":2800,"station_id":"","pricing_plan_id":"cebpf4jnsgd1na2vs0mg"},{"bike_id":"d849ad80-5ed6-494e-8d59-e8079751f1c8","system_id":"levelo_inurba_marseille","lat":43.33365,"lon":5.43066,"is_reserved":false,"is_disabled":false,"rental_uris":{"android":"levelo://app?vid=d849ad80-5ed6-494e-8d59-e8079751f1c8","ios":"levelo://app?vid=d849ad80-5ed6-494e-8d59-e8079751f1c8"},"vehicle_type_id":"4","last_reported":1760807248,"current_range_meters":2800,"station_id":"","pricing_plan_id":"cebpf4jnsgd1na2vs0mg"},{"bike_id":"078ae640-15e4-490d-ba19-167a7fb2befa","system_id":"levelo_inurba_marseille","lat":43.29245,"lon":5.38437,"is_reserved":false,"is_disabled":false,"rental_uris":{"android":"levelo://app?vid=078ae640-15e4-490d-ba19-167a7fb2befa","ios":"levelo://app?vid=078ae640-15e4-490d-ba19-167a7fb2befa"},"vehicle_type_id":"4","last_reported":1760807248,"current_range_meters":2800,"station_id":"ce4bh692rcd13ifvqea0","pricing_plan_id":"cebpf4jnsgd1na2vs0mg"},{"bike_id":"a148b245-eef6-4ca8-82ba-33363e957092","system_id":"levelo_inurba_marseille","lat":43.28721,"lon":5.37938,"is_reserved":false,"is_disabled":false,"rental_uris":{"android":"levelo://app?vid=a148b245-eef6-4ca8-82ba-33363e957092","ios":"levelo://app?vid=a148b245-eef6-4ca8-82ba-33363e957092"},"vehicle_type_id":"4","last_reported":1760807248,"current_range_meters":2800,"station_id":"ce4bh9p2rcd13ifvqec0","pricing_plan_id":"cebpf4jnsgd1na2vs0mg"},{"bike_id":"eadd2edf-ad22-4637-86e0-c77911baf1f6","system_id":"levelo_inurba_marseille","lat":43.21192,"lon":5.35056,"is_reserved":false,"is_disabled":true,"rental_uris":{"android":"levelo://app?vid=eadd2edf-ad22-4637-86e0-c77911baf1f6","ios":"levelo://app?vid=eadd2edf-ad22-4637-86e0-c77911baf1f6"},"vehicle_type_id":"4","last_reported":1760807248,"current_range_meters":3200,"station_id":"st_cvj6sg6p6f1abm77japg","pricing_plan_id":"cebpf4jnsgd1na2vs0mg"},{"bike_id":"df167aa3-5dcc-4e45-96e7-26232ebf1f6a","system_id":"levelo_inurba_marseille","lat":43.30802,"lon":5.43532,"is_reserved":false,"is_disabled":false,"rental_uris":{"android":"levelo://app?vid=df167aa3-5dcc-4e45-96e7-26232ebf1f6a","ios":"levelo://app?vid=df167aa3-5dcc-4e45-96e7-26232ebf1f6a"},"vehicle_type_id":"4","last_reported":1760807248,"current_range_meters":3200,"station_id":"ce4bhph2rcd13ifvqheg","pricing_plan_id":"cebpf4jnsgd1na2vs0mg"},{"bike_id":"1238043c-ca0c-4a59-99d1-9a66952aada9","system_id":"levelo_inurba_marseille","lat":43.29825,"lon":5.38085,"is_reserved":false,"is_disabled":false,"rental_uris":{"android":"levelo://app?vid=1238043c-ca0c-4a59-99d1-9a66952aada9","ios":"levelo://app?vid=1238043c-ca0c-4a59-99d1-9a66952aada9"},"vehicle_type_id":"4","last_reported":1760807248,"current_range_meters":3200,"station_id":"ce4bgip2rcd13ifvqbb0","pricing_plan_id":"cebpf4jnsgd1na2vs0mg"},{"bike_id":"33de5793-85a5-48b8-bb7c-0ec374b034ca","system_id":"levelo_inurba_marseille","lat":43.22532,"lon":5.34832,"is_reserved":false,"is_disabled":true,"rental_uris":{"android":"levelo://app?vid=33de5793-85a5-48b8-bb7c-0ec374b034ca","ios":"levelo://app?vid=33de5793-85a5-48b8-bb7c-0ec374b034ca"},"vehicle_type_id":"4","last_reported":1760807248,"current_range_meters":3200,"station_id":"","pricing_plan_id":"cebpf4jnsgd1na2vs0mg"},{"bike_id":"7ec8b36f-6f1a-41f0-a03a-a45e51acb027","system_id":"levelo_inurba_marseille","lat":43.217443,"lon":5.34613,"is_reserved":false,"is_disabled":true,"rental_uris":{"android":"levelo://app?vid=7ec8b36f-6f1a-41f0-a03a-a45e51acb027","ios":"levelo://app?vid=7ec8b36f-6f1a-41f0-a03a-a45e51acb027"},"vehicle_type_id":"4","last_reported":1760807248,"current_range_meters":3200,"station_id":"st_cvj6r9ubvosntc0bgbag","pricing_plan_id":"cebpf4jnsgd1na2vs0mg"},{"bike_id":"121f55c8-5a85-4142-a96c-bf52eb873442","system_id":"levelo_inurba_marseille","lat":43.304612,"lon":5.369243,"is_reserved":false,"is_disabled":false,"rental_uris":{"android":"levelo://app?vid=121f55c8-5a85-4142-a96c-bf52eb873442","ios":"levelo://app?vid=121f55c8-5a85-4142-a96c-bf52eb873442"},"vehicle_type_id":"4","last_reported":1760807248,"current_range_meters":3200,"station_id":"","pricing_plan_id":"cebpf4jnsgd1na2vs0mg"},{"bike_id":"c091b01a-1f8e-45bb-b53f-81b1d28ddb1d","system_id":"levelo_inurba_marseille","lat":43.292632,"lon":5.384347,"is_reserved":false,"is_disabled":false,"rental_uris":{"android":"levelo://app?vid=c091b01a-1f8e-45bb-b53f-81b1d28ddb1d","ios":"levelo://app?vid=c091b01a-1f8e-45bb-b53f-81b1d28ddb1d"},"vehicle_type_id":"4","last_reported":1760807248,"current_range_meters":3200,"station_id":"ce4bh692rcd13ifvqea0","pricing_plan_id":"cebpf4jnsgd1na2vs0mg"},{"bike_id":"ab3b05ce-9d4e-402a-aad3-521fdf353a78","system_id":"levelo_inurba_marseille","lat":43.29257,"lon":5.38441,"is_reserved":false,"is_disabled":false,"rental_uris":{"android":"levelo://app?vid=ab3b05ce-9d4e-402a-aad3-521fdf353a78","ios":"levelo://app?vid=ab3b05ce-9d4e-402a-aad3-521fdf353a78"},"vehicle_type_id":"4","last_reported":1760807248,"current_range_meters":3600,"station_id":"ce4bh692rcd13ifvqea0","pricing_plan_id":"cebpf4jnsgd1na2vs0mg"},{"bike_id":"518322f4-c254-4457-b2b1-3eff0ae46e15","system_id":"levelo_inurba_marseille","lat":43.28467,"lon":5.35899,"is_reserved":false,"is_disabled":false,"rental_uris":{"android":"levelo://app?vid=518322f4-c254-4457-b2b1-3eff0ae46e15","ios":"levelo://app?vid=518322f4-c254-4457-b2b1-3eff0ae46e15"},"vehicle_type_id":"4","last_reported":1760807248,"current_range_meters":3600,"station_id":"ce4bhah2rcd13ifvqei0","pricing_plan_id":"cebpf4jnsgd1na2vs0mg"},{"bike_id":"5959b819-a2fd-4cd9-b685-c1861816e5d0","system_id":"levelo_inurba_marseille","lat":43.268837,"lon":5.369304,"is_reserved":false,"is_disabled":false,"rental_uris":{"android":"levelo://app?vid=5959b819-a2fd-4cd9-b685-c1861816e5d0","ios":"levelo://app?vid=5959b819-a2fd-4cd9-b685-c1861816e5d0"},"vehicle_type_id":"4","last_reported":1760807248,"current_range_meters":3600,"station_id":"","pricing_plan_id":"cebpf4jnsgd1na2vs0mg"},{"bike_id":"bd90ca8d-70e7-415f-93e3-28dde668eff8","system_id":"levelo_inurba_marseille","lat":43.28269,"lon":5.35068,"is_reserved":false,"is_disabled":false,"rental_uris":{"android":"levelo://app?vid=bd90ca8d-70e7-415f-93e3-28dde668eff8","ios":"levelo://app?vid=bd90ca8d-70e7-415f-93e3-28dde668eff8"},"vehicle_type_id":"4","last_reported":1760807248,"current_range_meters":3600,"station_id":"ce4bhbp2rcd13ifvqerg","pricing_plan_id":"cebpf4jnsgd1na2vs0mg"},{"bike_id":"fafaa4e6-0e83-47e0-a897-7eef03200624","system_id":"levelo_inurba_marseille","lat":43.30165,"lon":5.37426,"is_reserved":false,"is_disabled":false,"rental_uris":{"android":"levelo://app?vid=fafaa4e6-0e83-47e0-a897-7eef03200624","ios":"levelo://app?vid=fafaa4e6-0e83-47e0-a897-7eef03200624"},"vehicle_type_id":"4","last_reported":1760807248,"current_range_meters":3600,"station_id":"ce4bgs92rcd13ifvqcc0","pricing_plan_id":"cebpf4jnsgd1na2vs0mg"},{"bike_id":"34f9e915-35c6-48df-87c9-70e74d947c20","system_id":"levelo_inurba_marseille","lat":43.28665,"lon":5.38653,"is_reserved":false,"is_disabled":false,"rental_uris":{"android":"levelo://app?vid=34f9e915-35c6-48df-87c9-70e74d947c20","ios":"levelo://app?vid=34f9e915-35c6-48df-87c9-70e74d947c20"},"vehicle_type_id":"4","last_reported":1760807248,"current_range_meters":3600,"station_id":"ce4bh492rcd13ifvqdug","pricing_plan_id":"cebpf4jnsgd1na2vs0mg"},{"bike_id":"3598b383-579b-47d9-89b6-df786d16c45f","system_id":"levelo_inurba_marseille","lat":43.29426,"lon":5.37497,"is_reserved":false,"is_disabled":false,"rental_uris":{"android":"levelo://app?vid=3598b383-579b-47d9-89b6-df786d16c45f","ios":"levelo://app?vid=3598b383-579b-47d9-89b6-df786d16c45f"},"vehicle_type_id":"4","last_reported":1760807248,"current_range_meters":3600,"station_id":"","pricing_plan_id":"cebpf4jnsgd1na2vs0mg"},{"bike_id":"9ea85c45-8d87-4931-b7af-2a9d4ede4b1b","system_id":"levelo_inurba_marseille","lat":43.24809,"lon":5.37458,"is_reserved":false,"is_disabled":false,"rental_uris":{"android":"levelo://app?vid=9ea85c45-8d87-4931-b7af-2a9d4ede4b1b","ios":"levelo://app?vid=9ea85c45-8d87-4931-b7af-2a9d4ede4b1b"},"vehicle_type_id":"4","last_reported":1760807248,"current_range_meters":3600,"station_id":"ce4bhgh2rcd13ifvqfb0","pricing_plan_id":"cebpf4jnsgd1na2vs0mg"},{"bike_id":"e257a5c9-b99e-4af1-ac4f-b017f1c8b418","system_id":"levelo_inurba_marseille","lat":43.33759,"lon":5.37438,"is_reserved":false,"is_disabled":false,"rental_uris":{"android":"levelo://app?vid=e257a5c9-b99e-4af1-ac4f-b017f1c8b418","ios":"levelo://app?vid=e257a5c9-b99e-4af1-ac4f-b017f1c8b418"},"vehicle_type_id":"4","last_reported":1760807248,"current_range_meters":4000,"station_id":"","pricing_plan_id":"cebpf4jnsgd1na2vs0mg"},{"bike_id":"a31901fd-1144-4c2f-96ad-e519ba7d4d16","system_id":"levelo_inurba_marseille","lat":43.23151,"lon":5.43717,"is_reserved":false,"is_disabled":true,"rental_uris":{"android":"levelo://app?vid=a31901fd-1144-4c2f-96ad-e519ba7d4d16","ios":"levelo://app?vid=a31901fd-1144-4c2f-96ad-e519ba7d4d16"},"vehicle_type_id":"4","last_reported":1760807248,"current_range_meters":4000,"station_id":"ce4bhmp2rcd13ifvqgog","pricing_plan_id":"cebpf4jnsgd1na2vs0mg"},{"bike_id":"8c13702a-9077-48ac-868c-18714cd13e65","system_id":"levelo_inurba_marseille","lat":43.28465,"lon":5.35897,"is_reserved":false,"is_disabled":false,"rental_uris":{"android":"levelo://app?vid=8c13702a-9077-48ac-868c-18714cd13e65","ios":"levelo://app?vid=8c13702a-9077-48ac-868c-18714cd13e65"},"vehicle_type_id":"4","last_reported":1760807248,"current_range_meters":4000,"station_id":"ce4bhah2rcd13ifvqei0","pricing_plan_id":"cebpf4jnsgd1na2vs0mg"},{"bike_id":"e5026f60-bb34-4ab4-a95b-043113155850","system_id":"levelo_inurba_marseille","lat":43.23053,"lon":5.35492,"is_reserved":false,"is_disabled":false,"rental_uris":{"android":"levelo://app?vid=e5026f60-bb34-4ab4-a95b-043113155850","ios":"levelo://app?vid=e5026f60-bb34-4ab4-a95b-043113155850"},"vehicle_type_id":"4","last_reported":1760807248,"current_range_meters":4000,"station_id":"cpo3342slgdg3j2ifvpg","pricing_plan_id":"cebpf4jnsgd1na2vs0mg"},{"bike_id":"7e4f10bc-d167-4c68-b3fc-049412f6c02a","system_id":"levelo_inurba_marseille","lat":43.267693,"lon":5.394255,"is_reserved":false,"is_disabled":false,"rental_uris":{"android":"levelo://app?vid=7e4f10bc-d167-4c68-b3fc-049412f6c02a","ios":"levelo://app?vid=7e4f10bc-d167-4c68-b3fc-049412f6c02a"},"vehicle_type_id":"4","last_reported":1760807248,"current_range_meters":4400,"station_id":"ce4bhh12rcd13ifvqfg0","pricing_plan_id":"cebpf4jnsgd1na2vs0mg"},{"bike_id":"4cc2fcfc-b819-4f55-873c-65cd58b9c975","system_id":"levelo_inurba_marseille","lat":43.255056,"lon":5.376504,"is_reserved":false,"is_disabled":false,"rental_uris":{"android":"levelo://app?vid=4cc2fcfc-b819-4f55-873c-65cd58b9c975","ios":"levelo://app?vid=4cc2fcfc-b819-4f55-873c-65cd58b9c975"},"vehicle_type_id":"4","last_reported":1760807248,"current_range_meters":4400,"station_id":"ce4bhh12rcd13ifvqff0","pricing_plan_id":"cebpf4jnsgd1na2vs0mg"},{"bike_id":"9f7ae067-67a4-4017-82dd-9b168230ac8d","system_id":"levelo_inurba_marseille","lat":43.283447,"lon":5.381104,"is_reserved":false,"is_disabled":false,"rental_uris":{"android":"levelo://app?vid=9f7ae067-67a4-4017-82dd-9b168230ac8d","ios":"levelo://app?vid=9f7ae067-67a4-4017-82dd-9b168230ac8d"},"vehicle_type_id":"4","last_reported":1760807248,"current_range_meters":4400,"station_id":"ce4bh412rcd13ifvqdr0","pricing_plan_id":"cebpf4jnsgd1na2vs0mg"},{"bike_id":"3fee97cd-6265-47c5-91b6-6eb06257dfe7","system_id":"levelo_inurba_marseille","lat":43.297899,"lon":5.393436,"is_reserved":false,"is_disabled":false,"rental_uris":{"android":"levelo://app?vid=3fee97cd-6265-47c5-91b6-6eb06257dfe7","ios":"levelo://app?vid=3fee97cd-6265-47c5-91b6-6eb06257dfe7"},"vehicle_type_id":"4","last_reported":1760807248,"current_range_meters":4400,"station_id":"ce4bgi12rcd13ifvqb70","pricing_plan_id":"cebpf4jnsgd1na2vs0mg"},{"bike_id":"ea7cb060-d598-4dde-8fb1-5edc70aa26d8","system_id":"levelo_inurba_marseille","lat":43.26496,"lon":5.39556,"is_reserved":false,"is_disabled":true,"rental_uris":{"android":"levelo://app?vid=ea7cb060-d598-4dde-8fb1-5edc70aa26d8","ios":"levelo://app?vid=ea7cb060-d598-4dde-8fb1-5edc70aa26d8"},"vehicle_type_id":"4","last_reported":1760807248,"current_range_meters":4400,"station_id":"ce4bhi12rcd13ifvqfq0","pricing_plan_id":"cebpf4jnsgd1na2vs0mg"},{"bike_id":"71914a0b-4078-4e91-8fe4-c4688186f52f","system_id":"levelo_inurba_marseille","lat":43.29267,"lon":5.38455,"is_reserved":false,"is_disabled":false,"rental_uris":{"android":"levelo://app?vid=71914a0b-4078-4e91-8fe4-c4688186f52f","ios":"levelo://app?vid=71914a0b-4078-4e91-8fe4-c4688186f52f"},"vehicle_type_id":"4","last_reported":1760807248,"current_range_meters":4400,"station_id":"ce4bh692rcd13ifvqea0","pricing_plan_id":"cebpf4jnsgd1na2vs0mg"},{"bike_id":"6d564c11-9954-4b75-8bd9-f11c3db27a9f","system_id":"levelo_inurba_marseille","lat":43.29256,"lon":5.38441,"is_reserved":false,"is_disabled":false,"rental_uris":{"android":"levelo://app?vid=6d564c11-9954-4b75-8bd9-f11c3db27a9f","ios":"levelo://app?vid=6d564c11-9954-4b75-8bd9-f11c3db27a9f"},"vehicle_type_id":"4","last_reported":1760807248,"current_range_meters":4800,"station_id":"ce4bh692rcd13ifvqea0","pricing_plan_id":"cebpf4jnsgd1na2vs0mg"},{"bike_id":"ca14c915-0361-4c0d-9307-5c9fbc4de036","system_id":"levelo_inurba_marseille","lat":43.32366,"lon":5.36762,"is_reserved":false,"is_disabled":false,"rental_uris":{"android":"levelo://app?vid=ca14c915-0361-4c0d-9307-5c9fbc4de036","ios":"levelo://app?vid=ca14c915-0361-4c0d-9307-5c9fbc4de036"},"vehicle_type_id":"4","last_reported":1760807248,"current_range_meters":4800,"station_id":"ce4bhsh2rcd13ifvqi2g","pricing_plan_id":"cebpf4jnsgd1na2vs0mg"},{"bike_id":"a852e746-1559-4412-8f92-060db441a865","system_id":"levelo_inurba_marseille","lat":43.27216,"lon":5.3918,"is_reserved":false,"is_disabled":false,"rental_uris":{"android":"levelo://app?vid=a852e746-1559-4412-8f92-060db441a865","ios":"levelo://app?vid=a852e746-1559-4412-8f92-060db441a865"},"vehicle_type_id":"4","last_reported":1760807248,"current_range_meters":4800,"station_id":"ce4bhhp2rcd13ifvqfm0","pricing_plan_id":"cebpf4jnsgd1na2vs0mg"},{"bike_id":"e7da41cd-e0bd-4204-a5d2-25a8e8420203","system_id":"levelo_inurba_marseille","lat":43.29529,"lon":5.38548,"is_reserved":false,"is_disabled":false,"rental_uris":{"android":"levelo://app?vid=e7da41cd-e0bd-4204-a5d2-25a8e8420203","ios":"levelo://app?vid=e7da41cd-e0bd-4204-a5d2-25a8e8420203"},"vehicle_type_id":"4","last_reported":1760807248,"current_range_meters":5600,"station_id":"ce4bgih2rcd13ifvqba0","pricing_plan_id":"cebpf4jnsgd1na2vs0mg"},{"bike_id":"ac2210bf-3049-444d-b491-982ae518be0f","system_id":"levelo_inurba_marseille","lat":43.28688,"lon":5.37387,"is_reserved":false,"is_disabled":false,"rental_uris":{"android":"levelo://app?vid=ac2210bf-3049-444d-b491-982ae518be0f","ios":"levelo://app?vid=ac2210bf-3049-444d-b491-982ae518be0f"},"vehicle_type_id":"4","last_reported":1760807248,"current_range_meters":5600,"station_id":"ce4bh3p2rcd13ifvqdq0","pricing_plan_id":"cebpf4jnsgd1na2vs0mg"},{"bike_id":"b5997b44-1a6c-43d5-aa07-812e4cf430bd","system_id":"levelo_inurba_marseille","lat":43.29256,"lon":5.38437,"is_reserved":false,"is_disabled":false,"rental_uris":{"android":"levelo://app?vid=b5997b44-1a6c-43d5-aa07-812e4cf430bd","ios":"levelo://app?vid=b5997b44-1a6c-43d5-aa07-812e4cf430bd"},"vehicle_type_id":"4","last_reported":1760807248,"current_range_meters":5600,"station_id":"ce4bh692rcd13ifvqea0","pricing_plan_id":"cebpf4jnsgd1na2vs0mg"},{"bike_id":"24d82d64-1145-442f-a9f5-19238b0b39ef","system_id":"levelo_inurba_marseille","lat":43.272133,"lon":5.391866,"is_reserved":false,"is_disabled":false,"rental_uris":{"android":"levelo://app?vid=24d82d64-1145-442f-a9f5-19238b0b39ef","ios":"levelo://app?vid=24d82d64-1145-442f-a9f5-19238b0b39ef"},"vehicle_type_id":"4","last_reported":1760807248,"current_range_meters":5600,"station_id":"","pricing_plan_id":"cebpf4jnsgd1na2vs0mg"},{"bike_id":"eaae80f4-fa67-4504-a2c6-3255f3900026","system_id":"levelo_inurba_marseille","lat":43.30646,"lon":5.40092,"is_reserved":false,"is_disabled":false,"rental_uris":{"android":"levelo://app?vid=eaae80f4-fa67-4504-a2c6-3255f3900026","ios":"levelo://app?vid=eaae80f4-fa67-4504-a2c6-3255f3900026"},"vehicle_type_id":"4","last_reported":1760807248,"current_range_meters":5600,"station_id":"ce4bh112rcd13ifvqda0","pricing_plan_id":"cebpf4jnsgd1na2vs0mg"},{"bike_id":"8792db22-e0f3-4d1f-8806-5400df97f727","system_id":"levelo_inurba_marseille","lat":43.21198,"lon":5.35083,"is_reserved":false,"is_disabled":false,"rental_uris":{"android":"levelo://app?vid=8792db22-e0f3-4d1f-8806-5400df97f727","ios":"levelo://app?vid=8792db22-e0f3-4d1f-8806-5400df97f727"},"vehicle_type_id":"4","last_reported":1760807248,"current_range_meters":6000,"station_id":"st_cvj6sg6p6f1abm77japg","pricing_plan_id":"cebpf4jnsgd1na2vs0mg"},{"bike_id":"b198fdae-a02e-4380-b40a-23fa0f5e4197","system_id":"levelo_inurba_marseille","lat":43.286254,"lon":5.406944,"is_reserved":false,"is_disabled":false,"rental_uris":{"android":"levelo://app?vid=b198fdae-a02e-4380-b40a-23fa0f5e4197","ios":"levelo://app?vid=b198fdae-a02e-4380-b40a-23fa0f5e4197"},"vehicle_type_id":"4","last_reported":1760807248,"current_range_meters":6000,"station_id":"","pricing_plan_id":"cebpf4jnsgd1na2vs0mg"},{"bike_id":"dcc00e67-1191-4314-ab42-5b6a0efd1bdf","system_id":"levelo_inurba_marseille","lat":43.26241,"lon":5.40394,"is_reserved":false,"is_disabled":false,"rental_uris":{"android":"levelo://app?vid=dcc00e67-1191-4314-ab42-5b6a0efd1bdf","ios":"levelo://app?vid=dcc00e67-1191-4314-ab42-5b6a0efd1bdf"},"vehicle_type_id":"4","last_reported":1760807248,"current_range_meters":6400,"station_id":"ce4bhmh2rcd13ifvqgmg","pricing_plan_id":"cebpf4jnsgd1na2vs0mg"},{"bike_id":"b4cff1e7-ee72-4252-acd7-a45e96f5a7fd","system_id":"levelo_inurba_marseille","lat":43.27994,"lon":5.40008,"is_reserved":false,"is_disabled":false,"rental_uris":{"android":"levelo://app?vid=b4cff1e7-ee72-4252-acd7-a45e96f5a7fd","ios":"levelo://app?vid=b4cff1e7-ee72-4252-acd7-a45e96f5a7fd"},"vehicle_type_id":"4","last_reported":1760807248,"current_range_meters":6400,"station_id":"ce4bho92rcd13ifvqh4g","pricing_plan_id":"cebpf4jnsgd1na2vs0mg"},{"bike_id":"b1e77faf-2c0d-407a-acbf-1a081c84d926","system_id":"levelo_inurba_marseille","lat":43.288721,"lon":5.382717,"is_reserved":false,"is_disabled":false,"rental_uris":{"android":"levelo://app?vid=b1e77faf-2c0d-407a-acbf-1a081c84d926","ios":"levelo://app?vid=b1e77faf-2c0d-407a-acbf-1a081c84d926"},"vehicle_type_id":"4","last_reported":1760807248,"current_range_meters":6400,"station_id":"ce4bh512rcd13ifvqe2g","pricing_plan_id":"cebpf4jnsgd1na2vs0mg"},{"bike_id":"dfd812db-3f88-4134-bfbc-1a1c85339aee","system_id":"levelo_inurba_marseille","lat":43.27067,"lon":5.38315,"is_reserved":false,"is_disabled":false,"rental_uris":{"android":"levelo://app?vid=dfd812db-3f88-4134-bfbc-1a1c85339aee","ios":"levelo://app?vid=dfd812db-3f88-4134-bfbc-1a1c85339aee"},"vehicle_type_id":"4","last_reported":1760807248,"current_range_meters":6400,"station_id":"st_d3n2fo6cfp8s73cte1j0","pricing_plan_id":"cebpf4jnsgd1na2vs0mg"},{"bike_id":"8283fea1-1c46-40bd-b809-46f49bfc97d3","system_id":"levelo_inurba_marseille","lat":43.29529,"lon":5.38549,"is_reserved":false,"is_disabled":false,"rental_uris":{"android":"levelo://app?vid=8283fea1-1c46-40bd-b809-46f49bfc97d3","ios":"levelo://app?vid=8283fea1-1c46-40bd-b809-46f49bfc97d3"},"vehicle_type_id":"4","last_reported":1760807248,"current_range_meters":6400,"station_id":"ce4bgih2rcd13ifvqba0","pricing_plan_id":"cebpf4jnsgd1na2vs0mg"},{"bike_id":"776ec997-51fc-43d1-8d14-f25083e73613","system_id":"levelo_inurba_marseille","lat":43.269377,"lon":5.402553,"is_reserved":false,"is_disabled":false,"rental_uris":{"android":"levelo://app?vid=776ec997-51fc-43d1-8d14-f25083e73613","ios":"levelo://app?vid=776ec997-51fc-43d1-8d14-f25083e73613"},"vehicle_type_id":"4","last_reported":1760807248,"current_range_meters":6400,"station_id":"cjm6bp8fraef2m0cb0m0","pricing_plan_id":"cebpf4jnsgd1na2vs0mg"},{"bike_id":"416f580b-31c7-4ade-8604-dbd86eb8155f","system_id":"levelo_inurba_marseille","lat":43.28156,"lon":5.42122,"is_reserved":false,"is_disabled":false,"rental_uris":{"android":"levelo://app?vid=416f580b-31c7-4ade-8604-dbd86eb8155f","ios":"levelo://app?vid=416f580b-31c7-4ade-8604-dbd86eb8155f"},"vehicle_type_id":"4","last_reported":1760807248,"current_range_meters":6400,"station_id":"","pricing_plan_id":"cebpf4jnsgd1na2vs0mg"},{"bike_id":"9dd1d8fe-c2a8-4a70-a175-61f5f9fe7fd2","system_id":"levelo_inurba_marseille","lat":43.321503,"lon":5.387182,"is_reserved":false,"is_disabled":false,"rental_uris":{"android":"levelo://app?vid=9dd1d8fe-c2a8-4a70-a175-61f5f9fe7fd2","ios":"levelo://app?vid=9dd1d8fe-c2a8-4a70-a175-61f5f9fe7fd2"},"vehicle_type_id":"4","last_reported":1760807248,"current_range_meters":6800,"station_id":"","pricing_plan_id":"cebpf4jnsgd1na2vs0mg"},{"bike_id":"baf2ece3-7eb8-45fe-8e91-cebece4fb15b","system_id":"levelo_inurba_marseille","lat":43.29877,"lon":5.38906,"is_reserved":false,"is_disabled":false,"rental_uris":{"android":"levelo://app?vid=baf2ece3-7eb8-45fe-8e91-cebece4fb15b","ios":"levelo://app?vid=baf2ece3-7eb8-45fe-8e91-cebece4fb15b"},"vehicle_type_id":"4","last_reported":1760807248,"current_range_meters":6800,"station_id":"ce4bh392rcd13ifvqdl0","pricing_plan_id":"cebpf4jnsgd1na2vs0mg"},{"bike_id":"3db39854-0d45-4fec-9f6a-53c7a723993c","system_id":"levelo_inurba_marseille","lat":43.27956,"lon":5.41048,"is_reserved":false,"is_disabled":false,"rental_uris":{"android":"levelo://app?vid=3db39854-0d45-4fec-9f6a-53c7a723993c","ios":"levelo://app?vid=3db39854-0d45-4fec-9f6a-53c7a723993c"},"vehicle_type_id":"4","last_reported":1760807248,"current_range_meters":6800,"station_id":"ce4bhnp2rcd13ifvqh0g","pricing_plan_id":"cebpf4jnsgd1na2vs0mg"},{"bike_id":"93e0f693-2c7d-493a-bc18-abdb3c54439b","system_id":"levelo_inurba_marseille","lat":43.28422,"lon":5.3498,"is_reserved":false,"is_disabled":false,"rental_uris":{"android":"levelo://app?vid=93e0f693-2c7d-493a-bc18-abdb3c54439b","ios":"levelo://app?vid=93e0f693-2c7d-493a-bc18-abdb3c54439b"},"vehicle_type_id":"4","last_reported":1760807248,"current_range_meters":6800,"station_id":"ce4bhbh2rcd13ifvqepg","pricing_plan_id":"cebpf4jnsgd1na2vs0mg"},{"bike_id":"5fe6e873-dba1-40dd-bc65-77de126f2710","system_id":"levelo_inurba_marseille","lat":43.332893,"lon":5.395256,"is_reserved":false,"is_disabled":false,"rental_uris":{"android":"levelo://app?vid=5fe6e873-dba1-40dd-bc65-77de126f2710","ios":"levelo://app?vid=5fe6e873-dba1-40dd-bc65-77de126f2710"},"vehicle_type_id":"4","last_reported":1760807248,"current_range_meters":6800,"station_id":"","pricing_plan_id":"cebpf4jnsgd1na2vs0mg"},{"bike_id":"f1719b2b-b4e7-4de5-9202-e6300d2c0fb7","system_id":"levelo_inurba_marseille","lat":43.29797,"lon":5.38099,"is_reserved":false,"is_disabled":false,"rental_uris":{"android":"levelo://app?vid=f1719b2b-b4e7-4de5-9202-e6300d2c0fb7","ios":"levelo://app?vid=f1719b2b-b4e7-4de5-9202-e6300d2c0fb7"},"vehicle_type_id":"4","last_reported":1760807248,"current_range_meters":6800,"station_id":"ce4bgip2rcd13ifvqbb0","pricing_plan_id":"cebpf4jnsgd1na2vs0mg"},{"bike_id":"44af099c-f1e2-437b-ba4a-a0b8f0da7a7f","system_id":"levelo_inurba_marseille","lat":43.26782,"lon":5.39418,"is_reserved":false,"is_disabled":false,"rental_uris":{"android":"levelo://app?vid=44af099c-f1e2-437b-ba4a-a0b8f0da7a7f","ios":"levelo://app?vid=44af099c-f1e2-437b-ba4a-a0b8f0da7a7f"},"vehicle_type_id":"4","last_reported":1760807248,"current_range_meters":7200,"station_id":"ce4bhh12rcd13ifvqfg0","pricing_plan_id":"cebpf4jnsgd1na2vs0mg"},{"bike_id":"5be01c5b-7184-4e86-b026-33b11c7b9fc1","system_id":"levelo_inurba_marseille","lat":43.28706,"lon":5.3998,"is_reserved":false,"is_disabled":false,"rental_uris":{"android":"levelo://app?vid=5be01c5b-7184-4e86-b026-33b11c7b9fc1","ios":"levelo://app?vid=5be01c5b-7184-4e86-b026-33b11c7b9fc1"},"vehicle_type_id":"4","last_reported":1760807248,"current_range_meters":7200,"station_id":"ce4bho92rcd13ifvqh3g","pricing_plan_id":"cebpf4jnsgd1na2vs0mg"},{"bike_id":"4b08cfe7-5df1-4e29-905e-03a9992f8dfa","system_id":"levelo_inurba_marseille","lat":43.33773,"lon":5.37456,"is_reserved":false,"is_disabled":false,"rental_uris":{"android":"levelo://app?vid=4b08cfe7-5df1-4e29-905e-03a9992f8dfa","ios":"levelo://app?vid=4b08cfe7-5df1-4e29-905e-03a9992f8dfa"},"vehicle_type_id":"4","last_reported":1760807248,"current_range_meters":7200,"station_id":"","pricing_plan_id":"cebpf4jnsgd1na2vs0mg"},{"bike_id":"31f919f8-2f29-49cf-a87b-d3824ec7b27c","system_id":"levelo_inurba_marseille","lat":43.29528,"lon":5.39038,"is_reserved":false,"is_disabled":false,"rental_uris":{"android":"levelo://app?vid=31f919f8-2f29-49cf-a87b-d3824ec7b27c","ios":"levelo://app?vid=31f919f8-2f29-49cf-a87b-d3824ec7b27c"},"vehicle_type_id":"4","last_reported":1760807248,"current_range_meters":7200,"station_id":"ce4bh3p2rcd13ifvqdp0","pricing_plan_id":"cebpf4jnsgd1na2vs0mg"},{"bike_id":"be7518f4-c0ae-4d77-a4d1-b24820adb75a","system_id":"levelo_inurba_marseille","lat":43.3236,"lon":5.3675,"is_reserved":false,"is_disabled":false,"rental_uris":{"android":"levelo://app?vid=be7518f4-c0ae-4d77-a4d1-b24820adb75a","ios":"levelo://app?vid=be7518f4-c0ae-4d77-a4d1-b24820adb75a"},"vehicle_type_id":"4","last_reported":1760807248,"current_range_meters":7200,"station_id":"ce4bhsh2rcd13ifvqi2g","pricing_plan_id":"cebpf4jnsgd1na2vs0mg"},{"bike_id":"7da41c68-3f21-4f77-b128-c8e53e8a482f","system_id":"levelo_inurba_marseille","lat":43.295377,"lon":5.385419,"is_reserved":false,"is_disabled":false,"rental_uris":{"android":"levelo://app?vid=7da41c68-3f21-4f77-b128-c8e53e8a482f","ios":"levelo://app?vid=7da41c68-3f21-4f77-b128-c8e53e8a482f"},"vehicle_type_id":"4","last_reported":1760807248,"current_range_meters":7200,"station_id":"ce4bhbp2rcd13ifvqesg","pricing_plan_id":"cebpf4jnsgd1na2vs0mg"},{"bike_id":"e73e9970-5e77-42b4-b8f9-d9f368ed615b","system_id":"levelo_inurba_marseille","lat":43.248078,"lon":5.374553,"is_reserved":false,"is_disabled":false,"rental_uris":{"android":"levelo://app?vid=e73e9970-5e77-42b4-b8f9-d9f368ed615b","ios":"levelo://app?vid=e73e9970-5e77-42b4-b8f9-d9f368ed615b"},"vehicle_type_id":"4","last_reported":1760807248,"current_range_meters":8000,"station_id":"ce4bhgh2rcd13ifvqfb0","pricing_plan_id":"cebpf4jnsgd1na2vs0mg"},{"bike_id":"c5e45447-2956-450f-bd7e-88aaf308c04d","system_id":"levelo_inurba_marseille","lat":43.29002,"lon":5.365319,"is_reserved":false,"is_disabled":false,"rental_uris":{"android":"levelo://app?vid=c5e45447-2956-450f-bd7e-88aaf308c04d","ios":"levelo://app?vid=c5e45447-2956-450f-bd7e-88aaf308c04d"},"vehicle_type_id":"4","last_reported":1760807248,"current_range_meters":8000,"station_id":"","pricing_plan_id":"cebpf4jnsgd1na2vs0mg"},{"bike_id":"245a030c-0c43-41f8-a4cc-088d55252b06","system_id":"levelo_inurba_marseille","lat":43.24474,"lon":5.369366,"is_reserved":false,"is_disabled":false,"rental_uris":{"android":"levelo://app?vid=245a030c-0c43-41f8-a4cc-088d55252b06","ios":"levelo://app?vid=245a030c-0c43-41f8-a4cc-088d55252b06"},"vehicle_type_id":"4","last_reported":1760807248,"current_range_meters":8000,"station_id":"","pricing_plan_id":"cebpf4jnsgd1na2vs0mg"},{"bike_id":"dd6ad924-e9cf-4c3c-80a2-98d018a67251","system_id":"levelo_inurba_marseille","lat":43.29808,"lon":5.38101,"is_reserved":false,"is_disabled":false,"rental_uris":{"android":"levelo://app?vid=dd6ad924-e9cf-4c3c-80a2-98d018a67251","ios":"levelo://app?vid=dd6ad924-e9cf-4c3c-80a2-98d018a67251"},"vehicle_type_id":"4","last_reported":1760807248,"current_range_meters":8000,"station_id":"ce4bgip2rcd13ifvqbb0","pricing_plan_id":"cebpf4jnsgd1na2vs0mg"},{"bike_id":"618a5e2c-57bf-488b-841c-c56f8555f25d","system_id":"levelo_inurba_marseille","lat":43.28722,"lon":5.3794,"is_reserved":false,"is_disabled":false,"rental_uris":{"android":"levelo://app?vid=618a5e2c-57bf-488b-841c-c56f8555f25d","ios":"levelo://app?vid=618a5e2c-57bf-488b-841c-c56f8555f25d"},"vehicle_type_id":"4","last_reported":1760807248,"current_range_meters":8000,"station_id":"ce4bh9p2rcd13ifvqec0","pricing_plan_id":"cebpf4jnsgd1na2vs0mg"},{"bike_id":"e7f21986-30f8-4c4b-83d5-6cf0779fedae","system_id":"levelo_inurba_marseille","lat":43.326573,"lon":5.409951,"is_reserved":false,"is_disabled":false,"rental_uris":{"android":"levelo://app?vid=e7f21986-30f8-4c4b-83d5-6cf0779fedae","ios":"levelo://app?vid=e7f21986-30f8-4c4b-83d5-6cf0779fedae"},"vehicle_type_id":"4","last_reported":1760807248,"current_range_meters":8000,"station_id":"ce4bhpp2rcd13ifvqhgg","pricing_plan_id":"cebpf4jnsgd1na2vs0mg"},{"bike_id":"a817b630-bbed-48d3-97f4-9bd571b9ebab","system_id":"levelo_inurba_marseille","lat":43.29999,"lon":5.37338,"is_reserved":false,"is_disabled":false,"rental_uris":{"android":"levelo://app?vid=a817b630-bbed-48d3-97f4-9bd571b9ebab","ios":"levelo://app?vid=a817b630-bbed-48d3-97f4-9bd571b9ebab"},"vehicle_type_id":"4","last_reported":1760807248,"current_range_meters":8000,"station_id":"","pricing_plan_id":"cebpf4jnsgd1na2vs0mg"},{"bike_id":"ffd927b6-b9ef-41f2-9bea-95a52828d02e","system_id":"levelo_inurba_marseille","lat":43.289273,"lon":5.37844,"is_reserved":false,"is_disabled":false,"rental_uris":{"android":"levelo://app?vid=ffd927b6-b9ef-41f2-9bea-95a52828d02e","ios":"levelo://app?vid=ffd927b6-b9ef-41f2-9bea-95a52828d02e"},"vehicle_type_id":"4","last_reported":1760807248,"current_range_meters":8000,"station_id":"ce4bh9p2rcd13ifvqec0","pricing_plan_id":"cebpf4jnsgd1na2vs0mg"},{"bike_id":"02014e9a-e2f2-4358-8450-33d69e8ed731","system_id":"levelo_inurba_marseille","lat":43.30888,"lon":5.3719,"is_reserved":false,"is_disabled":false,"rental_uris":{"android":"levelo://app?vid=02014e9a-e2f2-4358-8450-33d69e8ed731","ios":"levelo://app?vid=02014e9a-e2f2-4358-8450-33d69e8ed731"},"vehicle_type_id":"4","last_reported":1760807248,"current_range_meters":8000,"station_id":"ce4bguh2rcd13ifvqckg","pricing_plan_id":"cebpf4jnsgd1na2vs0mg"},{"bike_id":"2cc6af61-e519-4e7f-9fd2-d6ed2d8a770b","system_id":"levelo_inurba_marseille","lat":43.29269,"lon":5.3845,"is_reserved":false,"is_disabled":false,"rental_uris":{"android":"levelo://app?vid=2cc6af61-e519-4e7f-9fd2-d6ed2d8a770b","ios":"levelo://app?vid=2cc6af61-e519-4e7f-9fd2-d6ed2d8a770b"},"vehicle_type_id":"4","last_reported":1760807248,"current_range_meters":8000,"station_id":"ce4bh692rcd13ifvqea0","pricing_plan_id":"cebpf4jnsgd1na2vs0mg"},{"bike_id":"8bd272a3-683a-4148-9970-3334beb0a457","system_id":"levelo_inurba_marseille","lat":43.28534,"lon":5.44103,"is_reserved":false,"is_disabled":false,"rental_uris":{"android":"levelo://app?vid=8bd272a3-683a-4148-9970-3334beb0a457","ios":"levelo://app?vid=8bd272a3-683a-4148-9970-3334beb0a457"},"vehicle_type_id":"4","last_reported":1760807248,"current_range_meters":8400,"station_id":"st_d3j3df2ikq2c7380ej80","pricing_plan_id":"cebpf4jnsgd1na2vs0mg"},{"bike_id":"42c90d0d-7d8c-41d3-9f4d-b9927d2fd237","system_id":"levelo_inurba_marseille","lat":43.29749,"lon":5.37689,"is_reserved":false,"is_disabled":true,"rental_uris":{"android":"levelo://app?vid=42c90d0d-7d8c-41d3-9f4d-b9927d2fd237","ios":"levelo://app?vid=42c90d0d-7d8c-41d3-9f4d-b9927d2fd237"},"vehicle_type_id":"4","last_reported":1760807248,"current_range_meters":8400,"station_id":"ce4bgkh2rcd13ifvqbl0","pricing_plan_id":"cebpf4jnsgd1na2vs0mg"},{"bike_id":"7a167eac-7106-47dd-b2fa-e9e59a3976d3","system_id":"levelo_inurba_marseille","lat":43.28401,"lon":5.37504,"is_reserved":false,"is_disabled":false,"rental_uris":{"android":"levelo://app?vid=7a167eac-7106-47dd-b2fa-e9e59a3976d3","ios":"levelo://app?vid=7a167eac-7106-47dd-b2fa-e9e59a3976d3"},"vehicle_type_id":"4","last_reported":1760807248,"current_range_meters":8400,"station_id":"ce4bh412rcd13ifvqds0","pricing_plan_id":"cebpf4jnsgd1na2vs0mg"},{"bike_id":"4ad80e0b-4ea2-4347-83e5-283be56714ff","system_id":"levelo_inurba_marseille","lat":43.30597,"lon":5.39352,"is_reserved":false,"is_disabled":false,"rental_uris":{"android":"levelo://app?vid=4ad80e0b-4ea2-4347-83e5-283be56714ff","ios":"levelo://app?vid=4ad80e0b-4ea2-4347-83e5-283be56714ff"},"vehicle_type_id":"4","last_reported":1760807248,"current_range_meters":8400,"station_id":"ce4bh0p2rcd13ifvqd80","pricing_plan_id":"cebpf4jnsgd1na2vs0mg"},{"bike_id":"354e6b0c-b347-42f7-82d0-74baed301f37","system_id":"levelo_inurba_marseille","lat":43.3118,"lon":5.38722,"is_reserved":false,"is_disabled":false,"rental_uris":{"android":"levelo://app?vid=354e6b0c-b347-42f7-82d0-74baed301f37","ios":"levelo://app?vid=354e6b0c-b347-42f7-82d0-74baed301f37"},"vehicle_type_id":"4","last_reported":1760807248,"current_range_meters":8800,"station_id":"ce4bgv12rcd13ifvqcp0","pricing_plan_id":"cebpf4jnsgd1na2vs0mg"},{"bike_id":"4dfb4cf5-c1ec-419a-9d45-24917e359af8","system_id":"levelo_inurba_marseille","lat":43.31176,"lon":5.387171,"is_reserved":false,"is_disabled":false,"rental_uris":{"android":"levelo://app?vid=4dfb4cf5-c1ec-419a-9d45-24917e359af8","ios":"levelo://app?vid=4dfb4cf5-c1ec-419a-9d45-24917e359af8"},"vehicle_type_id":"4","last_reported":1760807248,"current_range_meters":8800,"station_id":"ce4bgv12rcd13ifvqcp0","pricing_plan_id":"cebpf4jnsgd1na2vs0mg"},{"bike_id":"ca40876c-8031-4546-99a5-d8bbe9cffbcb","system_id":"levelo_inurba_marseille","lat":43.29528,"lon":5.39394,"is_reserved":false,"is_disabled":false,"rental_uris":{"android":"levelo://app?vid=ca40876c-8031-4546-99a5-d8bbe9cffbcb","ios":"levelo://app?vid=ca40876c-8031-4546-99a5-d8bbe9cffbcb"},"vehicle_type_id":"4","last_reported":1760807248,"current_range_meters":8800,"station_id":"ce4bh292rcd13ifvqdf0","pricing_plan_id":"cebpf4jnsgd1na2vs0mg"},{"bike_id":"b29fbf80-d80b-45cf-9f9f-eef052a704cd","system_id":"levelo_inurba_marseille","lat":43.29364,"lon":5.378434,"is_reserved":false,"is_disabled":false,"rental_uris":{"android":"levelo://app?vid=b29fbf80-d80b-45cf-9f9f-eef052a704cd","ios":"levelo://app?vid=b29fbf80-d80b-45cf-9f9f-eef052a704cd"},"vehicle_type_id":"4","last_reported":1760807248,"current_range_meters":8800,"station_id":"ce4bgjh2rcd13ifvqbf0","pricing_plan_id":"cebpf4jnsgd1na2vs0mg"},{"bike_id":"5a617b65-74d7-4b11-8941-be90b5f2ba18","system_id":"levelo_inurba_marseille","lat":43.29025,"lon":5.38634,"is_reserved":false,"is_disabled":false,"rental_uris":{"android":"levelo://app?vid=5a617b65-74d7-4b11-8941-be90b5f2ba18","ios":"levelo://app?vid=5a617b65-74d7-4b11-8941-be90b5f2ba18"},"vehicle_type_id":"4","last_reported":1760807248,"current_range_meters":9200,"station_id":"ce4bh4p2rcd13ifvqe0g","pricing_plan_id":"cebpf4jnsgd1na2vs0mg"},{"bike_id":"18224600-1813-4301-b5ba-39b53dd44f0f","system_id":"levelo_inurba_marseille","lat":43.30311,"lon":5.3921,"is_reserved":false,"is_disabled":false,"rental_uris":{"android":"levelo://app?vid=18224600-1813-4301-b5ba-39b53dd44f0f","ios":"levelo://app?vid=18224600-1813-4301-b5ba-39b53dd44f0f"},"vehicle_type_id":"4","last_reported":1760807248,"current_range_meters":9200,"station_id":"ce4bgkh2rcd13ifvqbk0","pricing_plan_id":"cebpf4jnsgd1na2vs0mg"},{"bike_id":"b3edc609-7782-46af-831c-544f1d118f47","system_id":"levelo_inurba_marseille","lat":43.30797,"lon":5.43531,"is_reserved":false,"is_disabled":false,"rental_uris":{"android":"levelo://app?vid=b3edc609-7782-46af-831c-544f1d118f47","ios":"levelo://app?vid=b3edc609-7782-46af-831c-544f1d118f47"},"vehicle_type_id":"4","last_reported":1760807248,"current_range_meters":9200,"station_id":"ce4bhph2rcd13ifvqheg","pricing_plan_id":"cebpf4jnsgd1na2vs0mg"},{"bike_id":"c238e7ed-c980-4a7c-a957-da0c1057b6d9","system_id":"levelo_inurba_marseille","lat":43.297782,"lon":5.380799,"is_reserved":false,"is_disabled":false,"rental_uris":{"android":"levelo://app?vid=c238e7ed-c980-4a7c-a957-da0c1057b6d9","ios":"levelo://app?vid=c238e7ed-c980-4a7c-a957-da0c1057b6d9"},"vehicle_type_id":"4","last_reported":1760807248,"current_range_meters":9200,"station_id":"ce4bgip2rcd13ifvqbb0","pricing_plan_id":"cebpf4jnsgd1na2vs0mg"},{"bike_id":"baa82843-01a0-4031-b756-1d018017119a","system_id":"levelo_inurba_marseille","lat":43.27438,"lon":5.39422,"is_reserved":false,"is_disabled":false,"rental_uris":{"android":"levelo://app?vid=baa82843-01a0-4031-b756-1d018017119a","ios":"levelo://app?vid=baa82843-01a0-4031-b756-1d018017119a"},"vehicle_type_id":"4","last_reported":1760807248,"current_range_meters":9600,"station_id":"ce4bhdp2rcd13ifvqf20","pricing_plan_id":"cebpf4jnsgd1na2vs0mg"},{"bike_id":"924ac669-be8b-47aa-9a8e-6f22baf815eb","system_id":"levelo_inurba_marseille","lat":43.337692,"lon":5.374734,"is_reserved":false,"is_disabled":false,"rental_uris":{"android":"levelo://app?vid=924ac669-be8b-47aa-9a8e-6f22baf815eb","ios":"levelo://app?vid=924ac669-be8b-47aa-9a8e-6f22baf815eb"},"vehicle_type_id":"4","last_reported":1760807248,"current_range_meters":9600,"station_id":"","pricing_plan_id":"cebpf4jnsgd1na2vs0mg"},{"bike_id":"e427aaaf-ebc8-4540-808e-fa07955f06df","system_id":"levelo_inurba_marseille","lat":43.25877,"lon":5.39442,"is_reserved":false,"is_disabled":false,"rental_uris":{"android":"levelo://app?vid=e427aaaf-ebc8-4540-808e-fa07955f06df","ios":"levelo://app?vid=e427aaaf-ebc8-4540-808e-fa07955f06df"},"vehicle_type_id":"4","last_reported":1760807248,"current_range_meters":9600,"station_id":"","pricing_plan_id":"cebpf4jnsgd1na2vs0mg"},{"bike_id":"684bf781-4795-4510-b41c-9bab80ece1f4","system_id":"levelo_inurba_marseille","lat":43.29535,"lon":5.38549,"is_reserved":false,"is_disabled":false,"rental_uris":{"android":"levelo://app?vid=684bf781-4795-4510-b41c-9bab80ece1f4","ios":"levelo://app?vid=684bf781-4795-4510-b41c-9bab80ece1f4"},"vehicle_type_id":"4","last_reported":1760807248,"current_range_meters":9600,"station_id":"ce4bgih2rcd13ifvqba0","pricing_plan_id":"cebpf4jnsgd1na2vs0mg"},{"bike_id":"8db41c35-fed6-4b95-b073-55f368f391d6","system_id":"levelo_inurba_marseille","lat":43.2707,"lon":5.42277,"is_reserved":false,"is_disabled":false,"rental_uris":{"android":"levelo://app?vid=8db41c35-fed6-4b95-b073-55f368f391d6","ios":"levelo://app?vid=8db41c35-fed6-4b95-b073-55f368f391d6"},"vehicle_type_id":"4","last_reported":1760807248,"current_range_meters":9600,"station_id":"ce4bhk92rcd13ifvqgb0","pricing_plan_id":"cebpf4jnsgd1na2vs0mg"},{"bike_id":"36315dc1-0022-41e2-8b7f-78c368454c3a","system_id":"levelo_inurba_marseille","lat":43.29875,"lon":5.389,"is_reserved":false,"is_disabled":false,"rental_uris":{"android":"levelo://app?vid=36315dc1-0022-41e2-8b7f-78c368454c3a","ios":"levelo://app?vid=36315dc1-0022-41e2-8b7f-78c368454c3a"},"vehicle_type_id":"4","last_reported":1760807248,"current_range_meters":9600,"station_id":"ce4bh392rcd13ifvqdl0","pricing_plan_id":"cebpf4jnsgd1na2vs0mg"},{"bike_id":"d0ef0360-5eb5-4a03-9a26-29a2cdf701fc","system_id":"levelo_inurba_marseille","lat":43.2866,"lon":5.36346,"is_reserved":false,"is_disabled":false,"rental_uris":{"android":"levelo://app?vid=d0ef0360-5eb5-4a03-9a26-29a2cdf701fc","ios":"levelo://app?vid=d0ef0360-5eb5-4a03-9a26-29a2cdf701fc"},"vehicle_type_id":"4","last_reported":1760807248,"current_range_meters":9600,"station_id":"ce4bhah2rcd13ifvqej0","pricing_plan_id":"cebpf4jnsgd1na2vs0mg"},{"bike_id":"fc84ae60-ce5c-4c6f-827a-9fb8d9f810f9","system_id":"levelo_inurba_marseille","lat":43.29267,"lon":5.38448,"is_reserved":false,"is_disabled":false,"rental_uris":{"android":"levelo://app?vid=fc84ae60-ce5c-4c6f-827a-9fb8d9f810f9","ios":"levelo://app?vid=fc84ae60-ce5c-4c6f-827a-9fb8d9f810f9"},"vehicle_type_id":"4","last_reported":1760807248,"current_range_meters":10000,"station_id":"ce4bh692rcd13ifvqea0","pricing_plan_id":"cebpf4jnsgd1na2vs0mg"},{"bike_id":"913779f4-56e0-42d0-9fbb-e6656f8e7d26","system_id":"levelo_inurba_marseille","lat":43.24576,"lon":5.36374,"is_reserved":false,"is_disabled":false,"rental_uris":{"android":"levelo://app?vid=913779f4-56e0-42d0-9fbb-e6656f8e7d26","ios":"levelo://app?vid=913779f4-56e0-42d0-9fbb-e6656f8e7d26"},"vehicle_type_id":"4","last_reported":1760807248,"current_range_meters":10000,"station_id":"","pricing_plan_id":"cebpf4jnsgd1na2vs0mg"},{"bike_id":"1b4bc4f6-7c80-467e-acf7-cdcd3cfc0beb","system_id":"levelo_inurba_marseille","lat":43.2621,"lon":5.37441,"is_reserved":false,"is_disabled":false,"rental_uris":{"android":"levelo://app?vid=1b4bc4f6-7c80-467e-acf7-cdcd3cfc0beb","ios":"levelo://app?vid=1b4bc4f6-7c80-467e-acf7-cdcd3cfc0beb"},"vehicle_type_id":"4","last_reported":1760807248,"current_range_meters":10000,"station_id":"ce4bhgp2rcd13ifvqfc0","pricing_plan_id":"cebpf4jnsgd1na2vs0mg"},{"bike_id":"ff86eea6-c1e6-4578-b1e5-0e4fb5f089c5","system_id":"levelo_inurba_marseille","lat":43.28538,"lon":5.38432,"is_reserved":false,"is_disabled":false,"rental_uris":{"android":"levelo://app?vid=ff86eea6-c1e6-4578-b1e5-0e4fb5f089c5","ios":"levelo://app?vid=ff86eea6-c1e6-4578-b1e5-0e4fb5f089c5"},"vehicle_type_id":"4","last_reported":1760807248,"current_range_meters":10000,"station_id":"","pricing_plan_id":"cebpf4jnsgd1na2vs0mg"},{"bike_id":"fd4c49ce-5c31-444a-92fa-30ffe894c16f","system_id":"levelo_inurba_marseille","lat":43.30457,"lon":5.38897,"is_reserved":false,"is_disabled":false,"rental_uris":{"android":"levelo://app?vid=fd4c49ce-5c31-444a-92fa-30ffe894c16f","ios":"levelo://app?vid=fd4c49ce-5c31-444a-92fa-30ffe894c16f"},"vehicle_type_id":"4","last_reported":1760807248,"current_range_meters":10000,"station_id":"ce4bgk12rcd13ifvqbi0","pricing_plan_id":"cebpf4jnsgd1na2vs0mg"},{"bike_id":"2065e936-baec-4a2f-bf9b-31396e5ecb48","system_id":"levelo_inurba_marseille","lat":43.28036,"lon":5.36939,"is_reserved":false,"is_disabled":false,"rental_uris":{"android":"levelo://app?vid=2065e936-baec-4a2f-bf9b-31396e5ecb48","ios":"levelo://app?vid=2065e936-baec-4a2f-bf9b-31396e5ecb48"},"vehicle_type_id":"4","last_reported":1760807248,"current_range_meters":10000,"station_id":"ce4bha12rcd13ifvqef0","pricing_plan_id":"cebpf4jnsgd1na2vs0mg"},{"bike_id":"f79ed942-86fc-4b27-9729-61cda708bb82","system_id":"levelo_inurba_marseille","lat":43.337444,"lon":5.374475,"is_reserved":false,"is_disabled":false,"rental_uris":{"android":"levelo://app?vid=f79ed942-86fc-4b27-9729-61cda708bb82","ios":"levelo://app?vid=f79ed942-86fc-4b27-9729-61cda708bb82"},"vehicle_type_id":"4","last_reported":1760807248,"current_range_meters":10000,"station_id":"","pricing_plan_id":"cebpf4jnsgd1na2vs0mg"},{"bike_id":"513d4032-b76e-45a1-be3e-ce9b67d46507","system_id":"levelo_inurba_marseille","lat":43.28944,"lon":5.36635,"is_reserved":false,"is_disabled":false,"rental_uris":{"android":"levelo://app?vid=513d4032-b76e-45a1-be3e-ce9b67d46507","ios":"levelo://app?vid=513d4032-b76e-45a1-be3e-ce9b67d46507"},"vehicle_type_id":"4","last_reported":1760807248,"current_range_meters":10000,"station_id":"ce4bhap2rcd13ifvqek0","pricing_plan_id":"cebpf4jnsgd1na2vs0mg"},{"bike_id":"0679f37e-fcb2-46f1-bd09-ac9f52bc4278","system_id":"levelo_inurba_marseille","lat":43.292768,"lon":5.368488,"is_reserved":false,"is_disabled":true,"rental_uris":{"android":"levelo://app?vid=0679f37e-fcb2-46f1-bd09-ac9f52bc4278","ios":"levelo://app?vid=0679f37e-fcb2-46f1-bd09-ac9f52bc4278"},"vehicle_type_id":"4","last_reported":1760807248,"current_range_meters":10000,"station_id":"ce4bhbp2rcd13ifvqesg","pricing_plan_id":"cebpf4jnsgd1na2vs0mg"},{"bike_id":"06a55ab6-2afa-4e97-9503-30ed9275abf9","system_id":"levelo_inurba_marseille","lat":43.30212,"lon":5.39458,"is_reserved":false,"is_disabled":false,"rental_uris":{"android":"levelo://app?vid=06a55ab6-2afa-4e97-9503-30ed9275abf9","ios":"levelo://app?vid=06a55ab6-2afa-4e97-9503-30ed9275abf9"},"vehicle_type_id":"4","last_reported":1760807248,"current_range_meters":10000,"station_id":"ce4bh0p2rcd13ifvqd70","pricing_plan_id":"cebpf4jnsgd1na2vs0mg"},{"bike_id":"8e6781bb-2e20-454e-8191-54182f17bdfc","system_id":"levelo_inurba_marseille","lat":43.217499,"lon":5.346028,"is_reserved":false,"is_disabled":true,"rental_uris":{"android":"levelo://app?vid=8e6781bb-2e20-454e-8191-54182f17bdfc","ios":"levelo://app?vid=8e6781bb-2e20-454e-8191-54182f17bdfc"},"vehicle_type_id":"4","last_reported":1760807248,"current_range_meters":10000,"station_id":"st_cvj6r9ubvosntc0bgbag","pricing_plan_id":"cebpf4jnsgd1na2vs0mg"},{"bike_id":"8d796c4b-daae-4022-9ec7-3a5c0d1f7ee6","system_id":"levelo_inurba_marseille","lat":43.24653,"lon":5.38891,"is_reserved":false,"is_disabled":false,"rental_uris":{"android":"levelo://app?vid=8d796c4b-daae-4022-9ec7-3a5c0d1f7ee6","ios":"levelo://app?vid=8d796c4b-daae-4022-9ec7-3a5c0d1f7ee6"},"vehicle_type_id":"4","last_reported":1760807248,"current_range_meters":10000,"station_id":"ce4bhg12rcd13ifvqf60","pricing_plan_id":"cebpf4jnsgd1na2vs0mg"},{"bike_id":"2b14f62c-9f74-4b5b-a461-976969204fd6","system_id":"levelo_inurba_marseille","lat":43.29532,"lon":5.38546,"is_reserved":false,"is_disabled":false,"rental_uris":{"android":"levelo://app?vid=2b14f62c-9f74-4b5b-a461-976969204fd6","ios":"levelo://app?vid=2b14f62c-9f74-4b5b-a461-976969204fd6"},"vehicle_type_id":"4","last_reported":1760807248,"current_range_meters":10000,"station_id":"ce4bgih2rcd13ifvqba0","pricing_plan_id":"cebpf4jnsgd1na2vs0mg"},{"bike_id":"1ae23019-ea31-4d05-9cf3-f48fd8ecdb6e","system_id":"levelo_inurba_marseille","lat":43.31085,"lon":5.4243,"is_reserved":false,"is_disabled":false,"rental_uris":{"android":"levelo://app?vid=1ae23019-ea31-4d05-9cf3-f48fd8ecdb6e","ios":"levelo://app?vid=1ae23019-ea31-4d05-9cf3-f48fd8ecdb6e"},"vehicle_type_id":"4","last_reported":1760807248,"current_range_meters":10800,"station_id":"ce4bhp92rcd13ifvqhag","pricing_plan_id":"cebpf4jnsgd1na2vs0mg"},{"bike_id":"1382b748-840e-4ecc-afc5-0fb4eeaeb841","system_id":"levelo_inurba_marseille","lat":43.306094,"lon":5.374798,"is_reserved":false,"is_disabled":false,"rental_uris":{"android":"levelo://app?vid=1382b748-840e-4ecc-afc5-0fb4eeaeb841","ios":"levelo://app?vid=1382b748-840e-4ecc-afc5-0fb4eeaeb841"},"vehicle_type_id":"4","last_reported":1760807248,"current_range_meters":10800,"station_id":"","pricing_plan_id":"cebpf4jnsgd1na2vs0mg"},{"bike_id":"3d86c2c7-272b-45fa-bcf6-8722009d9f16","system_id":"levelo_inurba_marseille","lat":43.30441,"lon":5.388913,"is_reserved":false,"is_disabled":false,"rental_uris":{"android":"levelo://app?vid=3d86c2c7-272b-45fa-bcf6-8722009d9f16","ios":"levelo://app?vid=3d86c2c7-272b-45fa-bcf6-8722009d9f16"},"vehicle_type_id":"4","last_reported":1760807248,"current_range_meters":10800,"station_id":"ce4bgk12rcd13ifvqbi0","pricing_plan_id":"cebpf4jnsgd1na2vs0mg"},{"bike_id":"f16e1e15-fd3b-4286-a044-f8ccdbf2f3f0","system_id":"levelo_inurba_marseille","lat":43.305848,"lon":5.392607,"is_reserved":false,"is_disabled":false,"rental_uris":{"android":"levelo://app?vid=f16e1e15-fd3b-4286-a044-f8ccdbf2f3f0","ios":"levelo://app?vid=f16e1e15-fd3b-4286-a044-f8ccdbf2f3f0"},"vehicle_type_id":"4","last_reported":1760807248,"current_range_meters":10800,"station_id":"ce4bgk12rcd13ifvqbi0","pricing_plan_id":"cebpf4jnsgd1na2vs0mg"},{"bike_id":"75b02a51-1325-435e-9661-29bb451a696a","system_id":"levelo_inurba_marseille","lat":43.31448,"lon":5.38488,"is_reserved":false,"is_disabled":false,"rental_uris":{"android":"levelo://app?vid=75b02a51-1325-435e-9661-29bb451a696a","ios":"levelo://app?vid=75b02a51-1325-435e-9661-29bb451a696a"},"vehicle_type_id":"4","last_reported":1760807248,"current_range_meters":10800,"station_id":"","pricing_plan_id":"cebpf4jnsgd1na2vs0mg"},{"bike_id":"5dabccad-0e48-443d-aa38-9b43919756f8","system_id":"levelo_inurba_marseille","lat":43.24947,"lon":5.40486,"is_reserved":false,"is_disabled":false,"rental_uris":{"android":"levelo://app?vid=5dabccad-0e48-443d-aa38-9b43919756f8","ios":"levelo://app?vid=5dabccad-0e48-443d-aa38-9b43919756f8"},"vehicle_type_id":"4","last_reported":1760807248,"current_range_meters":10800,"station_id":"st_d2ngiaodas8pm72gd1h0","pricing_plan_id":"cebpf4jnsgd1na2vs0mg"},{"bike_id":"36138ca6-1bbe-425b-8e00-9df5edc87cf6","system_id":"levelo_inurba_marseille","lat":43.32361,"lon":5.36757,"is_reserved":false,"is_disabled":false,"rental_uris":{"android":"levelo://app?vid=36138ca6-1bbe-425b-8e00-9df5edc87cf6","ios":"levelo://app?vid=36138ca6-1bbe-425b-8e00-9df5edc87cf6"},"vehicle_type_id":"4","last_reported":1760807248,"current_range_meters":11200,"station_id":"ce4bhsh2rcd13ifvqi2g","pricing_plan_id":"cebpf4jnsgd1na2vs0mg"},{"bike_id":"d7de8a4b-054e-4f08-972f-750ba132f0ec","system_id":"levelo_inurba_marseille","lat":43.29187,"lon":5.358105,"is_reserved":false,"is_disabled":true,"rental_uris":{"android":"levelo://app?vid=d7de8a4b-054e-4f08-972f-750ba132f0ec","ios":"levelo://app?vid=d7de8a4b-054e-4f08-972f-750ba132f0ec"},"vehicle_type_id":"4","last_reported":1760807248,"current_range_meters":11200,"station_id":"ce4bhb12rcd13ifvqel0","pricing_plan_id":"cebpf4jnsgd1na2vs0mg"},{"bike_id":"5ec36f29-a595-43fb-81bc-e1f6ecf04525","system_id":"levelo_inurba_marseille","lat":43.211964,"lon":5.350732,"is_reserved":false,"is_disabled":true,"rental_uris":{"android":"levelo://app?vid=5ec36f29-a595-43fb-81bc-e1f6ecf04525","ios":"levelo://app?vid=5ec36f29-a595-43fb-81bc-e1f6ecf04525"},"vehicle_type_id":"4","last_reported":1760807248,"current_range_meters":11200,"station_id":"st_cvj6sg6p6f1abm77japg","pricing_plan_id":"cebpf4jnsgd1na2vs0mg"},{"bike_id":"59742c94-4658-4515-a228-2a9d9f4b4338","system_id":"levelo_inurba_marseille","lat":43.282684,"lon":5.350728,"is_reserved":false,"is_disabled":false,"rental_uris":{"android":"levelo://app?vid=59742c94-4658-4515-a228-2a9d9f4b4338","ios":"levelo://app?vid=59742c94-4658-4515-a228-2a9d9f4b4338"},"vehicle_type_id":"4","last_reported":1760807248,"current_range_meters":11200,"station_id":"ce4bh692rcd13ifvqea0","pricing_plan_id":"cebpf4jnsgd1na2vs0mg"},{"bike_id":"ecaa259b-1a38-4de5-9e35-8a563a740131","system_id":"levelo_inurba_marseille","lat":43.28467,"lon":5.3842,"is_reserved":false,"is_disabled":false,"rental_uris":{"android":"levelo://app?vid=ecaa259b-1a38-4de5-9e35-8a563a740131","ios":"levelo://app?vid=ecaa259b-1a38-4de5-9e35-8a563a740131"},"vehicle_type_id":"4","last_reported":1760807248,"current_range_meters":11600,"station_id":"ce4bh512rcd13ifvqe3g","pricing_plan_id":"cebpf4jnsgd1na2vs0mg"},{"bike_id":"0b170382-a38a-48fc-b060-b901de311f1a","system_id":"levelo_inurba_marseille","lat":43.33047,"lon":5.39024,"is_reserved":false,"is_disabled":false,"rental_uris":{"android":"levelo://app?vid=0b170382-a38a-48fc-b060-b901de311f1a","ios":"levelo://app?vid=0b170382-a38a-48fc-b060-b901de311f1a"},"vehicle_type_id":"4","last_reported":1760807248,"current_range_meters":11600,"station_id":"ce4bhr92rcd13ifvqhrg","pricing_plan_id":"cebpf4jnsgd1na2vs0mg"},{"bike_id":"657f303b-2417-4a96-a979-9bb80b1500f6","system_id":"levelo_inurba_marseille","lat":43.298529,"lon":5.362824,"is_reserved":false,"is_disabled":true,"rental_uris":{"android":"levelo://app?vid=657f303b-2417-4a96-a979-9bb80b1500f6","ios":"levelo://app?vid=657f303b-2417-4a96-a979-9bb80b1500f6"},"vehicle_type_id":"4","last_reported":1760807248,"current_range_meters":11600,"station_id":"ce4bgpp2rcd13ifvqc3g","pricing_plan_id":"cebpf4jnsgd1na2vs0mg"},{"bike_id":"b72974a1-f4a5-41a7-b7d7-4f2b18f4825a","system_id":"levelo_inurba_marseille","lat":43.281,"lon":5.37833,"is_reserved":false,"is_disabled":false,"rental_uris":{"android":"levelo://app?vid=b72974a1-f4a5-41a7-b7d7-4f2b18f4825a","ios":"levelo://app?vid=b72974a1-f4a5-41a7-b7d7-4f2b18f4825a"},"vehicle_type_id":"4","last_reported":1760807248,"current_range_meters":11600,"station_id":"ce4bha12rcd13ifvqee0","pricing_plan_id":"cebpf4jnsgd1na2vs0mg"},{"bike_id":"685435ed-23dd-4040-bf5b-3a0caa1012ba","system_id":"levelo_inurba_marseille","lat":43.287382,"lon":5.36549,"is_reserved":false,"is_disabled":false,"rental_uris":{"android":"levelo://app?vid=685435ed-23dd-4040-bf5b-3a0caa1012ba","ios":"levelo://app?vid=685435ed-23dd-4040-bf5b-3a0caa1012ba"},"vehicle_type_id":"4","last_reported":1760807248,"current_range_meters":11600,"station_id":"","pricing_plan_id":"cebpf4jnsgd1na2vs0mg"},{"bike_id":"0a4c13b7-79cb-4be8-ac19-c649c75a3185","system_id":"levelo_inurba_marseille","lat":43.299132,"lon":5.381615,"is_reserved":false,"is_disabled":false,"rental_uris":{"android":"levelo://app?vid=0a4c13b7-79cb-4be8-ac19-c649c75a3185","ios":"levelo://app?vid=0a4c13b7-79cb-4be8-ac19-c649c75a3185"},"vehicle_type_id":"4","last_reported":1760807248,"current_range_meters":11600,"station_id":"ce4bgj12rcd13ifvqbc0","pricing_plan_id":"cebpf4jnsgd1na2vs0mg"},{"bike_id":"17f7bcb0-7d4e-46a0-b289-fd617d8d1e32","system_id":"levelo_inurba_marseille","lat":43.29282,"lon":5.40117,"is_reserved":false,"is_disabled":false,"rental_uris":{"android":"levelo://app?vid=17f7bcb0-7d4e-46a0-b289-fd617d8d1e32","ios":"levelo://app?vid=17f7bcb0-7d4e-46a0-b289-fd617d8d1e32"},"vehicle_type_id":"4","last_reported":1760807248,"current_range_meters":11600,"station_id":"ce4bh312rcd13ifvqdk0","pricing_plan_id":"cebpf4jnsgd1na2vs0mg"},{"bike_id":"8dd1a301-cfd4-46c7-8497-c95e2eb5e798","system_id":"levelo_inurba_marseille","lat":43.27571,"lon":5.384284,"is_reserved":false,"is_disabled":false,"rental_uris":{"android":"levelo://app?vid=8dd1a301-cfd4-46c7-8497-c95e2eb5e798","ios":"levelo://app?vid=8dd1a301-cfd4-46c7-8497-c95e2eb5e798"},"vehicle_type_id":"4","last_reported":1760807248,"current_range_meters":12000,"station_id":"ce4bhh92rcd13ifvqfi0","pricing_plan_id":"cebpf4jnsgd1na2vs0mg"},{"bike_id":"ebcba43b-4b2d-4efd-8266-58203252dffa","system_id":"levelo_inurba_marseille","lat":43.314861,"lon":5.373128,"is_reserved":false,"is_disabled":false,"rental_uris":{"android":"levelo://app?vid=ebcba43b-4b2d-4efd-8266-58203252dffa","ios":"levelo://app?vid=ebcba43b-4b2d-4efd-8266-58203252dffa"},"vehicle_type_id":"4","last_reported":1760807248,"current_range_meters":12000,"station_id":"ce4bgt12rcd13ifvqcd0","pricing_plan_id":"cebpf4jnsgd1na2vs0mg"},{"bike_id":"b35843bb-8826-4f0d-a706-15255e94599e","system_id":"levelo_inurba_marseille","lat":43.279375,"lon":5.40385,"is_reserved":false,"is_disabled":false,"rental_uris":{"android":"levelo://app?vid=b35843bb-8826-4f0d-a706-15255e94599e","ios":"levelo://app?vid=b35843bb-8826-4f0d-a706-15255e94599e"},"vehicle_type_id":"4","last_reported":1760807248,"current_range_meters":12000,"station_id":"","pricing_plan_id":"cebpf4jnsgd1na2vs0mg"},{"bike_id":"0a414463-fe1a-4833-8a11-178a3c2c879a","system_id":"levelo_inurba_marseille","lat":43.29852,"lon":5.37897,"is_reserved":false,"is_disabled":false,"rental_uris":{"android":"levelo://app?vid=0a414463-fe1a-4833-8a11-178a3c2c879a","ios":"levelo://app?vid=0a414463-fe1a-4833-8a11-178a3c2c879a"},"vehicle_type_id":"4","last_reported":1760807248,"current_range_meters":12400,"station_id":"","pricing_plan_id":"cebpf4jnsgd1na2vs0mg"},{"bike_id":"b1db1391-3474-48f3-85bd-dfc79b190eda","system_id":"levelo_inurba_marseille","lat":43.292886,"lon":5.360992,"is_reserved":false,"is_disabled":false,"rental_uris":{"android":"levelo://app?vid=b1db1391-3474-48f3-85bd-dfc79b190eda","ios":"levelo://app?vid=b1db1391-3474-48f3-85bd-dfc79b190eda"},"vehicle_type_id":"4","last_reported":1760807248,"current_range_meters":12400,"station_id":"","pricing_plan_id":"cebpf4jnsgd1na2vs0mg"},{"bike_id":"57772d0e-d6d9-48d5-bf04-c3ce0daf8e02","system_id":"levelo_inurba_marseille","lat":43.29269,"lon":5.38441,"is_reserved":false,"is_disabled":false,"rental_uris":{"android":"levelo://app?vid=57772d0e-d6d9-48d5-bf04-c3ce0daf8e02","ios":"levelo://app?vid=57772d0e-d6d9-48d5-bf04-c3ce0daf8e02"},"vehicle_type_id":"4","last_reported":1760807248,"current_range_meters":12800,"station_id":"ce4bh692rcd13ifvqea0","pricing_plan_id":"cebpf4jnsgd1na2vs0mg"},{"bike_id":"c8e7e487-2046-4072-98bc-53764ffcd62b","system_id":"levelo_inurba_marseille","lat":43.25826,"lon":5.39432,"is_reserved":false,"is_disabled":false,"rental_uris":{"android":"levelo://app?vid=c8e7e487-2046-4072-98bc-53764ffcd62b","ios":"levelo://app?vid=c8e7e487-2046-4072-98bc-53764ffcd62b"},"vehicle_type_id":"4","last_reported":1760807248,"current_range_meters":12800,"station_id":"ce4bhip2rcd13ifvqft0","pricing_plan_id":"cebpf4jnsgd1na2vs0mg"},{"bike_id":"b1cf4c80-12d3-49a8-99a6-182defaa6366","system_id":"levelo_inurba_marseille","lat":43.30708,"lon":5.37787,"is_reserved":false,"is_disabled":false,"rental_uris":{"android":"levelo://app?vid=b1cf4c80-12d3-49a8-99a6-182defaa6366","ios":"levelo://app?vid=b1cf4c80-12d3-49a8-99a6-182defaa6366"},"vehicle_type_id":"4","last_reported":1760807248,"current_range_meters":12800,"station_id":"","pricing_plan_id":"cebpf4jnsgd1na2vs0mg"},{"bike_id":"ea883585-d0e4-4bcb-922c-57b2a3efdeac","system_id":"levelo_inurba_marseille","lat":43.30512,"lon":5.3681,"is_reserved":false,"is_disabled":false,"rental_uris":{"android":"levelo://app?vid=ea883585-d0e4-4bcb-922c-57b2a3efdeac","ios":"levelo://app?vid=ea883585-d0e4-4bcb-922c-57b2a3efdeac"},"vehicle_type_id":"4","last_reported":1760807248,"current_range_meters":12800,"station_id":"","pricing_plan_id":"cebpf4jnsgd1na2vs0mg"},{"bike_id":"94a80ed1-2fee-468c-bb76-25f1829c19bf","system_id":"levelo_inurba_marseille","lat":43.30462,"lon":5.37893,"is_reserved":false,"is_disabled":true,"rental_uris":{"android":"levelo://app?vid=94a80ed1-2fee-468c-bb76-25f1829c19bf","ios":"levelo://app?vid=94a80ed1-2fee-468c-bb76-25f1829c19bf"},"vehicle_type_id":"4","last_reported":1760807248,"current_range_meters":12800,"station_id":"ce4bgup2rcd13ifvqcn0","pricing_plan_id":"cebpf4jnsgd1na2vs0mg"},{"bike_id":"b9c18541-1aed-4523-80cf-0629e7f98b3e","system_id":"levelo_inurba_marseille","lat":43.29451,"lon":5.38445,"is_reserved":false,"is_disabled":false,"rental_uris":{"android":"levelo://app?vid=b9c18541-1aed-4523-80cf-0629e7f98b3e","ios":"levelo://app?vid=b9c18541-1aed-4523-80cf-0629e7f98b3e"},"vehicle_type_id":"4","last_reported":1760807248,"current_range_meters":12800,"station_id":"","pricing_plan_id":"cebpf4jnsgd1na2vs0mg"},{"bike_id":"4b39b063-554a-4a42-bf2c-c22f48d226ea","system_id":"levelo_inurba_marseille","lat":43.28015,"lon":5.39966,"is_reserved":false,"is_disabled":false,"rental_uris":{"android":"levelo://app?vid=4b39b063-554a-4a42-bf2c-c22f48d226ea","ios":"levelo://app?vid=4b39b063-554a-4a42-bf2c-c22f48d226ea"},"vehicle_type_id":"4","last_reported":1760807248,"current_range_meters":12800,"station_id":"ce4bho92rcd13ifvqh4g","pricing_plan_id":"cebpf4jnsgd1na2vs0mg"},{"bike_id":"ae6eb0f2-4874-4ceb-8d8c-7385a8266f58","system_id":"levelo_inurba_marseille","lat":43.29505,"lon":5.37923,"is_reserved":false,"is_disabled":false,"rental_uris":{"android":"levelo://app?vid=ae6eb0f2-4874-4ceb-8d8c-7385a8266f58","ios":"levelo://app?vid=ae6eb0f2-4874-4ceb-8d8c-7385a8266f58"},"vehicle_type_id":"4","last_reported":1760807248,"current_range_meters":12800,"station_id":"","pricing_plan_id":"cebpf4jnsgd1na2vs0mg"},{"bike_id":"9aca6410-dfe2-4f0b-8309-4bbe61aef318","system_id":"levelo_inurba_marseille","lat":43.33014,"lon":5.39052,"is_reserved":false,"is_disabled":false,"rental_uris":{"android":"levelo://app?vid=9aca6410-dfe2-4f0b-8309-4bbe61aef318","ios":"levelo://app?vid=9aca6410-dfe2-4f0b-8309-4bbe61aef318"},"vehicle_type_id":"4","last_reported":1760807248,"current_range_meters":13600,"station_id":"ce4bhr92rcd13ifvqhrg","pricing_plan_id":"cebpf4jnsgd1na2vs0mg"},{"bike_id":"fa68b210-55bb-4a86-a8f5-f651a77004e6","system_id":"levelo_inurba_marseille","lat":43.23182,"lon":5.35538,"is_reserved":false,"is_disabled":false,"rental_uris":{"android":"levelo://app?vid=fa68b210-55bb-4a86-a8f5-f651a77004e6","ios":"levelo://app?vid=fa68b210-55bb-4a86-a8f5-f651a77004e6"},"vehicle_type_id":"4","last_reported":1760807248,"current_range_meters":13600,"station_id":"ce4bhu92rcd13ifvqi70","pricing_plan_id":"cebpf4jnsgd1na2vs0mg"},{"bike_id":"c6227cff-120f-49c6-93a2-5454dd916cde","system_id":"levelo_inurba_marseille","lat":43.26529,"lon":5.37297,"is_reserved":false,"is_disabled":true,"rental_uris":{"android":"levelo://app?vid=c6227cff-120f-49c6-93a2-5454dd916cde","ios":"levelo://app?vid=c6227cff-120f-49c6-93a2-5454dd916cde"},"vehicle_type_id":"4","last_reported":1760807248,"current_range_meters":13600,"station_id":"ce4bhg12rcd13ifvqf70","pricing_plan_id":"cebpf4jnsgd1na2vs0mg"},{"bike_id":"e978660f-731d-4a95-8df5-e0a54d8fe8be","system_id":"levelo_inurba_marseille","lat":43.21189,"lon":5.35074,"is_reserved":false,"is_disabled":true,"rental_uris":{"android":"levelo://app?vid=e978660f-731d-4a95-8df5-e0a54d8fe8be","ios":"levelo://app?vid=e978660f-731d-4a95-8df5-e0a54d8fe8be"},"vehicle_type_id":"4","last_reported":1760807248,"current_range_meters":13600,"station_id":"st_cvj6sg6p6f1abm77japg","pricing_plan_id":"cebpf4jnsgd1na2vs0mg"},{"bike_id":"3027177e-07be-4296-82d4-1305bc86feb3","system_id":"levelo_inurba_marseille","lat":43.30329,"lon":5.40434,"is_reserved":false,"is_disabled":false,"rental_uris":{"android":"levelo://app?vid=3027177e-07be-4296-82d4-1305bc86feb3","ios":"levelo://app?vid=3027177e-07be-4296-82d4-1305bc86feb3"},"vehicle_type_id":"4","last_reported":1760807248,"current_range_meters":13600,"station_id":"ce4bh012rcd13ifvqd10","pricing_plan_id":"cebpf4jnsgd1na2vs0mg"},{"bike_id":"a0f68134-26a4-4a32-ab88-c7cdacfbc646","system_id":"levelo_inurba_marseille","lat":43.29535,"lon":5.37514,"is_reserved":false,"is_disabled":false,"rental_uris":{"android":"levelo://app?vid=a0f68134-26a4-4a32-ab88-c7cdacfbc646","ios":"levelo://app?vid=a0f68134-26a4-4a32-ab88-c7cdacfbc646"},"vehicle_type_id":"4","last_reported":1760807248,"current_range_meters":14000,"station_id":"ce4bgkp2rcd13ifvqbmg","pricing_plan_id":"cebpf4jnsgd1na2vs0mg"},{"bike_id":"e5089735-7dde-42b8-bd5e-fca739cfdcbf","system_id":"levelo_inurba_marseille","lat":43.3266,"lon":5.40993,"is_reserved":false,"is_disabled":false,"rental_uris":{"android":"levelo://app?vid=e5089735-7dde-42b8-bd5e-fca739cfdcbf","ios":"levelo://app?vid=e5089735-7dde-42b8-bd5e-fca739cfdcbf"},"vehicle_type_id":"4","last_reported":1760807248,"current_range_meters":14000,"station_id":"ce4bhpp2rcd13ifvqhgg","pricing_plan_id":"cebpf4jnsgd1na2vs0mg"},{"bike_id":"ae2ef547-750b-4b17-b9c5-dd43c8ad2a36","system_id":"levelo_inurba_marseille","lat":43.32355,"lon":5.36743,"is_reserved":false,"is_disabled":false,"rental_uris":{"android":"levelo://app?vid=ae2ef547-750b-4b17-b9c5-dd43c8ad2a36","ios":"levelo://app?vid=ae2ef547-750b-4b17-b9c5-dd43c8ad2a36"},"vehicle_type_id":"4","last_reported":1760807248,"current_range_meters":14000,"station_id":"ce4bhsh2rcd13ifvqi2g","pricing_plan_id":"cebpf4jnsgd1na2vs0mg"},{"bike_id":"5f811950-bc7d-4c54-bbdb-7b566c5e9f5f","system_id":"levelo_inurba_marseille","lat":43.29433,"lon":5.39742,"is_reserved":false,"is_disabled":false,"rental_uris":{"android":"levelo://app?vid=5f811950-bc7d-4c54-bbdb-7b566c5e9f5f","ios":"levelo://app?vid=5f811950-bc7d-4c54-bbdb-7b566c5e9f5f"},"vehicle_type_id":"4","last_reported":1760807248,"current_range_meters":14000,"station_id":"ce4bh3h2rcd13ifvqdo0","pricing_plan_id":"cebpf4jnsgd1na2vs0mg"},{"bike_id":"d3cb2293-7b19-4068-8848-ad14d0cbc495","system_id":"levelo_inurba_marseille","lat":43.27217,"lon":5.39189,"is_reserved":false,"is_disabled":false,"rental_uris":{"android":"levelo://app?vid=d3cb2293-7b19-4068-8848-ad14d0cbc495","ios":"levelo://app?vid=d3cb2293-7b19-4068-8848-ad14d0cbc495"},"vehicle_type_id":"4","last_reported":1760807248,"current_range_meters":14000,"station_id":"ce4bhhp2rcd13ifvqfm0","pricing_plan_id":"cebpf4jnsgd1na2vs0mg"},{"bike_id":"f287a1fb-b921-428c-8cc2-e5d2fd0beba9","system_id":"levelo_inurba_marseille","lat":43.3012,"lon":5.43113,"is_reserved":false,"is_disabled":false,"rental_uris":{"android":"levelo://app?vid=f287a1fb-b921-428c-8cc2-e5d2fd0beba9","ios":"levelo://app?vid=f287a1fb-b921-428c-8cc2-e5d2fd0beba9"},"vehicle_type_id":"4","last_reported":1760807248,"current_range_meters":14000,"station_id":"st_d3js3co5814s73ftftug","pricing_plan_id":"cebpf4jnsgd1na2vs0mg"},{"bike_id":"bf2c3617-0e72-4f4a-8585-0c63bcbc4fce","system_id":"levelo_inurba_marseille","lat":43.28625,"lon":5.35091,"is_reserved":false,"is_disabled":true,"rental_uris":{"android":"levelo://app?vid=bf2c3617-0e72-4f4a-8585-0c63bcbc4fce","ios":"levelo://app?vid=bf2c3617-0e72-4f4a-8585-0c63bcbc4fce"},"vehicle_type_id":"4","last_reported":1760807248,"current_range_meters":14400,"station_id":"ce4bhch2rcd13ifvqeug","pricing_plan_id":"cebpf4jnsgd1na2vs0mg"},{"bike_id":"4d639fc2-fd62-4b4f-8fc3-f0ee032daac3","system_id":"levelo_inurba_marseille","lat":43.24167,"lon":5.36402,"is_reserved":false,"is_disabled":false,"rental_uris":{"android":"levelo://app?vid=4d639fc2-fd62-4b4f-8fc3-f0ee032daac3","ios":"levelo://app?vid=4d639fc2-fd62-4b4f-8fc3-f0ee032daac3"},"vehicle_type_id":"4","last_reported":1760807248,"current_range_meters":14400,"station_id":"cpo36qri1sfpv3e86is0","pricing_plan_id":"cebpf4jnsgd1na2vs0mg"},{"bike_id":"ac6d2c4d-74a8-443d-a9f9-0d9807feacda","system_id":"levelo_inurba_marseille","lat":43.33772,"lon":5.37469,"is_reserved":false,"is_disabled":false,"rental_uris":{"android":"levelo://app?vid=ac6d2c4d-74a8-443d-a9f9-0d9807feacda","ios":"levelo://app?vid=ac6d2c4d-74a8-443d-a9f9-0d9807feacda"},"vehicle_type_id":"4","last_reported":1760807248,"current_range_meters":14400,"station_id":"","pricing_plan_id":"cebpf4jnsgd1na2vs0mg"},{"bike_id":"83f32d95-f77b-425d-85c0-965feedaefdf","system_id":"levelo_inurba_marseille","lat":43.2657,"lon":5.39006,"is_reserved":false,"is_disabled":false,"rental_uris":{"android":"levelo://app?vid=83f32d95-f77b-425d-85c0-965feedaefdf","ios":"levelo://app?vid=83f32d95-f77b-425d-85c0-965feedaefdf"},"vehicle_type_id":"4","last_reported":1760807248,"current_range_meters":14400,"station_id":"ce4bhe12rcd13ifvqf30","pricing_plan_id":"cebpf4jnsgd1na2vs0mg"},{"bike_id":"2387b78c-5569-4c75-ba88-76b0ec2749e5","system_id":"levelo_inurba_marseille","lat":43.28994,"lon":5.37171,"is_reserved":false,"is_disabled":false,"rental_uris":{"android":"levelo://app?vid=2387b78c-5569-4c75-ba88-76b0ec2749e5","ios":"levelo://app?vid=2387b78c-5569-4c75-ba88-76b0ec2749e5"},"vehicle_type_id":"4","last_reported":1760807248,"current_range_meters":14400,"station_id":"","pricing_plan_id":"cebpf4jnsgd1na2vs0mg"},{"bike_id":"074be791-6c38-4f2f-8dd0-b227e073e27e","system_id":"levelo_inurba_marseille","lat":43.24172,"lon":5.36398,"is_reserved":false,"is_disabled":false,"rental_uris":{"android":"levelo://app?vid=074be791-6c38-4f2f-8dd0-b227e073e27e","ios":"levelo://app?vid=074be791-6c38-4f2f-8dd0-b227e073e27e"},"vehicle_type_id":"4","last_reported":1760807248,"current_range_meters":14800,"station_id":"cpo36qri1sfpv3e86is0","pricing_plan_id":"cebpf4jnsgd1na2vs0mg"},{"bike_id":"6426e4fa-7f79-410d-acfa-0a51b3b2658a","system_id":"levelo_inurba_marseille","lat":43.312439,"lon":5.404032,"is_reserved":false,"is_disabled":false,"rental_uris":{"android":"levelo://app?vid=6426e4fa-7f79-410d-acfa-0a51b3b2658a","ios":"levelo://app?vid=6426e4fa-7f79-410d-acfa-0a51b3b2658a"},"vehicle_type_id":"4","last_reported":1760807248,"current_range_meters":14800,"station_id":"","pricing_plan_id":"cebpf4jnsgd1na2vs0mg"},{"bike_id":"3f13991a-43fd-4b49-b31a-f84d43d4b745","system_id":"levelo_inurba_marseille","lat":43.289807,"lon":5.371583,"is_reserved":false,"is_disabled":false,"rental_uris":{"android":"levelo://app?vid=3f13991a-43fd-4b49-b31a-f84d43d4b745","ios":"levelo://app?vid=3f13991a-43fd-4b49-b31a-f84d43d4b745"},"vehicle_type_id":"4","last_reported":1760807248,"current_range_meters":14800,"station_id":"","pricing_plan_id":"cebpf4jnsgd1na2vs0mg"},{"bike_id":"365b1110-8604-4b2d-ad9b-3263b8a258f2","system_id":"levelo_inurba_marseille","lat":43.28655,"lon":5.3634,"is_reserved":false,"is_disabled":false,"rental_uris":{"android":"levelo://app?vid=365b1110-8604-4b2d-ad9b-3263b8a258f2","ios":"levelo://app?vid=365b1110-8604-4b2d-ad9b-3263b8a258f2"},"vehicle_type_id":"4","last_reported":1760807248,"current_range_meters":14800,"station_id":"ce4bhah2rcd13ifvqej0","pricing_plan_id":"cebpf4jnsgd1na2vs0mg"},{"bike_id":"d712d0ff-3096-41ad-87d0-b640167ff060","system_id":"levelo_inurba_marseille","lat":43.31541,"lon":5.38512,"is_reserved":false,"is_disabled":false,"rental_uris":{"android":"levelo://app?vid=d712d0ff-3096-41ad-87d0-b640167ff060","ios":"levelo://app?vid=d712d0ff-3096-41ad-87d0-b640167ff060"},"vehicle_type_id":"4","last_reported":1760807248,"current_range_meters":14800,"station_id":"","pricing_plan_id":"cebpf4jnsgd1na2vs0mg"},{"bike_id":"3e9130f7-2dc2-48e9-a6a6-56327ea869ab","system_id":"levelo_inurba_marseille","lat":43.241668,"lon":5.363942,"is_reserved":false,"is_disabled":false,"rental_uris":{"android":"levelo://app?vid=3e9130f7-2dc2-48e9-a6a6-56327ea869ab","ios":"levelo://app?vid=3e9130f7-2dc2-48e9-a6a6-56327ea869ab"},"vehicle_type_id":"4","last_reported":1760807248,"current_range_meters":14800,"station_id":"cpo36qri1sfpv3e86is0","pricing_plan_id":"cebpf4jnsgd1na2vs0mg"},{"bike_id":"8d0dfff6-344d-44d4-a7c0-c8985a0e021b","system_id":"levelo_inurba_marseille","lat":43.29913,"lon":5.36818,"is_reserved":false,"is_disabled":false,"rental_uris":{"android":"levelo://app?vid=8d0dfff6-344d-44d4-a7c0-c8985a0e021b","ios":"levelo://app?vid=8d0dfff6-344d-44d4-a7c0-c8985a0e021b"},"vehicle_type_id":"4","last_reported":1760807248,"current_range_meters":14800,"station_id":"","pricing_plan_id":"cebpf4jnsgd1na2vs0mg"},{"bike_id":"cf4c14bf-7635-4f96-a4b6-ee6481db3804","system_id":"levelo_inurba_marseille","lat":43.32293,"lon":5.38287,"is_reserved":false,"is_disabled":false,"rental_uris":{"android":"levelo://app?vid=cf4c14bf-7635-4f96-a4b6-ee6481db3804","ios":"levelo://app?vid=cf4c14bf-7635-4f96-a4b6-ee6481db3804"},"vehicle_type_id":"4","last_reported":1760807248,"current_range_meters":15200,"station_id":"ce4bhr12rcd13ifvqhqg","pricing_plan_id":"cebpf4jnsgd1na2vs0mg"},{"bike_id":"51dbfa42-2bf5-497c-91db-487954152465","system_id":"levelo_inurba_marseille","lat":43.306414,"lon":5.401008,"is_reserved":false,"is_disabled":false,"rental_uris":{"android":"levelo://app?vid=51dbfa42-2bf5-497c-91db-487954152465","ios":"levelo://app?vid=51dbfa42-2bf5-497c-91db-487954152465"},"vehicle_type_id":"4","last_reported":1760807248,"current_range_meters":15200,"station_id":"ce4bh112rcd13ifvqda0","pricing_plan_id":"cebpf4jnsgd1na2vs0mg"},{"bike_id":"a7b3764b-b896-4840-bd7e-9880973af195","system_id":"levelo_inurba_marseille","lat":43.292287,"lon":5.360602,"is_reserved":false,"is_disabled":false,"rental_uris":{"android":"levelo://app?vid=a7b3764b-b896-4840-bd7e-9880973af195","ios":"levelo://app?vid=a7b3764b-b896-4840-bd7e-9880973af195"},"vehicle_type_id":"4","last_reported":1760807248,"current_range_meters":15200,"station_id":"","pricing_plan_id":"cebpf4jnsgd1na2vs0mg"},{"bike_id":"f4b21278-7a88-4f1e-8b50-4cb4a181722f","system_id":"levelo_inurba_marseille","lat":43.28528,"lon":5.44117,"is_reserved":false,"is_disabled":false,"rental_uris":{"android":"levelo://app?vid=f4b21278-7a88-4f1e-8b50-4cb4a181722f","ios":"levelo://app?vid=f4b21278-7a88-4f1e-8b50-4cb4a181722f"},"vehicle_type_id":"4","last_reported":1760807248,"current_range_meters":15200,"station_id":"st_d3j3df2ikq2c7380ej80","pricing_plan_id":"cebpf4jnsgd1na2vs0mg"},{"bike_id":"50f29d0c-0aac-475a-99ad-4612b9d1d7c8","system_id":"levelo_inurba_marseille","lat":43.25006,"lon":5.3893,"is_reserved":false,"is_disabled":false,"rental_uris":{"android":"levelo://app?vid=50f29d0c-0aac-475a-99ad-4612b9d1d7c8","ios":"levelo://app?vid=50f29d0c-0aac-475a-99ad-4612b9d1d7c8"},"vehicle_type_id":"4","last_reported":1760807248,"current_range_meters":16000,"station_id":"ce4bhgp2rcd13ifvqfd0","pricing_plan_id":"cebpf4jnsgd1na2vs0mg"},{"bike_id":"1ff755f0-e3da-4c67-862d-0de9d370a0db","system_id":"levelo_inurba_marseille","lat":43.24648,"lon":5.38888,"is_reserved":false,"is_disabled":false,"rental_uris":{"android":"levelo://app?vid=1ff755f0-e3da-4c67-862d-0de9d370a0db","ios":"levelo://app?vid=1ff755f0-e3da-4c67-862d-0de9d370a0db"},"vehicle_type_id":"4","last_reported":1760807248,"current_range_meters":16000,"station_id":"ce4bhg12rcd13ifvqf60","pricing_plan_id":"cebpf4jnsgd1na2vs0mg"},{"bike_id":"8e9276de-9650-4be0-a021-a7db783535ac","system_id":"levelo_inurba_marseille","lat":43.29263,"lon":5.38442,"is_reserved":false,"is_disabled":false,"rental_uris":{"android":"levelo://app?vid=8e9276de-9650-4be0-a021-a7db783535ac","ios":"levelo://app?vid=8e9276de-9650-4be0-a021-a7db783535ac"},"vehicle_type_id":"4","last_reported":1760807248,"current_range_meters":16000,"station_id":"ce4bh692rcd13ifvqea0","pricing_plan_id":"cebpf4jnsgd1na2vs0mg"},{"bike_id":"38f5f57e-d41a-4315-9425-abdc20f361a7","system_id":"levelo_inurba_marseille","lat":43.28482,"lon":5.38558,"is_reserved":false,"is_disabled":false,"rental_uris":{"android":"levelo://app?vid=38f5f57e-d41a-4315-9425-abdc20f361a7","ios":"levelo://app?vid=38f5f57e-d41a-4315-9425-abdc20f361a7"},"vehicle_type_id":"4","last_reported":1760807248,"current_range_meters":16000,"station_id":"ce4bh8p2rcd13ifvqeb0","pricing_plan_id":"cebpf4jnsgd1na2vs0mg"},{"bike_id":"127ae831-aeee-4a27-82cd-76503d818c41","system_id":"levelo_inurba_marseille","lat":43.303142,"lon":5.392092,"is_reserved":false,"is_disabled":false,"rental_uris":{"android":"levelo://app?vid=127ae831-aeee-4a27-82cd-76503d818c41","ios":"levelo://app?vid=127ae831-aeee-4a27-82cd-76503d818c41"},"vehicle_type_id":"4","last_reported":1760807248,"current_range_meters":16000,"station_id":"ce4bgkh2rcd13ifvqbk0","pricing_plan_id":"cebpf4jnsgd1na2vs0mg"},{"bike_id":"ca66566f-bb6f-47c3-9261-9f948cee6a02","system_id":"levelo_inurba_marseille","lat":43.273,"lon":5.39081,"is_reserved":false,"is_disabled":false,"rental_uris":{"android":"levelo://app?vid=ca66566f-bb6f-47c3-9261-9f948cee6a02","ios":"levelo://app?vid=ca66566f-bb6f-47c3-9261-9f948cee6a02"},"vehicle_type_id":"4","last_reported":1760807248,"current_range_meters":16400,"station_id":"ce4bhgp2rcd13ifvqfe0","pricing_plan_id":"cebpf4jnsgd1na2vs0mg"},{"bike_id":"91fc1629-74a5-4b19-9e3a-c98ccda67dca","system_id":"levelo_inurba_marseille","lat":43.27213,"lon":5.39174,"is_reserved":false,"is_disabled":false,"rental_uris":{"android":"levelo://app?vid=91fc1629-74a5-4b19-9e3a-c98ccda67dca","ios":"levelo://app?vid=91fc1629-74a5-4b19-9e3a-c98ccda67dca"},"vehicle_type_id":"4","last_reported":1760807248,"current_range_meters":16400,"station_id":"ce4bhhp2rcd13ifvqfm0","pricing_plan_id":"cebpf4jnsgd1na2vs0mg"},{"bike_id":"421d5f91-fc0e-4125-bf08-bdfd732623b1","system_id":"levelo_inurba_marseille","lat":43.28859,"lon":5.35867,"is_reserved":false,"is_disabled":false,"rental_uris":{"android":"levelo://app?vid=421d5f91-fc0e-4125-bf08-bdfd732623b1","ios":"levelo://app?vid=421d5f91-fc0e-4125-bf08-bdfd732623b1"},"vehicle_type_id":"4","last_reported":1760807248,"current_range_meters":16400,"station_id":"","pricing_plan_id":"cebpf4jnsgd1na2vs0mg"},{"bike_id":"e576ef9f-42f2-4817-a099-4bc936df5300","system_id":"levelo_inurba_marseille","lat":43.31694,"lon":5.40481,"is_reserved":false,"is_disabled":false,"rental_uris":{"android":"levelo://app?vid=e576ef9f-42f2-4817-a099-4bc936df5300","ios":"levelo://app?vid=e576ef9f-42f2-4817-a099-4bc936df5300"},"vehicle_type_id":"4","last_reported":1760807248,"current_range_meters":16800,"station_id":"ce4bh012rcd13ifvqd00","pricing_plan_id":"cebpf4jnsgd1na2vs0mg"},{"bike_id":"da968cc0-c2e8-4cd8-9dca-661085f624fe","system_id":"levelo_inurba_marseille","lat":43.30581,"lon":5.39347,"is_reserved":false,"is_disabled":false,"rental_uris":{"android":"levelo://app?vid=da968cc0-c2e8-4cd8-9dca-661085f624fe","ios":"levelo://app?vid=da968cc0-c2e8-4cd8-9dca-661085f624fe"},"vehicle_type_id":"4","last_reported":1760807248,"current_range_meters":16800,"station_id":"ce4bh0p2rcd13ifvqd80","pricing_plan_id":"cebpf4jnsgd1na2vs0mg"},{"bike_id":"c6ffde32-bde6-4cce-a061-012b5830563b","system_id":"levelo_inurba_marseille","lat":43.29533,"lon":5.38537,"is_reserved":false,"is_disabled":false,"rental_uris":{"android":"levelo://app?vid=c6ffde32-bde6-4cce-a061-012b5830563b","ios":"levelo://app?vid=c6ffde32-bde6-4cce-a061-012b5830563b"},"vehicle_type_id":"4","last_reported":1760807248,"current_range_meters":16800,"station_id":"ce4bgih2rcd13ifvqba0","pricing_plan_id":"cebpf4jnsgd1na2vs0mg"},{"bike_id":"8cd818e3-a9e2-4f48-92b2-26306f507696","system_id":"levelo_inurba_marseille","lat":43.31349,"lon":5.37913,"is_reserved":false,"is_disabled":false,"rental_uris":{"android":"levelo://app?vid=8cd818e3-a9e2-4f48-92b2-26306f507696","ios":"levelo://app?vid=8cd818e3-a9e2-4f48-92b2-26306f507696"},"vehicle_type_id":"4","last_reported":1760807248,"current_range_meters":16800,"station_id":"","pricing_plan_id":"cebpf4jnsgd1na2vs0mg"},{"bike_id":"fbe586dc-ebc7-45f2-b699-4812fb9ca15d","system_id":"levelo_inurba_marseille","lat":43.25493,"lon":5.37649,"is_reserved":false,"is_disabled":true,"rental_uris":{"android":"levelo://app?vid=fbe586dc-ebc7-45f2-b699-4812fb9ca15d","ios":"levelo://app?vid=fbe586dc-ebc7-45f2-b699-4812fb9ca15d"},"vehicle_type_id":"4","last_reported":1760807248,"current_range_meters":16800,"station_id":"ce4bhh12rcd13ifvqff0","pricing_plan_id":"cebpf4jnsgd1na2vs0mg"},{"bike_id":"3182eb7e-980a-4dea-a565-9358ed1d99cb","system_id":"levelo_inurba_marseille","lat":43.28975,"lon":5.37842,"is_reserved":false,"is_disabled":false,"rental_uris":{"android":"levelo://app?vid=3182eb7e-980a-4dea-a565-9358ed1d99cb","ios":"levelo://app?vid=3182eb7e-980a-4dea-a565-9358ed1d99cb"},"vehicle_type_id":"4","last_reported":1760807248,"current_range_meters":17200,"station_id":"ce4bh9p2rcd13ifvqed0","pricing_plan_id":"cebpf4jnsgd1na2vs0mg"},{"bike_id":"c253d0e3-592b-426f-ab2a-1f48f6584939","system_id":"levelo_inurba_marseille","lat":43.29007,"lon":5.356195,"is_reserved":false,"is_disabled":true,"rental_uris":{"android":"levelo://app?vid=c253d0e3-592b-426f-ab2a-1f48f6584939","ios":"levelo://app?vid=c253d0e3-592b-426f-ab2a-1f48f6584939"},"vehicle_type_id":"4","last_reported":1760807248,"current_range_meters":17200,"station_id":"ce4bh9p2rcd13ifvqec0","pricing_plan_id":"cebpf4jnsgd1na2vs0mg"},{"bike_id":"cd3ce89a-bdf5-4156-a0cb-5697ef4770a5","system_id":"levelo_inurba_marseille","lat":43.28722,"lon":5.37919,"is_reserved":false,"is_disabled":false,"rental_uris":{"android":"levelo://app?vid=cd3ce89a-bdf5-4156-a0cb-5697ef4770a5","ios":"levelo://app?vid=cd3ce89a-bdf5-4156-a0cb-5697ef4770a5"},"vehicle_type_id":"4","last_reported":1760807248,"current_range_meters":17200,"station_id":"ce4bh9p2rcd13ifvqec0","pricing_plan_id":"cebpf4jnsgd1na2vs0mg"},{"bike_id":"86ce52f8-f590-4694-90e1-216ddc477b29","system_id":"levelo_inurba_marseille","lat":43.30968,"lon":5.3812,"is_reserved":false,"is_disabled":false,"rental_uris":{"android":"levelo://app?vid=86ce52f8-f590-4694-90e1-216ddc477b29","ios":"levelo://app?vid=86ce52f8-f590-4694-90e1-216ddc477b29"},"vehicle_type_id":"4","last_reported":1760807248,"current_range_meters":17200,"station_id":"","pricing_plan_id":"cebpf4jnsgd1na2vs0mg"},{"bike_id":"ac9fa9b2-2041-4704-88b8-19e796dc2636","system_id":"levelo_inurba_marseille","lat":43.31491,"lon":5.37297,"is_reserved":false,"is_disabled":false,"rental_uris":{"android":"levelo://app?vid=ac9fa9b2-2041-4704-88b8-19e796dc2636","ios":"levelo://app?vid=ac9fa9b2-2041-4704-88b8-19e796dc2636"},"vehicle_type_id":"4","last_reported":1760807248,"current_range_meters":17200,"station_id":"ce4bgt12rcd13ifvqcd0","pricing_plan_id":"cebpf4jnsgd1na2vs0mg"},{"bike_id":"367c1051-7e4c-4903-8a1f-171c98150810","system_id":"levelo_inurba_marseille","lat":43.24163,"lon":5.36402,"is_reserved":false,"is_disabled":false,"rental_uris":{"android":"levelo://app?vid=367c1051-7e4c-4903-8a1f-171c98150810","ios":"levelo://app?vid=367c1051-7e4c-4903-8a1f-171c98150810"},"vehicle_type_id":"4","last_reported":1760807248,"current_range_meters":17200,"station_id":"cpo36qri1sfpv3e86is0","pricing_plan_id":"cebpf4jnsgd1na2vs0mg"},{"bike_id":"7dbafd2c-24ce-4774-980c-9e4e3c818918","system_id":"levelo_inurba_marseille","lat":43.2378,"lon":5.36648,"is_reserved":false,"is_disabled":false,"rental_uris":{"android":"levelo://app?vid=7dbafd2c-24ce-4774-980c-9e4e3c818918","ios":"levelo://app?vid=7dbafd2c-24ce-4774-980c-9e4e3c818918"},"vehicle_type_id":"4","last_reported":1760807248,"current_range_meters":17200,"station_id":"st_d3nk18o9ro0c73en2l3g","pricing_plan_id":"cebpf4jnsgd1na2vs0mg"},{"bike_id":"d7ded36d-d299-42ab-8149-5c679c8d7b3f","system_id":"levelo_inurba_marseille","lat":43.346435,"lon":5.36665,"is_reserved":false,"is_disabled":false,"rental_uris":{"android":"levelo://app?vid=d7ded36d-d299-42ab-8149-5c679c8d7b3f","ios":"levelo://app?vid=d7ded36d-d299-42ab-8149-5c679c8d7b3f"},"vehicle_type_id":"4","last_reported":1760807248,"current_range_meters":17200,"station_id":"","pricing_plan_id":"cebpf4jnsgd1na2vs0mg"},{"bike_id":"0f787efd-37ca-4060-a03d-15d3c3ce389f","system_id":"levelo_inurba_marseille","lat":43.30009,"lon":5.37336,"is_reserved":false,"is_disabled":false,"rental_uris":{"android":"levelo://app?vid=0f787efd-37ca-4060-a03d-15d3c3ce389f","ios":"levelo://app?vid=0f787efd-37ca-4060-a03d-15d3c3ce389f"},"vehicle_type_id":"4","last_reported":1760807248,"current_range_meters":17200,"station_id":"","pricing_plan_id":"cebpf4jnsgd1na2vs0mg"},{"bike_id":"0dc65f00-1d28-49e7-9353-16923caa8e09","system_id":"levelo_inurba_marseille","lat":43.3137,"lon":5.38481,"is_reserved":false,"is_disabled":false,"rental_uris":{"android":"levelo://app?vid=0dc65f00-1d28-49e7-9353-16923caa8e09","ios":"levelo://app?vid=0dc65f00-1d28-49e7-9353-16923caa8e09"},"vehicle_type_id":"4","last_reported":1760807248,"current_range_meters":17600,"station_id":"ce4bgt92rcd13ifvqcf0","pricing_plan_id":"cebpf4jnsgd1na2vs0mg"},{"bike_id":"7b4102bf-aba1-447f-93de-ffef7042242e","system_id":"levelo_inurba_marseille","lat":43.277578,"lon":5.376031,"is_reserved":false,"is_disabled":false,"rental_uris":{"android":"levelo://app?vid=7b4102bf-aba1-447f-93de-ffef7042242e","ios":"levelo://app?vid=7b4102bf-aba1-447f-93de-ffef7042242e"},"vehicle_type_id":"4","last_reported":1760807248,"current_range_meters":17600,"station_id":"","pricing_plan_id":"cebpf4jnsgd1na2vs0mg"},{"bike_id":"8f6c99a9-2111-4ea5-ba4d-4bb0a3b06aa1","system_id":"levelo_inurba_marseille","lat":43.298138,"lon":5.440671,"is_reserved":false,"is_disabled":false,"rental_uris":{"android":"levelo://app?vid=8f6c99a9-2111-4ea5-ba4d-4bb0a3b06aa1","ios":"levelo://app?vid=8f6c99a9-2111-4ea5-ba4d-4bb0a3b06aa1"},"vehicle_type_id":"4","last_reported":1760807248,"current_range_meters":17600,"station_id":"st_d3jp68qikq2c7381ktn0","pricing_plan_id":"cebpf4jnsgd1na2vs0mg"},{"bike_id":"c717bcb7-799b-4ce7-9dcd-b862d6b3f098","system_id":"levelo_inurba_marseille","lat":43.229402,"lon":5.353741,"is_reserved":false,"is_disabled":false,"rental_uris":{"android":"levelo://app?vid=c717bcb7-799b-4ce7-9dcd-b862d6b3f098","ios":"levelo://app?vid=c717bcb7-799b-4ce7-9dcd-b862d6b3f098"},"vehicle_type_id":"4","last_reported":1760807248,"current_range_meters":17600,"station_id":"cpo3532slgdg3j2ikp40","pricing_plan_id":"cebpf4jnsgd1na2vs0mg"},{"bike_id":"6b06aa68-6da8-4f5c-bf18-9f5045bd8fa8","system_id":"levelo_inurba_marseille","lat":43.24172,"lon":5.36384,"is_reserved":false,"is_disabled":false,"rental_uris":{"android":"levelo://app?vid=6b06aa68-6da8-4f5c-bf18-9f5045bd8fa8","ios":"levelo://app?vid=6b06aa68-6da8-4f5c-bf18-9f5045bd8fa8"},"vehicle_type_id":"4","last_reported":1760807248,"current_range_meters":17600,"station_id":"cpo36qri1sfpv3e86is0","pricing_plan_id":"cebpf4jnsgd1na2vs0mg"},{"bike_id":"5f2ed11b-94ed-4ff8-8678-700fee08434f","system_id":"levelo_inurba_marseille","lat":43.2926,"lon":5.38438,"is_reserved":false,"is_disabled":false,"rental_uris":{"android":"levelo://app?vid=5f2ed11b-94ed-4ff8-8678-700fee08434f","ios":"levelo://app?vid=5f2ed11b-94ed-4ff8-8678-700fee08434f"},"vehicle_type_id":"4","last_reported":1760807248,"current_range_meters":17600,"station_id":"ce4bh692rcd13ifvqea0","pricing_plan_id":"cebpf4jnsgd1na2vs0mg"},{"bike_id":"7fd36eea-805d-4dce-89b5-46f277eaf158","system_id":"levelo_inurba_marseille","lat":43.305097,"lon":5.366695,"is_reserved":false,"is_disabled":false,"rental_uris":{"android":"levelo://app?vid=7fd36eea-805d-4dce-89b5-46f277eaf158","ios":"levelo://app?vid=7fd36eea-805d-4dce-89b5-46f277eaf158"},"vehicle_type_id":"4","last_reported":1760807248,"current_range_meters":17600,"station_id":"","pricing_plan_id":"cebpf4jnsgd1na2vs0mg"},{"bike_id":"3f9922fa-5fa2-4bb2-b6fe-411d28b8df2c","system_id":"levelo_inurba_marseille","lat":43.28458,"lon":5.381394,"is_reserved":false,"is_disabled":false,"rental_uris":{"android":"levelo://app?vid=3f9922fa-5fa2-4bb2-b6fe-411d28b8df2c","ios":"levelo://app?vid=3f9922fa-5fa2-4bb2-b6fe-411d28b8df2c"},"vehicle_type_id":"4","last_reported":1760807248,"current_range_meters":17600,"station_id":"","pricing_plan_id":"cebpf4jnsgd1na2vs0mg"},{"bike_id":"0a53904e-6100-4306-9c10-14b7a7cd0e43","system_id":"levelo_inurba_marseille","lat":43.299734,"lon":5.413223,"is_reserved":false,"is_disabled":false,"rental_uris":{"android":"levelo://app?vid=0a53904e-6100-4306-9c10-14b7a7cd0e43","ios":"levelo://app?vid=0a53904e-6100-4306-9c10-14b7a7cd0e43"},"vehicle_type_id":"4","last_reported":1760807248,"current_range_meters":17600,"station_id":"ce4bhp12rcd13ifvqh9g","pricing_plan_id":"cebpf4jnsgd1na2vs0mg"},{"bike_id":"d0eada20-6c34-45e5-8cfc-973b7b4d9c06","system_id":"levelo_inurba_marseille","lat":43.29862,"lon":5.36292,"is_reserved":false,"is_disabled":false,"rental_uris":{"android":"levelo://app?vid=d0eada20-6c34-45e5-8cfc-973b7b4d9c06","ios":"levelo://app?vid=d0eada20-6c34-45e5-8cfc-973b7b4d9c06"},"vehicle_type_id":"4","last_reported":1760807248,"current_range_meters":17600,"station_id":"ce4bgpp2rcd13ifvqc3g","pricing_plan_id":"cebpf4jnsgd1na2vs0mg"},{"bike_id":"60e4045f-cf32-4abf-9fec-a2b6b816b5f9","system_id":"levelo_inurba_marseille","lat":43.293055,"lon":5.371829,"is_reserved":false,"is_disabled":false,"rental_uris":{"android":"levelo://app?vid=60e4045f-cf32-4abf-9fec-a2b6b816b5f9","ios":"levelo://app?vid=60e4045f-cf32-4abf-9fec-a2b6b816b5f9"},"vehicle_type_id":"4","last_reported":1760807248,"current_range_meters":17600,"station_id":"ce4bgh92rcd13ifvqb50","pricing_plan_id":"cebpf4jnsgd1na2vs0mg"},{"bike_id":"be86c554-75f4-49fd-8c32-9874588cfc26","system_id":"levelo_inurba_marseille","lat":43.287,"lon":5.39983,"is_reserved":false,"is_disabled":false,"rental_uris":{"android":"levelo://app?vid=be86c554-75f4-49fd-8c32-9874588cfc26","ios":"levelo://app?vid=be86c554-75f4-49fd-8c32-9874588cfc26"},"vehicle_type_id":"4","last_reported":1760807248,"current_range_meters":17600,"station_id":"ce4bho92rcd13ifvqh3g","pricing_plan_id":"cebpf4jnsgd1na2vs0mg"},{"bike_id":"c2109d25-d4ee-4a1f-897b-a03e90535513","system_id":"levelo_inurba_marseille","lat":43.28537,"lon":5.44118,"is_reserved":false,"is_disabled":false,"rental_uris":{"android":"levelo://app?vid=c2109d25-d4ee-4a1f-897b-a03e90535513","ios":"levelo://app?vid=c2109d25-d4ee-4a1f-897b-a03e90535513"},"vehicle_type_id":"4","last_reported":1760807248,"current_range_meters":17600,"station_id":"st_d3j3df2ikq2c7380ej80","pricing_plan_id":"cebpf4jnsgd1na2vs0mg"},{"bike_id":"b9f4c452-f1a0-4b31-854c-2325a5b73556","system_id":"levelo_inurba_marseille","lat":43.214657,"lon":5.343186,"is_reserved":false,"is_disabled":false,"rental_uris":{"android":"levelo://app?vid=b9f4c452-f1a0-4b31-854c-2325a5b73556","ios":"levelo://app?vid=b9f4c452-f1a0-4b31-854c-2325a5b73556"},"vehicle_type_id":"4","last_reported":1760807248,"current_range_meters":17600,"station_id":"","pricing_plan_id":"cebpf4jnsgd1na2vs0mg"},{"bike_id":"a87802b5-7987-4d75-87c1-e73630b64afc","system_id":"levelo_inurba_marseille","lat":43.272124,"lon":5.391755,"is_reserved":false,"is_disabled":false,"rental_uris":{"android":"levelo://app?vid=a87802b5-7987-4d75-87c1-e73630b64afc","ios":"levelo://app?vid=a87802b5-7987-4d75-87c1-e73630b64afc"},"vehicle_type_id":"4","last_reported":1760807248,"current_range_meters":18000,"station_id":"ce4bhhp2rcd13ifvqfm0","pricing_plan_id":"cebpf4jnsgd1na2vs0mg"},{"bike_id":"7a8ac50b-c3a4-490a-8f96-9c005f89ed5d","system_id":"levelo_inurba_marseille","lat":43.26521,"lon":5.39049,"is_reserved":false,"is_disabled":false,"rental_uris":{"android":"levelo://app?vid=7a8ac50b-c3a4-490a-8f96-9c005f89ed5d","ios":"levelo://app?vid=7a8ac50b-c3a4-490a-8f96-9c005f89ed5d"},"vehicle_type_id":"4","last_reported":1760807248,"current_range_meters":18000,"station_id":"","pricing_plan_id":"cebpf4jnsgd1na2vs0mg"},{"bike_id":"7a2f22b8-2aa5-4e7c-9e73-fcc300c21db5","system_id":"levelo_inurba_marseille","lat":43.26782,"lon":5.39418,"is_reserved":false,"is_disabled":false,"rental_uris":{"android":"levelo://app?vid=7a2f22b8-2aa5-4e7c-9e73-fcc300c21db5","ios":"levelo://app?vid=7a2f22b8-2aa5-4e7c-9e73-fcc300c21db5"},"vehicle_type_id":"4","last_reported":1760807248,"current_range_meters":18000,"station_id":"ce4bhh12rcd13ifvqfg0","pricing_plan_id":"cebpf4jnsgd1na2vs0mg"},{"bike_id":"450790c9-8a09-4563-a2f6-eb25ea69f248","system_id":"levelo_inurba_marseille","lat":43.27941,"lon":5.41047,"is_reserved":false,"is_disabled":false,"rental_uris":{"android":"levelo://app?vid=450790c9-8a09-4563-a2f6-eb25ea69f248","ios":"levelo://app?vid=450790c9-8a09-4563-a2f6-eb25ea69f248"},"vehicle_type_id":"4","last_reported":1760807248,"current_range_meters":18000,"station_id":"ce4bhnp2rcd13ifvqh0g","pricing_plan_id":"cebpf4jnsgd1na2vs0mg"},{"bike_id":"281275b0-340b-4d2d-bc29-085f43a86d4d","system_id":"levelo_inurba_marseille","lat":43.27377,"lon":5.36251,"is_reserved":false,"is_disabled":false,"rental_uris":{"android":"levelo://app?vid=281275b0-340b-4d2d-bc29-085f43a86d4d","ios":"levelo://app?vid=281275b0-340b-4d2d-bc29-085f43a86d4d"},"vehicle_type_id":"4","last_reported":1760807248,"current_range_meters":18000,"station_id":"","pricing_plan_id":"cebpf4jnsgd1na2vs0mg"},{"bike_id":"e49f1957-12ca-4f31-9218-007afff6f309","system_id":"levelo_inurba_marseille","lat":43.23786,"lon":5.36627,"is_reserved":false,"is_disabled":false,"rental_uris":{"android":"levelo://app?vid=e49f1957-12ca-4f31-9218-007afff6f309","ios":"levelo://app?vid=e49f1957-12ca-4f31-9218-007afff6f309"},"vehicle_type_id":"4","last_reported":1760807248,"current_range_meters":18000,"station_id":"st_d3nk18o9ro0c73en2l3g","pricing_plan_id":"cebpf4jnsgd1na2vs0mg"},{"bike_id":"bce98ae8-dfdf-4c26-a4bd-718a9035c2fc","system_id":"levelo_inurba_marseille","lat":43.27949,"lon":5.4104,"is_reserved":false,"is_disabled":false,"rental_uris":{"android":"levelo://app?vid=bce98ae8-dfdf-4c26-a4bd-718a9035c2fc","ios":"levelo://app?vid=bce98ae8-dfdf-4c26-a4bd-718a9035c2fc"},"vehicle_type_id":"4","last_reported":1760807248,"current_range_meters":18000,"station_id":"ce4bhnp2rcd13ifvqh0g","pricing_plan_id":"cebpf4jnsgd1na2vs0mg"},{"bike_id":"54fe87cf-08db-42c7-9c99-956382f60028","system_id":"levelo_inurba_marseille","lat":43.28985,"lon":5.37822,"is_reserved":false,"is_disabled":false,"rental_uris":{"android":"levelo://app?vid=54fe87cf-08db-42c7-9c99-956382f60028","ios":"levelo://app?vid=54fe87cf-08db-42c7-9c99-956382f60028"},"vehicle_type_id":"4","last_reported":1760807248,"current_range_meters":18000,"station_id":"ce4bh9p2rcd13ifvqed0","pricing_plan_id":"cebpf4jnsgd1na2vs0mg"},{"bike_id":"d1668fd5-d05d-42a9-b5d1-4388db8ac6a3","system_id":"levelo_inurba_marseille","lat":43.31764,"lon":5.39029,"is_reserved":false,"is_disabled":false,"rental_uris":{"android":"levelo://app?vid=d1668fd5-d05d-42a9-b5d1-4388db8ac6a3","ios":"levelo://app?vid=d1668fd5-d05d-42a9-b5d1-4388db8ac6a3"},"vehicle_type_id":"4","last_reported":1760807248,"current_range_meters":18000,"station_id":"ce4bhqp2rcd13ifvqhng","pricing_plan_id":"cebpf4jnsgd1na2vs0mg"},{"bike_id":"c22e92c8-3fe0-4c56-ab21-210e12f7f0b4","system_id":"levelo_inurba_marseille","lat":43.319449,"lon":5.415269,"is_reserved":false,"is_disabled":false,"rental_uris":{"android":"levelo://app?vid=c22e92c8-3fe0-4c56-ab21-210e12f7f0b4","ios":"levelo://app?vid=c22e92c8-3fe0-4c56-ab21-210e12f7f0b4"},"vehicle_type_id":"4","last_reported":1760807248,"current_range_meters":18800,"station_id":"","pricing_plan_id":"cebpf4jnsgd1na2vs0mg"},{"bike_id":"f13259c8-94da-45f6-abfa-9a31fb4ba202","system_id":"levelo_inurba_marseille","lat":43.298,"lon":5.38097,"is_reserved":false,"is_disabled":false,"rental_uris":{"android":"levelo://app?vid=f13259c8-94da-45f6-abfa-9a31fb4ba202","ios":"levelo://app?vid=f13259c8-94da-45f6-abfa-9a31fb4ba202"},"vehicle_type_id":"4","last_reported":1760807248,"current_range_meters":18800,"station_id":"ce4bgip2rcd13ifvqbb0","pricing_plan_id":"cebpf4jnsgd1na2vs0mg"},{"bike_id":"9652283e-21f4-4490-ac9e-ffa9429f0005","system_id":"levelo_inurba_marseille","lat":43.29043,"lon":5.40469,"is_reserved":false,"is_disabled":false,"rental_uris":{"android":"levelo://app?vid=9652283e-21f4-4490-ac9e-ffa9429f0005","ios":"levelo://app?vid=9652283e-21f4-4490-ac9e-ffa9429f0005"},"vehicle_type_id":"4","last_reported":1760807248,"current_range_meters":18800,"station_id":"","pricing_plan_id":"cebpf4jnsgd1na2vs0mg"},{"bike_id":"0870af41-6c17-412e-8582-80ef36bf2ff1","system_id":"levelo_inurba_marseille","lat":43.279739,"lon":5.387478,"is_reserved":false,"is_disabled":false,"rental_uris":{"android":"levelo://app?vid=0870af41-6c17-412e-8582-80ef36bf2ff1","ios":"levelo://app?vid=0870af41-6c17-412e-8582-80ef36bf2ff1"},"vehicle_type_id":"4","last_reported":1760807248,"current_range_meters":18800,"station_id":"ce4bhg12rcd13ifvqf80","pricing_plan_id":"cebpf4jnsgd1na2vs0mg"},{"bike_id":"7ddf39ff-9e7d-4631-b144-45ce8000d829","system_id":"levelo_inurba_marseille","lat":43.30259,"lon":5.39036,"is_reserved":false,"is_disabled":false,"rental_uris":{"android":"levelo://app?vid=7ddf39ff-9e7d-4631-b144-45ce8000d829","ios":"levelo://app?vid=7ddf39ff-9e7d-4631-b144-45ce8000d829"},"vehicle_type_id":"4","last_reported":1760807248,"current_range_meters":18800,"station_id":"","pricing_plan_id":"cebpf4jnsgd1na2vs0mg"},{"bike_id":"dd1c5fff-bc35-4e46-b43f-2920978eabc0","system_id":"levelo_inurba_marseille","lat":43.24809,"lon":5.37458,"is_reserved":false,"is_disabled":false,"rental_uris":{"android":"levelo://app?vid=dd1c5fff-bc35-4e46-b43f-2920978eabc0","ios":"levelo://app?vid=dd1c5fff-bc35-4e46-b43f-2920978eabc0"},"vehicle_type_id":"4","last_reported":1760807248,"current_range_meters":18800,"station_id":"ce4bhgh2rcd13ifvqfb0","pricing_plan_id":"cebpf4jnsgd1na2vs0mg"},{"bike_id":"bb79989d-871e-48b8-a3e7-7a297a28b04c","system_id":"levelo_inurba_marseille","lat":43.281524,"lon":5.351267,"is_reserved":false,"is_disabled":false,"rental_uris":{"android":"levelo://app?vid=bb79989d-871e-48b8-a3e7-7a297a28b04c","ios":"levelo://app?vid=bb79989d-871e-48b8-a3e7-7a297a28b04c"},"vehicle_type_id":"4","last_reported":1760807248,"current_range_meters":19200,"station_id":"","pricing_plan_id":"cebpf4jnsgd1na2vs0mg"},{"bike_id":"bf40278b-4bc5-4d5b-be65-c18872b0fe60","system_id":"levelo_inurba_marseille","lat":43.21193,"lon":5.35079,"is_reserved":false,"is_disabled":false,"rental_uris":{"android":"levelo://app?vid=bf40278b-4bc5-4d5b-be65-c18872b0fe60","ios":"levelo://app?vid=bf40278b-4bc5-4d5b-be65-c18872b0fe60"},"vehicle_type_id":"4","last_reported":1760807248,"current_range_meters":19200,"station_id":"st_cvj6sg6p6f1abm77japg","pricing_plan_id":"cebpf4jnsgd1na2vs0mg"},{"bike_id":"8b9ef284-f57e-43ad-9332-2ba9d0b1b211","system_id":"levelo_inurba_marseille","lat":43.23794,"lon":5.36635,"is_reserved":false,"is_disabled":false,"rental_uris":{"android":"levelo://app?vid=8b9ef284-f57e-43ad-9332-2ba9d0b1b211","ios":"levelo://app?vid=8b9ef284-f57e-43ad-9332-2ba9d0b1b211"},"vehicle_type_id":"4","last_reported":1760807248,"current_range_meters":19200,"station_id":"st_d3nk18o9ro0c73en2l3g","pricing_plan_id":"cebpf4jnsgd1na2vs0mg"},{"bike_id":"55d21b5f-6c42-4bb6-b415-532804699595","system_id":"levelo_inurba_marseille","lat":43.27213,"lon":5.39175,"is_reserved":false,"is_disabled":false,"rental_uris":{"android":"levelo://app?vid=55d21b5f-6c42-4bb6-b415-532804699595","ios":"levelo://app?vid=55d21b5f-6c42-4bb6-b415-532804699595"},"vehicle_type_id":"4","last_reported":1760807248,"current_range_meters":19200,"station_id":"ce4bhhp2rcd13ifvqfm0","pricing_plan_id":"cebpf4jnsgd1na2vs0mg"},{"bike_id":"af4dd1bf-d5e6-4606-9d86-558d03d65115","system_id":"levelo_inurba_marseille","lat":43.30314,"lon":5.36904,"is_reserved":false,"is_disabled":false,"rental_uris":{"android":"levelo://app?vid=af4dd1bf-d5e6-4606-9d86-558d03d65115","ios":"levelo://app?vid=af4dd1bf-d5e6-4606-9d86-558d03d65115"},"vehicle_type_id":"4","last_reported":1760807248,"current_range_meters":19200,"station_id":"ce4bgqh2rcd13ifvqc5g","pricing_plan_id":"cebpf4jnsgd1na2vs0mg"},{"bike_id":"1dfcf949-a889-4300-8dd0-eb127b102841","system_id":"levelo_inurba_marseille","lat":43.26811,"lon":5.40271,"is_reserved":false,"is_disabled":false,"rental_uris":{"android":"levelo://app?vid=1dfcf949-a889-4300-8dd0-eb127b102841","ios":"levelo://app?vid=1dfcf949-a889-4300-8dd0-eb127b102841"},"vehicle_type_id":"4","last_reported":1760807248,"current_range_meters":19200,"station_id":"ce501612rcd8frsf0b60","pricing_plan_id":"cebpf4jnsgd1na2vs0mg"},{"bike_id":"f1ad9d1d-9c06-41a3-9d14-eb8ccc0cf505","system_id":"levelo_inurba_marseille","lat":43.30376,"lon":5.42492,"is_reserved":false,"is_disabled":false,"rental_uris":{"android":"levelo://app?vid=f1ad9d1d-9c06-41a3-9d14-eb8ccc0cf505","ios":"levelo://app?vid=f1ad9d1d-9c06-41a3-9d14-eb8ccc0cf505"},"vehicle_type_id":"4","last_reported":1760807248,"current_range_meters":19200,"station_id":"ce4bhoh2rcd13ifvqh6g","pricing_plan_id":"cebpf4jnsgd1na2vs0mg"},{"bike_id":"5273c2f1-a0ec-48bd-ac1a-00aa6d7c135b","system_id":"levelo_inurba_marseille","lat":43.299056,"lon":5.381473,"is_reserved":false,"is_disabled":false,"rental_uris":{"android":"levelo://app?vid=5273c2f1-a0ec-48bd-ac1a-00aa6d7c135b","ios":"levelo://app?vid=5273c2f1-a0ec-48bd-ac1a-00aa6d7c135b"},