{"last_updated":1729501840,"ttl":60,"version":"2.2","data":{"bikes":[{"bike_id":"b663a75a-8f5b-4390-951c-274251e08ea6","system_id":"levelo_inurba_marseille","lat":43.29277,"lon":5.36839,"is_reserved":false,"is_disabled":false,"rental_uris":{"android":"levelo://app?vid=b663a75a-8f5b-4390-951c-274251e08ea6","ios":"levelo://app?vid=b663a75a-8f5b-4390-951c-274251e08ea6"},"vehicle_type_id":"4","last_reported":1729501840,"current_range_meters":36800,"station_id":"ce4bhbp2rcd13ifvqesg","pricing_plan_id":"cebpf4jnsgd1na2vs0mg"},{"bike_id":"45e39af7-2318-411e-bd12-f66a360408d2","system_id":"levelo_inurba_marseille","lat":43.30466,"lon":5.37899,"is_reserved":false,"is_disabled":false,"rental_uris":{"android":"levelo://app?vid=45e39af7-2318-411e-bd12-f66a360408d2","ios":"levelo://app?vid=45e39af7-2318-411e-bd12-f66a360408d2"},"vehicle_type_id":"4","last_reported":1729501840,"current_range_meters":22400,"station_id":"ce4bgup2rcd13ifvqcn0","pricing_plan_id":"cebpf4jnsgd1na2vs0mg"},{"bike_id":"04cc92cc-2f07-489b-aab4-02bc92fdd9a8","system_id":"levelo_inurba_marseille","lat":43.30139,"lon":5.37432,"is_reserved":false,"is_disabled":false,"rental_uris":{"android":"levelo://app?vid=04cc92cc-2f07-489b-aab4-02bc92fdd9a8","ios":"levelo://app?vid=04cc92cc-2f07-489b-aab4-02bc92fdd9a8"},"vehicle_type_id":"4","last_reported":1729501840,"current_range_meters":19600,"station_id":"ce4bgs92rcd13ifvqcc0","pricing_plan_id":"cebpf4jnsgd1na2vs0mg"},{"bike_id":"685a354f-ff49-4ca8-a6ba-515d8049af7f","system_id":"levelo_inurba_marseille","lat":43.27609,"lon":5.36119,"is_reserved":false,"is_disabled":false,"rental_uris":{"android":"levelo://app?vid=685a354f-ff49-4ca8-a6ba-515d8049af7f","ios":"levelo://app?vid=685a354f-ff49-4ca8-a6ba-515d8049af7f"},"vehicle_type_id":"4","last_reported":1729501840,"current_range_meters":38400,"station_id":"ce4bgj92rcd13ifvqbe0","pricing_plan_id":"cebpf4jnsgd1na2vs0mg"},{"bike_id":"6c9aa0c7-63e4-43bd-955c-9f1b3055c12c","system_id":"levelo_inurba_marseille","lat":43.24647,"lon":5.3889,"is_reserved":false,"is_disabled":false,"rental_uris":{"android":"levelo://app?vid=6c9aa0c7-63e4-43bd-955c-9f1b3055c12c","ios":"levelo://app?vid=6c9aa0c7-63e4-43bd-955c-9f1b3055c12c"},"vehicle_type_id":"4","last_reported":1729501840,"current_range_meters":37600,"station_id":"ce4bhg12rcd13ifvqf60","pricing_plan_id":"cebpf4jnsgd1na2vs0mg"},{"bike_id":"f069a0dc-5a55-4e02-b8d3-b52288048f52","system_id":"levelo_inurba_marseille","lat":43.309085,"lon":5.368558,"is_reserved":false,"is_disabled":false,"rental_uris":{"android":"levelo://app?vid=f069a0dc-5a55-4e02-b8d3-b52288048f52","ios":"levelo://app?vid=f069a0dc-5a55-4e02-b8d3-b52288048f52"},"vehicle_type_id":"4","last_reported":1729501840,"current_range_meters":39200,"station_id":"ce4bgn92rcd13ifvqbvg","pricing_plan_id":"cebpf4jnsgd1na2vs0mg"},{"bike_id":"e87b7e43-d266-42f2-bb17-a0593f82e999","system_id":"levelo_inurba_marseille","lat":43.3199,"lon":5.38129,"is_reserved":false,"is_disabled":false,"rental_uris":{"android":"levelo://app?vid=e87b7e43-d266-42f2-bb17-a0593f82e999","ios":"levelo://app?vid=e87b7e43-d266-42f2-bb17-a0593f82e999"},"vehicle_type_id":"4","last_reported":1729501840,"current_range_meters":16000,"station_id":"ce4bhr12rcd13ifvqhpg","pricing_plan_id":"cebpf4jnsgd1na2vs0mg"},{"bike_id":"90c333e8-75e3-4257-bd23-a7c6ca196633","system_id":"levelo_inurba_marseille","lat":43.30957,"lon":5.39036,"is_reserved":false,"is_disabled":false,"rental_uris":{"android":"levelo://app?vid=90c333e8-75e3-4257-bd23-a7c6ca196633","ios":"levelo://app?vid=90c333e8-75e3-4257-bd23-a7c6ca196633"},"vehicle_type_id":"4","last_reported":1729501840,"current_range_meters":33200,"station_id":"ce4bgup2rcd13ifvqco0","pricing_plan_id":"cebpf4jnsgd1na2vs0mg"},{"bike_id":"415e15ae-cf52-4bf6-9f98-9af3ff185e52","system_id":"levelo_inurba_marseille","lat":43.34142,"lon":5.40896,"is_reserved":false,"is_disabled":false,"rental_uris":{"android":"levelo://app?vid=415e15ae-cf52-4bf6-9f98-9af3ff185e52","ios":"levelo://app?vid=415e15ae-cf52-4bf6-9f98-9af3ff185e52"},"vehicle_type_id":"4","last_reported":1729501840,"current_range_meters":38800,"station_id":"ce4bhqh2rcd13ifvqhlg","pricing_plan_id":"cebpf4jnsgd1na2vs0mg"},{"bike_id":"5912cabd-2dfc-446e-abab-bb842ad63787","system_id":"levelo_inurba_marseille","lat":43.24545,"lon":5.39523,"is_reserved":false,"is_disabled":false,"rental_uris":{"android":"levelo://app?vid=5912cabd-2dfc-446e-abab-bb842ad63787","ios":"levelo://app?vid=5912cabd-2dfc-446e-abab-bb842ad63787"},"vehicle_type_id":"4","last_reported":1729501840,"current_range_meters":28400,"station_id":"ce4bhlp2rcd13ifvqgjg","pricing_plan_id":"cebpf4jnsgd1na2vs0mg"},{"bike_id":"1c471e13-d341-4fac-8213-7ad3938ba073","system_id":"levelo_inurba_marseille","lat":43.30462,"lon":5.37915,"is_reserved":false,"is_disabled":false,"rental_uris":{"android":"levelo://app?vid=1c471e13-d341-4fac-8213-7ad3938ba073","ios":"levelo://app?vid=1c471e13-d341-4fac-8213-7ad3938ba073"},"vehicle_type_id":"4","last_reported":1729501840,"current_range_meters":8000,"station_id":"ce4bgup2rcd13ifvqcn0","pricing_plan_id":"cebpf4jnsgd1na2vs0mg"},{"bike_id":"3f9992d8-818f-4658-8f0e-450cebf37db9","system_id":"levelo_inurba_marseille","lat":43.31347,"lon":5.36708,"is_reserved":false,"is_disabled":false,"rental_uris":{"android":"levelo://app?vid=3f9992d8-818f-4658-8f0e-450cebf37db9","ios":"levelo://app?vid=3f9992d8-818f-4658-8f0e-450cebf37db9"},"vehicle_type_id":"4","last_reported":1729501840,"current_range_meters":26800,"station_id":"ce4bgr92rcd13ifvqc6g","pricing_plan_id":"cebpf4jnsgd1na2vs0mg"},{"bike_id":"d63a9c55-0aeb-49d1-ad46-9a88207c744d","system_id":"levelo_inurba_marseille","lat":43.30141,"lon":5.37412,"is_reserved":false,"is_disabled":false,"rental_uris":{"android":"levelo://app?vid=d63a9c55-0aeb-49d1-ad46-9a88207c744d","ios":"levelo://app?vid=d63a9c55-0aeb-49d1-ad46-9a88207c744d"},"vehicle_type_id":"4","last_reported":1729501840,"current_range_meters":22800,"station_id":"ce4bgs92rcd13ifvqcc0","pricing_plan_id":"cebpf4jnsgd1na2vs0mg"},{"bike_id":"465d277d-c8de-4a34-9875-808758c00c7a","system_id":"levelo_inurba_marseille","lat":43.34147,"lon":5.40906,"is_reserved":false,"is_disabled":false,"rental_uris":{"android":"levelo://app?vid=465d277d-c8de-4a34-9875-808758c00c7a","ios":"levelo://app?vid=465d277d-c8de-4a34-9875-808758c00c7a"},"vehicle_type_id":"4","last_reported":1729501840,"current_range_meters":21600,"station_id":"ce4bhqh2rcd13ifvqhlg","pricing_plan_id":"cebpf4jnsgd1na2vs0mg"},{"bike_id":"23bfeba5-c3d9-4d9f-98bd-fe1548fb2964","system_id":"levelo_inurba_marseille","lat":43.29156,"lon":5.37172,"is_reserved":false,"is_disabled":false,"rental_uris":{"android":"levelo://app?vid=23bfeba5-c3d9-4d9f-98bd-fe1548fb2964","ios":"levelo://app?vid=23bfeba5-c3d9-4d9f-98bd-fe1548fb2964"},"vehicle_type_id":"4","last_reported":1729501840,"current_range_meters":34800,"station_id":"ce4bha92rcd13ifvqeh0","pricing_plan_id":"cebpf4jnsgd1na2vs0mg"},{"bike_id":"64092af2-425c-41c7-9d13-1fe5bfa66936","system_id":"levelo_inurba_marseille","lat":43.29005,"lon":5.35611,"is_reserved":false,"is_disabled":false,"rental_uris":{"android":"levelo://app?vid=64092af2-425c-41c7-9d13-1fe5bfa66936","ios":"levelo://app?vid=64092af2-425c-41c7-9d13-1fe5bfa66936"},"vehicle_type_id":"4","last_reported":1729501840,"current_range_meters":39200,"station_id":"ce4bhb92rcd13ifvqen0","pricing_plan_id":"cebpf4jnsgd1na2vs0mg"},{"bike_id":"01f65fbf-b58b-4767-8f2c-e63d5f8a47dc","system_id":"levelo_inurba_marseille","lat":43.23183,"lon":5.39991,"is_reserved":false,"is_disabled":false,"rental_uris":{"android":"levelo://app?vid=01f65fbf-b58b-4767-8f2c-e63d5f8a47dc","ios":"levelo://app?vid=01f65fbf-b58b-4767-8f2c-e63d5f8a47dc"},"vehicle_type_id":"4","last_reported":1729501840,"current_range_meters":20800,"station_id":"ce4bhn12rcd13ifvqgqg","pricing_plan_id":"cebpf4jnsgd1na2vs0mg"},{"bike_id":"1af868fc-d06d-4c85-a915-7ff4359d08b7","system_id":"levelo_inurba_marseille","lat":43.23158,"lon":5.4371,"is_reserved":false,"is_disabled":false,"rental_uris":{"android":"levelo://app?vid=1af868fc-d06d-4c85-a915-7ff4359d08b7","ios":"levelo://app?vid=1af868fc-d06d-4c85-a915-7ff4359d08b7"},"vehicle_type_id":"4","last_reported":1729501840,"current_range_meters":23200,"station_id":"ce4bhmp2rcd13ifvqgog","pricing_plan_id":"cebpf4jnsgd1na2vs0mg"},{"bike_id":"b2594242-0333-4ced-bce5-e8eb09325f36","system_id":"levelo_inurba_marseille","lat":43.25821,"lon":5.39438,"is_reserved":false,"is_disabled":false,"rental_uris":{"android":"levelo://app?vid=b2594242-0333-4ced-bce5-e8eb09325f36","ios":"levelo://app?vid=b2594242-0333-4ced-bce5-e8eb09325f36"},"vehicle_type_id":"4","last_reported":1729501840,"current_range_meters":31200,"station_id":"ce4bhip2rcd13ifvqft0","pricing_plan_id":"cebpf4jnsgd1na2vs0mg"},{"bike_id":"007b32f2-d55b-454a-941e-fca8801044b6","system_id":"levelo_inurba_marseille","lat":43.26202,"lon":5.37936,"is_reserved":false,"is_disabled":false,"rental_uris":{"android":"levelo://app?vid=007b32f2-d55b-454a-941e-fca8801044b6","ios":"levelo://app?vid=007b32f2-d55b-454a-941e-fca8801044b6"},"vehicle_type_id":"4","last_reported":1729501840,"current_range_meters":39200,"station_id":"ce4bhjp2rcd13ifvqg90","pricing_plan_id":"cebpf4jnsgd1na2vs0mg"},{"bike_id":"8e45225c-4772-4a88-b2e0-e37c273a9609","system_id":"levelo_inurba_marseille","lat":43.23146,"lon":5.4373,"is_reserved":false,"is_disabled":false,"rental_uris":{"android":"levelo://app?vid=8e45225c-4772-4a88-b2e0-e37c273a9609","ios":"levelo://app?vid=8e45225c-4772-4a88-b2e0-e37c273a9609"},"vehicle_type_id":"4","last_reported":1729501840,"current_range_meters":38800,"station_id":"ce4bhmp2rcd13ifvqgog","pricing_plan_id":"cebpf4jnsgd1na2vs0mg"},{"bike_id":"ddb0c8fc-b648-4e27-af66-b46073413c59","system_id":"levelo_inurba_marseille","lat":43.31385,"lon":5.36733,"is_reserved":false,"is_disabled":false,"rental_uris":{"android":"levelo://app?vid=ddb0c8fc-b648-4e27-af66-b46073413c59","ios":"levelo://app?vid=ddb0c8fc-b648-4e27-af66-b46073413c59"},"vehicle_type_id":"4","last_reported":1729501840,"current_range_meters":28800,"station_id":"","pricing_plan_id":"cebpf4jnsgd1na2vs0mg"},{"bike_id":"c495836e-49f8-4074-8566-b446f6bf60b8","system_id":"levelo_inurba_marseille","lat":43.3266,"lon":5.40987,"is_reserved":false,"is_disabled":false,"rental_uris":{"android":"levelo://app?vid=c495836e-49f8-4074-8566-b446f6bf60b8","ios":"levelo://app?vid=c495836e-49f8-4074-8566-b446f6bf60b8"},"vehicle_type_id":"4","last_reported":1729501840,"current_range_meters":18800,"station_id":"ce4bhpp2rcd13ifvqhgg","pricing_plan_id":"cebpf4jnsgd1na2vs0mg"},{"bike_id":"fe6df0bc-802d-4ee3-942a-d7e2343f47b0","system_id":"levelo_inurba_marseille","lat":43.29579,"lon":5.37507,"is_reserved":false,"is_disabled":false,"rental_uris":{"android":"levelo://app?vid=fe6df0bc-802d-4ee3-942a-d7e2343f47b0","ios":"levelo://app?vid=fe6df0bc-802d-4ee3-942a-d7e2343f47b0"},"vehicle_type_id":"4","last_reported":1729501840,"current_range_meters":10800,"station_id":"ce4bgh92rcd13ifvqb50","pricing_plan_id":"cebpf4jnsgd1na2vs0mg"},{"bike_id":"bda848a9-9c0f-4e86-b399-a0580de506e0","system_id":"levelo_inurba_marseille","lat":43.27621,"lon":5.36111,"is_reserved":false,"is_disabled":false,"rental_uris":{"android":"levelo://app?vid=bda848a9-9c0f-4e86-b399-a0580de506e0","ios":"levelo://app?vid=bda848a9-9c0f-4e86-b399-a0580de506e0"},"vehicle_type_id":"4","last_reported":1729501840,"current_range_meters":36800,"station_id":"ce4bgj92rcd13ifvqbe0","pricing_plan_id":"cebpf4jnsgd1na2vs0mg"},{"bike_id":"0cb86926-5907-41b1-8366-3b3aac63faa2","system_id":"levelo_inurba_marseille","lat":43.29606,"lon":5.36879,"is_reserved":false,"is_disabled":false,"rental_uris":{"android":"levelo://app?vid=0cb86926-5907-41b1-8366-3b3aac63faa2","ios":"levelo://app?vid=0cb86926-5907-41b1-8366-3b3aac63faa2"},"vehicle_type_id":"4","last_reported":1729501840,"current_range_meters":38800,"station_id":"","pricing_plan_id":"cebpf4jnsgd1na2vs0mg"},{"bike_id":"37a4f9f2-5f27-41f6-8e49-92d6bbb82296","system_id":"levelo_inurba_marseille","lat":43.23191,"lon":5.35549,"is_reserved":false,"is_disabled":false,"rental_uris":{"android":"levelo://app?vid=37a4f9f2-5f27-41f6-8e49-92d6bbb82296","ios":"levelo://app?vid=37a4f9f2-5f27-41f6-8e49-92d6bbb82296"},"vehicle_type_id":"4","last_reported":1729501840,"current_range_meters":36000,"station_id":"ce4bhu92rcd13ifvqi70","pricing_plan_id":"cebpf4jnsgd1na2vs0mg"},{"bike_id":"2cc0e8f9-936f-4cc5-9dee-07939e04e365","system_id":"levelo_inurba_marseille","lat":43.24075,"lon":5.37757,"is_reserved":false,"is_disabled":false,"rental_uris":{"android":"levelo://app?vid=2cc0e8f9-936f-4cc5-9dee-07939e04e365","ios":"levelo://app?vid=2cc0e8f9-936f-4cc5-9dee-07939e04e365"},"vehicle_type_id":"4","last_reported":1729501840,"current_range_meters":30800,"station_id":"ce4bhn12rcd13ifvqgqg","pricing_plan_id":"cebpf4jnsgd1na2vs0mg"},{"bike_id":"8cb9d9e3-6bde-456c-a8b1-36f7120324b3","system_id":"levelo_inurba_marseille","lat":43.29889,"lon":5.38888,"is_reserved":false,"is_disabled":false,"rental_uris":{"android":"levelo://app?vid=8cb9d9e3-6bde-456c-a8b1-36f7120324b3","ios":"levelo://app?vid=8cb9d9e3-6bde-456c-a8b1-36f7120324b3"},"vehicle_type_id":"4","last_reported":1729501840,"current_range_meters":37600,"station_id":"ce4bh392rcd13ifvqdl0","pricing_plan_id":"cebpf4jnsgd1na2vs0mg"},{"bike_id":"367a7833-4300-445d-9e62-34e6dc1aeeb1","system_id":"levelo_inurba_marseille","lat":43.3362,"lon":5.41026,"is_reserved":false,"is_disabled":false,"rental_uris":{"android":"levelo://app?vid=367a7833-4300-445d-9e62-34e6dc1aeeb1","ios":"levelo://app?vid=367a7833-4300-445d-9e62-34e6dc1aeeb1"},"vehicle_type_id":"4","last_reported":1729501840,"current_range_meters":38800,"station_id":"","pricing_plan_id":"cebpf4jnsgd1na2vs0mg"},{"bike_id":"b4189958-1e51-45f4-8234-c489432026c4","system_id":"levelo_inurba_marseille","lat":43.24672,"lon":5.38157,"is_reserved":false,"is_disabled":false,"rental_uris":{"android":"levelo://app?vid=b4189958-1e51-45f4-8234-c489432026c4","ios":"levelo://app?vid=b4189958-1e51-45f4-8234-c489432026c4"},"vehicle_type_id":"4","last_reported":1729501840,"current_range_meters":30400,"station_id":"ce4bhih2rcd13ifvqfr0","pricing_plan_id":"cebpf4jnsgd1na2vs0mg"},{"bike_id":"5b47cbfd-3740-4a35-b9bd-478cf093a87d","system_id":"levelo_inurba_marseille","lat":43.23955,"lon":5.36627,"is_reserved":false,"is_disabled":false,"rental_uris":{"android":"levelo://app?vid=5b47cbfd-3740-4a35-b9bd-478cf093a87d","ios":"levelo://app?vid=5b47cbfd-3740-4a35-b9bd-478cf093a87d"},"vehicle_type_id":"4","last_reported":1729501840,"current_range_meters":24000,"station_id":"ce4bhi12rcd13ifvqfp0","pricing_plan_id":"cebpf4jnsgd1na2vs0mg"},{"bike_id":"3bd2eefc-8b81-44f8-ab5f-7cbe3ad50d2a","system_id":"levelo_inurba_marseille","lat":43.33023,"lon":5.39043,"is_reserved":false,"is_disabled":false,"rental_uris":{"android":"levelo://app?vid=3bd2eefc-8b81-44f8-ab5f-7cbe3ad50d2a","ios":"levelo://app?vid=3bd2eefc-8b81-44f8-ab5f-7cbe3ad50d2a"},"vehicle_type_id":"4","last_reported":1729501840,"current_range_meters":36800,"station_id":"ce4bhr92rcd13ifvqhrg","pricing_plan_id":"cebpf4jnsgd1na2vs0mg"},{"bike_id":"abccb04d-7f02-489f-aa68-f6dec122768e","system_id":"levelo_inurba_marseille","lat":43.23966,"lon":5.36631,"is_reserved":false,"is_disabled":false,"rental_uris":{"android":"levelo://app?vid=abccb04d-7f02-489f-aa68-f6dec122768e","ios":"levelo://app?vid=abccb04d-7f02-489f-aa68-f6dec122768e"},"vehicle_type_id":"4","last_reported":1729501840,"current_range_meters":37600,"station_id":"ce4bhi12rcd13ifvqfp0","pricing_plan_id":"cebpf4jnsgd1na2vs0mg"},{"bike_id":"4db499a4-e2ad-46d6-b2f1-eae03814dfd2","system_id":"levelo_inurba_marseille","lat":43.30461,"lon":5.37906,"is_reserved":false,"is_disabled":false,"rental_uris":{"android":"levelo://app?vid=4db499a4-e2ad-46d6-b2f1-eae03814dfd2","ios":"levelo://app?vid=4db499a4-e2ad-46d6-b2f1-eae03814dfd2"},"vehicle_type_id":"4","last_reported":1729501840,"current_range_meters":39200,"station_id":"ce4bgup2rcd13ifvqcn0","pricing_plan_id":"cebpf4jnsgd1na2vs0mg"},{"bike_id":"ff65d4d5-a08a-4411-964b-7de22636cd62","system_id":"levelo_inurba_marseille","lat":43.2501,"lon":5.38927,"is_reserved":false,"is_disabled":false,"rental_uris":{"android":"levelo://app?vid=ff65d4d5-a08a-4411-964b-7de22636cd62","ios":"levelo://app?vid=ff65d4d5-a08a-4411-964b-7de22636cd62"},"vehicle_type_id":"4","last_reported":1729501840,"current_range_meters":22400,"station_id":"ce4bhgp2rcd13ifvqfd0","pricing_plan_id":"cebpf4jnsgd1na2vs0mg"},{"bike_id":"ffb0a217-a405-453b-ba02-1748ac03ff8f","system_id":"levelo_inurba_marseille","lat":43.254216,"lon":5.383067,"is_reserved":false,"is_disabled":false,"rental_uris":{"android":"levelo://app?vid=ffb0a217-a405-453b-ba02-1748ac03ff8f","ios":"levelo://app?vid=ffb0a217-a405-453b-ba02-1748ac03ff8f"},"vehicle_type_id":"4","last_reported":1729501840,"current_range_meters":8000,"station_id":"ce4bhih2rcd13ifvqfs0","pricing_plan_id":"cebpf4jnsgd1na2vs0mg"},{"bike_id":"3ad737cf-198e-400d-9389-7113c8c271e2","system_id":"levelo_inurba_marseille","lat":43.32333,"lon":5.40626,"is_reserved":false,"is_disabled":false,"rental_uris":{"android":"levelo://app?vid=3ad737cf-198e-400d-9389-7113c8c271e2","ios":"levelo://app?vid=3ad737cf-198e-400d-9389-7113c8c271e2"},"vehicle_type_id":"4","last_reported":1729501840,"current_range_meters":36800,"station_id":"ce4bhq92rcd13ifvqhjg","pricing_plan_id":"cebpf4jnsgd1na2vs0mg"},{"bike_id":"65891004-fadc-4a7e-a75e-ae3d29351aa8","system_id":"levelo_inurba_marseille","lat":43.26678,"lon":5.38267,"is_reserved":false,"is_disabled":false,"rental_uris":{"android":"levelo://app?vid=65891004-fadc-4a7e-a75e-ae3d29351aa8","ios":"levelo://app?vid=65891004-fadc-4a7e-a75e-ae3d29351aa8"},"vehicle_type_id":"4","last_reported":1729501840,"current_range_meters":24800,"station_id":"ce4bhg92rcd13ifvqf90","pricing_plan_id":"cebpf4jnsgd1na2vs0mg"},{"bike_id":"7a0ab312-b352-44c4-87a1-5a8ea290c2b1","system_id":"levelo_inurba_marseille","lat":43.28151,"lon":5.42646,"is_reserved":false,"is_disabled":false,"rental_uris":{"android":"levelo://app?vid=7a0ab312-b352-44c4-87a1-5a8ea290c2b1","ios":"levelo://app?vid=7a0ab312-b352-44c4-87a1-5a8ea290c2b1"},"vehicle_type_id":"4","last_reported":1729501840,"current_range_meters":28000,"station_id":"ce4bhnh2rcd13ifvqgug","pricing_plan_id":"cebpf4jnsgd1na2vs0mg"},{"bike_id":"bdc4a5ac-ab01-481c-ba43-061f7aad6f40","system_id":"levelo_inurba_marseille","lat":43.2718,"lon":5.40995,"is_reserved":false,"is_disabled":false,"rental_uris":{"android":"levelo://app?vid=bdc4a5ac-ab01-481c-ba43-061f7aad6f40","ios":"levelo://app?vid=bdc4a5ac-ab01-481c-ba43-061f7aad6f40"},"vehicle_type_id":"4","last_reported":1729501840,"current_range_meters":5600,"station_id":"ce4bhl12rcd13ifvqgf0","pricing_plan_id":"cebpf4jnsgd1na2vs0mg"},{"bike_id":"1a156091-9e67-4096-a0c0-4d609e217754","system_id":"levelo_inurba_marseille","lat":43.27206,"lon":5.39176,"is_reserved":false,"is_disabled":false,"rental_uris":{"android":"levelo://app?vid=1a156091-9e67-4096-a0c0-4d609e217754","ios":"levelo://app?vid=1a156091-9e67-4096-a0c0-4d609e217754"},"vehicle_type_id":"4","last_reported":1729501840,"current_range_meters":38800,"station_id":"ce4bhhp2rcd13ifvqfm0","pricing_plan_id":"cebpf4jnsgd1na2vs0mg"},{"bike_id":"a60725c4-88ca-4a6a-8d9d-c059b31e9f8d","system_id":"levelo_inurba_marseille","lat":43.30949,"lon":5.39033,"is_reserved":false,"is_disabled":false,"rental_uris":{"android":"levelo://app?vid=a60725c4-88ca-4a6a-8d9d-c059b31e9f8d","ios":"levelo://app?vid=a60725c4-88ca-4a6a-8d9d-c059b31e9f8d"},"vehicle_type_id":"4","last_reported":1729501840,"current_range_meters":24000,"station_id":"ce4bgup2rcd13ifvqco0","pricing_plan_id":"cebpf4jnsgd1na2vs0mg"},{"bike_id":"6fc5767c-7409-405d-8c24-4a08a7e916fc","system_id":"levelo_inurba_marseille","lat":43.24078,"lon":5.37752,"is_reserved":false,"is_disabled":false,"rental_uris":{"android":"levelo://app?vid=6fc5767c-7409-405d-8c24-4a08a7e916fc","ios":"levelo://app?vid=6fc5767c-7409-405d-8c24-4a08a7e916fc"},"vehicle_type_id":"4","last_reported":1729501840,"current_range_meters":38000,"station_id":"ce4bhnp2rcd13ifvqgvg","pricing_plan_id":"cebpf4jnsgd1na2vs0mg"},{"bike_id":"58bc079a-8f0c-4385-938e-8501dfadffbe","system_id":"levelo_inurba_marseille","lat":43.29924,"lon":5.37476,"is_reserved":false,"is_disabled":false,"rental_uris":{"android":"levelo://app?vid=58bc079a-8f0c-4385-938e-8501dfadffbe","ios":"levelo://app?vid=58bc079a-8f0c-4385-938e-8501dfadffbe"},"vehicle_type_id":"4","last_reported":1729501840,"current_range_meters":30400,"station_id":"ce4bgjh2rcd13ifvqbg0","pricing_plan_id":"cebpf4jnsgd1na2vs0mg"},{"bike_id":"7baafccc-f243-4381-9dc7-cb5a4f2816d8","system_id":"levelo_inurba_marseille","lat":43.26421,"lon":5.38689,"is_reserved":false,"is_disabled":false,"rental_uris":{"android":"levelo://app?vid=7baafccc-f243-4381-9dc7-cb5a4f2816d8","ios":"levelo://app?vid=7baafccc-f243-4381-9dc7-cb5a4f2816d8"},"vehicle_type_id":"4","last_reported":1729501840,"current_range_meters":14800,"station_id":"","pricing_plan_id":"cebpf4jnsgd1na2vs0mg"},{"bike_id":"541c4793-0686-4664-9a51-6e30e93cf10b","system_id":"levelo_inurba_marseille","lat":43.33746,"lon":5.3744,"is_reserved":false,"is_disabled":false,"rental_uris":{"android":"levelo://app?vid=541c4793-0686-4664-9a51-6e30e93cf10b","ios":"levelo://app?vid=541c4793-0686-4664-9a51-6e30e93cf10b"},"vehicle_type_id":"4","last_reported":1729501840,"current_range_meters":6800,"station_id":"","pricing_plan_id":"cebpf4jnsgd1na2vs0mg"},{"bike_id":"0810c396-8d1d-4f4a-ac3a-07101c4e0b5d","system_id":"levelo_inurba_marseille","lat":43.31339,"lon":5.36722,"is_reserved":false,"is_disabled":false,"rental_uris":{"android":"levelo://app?vid=0810c396-8d1d-4f4a-ac3a-07101c4e0b5d","ios":"levelo://app?vid=0810c396-8d1d-4f4a-ac3a-07101c4e0b5d"},"vehicle_type_id":"4","last_reported":1729501840,"current_range_meters":35600,"station_id":"ce4bgr92rcd13ifvqc6g","pricing_plan_id":"cebpf4jnsgd1na2vs0mg"},{"bike_id":"f69ca7ef-2996-4441-8144-e9b3853af022","system_id":"levelo_inurba_marseille","lat":43.25933,"lon":5.40909,"is_reserved":false,"is_disabled":false,"rental_uris":{"android":"levelo://app?vid=f69ca7ef-2996-4441-8144-e9b3853af022","ios":"levelo://app?vid=f69ca7ef-2996-4441-8144-e9b3853af022"},"vehicle_type_id":"4","last_reported":1729501840,"current_range_meters":22400,"station_id":"ce4bhm92rcd13ifvqglg","pricing_plan_id":"cebpf4jnsgd1na2vs0mg"},{"bike_id":"b07bd83c-73b7-460d-bb72-364846b13cf7","system_id":"levelo_inurba_marseille","lat":43.26937,"lon":5.3893,"is_reserved":false,"is_disabled":false,"rental_uris":{"android":"levelo://app?vid=b07bd83c-73b7-460d-bb72-364846b13cf7","ios":"levelo://app?vid=b07bd83c-73b7-460d-bb72-364846b13cf7"},"vehicle_type_id":"4","last_reported":1729501840,"current_range_meters":38400,"station_id":"ce4bhhh2rcd13ifvqfl0","pricing_plan_id":"cebpf4jnsgd1na2vs0mg"},{"bike_id":"e36e8b70-cdbc-4b6c-9fe9-c4fbf657cc2e","system_id":"levelo_inurba_marseille","lat":43.31511,"lon":5.3896,"is_reserved":false,"is_disabled":false,"rental_uris":{"android":"levelo://app?vid=e36e8b70-cdbc-4b6c-9fe9-c4fbf657cc2e","ios":"levelo://app?vid=e36e8b70-cdbc-4b6c-9fe9-c4fbf657cc2e"},"vehicle_type_id":"4","last_reported":1729501840,"current_range_meters":23200,"station_id":"","pricing_plan_id":"cebpf4jnsgd1na2vs0mg"},{"bike_id":"ceabaa9b-7104-4954-80e9-ea25b0177bdf","system_id":"levelo_inurba_marseille","lat":43.33098,"lon":5.41006,"is_reserved":false,"is_disabled":false,"rental_uris":{"android":"levelo://app?vid=ceabaa9b-7104-4954-80e9-ea25b0177bdf","ios":"levelo://app?vid=ceabaa9b-7104-4954-80e9-ea25b0177bdf"},"vehicle_type_id":"4","last_reported":1729501840,"current_range_meters":35200,"station_id":"","pricing_plan_id":"cebpf4jnsgd1na2vs0mg"},{"bike_id":"7174d7df-f95a-491a-a34e-a4275caac552","system_id":"levelo_inurba_marseille","lat":43.26683,"lon":5.38273,"is_reserved":false,"is_disabled":false,"rental_uris":{"android":"levelo://app?vid=7174d7df-f95a-491a-a34e-a4275caac552","ios":"levelo://app?vid=7174d7df-f95a-491a-a34e-a4275caac552"},"vehicle_type_id":"4","last_reported":1729501840,"current_range_meters":19200,"station_id":"ce4bhg92rcd13ifvqf90","pricing_plan_id":"cebpf4jnsgd1na2vs0mg"},{"bike_id":"cd0dce23-200f-416c-916b-7be9d153fea3","system_id":"levelo_inurba_marseille","lat":43.26064,"lon":5.38559,"is_reserved":false,"is_disabled":false,"rental_uris":{"android":"levelo://app?vid=cd0dce23-200f-416c-916b-7be9d153fea3","ios":"levelo://app?vid=cd0dce23-200f-416c-916b-7be9d153fea3"},"vehicle_type_id":"4","last_reported":1729501840,"current_range_meters":15200,"station_id":"","pricing_plan_id":"cebpf4jnsgd1na2vs0mg"},{"bike_id":"d5939ca9-69e3-4a7d-95a4-ecdf19760c06","system_id":"levelo_inurba_marseille","lat":43.297722,"lon":5.381232,"is_reserved":false,"is_disabled":false,"rental_uris":{"android":"levelo://app?vid=d5939ca9-69e3-4a7d-95a4-ecdf19760c06","ios":"levelo://app?vid=d5939ca9-69e3-4a7d-95a4-ecdf19760c06"},"vehicle_type_id":"4","last_reported":1729501840,"current_range_meters":14000,"station_id":"ce4bgkh2rcd13ifvqbl0","pricing_plan_id":"cebpf4jnsgd1na2vs0mg"},{"bike_id":"86f680b7-d8d0-45c2-bd6c-7639aae30d26","system_id":"levelo_inurba_marseille","lat":43.24175,"lon":5.39733,"is_reserved":false,"is_disabled":false,"rental_uris":{"android":"levelo://app?vid=86f680b7-d8d0-45c2-bd6c-7639aae30d26","ios":"levelo://app?vid=86f680b7-d8d0-45c2-bd6c-7639aae30d26"},"vehicle_type_id":"4","last_reported":1729501840,"current_range_meters":20400,"station_id":"ce4bhn12rcd13ifvqgpg","pricing_plan_id":"cebpf4jnsgd1na2vs0mg"},{"bike_id":"3074eab9-5df2-4549-8df7-c8447d4f5d38","system_id":"levelo_inurba_marseille","lat":43.23183,"lon":5.39985,"is_reserved":false,"is_disabled":false,"rental_uris":{"android":"levelo://app?vid=3074eab9-5df2-4549-8df7-c8447d4f5d38","ios":"levelo://app?vid=3074eab9-5df2-4549-8df7-c8447d4f5d38"},"vehicle_type_id":"4","last_reported":1729501840,"current_range_meters":28000,"station_id":"ce4bhn12rcd13ifvqgqg","pricing_plan_id":"cebpf4jnsgd1na2vs0mg"},{"bike_id":"8deeda66-aa1d-41a6-95c2-fd6566620e6a","system_id":"levelo_inurba_marseille","lat":43.32479,"lon":5.36561,"is_reserved":false,"is_disabled":false,"rental_uris":{"android":"levelo://app?vid=8deeda66-aa1d-41a6-95c2-fd6566620e6a","ios":"levelo://app?vid=8deeda66-aa1d-41a6-95c2-fd6566620e6a"},"vehicle_type_id":"4","last_reported":1729501840,"current_range_meters":36400,"station_id":"ce4bhs12rcd13ifvqhvg","pricing_plan_id":"cebpf4jnsgd1na2vs0mg"},{"bike_id":"6670352d-ea39-4392-9ae9-a3b6ac92e931","system_id":"levelo_inurba_marseille","lat":43.29902,"lon":5.365329,"is_reserved":false,"is_disabled":false,"rental_uris":{"android":"levelo://app?vid=6670352d-ea39-4392-9ae9-a3b6ac92e931","ios":"levelo://app?vid=6670352d-ea39-4392-9ae9-a3b6ac92e931"},"vehicle_type_id":"4","last_reported":1729501840,"current_range_meters":33600,"station_id":"ce4bgm92rcd13ifvqbr0","pricing_plan_id":"cebpf4jnsgd1na2vs0mg"},{"bike_id":"de266d3a-5a94-4c57-a19b-6d20349a9532","system_id":"levelo_inurba_marseille","lat":43.30605,"lon":5.37227,"is_reserved":false,"is_disabled":false,"rental_uris":{"android":"levelo://app?vid=de266d3a-5a94-4c57-a19b-6d20349a9532","ios":"levelo://app?vid=de266d3a-5a94-4c57-a19b-6d20349a9532"},"vehicle_type_id":"4","last_reported":1729501840,"current_range_meters":36800,"station_id":"ce4bgqh2rcd13ifvqc4g","pricing_plan_id":"cebpf4jnsgd1na2vs0mg"},{"bike_id":"f77d75a0-21c8-4ccc-bba5-f5d7d460aa1d","system_id":"levelo_inurba_marseille","lat":43.295503,"lon":5.422854,"is_reserved":false,"is_disabled":false,"rental_uris":{"android":"levelo://app?vid=f77d75a0-21c8-4ccc-bba5-f5d7d460aa1d","ios":"levelo://app?vid=f77d75a0-21c8-4ccc-bba5-f5d7d460aa1d"},"vehicle_type_id":"4","last_reported":1729501840,"current_range_meters":34000,"station_id":"ce4bhph2rcd13ifvqhdg","pricing_plan_id":"cebpf4jnsgd1na2vs0mg"},{"bike_id":"e3bd1799-d90a-4b0d-9087-8873a9f9f703","system_id":"levelo_inurba_marseille","lat":43.30545,"lon":5.36538,"is_reserved":false,"is_disabled":false,"rental_uris":{"android":"levelo://app?vid=e3bd1799-d90a-4b0d-9087-8873a9f9f703","ios":"levelo://app?vid=e3bd1799-d90a-4b0d-9087-8873a9f9f703"},"vehicle_type_id":"4","last_reported":1729501840,"current_range_meters":37600,"station_id":"ce4bgs12rcd13ifvqcag","pricing_plan_id":"cebpf4jnsgd1na2vs0mg"},{"bike_id":"0caa6a45-38f2-43ee-aa46-613140efeaab","system_id":"levelo_inurba_marseille","lat":43.2862,"lon":5.35105,"is_reserved":false,"is_disabled":false,"rental_uris":{"android":"levelo://app?vid=0caa6a45-38f2-43ee-aa46-613140efeaab","ios":"levelo://app?vid=0caa6a45-38f2-43ee-aa46-613140efeaab"},"vehicle_type_id":"4","last_reported":1729501840,"current_range_meters":20000,"station_id":"ce4bhch2rcd13ifvqeug","pricing_plan_id":"cebpf4jnsgd1na2vs0mg"},{"bike_id":"fb4c1f40-f843-4a8a-8dc9-8cb92e4b3334","system_id":"levelo_inurba_marseille","lat":43.26937,"lon":5.40242,"is_reserved":false,"is_disabled":false,"rental_uris":{"android":"levelo://app?vid=fb4c1f40-f843-4a8a-8dc9-8cb92e4b3334","ios":"levelo://app?vid=fb4c1f40-f843-4a8a-8dc9-8cb92e4b3334"},"vehicle_type_id":"4","last_reported":1729501840,"current_range_meters":28000,"station_id":"cjm6bp8fraef2m0cb0m0","pricing_plan_id":"cebpf4jnsgd1na2vs0mg"},{"bike_id":"f0b62db5-5892-4cd3-91e1-48dd33a8bb96","system_id":"levelo_inurba_marseille","lat":43.24549,"lon":5.39524,"is_reserved":false,"is_disabled":false,"rental_uris":{"android":"levelo://app?vid=f0b62db5-5892-4cd3-91e1-48dd33a8bb96","ios":"levelo://app?vid=f0b62db5-5892-4cd3-91e1-48dd33a8bb96"},"vehicle_type_id":"4","last_reported":1729501840,"current_range_meters":5600,"station_id":"ce4bhlp2rcd13ifvqgjg","pricing_plan_id":"cebpf4jnsgd1na2vs0mg"},{"bike_id":"51c80c5a-a297-41a2-a81b-6e40c76996ab","system_id":"levelo_inurba_marseille","lat":43.29039,"lon":5.3757,"is_reserved":false,"is_disabled":false,"rental_uris":{"android":"levelo://app?vid=51c80c5a-a297-41a2-a81b-6e40c76996ab","ios":"levelo://app?vid=51c80c5a-a297-41a2-a81b-6e40c76996ab"},"vehicle_type_id":"4","last_reported":1729501840,"current_range_meters":19200,"station_id":"ce4bh692rcd13ifvqe90","pricing_plan_id":"cebpf4jnsgd1na2vs0mg"},{"bike_id":"9e9796c2-ce92-408f-b9e0-895128ce3124","system_id":"levelo_inurba_marseille","lat":43.2668,"lon":5.38276,"is_reserved":false,"is_disabled":false,"rental_uris":{"android":"levelo://app?vid=9e9796c2-ce92-408f-b9e0-895128ce3124","ios":"levelo://app?vid=9e9796c2-ce92-408f-b9e0-895128ce3124"},"vehicle_type_id":"4","last_reported":1729501840,"current_range_meters":6800,"station_id":"ce4bhg92rcd13ifvqf90","pricing_plan_id":"cebpf4jnsgd1na2vs0mg"},{"bike_id":"5a86c739-e9af-4128-91c4-dda5abb05701","system_id":"levelo_inurba_marseille","lat":43.33121,"lon":5.41013,"is_reserved":false,"is_disabled":false,"rental_uris":{"android":"levelo://app?vid=5a86c739-e9af-4128-91c4-dda5abb05701","ios":"levelo://app?vid=5a86c739-e9af-4128-91c4-dda5abb05701"},"vehicle_type_id":"4","last_reported":1729501840,"current_range_meters":38800,"station_id":"","pricing_plan_id":"cebpf4jnsgd1na2vs0mg"},{"bike_id":"debca4bc-7ba3-479c-b413-89add5de6e4a","system_id":"levelo_inurba_marseille","lat":43.26686,"lon":5.38271,"is_reserved":false,"is_disabled":false,"rental_uris":{"android":"levelo://app?vid=debca4bc-7ba3-479c-b413-89add5de6e4a","ios":"levelo://app?vid=debca4bc-7ba3-479c-b413-89add5de6e4a"},"vehicle_type_id":"4","last_reported":1729501840,"current_range_meters":27200,"station_id":"ce4bhg92rcd13ifvqf90","pricing_plan_id":"cebpf4jnsgd1na2vs0mg"},{"bike_id":"f27456d1-d5ce-436a-83a9-64de4b49ed68","system_id":"levelo_inurba_marseille","lat":43.24176,"lon":5.39734,"is_reserved":false,"is_disabled":false,"rental_uris":{"android":"levelo://app?vid=f27456d1-d5ce-436a-83a9-64de4b49ed68","ios":"levelo://app?vid=f27456d1-d5ce-436a-83a9-64de4b49ed68"},"vehicle_type_id":"4","last_reported":1729501840,"current_range_meters":32000,"station_id":"ce4bhn12rcd13ifvqgpg","pricing_plan_id":"cebpf4jnsgd1na2vs0mg"},{"bike_id":"d06a881c-f80d-48b8-9719-6afcceb956d7","system_id":"levelo_inurba_marseille","lat":43.3302,"lon":5.39035,"is_reserved":false,"is_disabled":false,"rental_uris":{"android":"levelo://app?vid=d06a881c-f80d-48b8-9719-6afcceb956d7","ios":"levelo://app?vid=d06a881c-f80d-48b8-9719-6afcceb956d7"},"vehicle_type_id":"4","last_reported":1729501840,"current_range_meters":38800,"station_id":"ce4bhr92rcd13ifvqhrg","pricing_plan_id":"cebpf4jnsgd1na2vs0mg"},{"bike_id":"0714a8b7-f363-41f9-bd82-9c3af1e2e5d8","system_id":"levelo_inurba_marseille","lat":43.27058,"lon":5.40256,"is_reserved":false,"is_disabled":false,"rental_uris":{"android":"levelo://app?vid=0714a8b7-f363-41f9-bd82-9c3af1e2e5d8","ios":"levelo://app?vid=0714a8b7-f363-41f9-bd82-9c3af1e2e5d8"},"vehicle_type_id":"4","last_reported":1729501840,"current_range_meters":30400,"station_id":"ce4bhk92rcd13ifvqgc0","pricing_plan_id":"cebpf4jnsgd1na2vs0mg"},{"bike_id":"3701adb6-e87b-44e7-b5b8-a659a9565d5b","system_id":"levelo_inurba_marseille","lat":43.24072,"lon":5.3776,"is_reserved":false,"is_disabled":false,"rental_uris":{"android":"levelo://app?vid=3701adb6-e87b-44e7-b5b8-a659a9565d5b","ios":"levelo://app?vid=3701adb6-e87b-44e7-b5b8-a659a9565d5b"},"vehicle_type_id":"4","last_reported":1729501840,"current_range_meters":5600,"station_id":"ce4bhnp2rcd13ifvqgvg","pricing_plan_id":"cebpf4jnsgd1na2vs0mg"},{"bike_id":"fc2db51a-f0ef-4e75-ad3a-b27ae4dc3a7b","system_id":"levelo_inurba_marseille","lat":43.32486,"lon":5.36572,"is_reserved":false,"is_disabled":false,"rental_uris":{"android":"levelo://app?vid=fc2db51a-f0ef-4e75-ad3a-b27ae4dc3a7b","ios":"levelo://app?vid=fc2db51a-f0ef-4e75-ad3a-b27ae4dc3a7b"},"vehicle_type_id":"4","last_reported":1729501840,"current_range_meters":18000,"station_id":"ce4bhs12rcd13ifvqhvg","pricing_plan_id":"cebpf4jnsgd1na2vs0mg"},{"bike_id":"244145b8-2b6c-4f75-95c3-bda3d9ffece0","system_id":"levelo_inurba_marseille","lat":43.31686,"lon":5.40475,"is_reserved":false,"is_disabled":false,"rental_uris":{"android":"levelo://app?vid=244145b8-2b6c-4f75-95c3-bda3d9ffece0","ios":"levelo://app?vid=244145b8-2b6c-4f75-95c3-bda3d9ffece0"},"vehicle_type_id":"4","last_reported":1729501840,"current_range_meters":24400,"station_id":"ce4bh012rcd13ifvqd00","pricing_plan_id":"cebpf4jnsgd1na2vs0mg"},{"bike_id":"2fdf444c-bdb9-478f-ad75-22e42eee449c","system_id":"levelo_inurba_marseille","lat":43.31346,"lon":5.36715,"is_reserved":false,"is_disabled":false,"rental_uris":{"android":"levelo://app?vid=2fdf444c-bdb9-478f-ad75-22e42eee449c","ios":"levelo://app?vid=2fdf444c-bdb9-478f-ad75-22e42eee449c"},"vehicle_type_id":"4","last_reported":1729501840,"current_range_meters":30800,"station_id":"ce4bgr92rcd13ifvqc6g","pricing_plan_id":"cebpf4jnsgd1na2vs0mg"},{"bike_id":"2b732e07-d55f-46d2-9872-de0a6a9ddc8d","system_id":"levelo_inurba_marseille","lat":43.27612,"lon":5.36114,"is_reserved":false,"is_disabled":false,"rental_uris":{"android":"levelo://app?vid=2b732e07-d55f-46d2-9872-de0a6a9ddc8d","ios":"levelo://app?vid=2b732e07-d55f-46d2-9872-de0a6a9ddc8d"},"vehicle_type_id":"4","last_reported":1729501840,"current_range_meters":38400,"station_id":"ce4bgj92rcd13ifvqbe0","pricing_plan_id":"cebpf4jnsgd1na2vs0mg"},{"bike_id":"4a5dc7f8-2f34-473f-9ce7-f2a853f522d2","system_id":"levelo_inurba_marseille","lat":43.30462,"lon":5.37898,"is_reserved":false,"is_disabled":false,"rental_uris":{"android":"levelo://app?vid=4a5dc7f8-2f34-473f-9ce7-f2a853f522d2","ios":"levelo://app?vid=4a5dc7f8-2f34-473f-9ce7-f2a853f522d2"},"vehicle_type_id":"4","last_reported":1729501840,"current_range_meters":37600,"station_id":"ce4bgup2rcd13ifvqcn0","pricing_plan_id":"cebpf4jnsgd1na2vs0mg"},{"bike_id":"0b923dd1-548c-4e5f-8039-71a30a1aa65f","system_id":"levelo_inurba_marseille","lat":43.34144,"lon":5.40898,"is_reserved":false,"is_disabled":false,"rental_uris":{"android":"levelo://app?vid=0b923dd1-548c-4e5f-8039-71a30a1aa65f","ios":"levelo://app?vid=0b923dd1-548c-4e5f-8039-71a30a1aa65f"},"vehicle_type_id":"4","last_reported":1729501840,"current_range_meters":23200,"station_id":"ce4bhqh2rcd13ifvqhlg","pricing_plan_id":"cebpf4jnsgd1na2vs0mg"},{"bike_id":"38bedc2f-08d9-4a48-99c8-67fc25dcc307","system_id":"levelo_inurba_marseille","lat":43.29893,"lon":5.43669,"is_reserved":false,"is_disabled":false,"rental_uris":{"android":"levelo://app?vid=38bedc2f-08d9-4a48-99c8-67fc25dcc307","ios":"levelo://app?vid=38bedc2f-08d9-4a48-99c8-67fc25dcc307"},"vehicle_type_id":"4","last_reported":1729501840,"current_range_meters":24800,"station_id":"ce4bhpp2rcd13ifvqhfg","pricing_plan_id":"cebpf4jnsgd1na2vs0mg"},{"bike_id":"767e54ea-2862-4d5d-9e5e-31ffd94b6375","system_id":"levelo_inurba_marseille","lat":43.24546,"lon":5.39529,"is_reserved":false,"is_disabled":false,"rental_uris":{"android":"levelo://app?vid=767e54ea-2862-4d5d-9e5e-31ffd94b6375","ios":"levelo://app?vid=767e54ea-2862-4d5d-9e5e-31ffd94b6375"},"vehicle_type_id":"4","last_reported":1729501840,"current_range_meters":10800,"station_id":"ce4bhlp2rcd13ifvqgjg","pricing_plan_id":"cebpf4jnsgd1na2vs0mg"},{"bike_id":"8f9a5eb4-f206-4f13-94fb-1b1a68ab93b8","system_id":"levelo_inurba_marseille","lat":43.29583,"lon":5.36742,"is_reserved":false,"is_disabled":false,"rental_uris":{"android":"levelo://app?vid=8f9a5eb4-f206-4f13-94fb-1b1a68ab93b8","ios":"levelo://app?vid=8f9a5eb4-f206-4f13-94fb-1b1a68ab93b8"},"vehicle_type_id":"4","last_reported":1729501840,"current_range_meters":33600,"station_id":"ce4bgph2rcd13ifvqc2g","pricing_plan_id":"cebpf4jnsgd1na2vs0mg"},{"bike_id":"f368d2c9-190f-4db4-a766-ac84e90dd6b8","system_id":"levelo_inurba_marseille","lat":43.25932,"lon":5.40912,"is_reserved":false,"is_disabled":false,"rental_uris":{"android":"levelo://app?vid=f368d2c9-190f-4db4-a766-ac84e90dd6b8","ios":"levelo://app?vid=f368d2c9-190f-4db4-a766-ac84e90dd6b8"},"vehicle_type_id":"4","last_reported":1729501840,"current_range_meters":12400,"station_id":"ce4bhm92rcd13ifvqglg","pricing_plan_id":"cebpf4jnsgd1na2vs0mg"},{"bike_id":"a6eb4937-a45e-434a-b71e-305083b7ba77","system_id":"levelo_inurba_marseille","lat":43.26686,"lon":5.3827,"is_reserved":false,"is_disabled":false,"rental_uris":{"android":"levelo://app?vid=a6eb4937-a45e-434a-b71e-305083b7ba77","ios":"levelo://app?vid=a6eb4937-a45e-434a-b71e-305083b7ba77"},"vehicle_type_id":"4","last_reported":1729501840,"current_range_meters":38000,"station_id":"ce4bhg92rcd13ifvqf90","pricing_plan_id":"cebpf4jnsgd1na2vs0mg"},{"bike_id":"f97417bb-6569-44de-b14f-51c61556b74a","system_id":"levelo_inurba_marseille","lat":43.23155,"lon":5.437,"is_reserved":false,"is_disabled":false,"rental_uris":{"android":"levelo://app?vid=f97417bb-6569-44de-b14f-51c61556b74a","ios":"levelo://app?vid=f97417bb-6569-44de-b14f-51c61556b74a"},"vehicle_type_id":"4","last_reported":1729501840,"current_range_meters":39200,"station_id":"ce4bhmp2rcd13ifvqgog","pricing_plan_id":"cebpf4jnsgd1na2vs0mg"},{"bike_id":"80784dfe-c582-466f-95ad-8e743e8a562c","system_id":"levelo_inurba_marseille","lat":43.30282,"lon":5.377,"is_reserved":false,"is_disabled":false,"rental_uris":{"android":"levelo://app?vid=80784dfe-c582-466f-95ad-8e743e8a562c","ios":"levelo://app?vid=80784dfe-c582-466f-95ad-8e743e8a562c"},"vehicle_type_id":"4","last_reported":1729501840,"current_range_meters":38800,"station_id":"ce4bguh2rcd13ifvqcj0","pricing_plan_id":"cebpf4jnsgd1na2vs0mg"},{"bike_id":"ad03f8d9-dbfc-495c-8557-34c3272ba66f","system_id":"levelo_inurba_marseille","lat":43.28854,"lon":5.35863,"is_reserved":false,"is_disabled":false,"rental_uris":{"android":"levelo://app?vid=ad03f8d9-dbfc-495c-8557-34c3272ba66f","ios":"levelo://app?vid=ad03f8d9-dbfc-495c-8557-34c3272ba66f"},"vehicle_type_id":"4","last_reported":1729501840,"current_range_meters":16400,"station_id":"ce4bhb12rcd13ifvqem0","pricing_plan_id":"cebpf4jnsgd1na2vs0mg"},{"bike_id":"3a90cd5a-8d84-4a1f-9da8-3547bb5d20c1","system_id":"levelo_inurba_marseille","lat":43.23201,"lon":5.35549,"is_reserved":false,"is_disabled":false,"rental_uris":{"android":"levelo://app?vid=3a90cd5a-8d84-4a1f-9da8-3547bb5d20c1","ios":"levelo://app?vid=3a90cd5a-8d84-4a1f-9da8-3547bb5d20c1"},"vehicle_type_id":"4","last_reported":1729501840,"current_range_meters":39200,"station_id":"ce4bhu92rcd13ifvqi70","pricing_plan_id":"cebpf4jnsgd1na2vs0mg"},{"bike_id":"b0fa5059-f20e-4983-a7a9-b5e7b43c7eff","system_id":"levelo_inurba_marseille","lat":43.26685,"lon":5.38272,"is_reserved":false,"is_disabled":false,"rental_uris":{"android":"levelo://app?vid=b0fa5059-f20e-4983-a7a9-b5e7b43c7eff","ios":"levelo://app?vid=b0fa5059-f20e-4983-a7a9-b5e7b43c7eff"},"vehicle_type_id":"4","last_reported":1729501840,"current_range_meters":38800,"station_id":"ce4bhg92rcd13ifvqf90","pricing_plan_id":"cebpf4jnsgd1na2vs0mg"},{"bike_id":"bddf1334-d888-40f8-b6e9-18b5529cf0f4","system_id":"levelo_inurba_marseille","lat":43.316792,"lon":5.375388,"is_reserved":false,"is_disabled":false,"rental_uris":{"android":"levelo://app?vid=bddf1334-d888-40f8-b6e9-18b5529cf0f4","ios":"levelo://app?vid=bddf1334-d888-40f8-b6e9-18b5529cf0f4"},"vehicle_type_id":"4","last_reported":1729501840,"current_range_meters":17200,"station_id":"","pricing_plan_id":"cebpf4jnsgd1na2vs0mg"},{"bike_id":"27d7397b-3a64-4c8d-985f-c89fa0625145","system_id":"levelo_inurba_marseille","lat":43.2319,"lon":5.35543,"is_reserved":false,"is_disabled":false,"rental_uris":{"android":"levelo://app?vid=27d7397b-3a64-4c8d-985f-c89fa0625145","ios":"levelo://app?vid=27d7397b-3a64-4c8d-985f-c89fa0625145"},"vehicle_type_id":"4","last_reported":1729501840,"current_range_meters":38400,"station_id":"ce4bhu92rcd13ifvqi70","pricing_plan_id":"cebpf4jnsgd1na2vs0mg"},{"bike_id":"1accd2dd-ae27-42de-9ff0-0cd151a368cd","system_id":"levelo_inurba_marseille","lat":43.28151,"lon":5.42647,"is_reserved":false,"is_disabled":false,"rental_uris":{"android":"levelo://app?vid=1accd2dd-ae27-42de-9ff0-0cd151a368cd","ios":"levelo://app?vid=1accd2dd-ae27-42de-9ff0-0cd151a368cd"},"vehicle_type_id":"4","last_reported":1729501840,"current_range_meters":27200,"station_id":"ce4bhnh2rcd13ifvqgug","pricing_plan_id":"cebpf4jnsgd1na2vs0mg"},{"bike_id":"3f0d9aed-7732-4b7d-9bda-19e598f97764","system_id":"levelo_inurba_marseille","lat":43.32488,"lon":5.36558,"is_reserved":false,"is_disabled":false,"rental_uris":{"android":"levelo://app?vid=3f0d9aed-7732-4b7d-9bda-19e598f97764","ios":"levelo://app?vid=3f0d9aed-7732-4b7d-9bda-19e598f97764"},"vehicle_type_id":"4","last_reported":1729501840,"current_range_meters":35600,"station_id":"ce4bhs12rcd13ifvqhvg","pricing_plan_id":"cebpf4jnsgd1na2vs0mg"},{"bike_id":"de9f5e33-a402-4122-9939-c6f26607797b","system_id":"levelo_inurba_marseille","lat":43.304626,"lon":5.379043,"is_reserved":false,"is_disabled":false,"rental_uris":{"android":"levelo://app?vid=de9f5e33-a402-4122-9939-c6f26607797b","ios":"levelo://app?vid=de9f5e33-a402-4122-9939-c6f26607797b"},"vehicle_type_id":"4","last_reported":1729501840,"current_range_meters":18000,"station_id":"ce4bh5p2rcd13ifvqe4g","pricing_plan_id":"cebpf4jnsgd1na2vs0mg"},{"bike_id":"b7a735d7-f1dd-4ee6-9916-5d65507bb1f6","system_id":"levelo_inurba_marseille","lat":43.33608,"lon":5.41032,"is_reserved":false,"is_disabled":false,"rental_uris":{"android":"levelo://app?vid=b7a735d7-f1dd-4ee6-9916-5d65507bb1f6","ios":"levelo://app?vid=b7a735d7-f1dd-4ee6-9916-5d65507bb1f6"},"vehicle_type_id":"4","last_reported":1729501840,"current_range_meters":32000,"station_id":"ce4bhqh2rcd13ifvqhmg","pricing_plan_id":"cebpf4jnsgd1na2vs0mg"},{"bike_id":"3213665e-989c-4d22-9f5a-31c8522597dd","system_id":"levelo_inurba_marseille","lat":43.296,"lon":5.36142,"is_reserved":false,"is_disabled":false,"rental_uris":{"android":"levelo://app?vid=3213665e-989c-4d22-9f5a-31c8522597dd","ios":"levelo://app?vid=3213665e-989c-4d22-9f5a-31c8522597dd"},"vehicle_type_id":"4","last_reported":1729501840,"current_range_meters":11200,"station_id":"","pricing_plan_id":"cebpf4jnsgd1na2vs0mg"},{"bike_id":"584f6c19-9858-4b93-836c-f01a970b5e91","system_id":"levelo_inurba_marseille","lat":43.30463,"lon":5.37892,"is_reserved":false,"is_disabled":false,"rental_uris":{"android":"levelo://app?vid=584f6c19-9858-4b93-836c-f01a970b5e91","ios":"levelo://app?vid=584f6c19-9858-4b93-836c-f01a970b5e91"},"vehicle_type_id":"4","last_reported":1729501840,"current_range_meters":25200,"station_id":"ce4bgup2rcd13ifvqcn0","pricing_plan_id":"cebpf4jnsgd1na2vs0mg"},{"bike_id":"9a2117f0-c5b0-4dc2-891b-026a24af23f1","system_id":"levelo_inurba_marseille","lat":43.3105,"lon":5.40092,"is_reserved":false,"is_disabled":false,"rental_uris":{"android":"levelo://app?vid=9a2117f0-c5b0-4dc2-891b-026a24af23f1","ios":"levelo://app?vid=9a2117f0-c5b0-4dc2-891b-026a24af23f1"},"vehicle_type_id":"4","last_reported":1729501840,"current_range_meters":32000,"station_id":"","pricing_plan_id":"cebpf4jnsgd1na2vs0mg"},{"bike_id":"150b2076-fa3d-4436-b76f-3b9f9d8be659","system_id":"levelo_inurba_marseille","lat":43.33603,"lon":5.4103,"is_reserved":false,"is_disabled":false,"rental_uris":{"android":"levelo://app?vid=150b2076-fa3d-4436-b76f-3b9f9d8be659","ios":"levelo://app?vid=150b2076-fa3d-4436-b76f-3b9f9d8be659"},"vehicle_type_id":"4","last_reported":1729501840,"current_range_meters":38400,"station_id":"ce4bhqh2rcd13ifvqhmg","pricing_plan_id":"cebpf4jnsgd1na2vs0mg"},{"bike_id":"825c64b6-5c2e-4cd6-ade0-d334f3c3c338","system_id":"levelo_inurba_marseille","lat":43.23153,"lon":5.437,"is_reserved":false,"is_disabled":false,"rental_uris":{"android":"levelo://app?vid=825c64b6-5c2e-4cd6-ade0-d334f3c3c338","ios":"levelo://app?vid=825c64b6-5c2e-4cd6-ade0-d334f3c3c338"},"vehicle_type_id":"4","last_reported":1729501840,"current_range_meters":38800,"station_id":"ce4bhmp2rcd13ifvqgog","pricing_plan_id":"cebpf4jnsgd1na2vs0mg"},{"bike_id":"d56c1027-3f82-4ee2-be22-0a6f81faea4e","system_id":"levelo_inurba_marseille","lat":43.30906,"lon":5.36853,"is_reserved":false,"is_disabled":false,"rental_uris":{"android":"levelo://app?vid=d56c1027-3f82-4ee2-be22-0a6f81faea4e","ios":"levelo://app?vid=d56c1027-3f82-4ee2-be22-0a6f81faea4e"},"vehicle_type_id":"4","last_reported":1729501840,"current_range_meters":38800,"station_id":"ce4bgn92rcd13ifvqbvg","pricing_plan_id":"cebpf4jnsgd1na2vs0mg"},{"bike_id":"2cfc7470-0924-496d-a1c3-b7271900a5b5","system_id":"levelo_inurba_marseille","lat":43.23195,"lon":5.35549,"is_reserved":false,"is_disabled":false,"rental_uris":{"android":"levelo://app?vid=2cfc7470-0924-496d-a1c3-b7271900a5b5","ios":"levelo://app?vid=2cfc7470-0924-496d-a1c3-b7271900a5b5"},"vehicle_type_id":"4","last_reported":1729501840,"current_range_meters":16800,"station_id":"ce4bhu92rcd13ifvqi70","pricing_plan_id":"cebpf4jnsgd1na2vs0mg"},{"bike_id":"342c9352-427d-4901-9e43-5bbb6deaa204","system_id":"levelo_inurba_marseille","lat":43.30304,"lon":5.36899,"is_reserved":false,"is_disabled":false,"rental_uris":{"android":"levelo://app?vid=342c9352-427d-4901-9e43-5bbb6deaa204","ios":"levelo://app?vid=342c9352-427d-4901-9e43-5bbb6deaa204"},"vehicle_type_id":"4","last_reported":1729501840,"current_range_meters":36800,"station_id":"ce4bgqh2rcd13ifvqc5g","pricing_plan_id":"cebpf4jnsgd1na2vs0mg"},{"bike_id":"2dab364a-105f-4114-b23b-94bcd65aad82","system_id":"levelo_inurba_marseille","lat":43.28152,"lon":5.42645,"is_reserved":false,"is_disabled":false,"rental_uris":{"android":"levelo://app?vid=2dab364a-105f-4114-b23b-94bcd65aad82","ios":"levelo://app?vid=2dab364a-105f-4114-b23b-94bcd65aad82"},"vehicle_type_id":"4","last_reported":1729501840,"current_range_meters":22800,"station_id":"ce4bhnh2rcd13ifvqgug","pricing_plan_id":"cebpf4jnsgd1na2vs0mg"},{"bike_id":"2b710056-10d8-45d7-a2cd-48f9f477421f","system_id":"levelo_inurba_marseille","lat":43.25578,"lon":5.38226,"is_reserved":false,"is_disabled":false,"rental_uris":{"android":"levelo://app?vid=2b710056-10d8-45d7-a2cd-48f9f477421f","ios":"levelo://app?vid=2b710056-10d8-45d7-a2cd-48f9f477421f"},"vehicle_type_id":"4","last_reported":1729501840,"current_range_meters":22800,"station_id":"ce4bhih2rcd13ifvqfs0","pricing_plan_id":"cebpf4jnsgd1na2vs0mg"},{"bike_id":"b07b9fe8-26ba-4090-90c4-9e581d2e4afd","system_id":"levelo_inurba_marseille","lat":43.26197,"lon":5.37929,"is_reserved":false,"is_disabled":false,"rental_uris":{"android":"levelo://app?vid=b07b9fe8-26ba-4090-90c4-9e581d2e4afd","ios":"levelo://app?vid=b07b9fe8-26ba-4090-90c4-9e581d2e4afd"},"vehicle_type_id":"4","last_reported":1729501840,"current_range_meters":11200,"station_id":"ce4bhjp2rcd13ifvqg90","pricing_plan_id":"cebpf4jnsgd1na2vs0mg"},{"bike_id":"cbd78056-fac2-4efa-a084-334371a0cf39","system_id":"levelo_inurba_marseille","lat":43.25942,"lon":5.40909,"is_reserved":false,"is_disabled":false,"rental_uris":{"android":"levelo://app?vid=cbd78056-fac2-4efa-a084-334371a0cf39","ios":"levelo://app?vid=cbd78056-fac2-4efa-a084-334371a0cf39"},"vehicle_type_id":"4","last_reported":1729501840,"current_range_meters":27600,"station_id":"ce4bhm92rcd13ifvqglg","pricing_plan_id":"cebpf4jnsgd1na2vs0mg"},{"bike_id":"dd5450cd-ff1d-4ef6-8c3f-8bb1e7bd15bd","system_id":"levelo_inurba_marseille","lat":43.30884,"lon":5.37203,"is_reserved":false,"is_disabled":false,"rental_uris":{"android":"levelo://app?vid=dd5450cd-ff1d-4ef6-8c3f-8bb1e7bd15bd","ios":"levelo://app?vid=dd5450cd-ff1d-4ef6-8c3f-8bb1e7bd15bd"},"vehicle_type_id":"4","last_reported":1729501840,"current_range_meters":12400,"station_id":"ce4bguh2rcd13ifvqckg","pricing_plan_id":"cebpf4jnsgd1na2vs0mg"},{"bike_id":"9b0cae09-aed8-4c2a-872b-df83b11d6d51","system_id":"levelo_inurba_marseille","lat":43.29969,"lon":5.37186,"is_reserved":false,"is_disabled":false,"rental_uris":{"android":"levelo://app?vid=9b0cae09-aed8-4c2a-872b-df83b11d6d51","ios":"levelo://app?vid=9b0cae09-aed8-4c2a-872b-df83b11d6d51"},"vehicle_type_id":"4","last_reported":1729501840,"current_range_meters":37600,"station_id":"ce4bgr92rcd13ifvqc7g","pricing_plan_id":"cebpf4jnsgd1na2vs0mg"},{"bike_id":"7596521e-9ed7-49ca-a7ee-bfa8145d9654","system_id":"levelo_inurba_marseille","lat":43.24949,"lon":5.39665,"is_reserved":false,"is_disabled":false,"rental_uris":{"android":"levelo://app?vid=7596521e-9ed7-49ca-a7ee-bfa8145d9654","ios":"levelo://app?vid=7596521e-9ed7-49ca-a7ee-bfa8145d9654"},"vehicle_type_id":"4","last_reported":1729501840,"current_range_meters":8800,"station_id":"ce4bhn12rcd13ifvqgqg","pricing_plan_id":"cebpf4jnsgd1na2vs0mg"},{"bike_id":"12bd3036-1eeb-409e-83a9-f84f7c98205c","system_id":"levelo_inurba_marseille","lat":43.27617,"lon":5.36115,"is_reserved":false,"is_disabled":false,"rental_uris":{"android":"levelo://app?vid=12bd3036-1eeb-409e-83a9-f84f7c98205c","ios":"levelo://app?vid=12bd3036-1eeb-409e-83a9-f84f7c98205c"},"vehicle_type_id":"4","last_reported":1729501840,"current_range_meters":38800,"station_id":"ce4bgj92rcd13ifvqbe0","pricing_plan_id":"cebpf4jnsgd1na2vs0mg"},{"bike_id":"a727af58-92b1-45e9-8a19-c4cf4c8e045f","system_id":"levelo_inurba_marseille","lat":43.29849,"lon":5.36285,"is_reserved":false,"is_disabled":false,"rental_uris":{"android":"levelo://app?vid=a727af58-92b1-45e9-8a19-c4cf4c8e045f","ios":"levelo://app?vid=a727af58-92b1-45e9-8a19-c4cf4c8e045f"},"vehicle_type_id":"4","last_reported":1729501840,"current_range_meters":38800,"station_id":"ce4bgpp2rcd13ifvqc3g","pricing_plan_id":"cebpf4jnsgd1na2vs0mg"},{"bike_id":"72518280-cdc9-4c45-8035-8905465a81ed","system_id":"levelo_inurba_marseille","lat":43.29842,"lon":5.38327,"is_reserved":false,"is_disabled":false,"rental_uris":{"android":"levelo://app?vid=72518280-cdc9-4c45-8035-8905465a81ed","ios":"levelo://app?vid=72518280-cdc9-4c45-8035-8905465a81ed"},"vehicle_type_id":"4","last_reported":1729501840,"current_range_meters":10800,"station_id":"","pricing_plan_id":"cebpf4jnsgd1na2vs0mg"},{"bike_id":"4320505e-c8aa-4e94-9a8b-33e246589dbf","system_id":"levelo_inurba_marseille","lat":43.24648,"lon":5.38896,"is_reserved":false,"is_disabled":false,"rental_uris":{"android":"levelo://app?vid=4320505e-c8aa-4e94-9a8b-33e246589dbf","ios":"levelo://app?vid=4320505e-c8aa-4e94-9a8b-33e246589dbf"},"vehicle_type_id":"4","last_reported":1729501840,"current_range_meters":38400,"station_id":"ce4bhg12rcd13ifvqf60","pricing_plan_id":"cebpf4jnsgd1na2vs0mg"},{"bike_id":"abec9457-83c4-4369-8fdc-0ba1e4752906","system_id":"levelo_inurba_marseille","lat":43.31357,"lon":5.36697,"is_reserved":false,"is_disabled":false,"rental_uris":{"android":"levelo://app?vid=abec9457-83c4-4369-8fdc-0ba1e4752906","ios":"levelo://app?vid=abec9457-83c4-4369-8fdc-0ba1e4752906"},"vehicle_type_id":"4","last_reported":1729501840,"current_range_meters":31200,"station_id":"ce4bgr92rcd13ifvqc6g","pricing_plan_id":"cebpf4jnsgd1na2vs0mg"},{"bike_id":"7976c6c5-4643-4b43-b69c-6d012a36b7a2","system_id":"levelo_inurba_marseille","lat":43.30541,"lon":5.36695,"is_reserved":false,"is_disabled":false,"rental_uris":{"android":"levelo://app?vid=7976c6c5-4643-4b43-b69c-6d012a36b7a2","ios":"levelo://app?vid=7976c6c5-4643-4b43-b69c-6d012a36b7a2"},"vehicle_type_id":"4","last_reported":1729501840,"current_range_meters":28400,"station_id":"ce4bgrp2rcd13ifvqc9g","pricing_plan_id":"cebpf4jnsgd1na2vs0mg"},{"bike_id":"808551b4-06bf-49e0-b093-1815203ac82e","system_id":"levelo_inurba_marseille","lat":43.31322,"lon":5.39686,"is_reserved":false,"is_disabled":false,"rental_uris":{"android":"levelo://app?vid=808551b4-06bf-49e0-b093-1815203ac82e","ios":"levelo://app?vid=808551b4-06bf-49e0-b093-1815203ac82e"},"vehicle_type_id":"4","last_reported":1729501840,"current_range_meters":38800,"station_id":"ce4bgvp2rcd13ifvqcu0","pricing_plan_id":"cebpf4jnsgd1na2vs0mg"},{"bike_id":"139ebd0b-8bfb-4bff-aad1-7d1ba8b26af7","system_id":"levelo_inurba_marseille","lat":43.28922,"lon":5.396,"is_reserved":false,"is_disabled":false,"rental_uris":{"android":"levelo://app?vid=139ebd0b-8bfb-4bff-aad1-7d1ba8b26af7","ios":"levelo://app?vid=139ebd0b-8bfb-4bff-aad1-7d1ba8b26af7"},"vehicle_type_id":"4","last_reported":1729501840,"current_range_meters":26000,"station_id":"ce4bh3h2rcd13ifvqdn0","pricing_plan_id":"cebpf4jnsgd1na2vs0mg"},{"bike_id":"8927be08-8249-47ce-8083-f150629f946d","system_id":"levelo_inurba_marseille","lat":43.24653,"lon":5.38896,"is_reserved":false,"is_disabled":false,"rental_uris":{"android":"levelo://app?vid=8927be08-8249-47ce-8083-f150629f946d","ios":"levelo://app?vid=8927be08-8249-47ce-8083-f150629f946d"},"vehicle_type_id":"4","last_reported":1729501840,"current_range_meters":20400,"station_id":"ce4bhg12rcd13ifvqf60","pricing_plan_id":"cebpf4jnsgd1na2vs0mg"},{"bike_id":"c2c922f9-28f5-4727-a6fc-df832ecece2e","system_id":"levelo_inurba_marseille","lat":43.24544,"lon":5.39531,"is_reserved":false,"is_disabled":false,"rental_uris":{"android":"levelo://app?vid=c2c922f9-28f5-4727-a6fc-df832ecece2e","ios":"levelo://app?vid=c2c922f9-28f5-4727-a6fc-df832ecece2e"},"vehicle_type_id":"4","last_reported":1729501840,"current_range_meters":16800,"station_id":"ce4bhlp2rcd13ifvqgjg","pricing_plan_id":"cebpf4jnsgd1na2vs0mg"},{"bike_id":"0a064610-46e0-48c5-941f-f23d48eb0ead","system_id":"levelo_inurba_marseille","lat":43.28847,"lon":5.35872,"is_reserved":false,"is_disabled":false,"rental_uris":{"android":"levelo://app?vid=0a064610-46e0-48c5-941f-f23d48eb0ead","ios":"levelo://app?vid=0a064610-46e0-48c5-941f-f23d48eb0ead"},"vehicle_type_id":"4","last_reported":1729501840,"current_range_meters":12000,"station_id":"ce4bhb12rcd13ifvqem0","pricing_plan_id":"cebpf4jnsgd1na2vs0mg"},{"bike_id":"d6d2d697-89d2-4ee7-ba85-fc4a6a94003c","system_id":"levelo_inurba_marseille","lat":43.27376,"lon":5.36265,"is_reserved":false,"is_disabled":false,"rental_uris":{"android":"levelo://app?vid=d6d2d697-89d2-4ee7-ba85-fc4a6a94003c","ios":"levelo://app?vid=d6d2d697-89d2-4ee7-ba85-fc4a6a94003c"},"vehicle_type_id":"4","last_reported":1729501840,"current_range_meters":37600,"station_id":"ce4bhbh2rcd13ifvqeo0","pricing_plan_id":"cebpf4jnsgd1na2vs0mg"},{"bike_id":"5430bba4-ce8c-4694-a91c-cbc659893ce5","system_id":"levelo_inurba_marseille","lat":43.26682,"lon":5.38266,"is_reserved":false,"is_disabled":false,"rental_uris":{"android":"levelo://app?vid=5430bba4-ce8c-4694-a91c-cbc659893ce5","ios":"levelo://app?vid=5430bba4-ce8c-4694-a91c-cbc659893ce5"},"vehicle_type_id":"4","last_reported":1729501840,"current_range_meters":28800,"station_id":"ce4bhg92rcd13ifvqf90","pricing_plan_id":"cebpf4jnsgd1na2vs0mg"},{"bike_id":"2a8cfce5-93d5-4a5e-832b-148482060dca","system_id":"levelo_inurba_marseille","lat":43.32366,"lon":5.38881,"is_reserved":false,"is_disabled":false,"rental_uris":{"android":"levelo://app?vid=2a8cfce5-93d5-4a5e-832b-148482060dca","ios":"levelo://app?vid=2a8cfce5-93d5-4a5e-832b-148482060dca"},"vehicle_type_id":"4","last_reported":1729501840,"current_range_meters":21600,"station_id":"ce4bhqp2rcd13ifvqhog","pricing_plan_id":"cebpf4jnsgd1na2vs0mg"},{"bike_id":"6492c42c-e9fd-4010-bf6f-315b98b052ce","system_id":"levelo_inurba_marseille","lat":43.33757,"lon":5.37448,"is_reserved":false,"is_disabled":false,"rental_uris":{"android":"levelo://app?vid=6492c42c-e9fd-4010-bf6f-315b98b052ce","ios":"levelo://app?vid=6492c42c-e9fd-4010-bf6f-315b98b052ce"},"vehicle_type_id":"4","last_reported":1729501840,"current_range_meters":36800,"station_id":"","pricing_plan_id":"cebpf4jnsgd1na2vs0mg"},{"bike_id":"c034d961-ec07-4156-8dd5-93c13098dd2f","system_id":"levelo_inurba_marseille","lat":43.33605,"lon":5.4102,"is_reserved":false,"is_disabled":false,"rental_uris":{"android":"levelo://app?vid=c034d961-ec07-4156-8dd5-93c13098dd2f","ios":"levelo://app?vid=c034d961-ec07-4156-8dd5-93c13098dd2f"},"vehicle_type_id":"4","last_reported":1729501840,"current_range_meters":38800,"station_id":"ce4bhqh2rcd13ifvqhmg","pricing_plan_id":"cebpf4jnsgd1na2vs0mg"},{"bike_id":"fccb27b3-90f4-4411-a56b-003b7acda73c","system_id":"levelo_inurba_marseille","lat":43.28151,"lon":5.42627,"is_reserved":false,"is_disabled":false,"rental_uris":{"android":"levelo://app?vid=fccb27b3-90f4-4411-a56b-003b7acda73c","ios":"levelo://app?vid=fccb27b3-90f4-4411-a56b-003b7acda73c"},"vehicle_type_id":"4","last_reported":1729501840,"current_range_meters":28400,"station_id":"ce4bhnh2rcd13ifvqgug","pricing_plan_id":"cebpf4jnsgd1na2vs0mg"},{"bike_id":"613482c3-c49c-4cda-8f71-27457cf21c7a","system_id":"levelo_inurba_marseille","lat":43.30178,"lon":5.36626,"is_reserved":false,"is_disabled":false,"rental_uris":{"android":"levelo://app?vid=613482c3-c49c-4cda-8f71-27457cf21c7a","ios":"levelo://app?vid=613482c3-c49c-4cda-8f71-27457cf21c7a"},"vehicle_type_id":"4","last_reported":1729501840,"current_range_meters":31200,"station_id":"ce4bgrh2rcd13ifvqc8g","pricing_plan_id":"cebpf4jnsgd1na2vs0mg"},{"bike_id":"af00502d-b5af-402e-bab9-2b06b78e3677","system_id":"levelo_inurba_marseille","lat":43.31124,"lon":5.37754,"is_reserved":false,"is_disabled":false,"rental_uris":{"android":"levelo://app?vid=af00502d-b5af-402e-bab9-2b06b78e3677","ios":"levelo://app?vid=af00502d-b5af-402e-bab9-2b06b78e3677"},"vehicle_type_id":"4","last_reported":1729501840,"current_range_meters":3600,"station_id":"ce4bgt92rcd13ifvqcg0","pricing_plan_id":"cebpf4jnsgd1na2vs0mg"},{"bike_id":"619d2d79-3eda-490b-94cf-483db3844f72","system_id":"levelo_inurba_marseille","lat":43.30539,"lon":5.36697,"is_reserved":false,"is_disabled":false,"rental_uris":{"android":"levelo://app?vid=619d2d79-3eda-490b-94cf-483db3844f72","ios":"levelo://app?vid=619d2d79-3eda-490b-94cf-483db3844f72"},"vehicle_type_id":"4","last_reported":1729501840,"current_range_meters":36000,"station_id":"ce4bgrp2rcd13ifvqc9g","pricing_plan_id":"cebpf4jnsgd1na2vs0mg"},{"bike_id":"c0e918f6-a62e-4c9d-938a-2ee1b95f693a","system_id":"levelo_inurba_marseille","lat":43.26679,"lon":5.38274,"is_reserved":false,"is_disabled":false,"rental_uris":{"android":"levelo://app?vid=c0e918f6-a62e-4c9d-938a-2ee1b95f693a","ios":"levelo://app?vid=c0e918f6-a62e-4c9d-938a-2ee1b95f693a"},"vehicle_type_id":"4","last_reported":1729501840,"current_range_meters":19200,"station_id":"ce4bhg92rcd13ifvqf90","pricing_plan_id":"cebpf4jnsgd1na2vs0mg"},{"bike_id":"16efb756-7204-417a-ac94-79592a12c81c","system_id":"levelo_inurba_marseille","lat":43.3361,"lon":5.41037,"is_reserved":false,"is_disabled":false,"rental_uris":{"android":"levelo://app?vid=16efb756-7204-417a-ac94-79592a12c81c","ios":"levelo://app?vid=16efb756-7204-417a-ac94-79592a12c81c"},"vehicle_type_id":"4","last_reported":1729501840,"current_range_meters":22800,"station_id":"ce4bhqh2rcd13ifvqhmg","pricing_plan_id":"cebpf4jnsgd1na2vs0mg"},{"bike_id":"551ac5d0-b0e0-4804-a5ef-7e6bc6a1c26b","system_id":"levelo_inurba_marseille","lat":43.33605,"lon":5.41031,"is_reserved":false,"is_disabled":false,"rental_uris":{"android":"levelo://app?vid=551ac5d0-b0e0-4804-a5ef-7e6bc6a1c26b","ios":"levelo://app?vid=551ac5d0-b0e0-4804-a5ef-7e6bc6a1c26b"},"vehicle_type_id":"4","last_reported":1729501840,"current_range_meters":25600,"station_id":"ce4bhqh2rcd13ifvqhmg","pricing_plan_id":"cebpf4jnsgd1na2vs0mg"},{"bike_id":"1e59d9ce-1d5e-4ef5-abc9-57bbd44ab937","system_id":"levelo_inurba_marseille","lat":43.29173,"lon":5.37148,"is_reserved":false,"is_disabled":false,"rental_uris":{"android":"levelo://app?vid=1e59d9ce-1d5e-4ef5-abc9-57bbd44ab937","ios":"levelo://app?vid=1e59d9ce-1d5e-4ef5-abc9-57bbd44ab937"},"vehicle_type_id":"4","last_reported":1729501840,"current_range_meters":31200,"station_id":"ce4bha92rcd13ifvqeh0","pricing_plan_id":"cebpf4jnsgd1na2vs0mg"},{"bike_id":"4cf3e5d8-4f9a-4007-b965-622ecd99339e","system_id":"levelo_inurba_marseille","lat":43.31074,"lon":5.40085,"is_reserved":false,"is_disabled":false,"rental_uris":{"android":"levelo://app?vid=4cf3e5d8-4f9a-4007-b965-622ecd99339e","ios":"levelo://app?vid=4cf3e5d8-4f9a-4007-b965-622ecd99339e"},"vehicle_type_id":"4","last_reported":1729501840,"current_range_meters":4800,"station_id":"","pricing_plan_id":"cebpf4jnsgd1na2vs0mg"},{"bike_id":"2bb330f7-11cd-4bce-a57d-e4fd54e6154a","system_id":"levelo_inurba_marseille","lat":43.299895,"lon":5.385198,"is_reserved":false,"is_disabled":false,"rental_uris":{"android":"levelo://app?vid=2bb330f7-11cd-4bce-a57d-e4fd54e6154a","ios":"levelo://app?vid=2bb330f7-11cd-4bce-a57d-e4fd54e6154a"},"vehicle_type_id":"4","last_reported":1729501840,"current_range_meters":20400,"station_id":"ce4bgj92rcd13ifvqbd0","pricing_plan_id":"cebpf4jnsgd1na2vs0mg"},{"bike_id":"eb28c191-e5cc-4e35-8818-10ea0b1447e3","system_id":"levelo_inurba_marseille","lat":43.30306,"lon":5.36918,"is_reserved":false,"is_disabled":false,"rental_uris":{"android":"levelo://app?vid=eb28c191-e5cc-4e35-8818-10ea0b1447e3","ios":"levelo://app?vid=eb28c191-e5cc-4e35-8818-10ea0b1447e3"},"vehicle_type_id":"4","last_reported":1729501840,"current_range_meters":37600,"station_id":"ce4bgqh2rcd13ifvqc5g","pricing_plan_id":"cebpf4jnsgd1na2vs0mg"},{"bike_id":"d022902e-4f7c-4f05-aec8-0c802211b8cc","system_id":"levelo_inurba_marseille","lat":43.25942,"lon":5.40895,"is_reserved":false,"is_disabled":false,"rental_uris":{"android":"levelo://app?vid=d022902e-4f7c-4f05-aec8-0c802211b8cc","ios":"levelo://app?vid=d022902e-4f7c-4f05-aec8-0c802211b8cc"},"vehicle_type_id":"4","last_reported":1729501840,"current_range_meters":32400,"station_id":"ce4bhm92rcd13ifvqglg","pricing_plan_id":"cebpf4jnsgd1na2vs0mg"},{"bike_id":"a9497fe1-bc20-4783-aa3c-fbb63f514484","system_id":"levelo_inurba_marseille","lat":43.305295,"lon":5.36549,"is_reserved":false,"is_disabled":false,"rental_uris":{"android":"levelo://app?vid=a9497fe1-bc20-4783-aa3c-fbb63f514484","ios":"levelo://app?vid=a9497fe1-bc20-4783-aa3c-fbb63f514484"},"vehicle_type_id":"4","last_reported":1729501840,"current_range_meters":38800,"station_id":"ce4bgs12rcd13ifvqcag","pricing_plan_id":"cebpf4jnsgd1na2vs0mg"},{"bike_id":"f3da7b3f-3977-4bde-ae1c-49e2e6f4d1fd","system_id":"levelo_inurba_marseille","lat":43.2499,"lon":5.38939,"is_reserved":false,"is_disabled":false,"rental_uris":{"android":"levelo://app?vid=f3da7b3f-3977-4bde-ae1c-49e2e6f4d1fd","ios":"levelo://app?vid=f3da7b3f-3977-4bde-ae1c-49e2e6f4d1fd"},"vehicle_type_id":"4","last_reported":1729501840,"current_range_meters":29600,"station_id":"ce4bhgp2rcd13ifvqfd0","pricing_plan_id":"cebpf4jnsgd1na2vs0mg"},{"bike_id":"ecb477b1-af2d-47bc-82de-6948cdcde8eb","system_id":"levelo_inurba_marseille","lat":43.30144,"lon":5.3742,"is_reserved":false,"is_disabled":false,"rental_uris":{"android":"levelo://app?vid=ecb477b1-af2d-47bc-82de-6948cdcde8eb","ios":"levelo://app?vid=ecb477b1-af2d-47bc-82de-6948cdcde8eb"},"vehicle_type_id":"4","last_reported":1729501840,"current_range_meters":32000,"station_id":"ce4bgs92rcd13ifvqcc0","pricing_plan_id":"cebpf4jnsgd1na2vs0mg"},{"bike_id":"fba6d9a1-5ceb-4d0f-969d-98f131448361","system_id":"levelo_inurba_marseille","lat":43.2903,"lon":5.36795,"is_reserved":false,"is_disabled":false,"rental_uris":{"android":"levelo://app?vid=fba6d9a1-5ceb-4d0f-969d-98f131448361","ios":"levelo://app?vid=fba6d9a1-5ceb-4d0f-969d-98f131448361"},"vehicle_type_id":"4","last_reported":1729501840,"current_range_meters":14400,"station_id":"","pricing_plan_id":"cebpf4jnsgd1na2vs0mg"},{"bike_id":"685e73b3-037e-44ad-8bd2-df67bef7985b","system_id":"levelo_inurba_marseille","lat":43.276,"lon":5.36124,"is_reserved":false,"is_disabled":false,"rental_uris":{"android":"levelo://app?vid=685e73b3-037e-44ad-8bd2-df67bef7985b","ios":"levelo://app?vid=685e73b3-037e-44ad-8bd2-df67bef7985b"},"vehicle_type_id":"4","last_reported":1729501840,"current_range_meters":24800,"station_id":"ce4bgj92rcd13ifvqbe0","pricing_plan_id":"cebpf4jnsgd1na2vs0mg"},{"bike_id":"0f33712f-3cea-475a-b899-13e9b92c029c","system_id":"levelo_inurba_marseille","lat":43.24083,"lon":5.37757,"is_reserved":false,"is_disabled":false,"rental_uris":{"android":"levelo://app?vid=0f33712f-3cea-475a-b899-13e9b92c029c","ios":"levelo://app?vid=0f33712f-3cea-475a-b899-13e9b92c029c"},"vehicle_type_id":"4","last_reported":1729501840,"current_range_meters":38800,"station_id":"ce4bhnp2rcd13ifvqgvg","pricing_plan_id":"cebpf4jnsgd1na2vs0mg"},{"bike_id":"041c83ea-c320-4be6-862d-deaa50b2a9d7","system_id":"levelo_inurba_marseille","lat":43.27614,"lon":5.36119,"is_reserved":false,"is_disabled":false,"rental_uris":{"android":"levelo://app?vid=041c83ea-c320-4be6-862d-deaa50b2a9d7","ios":"levelo://app?vid=041c83ea-c320-4be6-862d-deaa50b2a9d7"},"vehicle_type_id":"4","last_reported":1729501840,"current_range_meters":38000,"station_id":"ce4bgj92rcd13ifvqbe0","pricing_plan_id":"cebpf4jnsgd1na2vs0mg"},{"bike_id":"931da876-d0ed-4146-82c7-6d132f483c10","system_id":"levelo_inurba_marseille","lat":43.321057,"lon":5.367726,"is_reserved":false,"is_disabled":false,"rental_uris":{"android":"levelo://app?vid=931da876-d0ed-4146-82c7-6d132f483c10","ios":"levelo://app?vid=931da876-d0ed-4146-82c7-6d132f483c10"},"vehicle_type_id":"4","last_reported":1729501840,"current_range_meters":37600,"station_id":"ce4bhrh2rcd13ifvqhug","pricing_plan_id":"cebpf4jnsgd1na2vs0mg"},{"bike_id":"68bb16cf-3232-4389-967e-55bb18f1f996","system_id":"levelo_inurba_marseille","lat":43.31357,"lon":5.36695,"is_reserved":false,"is_disabled":false,"rental_uris":{"android":"levelo://app?vid=68bb16cf-3232-4389-967e-55bb18f1f996","ios":"levelo://app?vid=68bb16cf-3232-4389-967e-55bb18f1f996"},"vehicle_type_id":"4","last_reported":1729501840,"current_range_meters":39200,"station_id":"ce4bgr92rcd13ifvqc6g","pricing_plan_id":"cebpf4jnsgd1na2vs0mg"},{"bike_id":"ba60d849-f474-482c-8cb2-46881eeea55f","system_id":"levelo_inurba_marseille","lat":43.30556,"lon":5.3656,"is_reserved":false,"is_disabled":false,"rental_uris":{"android":"levelo://app?vid=ba60d849-f474-482c-8cb2-46881eeea55f","ios":"levelo://app?vid=ba60d849-f474-482c-8cb2-46881eeea55f"},"vehicle_type_id":"4","last_reported":1729501840,"current_range_meters":16400,"station_id":"ce4bgs12rcd13ifvqcag","pricing_plan_id":"cebpf4jnsgd1na2vs0mg"},{"bike_id":"375d33e3-2041-4b56-a557-54bde93a99de","system_id":"levelo_inurba_marseille","lat":43.30539,"lon":5.36547,"is_reserved":false,"is_disabled":false,"rental_uris":{"android":"levelo://app?vid=375d33e3-2041-4b56-a557-54bde93a99de","ios":"levelo://app?vid=375d33e3-2041-4b56-a557-54bde93a99de"},"vehicle_type_id":"4","last_reported":1729501840,"current_range_meters":20800,"station_id":"ce4bgs12rcd13ifvqcag","pricing_plan_id":"cebpf4jnsgd1na2vs0mg"},{"bike_id":"606c3f95-db22-47d4-b0e4-90780b7b9bf3","system_id":"levelo_inurba_marseille","lat":43.31999,"lon":5.38159,"is_reserved":false,"is_disabled":false,"rental_uris":{"android":"levelo://app?vid=606c3f95-db22-47d4-b0e4-90780b7b9bf3","ios":"levelo://app?vid=606c3f95-db22-47d4-b0e4-90780b7b9bf3"},"vehicle_type_id":"4","last_reported":1729501840,"current_range_meters":11600,"station_id":"ce4bhr12rcd13ifvqhpg","pricing_plan_id":"cebpf4jnsgd1na2vs0mg"},{"bike_id":"0c1c7708-b979-4d7e-982d-190e9148b9a6","system_id":"levelo_inurba_marseille","lat":43.26676,"lon":5.38265,"is_reserved":false,"is_disabled":false,"rental_uris":{"android":"levelo://app?vid=0c1c7708-b979-4d7e-982d-190e9148b9a6","ios":"levelo://app?vid=0c1c7708-b979-4d7e-982d-190e9148b9a6"},"vehicle_type_id":"4","last_reported":1729501840,"current_range_meters":35200,"station_id":"ce4bhg92rcd13ifvqf90","pricing_plan_id":"cebpf4jnsgd1na2vs0mg"},{"bike_id":"df47bd1a-e241-4b2e-ad37-e018edb6af54","system_id":"levelo_inurba_marseille","lat":43.27948,"lon":5.38933,"is_reserved":false,"is_disabled":false,"rental_uris":{"android":"levelo://app?vid=df47bd1a-e241-4b2e-ad37-e018edb6af54","ios":"levelo://app?vid=df47bd1a-e241-4b2e-ad37-e018edb6af54"},"vehicle_type_id":"4","last_reported":1729501840,"current_range_meters":38800,"station_id":"","pricing_plan_id":"cebpf4jnsgd1na2vs0mg"},{"bike_id":"724c3898-fa40-46b5-a6ca-5091666cabb4","system_id":"levelo_inurba_marseille","lat":43.23192,"lon":5.35547,"is_reserved":false,"is_disabled":false,"rental_uris":{"android":"levelo://app?vid=724c3898-fa40-46b5-a6ca-5091666cabb4","ios":"levelo://app?vid=724c3898-fa40-46b5-a6ca-5091666cabb4"},"vehicle_type_id":"4","last_reported":1729501840,"current_range_meters":38000,"station_id":"ce4bhu92rcd13ifvqi70","pricing_plan_id":"cebpf4jnsgd1na2vs0mg"},{"bike_id":"fb574375-21a3-4cc9-b093-05167f9899a8","system_id":"levelo_inurba_marseille","lat":43.313521,"lon":5.367181,"is_reserved":false,"is_disabled":false,"rental_uris":{"android":"levelo://app?vid=fb574375-21a3-4cc9-b093-05167f9899a8","ios":"levelo://app?vid=fb574375-21a3-4cc9-b093-05167f9899a8"},"vehicle_type_id":"4","last_reported":1729501840,"current_range_meters":39200,"station_id":"ce4bgr92rcd13ifvqc6g","pricing_plan_id":"cebpf4jnsgd1na2vs0mg"},{"bike_id":"3601721e-034a-4f18-91bb-d17e9f38b1e9","system_id":"levelo_inurba_marseille","lat":43.29922,"lon":5.37482,"is_reserved":false,"is_disabled":false,"rental_uris":{"android":"levelo://app?vid=3601721e-034a-4f18-91bb-d17e9f38b1e9","ios":"levelo://app?vid=3601721e-034a-4f18-91bb-d17e9f38b1e9"},"vehicle_type_id":"4","last_reported":1729501840,"current_range_meters":39200,"station_id":"ce4bgjh2rcd13ifvqbg0","pricing_plan_id":"cebpf4jnsgd1na2vs0mg"},{"bike_id":"a4dfb33b-4c2d-4d86-a698-fff9938b84e5","system_id":"levelo_inurba_marseille","lat":43.28611,"lon":5.37063,"is_reserved":false,"is_disabled":false,"rental_uris":{"android":"levelo://app?vid=a4dfb33b-4c2d-4d86-a698-fff9938b84e5","ios":"levelo://app?vid=a4dfb33b-4c2d-4d86-a698-fff9938b84e5"},"vehicle_type_id":"4","last_reported":1729501840,"current_range_meters":29600,"station_id":"ce4bht12rcd13ifvqi60","pricing_plan_id":"cebpf4jnsgd1na2vs0mg"},{"bike_id":"76838b0f-7e5e-4124-a8ea-4e7130837480","system_id":"levelo_inurba_marseille","lat":43.23067,"lon":5.35491,"is_reserved":false,"is_disabled":false,"rental_uris":{"android":"levelo://app?vid=76838b0f-7e5e-4124-a8ea-4e7130837480","ios":"levelo://app?vid=76838b0f-7e5e-4124-a8ea-4e7130837480"},"vehicle_type_id":"4","last_reported":1729501840,"current_range_meters":32400,"station_id":"cpo3342slgdg3j2ifvpg","pricing_plan_id":"cebpf4jnsgd1na2vs0mg"},{"bike_id":"e6fe4940-a098-49cc-8d38-77b9bd14611a","system_id":"levelo_inurba_marseille","lat":43.32109,"lon":5.36775,"is_reserved":false,"is_disabled":false,"rental_uris":{"android":"levelo://app?vid=e6fe4940-a098-49cc-8d38-77b9bd14611a","ios":"levelo://app?vid=e6fe4940-a098-49cc-8d38-77b9bd14611a"},"vehicle_type_id":"4","last_reported":1729501840,"current_range_meters":17600,"station_id":"ce4bhrh2rcd13ifvqhug","pricing_plan_id":"cebpf4jnsgd1na2vs0mg"},{"bike_id":"b3131808-ec56-42ed-9011-7c56a602997c","system_id":"levelo_inurba_marseille","lat":43.26951,"lon":5.38633,"is_reserved":false,"is_disabled":false,"rental_uris":{"android":"levelo://app?vid=b3131808-ec56-42ed-9011-7c56a602997c","ios":"levelo://app?vid=b3131808-ec56-42ed-9011-7c56a602997c"},"vehicle_type_id":"4","last_reported":1729501840,"current_range_meters":38800,"station_id":"ce4bhh92rcd13ifvqfh0","pricing_plan_id":"cebpf4jnsgd1na2vs0mg"},{"bike_id":"eaf542e6-9f43-4889-bfac-b5349636dc63","system_id":"levelo_inurba_marseille","lat":43.30914,"lon":5.36855,"is_reserved":false,"is_disabled":false,"rental_uris":{"android":"levelo://app?vid=eaf542e6-9f43-4889-bfac-b5349636dc63","ios":"levelo://app?vid=eaf542e6-9f43-4889-bfac-b5349636dc63"},"vehicle_type_id":"4","last_reported":1729501840,"current_range_meters":38800,"station_id":"ce4bgn92rcd13ifvqbvg","pricing_plan_id":"cebpf4jnsgd1na2vs0mg"},{"bike_id":"69f7af31-8cc4-4b1d-9daf-3f9700bccd34","system_id":"levelo_inurba_marseille","lat":43.28423,"lon":5.34991,"is_reserved":false,"is_disabled":false,"rental_uris":{"android":"levelo://app?vid=69f7af31-8cc4-4b1d-9daf-3f9700bccd34","ios":"levelo://app?vid=69f7af31-8cc4-4b1d-9daf-3f9700bccd34"},"vehicle_type_id":"4","last_reported":1729501840,"current_range_meters":38800,"station_id":"ce4bhbh2rcd13ifvqepg","pricing_plan_id":"cebpf4jnsgd1na2vs0mg"},{"bike_id":"32383ce9-1137-4574-b3d0-41399bc809b9","system_id":"levelo_inurba_marseille","lat":43.29529,"lon":5.3751,"is_reserved":false,"is_disabled":false,"rental_uris":{"android":"levelo://app?vid=32383ce9-1137-4574-b3d0-41399bc809b9","ios":"levelo://app?vid=32383ce9-1137-4574-b3d0-41399bc809b9"},"vehicle_type_id":"4","last_reported":1729501840,"current_range_meters":10800,"station_id":"ce4bgkp2rcd13ifvqbmg","pricing_plan_id":"cebpf4jnsgd1na2vs0mg"},{"bike_id":"a15ec40a-1b10-47b6-9427-c5f6c4c78793","system_id":"levelo_inurba_marseille","lat":43.2792,"lon":5.39576,"is_reserved":false,"is_disabled":false,"rental_uris":{"android":"levelo://app?vid=a15ec40a-1b10-47b6-9427-c5f6c4c78793","ios":"levelo://app?vid=a15ec40a-1b10-47b6-9427-c5f6c4c78793"},"vehicle_type_id":"4","last_reported":1729501840,"current_range_meters":32000,"station_id":"ce4bhf92rcd13ifvqf40","pricing_plan_id":"cebpf4jnsgd1na2vs0mg"},{"bike_id":"8fa96be3-6654-43db-997f-afce5f780403","system_id":"levelo_inurba_marseille","lat":43.33757,"lon":5.37437,"is_reserved":false,"is_disabled":false,"rental_uris":{"android":"levelo://app?vid=8fa96be3-6654-43db-997f-afce5f780403","ios":"levelo://app?vid=8fa96be3-6654-43db-997f-afce5f780403"},"vehicle_type_id":"4","last_reported":1729501840,"current_range_meters":38400,"station_id":"","pricing_plan_id":"cebpf4jnsgd1na2vs0mg"},{"bike_id":"8bb60c49-8ed3-4f9b-891c-0805c36ed3e1","system_id":"levelo_inurba_marseille","lat":43.29557,"lon":5.42284,"is_reserved":false,"is_disabled":false,"rental_uris":{"android":"levelo://app?vid=8bb60c49-8ed3-4f9b-891c-0805c36ed3e1","ios":"levelo://app?vid=8bb60c49-8ed3-4f9b-891c-0805c36ed3e1"},"vehicle_type_id":"4","last_reported":1729501840,"current_range_meters":38800,"station_id":"ce4bhph2rcd13ifvqhdg","pricing_plan_id":"cebpf4jnsgd1na2vs0mg"},{"bike_id":"f3b18d4c-688e-4e02-9104-7f1d559134af","system_id":"levelo_inurba_marseille","lat":43.32103,"lon":5.36766,"is_reserved":false,"is_disabled":false,"rental_uris":{"android":"levelo://app?vid=f3b18d4c-688e-4e02-9104-7f1d559134af","ios":"levelo://app?vid=f3b18d4c-688e-4e02-9104-7f1d559134af"},"vehicle_type_id":"4","last_reported":1729501840,"current_range_meters":30800,"station_id":"","pricing_plan_id":"cebpf4jnsgd1na2vs0mg"},{"bike_id":"12ae1f4f-d848-4e56-91c8-c9b0ccd279a2","system_id":"levelo_inurba_marseille","lat":43.29175,"lon":5.3855,"is_reserved":false,"is_disabled":false,"rental_uris":{"android":"levelo://app?vid=12ae1f4f-d848-4e56-91c8-c9b0ccd279a2","ios":"levelo://app?vid=12ae1f4f-d848-4e56-91c8-c9b0ccd279a2"},"vehicle_type_id":"4","last_reported":1729501840,"current_range_meters":29600,"station_id":"ce4bh2h2rcd13ifvqdh0","pricing_plan_id":"cebpf4jnsgd1na2vs0mg"},{"bike_id":"6557f5dc-9182-4141-a913-4259e426b5ed","system_id":"levelo_inurba_marseille","lat":43.30946,"lon":5.39042,"is_reserved":false,"is_disabled":false,"rental_uris":{"android":"levelo://app?vid=6557f5dc-9182-4141-a913-4259e426b5ed","ios":"levelo://app?vid=6557f5dc-9182-4141-a913-4259e426b5ed"},"vehicle_type_id":"4","last_reported":1729501840,"current_range_meters":18000,"station_id":"ce4bgup2rcd13ifvqco0","pricing_plan_id":"cebpf4jnsgd1na2vs0mg"},{"bike_id":"b6964b5c-835b-4a85-88c3-192285d044b0","system_id":"levelo_inurba_marseille","lat":43.27345,"lon":5.390536,"is_reserved":false,"is_disabled":false,"rental_uris":{"android":"levelo://app?vid=b6964b5c-835b-4a85-88c3-192285d044b0","ios":"levelo://app?vid=b6964b5c-835b-4a85-88c3-192285d044b0"},"vehicle_type_id":"4","last_reported":1729501840,"current_range_meters":26800,"station_id":"ce4bhgp2rcd13ifvqfe0","pricing_plan_id":"cebpf4jnsgd1na2vs0mg"},{"bike_id":"3bf2ae1c-49b2-4936-93d0-295eb17bee45","system_id":"levelo_inurba_marseille","lat":43.23062,"lon":5.35489,"is_reserved":false,"is_disabled":false,"rental_uris":{"android":"levelo://app?vid=3bf2ae1c-49b2-4936-93d0-295eb17bee45","ios":"levelo://app?vid=3bf2ae1c-49b2-4936-93d0-295eb17bee45"},"vehicle_type_id":"4","last_reported":1729501840,"current_range_meters":37600,"station_id":"cpo3342slgdg3j2ifvpg","pricing_plan_id":"cebpf4jnsgd1na2vs0mg"},{"bike_id":"b3efdb17-f121-4150-a9a3-a1f531401b75","system_id":"levelo_inurba_marseille","lat":43.25937,"lon":5.40895,"is_reserved":false,"is_disabled":false,"rental_uris":{"android":"levelo://app?vid=b3efdb17-f121-4150-a9a3-a1f531401b75","ios":"levelo://app?vid=b3efdb17-f121-4150-a9a3-a1f531401b75"},"vehicle_type_id":"4","last_reported":1729501840,"current_range_meters":21600,"station_id":"ce4bhm92rcd13ifvqglg","pricing_plan_id":"cebpf4jnsgd1na2vs0mg"},{"bike_id":"e771981a-ab32-44a7-80b8-59b44c9b46ff","system_id":"levelo_inurba_marseille","lat":43.30525,"lon":5.36702,"is_reserved":false,"is_disabled":false,"rental_uris":{"android":"levelo://app?vid=e771981a-ab32-44a7-80b8-59b44c9b46ff","ios":"levelo://app?vid=e771981a-ab32-44a7-80b8-59b44c9b46ff"},"vehicle_type_id":"4","last_reported":1729501840,"current_range_meters":23200,"station_id":"ce4bgrp2rcd13ifvqc9g","pricing_plan_id":"cebpf4jnsgd1na2vs0mg"},{"bike_id":"01edebeb-e9df-4db9-8e23-851a215d3d7f","system_id":"levelo_inurba_marseille","lat":43.30537,"lon":5.36696,"is_reserved":false,"is_disabled":false,"rental_uris":{"android":"levelo://app?vid=01edebeb-e9df-4db9-8e23-851a215d3d7f","ios":"levelo://app?vid=01edebeb-e9df-4db9-8e23-851a215d3d7f"},"vehicle_type_id":"4","last_reported":1729501840,"current_range_meters":39200,"station_id":"ce4bgrp2rcd13ifvqc9g","pricing_plan_id":"cebpf4jnsgd1na2vs0mg"},{"bike_id":"63f58196-2770-4dc4-a181-ddc9af75202a","system_id":"levelo_inurba_marseille","lat":43.30191,"lon":5.36624,"is_reserved":false,"is_disabled":false,"rental_uris":{"android":"levelo://app?vid=63f58196-2770-4dc4-a181-ddc9af75202a","ios":"levelo://app?vid=63f58196-2770-4dc4-a181-ddc9af75202a"},"vehicle_type_id":"4","last_reported":1729501840,"current_range_meters":32800,"station_id":"ce4bgrh2rcd13ifvqc8g","pricing_plan_id":"cebpf4jnsgd1na2vs0mg"},{"bike_id":"5c1328da-1477-4a48-8ada-7f6cc69efb76","system_id":"levelo_inurba_marseille","lat":43.29,"lon":5.35614,"is_reserved":false,"is_disabled":false,"rental_uris":{"android":"levelo://app?vid=5c1328da-1477-4a48-8ada-7f6cc69efb76","ios":"levelo://app?vid=5c1328da-1477-4a48-8ada-7f6cc69efb76"},"vehicle_type_id":"4","last_reported":1729501840,"current_range_meters":37600,"station_id":"ce4bhb92rcd13ifvqen0","pricing_plan_id":"cebpf4jnsgd1na2vs0mg"},{"bike_id":"8f6a42bc-b4d5-4506-bfe5-f274f72a1ae4","system_id":"levelo_inurba_marseille","lat":43.24172,"lon":5.39733,"is_reserved":false,"is_disabled":false,"rental_uris":{"android":"levelo://app?vid=8f6a42bc-b4d5-4506-bfe5-f274f72a1ae4","ios":"levelo://app?vid=8f6a42bc-b4d5-4506-bfe5-f274f72a1ae4"},"vehicle_type_id":"4","last_reported":1729501840,"current_range_meters":38800,"station_id":"ce4bhn12rcd13ifvqgpg","pricing_plan_id":"cebpf4jnsgd1na2vs0mg"},{"bike_id":"62738b42-4d14-4992-87b3-65556f57f437","system_id":"levelo_inurba_marseille","lat":43.24394,"lon":5.37064,"is_reserved":false,"is_disabled":false,"rental_uris":{"android":"levelo://app?vid=62738b42-4d14-4992-87b3-65556f57f437","ios":"levelo://app?vid=62738b42-4d14-4992-87b3-65556f57f437"},"vehicle_type_id":"4","last_reported":1729501840,"current_range_meters":28800,"station_id":"ce4bhhh2rcd13ifvqfk0","pricing_plan_id":"cebpf4jnsgd1na2vs0mg"},{"bike_id":"4517af98-c83a-4c45-a9db-642c066330ca","system_id":"levelo_inurba_marseille","lat":43.3047,"lon":5.37905,"is_reserved":false,"is_disabled":false,"rental_uris":{"android":"levelo://app?vid=4517af98-c83a-4c45-a9db-642c066330ca","ios":"levelo://app?vid=4517af98-c83a-4c45-a9db-642c066330ca"},"vehicle_type_id":"4","last_reported":1729501840,"current_range_meters":36400,"station_id":"ce4bgup2rcd13ifvqcn0","pricing_plan_id":"cebpf4jnsgd1na2vs0mg"},{"bike_id":"f2c49fb6-7dd8-45a5-8c84-74d9d6489e79","system_id":"levelo_inurba_marseille","lat":43.30565,"lon":5.36538,"is_reserved":false,"is_disabled":false,"rental_uris":{"android":"levelo://app?vid=f2c49fb6-7dd8-45a5-8c84-74d9d6489e79","ios":"levelo://app?vid=f2c49fb6-7dd8-45a5-8c84-74d9d6489e79"},"vehicle_type_id":"4","last_reported":1729501840,"current_range_meters":28400,"station_id":"ce4bgs12rcd13ifvqcag","pricing_plan_id":"cebpf4jnsgd1na2vs0mg"},{"bike_id":"fc9e44c7-fda4-4ce8-8818-600912cdab91","system_id":"levelo_inurba_marseille","lat":43.25941,"lon":5.40898,"is_reserved":false,"is_disabled":false,"rental_uris":{"android":"levelo://app?vid=fc9e44c7-fda4-4ce8-8818-600912cdab91","ios":"levelo://app?vid=fc9e44c7-fda4-4ce8-8818-600912cdab91"},"vehicle_type_id":"4","last_reported":1729501840,"current_range_meters":38800,"station_id":"ce4bhm92rcd13ifvqglg","pricing_plan_id":"cebpf4jnsgd1na2vs0mg"},{"bike_id":"342bb506-8e82-4fe8-8123-2298181f1aa1","system_id":"levelo_inurba_marseille","lat":43.30797,"lon":5.38167,"is_reserved":false,"is_disabled":false,"rental_uris":{"android":"levelo://app?vid=342bb506-8e82-4fe8-8123-2298181f1aa1","ios":"levelo://app?vid=342bb506-8e82-4fe8-8123-2298181f1aa1"},"vehicle_type_id":"4","last_reported":1729501840,"current_range_meters":32800,"station_id":"","pricing_plan_id":"cebpf4jnsgd1na2vs0mg"},{"bike_id":"49f034c7-bcc2-44a1-a2c0-c64d1cae1fa9","system_id":"levelo_inurba_marseille","lat":43.27627,"lon":5.36114,"is_reserved":false,"is_disabled":false,"rental_uris":{"android":"levelo://app?vid=49f034c7-bcc2-44a1-a2c0-c64d1cae1fa9","ios":"levelo://app?vid=49f034c7-bcc2-44a1-a2c0-c64d1cae1fa9"},"vehicle_type_id":"4","last_reported":1729501840,"current_range_meters":38400,"station_id":"ce4bgj92rcd13ifvqbe0","pricing_plan_id":"cebpf4jnsgd1na2vs0mg"},{"bike_id":"166da1df-9f6f-4762-8f69-165078a90752","system_id":"levelo_inurba_marseille","lat":43.30297,"lon":5.43783,"is_reserved":false,"is_disabled":false,"rental_uris":{"android":"levelo://app?vid=166da1df-9f6f-4762-8f69-165078a90752","ios":"levelo://app?vid=166da1df-9f6f-4762-8f69-165078a90752"},"vehicle_type_id":"4","last_reported":1729501840,"current_range_meters":34800,"station_id":"ce4bhpp2rcd13ifvqhfg","pricing_plan_id":"cebpf4jnsgd1na2vs0mg"},{"bike_id":"53442209-de2c-48e5-93ab-7b580e04a6b6","system_id":"levelo_inurba_marseille","lat":43.31358,"lon":5.36702,"is_reserved":false,"is_disabled":false,"rental_uris":{"android":"levelo://app?vid=53442209-de2c-48e5-93ab-7b580e04a6b6","ios":"levelo://app?vid=53442209-de2c-48e5-93ab-7b580e04a6b6"},"vehicle_type_id":"4","last_reported":1729501840,"current_range_meters":9600,"station_id":"ce4bgr92rcd13ifvqc6g","pricing_plan_id":"cebpf4jnsgd1na2vs0mg"},{"bike_id":"9b979451-5185-47cf-8e88-2ea98c17cd69","system_id":"levelo_inurba_marseille","lat":43.3054,"lon":5.36549,"is_reserved":false,"is_disabled":false,"rental_uris":{"android":"levelo://app?vid=9b979451-5185-47cf-8e88-2ea98c17cd69","ios":"levelo://app?vid=9b979451-5185-47cf-8e88-2ea98c17cd69"},"vehicle_type_id":"4","last_reported":1729501840,"current_range_meters":30800,"station_id":"ce4bgs12rcd13ifvqcag","pricing_plan_id":"cebpf4jnsgd1na2vs0mg"},{"bike_id":"05ab12f4-17ec-40eb-92c9-b9362cb8e0a3","system_id":"levelo_inurba_marseille","lat":43.2842,"lon":5.34981,"is_reserved":false,"is_disabled":false,"rental_uris":{"android":"levelo://app?vid=05ab12f4-17ec-40eb-92c9-b9362cb8e0a3","ios":"levelo://app?vid=05ab12f4-17ec-40eb-92c9-b9362cb8e0a3"},"vehicle_type_id":"4","last_reported":1729501840,"current_range_meters":36000,"station_id":"ce4bhbh2rcd13ifvqepg","pricing_plan_id":"cebpf4jnsgd1na2vs0mg"},{"bike_id":"2bc45ef0-0980-48ee-92a9-6282b5294270","system_id":"levelo_inurba_marseille","lat":43.30142,"lon":5.37418,"is_reserved":false,"is_disabled":false,"rental_uris":{"android":"levelo://app?vid=2bc45ef0-0980-48ee-92a9-6282b5294270","ios":"levelo://app?vid=2bc45ef0-0980-48ee-92a9-6282b5294270"},"vehicle_type_id":"4","last_reported":1729501840,"current_range_meters":38000,"station_id":"ce4bgs92rcd13ifvqcc0","pricing_plan_id":"cebpf4jnsgd1na2vs0mg"},{"bike_id":"cfb47fb0-6bed-494a-be2a-1cf86d157230","system_id":"levelo_inurba_marseille","lat":43.29711,"lon":5.37697,"is_reserved":false,"is_disabled":false,"rental_uris":{"android":"levelo://app?vid=cfb47fb0-6bed-494a-be2a-1cf86d157230","ios":"levelo://app?vid=cfb47fb0-6bed-494a-be2a-1cf86d157230"},"vehicle_type_id":"4","last_reported":1729501840,"current_range_meters":37600,"station_id":"ce4bgkh2rcd13ifvqbl0","pricing_plan_id":"cebpf4jnsgd1na2vs0mg"},{"bike_id":"418bd683-b6c0-4394-90d1-454d0664a04c","system_id":"levelo_inurba_marseille","lat":43.33609,"lon":5.41022,"is_reserved":false,"is_disabled":false,"rental_uris":{"android":"levelo://app?vid=418bd683-b6c0-4394-90d1-454d0664a04c","ios":"levelo://app?vid=418bd683-b6c0-4394-90d1-454d0664a04c"},"vehicle_type_id":"4","last_reported":1729501840,"current_range_meters":38800,"station_id":"ce4bhqh2rcd13ifvqhmg","pricing_plan_id":"cebpf4jnsgd1na2vs0mg"},{"bike_id":"53136745-46ec-42df-a233-c8fabbec71b3","system_id":"levelo_inurba_marseille","lat":43.2984,"lon":5.36261,"is_reserved":false,"is_disabled":false,"rental_uris":{"android":"levelo://app?vid=53136745-46ec-42df-a233-c8fabbec71b3","ios":"levelo://app?vid=53136745-46ec-42df-a233-c8fabbec71b3"},"vehicle_type_id":"4","last_reported":1729501840,"current_range_meters":38800,"station_id":"ce4bgpp2rcd13ifvqc3g","pricing_plan_id":"cebpf4jnsgd1na2vs0mg"},{"bike_id":"aaf6b3b0-6fb9-4153-bb37-57af18ec9484","system_id":"levelo_inurba_marseille","lat":43.27675,"lon":5.38894,"is_reserved":false,"is_disabled":false,"rental_uris":{"android":"levelo://app?vid=aaf6b3b0-6fb9-4153-bb37-57af18ec9484","ios":"levelo://app?vid=aaf6b3b0-6fb9-4153-bb37-57af18ec9484"},"vehicle_type_id":"4","last_reported":1729501840,"current_range_meters":27600,"station_id":"ce4bhi12rcd13ifvqfo0","pricing_plan_id":"cebpf4jnsgd1na2vs0mg"},{"bike_id":"fcae2bab-33f3-4764-8301-058751f684f4","system_id":"levelo_inurba_marseille","lat":43.33605,"lon":5.41031,"is_reserved":false,"is_disabled":false,"rental_uris":{"android":"levelo://app?vid=fcae2bab-33f3-4764-8301-058751f684f4","ios":"levelo://app?vid=fcae2bab-33f3-4764-8301-058751f684f4"},"vehicle_type_id":"4","last_reported":1729501840,"current_range_meters":26800,"station_id":"ce4bhqh2rcd13ifvqhmg","pricing_plan_id":"cebpf4jnsgd1na2vs0mg"},{"bike_id":"50b835d5-1a08-4f92-b725-408544d6de39","system_id":"levelo_inurba_marseille","lat":43.29517,"lon":5.37504,"is_reserved":false,"is_disabled":false,"rental_uris":{"android":"levelo://app?vid=50b835d5-1a08-4f92-b725-408544d6de39","ios":"levelo://app?vid=50b835d5-1a08-4f92-b725-408544d6de39"},"vehicle_type_id":"4","last_reported":1729501840,"current_range_meters":28800,"station_id":"ce4bgkp2rcd13ifvqbmg","pricing_plan_id":"cebpf4jnsgd1na2vs0mg"},{"bike_id":"89203ae2-c95e-4b4a-9d06-902497ee539d","system_id":"levelo_inurba_marseille","lat":43.29277,"lon":5.40112,"is_reserved":false,"is_disabled":false,"rental_uris":{"android":"levelo://app?vid=89203ae2-c95e-4b4a-9d06-902497ee539d","ios":"levelo://app?vid=89203ae2-c95e-4b4a-9d06-902497ee539d"},"vehicle_type_id":"4","last_reported":1729501840,"current_range_meters":38400,"station_id":"ce4bh312rcd13ifvqdk0","pricing_plan_id":"cebpf4jnsgd1na2vs0mg"},{"bike_id":"72ce73d7-fd9d-4f5b-b71d-76a2be6f2932","system_id":"levelo_inurba_marseille","lat":43.33757,"lon":5.37441,"is_reserved":false,"is_disabled":false,"rental_uris":{"android":"levelo://app?vid=72ce73d7-fd9d-4f5b-b71d-76a2be6f2932","ios":"levelo://app?vid=72ce73d7-fd9d-4f5b-b71d-76a2be6f2932"},"vehicle_type_id":"4","last_reported":1729501840,"current_range_meters":4000,"station_id":"","pricing_plan_id":"cebpf4jnsgd1na2vs0mg"},{"bike_id":"75f3d9a9-89ad-4abc-9d7b-6216446ea90a","system_id":"levelo_inurba_marseille","lat":43.337444,"lon":5.374475,"is_reserved":false,"is_disabled":false,"rental_uris":{"android":"levelo://app?vid=75f3d9a9-89ad-4abc-9d7b-6216446ea90a","ios":"levelo://app?vid=75f3d9a9-89ad-4abc-9d7b-6216446ea90a"},"vehicle_type_id":"4","last_reported":1729501840,"current_range_meters":26000,"station_id":"","pricing_plan_id":"cebpf4jnsgd1na2vs0mg"},{"bike_id":"37d9ddb9-fa84-41ea-9dd9-14fb2fbb0724","system_id":"levelo_inurba_marseille","lat":43.3054,"lon":5.36537,"is_reserved":false,"is_disabled":false,"rental_uris":{"android":"levelo://app?vid=37d9ddb9-fa84-41ea-9dd9-14fb2fbb0724","ios":"levelo://app?vid=37d9ddb9-fa84-41ea-9dd9-14fb2fbb0724"},"vehicle_type_id":"4","last_reported":1729501840,"current_range_meters":24000,"station_id":"ce4bgs12rcd13ifvqcag","pricing_plan_id":"cebpf4jnsgd1na2vs0mg"},{"bike_id":"c39284f4-73d3-4a0e-bff6-655ee4a2eff9","system_id":"levelo_inurba_marseille","lat":43.30949,"lon":5.39049,"is_reserved":false,"is_disabled":false,"rental_uris":{"android":"levelo://app?vid=c39284f4-73d3-4a0e-bff6-655ee4a2eff9","ios":"levelo://app?vid=c39284f4-73d3-4a0e-bff6-655ee4a2eff9"},"vehicle_type_id":"4","last_reported":1729501840,"current_range_meters":38800,"station_id":"ce4bgup2rcd13ifvqco0","pricing_plan_id":"cebpf4jnsgd1na2vs0mg"},{"bike_id":"1a9e8cdd-16ba-419c-8108-4c14a1491d6e","system_id":"levelo_inurba_marseille","lat":43.31347,"lon":5.36714,"is_reserved":false,"is_disabled":false,"rental_uris":{"android":"levelo://app?vid=1a9e8cdd-16ba-419c-8108-4c14a1491d6e","ios":"levelo://app?vid=1a9e8cdd-16ba-419c-8108-4c14a1491d6e"},"vehicle_type_id":"4","last_reported":1729501840,"current_range_meters":32400,"station_id":"ce4bgr92rcd13ifvqc6g","pricing_plan_id":"cebpf4jnsgd1na2vs0mg"},{"bike_id":"099bdd2c-06c5-4650-beb3-68fcdb0a3341","system_id":"levelo_inurba_marseille","lat":43.30951,"lon":5.3904,"is_reserved":false,"is_disabled":false,"rental_uris":{"android":"levelo://app?vid=099bdd2c-06c5-4650-beb3-68fcdb0a3341","ios":"levelo://app?vid=099bdd2c-06c5-4650-beb3-68fcdb0a3341"},"vehicle_type_id":"4","last_reported":1729501840,"current_range_meters":38800,"station_id":"ce4bgup2rcd13ifvqco0","pricing_plan_id":"cebpf4jnsgd1na2vs0mg"},{"bike_id":"01ec15a5-85be-4118-abbc-9bcb396b0f3d","system_id":"levelo_inurba_marseille","lat":43.254456,"lon":5.380613,"is_reserved":false,"is_disabled":false,"rental_uris":{"android":"levelo://app?vid=01ec15a5-85be-4118-abbc-9bcb396b0f3d","ios":"levelo://app?vid=01ec15a5-85be-4118-abbc-9bcb396b0f3d"},"vehicle_type_id":"4","last_reported":1729501840,"current_range_meters":18800,"station_id":"ce4bgkp2rcd13ifvqbmg","pricing_plan_id":"cebpf4jnsgd1na2vs0mg"},{"bike_id":"9282e988-9816-43ca-9516-81c6d9a6058f","system_id":"levelo_inurba_marseille","lat":43.29016,"lon":5.38138,"is_reserved":false,"is_disabled":false,"rental_uris":{"android":"levelo://app?vid=9282e988-9816-43ca-9516-81c6d9a6058f","ios":"levelo://app?vid=9282e988-9816-43ca-9516-81c6d9a6058f"},"vehicle_type_id":"4","last_reported":1729501840,"current_range_meters":22400,"station_id":"ce4bh4p2rcd13ifvqe1g","pricing_plan_id":"cebpf4jnsgd1na2vs0mg"},{"bike_id":"ae767b60-3bf2-4300-a6a2-5a5b49e939d5","system_id":"levelo_inurba_marseille","lat":43.2971,"lon":5.36585,"is_reserved":false,"is_disabled":false,"rental_uris":{"android":"levelo://app?vid=ae767b60-3bf2-4300-a6a2-5a5b49e939d5","ios":"levelo://app?vid=ae767b60-3bf2-4300-a6a2-5a5b49e939d5"},"vehicle_type_id":"4","last_reported":1729501840,"current_range_meters":38400,"station_id":"ce4bgrh2rcd13ifvqc8g","pricing_plan_id":"cebpf4jnsgd1na2vs0mg"},{"bike_id":"7bf4eac7-b54a-4766-8a72-a30fb194e7c2","system_id":"levelo_inurba_marseille","lat":43.30548,"lon":5.36534,"is_reserved":false,"is_disabled":false,"rental_uris":{"android":"levelo://app?vid=7bf4eac7-b54a-4766-8a72-a30fb194e7c2","ios":"levelo://app?vid=7bf4eac7-b54a-4766-8a72-a30fb194e7c2"},"vehicle_type_id":"4","last_reported":1729501840,"current_range_meters":30800,"station_id":"ce4bgs12rcd13ifvqcag","pricing_plan_id":"cebpf4jnsgd1na2vs0mg"},{"bike_id":"62081fb8-4276-46d4-9604-7fe2920adcfb","system_id":"levelo_inurba_marseille","lat":43.26677,"lon":5.38268,"is_reserved":false,"is_disabled":false,"rental_uris":{"android":"levelo://app?vid=62081fb8-4276-46d4-9604-7fe2920adcfb","ios":"levelo://app?vid=62081fb8-4276-46d4-9604-7fe2920adcfb"},"vehicle_type_id":"4","last_reported":1729501840,"current_range_meters":16400,"station_id":"ce4bhg92rcd13ifvqf90","pricing_plan_id":"cebpf4jnsgd1na2vs0mg"},{"bike_id":"b7b88c20-288d-4b5a-894f-ffcef6ecffbc","system_id":"levelo_inurba_marseille","lat":43.27202,"lon":5.39188,"is_reserved":false,"is_disabled":false,"rental_uris":{"android":"levelo://app?vid=b7b88c20-288d-4b5a-894f-ffcef6ecffbc","ios":"levelo://app?vid=b7b88c20-288d-4b5a-894f-ffcef6ecffbc"},"vehicle_type_id":"4","last_reported":1729501840,"current_range_meters":23200,"station_id":"ce4bhhp2rcd13ifvqfm0","pricing_plan_id":"cebpf4jnsgd1na2vs0mg"},{"bike_id":"8c489d6a-8c5d-4ace-8ce1-8ade01fdb678","system_id":"levelo_inurba_marseille","lat":43.26686,"lon":5.38269,"is_reserved":false,"is_disabled":false,"rental_uris":{"android":"levelo://app?vid=8c489d6a-8c5d-4ace-8ce1-8ade01fdb678","ios":"levelo://app?vid=8c489d6a-8c5d-4ace-8ce1-8ade01fdb678"},"vehicle_type_id":"4","last_reported":1729501840,"current_range_meters":38000,"station_id":"ce4bhg92rcd13ifvqf90","pricing_plan_id":"cebpf4jnsgd1na2vs0mg"},{"bike_id":"f3099d68-0947-4b08-8882-1b44d08d49f7","system_id":"levelo_inurba_marseille","lat":43.3031,"lon":5.36909,"is_reserved":false,"is_disabled":false,"rental_uris":{"android":"levelo://app?vid=f3099d68-0947-4b08-8882-1b44d08d49f7","ios":"levelo://app?vid=f3099d68-0947-4b08-8882-1b44d08d49f7"},"vehicle_type_id":"4","last_reported":1729501840,"current_range_meters":35200,"station_id":"ce4bgqh2rcd13ifvqc5g","pricing_plan_id":"cebpf4jnsgd1na2vs0mg"},{"bike_id":"2e31d8fa-3fe5-4fba-9403-f6f83112273d","system_id":"levelo_inurba_marseille","lat":43.24181,"lon":5.3973,"is_reserved":false,"is_disabled":false,"rental_uris":{"android":"levelo://app?vid=2e31d8fa-3fe5-4fba-9403-f6f83112273d","ios":"levelo://app?vid=2e31d8fa-3fe5-4fba-9403-f6f83112273d"},"vehicle_type_id":"4","last_reported":1729501840,"current_range_meters":16000,"station_id":"ce4bhn12rcd13ifvqgpg","pricing_plan_id":"cebpf4jnsgd1na2vs0mg"},{"bike_id":"4eeca87a-2d31-457e-ab85-83a25ab497de","system_id":"levelo_inurba_marseille","lat":43.288504,"lon":5.393313,"is_reserved":false,"is_disabled":false,"rental_uris":{"android":"levelo://app?vid=4eeca87a-2d31-457e-ab85-83a25ab497de","ios":"levelo://app?vid=4eeca87a-2d31-457e-ab85-83a25ab497de"},"vehicle_type_id":"4","last_reported":1729501840,"current_range_meters":38800,"station_id":"ce4bh2p2rcd13ifvqdi0","pricing_plan_id":"cebpf4jnsgd1na2vs0mg"},{"bike_id":"8b0635f3-322e-4b6b-ba58-8e7df6833f72","system_id":"levelo_inurba_marseille","lat":43.33724,"lon":5.3918,"is_reserved":false,"is_disabled":false,"rental_uris":{"android":"levelo://app?vid=8b0635f3-322e-4b6b-ba58-8e7df6833f72","ios":"levelo://app?vid=8b0635f3-322e-4b6b-ba58-8e7df6833f72"},"vehicle_type_id":"4","last_reported":1729501840,"current_range_meters":38400,"station_id":"ce4bhr92rcd13ifvqhsg","pricing_plan_id":"cebpf4jnsgd1na2vs0mg"},{"bike_id":"b14e3a93-4255-40e8-99c0-0940d5f69c10","system_id":"levelo_inurba_marseille","lat":43.24079,"lon":5.37749,"is_reserved":false,"is_disabled":false,"rental_uris":{"android":"levelo://app?vid=b14e3a93-4255-40e8-99c0-0940d5f69c10","ios":"levelo://app?vid=b14e3a93-4255-40e8-99c0-0940d5f69c10"},"vehicle_type_id":"4","last_reported":1729501840,"current_range_meters":27600,"station_id":"ce4bhnp2rcd13ifvqgvg","pricing_plan_id":"cebpf4jnsgd1na2vs0mg"},{"bike_id":"0540830f-71f4-4849-8d06-63bd57143a69","system_id":"levelo_inurba_marseille","lat":43.30905,"lon":5.36849,"is_reserved":false,"is_disabled":false,"rental_uris":{"android":"levelo://app?vid=0540830f-71f4-4849-8d06-63bd57143a69","ios":"levelo://app?vid=0540830f-71f4-4849-8d06-63bd57143a69"},"vehicle_type_id":"4","last_reported":1729501840,"current_range_meters":33200,"station_id":"ce4bgn92rcd13ifvqbvg","pricing_plan_id":"cebpf4jnsgd1na2vs0mg"},{"bike_id":"edeaf9ec-a2db-438a-8dc3-3deb474329f6","system_id":"levelo_inurba_marseille","lat":43.27615,"lon":5.36113,"is_reserved":false,"is_disabled":false,"rental_uris":{"android":"levelo://app?vid=edeaf9ec-a2db-438a-8dc3-3deb474329f6","ios":"levelo://app?vid=edeaf9ec-a2db-438a-8dc3-3deb474329f6"},"vehicle_type_id":"4","last_reported":1729501840,"current_range_meters":39200,"station_id":"ce4bgj92rcd13ifvqbe0","pricing_plan_id":"cebpf4jnsgd1na2vs0mg"},{"bike_id":"93a94103-19a0-447f-ad9d-6cb5f148a9ff","system_id":"levelo_inurba_marseille","lat":43.31348,"lon":5.36709,"is_reserved":false,"is_disabled":false,"rental_uris":{"android":"levelo://app?vid=93a94103-19a0-447f-ad9d-6cb5f148a9ff","ios":"levelo://app?vid=93a94103-19a0-447f-ad9d-6cb5f148a9ff"},"vehicle_type_id":"4","last_reported":1729501840,"current_range_meters":18800,"station_id":"ce4bgr92rcd13ifvqc6g","pricing_plan_id":"cebpf4jnsgd1na2vs0mg"},{"bike_id":"e91a6883-bb45-4c1e-a0b5-c790219ee2f7","system_id":"levelo_inurba_marseille","lat":43.29309,"lon":5.37157,"is_reserved":false,"is_disabled":false,"rental_uris":{"android":"levelo://app?vid=e91a6883-bb45-4c1e-a0b5-c790219ee2f7","ios":"levelo://app?vid=e91a6883-bb45-4c1e-a0b5-c790219ee2f7"},"vehicle_type_id":"4","last_reported":1729501840,"current_range_meters":37600,"station_id":"ce4bgh92rcd13ifvqb40","pricing_plan_id":"cebpf4jnsgd1na2vs0mg"},{"bike_id":"bc9f1010-ea70-4776-bd0c-aa154cc7d4be","system_id":"levelo_inurba_marseille","lat":43.24997,"lon":5.38923,"is_reserved":false,"is_disabled":false,"rental_uris":{"android":"levelo://app?vid=bc9f1010-ea70-4776-bd0c-aa154cc7d4be","ios":"levelo://app?vid=bc9f1010-ea70-4776-bd0c-aa154cc7d4be"},"vehicle_type_id":"4","last_reported":1729501840,"current_range_meters":22800,"station_id":"ce4bhgp2rcd13ifvqfd0","pricing_plan_id":"cebpf4jnsgd1na2vs0mg"},{"bike_id":"09c742b9-67aa-44f1-b833-7cf3d42021e8","system_id":"levelo_inurba_marseille","lat":43.25575,"lon":5.38228,"is_reserved":false,"is_disabled":false,"rental_uris":{"android":"levelo://app?vid=09c742b9-67aa-44f1-b833-7cf3d42021e8","ios":"levelo://app?vid=09c742b9-67aa-44f1-b833-7cf3d42021e8"},"vehicle_type_id":"4","last_reported":1729501840,"current_range_meters":32800,"station_id":"ce4bhih2rcd13ifvqfs0","pricing_plan_id":"cebpf4jnsgd1na2vs0mg"},{"bike_id":"54ba06b5-cc61-4914-b545-edd2f2c0e593","system_id":"levelo_inurba_marseille","lat":43.30461,"lon":5.37901,"is_reserved":false,"is_disabled":false,"rental_uris":{"android":"levelo://app?vid=54ba06b5-cc61-4914-b545-edd2f2c0e593","ios":"levelo://app?vid=54ba06b5-cc61-4914-b545-edd2f2c0e593"},"vehicle_type_id":"4","last_reported":1729501840,"current_range_meters":37600,"station_id":"ce4bgup2rcd13ifvqcn0","pricing_plan_id":"cebpf4jnsgd1na2vs0mg"},{"bike_id":"577c93b0-3eff-4d01-80b9-30e52b8eab98","system_id":"levelo_inurba_marseille","lat":43.25864,"lon":5.39898,"is_reserved":false,"is_disabled":false,"rental_uris":{"android":"levelo://app?vid=577c93b0-3eff-4d01-80b9-30e52b8eab98","ios":"levelo://app?vid=577c93b0-3eff-4d01-80b9-30e52b8eab98"},