{"last_updated":1750244987,"ttl":60,"version":"2.2","data":{"bikes":[{"bike_id":"3da29fb8-fc97-44c6-b9ac-31dd456b2fd4","system_id":"levelo_inurba_marseille","lat":43.33771,"lon":5.37424,"is_reserved":false,"is_disabled":true,"rental_uris":{"android":"levelo://app?vid=3da29fb8-fc97-44c6-b9ac-31dd456b2fd4","ios":"levelo://app?vid=3da29fb8-fc97-44c6-b9ac-31dd456b2fd4"},"vehicle_type_id":"4","last_reported":1750244988,"current_range_meters":0,"station_id":"","pricing_plan_id":"cebpf4jnsgd1na2vs0mg"},{"bike_id":"01861ad8-a8d7-4be6-816e-651927c87584","system_id":"levelo_inurba_marseille","lat":43.33751,"lon":5.37456,"is_reserved":false,"is_disabled":true,"rental_uris":{"android":"levelo://app?vid=01861ad8-a8d7-4be6-816e-651927c87584","ios":"levelo://app?vid=01861ad8-a8d7-4be6-816e-651927c87584"},"vehicle_type_id":"4","last_reported":1750244988,"current_range_meters":0,"station_id":"","pricing_plan_id":"cebpf4jnsgd1na2vs0mg"},{"bike_id":"dbfce7a3-3423-4296-b193-a177dea644ac","system_id":"levelo_inurba_marseille","lat":43.272863,"lon":5.416051,"is_reserved":false,"is_disabled":true,"rental_uris":{"android":"levelo://app?vid=dbfce7a3-3423-4296-b193-a177dea644ac","ios":"levelo://app?vid=dbfce7a3-3423-4296-b193-a177dea644ac"},"vehicle_type_id":"4","last_reported":1750244988,"current_range_meters":0,"station_id":"","pricing_plan_id":"cebpf4jnsgd1na2vs0mg"},{"bike_id":"d2bd57c8-6b64-48db-ad24-5398eb3fd9d6","system_id":"levelo_inurba_marseille","lat":43.337444,"lon":5.374475,"is_reserved":false,"is_disabled":true,"rental_uris":{"android":"levelo://app?vid=d2bd57c8-6b64-48db-ad24-5398eb3fd9d6","ios":"levelo://app?vid=d2bd57c8-6b64-48db-ad24-5398eb3fd9d6"},"vehicle_type_id":"4","last_reported":1750244988,"current_range_meters":0,"station_id":"","pricing_plan_id":"cebpf4jnsgd1na2vs0mg"},{"bike_id":"62a493c7-4534-4419-ad43-0582de34a72a","system_id":"levelo_inurba_marseille","lat":43.21366,"lon":5.355183,"is_reserved":false,"is_disabled":true,"rental_uris":{"android":"levelo://app?vid=62a493c7-4534-4419-ad43-0582de34a72a","ios":"levelo://app?vid=62a493c7-4534-4419-ad43-0582de34a72a"},"vehicle_type_id":"4","last_reported":1750244988,"current_range_meters":0,"station_id":"","pricing_plan_id":"cebpf4jnsgd1na2vs0mg"},{"bike_id":"b9e37238-9abe-4b8b-b932-edaee33a7e59","system_id":"levelo_inurba_marseille","lat":43.27511,"lon":5.39008,"is_reserved":false,"is_disabled":true,"rental_uris":{"android":"levelo://app?vid=b9e37238-9abe-4b8b-b932-edaee33a7e59","ios":"levelo://app?vid=b9e37238-9abe-4b8b-b932-edaee33a7e59"},"vehicle_type_id":"4","last_reported":1750244988,"current_range_meters":0,"station_id":"","pricing_plan_id":"cebpf4jnsgd1na2vs0mg"},{"bike_id":"cba28a02-9f06-41dd-8645-e3bd321e07ba","system_id":"levelo_inurba_marseille","lat":43.2878,"lon":5.38655,"is_reserved":false,"is_disabled":true,"rental_uris":{"android":"levelo://app?vid=cba28a02-9f06-41dd-8645-e3bd321e07ba","ios":"levelo://app?vid=cba28a02-9f06-41dd-8645-e3bd321e07ba"},"vehicle_type_id":"4","last_reported":1750244988,"current_range_meters":0,"station_id":"","pricing_plan_id":"cebpf4jnsgd1na2vs0mg"},{"bike_id":"dba623ec-664c-4621-8832-8f9cf82566ea","system_id":"levelo_inurba_marseille","lat":43.28014,"lon":5.36864,"is_reserved":false,"is_disabled":true,"rental_uris":{"android":"levelo://app?vid=dba623ec-664c-4621-8832-8f9cf82566ea","ios":"levelo://app?vid=dba623ec-664c-4621-8832-8f9cf82566ea"},"vehicle_type_id":"4","last_reported":1750244988,"current_range_meters":0,"station_id":"","pricing_plan_id":"cebpf4jnsgd1na2vs0mg"},{"bike_id":"8ad9234e-001a-4549-8bba-9baf2ef98804","system_id":"levelo_inurba_marseille","lat":43.27423,"lon":5.39787,"is_reserved":false,"is_disabled":true,"rental_uris":{"android":"levelo://app?vid=8ad9234e-001a-4549-8bba-9baf2ef98804","ios":"levelo://app?vid=8ad9234e-001a-4549-8bba-9baf2ef98804"},"vehicle_type_id":"4","last_reported":1750244988,"current_range_meters":0,"station_id":"","pricing_plan_id":"cebpf4jnsgd1na2vs0mg"},{"bike_id":"93af304b-67b5-47b8-a3fd-e0775f7cde8c","system_id":"levelo_inurba_marseille","lat":43.215301,"lon":5.347406,"is_reserved":false,"is_disabled":true,"rental_uris":{"android":"levelo://app?vid=93af304b-67b5-47b8-a3fd-e0775f7cde8c","ios":"levelo://app?vid=93af304b-67b5-47b8-a3fd-e0775f7cde8c"},"vehicle_type_id":"4","last_reported":1750244988,"current_range_meters":0,"station_id":"","pricing_plan_id":"cebpf4jnsgd1na2vs0mg"},{"bike_id":"d6609b4f-333b-43c1-9ebe-8726f5e76e88","system_id":"levelo_inurba_marseille","lat":43.337444,"lon":5.374475,"is_reserved":false,"is_disabled":true,"rental_uris":{"android":"levelo://app?vid=d6609b4f-333b-43c1-9ebe-8726f5e76e88","ios":"levelo://app?vid=d6609b4f-333b-43c1-9ebe-8726f5e76e88"},"vehicle_type_id":"4","last_reported":1750244988,"current_range_meters":0,"station_id":"","pricing_plan_id":"cebpf4jnsgd1na2vs0mg"},{"bike_id":"57c83ce1-960e-466a-b6c5-d93bc130c53a","system_id":"levelo_inurba_marseille","lat":43.24941,"lon":5.39007,"is_reserved":false,"is_disabled":true,"rental_uris":{"android":"levelo://app?vid=57c83ce1-960e-466a-b6c5-d93bc130c53a","ios":"levelo://app?vid=57c83ce1-960e-466a-b6c5-d93bc130c53a"},"vehicle_type_id":"4","last_reported":1750244988,"current_range_meters":0,"station_id":"","pricing_plan_id":"cebpf4jnsgd1na2vs0mg"},{"bike_id":"8820a904-d0a2-4415-8adb-5bad88b146f3","system_id":"levelo_inurba_marseille","lat":43.2997,"lon":5.38502,"is_reserved":false,"is_disabled":true,"rental_uris":{"android":"levelo://app?vid=8820a904-d0a2-4415-8adb-5bad88b146f3","ios":"levelo://app?vid=8820a904-d0a2-4415-8adb-5bad88b146f3"},"vehicle_type_id":"4","last_reported":1750244988,"current_range_meters":0,"station_id":"ce4bgj92rcd13ifvqbd0","pricing_plan_id":"cebpf4jnsgd1na2vs0mg"},{"bike_id":"49d12d32-410f-44e4-a5a5-f785950cd9be","system_id":"levelo_inurba_marseille","lat":43.306,"lon":5.37186,"is_reserved":false,"is_disabled":true,"rental_uris":{"android":"levelo://app?vid=49d12d32-410f-44e4-a5a5-f785950cd9be","ios":"levelo://app?vid=49d12d32-410f-44e4-a5a5-f785950cd9be"},"vehicle_type_id":"4","last_reported":1750244988,"current_range_meters":0,"station_id":"ce4bgqh2rcd13ifvqc4g","pricing_plan_id":"cebpf4jnsgd1na2vs0mg"},{"bike_id":"7c524447-6b49-45c8-bdf0-85ad1c55ea66","system_id":"levelo_inurba_marseille","lat":43.31487,"lon":5.37317,"is_reserved":false,"is_disabled":true,"rental_uris":{"android":"levelo://app?vid=7c524447-6b49-45c8-bdf0-85ad1c55ea66","ios":"levelo://app?vid=7c524447-6b49-45c8-bdf0-85ad1c55ea66"},"vehicle_type_id":"4","last_reported":1750244988,"current_range_meters":0,"station_id":"ce4bgt12rcd13ifvqcd0","pricing_plan_id":"cebpf4jnsgd1na2vs0mg"},{"bike_id":"871f7dee-53f1-4596-ad11-4037e11ef023","system_id":"levelo_inurba_marseille","lat":43.3023,"lon":5.40046,"is_reserved":false,"is_disabled":true,"rental_uris":{"android":"levelo://app?vid=871f7dee-53f1-4596-ad11-4037e11ef023","ios":"levelo://app?vid=871f7dee-53f1-4596-ad11-4037e11ef023"},"vehicle_type_id":"4","last_reported":1750244988,"current_range_meters":0,"station_id":"ce4bgvh2rcd13ifvqcs0","pricing_plan_id":"cebpf4jnsgd1na2vs0mg"},{"bike_id":"6df53f48-0a97-42ae-ba15-0a0d1cbe93e8","system_id":"levelo_inurba_marseille","lat":43.29051,"lon":5.39975,"is_reserved":false,"is_disabled":true,"rental_uris":{"android":"levelo://app?vid=6df53f48-0a97-42ae-ba15-0a0d1cbe93e8","ios":"levelo://app?vid=6df53f48-0a97-42ae-ba15-0a0d1cbe93e8"},"vehicle_type_id":"4","last_reported":1750244988,"current_range_meters":0,"station_id":"ce4bh392rcd13ifvqdm0","pricing_plan_id":"cebpf4jnsgd1na2vs0mg"},{"bike_id":"d86228ca-d2fe-4406-a4b4-9e57ac8fe9c6","system_id":"levelo_inurba_marseille","lat":43.27376,"lon":5.36257,"is_reserved":false,"is_disabled":true,"rental_uris":{"android":"levelo://app?vid=d86228ca-d2fe-4406-a4b4-9e57ac8fe9c6","ios":"levelo://app?vid=d86228ca-d2fe-4406-a4b4-9e57ac8fe9c6"},"vehicle_type_id":"4","last_reported":1750244988,"current_range_meters":0,"station_id":"ce4bhbh2rcd13ifvqeo0","pricing_plan_id":"cebpf4jnsgd1na2vs0mg"},{"bike_id":"1f61ad06-ec57-40a2-be71-99fafa925028","system_id":"levelo_inurba_marseille","lat":43.265564,"lon":5.372838,"is_reserved":false,"is_disabled":true,"rental_uris":{"android":"levelo://app?vid=1f61ad06-ec57-40a2-be71-99fafa925028","ios":"levelo://app?vid=1f61ad06-ec57-40a2-be71-99fafa925028"},"vehicle_type_id":"4","last_reported":1750244988,"current_range_meters":0,"station_id":"ce4bhg12rcd13ifvqf70","pricing_plan_id":"cebpf4jnsgd1na2vs0mg"},{"bike_id":"da0a0ff6-80d3-469f-a9da-a30900a95528","system_id":"levelo_inurba_marseille","lat":43.25497,"lon":5.37644,"is_reserved":false,"is_disabled":true,"rental_uris":{"android":"levelo://app?vid=da0a0ff6-80d3-469f-a9da-a30900a95528","ios":"levelo://app?vid=da0a0ff6-80d3-469f-a9da-a30900a95528"},"vehicle_type_id":"4","last_reported":1750244988,"current_range_meters":0,"station_id":"ce4bhh12rcd13ifvqff0","pricing_plan_id":"cebpf4jnsgd1na2vs0mg"},{"bike_id":"df248009-225c-4789-902b-ded0be819a6f","system_id":"levelo_inurba_marseille","lat":43.27205,"lon":5.39179,"is_reserved":false,"is_disabled":true,"rental_uris":{"android":"levelo://app?vid=df248009-225c-4789-902b-ded0be819a6f","ios":"levelo://app?vid=df248009-225c-4789-902b-ded0be819a6f"},"vehicle_type_id":"4","last_reported":1750244988,"current_range_meters":0,"station_id":"ce4bhhp2rcd13ifvqfm0","pricing_plan_id":"cebpf4jnsgd1na2vs0mg"},{"bike_id":"6ab1ca16-c4ac-44a0-8157-7fb72ffd7777","system_id":"levelo_inurba_marseille","lat":43.27072,"lon":5.42272,"is_reserved":false,"is_disabled":true,"rental_uris":{"android":"levelo://app?vid=6ab1ca16-c4ac-44a0-8157-7fb72ffd7777","ios":"levelo://app?vid=6ab1ca16-c4ac-44a0-8157-7fb72ffd7777"},"vehicle_type_id":"4","last_reported":1750244988,"current_range_meters":0,"station_id":"ce4bhk92rcd13ifvqgb0","pricing_plan_id":"cebpf4jnsgd1na2vs0mg"},{"bike_id":"ba9cfa8c-5b3d-4576-9f50-c06cfe3b4ae9","system_id":"levelo_inurba_marseille","lat":43.25868,"lon":5.39895,"is_reserved":false,"is_disabled":true,"rental_uris":{"android":"levelo://app?vid=ba9cfa8c-5b3d-4576-9f50-c06cfe3b4ae9","ios":"levelo://app?vid=ba9cfa8c-5b3d-4576-9f50-c06cfe3b4ae9"},"vehicle_type_id":"4","last_reported":1750244988,"current_range_meters":0,"station_id":"ce4bhl92rcd13ifvqghg","pricing_plan_id":"cebpf4jnsgd1na2vs0mg"},{"bike_id":"f86b85d1-3b8c-46b6-9bd5-225f68a3a0b2","system_id":"levelo_inurba_marseille","lat":43.316772,"lon":5.390134,"is_reserved":false,"is_disabled":true,"rental_uris":{"android":"levelo://app?vid=f86b85d1-3b8c-46b6-9bd5-225f68a3a0b2","ios":"levelo://app?vid=f86b85d1-3b8c-46b6-9bd5-225f68a3a0b2"},"vehicle_type_id":"4","last_reported":1750244988,"current_range_meters":0,"station_id":"ce4bhqp2rcd13ifvqhng","pricing_plan_id":"cebpf4jnsgd1na2vs0mg"},{"bike_id":"2ec791df-bd24-4766-bc0e-45b4a48f1bad","system_id":"levelo_inurba_marseille","lat":43.30175,"lon":5.39774,"is_reserved":false,"is_disabled":true,"rental_uris":{"android":"levelo://app?vid=2ec791df-bd24-4766-bc0e-45b4a48f1bad","ios":"levelo://app?vid=2ec791df-bd24-4766-bc0e-45b4a48f1bad"},"vehicle_type_id":"4","last_reported":1750244988,"current_range_meters":400,"station_id":"","pricing_plan_id":"cebpf4jnsgd1na2vs0mg"},{"bike_id":"4665d4c3-eba4-4f4b-bd18-0ac116ee302a","system_id":"levelo_inurba_marseille","lat":43.30126,"lon":5.38784,"is_reserved":false,"is_disabled":true,"rental_uris":{"android":"levelo://app?vid=4665d4c3-eba4-4f4b-bd18-0ac116ee302a","ios":"levelo://app?vid=4665d4c3-eba4-4f4b-bd18-0ac116ee302a"},"vehicle_type_id":"4","last_reported":1750244988,"current_range_meters":400,"station_id":"ce4bghh2rcd13ifvqb60","pricing_plan_id":"cebpf4jnsgd1na2vs0mg"},{"bike_id":"e6940425-e858-4649-ab79-726043ecfe20","system_id":"levelo_inurba_marseille","lat":43.25498,"lon":5.37654,"is_reserved":false,"is_disabled":true,"rental_uris":{"android":"levelo://app?vid=e6940425-e858-4649-ab79-726043ecfe20","ios":"levelo://app?vid=e6940425-e858-4649-ab79-726043ecfe20"},"vehicle_type_id":"4","last_reported":1750244988,"current_range_meters":400,"station_id":"ce4bhh12rcd13ifvqff0","pricing_plan_id":"cebpf4jnsgd1na2vs0mg"},{"bike_id":"823a0a62-1827-489e-8364-b540e07e5f8a","system_id":"levelo_inurba_marseille","lat":43.303247,"lon":5.40442,"is_reserved":false,"is_disabled":true,"rental_uris":{"android":"levelo://app?vid=823a0a62-1827-489e-8364-b540e07e5f8a","ios":"levelo://app?vid=823a0a62-1827-489e-8364-b540e07e5f8a"},"vehicle_type_id":"4","last_reported":1750244988,"current_range_meters":800,"station_id":"ce4bh012rcd13ifvqd10","pricing_plan_id":"cebpf4jnsgd1na2vs0mg"},{"bike_id":"ae0021d7-121e-4915-8184-c0fb0af89853","system_id":"levelo_inurba_marseille","lat":43.286102,"lon":5.351066,"is_reserved":false,"is_disabled":false,"rental_uris":{"android":"levelo://app?vid=ae0021d7-121e-4915-8184-c0fb0af89853","ios":"levelo://app?vid=ae0021d7-121e-4915-8184-c0fb0af89853"},"vehicle_type_id":"4","last_reported":1750244988,"current_range_meters":800,"station_id":"ce4bhch2rcd13ifvqeug","pricing_plan_id":"cebpf4jnsgd1na2vs0mg"},{"bike_id":"950b799e-0a6e-4094-95a7-55a4d7b840de","system_id":"levelo_inurba_marseille","lat":43.26677,"lon":5.38294,"is_reserved":false,"is_disabled":true,"rental_uris":{"android":"levelo://app?vid=950b799e-0a6e-4094-95a7-55a4d7b840de","ios":"levelo://app?vid=950b799e-0a6e-4094-95a7-55a4d7b840de"},"vehicle_type_id":"4","last_reported":1750244988,"current_range_meters":800,"station_id":"ce4bhg92rcd13ifvqf90","pricing_plan_id":"cebpf4jnsgd1na2vs0mg"},{"bike_id":"55695c08-0e8d-4bea-81a5-cc78f3283e0c","system_id":"levelo_inurba_marseille","lat":43.23179,"lon":5.39988,"is_reserved":false,"is_disabled":true,"rental_uris":{"android":"levelo://app?vid=55695c08-0e8d-4bea-81a5-cc78f3283e0c","ios":"levelo://app?vid=55695c08-0e8d-4bea-81a5-cc78f3283e0c"},"vehicle_type_id":"4","last_reported":1750244988,"current_range_meters":800,"station_id":"ce4bhn12rcd13ifvqgqg","pricing_plan_id":"cebpf4jnsgd1na2vs0mg"},{"bike_id":"10d1712e-bd7b-4017-8d22-d5eee3b1faf0","system_id":"levelo_inurba_marseille","lat":43.28703,"lon":5.39992,"is_reserved":false,"is_disabled":false,"rental_uris":{"android":"levelo://app?vid=10d1712e-bd7b-4017-8d22-d5eee3b1faf0","ios":"levelo://app?vid=10d1712e-bd7b-4017-8d22-d5eee3b1faf0"},"vehicle_type_id":"4","last_reported":1750244988,"current_range_meters":800,"station_id":"ce4bho92rcd13ifvqh3g","pricing_plan_id":"cebpf4jnsgd1na2vs0mg"},{"bike_id":"3ed4b4ca-c1d4-40fc-8d09-6bda96468351","system_id":"levelo_inurba_marseille","lat":43.30788,"lon":5.38176,"is_reserved":false,"is_disabled":true,"rental_uris":{"android":"levelo://app?vid=3ed4b4ca-c1d4-40fc-8d09-6bda96468351","ios":"levelo://app?vid=3ed4b4ca-c1d4-40fc-8d09-6bda96468351"},"vehicle_type_id":"4","last_reported":1750244988,"current_range_meters":1200,"station_id":"ce4bgt12rcd13ifvqce0","pricing_plan_id":"cebpf4jnsgd1na2vs0mg"},{"bike_id":"bef20de3-db35-4fae-805e-69b04890df3b","system_id":"levelo_inurba_marseille","lat":43.28844,"lon":5.39304,"is_reserved":false,"is_disabled":true,"rental_uris":{"android":"levelo://app?vid=bef20de3-db35-4fae-805e-69b04890df3b","ios":"levelo://app?vid=bef20de3-db35-4fae-805e-69b04890df3b"},"vehicle_type_id":"4","last_reported":1750244988,"current_range_meters":1200,"station_id":"ce4bh2p2rcd13ifvqdi0","pricing_plan_id":"cebpf4jnsgd1na2vs0mg"},{"bike_id":"91ea9959-0604-4159-bfa1-922a3e143e9c","system_id":"levelo_inurba_marseille","lat":43.28681,"lon":5.386573,"is_reserved":false,"is_disabled":true,"rental_uris":{"android":"levelo://app?vid=91ea9959-0604-4159-bfa1-922a3e143e9c","ios":"levelo://app?vid=91ea9959-0604-4159-bfa1-922a3e143e9c"},"vehicle_type_id":"4","last_reported":1750244988,"current_range_meters":1200,"station_id":"ce4bh492rcd13ifvqdug","pricing_plan_id":"cebpf4jnsgd1na2vs0mg"},{"bike_id":"b6070404-8ab1-4e4a-84fb-6de0ee21c458","system_id":"levelo_inurba_marseille","lat":43.29236,"lon":5.38435,"is_reserved":false,"is_disabled":true,"rental_uris":{"android":"levelo://app?vid=b6070404-8ab1-4e4a-84fb-6de0ee21c458","ios":"levelo://app?vid=b6070404-8ab1-4e4a-84fb-6de0ee21c458"},"vehicle_type_id":"4","last_reported":1750244988,"current_range_meters":1200,"station_id":"ce4bh692rcd13ifvqea0","pricing_plan_id":"cebpf4jnsgd1na2vs0mg"},{"bike_id":"0d476d7d-86bf-44c8-9128-0b17821f2392","system_id":"levelo_inurba_marseille","lat":43.28933,"lon":5.3664,"is_reserved":false,"is_disabled":true,"rental_uris":{"android":"levelo://app?vid=0d476d7d-86bf-44c8-9128-0b17821f2392","ios":"levelo://app?vid=0d476d7d-86bf-44c8-9128-0b17821f2392"},"vehicle_type_id":"4","last_reported":1750244988,"current_range_meters":1200,"station_id":"ce4bhap2rcd13ifvqek0","pricing_plan_id":"cebpf4jnsgd1na2vs0mg"},{"bike_id":"7b0a08dc-a195-4865-a91a-375ab37a3c37","system_id":"levelo_inurba_marseille","lat":43.26558,"lon":5.37281,"is_reserved":false,"is_disabled":true,"rental_uris":{"android":"levelo://app?vid=7b0a08dc-a195-4865-a91a-375ab37a3c37","ios":"levelo://app?vid=7b0a08dc-a195-4865-a91a-375ab37a3c37"},"vehicle_type_id":"4","last_reported":1750244988,"current_range_meters":1200,"station_id":"ce4bhg12rcd13ifvqf70","pricing_plan_id":"cebpf4jnsgd1na2vs0mg"},{"bike_id":"c388ba51-fc3b-4acd-8c3f-9c34697c2e64","system_id":"levelo_inurba_marseille","lat":43.25718,"lon":5.41107,"is_reserved":false,"is_disabled":true,"rental_uris":{"android":"levelo://app?vid=c388ba51-fc3b-4acd-8c3f-9c34697c2e64","ios":"levelo://app?vid=c388ba51-fc3b-4acd-8c3f-9c34697c2e64"},"vehicle_type_id":"4","last_reported":1750244988,"current_range_meters":1200,"station_id":"ce4bhkp2rcd13ifvqgd0","pricing_plan_id":"cebpf4jnsgd1na2vs0mg"},{"bike_id":"ea1c61b2-a949-4eb1-9ea9-571787fc50ee","system_id":"levelo_inurba_marseille","lat":43.24166,"lon":5.3639,"is_reserved":false,"is_disabled":true,"rental_uris":{"android":"levelo://app?vid=ea1c61b2-a949-4eb1-9ea9-571787fc50ee","ios":"levelo://app?vid=ea1c61b2-a949-4eb1-9ea9-571787fc50ee"},"vehicle_type_id":"4","last_reported":1750244988,"current_range_meters":2000,"station_id":"cpo36qri1sfpv3e86is0","pricing_plan_id":"cebpf4jnsgd1na2vs0mg"},{"bike_id":"2395248d-0fef-4e4f-ba8e-f8283c94ae53","system_id":"levelo_inurba_marseille","lat":43.31237,"lon":5.39518,"is_reserved":false,"is_disabled":false,"rental_uris":{"android":"levelo://app?vid=2395248d-0fef-4e4f-ba8e-f8283c94ae53","ios":"levelo://app?vid=2395248d-0fef-4e4f-ba8e-f8283c94ae53"},"vehicle_type_id":"4","last_reported":1750244988,"current_range_meters":2800,"station_id":"","pricing_plan_id":"cebpf4jnsgd1na2vs0mg"},{"bike_id":"5527c338-dafe-41aa-a184-c99f34b4ee4c","system_id":"levelo_inurba_marseille","lat":43.27943,"lon":5.41043,"is_reserved":false,"is_disabled":false,"rental_uris":{"android":"levelo://app?vid=5527c338-dafe-41aa-a184-c99f34b4ee4c","ios":"levelo://app?vid=5527c338-dafe-41aa-a184-c99f34b4ee4c"},"vehicle_type_id":"4","last_reported":1750244988,"current_range_meters":2800,"station_id":"ce4bhnp2rcd13ifvqh0g","pricing_plan_id":"cebpf4jnsgd1na2vs0mg"},{"bike_id":"47196f00-388f-4b3b-a4de-3dba126cd107","system_id":"levelo_inurba_marseille","lat":43.24351,"lon":5.41144,"is_reserved":false,"is_disabled":false,"rental_uris":{"android":"levelo://app?vid=47196f00-388f-4b3b-a4de-3dba126cd107","ios":"levelo://app?vid=47196f00-388f-4b3b-a4de-3dba126cd107"},"vehicle_type_id":"4","last_reported":1750244988,"current_range_meters":3200,"station_id":"","pricing_plan_id":"cebpf4jnsgd1na2vs0mg"},{"bike_id":"0eb847d7-4aae-442a-857e-27d2ae6bcede","system_id":"levelo_inurba_marseille","lat":43.30144,"lon":5.37408,"is_reserved":false,"is_disabled":false,"rental_uris":{"android":"levelo://app?vid=0eb847d7-4aae-442a-857e-27d2ae6bcede","ios":"levelo://app?vid=0eb847d7-4aae-442a-857e-27d2ae6bcede"},"vehicle_type_id":"4","last_reported":1750244988,"current_range_meters":3200,"station_id":"ce4bgs92rcd13ifvqcc0","pricing_plan_id":"cebpf4jnsgd1na2vs0mg"},{"bike_id":"5905f479-1553-4563-afa2-5e5e1ff1ce9f","system_id":"levelo_inurba_marseille","lat":43.2827,"lon":5.3506,"is_reserved":false,"is_disabled":false,"rental_uris":{"android":"levelo://app?vid=5905f479-1553-4563-afa2-5e5e1ff1ce9f","ios":"levelo://app?vid=5905f479-1553-4563-afa2-5e5e1ff1ce9f"},"vehicle_type_id":"4","last_reported":1750244988,"current_range_meters":3200,"station_id":"ce4bhbp2rcd13ifvqerg","pricing_plan_id":"cebpf4jnsgd1na2vs0mg"},{"bike_id":"f4b55799-b3f4-48a1-bbb6-189edf4b185e","system_id":"levelo_inurba_marseille","lat":43.28442,"lon":5.39196,"is_reserved":false,"is_disabled":false,"rental_uris":{"android":"levelo://app?vid=f4b55799-b3f4-48a1-bbb6-189edf4b185e","ios":"levelo://app?vid=f4b55799-b3f4-48a1-bbb6-189edf4b185e"},"vehicle_type_id":"4","last_reported":1750244988,"current_range_meters":3200,"station_id":"ce4bhoh2rcd13ifvqh5g","pricing_plan_id":"cebpf4jnsgd1na2vs0mg"},{"bike_id":"fc02e541-aa33-4831-b84a-0c2c90521523","system_id":"levelo_inurba_marseille","lat":43.23179,"lon":5.39989,"is_reserved":false,"is_disabled":false,"rental_uris":{"android":"levelo://app?vid=fc02e541-aa33-4831-b84a-0c2c90521523","ios":"levelo://app?vid=fc02e541-aa33-4831-b84a-0c2c90521523"},"vehicle_type_id":"4","last_reported":1750244988,"current_range_meters":3600,"station_id":"ce4bhn12rcd13ifvqgqg","pricing_plan_id":"cebpf4jnsgd1na2vs0mg"},{"bike_id":"7d5a1ef5-c109-4977-b182-4addb0e38b1d","system_id":"levelo_inurba_marseille","lat":43.30645,"lon":5.37299,"is_reserved":false,"is_disabled":false,"rental_uris":{"android":"levelo://app?vid=7d5a1ef5-c109-4977-b182-4addb0e38b1d","ios":"levelo://app?vid=7d5a1ef5-c109-4977-b182-4addb0e38b1d"},"vehicle_type_id":"4","last_reported":1750244988,"current_range_meters":4000,"station_id":"","pricing_plan_id":"cebpf4jnsgd1na2vs0mg"},{"bike_id":"5185f3d1-70ce-4b0e-ab39-230def6703ce","system_id":"levelo_inurba_marseille","lat":43.284202,"lon":5.34981,"is_reserved":false,"is_disabled":false,"rental_uris":{"android":"levelo://app?vid=5185f3d1-70ce-4b0e-ab39-230def6703ce","ios":"levelo://app?vid=5185f3d1-70ce-4b0e-ab39-230def6703ce"},"vehicle_type_id":"4","last_reported":1750244988,"current_range_meters":4000,"station_id":"ce4bhbh2rcd13ifvqepg","pricing_plan_id":"cebpf4jnsgd1na2vs0mg"},{"bike_id":"2b1b264a-5ed6-4087-b035-eaf07da402b0","system_id":"levelo_inurba_marseille","lat":43.286316,"lon":5.351173,"is_reserved":false,"is_disabled":false,"rental_uris":{"android":"levelo://app?vid=2b1b264a-5ed6-4087-b035-eaf07da402b0","ios":"levelo://app?vid=2b1b264a-5ed6-4087-b035-eaf07da402b0"},"vehicle_type_id":"4","last_reported":1750244988,"current_range_meters":4000,"station_id":"ce4bhbp2rcd13ifvqesg","pricing_plan_id":"cebpf4jnsgd1na2vs0mg"},{"bike_id":"2574edb6-f6cb-42f7-ae9c-511935f5ba44","system_id":"levelo_inurba_marseille","lat":43.29906,"lon":5.38138,"is_reserved":false,"is_disabled":false,"rental_uris":{"android":"levelo://app?vid=2574edb6-f6cb-42f7-ae9c-511935f5ba44","ios":"levelo://app?vid=2574edb6-f6cb-42f7-ae9c-511935f5ba44"},"vehicle_type_id":"4","last_reported":1750244988,"current_range_meters":4400,"station_id":"ce4bgj12rcd13ifvqbc0","pricing_plan_id":"cebpf4jnsgd1na2vs0mg"},{"bike_id":"b9f38244-9c08-4002-a9d2-67e5a2142e2d","system_id":"levelo_inurba_marseille","lat":43.28423,"lon":5.34975,"is_reserved":false,"is_disabled":false,"rental_uris":{"android":"levelo://app?vid=b9f38244-9c08-4002-a9d2-67e5a2142e2d","ios":"levelo://app?vid=b9f38244-9c08-4002-a9d2-67e5a2142e2d"},"vehicle_type_id":"4","last_reported":1750244988,"current_range_meters":4400,"station_id":"ce4bhbh2rcd13ifvqepg","pricing_plan_id":"cebpf4jnsgd1na2vs0mg"},{"bike_id":"7a5c5fcc-95ae-4f03-9774-df2adf3ed456","system_id":"levelo_inurba_marseille","lat":43.292144,"lon":5.360658,"is_reserved":false,"is_disabled":false,"rental_uris":{"android":"levelo://app?vid=7a5c5fcc-95ae-4f03-9774-df2adf3ed456","ios":"levelo://app?vid=7a5c5fcc-95ae-4f03-9774-df2adf3ed456"},"vehicle_type_id":"4","last_reported":1750244988,"current_range_meters":4400,"station_id":"ce4bhbh2rcd13ifvqeqg","pricing_plan_id":"cebpf4jnsgd1na2vs0mg"},{"bike_id":"ac1c17be-32dc-4449-8610-ca5bfe2cd501","system_id":"levelo_inurba_marseille","lat":43.31995,"lon":5.38163,"is_reserved":false,"is_disabled":false,"rental_uris":{"android":"levelo://app?vid=ac1c17be-32dc-4449-8610-ca5bfe2cd501","ios":"levelo://app?vid=ac1c17be-32dc-4449-8610-ca5bfe2cd501"},"vehicle_type_id":"4","last_reported":1750244988,"current_range_meters":4800,"station_id":"","pricing_plan_id":"cebpf4jnsgd1na2vs0mg"},{"bike_id":"daf9236e-d442-4d8f-bf39-dfeadf0d36b9","system_id":"levelo_inurba_marseille","lat":43.29535,"lon":5.38556,"is_reserved":false,"is_disabled":false,"rental_uris":{"android":"levelo://app?vid=daf9236e-d442-4d8f-bf39-dfeadf0d36b9","ios":"levelo://app?vid=daf9236e-d442-4d8f-bf39-dfeadf0d36b9"},"vehicle_type_id":"4","last_reported":1750244988,"current_range_meters":4800,"station_id":"ce4bgih2rcd13ifvqba0","pricing_plan_id":"cebpf4jnsgd1na2vs0mg"},{"bike_id":"6b25761e-d239-483c-acad-78cb41bfdd49","system_id":"levelo_inurba_marseille","lat":43.31124,"lon":5.37766,"is_reserved":false,"is_disabled":false,"rental_uris":{"android":"levelo://app?vid=6b25761e-d239-483c-acad-78cb41bfdd49","ios":"levelo://app?vid=6b25761e-d239-483c-acad-78cb41bfdd49"},"vehicle_type_id":"4","last_reported":1750244988,"current_range_meters":4800,"station_id":"ce4bgt92rcd13ifvqcg0","pricing_plan_id":"cebpf4jnsgd1na2vs0mg"},{"bike_id":"eb8d5feb-9e00-4ce9-81fd-96822fbe0b7c","system_id":"levelo_inurba_marseille","lat":43.30131,"lon":5.39852,"is_reserved":false,"is_disabled":false,"rental_uris":{"android":"levelo://app?vid=eb8d5feb-9e00-4ce9-81fd-96822fbe0b7c","ios":"levelo://app?vid=eb8d5feb-9e00-4ce9-81fd-96822fbe0b7c"},"vehicle_type_id":"4","last_reported":1750244988,"current_range_meters":5600,"station_id":"ce4bh0h2rcd13ifvqd40","pricing_plan_id":"cebpf4jnsgd1na2vs0mg"},{"bike_id":"33e9c9da-1cc0-4262-ad00-281d3e3f35fc","system_id":"levelo_inurba_marseille","lat":43.31994,"lon":5.38159,"is_reserved":false,"is_disabled":false,"rental_uris":{"android":"levelo://app?vid=33e9c9da-1cc0-4262-ad00-281d3e3f35fc","ios":"levelo://app?vid=33e9c9da-1cc0-4262-ad00-281d3e3f35fc"},"vehicle_type_id":"4","last_reported":1750244988,"current_range_meters":6000,"station_id":"","pricing_plan_id":"cebpf4jnsgd1na2vs0mg"},{"bike_id":"6ba80795-26da-43fa-ab60-6831760385ff","system_id":"levelo_inurba_marseille","lat":43.32576,"lon":5.41977,"is_reserved":false,"is_disabled":false,"rental_uris":{"android":"levelo://app?vid=6ba80795-26da-43fa-ab60-6831760385ff","ios":"levelo://app?vid=6ba80795-26da-43fa-ab60-6831760385ff"},"vehicle_type_id":"4","last_reported":1750244988,"current_range_meters":6000,"station_id":"","pricing_plan_id":"cebpf4jnsgd1na2vs0mg"},{"bike_id":"e8559938-3075-4071-b1e6-e13b24ac1bd0","system_id":"levelo_inurba_marseille","lat":43.293,"lon":5.3746,"is_reserved":false,"is_disabled":false,"rental_uris":{"android":"levelo://app?vid=e8559938-3075-4071-b1e6-e13b24ac1bd0","ios":"levelo://app?vid=e8559938-3075-4071-b1e6-e13b24ac1bd0"},"vehicle_type_id":"4","last_reported":1750244988,"current_range_meters":6000,"station_id":"ce4bgi12rcd13ifvqb70","pricing_plan_id":"cebpf4jnsgd1na2vs0mg"},{"bike_id":"b415f72a-2252-460b-a45d-1cc249e8330f","system_id":"levelo_inurba_marseille","lat":43.29975,"lon":5.37175,"is_reserved":false,"is_disabled":false,"rental_uris":{"android":"levelo://app?vid=b415f72a-2252-460b-a45d-1cc249e8330f","ios":"levelo://app?vid=b415f72a-2252-460b-a45d-1cc249e8330f"},"vehicle_type_id":"4","last_reported":1750244988,"current_range_meters":6000,"station_id":"ce4bgr92rcd13ifvqc7g","pricing_plan_id":"cebpf4jnsgd1na2vs0mg"},{"bike_id":"578a2500-7e12-4d5c-a7e5-a900c7090311","system_id":"levelo_inurba_marseille","lat":43.21749,"lon":5.34603,"is_reserved":false,"is_disabled":false,"rental_uris":{"android":"levelo://app?vid=578a2500-7e12-4d5c-a7e5-a900c7090311","ios":"levelo://app?vid=578a2500-7e12-4d5c-a7e5-a900c7090311"},"vehicle_type_id":"4","last_reported":1750244988,"current_range_meters":6400,"station_id":"","pricing_plan_id":"cebpf4jnsgd1na2vs0mg"},{"bike_id":"ae4a7bb6-19ec-4528-ba2f-4c58721d2ee8","system_id":"levelo_inurba_marseille","lat":43.23322,"lon":5.43603,"is_reserved":false,"is_disabled":false,"rental_uris":{"android":"levelo://app?vid=ae4a7bb6-19ec-4528-ba2f-4c58721d2ee8","ios":"levelo://app?vid=ae4a7bb6-19ec-4528-ba2f-4c58721d2ee8"},"vehicle_type_id":"4","last_reported":1750244988,"current_range_meters":6400,"station_id":"","pricing_plan_id":"cebpf4jnsgd1na2vs0mg"},{"bike_id":"5306be4f-4054-4b4d-8a84-12d652b0071b","system_id":"levelo_inurba_marseille","lat":43.280663,"lon":5.386986,"is_reserved":false,"is_disabled":false,"rental_uris":{"android":"levelo://app?vid=5306be4f-4054-4b4d-8a84-12d652b0071b","ios":"levelo://app?vid=5306be4f-4054-4b4d-8a84-12d652b0071b"},"vehicle_type_id":"4","last_reported":1750244988,"current_range_meters":6400,"station_id":"ce4bh512rcd13ifvqe3g","pricing_plan_id":"cebpf4jnsgd1na2vs0mg"},{"bike_id":"bd0549b3-9dda-4b2f-bbd0-0d0149747870","system_id":"levelo_inurba_marseille","lat":43.28457,"lon":5.35884,"is_reserved":false,"is_disabled":false,"rental_uris":{"android":"levelo://app?vid=bd0549b3-9dda-4b2f-bbd0-0d0149747870","ios":"levelo://app?vid=bd0549b3-9dda-4b2f-bbd0-0d0149747870"},"vehicle_type_id":"4","last_reported":1750244988,"current_range_meters":6400,"station_id":"ce4bhah2rcd13ifvqei0","pricing_plan_id":"cebpf4jnsgd1na2vs0mg"},{"bike_id":"857c245f-8ab5-4179-9a16-97db6aa6bebe","system_id":"levelo_inurba_marseille","lat":43.23148,"lon":5.43717,"is_reserved":false,"is_disabled":false,"rental_uris":{"android":"levelo://app?vid=857c245f-8ab5-4179-9a16-97db6aa6bebe","ios":"levelo://app?vid=857c245f-8ab5-4179-9a16-97db6aa6bebe"},"vehicle_type_id":"4","last_reported":1750244988,"current_range_meters":6400,"station_id":"ce4bhmp2rcd13ifvqgog","pricing_plan_id":"cebpf4jnsgd1na2vs0mg"},{"bike_id":"f34da48b-4e60-4b4e-a852-4ab4198708b5","system_id":"levelo_inurba_marseille","lat":43.28445,"lon":5.39203,"is_reserved":false,"is_disabled":false,"rental_uris":{"android":"levelo://app?vid=f34da48b-4e60-4b4e-a852-4ab4198708b5","ios":"levelo://app?vid=f34da48b-4e60-4b4e-a852-4ab4198708b5"},"vehicle_type_id":"4","last_reported":1750244988,"current_range_meters":6400,"station_id":"ce4bhoh2rcd13ifvqh5g","pricing_plan_id":"cebpf4jnsgd1na2vs0mg"},{"bike_id":"e03a6d42-f362-4878-ab56-4b5afba95b0c","system_id":"levelo_inurba_marseille","lat":43.31487,"lon":5.3695,"is_reserved":false,"is_disabled":false,"rental_uris":{"android":"levelo://app?vid=e03a6d42-f362-4878-ab56-4b5afba95b0c","ios":"levelo://app?vid=e03a6d42-f362-4878-ab56-4b5afba95b0c"},"vehicle_type_id":"4","last_reported":1750244988,"current_range_meters":6800,"station_id":"","pricing_plan_id":"cebpf4jnsgd1na2vs0mg"},{"bike_id":"4b36b730-50fe-49b1-846b-bb9650194b39","system_id":"levelo_inurba_marseille","lat":43.28624,"lon":5.35103,"is_reserved":false,"is_disabled":false,"rental_uris":{"android":"levelo://app?vid=4b36b730-50fe-49b1-846b-bb9650194b39","ios":"levelo://app?vid=4b36b730-50fe-49b1-846b-bb9650194b39"},"vehicle_type_id":"4","last_reported":1750244988,"current_range_meters":6800,"station_id":"ce4bhch2rcd13ifvqeug","pricing_plan_id":"cebpf4jnsgd1na2vs0mg"},{"bike_id":"6ae8702b-3c60-42aa-9f5a-ab9127bcbc09","system_id":"levelo_inurba_marseille","lat":43.24804,"lon":5.37456,"is_reserved":false,"is_disabled":false,"rental_uris":{"android":"levelo://app?vid=6ae8702b-3c60-42aa-9f5a-ab9127bcbc09","ios":"levelo://app?vid=6ae8702b-3c60-42aa-9f5a-ab9127bcbc09"},"vehicle_type_id":"4","last_reported":1750244988,"current_range_meters":6800,"station_id":"ce4bhgh2rcd13ifvqfb0","pricing_plan_id":"cebpf4jnsgd1na2vs0mg"},{"bike_id":"3b136301-d892-4bf1-aa15-695ec30464ca","system_id":"levelo_inurba_marseille","lat":43.3209,"lon":5.36761,"is_reserved":false,"is_disabled":false,"rental_uris":{"android":"levelo://app?vid=3b136301-d892-4bf1-aa15-695ec30464ca","ios":"levelo://app?vid=3b136301-d892-4bf1-aa15-695ec30464ca"},"vehicle_type_id":"4","last_reported":1750244988,"current_range_meters":6800,"station_id":"ce4bhrh2rcd13ifvqhug","pricing_plan_id":"cebpf4jnsgd1na2vs0mg"},{"bike_id":"599edd48-0a29-4db2-9ab4-b98d5514d266","system_id":"levelo_inurba_marseille","lat":43.31355,"lon":5.36839,"is_reserved":false,"is_disabled":false,"rental_uris":{"android":"levelo://app?vid=599edd48-0a29-4db2-9ab4-b98d5514d266","ios":"levelo://app?vid=599edd48-0a29-4db2-9ab4-b98d5514d266"},"vehicle_type_id":"4","last_reported":1750244988,"current_range_meters":7200,"station_id":"","pricing_plan_id":"cebpf4jnsgd1na2vs0mg"},{"bike_id":"920abe9b-32f3-498f-9215-00f0e0d8097a","system_id":"levelo_inurba_marseille","lat":43.29049,"lon":5.35894,"is_reserved":false,"is_disabled":false,"rental_uris":{"android":"levelo://app?vid=920abe9b-32f3-498f-9215-00f0e0d8097a","ios":"levelo://app?vid=920abe9b-32f3-498f-9215-00f0e0d8097a"},"vehicle_type_id":"4","last_reported":1750244988,"current_range_meters":7200,"station_id":"ce4bha92rcd13ifvqeg0","pricing_plan_id":"cebpf4jnsgd1na2vs0mg"},{"bike_id":"aa59b951-f74c-459a-a2aa-03ccd383eee9","system_id":"levelo_inurba_marseille","lat":43.21188,"lon":5.3507,"is_reserved":false,"is_disabled":false,"rental_uris":{"android":"levelo://app?vid=aa59b951-f74c-459a-a2aa-03ccd383eee9","ios":"levelo://app?vid=aa59b951-f74c-459a-a2aa-03ccd383eee9"},"vehicle_type_id":"4","last_reported":1750244988,"current_range_meters":7200,"station_id":"st_cvj6sg6p6f1abm77japg","pricing_plan_id":"cebpf4jnsgd1na2vs0mg"},{"bike_id":"13603010-4ba6-45d8-8742-faf7a41367fa","system_id":"levelo_inurba_marseille","lat":43.29214,"lon":5.3832,"is_reserved":false,"is_disabled":false,"rental_uris":{"android":"levelo://app?vid=13603010-4ba6-45d8-8742-faf7a41367fa","ios":"levelo://app?vid=13603010-4ba6-45d8-8742-faf7a41367fa"},"vehicle_type_id":"4","last_reported":1750244988,"current_range_meters":8000,"station_id":"","pricing_plan_id":"cebpf4jnsgd1na2vs0mg"},{"bike_id":"0c2732ce-a727-46b0-af5a-af7ba2098b27","system_id":"levelo_inurba_marseille","lat":43.322942,"lon":5.382688,"is_reserved":false,"is_disabled":false,"rental_uris":{"android":"levelo://app?vid=0c2732ce-a727-46b0-af5a-af7ba2098b27","ios":"levelo://app?vid=0c2732ce-a727-46b0-af5a-af7ba2098b27"},"vehicle_type_id":"4","last_reported":1750244988,"current_range_meters":8000,"station_id":"","pricing_plan_id":"cebpf4jnsgd1na2vs0mg"},{"bike_id":"5be70e50-8a84-480d-a1dc-da0142a6105a","system_id":"levelo_inurba_marseille","lat":43.30539,"lon":5.36541,"is_reserved":false,"is_disabled":false,"rental_uris":{"android":"levelo://app?vid=5be70e50-8a84-480d-a1dc-da0142a6105a","ios":"levelo://app?vid=5be70e50-8a84-480d-a1dc-da0142a6105a"},"vehicle_type_id":"4","last_reported":1750244988,"current_range_meters":8000,"station_id":"ce4bgs12rcd13ifvqcag","pricing_plan_id":"cebpf4jnsgd1na2vs0mg"},{"bike_id":"c67b9bb0-536d-4d3b-834a-9242964eb689","system_id":"levelo_inurba_marseille","lat":43.32099,"lon":5.36772,"is_reserved":false,"is_disabled":false,"rental_uris":{"android":"levelo://app?vid=c67b9bb0-536d-4d3b-834a-9242964eb689","ios":"levelo://app?vid=c67b9bb0-536d-4d3b-834a-9242964eb689"},"vehicle_type_id":"4","last_reported":1750244988,"current_range_meters":8000,"station_id":"ce4bhrh2rcd13ifvqhug","pricing_plan_id":"cebpf4jnsgd1na2vs0mg"},{"bike_id":"d31dee22-c0d2-4965-a7a3-04f95bc8c47c","system_id":"levelo_inurba_marseille","lat":43.27902,"lon":5.41217,"is_reserved":false,"is_disabled":false,"rental_uris":{"android":"levelo://app?vid=d31dee22-c0d2-4965-a7a3-04f95bc8c47c","ios":"levelo://app?vid=d31dee22-c0d2-4965-a7a3-04f95bc8c47c"},"vehicle_type_id":"4","last_reported":1750244988,"current_range_meters":8400,"station_id":"","pricing_plan_id":"cebpf4jnsgd1na2vs0mg"},{"bike_id":"ae8524c6-7b10-43ef-8ed4-b8035f1213c1","system_id":"levelo_inurba_marseille","lat":43.3342,"lon":5.40053,"is_reserved":false,"is_disabled":false,"rental_uris":{"android":"levelo://app?vid=ae8524c6-7b10-43ef-8ed4-b8035f1213c1","ios":"levelo://app?vid=ae8524c6-7b10-43ef-8ed4-b8035f1213c1"},"vehicle_type_id":"4","last_reported":1750244988,"current_range_meters":8400,"station_id":"","pricing_plan_id":"cebpf4jnsgd1na2vs0mg"},{"bike_id":"94bcc58f-7023-41cb-871b-3595da7eac8b","system_id":"levelo_inurba_marseille","lat":43.33145,"lon":5.38152,"is_reserved":false,"is_disabled":false,"rental_uris":{"android":"levelo://app?vid=94bcc58f-7023-41cb-871b-3595da7eac8b","ios":"levelo://app?vid=94bcc58f-7023-41cb-871b-3595da7eac8b"},"vehicle_type_id":"4","last_reported":1750244988,"current_range_meters":8400,"station_id":"","pricing_plan_id":"cebpf4jnsgd1na2vs0mg"},{"bike_id":"a3c71096-a081-440f-9051-2c1952aac647","system_id":"levelo_inurba_marseille","lat":43.31236,"lon":5.36926,"is_reserved":false,"is_disabled":false,"rental_uris":{"android":"levelo://app?vid=a3c71096-a081-440f-9051-2c1952aac647","ios":"levelo://app?vid=a3c71096-a081-440f-9051-2c1952aac647"},"vehicle_type_id":"4","last_reported":1750244988,"current_range_meters":8400,"station_id":"","pricing_plan_id":"cebpf4jnsgd1na2vs0mg"},{"bike_id":"fb7f0fca-328c-4590-8315-5fcf92aa068d","system_id":"levelo_inurba_marseille","lat":43.31988,"lon":5.38154,"is_reserved":false,"is_disabled":false,"rental_uris":{"android":"levelo://app?vid=fb7f0fca-328c-4590-8315-5fcf92aa068d","ios":"levelo://app?vid=fb7f0fca-328c-4590-8315-5fcf92aa068d"},"vehicle_type_id":"4","last_reported":1750244988,"current_range_meters":8400,"station_id":"","pricing_plan_id":"cebpf4jnsgd1na2vs0mg"},{"bike_id":"820df921-69fc-426c-b325-82acf4918bb0","system_id":"levelo_inurba_marseille","lat":43.30604,"lon":5.372023,"is_reserved":false,"is_disabled":false,"rental_uris":{"android":"levelo://app?vid=820df921-69fc-426c-b325-82acf4918bb0","ios":"levelo://app?vid=820df921-69fc-426c-b325-82acf4918bb0"},"vehicle_type_id":"4","last_reported":1750244988,"current_range_meters":8400,"station_id":"ce4bgqh2rcd13ifvqc4g","pricing_plan_id":"cebpf4jnsgd1na2vs0mg"},{"bike_id":"664fa6da-addb-4daf-b386-c753f788eb6a","system_id":"levelo_inurba_marseille","lat":43.30299,"lon":5.36896,"is_reserved":false,"is_disabled":false,"rental_uris":{"android":"levelo://app?vid=664fa6da-addb-4daf-b386-c753f788eb6a","ios":"levelo://app?vid=664fa6da-addb-4daf-b386-c753f788eb6a"},"vehicle_type_id":"4","last_reported":1750244988,"current_range_meters":8400,"station_id":"ce4bgqh2rcd13ifvqc5g","pricing_plan_id":"cebpf4jnsgd1na2vs0mg"},{"bike_id":"9afd2caf-1794-4eae-b56b-590a6bcc27b5","system_id":"levelo_inurba_marseille","lat":43.305963,"lon":5.393613,"is_reserved":false,"is_disabled":false,"rental_uris":{"android":"levelo://app?vid=9afd2caf-1794-4eae-b56b-590a6bcc27b5","ios":"levelo://app?vid=9afd2caf-1794-4eae-b56b-590a6bcc27b5"},"vehicle_type_id":"4","last_reported":1750244988,"current_range_meters":8400,"station_id":"ce4bh0p2rcd13ifvqd80","pricing_plan_id":"cebpf4jnsgd1na2vs0mg"},{"bike_id":"e480a42a-ae46-4c73-b5bc-592cd4a5b15a","system_id":"levelo_inurba_marseille","lat":43.24391,"lon":5.37065,"is_reserved":false,"is_disabled":false,"rental_uris":{"android":"levelo://app?vid=e480a42a-ae46-4c73-b5bc-592cd4a5b15a","ios":"levelo://app?vid=e480a42a-ae46-4c73-b5bc-592cd4a5b15a"},"vehicle_type_id":"4","last_reported":1750244988,"current_range_meters":8400,"station_id":"ce4bhhh2rcd13ifvqfk0","pricing_plan_id":"cebpf4jnsgd1na2vs0mg"},{"bike_id":"6f3a0055-18ce-456d-886f-5dd53c809fc5","system_id":"levelo_inurba_marseille","lat":43.26766,"lon":5.42554,"is_reserved":false,"is_disabled":false,"rental_uris":{"android":"levelo://app?vid=6f3a0055-18ce-456d-886f-5dd53c809fc5","ios":"levelo://app?vid=6f3a0055-18ce-456d-886f-5dd53c809fc5"},"vehicle_type_id":"4","last_reported":1750244988,"current_range_meters":8800,"station_id":"","pricing_plan_id":"cebpf4jnsgd1na2vs0mg"},{"bike_id":"0c16fa7a-87bf-462a-bbfa-4a5736265631","system_id":"levelo_inurba_marseille","lat":43.30545,"lon":5.36512,"is_reserved":false,"is_disabled":false,"rental_uris":{"android":"levelo://app?vid=0c16fa7a-87bf-462a-bbfa-4a5736265631","ios":"levelo://app?vid=0c16fa7a-87bf-462a-bbfa-4a5736265631"},"vehicle_type_id":"4","last_reported":1750244988,"current_range_meters":8800,"station_id":"ce4bgs12rcd13ifvqcag","pricing_plan_id":"cebpf4jnsgd1na2vs0mg"},{"bike_id":"8a71093f-c84e-4e8c-8129-35c51d8e8d4d","system_id":"levelo_inurba_marseille","lat":43.29174,"lon":5.3717,"is_reserved":false,"is_disabled":false,"rental_uris":{"android":"levelo://app?vid=8a71093f-c84e-4e8c-8129-35c51d8e8d4d","ios":"levelo://app?vid=8a71093f-c84e-4e8c-8129-35c51d8e8d4d"},"vehicle_type_id":"4","last_reported":1750244988,"current_range_meters":8800,"station_id":"ce4bha92rcd13ifvqeh0","pricing_plan_id":"cebpf4jnsgd1na2vs0mg"},{"bike_id":"367556a6-d447-4e41-99fa-0a5b5a5c7ab7","system_id":"levelo_inurba_marseille","lat":43.27999,"lon":5.41667,"is_reserved":false,"is_disabled":false,"rental_uris":{"android":"levelo://app?vid=367556a6-d447-4e41-99fa-0a5b5a5c7ab7","ios":"levelo://app?vid=367556a6-d447-4e41-99fa-0a5b5a5c7ab7"},"vehicle_type_id":"4","last_reported":1750244988,"current_range_meters":8800,"station_id":"ce4bho12rcd13ifvqh1g","pricing_plan_id":"cebpf4jnsgd1na2vs0mg"},{"bike_id":"b5002037-f4b0-4634-8bc4-796d0c74810e","system_id":"levelo_inurba_marseille","lat":43.2439,"lon":5.41132,"is_reserved":false,"is_disabled":false,"rental_uris":{"android":"levelo://app?vid=b5002037-f4b0-4634-8bc4-796d0c74810e","ios":"levelo://app?vid=b5002037-f4b0-4634-8bc4-796d0c74810e"},"vehicle_type_id":"4","last_reported":1750244988,"current_range_meters":9200,"station_id":"","pricing_plan_id":"cebpf4jnsgd1na2vs0mg"},{"bike_id":"3561babf-0bf4-4ae4-b838-e54edaaa378b","system_id":"levelo_inurba_marseille","lat":43.30566,"lon":5.38176,"is_reserved":false,"is_disabled":false,"rental_uris":{"android":"levelo://app?vid=3561babf-0bf4-4ae4-b838-e54edaaa378b","ios":"levelo://app?vid=3561babf-0bf4-4ae4-b838-e54edaaa378b"},"vehicle_type_id":"4","last_reported":1750244988,"current_range_meters":9200,"station_id":"","pricing_plan_id":"cebpf4jnsgd1na2vs0mg"},{"bike_id":"c1172c47-a98c-4996-823d-69f11f3c6108","system_id":"levelo_inurba_marseille","lat":43.29965,"lon":5.38474,"is_reserved":false,"is_disabled":false,"rental_uris":{"android":"levelo://app?vid=c1172c47-a98c-4996-823d-69f11f3c6108","ios":"levelo://app?vid=c1172c47-a98c-4996-823d-69f11f3c6108"},"vehicle_type_id":"4","last_reported":1750244988,"current_range_meters":9200,"station_id":"ce4bgj92rcd13ifvqbd0","pricing_plan_id":"cebpf4jnsgd1na2vs0mg"},{"bike_id":"f0c3604e-0ad0-48eb-95c4-85212ea8a7f2","system_id":"levelo_inurba_marseille","lat":43.306,"lon":5.39367,"is_reserved":false,"is_disabled":false,"rental_uris":{"android":"levelo://app?vid=f0c3604e-0ad0-48eb-95c4-85212ea8a7f2","ios":"levelo://app?vid=f0c3604e-0ad0-48eb-95c4-85212ea8a7f2"},"vehicle_type_id":"4","last_reported":1750244988,"current_range_meters":9200,"station_id":"ce4bh0p2rcd13ifvqd80","pricing_plan_id":"cebpf4jnsgd1na2vs0mg"},{"bike_id":"4dc5756a-795e-451b-8666-d081877cbb22","system_id":"levelo_inurba_marseille","lat":43.28413,"lon":5.34979,"is_reserved":false,"is_disabled":false,"rental_uris":{"android":"levelo://app?vid=4dc5756a-795e-451b-8666-d081877cbb22","ios":"levelo://app?vid=4dc5756a-795e-451b-8666-d081877cbb22"},"vehicle_type_id":"4","last_reported":1750244988,"current_range_meters":9200,"station_id":"ce4bhbh2rcd13ifvqepg","pricing_plan_id":"cebpf4jnsgd1na2vs0mg"},{"bike_id":"668b28a5-7c5b-4d6a-8325-037928d2ede6","system_id":"levelo_inurba_marseille","lat":43.27991,"lon":5.40014,"is_reserved":false,"is_disabled":false,"rental_uris":{"android":"levelo://app?vid=668b28a5-7c5b-4d6a-8325-037928d2ede6","ios":"levelo://app?vid=668b28a5-7c5b-4d6a-8325-037928d2ede6"},"vehicle_type_id":"4","last_reported":1750244988,"current_range_meters":9200,"station_id":"ce4bho92rcd13ifvqh4g","pricing_plan_id":"cebpf4jnsgd1na2vs0mg"},{"bike_id":"70a4135c-3eca-431c-b423-d99045ef7fdc","system_id":"levelo_inurba_marseille","lat":43.31533,"lon":5.38026,"is_reserved":false,"is_disabled":false,"rental_uris":{"android":"levelo://app?vid=70a4135c-3eca-431c-b423-d99045ef7fdc","ios":"levelo://app?vid=70a4135c-3eca-431c-b423-d99045ef7fdc"},"vehicle_type_id":"4","last_reported":1750244988,"current_range_meters":9200,"station_id":"ce4bhsp2rcd13ifvqi50","pricing_plan_id":"cebpf4jnsgd1na2vs0mg"},{"bike_id":"300ca1f9-c608-4982-82af-3f268e1aada5","system_id":"levelo_inurba_marseille","lat":43.30539,"lon":5.36542,"is_reserved":false,"is_disabled":false,"rental_uris":{"android":"levelo://app?vid=300ca1f9-c608-4982-82af-3f268e1aada5","ios":"levelo://app?vid=300ca1f9-c608-4982-82af-3f268e1aada5"},"vehicle_type_id":"4","last_reported":1750244988,"current_range_meters":9600,"station_id":"ce4bgs12rcd13ifvqcag","pricing_plan_id":"cebpf4jnsgd1na2vs0mg"},{"bike_id":"782b5639-c58c-4a25-bd66-6ef1a747e76b","system_id":"levelo_inurba_marseille","lat":43.3116,"lon":5.38721,"is_reserved":false,"is_disabled":false,"rental_uris":{"android":"levelo://app?vid=782b5639-c58c-4a25-bd66-6ef1a747e76b","ios":"levelo://app?vid=782b5639-c58c-4a25-bd66-6ef1a747e76b"},"vehicle_type_id":"4","last_reported":1750244988,"current_range_meters":9600,"station_id":"ce4bgv12rcd13ifvqcp0","pricing_plan_id":"cebpf4jnsgd1na2vs0mg"},{"bike_id":"83cfee7d-980d-496a-98c8-745c7e44c68d","system_id":"levelo_inurba_marseille","lat":43.32871,"lon":5.39092,"is_reserved":false,"is_disabled":false,"rental_uris":{"android":"levelo://app?vid=83cfee7d-980d-496a-98c8-745c7e44c68d","ios":"levelo://app?vid=83cfee7d-980d-496a-98c8-745c7e44c68d"},"vehicle_type_id":"4","last_reported":1750244988,"current_range_meters":10000,"station_id":"","pricing_plan_id":"cebpf4jnsgd1na2vs0mg"},{"bike_id":"c5a8d646-049f-4a18-9ba2-5285754cf424","system_id":"levelo_inurba_marseille","lat":43.29776,"lon":5.38139,"is_reserved":false,"is_disabled":false,"rental_uris":{"android":"levelo://app?vid=c5a8d646-049f-4a18-9ba2-5285754cf424","ios":"levelo://app?vid=c5a8d646-049f-4a18-9ba2-5285754cf424"},"vehicle_type_id":"4","last_reported":1750244988,"current_range_meters":10000,"station_id":"ce4bgip2rcd13ifvqbb0","pricing_plan_id":"cebpf4jnsgd1na2vs0mg"},{"bike_id":"d30f880b-8118-45d2-aac3-136366f21bb5","system_id":"levelo_inurba_marseille","lat":43.298486,"lon":5.362877,"is_reserved":false,"is_disabled":false,"rental_uris":{"android":"levelo://app?vid=d30f880b-8118-45d2-aac3-136366f21bb5","ios":"levelo://app?vid=d30f880b-8118-45d2-aac3-136366f21bb5"},"vehicle_type_id":"4","last_reported":1750244988,"current_range_meters":10000,"station_id":"ce4bgpp2rcd13ifvqc3g","pricing_plan_id":"cebpf4jnsgd1na2vs0mg"},{"bike_id":"0735ef8f-c526-4b7c-842a-40f2241dffb7","system_id":"levelo_inurba_marseille","lat":43.3014,"lon":5.3742,"is_reserved":false,"is_disabled":false,"rental_uris":{"android":"levelo://app?vid=0735ef8f-c526-4b7c-842a-40f2241dffb7","ios":"levelo://app?vid=0735ef8f-c526-4b7c-842a-40f2241dffb7"},"vehicle_type_id":"4","last_reported":1750244988,"current_range_meters":10000,"station_id":"ce4bgs92rcd13ifvqcc0","pricing_plan_id":"cebpf4jnsgd1na2vs0mg"},{"bike_id":"c123bd16-f51a-47d8-ab1c-c910c596b491","system_id":"levelo_inurba_marseille","lat":43.30248,"lon":5.40068,"is_reserved":false,"is_disabled":false,"rental_uris":{"android":"levelo://app?vid=c123bd16-f51a-47d8-ab1c-c910c596b491","ios":"levelo://app?vid=c123bd16-f51a-47d8-ab1c-c910c596b491"},"vehicle_type_id":"4","last_reported":1750244988,"current_range_meters":10000,"station_id":"ce4bgvh2rcd13ifvqcs0","pricing_plan_id":"cebpf4jnsgd1na2vs0mg"},{"bike_id":"1a90af71-ca86-425d-8886-9b30fef6a074","system_id":"levelo_inurba_marseille","lat":43.31725,"lon":5.42396,"is_reserved":false,"is_disabled":false,"rental_uris":{"android":"levelo://app?vid=1a90af71-ca86-425d-8886-9b30fef6a074","ios":"levelo://app?vid=1a90af71-ca86-425d-8886-9b30fef6a074"},"vehicle_type_id":"4","last_reported":1750244988,"current_range_meters":10000,"station_id":"ce4bhp92rcd13ifvqhbg","pricing_plan_id":"cebpf4jnsgd1na2vs0mg"},{"bike_id":"5d774fb5-85cb-464e-8c1b-24728649b896","system_id":"levelo_inurba_marseille","lat":43.29277,"lon":5.36843,"is_reserved":false,"is_disabled":false,"rental_uris":{"android":"levelo://app?vid=5d774fb5-85cb-464e-8c1b-24728649b896","ios":"levelo://app?vid=5d774fb5-85cb-464e-8c1b-24728649b896"},"vehicle_type_id":"4","last_reported":1750244988,"current_range_meters":10800,"station_id":"ce4bhbp2rcd13ifvqesg","pricing_plan_id":"cebpf4jnsgd1na2vs0mg"},{"bike_id":"998d0538-52e0-477f-8e72-1b383baadd73","system_id":"levelo_inurba_marseille","lat":43.23146,"lon":5.43708,"is_reserved":false,"is_disabled":false,"rental_uris":{"android":"levelo://app?vid=998d0538-52e0-477f-8e72-1b383baadd73","ios":"levelo://app?vid=998d0538-52e0-477f-8e72-1b383baadd73"},"vehicle_type_id":"4","last_reported":1750244988,"current_range_meters":10800,"station_id":"ce4bhmp2rcd13ifvqgog","pricing_plan_id":"cebpf4jnsgd1na2vs0mg"},{"bike_id":"7260f2af-754c-4d5e-adeb-0b5f26c646ef","system_id":"levelo_inurba_marseille","lat":43.26937,"lon":5.40254,"is_reserved":false,"is_disabled":false,"rental_uris":{"android":"levelo://app?vid=7260f2af-754c-4d5e-adeb-0b5f26c646ef","ios":"levelo://app?vid=7260f2af-754c-4d5e-adeb-0b5f26c646ef"},"vehicle_type_id":"4","last_reported":1750244988,"current_range_meters":10800,"station_id":"cjm6bp8fraef2m0cb0m0","pricing_plan_id":"cebpf4jnsgd1na2vs0mg"},{"bike_id":"960c85a1-5973-4697-9a13-ccb47f1e6891","system_id":"levelo_inurba_marseille","lat":43.2294,"lon":5.35369,"is_reserved":false,"is_disabled":false,"rental_uris":{"android":"levelo://app?vid=960c85a1-5973-4697-9a13-ccb47f1e6891","ios":"levelo://app?vid=960c85a1-5973-4697-9a13-ccb47f1e6891"},"vehicle_type_id":"4","last_reported":1750244988,"current_range_meters":10800,"station_id":"cpo3532slgdg3j2ikp40","pricing_plan_id":"cebpf4jnsgd1na2vs0mg"},{"bike_id":"bc3c9826-b992-476c-8946-8f0d897a7f3b","system_id":"levelo_inurba_marseille","lat":43.308903,"lon":5.37205,"is_reserved":false,"is_disabled":false,"rental_uris":{"android":"levelo://app?vid=bc3c9826-b992-476c-8946-8f0d897a7f3b","ios":"levelo://app?vid=bc3c9826-b992-476c-8946-8f0d897a7f3b"},"vehicle_type_id":"4","last_reported":1750244988,"current_range_meters":11200,"station_id":"ce4bguh2rcd13ifvqckg","pricing_plan_id":"cebpf4jnsgd1na2vs0mg"},{"bike_id":"5f158c9e-6d10-4180-a63b-dac976bb318f","system_id":"levelo_inurba_marseille","lat":43.31988,"lon":5.38159,"is_reserved":false,"is_disabled":false,"rental_uris":{"android":"levelo://app?vid=5f158c9e-6d10-4180-a63b-dac976bb318f","ios":"levelo://app?vid=5f158c9e-6d10-4180-a63b-dac976bb318f"},"vehicle_type_id":"4","last_reported":1750244988,"current_range_meters":11200,"station_id":"ce4bhr12rcd13ifvqhqg","pricing_plan_id":"cebpf4jnsgd1na2vs0mg"},{"bike_id":"ec791070-eafa-4c06-b970-7958cef6417d","system_id":"levelo_inurba_marseille","lat":43.23196,"lon":5.35534,"is_reserved":false,"is_disabled":false,"rental_uris":{"android":"levelo://app?vid=ec791070-eafa-4c06-b970-7958cef6417d","ios":"levelo://app?vid=ec791070-eafa-4c06-b970-7958cef6417d"},"vehicle_type_id":"4","last_reported":1750244988,"current_range_meters":11200,"station_id":"ce4bhu92rcd13ifvqi70","pricing_plan_id":"cebpf4jnsgd1na2vs0mg"},{"bike_id":"0c73076f-c883-41fc-8755-dcbbfa694d40","system_id":"levelo_inurba_marseille","lat":43.229333,"lon":5.353761,"is_reserved":false,"is_disabled":false,"rental_uris":{"android":"levelo://app?vid=0c73076f-c883-41fc-8755-dcbbfa694d40","ios":"levelo://app?vid=0c73076f-c883-41fc-8755-dcbbfa694d40"},"vehicle_type_id":"4","last_reported":1750244988,"current_range_meters":11200,"station_id":"cpo3532slgdg3j2ikp40","pricing_plan_id":"cebpf4jnsgd1na2vs0mg"},{"bike_id":"e0c81714-4e6b-4b29-81e7-dee3655cda81","system_id":"levelo_inurba_marseille","lat":43.286119,"lon":5.35099,"is_reserved":false,"is_disabled":false,"rental_uris":{"android":"levelo://app?vid=e0c81714-4e6b-4b29-81e7-dee3655cda81","ios":"levelo://app?vid=e0c81714-4e6b-4b29-81e7-dee3655cda81"},"vehicle_type_id":"4","last_reported":1750244988,"current_range_meters":11600,"station_id":"","pricing_plan_id":"cebpf4jnsgd1na2vs0mg"},{"bike_id":"23473c5a-ff05-41d4-a194-b16ef02094df","system_id":"levelo_inurba_marseille","lat":43.30551,"lon":5.36531,"is_reserved":false,"is_disabled":false,"rental_uris":{"android":"levelo://app?vid=23473c5a-ff05-41d4-a194-b16ef02094df","ios":"levelo://app?vid=23473c5a-ff05-41d4-a194-b16ef02094df"},"vehicle_type_id":"4","last_reported":1750244988,"current_range_meters":11600,"station_id":"ce4bgs12rcd13ifvqcag","pricing_plan_id":"cebpf4jnsgd1na2vs0mg"},{"bike_id":"2a865387-f87f-48be-beef-54f3ccf2d285","system_id":"levelo_inurba_marseille","lat":43.25858,"lon":5.39905,"is_reserved":false,"is_disabled":false,"rental_uris":{"android":"levelo://app?vid=2a865387-f87f-48be-beef-54f3ccf2d285","ios":"levelo://app?vid=2a865387-f87f-48be-beef-54f3ccf2d285"},"vehicle_type_id":"4","last_reported":1750244988,"current_range_meters":11600,"station_id":"ce4bhl92rcd13ifvqghg","pricing_plan_id":"cebpf4jnsgd1na2vs0mg"},{"bike_id":"de0f7c2b-5974-4035-a240-8ed367c0e3f3","system_id":"levelo_inurba_marseille","lat":43.31958,"lon":5.37595,"is_reserved":false,"is_disabled":false,"rental_uris":{"android":"levelo://app?vid=de0f7c2b-5974-4035-a240-8ed367c0e3f3","ios":"levelo://app?vid=de0f7c2b-5974-4035-a240-8ed367c0e3f3"},"vehicle_type_id":"4","last_reported":1750244988,"current_range_meters":12000,"station_id":"","pricing_plan_id":"cebpf4jnsgd1na2vs0mg"},{"bike_id":"46c0aaed-69fc-47f6-9642-be653bab419a","system_id":"levelo_inurba_marseille","lat":43.29906,"lon":5.38151,"is_reserved":false,"is_disabled":false,"rental_uris":{"android":"levelo://app?vid=46c0aaed-69fc-47f6-9642-be653bab419a","ios":"levelo://app?vid=46c0aaed-69fc-47f6-9642-be653bab419a"},"vehicle_type_id":"4","last_reported":1750244988,"current_range_meters":12000,"station_id":"ce4bgj12rcd13ifvqbc0","pricing_plan_id":"cebpf4jnsgd1na2vs0mg"},{"bike_id":"902436f3-b250-48cb-8451-d50d5e0671c6","system_id":"levelo_inurba_marseille","lat":43.29362,"lon":5.37839,"is_reserved":false,"is_disabled":false,"rental_uris":{"android":"levelo://app?vid=902436f3-b250-48cb-8451-d50d5e0671c6","ios":"levelo://app?vid=902436f3-b250-48cb-8451-d50d5e0671c6"},"vehicle_type_id":"4","last_reported":1750244988,"current_range_meters":12000,"station_id":"ce4bgjh2rcd13ifvqbf0","pricing_plan_id":"cebpf4jnsgd1na2vs0mg"},{"bike_id":"f7fa858e-b7ee-404f-8191-6184cc003e2b","system_id":"levelo_inurba_marseille","lat":43.23188,"lon":5.35562,"is_reserved":false,"is_disabled":false,"rental_uris":{"android":"levelo://app?vid=f7fa858e-b7ee-404f-8191-6184cc003e2b","ios":"levelo://app?vid=f7fa858e-b7ee-404f-8191-6184cc003e2b"},"vehicle_type_id":"4","last_reported":1750244988,"current_range_meters":12000,"station_id":"ce4bhu92rcd13ifvqi70","pricing_plan_id":"cebpf4jnsgd1na2vs0mg"},{"bike_id":"b3afc617-92cc-4315-88cf-83af2bf0e167","system_id":"levelo_inurba_marseille","lat":43.217512,"lon":5.34597,"is_reserved":false,"is_disabled":false,"rental_uris":{"android":"levelo://app?vid=b3afc617-92cc-4315-88cf-83af2bf0e167","ios":"levelo://app?vid=b3afc617-92cc-4315-88cf-83af2bf0e167"},"vehicle_type_id":"4","last_reported":1750244988,"current_range_meters":12000,"station_id":"st_cvj6r9ubvosntc0bgbag","pricing_plan_id":"cebpf4jnsgd1na2vs0mg"},{"bike_id":"3518210a-6d90-482f-a11b-11cb7c94acd1","system_id":"levelo_inurba_marseille","lat":43.26485,"lon":5.39204,"is_reserved":false,"is_disabled":false,"rental_uris":{"android":"levelo://app?vid=3518210a-6d90-482f-a11b-11cb7c94acd1","ios":"levelo://app?vid=3518210a-6d90-482f-a11b-11cb7c94acd1"},"vehicle_type_id":"4","last_reported":1750244988,"current_range_meters":12400,"station_id":"","pricing_plan_id":"cebpf4jnsgd1na2vs0mg"},{"bike_id":"2dccdb96-9c59-4c11-b9f3-596bffdbd69e","system_id":"levelo_inurba_marseille","lat":43.21746,"lon":5.34606,"is_reserved":false,"is_disabled":false,"rental_uris":{"android":"levelo://app?vid=2dccdb96-9c59-4c11-b9f3-596bffdbd69e","ios":"levelo://app?vid=2dccdb96-9c59-4c11-b9f3-596bffdbd69e"},"vehicle_type_id":"4","last_reported":1750244988,"current_range_meters":12400,"station_id":"","pricing_plan_id":"cebpf4jnsgd1na2vs0mg"},{"bike_id":"81fdaf24-af4e-4340-94e1-8d8aac2de5dc","system_id":"levelo_inurba_marseille","lat":43.29766,"lon":5.37109,"is_reserved":false,"is_disabled":false,"rental_uris":{"android":"levelo://app?vid=81fdaf24-af4e-4340-94e1-8d8aac2de5dc","ios":"levelo://app?vid=81fdaf24-af4e-4340-94e1-8d8aac2de5dc"},"vehicle_type_id":"4","last_reported":1750244988,"current_range_meters":12400,"station_id":"ce4bgop2rcd13ifvqc1g","pricing_plan_id":"cebpf4jnsgd1na2vs0mg"},{"bike_id":"e131d3c0-2166-4c28-87b2-db528a025098","system_id":"levelo_inurba_marseille","lat":43.23145,"lon":5.43711,"is_reserved":false,"is_disabled":false,"rental_uris":{"android":"levelo://app?vid=e131d3c0-2166-4c28-87b2-db528a025098","ios":"levelo://app?vid=e131d3c0-2166-4c28-87b2-db528a025098"},"vehicle_type_id":"4","last_reported":1750244988,"current_range_meters":12400,"station_id":"ce4bhmp2rcd13ifvqgog","pricing_plan_id":"cebpf4jnsgd1na2vs0mg"},{"bike_id":"e0a889cf-2327-4278-9b67-453fc8c6ae2a","system_id":"levelo_inurba_marseille","lat":43.30249,"lon":5.37423,"is_reserved":false,"is_disabled":false,"rental_uris":{"android":"levelo://app?vid=e0a889cf-2327-4278-9b67-453fc8c6ae2a","ios":"levelo://app?vid=e0a889cf-2327-4278-9b67-453fc8c6ae2a"},"vehicle_type_id":"4","last_reported":1750244988,"current_range_meters":12800,"station_id":"","pricing_plan_id":"cebpf4jnsgd1na2vs0mg"},{"bike_id":"5f30b9cc-0831-4f39-9aa9-cff319ac1b1a","system_id":"levelo_inurba_marseille","lat":43.28415,"lon":5.37515,"is_reserved":false,"is_disabled":false,"rental_uris":{"android":"levelo://app?vid=5f30b9cc-0831-4f39-9aa9-cff319ac1b1a","ios":"levelo://app?vid=5f30b9cc-0831-4f39-9aa9-cff319ac1b1a"},"vehicle_type_id":"4","last_reported":1750244988,"current_range_meters":12800,"station_id":"ce4bh412rcd13ifvqds0","pricing_plan_id":"cebpf4jnsgd1na2vs0mg"},{"bike_id":"f4988e37-0360-439d-a6b3-834e45cce883","system_id":"levelo_inurba_marseille","lat":43.29266,"lon":5.38431,"is_reserved":false,"is_disabled":false,"rental_uris":{"android":"levelo://app?vid=f4988e37-0360-439d-a6b3-834e45cce883","ios":"levelo://app?vid=f4988e37-0360-439d-a6b3-834e45cce883"},"vehicle_type_id":"4","last_reported":1750244988,"current_range_meters":12800,"station_id":"ce4bh692rcd13ifvqea0","pricing_plan_id":"cebpf4jnsgd1na2vs0mg"},{"bike_id":"df4e2464-49cf-4137-a654-97f7634a7442","system_id":"levelo_inurba_marseille","lat":43.24389,"lon":5.37059,"is_reserved":false,"is_disabled":false,"rental_uris":{"android":"levelo://app?vid=df4e2464-49cf-4137-a654-97f7634a7442","ios":"levelo://app?vid=df4e2464-49cf-4137-a654-97f7634a7442"},"vehicle_type_id":"4","last_reported":1750244988,"current_range_meters":12800,"station_id":"ce4bhhh2rcd13ifvqfk0","pricing_plan_id":"cebpf4jnsgd1na2vs0mg"},{"bike_id":"21c5a6e1-ee31-4c46-800b-dc6f7391485e","system_id":"levelo_inurba_marseille","lat":43.26496,"lon":5.39545,"is_reserved":false,"is_disabled":false,"rental_uris":{"android":"levelo://app?vid=21c5a6e1-ee31-4c46-800b-dc6f7391485e","ios":"levelo://app?vid=21c5a6e1-ee31-4c46-800b-dc6f7391485e"},"vehicle_type_id":"4","last_reported":1750244988,"current_range_meters":12800,"station_id":"ce4bhi12rcd13ifvqfq0","pricing_plan_id":"cebpf4jnsgd1na2vs0mg"},{"bike_id":"9a69d5de-375d-479e-844b-22c31030f099","system_id":"levelo_inurba_marseille","lat":43.2511,"lon":5.40322,"is_reserved":false,"is_disabled":false,"rental_uris":{"android":"levelo://app?vid=9a69d5de-375d-479e-844b-22c31030f099","ios":"levelo://app?vid=9a69d5de-375d-479e-844b-22c31030f099"},"vehicle_type_id":"4","last_reported":1750244988,"current_range_meters":12800,"station_id":"ce4bhlh2rcd13ifvqgig","pricing_plan_id":"cebpf4jnsgd1na2vs0mg"},{"bike_id":"7623d8f1-4f5d-4063-910c-ea5e2148cb1d","system_id":"levelo_inurba_marseille","lat":43.28152,"lon":5.42649,"is_reserved":false,"is_disabled":false,"rental_uris":{"android":"levelo://app?vid=7623d8f1-4f5d-4063-910c-ea5e2148cb1d","ios":"levelo://app?vid=7623d8f1-4f5d-4063-910c-ea5e2148cb1d"},"vehicle_type_id":"4","last_reported":1750244988,"current_range_meters":12800,"station_id":"ce4bhnh2rcd13ifvqgug","pricing_plan_id":"cebpf4jnsgd1na2vs0mg"},{"bike_id":"4b8da722-ee9e-48a4-a5e5-3a8a10364708","system_id":"levelo_inurba_marseille","lat":43.31223,"lon":5.37809,"is_reserved":false,"is_disabled":false,"rental_uris":{"android":"levelo://app?vid=4b8da722-ee9e-48a4-a5e5-3a8a10364708","ios":"levelo://app?vid=4b8da722-ee9e-48a4-a5e5-3a8a10364708"},"vehicle_type_id":"4","last_reported":1750244988,"current_range_meters":13600,"station_id":"","pricing_plan_id":"cebpf4jnsgd1na2vs0mg"},{"bike_id":"4a160e56-dcad-44e7-bdce-90cf6a832b42","system_id":"levelo_inurba_marseille","lat":43.2961,"lon":5.38107,"is_reserved":false,"is_disabled":false,"rental_uris":{"android":"levelo://app?vid=4a160e56-dcad-44e7-bdce-90cf6a832b42","ios":"levelo://app?vid=4a160e56-dcad-44e7-bdce-90cf6a832b42"},"vehicle_type_id":"4","last_reported":1750244988,"current_range_meters":13600,"station_id":"ce4bgl12rcd13ifvqbo0","pricing_plan_id":"cebpf4jnsgd1na2vs0mg"},{"bike_id":"f96fac91-fcd6-4cf6-94db-3fb959156263","system_id":"levelo_inurba_marseille","lat":43.282805,"lon":5.35062,"is_reserved":false,"is_disabled":false,"rental_uris":{"android":"levelo://app?vid=f96fac91-fcd6-4cf6-94db-3fb959156263","ios":"levelo://app?vid=f96fac91-fcd6-4cf6-94db-3fb959156263"},"vehicle_type_id":"4","last_reported":1750244988,"current_range_meters":13600,"station_id":"ce4bhbp2rcd13ifvqerg","pricing_plan_id":"cebpf4jnsgd1na2vs0mg"},{"bike_id":"c5afae11-33fd-454a-b400-0ee0acee1570","system_id":"levelo_inurba_marseille","lat":43.27317,"lon":5.39072,"is_reserved":false,"is_disabled":false,"rental_uris":{"android":"levelo://app?vid=c5afae11-33fd-454a-b400-0ee0acee1570","ios":"levelo://app?vid=c5afae11-33fd-454a-b400-0ee0acee1570"},"vehicle_type_id":"4","last_reported":1750244988,"current_range_meters":13600,"station_id":"ce4bhgp2rcd13ifvqfe0","pricing_plan_id":"cebpf4jnsgd1na2vs0mg"},{"bike_id":"9a2afdae-6eeb-40df-869f-4bc2a7ffc831","system_id":"levelo_inurba_marseille","lat":43.33608,"lon":5.41035,"is_reserved":false,"is_disabled":false,"rental_uris":{"android":"levelo://app?vid=9a2afdae-6eeb-40df-869f-4bc2a7ffc831","ios":"levelo://app?vid=9a2afdae-6eeb-40df-869f-4bc2a7ffc831"},"vehicle_type_id":"4","last_reported":1750244988,"current_range_meters":13600,"station_id":"ce4bhqh2rcd13ifvqhmg","pricing_plan_id":"cebpf4jnsgd1na2vs0mg"},{"bike_id":"0dedb6f6-6801-483b-bfb8-9cd4533d158f","system_id":"levelo_inurba_marseille","lat":43.31126,"lon":5.38076,"is_reserved":false,"is_disabled":false,"rental_uris":{"android":"levelo://app?vid=0dedb6f6-6801-483b-bfb8-9cd4533d158f","ios":"levelo://app?vid=0dedb6f6-6801-483b-bfb8-9cd4533d158f"},"vehicle_type_id":"4","last_reported":1750244988,"current_range_meters":14000,"station_id":"","pricing_plan_id":"cebpf4jnsgd1na2vs0mg"},{"bike_id":"a60724fd-2425-41c1-a369-875919c112ae","system_id":"levelo_inurba_marseille","lat":43.3055,"lon":5.36524,"is_reserved":false,"is_disabled":false,"rental_uris":{"android":"levelo://app?vid=a60724fd-2425-41c1-a369-875919c112ae","ios":"levelo://app?vid=a60724fd-2425-41c1-a369-875919c112ae"},"vehicle_type_id":"4","last_reported":1750244988,"current_range_meters":14000,"station_id":"ce4bgs12rcd13ifvqcag","pricing_plan_id":"cebpf4jnsgd1na2vs0mg"},{"bike_id":"bf926316-c2d2-4b23-8f2b-109a2206ed7c","system_id":"levelo_inurba_marseille","lat":43.30132,"lon":5.37443,"is_reserved":false,"is_disabled":false,"rental_uris":{"android":"levelo://app?vid=bf926316-c2d2-4b23-8f2b-109a2206ed7c","ios":"levelo://app?vid=bf926316-c2d2-4b23-8f2b-109a2206ed7c"},"vehicle_type_id":"4","last_reported":1750244988,"current_range_meters":14000,"station_id":"ce4bgs92rcd13ifvqcc0","pricing_plan_id":"cebpf4jnsgd1na2vs0mg"},{"bike_id":"d44811ec-e9b3-4d96-9419-14e330144d4b","system_id":"levelo_inurba_marseille","lat":43.30143,"lon":5.3739,"is_reserved":false,"is_disabled":false,"rental_uris":{"android":"levelo://app?vid=d44811ec-e9b3-4d96-9419-14e330144d4b","ios":"levelo://app?vid=d44811ec-e9b3-4d96-9419-14e330144d4b"},"vehicle_type_id":"4","last_reported":1750244988,"current_range_meters":14000,"station_id":"ce4bgs92rcd13ifvqcc0","pricing_plan_id":"cebpf4jnsgd1na2vs0mg"},{"bike_id":"713a1963-a9a8-4281-85d6-22027690e8f2","system_id":"levelo_inurba_marseille","lat":43.23149,"lon":5.43718,"is_reserved":false,"is_disabled":false,"rental_uris":{"android":"levelo://app?vid=713a1963-a9a8-4281-85d6-22027690e8f2","ios":"levelo://app?vid=713a1963-a9a8-4281-85d6-22027690e8f2"},"vehicle_type_id":"4","last_reported":1750244988,"current_range_meters":14000,"station_id":"ce4bhmp2rcd13ifvqgog","pricing_plan_id":"cebpf4jnsgd1na2vs0mg"},{"bike_id":"d1cf4809-6529-41e3-8cbc-570ff5bdad5f","system_id":"levelo_inurba_marseille","lat":43.32111,"lon":5.36777,"is_reserved":false,"is_disabled":false,"rental_uris":{"android":"levelo://app?vid=d1cf4809-6529-41e3-8cbc-570ff5bdad5f","ios":"levelo://app?vid=d1cf4809-6529-41e3-8cbc-570ff5bdad5f"},"vehicle_type_id":"4","last_reported":1750244988,"current_range_meters":14000,"station_id":"ce4bhrh2rcd13ifvqhug","pricing_plan_id":"cebpf4jnsgd1na2vs0mg"},{"bike_id":"b9740617-416c-49ef-a593-d345aa13726b","system_id":"levelo_inurba_marseille","lat":43.26976,"lon":5.43151,"is_reserved":false,"is_disabled":false,"rental_uris":{"android":"levelo://app?vid=b9740617-416c-49ef-a593-d345aa13726b","ios":"levelo://app?vid=b9740617-416c-49ef-a593-d345aa13726b"},"vehicle_type_id":"4","last_reported":1750244988,"current_range_meters":14400,"station_id":"","pricing_plan_id":"cebpf4jnsgd1na2vs0mg"},{"bike_id":"e755af74-6ff6-40ce-9510-bd2602e2ae64","system_id":"levelo_inurba_marseille","lat":43.29528,"lon":5.38545,"is_reserved":false,"is_disabled":false,"rental_uris":{"android":"levelo://app?vid=e755af74-6ff6-40ce-9510-bd2602e2ae64","ios":"levelo://app?vid=e755af74-6ff6-40ce-9510-bd2602e2ae64"},"vehicle_type_id":"4","last_reported":1750244988,"current_range_meters":14400,"station_id":"ce4bgih2rcd13ifvqba0","pricing_plan_id":"cebpf4jnsgd1na2vs0mg"},{"bike_id":"ce5fd15a-17f4-4492-aa0c-52968bec6dcc","system_id":"levelo_inurba_marseille","lat":43.3113,"lon":5.37766,"is_reserved":false,"is_disabled":false,"rental_uris":{"android":"levelo://app?vid=ce5fd15a-17f4-4492-aa0c-52968bec6dcc","ios":"levelo://app?vid=ce5fd15a-17f4-4492-aa0c-52968bec6dcc"},"vehicle_type_id":"4","last_reported":1750244988,"current_range_meters":14400,"station_id":"ce4bgt92rcd13ifvqcg0","pricing_plan_id":"cebpf4jnsgd1na2vs0mg"},{"bike_id":"84a27954-b4d3-42a7-9e99-e19be921b5f8","system_id":"levelo_inurba_marseille","lat":43.28564,"lon":5.39508,"is_reserved":false,"is_disabled":false,"rental_uris":{"android":"levelo://app?vid=84a27954-b4d3-42a7-9e99-e19be921b5f8","ios":"levelo://app?vid=84a27954-b4d3-42a7-9e99-e19be921b5f8"},"vehicle_type_id":"4","last_reported":1750244988,"current_range_meters":14400,"station_id":"ce4bh292rcd13ifvqdg0","pricing_plan_id":"cebpf4jnsgd1na2vs0mg"},{"bike_id":"b2eeb0d0-584c-4902-96c3-e0730de7811a","system_id":"levelo_inurba_marseille","lat":43.291931,"lon":5.357955,"is_reserved":false,"is_disabled":false,"rental_uris":{"android":"levelo://app?vid=b2eeb0d0-584c-4902-96c3-e0730de7811a","ios":"levelo://app?vid=b2eeb0d0-584c-4902-96c3-e0730de7811a"},"vehicle_type_id":"4","last_reported":1750244988,"current_range_meters":14400,"station_id":"ce4bhb12rcd13ifvqel0","pricing_plan_id":"cebpf4jnsgd1na2vs0mg"},{"bike_id":"6629e9c2-19af-45c3-88fd-0148f17f6067","system_id":"levelo_inurba_marseille","lat":43.24799,"lon":5.37454,"is_reserved":false,"is_disabled":false,"rental_uris":{"android":"levelo://app?vid=6629e9c2-19af-45c3-88fd-0148f17f6067","ios":"levelo://app?vid=6629e9c2-19af-45c3-88fd-0148f17f6067"},"vehicle_type_id":"4","last_reported":1750244988,"current_range_meters":14400,"station_id":"ce4bhgh2rcd13ifvqfb0","pricing_plan_id":"cebpf4jnsgd1na2vs0mg"},{"bike_id":"1e811d78-daec-4c78-861f-af8fd0de3a46","system_id":"levelo_inurba_marseille","lat":43.24177,"lon":5.39727,"is_reserved":false,"is_disabled":false,"rental_uris":{"android":"levelo://app?vid=1e811d78-daec-4c78-861f-af8fd0de3a46","ios":"levelo://app?vid=1e811d78-daec-4c78-861f-af8fd0de3a46"},"vehicle_type_id":"4","last_reported":1750244988,"current_range_meters":14400,"station_id":"ce4bhn12rcd13ifvqgpg","pricing_plan_id":"cebpf4jnsgd1na2vs0mg"},{"bike_id":"5d9a3299-14e6-4ade-b1cf-fbedbbcab184","system_id":"levelo_inurba_marseille","lat":43.29515,"lon":5.37504,"is_reserved":false,"is_disabled":false,"rental_uris":{"android":"levelo://app?vid=5d9a3299-14e6-4ade-b1cf-fbedbbcab184","ios":"levelo://app?vid=5d9a3299-14e6-4ade-b1cf-fbedbbcab184"},"vehicle_type_id":"4","last_reported":1750244988,"current_range_meters":14800,"station_id":"ce4bgkp2rcd13ifvqbmg","pricing_plan_id":"cebpf4jnsgd1na2vs0mg"},{"bike_id":"88bef845-9a63-4768-93c4-9cbc9d3eaaab","system_id":"levelo_inurba_marseille","lat":43.31104,"lon":5.37728,"is_reserved":false,"is_disabled":false,"rental_uris":{"android":"levelo://app?vid=88bef845-9a63-4768-93c4-9cbc9d3eaaab","ios":"levelo://app?vid=88bef845-9a63-4768-93c4-9cbc9d3eaaab"},"vehicle_type_id":"4","last_reported":1750244988,"current_range_meters":14800,"station_id":"ce4bgt92rcd13ifvqcg0","pricing_plan_id":"cebpf4jnsgd1na2vs0mg"},{"bike_id":"18acf907-a6a4-441d-95ee-11e94ec9ed71","system_id":"levelo_inurba_marseille","lat":43.26061,"lon":5.39394,"is_reserved":false,"is_disabled":false,"rental_uris":{"android":"levelo://app?vid=18acf907-a6a4-441d-95ee-11e94ec9ed71","ios":"levelo://app?vid=18acf907-a6a4-441d-95ee-11e94ec9ed71"},"vehicle_type_id":"4","last_reported":1750244988,"current_range_meters":14800,"station_id":"ce4bhh92rcd13ifvqfj0","pricing_plan_id":"cebpf4jnsgd1na2vs0mg"},{"bike_id":"763cb842-5ce0-4bb0-8225-4122cd46c6b9","system_id":"levelo_inurba_marseille","lat":43.28713,"lon":5.39984,"is_reserved":false,"is_disabled":false,"rental_uris":{"android":"levelo://app?vid=763cb842-5ce0-4bb0-8225-4122cd46c6b9","ios":"levelo://app?vid=763cb842-5ce0-4bb0-8225-4122cd46c6b9"},"vehicle_type_id":"4","last_reported":1750244988,"current_range_meters":14800,"station_id":"ce4bho92rcd13ifvqh3g","pricing_plan_id":"cebpf4jnsgd1na2vs0mg"},{"bike_id":"75bdddd2-5231-4b11-90bc-5b998201fdc4","system_id":"levelo_inurba_marseille","lat":43.24164,"lon":5.36379,"is_reserved":false,"is_disabled":false,"rental_uris":{"android":"levelo://app?vid=75bdddd2-5231-4b11-90bc-5b998201fdc4","ios":"levelo://app?vid=75bdddd2-5231-4b11-90bc-5b998201fdc4"},"vehicle_type_id":"4","last_reported":1750244988,"current_range_meters":14800,"station_id":"cpo36qri1sfpv3e86is0","pricing_plan_id":"cebpf4jnsgd1na2vs0mg"},{"bike_id":"519791ae-fb2f-45a3-a2ff-6019a10f140d","system_id":"levelo_inurba_marseille","lat":43.31344,"lon":5.36716,"is_reserved":false,"is_disabled":false,"rental_uris":{"android":"levelo://app?vid=519791ae-fb2f-45a3-a2ff-6019a10f140d","ios":"levelo://app?vid=519791ae-fb2f-45a3-a2ff-6019a10f140d"},"vehicle_type_id":"4","last_reported":1750244988,"current_range_meters":15200,"station_id":"ce4bgr92rcd13ifvqc6g","pricing_plan_id":"cebpf4jnsgd1na2vs0mg"},{"bike_id":"9e6b6795-72a7-4c2f-ae9a-06b58fcd1632","system_id":"levelo_inurba_marseille","lat":43.25912,"lon":5.40888,"is_reserved":false,"is_disabled":false,"rental_uris":{"android":"levelo://app?vid=9e6b6795-72a7-4c2f-ae9a-06b58fcd1632","ios":"levelo://app?vid=9e6b6795-72a7-4c2f-ae9a-06b58fcd1632"},"vehicle_type_id":"4","last_reported":1750244988,"current_range_meters":15200,"station_id":"ce4bhm92rcd13ifvqglg","pricing_plan_id":"cebpf4jnsgd1na2vs0mg"},{"bike_id":"7304b484-6019-4f8b-b6bb-3680d574f187","system_id":"levelo_inurba_marseille","lat":43.27492,"lon":5.42449,"is_reserved":false,"is_disabled":false,"rental_uris":{"android":"levelo://app?vid=7304b484-6019-4f8b-b6bb-3680d574f187","ios":"levelo://app?vid=7304b484-6019-4f8b-b6bb-3680d574f187"},"vehicle_type_id":"4","last_reported":1750244988,"current_range_meters":15200,"station_id":"ce4bhn92rcd13ifvqgrg","pricing_plan_id":"cebpf4jnsgd1na2vs0mg"},{"bike_id":"1edd31f8-0128-4621-925e-4decf3aa47f1","system_id":"levelo_inurba_marseille","lat":43.211913,"lon":5.350735,"is_reserved":false,"is_disabled":false,"rental_uris":{"android":"levelo://app?vid=1edd31f8-0128-4621-925e-4decf3aa47f1","ios":"levelo://app?vid=1edd31f8-0128-4621-925e-4decf3aa47f1"},"vehicle_type_id":"4","last_reported":1750244988,"current_range_meters":15200,"station_id":"st_cvj6sg6p6f1abm77japg","pricing_plan_id":"cebpf4jnsgd1na2vs0mg"},{"bike_id":"faf048f0-ef47-45f8-8544-8137d956151e","system_id":"levelo_inurba_marseille","lat":43.31249,"lon":5.37442,"is_reserved":false,"is_disabled":false,"rental_uris":{"android":"levelo://app?vid=faf048f0-ef47-45f8-8544-8137d956151e","ios":"levelo://app?vid=faf048f0-ef47-45f8-8544-8137d956151e"},"vehicle_type_id":"4","last_reported":1750244988,"current_range_meters":16000,"station_id":"","pricing_plan_id":"cebpf4jnsgd1na2vs0mg"},{"bike_id":"268aafb4-1331-426c-97bc-a7d6564caeb6","system_id":"levelo_inurba_marseille","lat":43.32933,"lon":5.37919,"is_reserved":false,"is_disabled":false,"rental_uris":{"android":"levelo://app?vid=268aafb4-1331-426c-97bc-a7d6564caeb6","ios":"levelo://app?vid=268aafb4-1331-426c-97bc-a7d6564caeb6"},"vehicle_type_id":"4","last_reported":1750244988,"current_range_meters":16000,"station_id":"","pricing_plan_id":"cebpf4jnsgd1na2vs0mg"},{"bike_id":"2d328219-5d0a-4cfc-829b-c48c09d27f58","system_id":"levelo_inurba_marseille","lat":43.217598,"lon":5.346037,"is_reserved":false,"is_disabled":false,"rental_uris":{"android":"levelo://app?vid=2d328219-5d0a-4cfc-829b-c48c09d27f58","ios":"levelo://app?vid=2d328219-5d0a-4cfc-829b-c48c09d27f58"},"vehicle_type_id":"4","last_reported":1750244988,"current_range_meters":16000,"station_id":"","pricing_plan_id":"cebpf4jnsgd1na2vs0mg"},{"bike_id":"a69e1c3b-d2a3-4298-87bd-eb1235011637","system_id":"levelo_inurba_marseille","lat":43.28939,"lon":5.39637,"is_reserved":false,"is_disabled":false,"rental_uris":{"android":"levelo://app?vid=a69e1c3b-d2a3-4298-87bd-eb1235011637","ios":"levelo://app?vid=a69e1c3b-d2a3-4298-87bd-eb1235011637"},"vehicle_type_id":"4","last_reported":1750244988,"current_range_meters":16000,"station_id":"ce4bh3h2rcd13ifvqdn0","pricing_plan_id":"cebpf4jnsgd1na2vs0mg"},{"bike_id":"ffe43da9-8f6f-45b0-99f4-e29f1ad47cbc","system_id":"levelo_inurba_marseille","lat":43.28611,"lon":5.35103,"is_reserved":false,"is_disabled":false,"rental_uris":{"android":"levelo://app?vid=ffe43da9-8f6f-45b0-99f4-e29f1ad47cbc","ios":"levelo://app?vid=ffe43da9-8f6f-45b0-99f4-e29f1ad47cbc"},"vehicle_type_id":"4","last_reported":1750244988,"current_range_meters":16000,"station_id":"ce4bhch2rcd13ifvqeug","pricing_plan_id":"cebpf4jnsgd1na2vs0mg"},{"bike_id":"8be5dcbc-d4b3-40a0-a2a5-3194fe362605","system_id":"levelo_inurba_marseille","lat":43.24662,"lon":5.38167,"is_reserved":false,"is_disabled":false,"rental_uris":{"android":"levelo://app?vid=8be5dcbc-d4b3-40a0-a2a5-3194fe362605","ios":"levelo://app?vid=8be5dcbc-d4b3-40a0-a2a5-3194fe362605"},"vehicle_type_id":"4","last_reported":1750244988,"current_range_meters":16000,"station_id":"ce4bhih2rcd13ifvqfr0","pricing_plan_id":"cebpf4jnsgd1na2vs0mg"},{"bike_id":"442bcfee-7a20-4a92-8b55-312bae109d9b","system_id":"levelo_inurba_marseille","lat":43.32476,"lon":5.36572,"is_reserved":false,"is_disabled":false,"rental_uris":{"android":"levelo://app?vid=442bcfee-7a20-4a92-8b55-312bae109d9b","ios":"levelo://app?vid=442bcfee-7a20-4a92-8b55-312bae109d9b"},"vehicle_type_id":"4","last_reported":1750244988,"current_range_meters":16000,"station_id":"ce4bhs12rcd13ifvqhvg","pricing_plan_id":"cebpf4jnsgd1na2vs0mg"},{"bike_id":"8dc3f506-d8c7-45a7-8cc8-ec897678ea5f","system_id":"levelo_inurba_marseille","lat":43.24182,"lon":5.36408,"is_reserved":false,"is_disabled":false,"rental_uris":{"android":"levelo://app?vid=8dc3f506-d8c7-45a7-8cc8-ec897678ea5f","ios":"levelo://app?vid=8dc3f506-d8c7-45a7-8cc8-ec897678ea5f"},"vehicle_type_id":"4","last_reported":1750244988,"current_range_meters":16000,"station_id":"cpo36qri1sfpv3e86is0","pricing_plan_id":"cebpf4jnsgd1na2vs0mg"},{"bike_id":"9d993ade-3922-40c5-8263-dca4e469e9a1","system_id":"levelo_inurba_marseille","lat":43.21196,"lon":5.35081,"is_reserved":false,"is_disabled":false,"rental_uris":{"android":"levelo://app?vid=9d993ade-3922-40c5-8263-dca4e469e9a1","ios":"levelo://app?vid=9d993ade-3922-40c5-8263-dca4e469e9a1"},"vehicle_type_id":"4","last_reported":1750244988,"current_range_meters":16000,"station_id":"st_cvj6sg6p6f1abm77japg","pricing_plan_id":"cebpf4jnsgd1na2vs0mg"},{"bike_id":"f025e0b0-8595-426c-b214-cb9b74c5fcfd","system_id":"levelo_inurba_marseille","lat":43.32192,"lon":5.40568,"is_reserved":false,"is_disabled":false,"rental_uris":{"android":"levelo://app?vid=f025e0b0-8595-426c-b214-cb9b74c5fcfd","ios":"levelo://app?vid=f025e0b0-8595-426c-b214-cb9b74c5fcfd"},"vehicle_type_id":"4","last_reported":1750244988,"current_range_meters":16400,"station_id":"","pricing_plan_id":"cebpf4jnsgd1na2vs0mg"},{"bike_id":"8b146626-23e4-4258-8262-90b3b385fd5a","system_id":"levelo_inurba_marseille","lat":43.301819,"lon":5.36624,"is_reserved":false,"is_disabled":false,"rental_uris":{"android":"levelo://app?vid=8b146626-23e4-4258-8262-90b3b385fd5a","ios":"levelo://app?vid=8b146626-23e4-4258-8262-90b3b385fd5a"},"vehicle_type_id":"4","last_reported":1750244988,"current_range_meters":16400,"station_id":"ce4bgrh2rcd13ifvqc8g","pricing_plan_id":"cebpf4jnsgd1na2vs0mg"},{"bike_id":"6c39e762-fd98-4111-a617-8e8b73df1f99","system_id":"levelo_inurba_marseille","lat":43.29571,"lon":5.39987,"is_reserved":false,"is_disabled":false,"rental_uris":{"android":"levelo://app?vid=6c39e762-fd98-4111-a617-8e8b73df1f99","ios":"levelo://app?vid=6c39e762-fd98-4111-a617-8e8b73df1f99"},"vehicle_type_id":"4","last_reported":1750244988,"current_range_meters":16400,"station_id":"ce4bh312rcd13ifvqdj0","pricing_plan_id":"cebpf4jnsgd1na2vs0mg"},{"bike_id":"a4a1f81d-f1d3-4a18-91ac-e86adf4b0027","system_id":"levelo_inurba_marseille","lat":43.28269,"lon":5.35076,"is_reserved":false,"is_disabled":false,"rental_uris":{"android":"levelo://app?vid=a4a1f81d-f1d3-4a18-91ac-e86adf4b0027","ios":"levelo://app?vid=a4a1f81d-f1d3-4a18-91ac-e86adf4b0027"},"vehicle_type_id":"4","last_reported":1750244988,"current_range_meters":16400,"station_id":"ce4bhbp2rcd13ifvqerg","pricing_plan_id":"cebpf4jnsgd1na2vs0mg"},{"bike_id":"d05beadd-1daa-4000-91ef-add050990cb0","system_id":"levelo_inurba_marseille","lat":43.2955,"lon":5.42295,"is_reserved":false,"is_disabled":false,"rental_uris":{"android":"levelo://app?vid=d05beadd-1daa-4000-91ef-add050990cb0","ios":"levelo://app?vid=d05beadd-1daa-4000-91ef-add050990cb0"},"vehicle_type_id":"4","last_reported":1750244988,"current_range_meters":16400,"station_id":"ce4bhph2rcd13ifvqhdg","pricing_plan_id":"cebpf4jnsgd1na2vs0mg"},{"bike_id":"d6b59448-6161-4e70-befd-235ecc0fb1fc","system_id":"levelo_inurba_marseille","lat":43.23191,"lon":5.35565,"is_reserved":false,"is_disabled":false,"rental_uris":{"android":"levelo://app?vid=d6b59448-6161-4e70-befd-235ecc0fb1fc","ios":"levelo://app?vid=d6b59448-6161-4e70-befd-235ecc0fb1fc"},"vehicle_type_id":"4","last_reported":1750244988,"current_range_meters":16400,"station_id":"ce4bhu92rcd13ifvqi70","pricing_plan_id":"cebpf4jnsgd1na2vs0mg"},{"bike_id":"eaaa9fcd-34d4-4d0b-8f90-fbf605a0610f","system_id":"levelo_inurba_marseille","lat":43.21202,"lon":5.35076,"is_reserved":false,"is_disabled":false,"rental_uris":{"android":"levelo://app?vid=eaaa9fcd-34d4-4d0b-8f90-fbf605a0610f","ios":"levelo://app?vid=eaaa9fcd-34d4-4d0b-8f90-fbf605a0610f"},"vehicle_type_id":"4","last_reported":1750244988,"current_range_meters":16400,"station_id":"st_cvj6sg6p6f1abm77japg","pricing_plan_id":"cebpf4jnsgd1na2vs0mg"},{"bike_id":"e921cee3-b8ce-4c00-b7eb-8ab335b5e125","system_id":"levelo_inurba_marseille","lat":43.301943,"lon":5.422728,"is_reserved":false,"is_disabled":false,"rental_uris":{"android":"levelo://app?vid=e921cee3-b8ce-4c00-b7eb-8ab335b5e125","ios":"levelo://app?vid=e921cee3-b8ce-4c00-b7eb-8ab335b5e125"},"vehicle_type_id":"4","last_reported":1750244988,"current_range_meters":16800,"station_id":"","pricing_plan_id":"cebpf4jnsgd1na2vs0mg"},{"bike_id":"ae2fdae3-50bf-4bd1-ba6e-560530838045","system_id":"levelo_inurba_marseille","lat":43.2632,"lon":5.37394,"is_reserved":false,"is_disabled":false,"rental_uris":{"android":"levelo://app?vid=ae2fdae3-50bf-4bd1-ba6e-560530838045","ios":"levelo://app?vid=ae2fdae3-50bf-4bd1-ba6e-560530838045"},"vehicle_type_id":"4","last_reported":1750244988,"current_range_meters":16800,"station_id":"","pricing_plan_id":"cebpf4jnsgd1na2vs0mg"},{"bike_id":"9cd40eb9-40c0-4361-bcc2-c037d7250b48","system_id":"levelo_inurba_marseille","lat":43.21749,"lon":5.34588,"is_reserved":false,"is_disabled":false,"rental_uris":{"android":"levelo://app?vid=9cd40eb9-40c0-4361-bcc2-c037d7250b48","ios":"levelo://app?vid=9cd40eb9-40c0-4361-bcc2-c037d7250b48"},"vehicle_type_id":"4","last_reported":1750244988,"current_range_meters":16800,"station_id":"","pricing_plan_id":"cebpf4jnsgd1na2vs0mg"},{"bike_id":"6ce0c0e9-c43d-4c57-9e50-b5cf84460b3f","system_id":"levelo_inurba_marseille","lat":43.29295,"lon":5.3717,"is_reserved":false,"is_disabled":false,"rental_uris":{"android":"levelo://app?vid=6ce0c0e9-c43d-4c57-9e50-b5cf84460b3f","ios":"levelo://app?vid=6ce0c0e9-c43d-4c57-9e50-b5cf84460b3f"},"vehicle_type_id":"4","last_reported":1750244988,"current_range_meters":16800,"station_id":"ce4bgh92rcd13ifvqb40","pricing_plan_id":"cebpf4jnsgd1na2vs0mg"},{"bike_id":"5c9878b4-89f1-4442-84b0-44598b017874","system_id":"levelo_inurba_marseille","lat":43.25933,"lon":5.40901,"is_reserved":false,"is_disabled":false,"rental_uris":{"android":"levelo://app?vid=5c9878b4-89f1-4442-84b0-44598b017874","ios":"levelo://app?vid=5c9878b4-89f1-4442-84b0-44598b017874"},"vehicle_type_id":"4","last_reported":1750244988,"current_range_meters":16800,"station_id":"ce4bhm92rcd13ifvqglg","pricing_plan_id":"cebpf4jnsgd1na2vs0mg"},{"bike_id":"d1a40c3e-44a4-4b9a-97c3-90a5bd273762","system_id":"levelo_inurba_marseille","lat":43.2418,"lon":5.39727,"is_reserved":false,"is_disabled":false,"rental_uris":{"android":"levelo://app?vid=d1a40c3e-44a4-4b9a-97c3-90a5bd273762","ios":"levelo://app?vid=d1a40c3e-44a4-4b9a-97c3-90a5bd273762"},"vehicle_type_id":"4","last_reported":1750244988,"current_range_meters":16800,"station_id":"ce4bhn12rcd13ifvqgpg","pricing_plan_id":"cebpf4jnsgd1na2vs0mg"},{"bike_id":"4b6b2a2b-d3c4-4663-8ea1-de4eff39b7b2","system_id":"levelo_inurba_marseille","lat":43.21194,"lon":5.35089,"is_reserved":false,"is_disabled":false,"rental_uris":{"android":"levelo://app?vid=4b6b2a2b-d3c4-4663-8ea1-de4eff39b7b2","ios":"levelo://app?vid=4b6b2a2b-d3c4-4663-8ea1-de4eff39b7b2"},"vehicle_type_id":"4","last_reported":1750244988,"current_range_meters":16800,"station_id":"st_cvj6sg6p6f1abm77japg","pricing_plan_id":"cebpf4jnsgd1na2vs0mg"},{"bike_id":"55584025-0803-4276-b11c-f29e32bd2043","system_id":"levelo_inurba_marseille","lat":43.31075,"lon":5.38351,"is_reserved":false,"is_disabled":false,"rental_uris":{"android":"levelo://app?vid=55584025-0803-4276-b11c-f29e32bd2043","ios":"levelo://app?vid=55584025-0803-4276-b11c-f29e32bd2043"},"vehicle_type_id":"4","last_reported":1750244988,"current_range_meters":17200,"station_id":"ce4bgv92rcd13ifvqcr0","pricing_plan_id":"cebpf4jnsgd1na2vs0mg"},{"bike_id":"bdb74bc8-1449-47b8-842e-85c6ed872255","system_id":"levelo_inurba_marseille","lat":43.282689,"lon":5.350549,"is_reserved":false,"is_disabled":false,"rental_uris":{"android":"levelo://app?vid=bdb74bc8-1449-47b8-842e-85c6ed872255","ios":"levelo://app?vid=bdb74bc8-1449-47b8-842e-85c6ed872255"},"vehicle_type_id":"4","last_reported":1750244988,"current_range_meters":17200,"station_id":"ce4bhbp2rcd13ifvqerg","pricing_plan_id":"cebpf4jnsgd1na2vs0mg"},{"bike_id":"0da0a1b7-b3a7-4bd7-bbdd-ad34832ca56f","system_id":"levelo_inurba_marseille","lat":43.24079,"lon":5.37752,"is_reserved":false,"is_disabled":false,"rental_uris":{"android":"levelo://app?vid=0da0a1b7-b3a7-4bd7-bbdd-ad34832ca56f","ios":"levelo://app?vid=0da0a1b7-b3a7-4bd7-bbdd-ad34832ca56f"},"vehicle_type_id":"4","last_reported":1750244988,"current_range_meters":17200,"station_id":"ce4bhnp2rcd13ifvqgvg","pricing_plan_id":"cebpf4jnsgd1na2vs0mg"},{"bike_id":"a85b2000-e3ea-4c9d-8512-f632fbae13d6","system_id":"levelo_inurba_marseille","lat":43.30148,"lon":5.40114,"is_reserved":false,"is_disabled":false,"rental_uris":{"android":"levelo://app?vid=a85b2000-e3ea-4c9d-8512-f632fbae13d6","ios":"levelo://app?vid=a85b2000-e3ea-4c9d-8512-f632fbae13d6"},"vehicle_type_id":"4","last_reported":1750244988,"current_range_meters":17600,"station_id":"","pricing_plan_id":"cebpf4jnsgd1na2vs0mg"},{"bike_id":"a43da8b1-54d1-4d4d-80a0-0d1413f9877c","system_id":"levelo_inurba_marseille","lat":43.30572,"lon":5.36541,"is_reserved":false,"is_disabled":false,"rental_uris":{"android":"levelo://app?vid=a43da8b1-54d1-4d4d-80a0-0d1413f9877c","ios":"levelo://app?vid=a43da8b1-54d1-4d4d-80a0-0d1413f9877c"},"vehicle_type_id":"4","last_reported":1750244988,"current_range_meters":17600,"station_id":"ce4bgs12rcd13ifvqcag","pricing_plan_id":"cebpf4jnsgd1na2vs0mg"},{"bike_id":"d00230b3-f07f-48dd-9db1-9f767e13536d","system_id":"levelo_inurba_marseille","lat":43.31333,"lon":5.39695,"is_reserved":false,"is_disabled":false,"rental_uris":{"android":"levelo://app?vid=d00230b3-f07f-48dd-9db1-9f767e13536d","ios":"levelo://app?vid=d00230b3-f07f-48dd-9db1-9f767e13536d"},"vehicle_type_id":"4","last_reported":1750244988,"current_range_meters":17600,"station_id":"ce4bgvp2rcd13ifvqcu0","pricing_plan_id":"cebpf4jnsgd1na2vs0mg"},{"bike_id":"c1ae0304-f164-409c-b9f5-320ce00cdf52","system_id":"levelo_inurba_marseille","lat":43.2987,"lon":5.39722,"is_reserved":false,"is_disabled":false,"rental_uris":{"android":"levelo://app?vid=c1ae0304-f164-409c-b9f5-320ce00cdf52","ios":"levelo://app?vid=c1ae0304-f164-409c-b9f5-320ce00cdf52"},"vehicle_type_id":"4","last_reported":1750244988,"current_range_meters":17600,"station_id":"ce4bh0h2rcd13ifvqd50","pricing_plan_id":"cebpf4jnsgd1na2vs0mg"},{"bike_id":"fb4b946f-9b99-4a94-8ad1-726bc6c806e3","system_id":"levelo_inurba_marseille","lat":43.28846,"lon":5.3586,"is_reserved":false,"is_disabled":false,"rental_uris":{"android":"levelo://app?vid=fb4b946f-9b99-4a94-8ad1-726bc6c806e3","ios":"levelo://app?vid=fb4b946f-9b99-4a94-8ad1-726bc6c806e3"},"vehicle_type_id":"4","last_reported":1750244988,"current_range_meters":17600,"station_id":"ce4bhb12rcd13ifvqem0","pricing_plan_id":"cebpf4jnsgd1na2vs0mg"},{"bike_id":"a3a68f0d-eb9e-48ee-80da-13fd93b3b099","system_id":"levelo_inurba_marseille","lat":43.28429,"lon":5.34991,"is_reserved":false,"is_disabled":false,"rental_uris":{"android":"levelo://app?vid=a3a68f0d-eb9e-48ee-80da-13fd93b3b099","ios":"levelo://app?vid=a3a68f0d-eb9e-48ee-80da-13fd93b3b099"},"vehicle_type_id":"4","last_reported":1750244988,"current_range_meters":17600,"station_id":"ce4bhbh2rcd13ifvqepg","pricing_plan_id":"cebpf4jnsgd1na2vs0mg"},{"bike_id":"6ba4ca26-89c4-4664-a74d-96ac8f12e08f","system_id":"levelo_inurba_marseille","lat":43.27058,"lon":5.40265,"is_reserved":false,"is_disabled":false,"rental_uris":{"android":"levelo://app?vid=6ba4ca26-89c4-4664-a74d-96ac8f12e08f","ios":"levelo://app?vid=6ba4ca26-89c4-4664-a74d-96ac8f12e08f"},"vehicle_type_id":"4","last_reported":1750244988,"current_range_meters":17600,"station_id":"ce4bhk92rcd13ifvqgc0","pricing_plan_id":"cebpf4jnsgd1na2vs0mg"},{"bike_id":"ca6c945a-428f-44d0-9163-e8af88853575","system_id":"levelo_inurba_marseille","lat":43.24179,"lon":5.39731,"is_reserved":false,"is_disabled":false,"rental_uris":{"android":"levelo://app?vid=ca6c945a-428f-44d0-9163-e8af88853575","ios":"levelo://app?vid=ca6c945a-428f-44d0-9163-e8af88853575"},"vehicle_type_id":"4","last_reported":1750244988,"current_range_meters":17600,"station_id":"ce4bhn12rcd13ifvqgpg","pricing_plan_id":"cebpf4jnsgd1na2vs0mg"},{"bike_id":"cfef7392-1433-476b-a989-3fb180315ec3","system_id":"levelo_inurba_marseille","lat":43.24203,"lon":5.39756,"is_reserved":false,"is_disabled":false,"rental_uris":{"android":"levelo://app?vid=cfef7392-1433-476b-a989-3fb180315ec3","ios":"levelo://app?vid=cfef7392-1433-476b-a989-3fb180315ec3"},"vehicle_type_id":"4","last_reported":1750244988,"current_range_meters":17600,"station_id":"ce4bhn12rcd13ifvqgpg","pricing_plan_id":"cebpf4jnsgd1na2vs0mg"},{"bike_id":"77ac8037-3c3c-493a-82c2-904a9ad6c7d0","system_id":"levelo_inurba_marseille","lat":43.26814,"lon":5.3906,"is_reserved":false,"is_disabled":false,"rental_uris":{"android":"levelo://app?vid=77ac8037-3c3c-493a-82c2-904a9ad6c7d0","ios":"levelo://app?vid=77ac8037-3c3c-493a-82c2-904a9ad6c7d0"},"vehicle_type_id":"4","last_reported":1750244988,"current_range_meters":18000,"station_id":"","pricing_plan_id":"cebpf4jnsgd1na2vs0mg"},{"bike_id":"390b8ed5-abf6-4fcf-9370-66dd64d65ab8","system_id":"levelo_inurba_marseille","lat":43.2175,"lon":5.34602,"is_reserved":false,"is_disabled":false,"rental_uris":{"android":"levelo://app?vid=390b8ed5-abf6-4fcf-9370-66dd64d65ab8","ios":"levelo://app?vid=390b8ed5-abf6-4fcf-9370-66dd64d65ab8"},"vehicle_type_id":"4","last_reported":1750244988,"current_range_meters":18000,"station_id":"","pricing_plan_id":"cebpf4jnsgd1na2vs0mg"},{"bike_id":"70e3e3d6-7b98-496a-b6c6-af3dbfb8fe08","system_id":"levelo_inurba_marseille","lat":43.29373,"lon":5.37833,"is_reserved":false,"is_disabled":false,"rental_uris":{"android":"levelo://app?vid=70e3e3d6-7b98-496a-b6c6-af3dbfb8fe08","ios":"levelo://app?vid=70e3e3d6-7b98-496a-b6c6-af3dbfb8fe08"},"vehicle_type_id":"4","last_reported":1750244988,"current_range_meters":18000,"station_id":"ce4bgjh2rcd13ifvqbf0","pricing_plan_id":"cebpf4jnsgd1na2vs0mg"},{"bike_id":"d19cb1d6-096b-477e-99c7-bea32ace4d41","system_id":"levelo_inurba_marseille","lat":43.31179,"lon":5.38725,"is_reserved":false,"is_disabled":false,"rental_uris":{"android":"levelo://app?vid=d19cb1d6-096b-477e-99c7-bea32ace4d41","ios":"levelo://app?vid=d19cb1d6-096b-477e-99c7-bea32ace4d41"},"vehicle_type_id":"4","last_reported":1750244988,"current_range_meters":18000,"station_id":"ce4bgv12rcd13ifvqcp0","pricing_plan_id":"cebpf4jnsgd1na2vs0mg"},{"bike_id":"2d404e2d-eb0e-43bb-ad42-603da79b144b","system_id":"levelo_inurba_marseille","lat":43.3022,"lon":5.39483,"is_reserved":false,"is_disabled":false,"rental_uris":{"android":"levelo://app?vid=2d404e2d-eb0e-43bb-ad42-603da79b144b","ios":"levelo://app?vid=2d404e2d-eb0e-43bb-ad42-603da79b144b"},"vehicle_type_id":"4","last_reported":1750244988,"current_range_meters":18000,"station_id":"ce4bh0p2rcd13ifvqd70","pricing_plan_id":"cebpf4jnsgd1na2vs0mg"},{"bike_id":"8e885153-f604-47be-a58a-3d2b3d8d556e","system_id":"levelo_inurba_marseille","lat":43.30597,"lon":5.39361,"is_reserved":false,"is_disabled":false,"rental_uris":{"android":"levelo://app?vid=8e885153-f604-47be-a58a-3d2b3d8d556e","ios":"levelo://app?vid=8e885153-f604-47be-a58a-3d2b3d8d556e"},"vehicle_type_id":"4","last_reported":1750244988,"current_range_meters":18000,"station_id":"ce4bh0p2rcd13ifvqd80","pricing_plan_id":"cebpf4jnsgd1na2vs0mg"},{"bike_id":"d610acb2-ece3-44d0-8703-ecbced260dca","system_id":"levelo_inurba_marseille","lat":43.29201,"lon":5.39314,"is_reserved":false,"is_disabled":false,"rental_uris":{"android":"levelo://app?vid=d610acb2-ece3-44d0-8703-ecbced260dca","ios":"levelo://app?vid=d610acb2-ece3-44d0-8703-ecbced260dca"},"vehicle_type_id":"4","last_reported":1750244988,"current_range_meters":18000,"station_id":"ce4bh192rcd13ifvqdd0","pricing_plan_id":"cebpf4jnsgd1na2vs0mg"},{"bike_id":"1045cbb5-2783-402c-ba9b-01077b046095","system_id":"levelo_inurba_marseille","lat":43.28423,"lon":5.3499,"is_reserved":false,"is_disabled":false,"rental_uris":{"android":"levelo://app?vid=1045cbb5-2783-402c-ba9b-01077b046095","ios":"levelo://app?vid=1045cbb5-2783-402c-ba9b-01077b046095"},"vehicle_type_id":"4","last_reported":1750244988,"current_range_meters":18000,"station_id":"ce4bhbh2rcd13ifvqepg","pricing_plan_id":"cebpf4jnsgd1na2vs0mg"},{"bike_id":"4037a0f6-4461-4c1e-bad0-03e7c1253ab3","system_id":"levelo_inurba_marseille","lat":43.255,"lon":5.37667,"is_reserved":false,"is_disabled":false,"rental_uris":{"android":"levelo://app?vid=4037a0f6-4461-4c1e-bad0-03e7c1253ab3","ios":"levelo://app?vid=4037a0f6-4461-4c1e-bad0-03e7c1253ab3"},"vehicle_type_id":"4","last_reported":1750244988,"current_range_meters":18000,"station_id":"ce4bhh12rcd13ifvqff0","pricing_plan_id":"cebpf4jnsgd1na2vs0mg"},{"bike_id":"bcc573f7-4885-4e01-a82f-f27d067ecde3","system_id":"levelo_inurba_marseille","lat":43.24168,"lon":5.39717,"is_reserved":false,"is_disabled":false,"rental_uris":{"android":"levelo://app?vid=bcc573f7-4885-4e01-a82f-f27d067ecde3","ios":"levelo://app?vid=bcc573f7-4885-4e01-a82f-f27d067ecde3"},"vehicle_type_id":"4","last_reported":1750244988,"current_range_meters":18000,"station_id":"ce4bhn12rcd13ifvqgpg","pricing_plan_id":"cebpf4jnsgd1na2vs0mg"},{"bike_id":"744b1c90-170f-4e99-8fd9-ae1376712de0","system_id":"levelo_inurba_marseille","lat":43.21751,"lon":5.34599,"is_reserved":false,"is_disabled":false,"rental_uris":{"android":"levelo://app?vid=744b1c90-170f-4e99-8fd9-ae1376712de0","ios":"levelo://app?vid=744b1c90-170f-4e99-8fd9-ae1376712de0"},"vehicle_type_id":"4","last_reported":1750244988,"current_range_meters":18000,"station_id":"st_cvj6r9ubvosntc0bgbag","pricing_plan_id":"cebpf4jnsgd1na2vs0mg"},{"bike_id":"e5863b13-0bb4-41ee-a7a1-72091c1036b5","system_id":"levelo_inurba_marseille","lat":43.31608,"lon":5.38394,"is_reserved":false,"is_disabled":false,"rental_uris":{"android":"levelo://app?vid=e5863b13-0bb4-41ee-a7a1-72091c1036b5","ios":"levelo://app?vid=e5863b13-0bb4-41ee-a7a1-72091c1036b5"},"vehicle_type_id":"4","last_reported":1750244988,"current_range_meters":18800,"station_id":"","pricing_plan_id":"cebpf4jnsgd1na2vs0mg"},{"bike_id":"4ce5b165-f22d-40cf-abd3-1cb294861955","system_id":"levelo_inurba_marseille","lat":43.21178,"lon":5.35063,"is_reserved":false,"is_disabled":false,"rental_uris":{"android":"levelo://app?vid=4ce5b165-f22d-40cf-abd3-1cb294861955","ios":"levelo://app?vid=4ce5b165-f22d-40cf-abd3-1cb294861955"},"vehicle_type_id":"4","last_reported":1750244988,"current_range_meters":18800,"station_id":"","pricing_plan_id":"cebpf4jnsgd1na2vs0mg"},{"bike_id":"4276f8d0-9068-4864-b50f-1debdbe44309","system_id":"levelo_inurba_marseille","lat":43.301943,"lon":5.394721,"is_reserved":false,"is_disabled":false,"rental_uris":{"android":"levelo://app?vid=4276f8d0-9068-4864-b50f-1debdbe44309","ios":"levelo://app?vid=4276f8d0-9068-4864-b50f-1debdbe44309"},"vehicle_type_id":"4","last_reported":1750244988,"current_range_meters":18800,"station_id":"ce4bh0p2rcd13ifvqd70","pricing_plan_id":"cebpf4jnsgd1na2vs0mg"},{"bike_id":"585259ad-ba2c-4ce6-8a01-013d223950d8","system_id":"levelo_inurba_marseille","lat":43.28438,"lon":5.35,"is_reserved":false,"is_disabled":false,"rental_uris":{"android":"levelo://app?vid=585259ad-ba2c-4ce6-8a01-013d223950d8","ios":"levelo://app?vid=585259ad-ba2c-4ce6-8a01-013d223950d8"},"vehicle_type_id":"4","last_reported":1750244988,"current_range_meters":18800,"station_id":"ce4bhbh2rcd13ifvqepg","pricing_plan_id":"cebpf4jnsgd1na2vs0mg"},{"bike_id":"9a2da3f4-ba7c-47a8-a97a-333dab99ad5b","system_id":"levelo_inurba_marseille","lat":43.25499,"lon":5.3765,"is_reserved":false,"is_disabled":false,"rental_uris":{"android":"levelo://app?vid=9a2da3f4-ba7c-47a8-a97a-333dab99ad5b","ios":"levelo://app?vid=9a2da3f4-ba7c-47a8-a97a-333dab99ad5b"},"vehicle_type_id":"4","last_reported":1750244988,"current_range_meters":18800,"station_id":"ce4bhh12rcd13ifvqff0","pricing_plan_id":"cebpf4jnsgd1na2vs0mg"},{"bike_id":"a7b32372-c266-4128-b671-a2c27820a547","system_id":"levelo_inurba_marseille","lat":43.27069,"lon":5.42283,"is_reserved":false,"is_disabled":false,"rental_uris":{"android":"levelo://app?vid=a7b32372-c266-4128-b671-a2c27820a547","ios":"levelo://app?vid=a7b32372-c266-4128-b671-a2c27820a547"},"vehicle_type_id":"4","last_reported":1750244988,"current_range_meters":18800,"station_id":"ce4bhk92rcd13ifvqgb0","pricing_plan_id":"cebpf4jnsgd1na2vs0mg"},{"bike_id":"db050af1-f835-4223-a311-c9072792c415","system_id":"levelo_inurba_marseille","lat":43.33024,"lon":5.3904,"is_reserved":false,"is_disabled":false,"rental_uris":{"android":"levelo://app?vid=db050af1-f835-4223-a311-c9072792c415","ios":"levelo://app?vid=db050af1-f835-4223-a311-c9072792c415"},"vehicle_type_id":"4","last_reported":1750244988,"current_range_meters":18800,"station_id":"ce4bhr92rcd13ifvqhrg","pricing_plan_id":"cebpf4jnsgd1na2vs0mg"},{"bike_id":"57194aa0-05f4-435c-9bf0-68cf0d29eea0","system_id":"levelo_inurba_marseille","lat":43.33721,"lon":5.39186,"is_reserved":false,"is_disabled":false,"rental_uris":{"android":"levelo://app?vid=57194aa0-05f4-435c-9bf0-68cf0d29eea0","ios":"levelo://app?vid=57194aa0-05f4-435c-9bf0-68cf0d29eea0"},"vehicle_type_id":"4","last_reported":1750244988,"current_range_meters":18800,"station_id":"ce4bhr92rcd13ifvqhsg","pricing_plan_id":"cebpf4jnsgd1na2vs0mg"},{"bike_id":"b792d1c2-8a9e-4afa-b07e-74b8daa2a6f8","system_id":"levelo_inurba_marseille","lat":43.32104,"lon":5.36785,"is_reserved":false,"is_disabled":false,"rental_uris":{"android":"levelo://app?vid=b792d1c2-8a9e-4afa-b07e-74b8daa2a6f8","ios":"levelo://app?vid=b792d1c2-8a9e-4afa-b07e-74b8daa2a6f8"},"vehicle_type_id":"4","last_reported":1750244988,"current_range_meters":18800,"station_id":"ce4bhrh2rcd13ifvqhug","pricing_plan_id":"cebpf4jnsgd1na2vs0mg"},{"bike_id":"678592d5-ec46-4a3b-9572-63b858e0a269","system_id":"levelo_inurba_marseille","lat":43.31999,"lon":5.38163,"is_reserved":false,"is_disabled":false,"rental_uris":{"android":"levelo://app?vid=678592d5-ec46-4a3b-9572-63b858e0a269","ios":"levelo://app?vid=678592d5-ec46-4a3b-9572-63b858e0a269"},"vehicle_type_id":"4","last_reported":1750244988,"current_range_meters":19200,"station_id":"","pricing_plan_id":"cebpf4jnsgd1na2vs0mg"},{"bike_id":"03b64852-b343-4a41-a95d-964568f415a0","system_id":"levelo_inurba_marseille","lat":43.31314,"lon":5.36759,"is_reserved":false,"is_disabled":false,"rental_uris":{"android":"levelo://app?vid=03b64852-b343-4a41-a95d-964568f415a0","ios":"levelo://app?vid=03b64852-b343-4a41-a95d-964568f415a0"},"vehicle_type_id":"4","last_reported":1750244988,"current_range_meters":19200,"station_id":"ce4bgr92rcd13ifvqc6g","pricing_plan_id":"cebpf4jnsgd1na2vs0mg"},{"bike_id":"7b676017-f342-446b-a613-69869f7b9805","system_id":"levelo_inurba_marseille","lat":43.2811,"lon":5.37831,"is_reserved":false,"is_disabled":false,"rental_uris":{"android":"levelo://app?vid=7b676017-f342-446b-a613-69869f7b9805","ios":"levelo://app?vid=7b676017-f342-446b-a613-69869f7b9805"},"vehicle_type_id":"4","last_reported":1750244988,"current_range_meters":19200,"station_id":"ce4bha12rcd13ifvqee0","pricing_plan_id":"cebpf4jnsgd1na2vs0mg"},{"bike_id":"38e006a1-0826-42b6-82d5-3dd436a6e0ea","system_id":"levelo_inurba_marseille","lat":43.265854,"lon":5.391502,"is_reserved":false,"is_disabled":false,"rental_uris":{"android":"levelo://app?vid=38e006a1-0826-42b6-82d5-3dd436a6e0ea","ios":"levelo://app?vid=38e006a1-0826-42b6-82d5-3dd436a6e0ea"},"vehicle_type_id":"4","last_reported":1750244988,"current_range_meters":19200,"station_id":"ce4bhe12rcd13ifvqf30","pricing_plan_id":"cebpf4jnsgd1na2vs0mg"},{"bike_id":"0cc1925d-6a5d-4254-b824-b98d1fc451e9","system_id":"levelo_inurba_marseille","lat":43.33022,"lon":5.39037,"is_reserved":false,"is_disabled":false,"rental_uris":{"android":"levelo://app?vid=0cc1925d-6a5d-4254-b824-b98d1fc451e9","ios":"levelo://app?vid=0cc1925d-6a5d-4254-b824-b98d1fc451e9"},"vehicle_type_id":"4","last_reported":1750244988,"current_range_meters":19200,"station_id":"ce4bhr92rcd13ifvqhrg","pricing_plan_id":"cebpf4jnsgd1na2vs0mg"},{"bike_id":"833b16e1-97ec-4192-81e4-91877b340a52","system_id":"levelo_inurba_marseille","lat":43.32436,"lon":5.36619,"is_reserved":false,"is_disabled":false,"rental_uris":{"android":"levelo://app?vid=833b16e1-97ec-4192-81e4-91877b340a52","ios":"levelo://app?vid=833b16e1-97ec-4192-81e4-91877b340a52"},"vehicle_type_id":"4","last_reported":1750244988,"current_range_meters":19200,"station_id":"ce4bhs12rcd13ifvqhvg","pricing_plan_id":"cebpf4jnsgd1na2vs0mg"},