{"last_updated":1683399847,"ttl":30,"version":"2.2","data":{"bikes":[{"bike_id":"5bb777dc-82f7-4bcc-b54e-6b8f3dfe280a","system_id":"levelo_inurba_marseille","lat":43.313391,"lon":5.36706,"is_reserved":false,"is_disabled":false,"rental_uris":{"android":"levelo://app?vid=5bb777dc-82f7-4bcc-b54e-6b8f3dfe280a","ios":"levelo://app?vid=5bb777dc-82f7-4bcc-b54e-6b8f3dfe280a"},"vehicle_type_id":"4","last_reported":1683399848,"current_range_meters":14000,"station_id":"ce4bgr92rcd13ifvqc6g","pricing_plan_id":"free"},{"bike_id":"a290f2dc-7d28-4d19-b23a-daf249941f32","system_id":"levelo_inurba_marseille","lat":43.312239,"lon":5.368562,"is_reserved":false,"is_disabled":false,"rental_uris":{"android":"levelo://app?vid=a290f2dc-7d28-4d19-b23a-daf249941f32","ios":"levelo://app?vid=a290f2dc-7d28-4d19-b23a-daf249941f32"},"vehicle_type_id":"4","last_reported":1683399848,"current_range_meters":800,"station_id":"ce4bgl92rcd13ifvqbq0","pricing_plan_id":"free"},{"bike_id":"d61d2cae-6c47-44fb-aec7-7fc48920758d","system_id":"levelo_inurba_marseille","lat":43.314811,"lon":5.373103,"is_reserved":false,"is_disabled":false,"rental_uris":{"android":"levelo://app?vid=d61d2cae-6c47-44fb-aec7-7fc48920758d","ios":"levelo://app?vid=d61d2cae-6c47-44fb-aec7-7fc48920758d"},"vehicle_type_id":"4","last_reported":1683399848,"current_range_meters":28800,"station_id":"ce4bgt12rcd13ifvqcd0","pricing_plan_id":"free"},{"bike_id":"687d7844-13df-4e89-a16a-5de364e3c60b","system_id":"levelo_inurba_marseille","lat":43.314811,"lon":5.373104,"is_reserved":false,"is_disabled":false,"rental_uris":{"android":"levelo://app?vid=687d7844-13df-4e89-a16a-5de364e3c60b","ios":"levelo://app?vid=687d7844-13df-4e89-a16a-5de364e3c60b"},"vehicle_type_id":"4","last_reported":1683399848,"current_range_meters":10400,"station_id":"ce4bgt12rcd13ifvqcd0","pricing_plan_id":"free"},{"bike_id":"40746680-5691-4240-bfea-32d7cc95bb5a","system_id":"levelo_inurba_marseille","lat":43.314811,"lon":5.373103,"is_reserved":false,"is_disabled":false,"rental_uris":{"android":"levelo://app?vid=40746680-5691-4240-bfea-32d7cc95bb5a","ios":"levelo://app?vid=40746680-5691-4240-bfea-32d7cc95bb5a"},"vehicle_type_id":"4","last_reported":1683399848,"current_range_meters":17200,"station_id":"ce4bgt12rcd13ifvqcd0","pricing_plan_id":"free"},{"bike_id":"e2fcb704-ada2-4412-9b0c-e997cf5b6de8","system_id":"levelo_inurba_marseille","lat":43.308917,"lon":5.371897,"is_reserved":false,"is_disabled":false,"rental_uris":{"android":"levelo://app?vid=e2fcb704-ada2-4412-9b0c-e997cf5b6de8","ios":"levelo://app?vid=e2fcb704-ada2-4412-9b0c-e997cf5b6de8"},"vehicle_type_id":"4","last_reported":1683399848,"current_range_meters":8400,"station_id":"","pricing_plan_id":"free"},{"bike_id":"3f47ddb7-dcbd-4250-a9e0-0145d40cf4fc","system_id":"levelo_inurba_marseille","lat":43.30894,"lon":5.37195,"is_reserved":false,"is_disabled":false,"rental_uris":{"android":"levelo://app?vid=3f47ddb7-dcbd-4250-a9e0-0145d40cf4fc","ios":"levelo://app?vid=3f47ddb7-dcbd-4250-a9e0-0145d40cf4fc"},"vehicle_type_id":"4","last_reported":1683399848,"current_range_meters":10000,"station_id":"","pricing_plan_id":"free"},{"bike_id":"87e7f469-73d8-4147-b978-780999276f88","system_id":"levelo_inurba_marseille","lat":43.308614,"lon":5.372098,"is_reserved":false,"is_disabled":false,"rental_uris":{"android":"levelo://app?vid=87e7f469-73d8-4147-b978-780999276f88","ios":"levelo://app?vid=87e7f469-73d8-4147-b978-780999276f88"},"vehicle_type_id":"4","last_reported":1683399848,"current_range_meters":29600,"station_id":"ce4bguh2rcd13ifvqckg","pricing_plan_id":"free"},{"bike_id":"9d2f9dd7-c5fb-4082-8777-fed2c55006a7","system_id":"levelo_inurba_marseille","lat":43.308614,"lon":5.372098,"is_reserved":false,"is_disabled":false,"rental_uris":{"android":"levelo://app?vid=9d2f9dd7-c5fb-4082-8777-fed2c55006a7","ios":"levelo://app?vid=9d2f9dd7-c5fb-4082-8777-fed2c55006a7"},"vehicle_type_id":"4","last_reported":1683399848,"current_range_meters":400,"station_id":"ce4bguh2rcd13ifvqckg","pricing_plan_id":"free"},{"bike_id":"8eb86c4d-e0c7-4281-8428-6b158ae722ba","system_id":"levelo_inurba_marseille","lat":43.31927,"lon":5.3676,"is_reserved":false,"is_disabled":false,"rental_uris":{"android":"levelo://app?vid=8eb86c4d-e0c7-4281-8428-6b158ae722ba","ios":"levelo://app?vid=8eb86c4d-e0c7-4281-8428-6b158ae722ba"},"vehicle_type_id":"4","last_reported":1683399848,"current_range_meters":13600,"station_id":"","pricing_plan_id":"free"},{"bike_id":"caea2489-5a5d-4f00-8e78-8c319f8ed68e","system_id":"levelo_inurba_marseille","lat":43.3057,"lon":5.36553,"is_reserved":false,"is_disabled":false,"rental_uris":{"android":"levelo://app?vid=caea2489-5a5d-4f00-8e78-8c319f8ed68e","ios":"levelo://app?vid=caea2489-5a5d-4f00-8e78-8c319f8ed68e"},"vehicle_type_id":"4","last_reported":1683399848,"current_range_meters":5600,"station_id":"","pricing_plan_id":"free"},{"bike_id":"692d6c67-f71a-4d21-b15f-e5cb89228b9d","system_id":"levelo_inurba_marseille","lat":43.305506,"lon":5.367322,"is_reserved":false,"is_disabled":false,"rental_uris":{"android":"levelo://app?vid=692d6c67-f71a-4d21-b15f-e5cb89228b9d","ios":"levelo://app?vid=692d6c67-f71a-4d21-b15f-e5cb89228b9d"},"vehicle_type_id":"4","last_reported":1683399848,"current_range_meters":12800,"station_id":"ce4bgrp2rcd13ifvqc9g","pricing_plan_id":"free"},{"bike_id":"6314d6fb-ed80-40e3-9b39-31d4d31e9c5c","system_id":"levelo_inurba_marseille","lat":43.305706,"lon":5.365654,"is_reserved":false,"is_disabled":false,"rental_uris":{"android":"levelo://app?vid=6314d6fb-ed80-40e3-9b39-31d4d31e9c5c","ios":"levelo://app?vid=6314d6fb-ed80-40e3-9b39-31d4d31e9c5c"},"vehicle_type_id":"4","last_reported":1683399848,"current_range_meters":2400,"station_id":"ce4bgs12rcd13ifvqcag","pricing_plan_id":"free"},{"bike_id":"345f3533-31ca-456c-9e65-14687ec66f75","system_id":"levelo_inurba_marseille","lat":43.305706,"lon":5.365654,"is_reserved":false,"is_disabled":false,"rental_uris":{"android":"levelo://app?vid=345f3533-31ca-456c-9e65-14687ec66f75","ios":"levelo://app?vid=345f3533-31ca-456c-9e65-14687ec66f75"},"vehicle_type_id":"4","last_reported":1683399848,"current_range_meters":9200,"station_id":"ce4bgs12rcd13ifvqcag","pricing_plan_id":"free"},{"bike_id":"4627f2ad-275e-4875-b722-e0f23f1567e2","system_id":"levelo_inurba_marseille","lat":43.305706,"lon":5.365654,"is_reserved":false,"is_disabled":false,"rental_uris":{"android":"levelo://app?vid=4627f2ad-275e-4875-b722-e0f23f1567e2","ios":"levelo://app?vid=4627f2ad-275e-4875-b722-e0f23f1567e2"},"vehicle_type_id":"4","last_reported":1683399848,"current_range_meters":3200,"station_id":"ce4bgs12rcd13ifvqcag","pricing_plan_id":"free"},{"bike_id":"5fbb145f-4140-44ec-a151-7aff294d1730","system_id":"levelo_inurba_marseille","lat":43.3054,"lon":5.36707,"is_reserved":false,"is_disabled":false,"rental_uris":{"android":"levelo://app?vid=5fbb145f-4140-44ec-a151-7aff294d1730","ios":"levelo://app?vid=5fbb145f-4140-44ec-a151-7aff294d1730"},"vehicle_type_id":"4","last_reported":1683399848,"current_range_meters":12000,"station_id":"ce4bgrp2rcd13ifvqc9g","pricing_plan_id":"free"},{"bike_id":"c02c9f69-d397-437f-ba57-d3476dec4eae","system_id":"levelo_inurba_marseille","lat":43.305368,"lon":5.367343,"is_reserved":false,"is_disabled":false,"rental_uris":{"android":"levelo://app?vid=c02c9f69-d397-437f-ba57-d3476dec4eae","ios":"levelo://app?vid=c02c9f69-d397-437f-ba57-d3476dec4eae"},"vehicle_type_id":"4","last_reported":1683399848,"current_range_meters":12400,"station_id":"ce4bgrp2rcd13ifvqc9g","pricing_plan_id":"free"},{"bike_id":"2172f684-f079-46c2-a831-21f80505d711","system_id":"levelo_inurba_marseille","lat":43.305706,"lon":5.365654,"is_reserved":false,"is_disabled":false,"rental_uris":{"android":"levelo://app?vid=2172f684-f079-46c2-a831-21f80505d711","ios":"levelo://app?vid=2172f684-f079-46c2-a831-21f80505d711"},"vehicle_type_id":"4","last_reported":1683399848,"current_range_meters":17600,"station_id":"ce4bgs12rcd13ifvqcag","pricing_plan_id":"free"},{"bike_id":"d70450ed-7f88-4446-881f-818cf3159ec3","system_id":"levelo_inurba_marseille","lat":43.305706,"lon":5.365654,"is_reserved":false,"is_disabled":false,"rental_uris":{"android":"levelo://app?vid=d70450ed-7f88-4446-881f-818cf3159ec3","ios":"levelo://app?vid=d70450ed-7f88-4446-881f-818cf3159ec3"},"vehicle_type_id":"4","last_reported":1683399848,"current_range_meters":0,"station_id":"ce4bgs12rcd13ifvqcag","pricing_plan_id":"free"},{"bike_id":"9f28b69f-0a12-46b7-a5b0-d52b07509996","system_id":"levelo_inurba_marseille","lat":43.305706,"lon":5.365654,"is_reserved":false,"is_disabled":false,"rental_uris":{"android":"levelo://app?vid=9f28b69f-0a12-46b7-a5b0-d52b07509996","ios":"levelo://app?vid=9f28b69f-0a12-46b7-a5b0-d52b07509996"},"vehicle_type_id":"4","last_reported":1683399848,"current_range_meters":2000,"station_id":"ce4bgs12rcd13ifvqcag","pricing_plan_id":"free"},{"bike_id":"9eaa0251-dce6-4da8-9bec-faabd323f8c1","system_id":"levelo_inurba_marseille","lat":43.305706,"lon":5.365654,"is_reserved":false,"is_disabled":false,"rental_uris":{"android":"levelo://app?vid=9eaa0251-dce6-4da8-9bec-faabd323f8c1","ios":"levelo://app?vid=9eaa0251-dce6-4da8-9bec-faabd323f8c1"},"vehicle_type_id":"4","last_reported":1683399848,"current_range_meters":27600,"station_id":"ce4bgs12rcd13ifvqcag","pricing_plan_id":"free"},{"bike_id":"db7db1ba-991d-492d-a0ea-8f3a9ab00a4d","system_id":"levelo_inurba_marseille","lat":43.305989,"lon":5.37225,"is_reserved":false,"is_disabled":false,"rental_uris":{"android":"levelo://app?vid=db7db1ba-991d-492d-a0ea-8f3a9ab00a4d","ios":"levelo://app?vid=db7db1ba-991d-492d-a0ea-8f3a9ab00a4d"},"vehicle_type_id":"4","last_reported":1683399848,"current_range_meters":12000,"station_id":"ce4bgqh2rcd13ifvqc4g","pricing_plan_id":"free"},{"bike_id":"4ccfe887-410f-41b7-83f5-02f174ee2308","system_id":"levelo_inurba_marseille","lat":43.305989,"lon":5.37225,"is_reserved":false,"is_disabled":false,"rental_uris":{"android":"levelo://app?vid=4ccfe887-410f-41b7-83f5-02f174ee2308","ios":"levelo://app?vid=4ccfe887-410f-41b7-83f5-02f174ee2308"},"vehicle_type_id":"4","last_reported":1683399848,"current_range_meters":9200,"station_id":"ce4bgqh2rcd13ifvqc4g","pricing_plan_id":"free"},{"bike_id":"a7fdfc20-4c7b-4f54-80d7-37b08662a326","system_id":"levelo_inurba_marseille","lat":43.305989,"lon":5.37225,"is_reserved":false,"is_disabled":false,"rental_uris":{"android":"levelo://app?vid=a7fdfc20-4c7b-4f54-80d7-37b08662a326","ios":"levelo://app?vid=a7fdfc20-4c7b-4f54-80d7-37b08662a326"},"vehicle_type_id":"4","last_reported":1683399848,"current_range_meters":4400,"station_id":"ce4bgqh2rcd13ifvqc4g","pricing_plan_id":"free"},{"bike_id":"239fcaf0-ac50-4776-9ba4-c399c271e882","system_id":"levelo_inurba_marseille","lat":43.305989,"lon":5.37225,"is_reserved":false,"is_disabled":false,"rental_uris":{"android":"levelo://app?vid=239fcaf0-ac50-4776-9ba4-c399c271e882","ios":"levelo://app?vid=239fcaf0-ac50-4776-9ba4-c399c271e882"},"vehicle_type_id":"4","last_reported":1683399848,"current_range_meters":24400,"station_id":"ce4bgqh2rcd13ifvqc4g","pricing_plan_id":"free"},{"bike_id":"5a1ebad7-4fa1-40e7-91f8-f01754aa2117","system_id":"levelo_inurba_marseille","lat":43.30316,"lon":5.36456,"is_reserved":false,"is_disabled":false,"rental_uris":{"android":"levelo://app?vid=5a1ebad7-4fa1-40e7-91f8-f01754aa2117","ios":"levelo://app?vid=5a1ebad7-4fa1-40e7-91f8-f01754aa2117"},"vehicle_type_id":"4","last_reported":1683399848,"current_range_meters":5600,"station_id":"","pricing_plan_id":"free"},{"bike_id":"36eb80af-621e-4347-9d86-7ae5b04b8b30","system_id":"levelo_inurba_marseille","lat":43.303016,"lon":5.368865,"is_reserved":false,"is_disabled":false,"rental_uris":{"android":"levelo://app?vid=36eb80af-621e-4347-9d86-7ae5b04b8b30","ios":"levelo://app?vid=36eb80af-621e-4347-9d86-7ae5b04b8b30"},"vehicle_type_id":"4","last_reported":1683399848,"current_range_meters":5600,"station_id":"","pricing_plan_id":"free"},{"bike_id":"9882d6e3-0754-4b46-920f-09c40886cd8c","system_id":"levelo_inurba_marseille","lat":43.301939,"lon":5.366286,"is_reserved":false,"is_disabled":false,"rental_uris":{"android":"levelo://app?vid=9882d6e3-0754-4b46-920f-09c40886cd8c","ios":"levelo://app?vid=9882d6e3-0754-4b46-920f-09c40886cd8c"},"vehicle_type_id":"4","last_reported":1683399848,"current_range_meters":22400,"station_id":"ce4bgrh2rcd13ifvqc8g","pricing_plan_id":"free"},{"bike_id":"b1a54e20-c4ac-440e-8bd2-061f8540bd97","system_id":"levelo_inurba_marseille","lat":43.301939,"lon":5.366286,"is_reserved":false,"is_disabled":false,"rental_uris":{"android":"levelo://app?vid=b1a54e20-c4ac-440e-8bd2-061f8540bd97","ios":"levelo://app?vid=b1a54e20-c4ac-440e-8bd2-061f8540bd97"},"vehicle_type_id":"4","last_reported":1683399848,"current_range_meters":5200,"station_id":"ce4bgrh2rcd13ifvqc8g","pricing_plan_id":"free"},{"bike_id":"46c1c8e5-c77b-417b-8c50-fbeb79a2d8e9","system_id":"levelo_inurba_marseille","lat":43.301939,"lon":5.366286,"is_reserved":false,"is_disabled":false,"rental_uris":{"android":"levelo://app?vid=46c1c8e5-c77b-417b-8c50-fbeb79a2d8e9","ios":"levelo://app?vid=46c1c8e5-c77b-417b-8c50-fbeb79a2d8e9"},"vehicle_type_id":"4","last_reported":1683399848,"current_range_meters":2800,"station_id":"ce4bgrh2rcd13ifvqc8g","pricing_plan_id":"free"},{"bike_id":"74b15cbb-055e-4683-bfee-40f33dd2f1f3","system_id":"levelo_inurba_marseille","lat":43.301939,"lon":5.366286,"is_reserved":false,"is_disabled":false,"rental_uris":{"android":"levelo://app?vid=74b15cbb-055e-4683-bfee-40f33dd2f1f3","ios":"levelo://app?vid=74b15cbb-055e-4683-bfee-40f33dd2f1f3"},"vehicle_type_id":"4","last_reported":1683399848,"current_range_meters":6800,"station_id":"ce4bgrh2rcd13ifvqc8g","pricing_plan_id":"free"},{"bike_id":"b11d5a91-2895-4ada-a519-24a15905a28d","system_id":"levelo_inurba_marseille","lat":43.301939,"lon":5.366286,"is_reserved":false,"is_disabled":false,"rental_uris":{"android":"levelo://app?vid=b11d5a91-2895-4ada-a519-24a15905a28d","ios":"levelo://app?vid=b11d5a91-2895-4ada-a519-24a15905a28d"},"vehicle_type_id":"4","last_reported":1683399848,"current_range_meters":24800,"station_id":"ce4bgrh2rcd13ifvqc8g","pricing_plan_id":"free"},{"bike_id":"0b65b377-64fe-4cc6-8199-63f0b8a79dca","system_id":"levelo_inurba_marseille","lat":43.308012,"lon":5.381511,"is_reserved":false,"is_disabled":false,"rental_uris":{"android":"levelo://app?vid=0b65b377-64fe-4cc6-8199-63f0b8a79dca","ios":"levelo://app?vid=0b65b377-64fe-4cc6-8199-63f0b8a79dca"},"vehicle_type_id":"4","last_reported":1683399848,"current_range_meters":14800,"station_id":"ce4bgt12rcd13ifvqce0","pricing_plan_id":"free"},{"bike_id":"75e04d3e-1609-4d08-9906-427367473fd2","system_id":"levelo_inurba_marseille","lat":43.308012,"lon":5.381511,"is_reserved":false,"is_disabled":false,"rental_uris":{"android":"levelo://app?vid=75e04d3e-1609-4d08-9906-427367473fd2","ios":"levelo://app?vid=75e04d3e-1609-4d08-9906-427367473fd2"},"vehicle_type_id":"4","last_reported":1683399848,"current_range_meters":15200,"station_id":"ce4bgt12rcd13ifvqce0","pricing_plan_id":"free"},{"bike_id":"f1ab746f-fdf7-418b-9abb-bc192e858a08","system_id":"levelo_inurba_marseille","lat":43.304606,"lon":5.379026,"is_reserved":false,"is_disabled":false,"rental_uris":{"android":"levelo://app?vid=f1ab746f-fdf7-418b-9abb-bc192e858a08","ios":"levelo://app?vid=f1ab746f-fdf7-418b-9abb-bc192e858a08"},"vehicle_type_id":"4","last_reported":1683399848,"current_range_meters":19600,"station_id":"ce4bgup2rcd13ifvqcn0","pricing_plan_id":"free"},{"bike_id":"f5d64d07-bf66-410d-8a4a-dad755e0102e","system_id":"levelo_inurba_marseille","lat":43.304606,"lon":5.379026,"is_reserved":false,"is_disabled":false,"rental_uris":{"android":"levelo://app?vid=f5d64d07-bf66-410d-8a4a-dad755e0102e","ios":"levelo://app?vid=f5d64d07-bf66-410d-8a4a-dad755e0102e"},"vehicle_type_id":"4","last_reported":1683399848,"current_range_meters":0,"station_id":"ce4bgup2rcd13ifvqcn0","pricing_plan_id":"free"},{"bike_id":"fb0da0d8-59c4-40a9-95a8-4722b557b3fb","system_id":"levelo_inurba_marseille","lat":43.30143,"lon":5.37413,"is_reserved":false,"is_disabled":false,"rental_uris":{"android":"levelo://app?vid=fb0da0d8-59c4-40a9-95a8-4722b557b3fb","ios":"levelo://app?vid=fb0da0d8-59c4-40a9-95a8-4722b557b3fb"},"vehicle_type_id":"4","last_reported":1683399848,"current_range_meters":10400,"station_id":"ce4bgs92rcd13ifvqcc0","pricing_plan_id":"free"},{"bike_id":"702215fe-b44a-4da5-9b41-138d318ea2af","system_id":"levelo_inurba_marseille","lat":43.30143,"lon":5.37413,"is_reserved":false,"is_disabled":false,"rental_uris":{"android":"levelo://app?vid=702215fe-b44a-4da5-9b41-138d318ea2af","ios":"levelo://app?vid=702215fe-b44a-4da5-9b41-138d318ea2af"},"vehicle_type_id":"4","last_reported":1683399848,"current_range_meters":24400,"station_id":"ce4bgs92rcd13ifvqcc0","pricing_plan_id":"free"},{"bike_id":"f0ac864c-c98a-49a7-85e3-36ea64d13c87","system_id":"levelo_inurba_marseille","lat":43.30143,"lon":5.37413,"is_reserved":false,"is_disabled":false,"rental_uris":{"android":"levelo://app?vid=f0ac864c-c98a-49a7-85e3-36ea64d13c87","ios":"levelo://app?vid=f0ac864c-c98a-49a7-85e3-36ea64d13c87"},"vehicle_type_id":"4","last_reported":1683399848,"current_range_meters":6000,"station_id":"ce4bgs92rcd13ifvqcc0","pricing_plan_id":"free"},{"bike_id":"c02347de-4e9f-4f7a-9549-f9493b1ee06f","system_id":"levelo_inurba_marseille","lat":43.305364,"lon":5.384119,"is_reserved":false,"is_disabled":false,"rental_uris":{"android":"levelo://app?vid=c02347de-4e9f-4f7a-9549-f9493b1ee06f","ios":"levelo://app?vid=c02347de-4e9f-4f7a-9549-f9493b1ee06f"},"vehicle_type_id":"4","last_reported":1683399848,"current_range_meters":30800,"station_id":"ce4bgg92rcd13ifvqb30","pricing_plan_id":"free"},{"bike_id":"2311f3c0-fc32-400d-bd37-eac0e7d8f5d3","system_id":"levelo_inurba_marseille","lat":43.305364,"lon":5.384119,"is_reserved":false,"is_disabled":false,"rental_uris":{"android":"levelo://app?vid=2311f3c0-fc32-400d-bd37-eac0e7d8f5d3","ios":"levelo://app?vid=2311f3c0-fc32-400d-bd37-eac0e7d8f5d3"},"vehicle_type_id":"4","last_reported":1683399848,"current_range_meters":4000,"station_id":"ce4bgg92rcd13ifvqb30","pricing_plan_id":"free"},{"bike_id":"3bae9812-85a6-4244-8207-2806494518d5","system_id":"levelo_inurba_marseille","lat":43.29922,"lon":5.37466,"is_reserved":false,"is_disabled":false,"rental_uris":{"android":"levelo://app?vid=3bae9812-85a6-4244-8207-2806494518d5","ios":"levelo://app?vid=3bae9812-85a6-4244-8207-2806494518d5"},"vehicle_type_id":"4","last_reported":1683399848,"current_range_meters":0,"station_id":"ce4bgjh2rcd13ifvqbg0","pricing_plan_id":"free"},{"bike_id":"846acb8a-a0ea-48b9-8f96-cbe6d56fcbb1","system_id":"levelo_inurba_marseille","lat":43.305364,"lon":5.384119,"is_reserved":false,"is_disabled":false,"rental_uris":{"android":"levelo://app?vid=846acb8a-a0ea-48b9-8f96-cbe6d56fcbb1","ios":"levelo://app?vid=846acb8a-a0ea-48b9-8f96-cbe6d56fcbb1"},"vehicle_type_id":"4","last_reported":1683399848,"current_range_meters":30400,"station_id":"ce4bgg92rcd13ifvqb30","pricing_plan_id":"free"},{"bike_id":"aba50e0b-5c25-48f4-bd6d-440f8726f1f3","system_id":"levelo_inurba_marseille","lat":43.3029,"lon":5.38188,"is_reserved":false,"is_disabled":false,"rental_uris":{"android":"levelo://app?vid=aba50e0b-5c25-48f4-bd6d-440f8726f1f3","ios":"levelo://app?vid=aba50e0b-5c25-48f4-bd6d-440f8726f1f3"},"vehicle_type_id":"4","last_reported":1683399848,"current_range_meters":6800,"station_id":"","pricing_plan_id":"free"},{"bike_id":"ad0bc1df-f490-464a-ab6d-1be2dbee5ad1","system_id":"levelo_inurba_marseille","lat":43.2992,"lon":5.37474,"is_reserved":false,"is_disabled":false,"rental_uris":{"android":"levelo://app?vid=ad0bc1df-f490-464a-ab6d-1be2dbee5ad1","ios":"levelo://app?vid=ad0bc1df-f490-464a-ab6d-1be2dbee5ad1"},"vehicle_type_id":"4","last_reported":1683399848,"current_range_meters":13600,"station_id":"ce4bgjh2rcd13ifvqbg0","pricing_plan_id":"free"},{"bike_id":"8c068111-e8b2-43d6-a16b-3a2446497765","system_id":"levelo_inurba_marseille","lat":43.311722,"lon":5.387247,"is_reserved":false,"is_disabled":false,"rental_uris":{"android":"levelo://app?vid=8c068111-e8b2-43d6-a16b-3a2446497765","ios":"levelo://app?vid=8c068111-e8b2-43d6-a16b-3a2446497765"},"vehicle_type_id":"4","last_reported":1683399848,"current_range_meters":0,"station_id":"ce4bgv12rcd13ifvqcp0","pricing_plan_id":"free"},{"bike_id":"fa495c37-f7d4-465f-a146-0169143d7693","system_id":"levelo_inurba_marseille","lat":43.328371,"lon":5.366912,"is_reserved":false,"is_disabled":false,"rental_uris":{"android":"levelo://app?vid=fa495c37-f7d4-465f-a146-0169143d7693","ios":"levelo://app?vid=fa495c37-f7d4-465f-a146-0169143d7693"},"vehicle_type_id":"4","last_reported":1683399848,"current_range_meters":13600,"station_id":"ce4bhs92rcd13ifvqi0g","pricing_plan_id":"free"},{"bike_id":"cb03d0a7-8198-46ba-b8e4-07d3539f0078","system_id":"levelo_inurba_marseille","lat":43.328371,"lon":5.366912,"is_reserved":false,"is_disabled":false,"rental_uris":{"android":"levelo://app?vid=cb03d0a7-8198-46ba-b8e4-07d3539f0078","ios":"levelo://app?vid=cb03d0a7-8198-46ba-b8e4-07d3539f0078"},"vehicle_type_id":"4","last_reported":1683399848,"current_range_meters":18000,"station_id":"ce4bhs92rcd13ifvqi0g","pricing_plan_id":"free"},{"bike_id":"a530905d-c529-4875-b459-f28e3a7844a4","system_id":"levelo_inurba_marseille","lat":43.32832,"lon":5.36693,"is_reserved":false,"is_disabled":false,"rental_uris":{"android":"levelo://app?vid=a530905d-c529-4875-b459-f28e3a7844a4","ios":"levelo://app?vid=a530905d-c529-4875-b459-f28e3a7844a4"},"vehicle_type_id":"4","last_reported":1683399848,"current_range_meters":18800,"station_id":"ce4bhs92rcd13ifvqi0g","pricing_plan_id":"free"},{"bike_id":"05c44ec8-9bf2-419a-aafa-32210ead3afe","system_id":"levelo_inurba_marseille","lat":43.32833,"lon":5.36684,"is_reserved":false,"is_disabled":false,"rental_uris":{"android":"levelo://app?vid=05c44ec8-9bf2-419a-aafa-32210ead3afe","ios":"levelo://app?vid=05c44ec8-9bf2-419a-aafa-32210ead3afe"},"vehicle_type_id":"4","last_reported":1683399848,"current_range_meters":29600,"station_id":"ce4bhs92rcd13ifvqi0g","pricing_plan_id":"free"},{"bike_id":"f7058cbd-13d6-4363-8a29-3f09f8ac5d4d","system_id":"levelo_inurba_marseille","lat":43.32833,"lon":5.3668,"is_reserved":false,"is_disabled":false,"rental_uris":{"android":"levelo://app?vid=f7058cbd-13d6-4363-8a29-3f09f8ac5d4d","ios":"levelo://app?vid=f7058cbd-13d6-4363-8a29-3f09f8ac5d4d"},"vehicle_type_id":"4","last_reported":1683399848,"current_range_meters":2400,"station_id":"ce4bhs92rcd13ifvqi0g","pricing_plan_id":"free"},{"bike_id":"58a4b5a9-3b99-4d17-87b0-5d38697b3565","system_id":"levelo_inurba_marseille","lat":43.32833,"lon":5.36677,"is_reserved":false,"is_disabled":false,"rental_uris":{"android":"levelo://app?vid=58a4b5a9-3b99-4d17-87b0-5d38697b3565","ios":"levelo://app?vid=58a4b5a9-3b99-4d17-87b0-5d38697b3565"},"vehicle_type_id":"4","last_reported":1683399848,"current_range_meters":14000,"station_id":"ce4bhs92rcd13ifvqi0g","pricing_plan_id":"free"},{"bike_id":"73868a82-6310-47a2-b64f-e84244206b53","system_id":"levelo_inurba_marseille","lat":43.32834,"lon":5.36693,"is_reserved":false,"is_disabled":false,"rental_uris":{"android":"levelo://app?vid=73868a82-6310-47a2-b64f-e84244206b53","ios":"levelo://app?vid=73868a82-6310-47a2-b64f-e84244206b53"},"vehicle_type_id":"4","last_reported":1683399848,"current_range_meters":7200,"station_id":"ce4bhs92rcd13ifvqi0g","pricing_plan_id":"free"},{"bike_id":"2ab99827-b715-42c3-8198-eb18163daccc","system_id":"levelo_inurba_marseille","lat":43.2968,"lon":5.37291,"is_reserved":false,"is_disabled":false,"rental_uris":{"android":"levelo://app?vid=2ab99827-b715-42c3-8198-eb18163daccc","ios":"levelo://app?vid=2ab99827-b715-42c3-8198-eb18163daccc"},"vehicle_type_id":"4","last_reported":1683399848,"current_range_meters":23600,"station_id":"ce4bgk12rcd13ifvqbj0","pricing_plan_id":"free"},{"bike_id":"9d74b0e2-065e-4d91-bca3-28113cb46ad1","system_id":"levelo_inurba_marseille","lat":43.2968,"lon":5.37291,"is_reserved":false,"is_disabled":false,"rental_uris":{"android":"levelo://app?vid=9d74b0e2-065e-4d91-bca3-28113cb46ad1","ios":"levelo://app?vid=9d74b0e2-065e-4d91-bca3-28113cb46ad1"},"vehicle_type_id":"4","last_reported":1683399848,"current_range_meters":4400,"station_id":"ce4bgk12rcd13ifvqbj0","pricing_plan_id":"free"},{"bike_id":"aafcc005-5e38-4c52-a10d-6d0f89f0012b","system_id":"levelo_inurba_marseille","lat":43.302008,"lon":5.394694,"is_reserved":false,"is_disabled":false,"rental_uris":{"android":"levelo://app?vid=aafcc005-5e38-4c52-a10d-6d0f89f0012b","ios":"levelo://app?vid=aafcc005-5e38-4c52-a10d-6d0f89f0012b"},"vehicle_type_id":"4","last_reported":1683399848,"current_range_meters":4000,"station_id":"ce4bh0p2rcd13ifvqd70","pricing_plan_id":"free"},{"bike_id":"0e4a4a60-3b1d-466c-92e2-b04eea60031a","system_id":"levelo_inurba_marseille","lat":43.296131,"lon":5.370773,"is_reserved":false,"is_disabled":false,"rental_uris":{"android":"levelo://app?vid=0e4a4a60-3b1d-466c-92e2-b04eea60031a","ios":"levelo://app?vid=0e4a4a60-3b1d-466c-92e2-b04eea60031a"},"vehicle_type_id":"4","last_reported":1683399848,"current_range_meters":0,"station_id":"ce4bgnh2rcd13ifvqc0g","pricing_plan_id":"free"},{"bike_id":"48f47f18-f44c-44b6-9b81-aa7fb13920a6","system_id":"levelo_inurba_marseille","lat":43.296129,"lon":5.370777,"is_reserved":false,"is_disabled":false,"rental_uris":{"android":"levelo://app?vid=48f47f18-f44c-44b6-9b81-aa7fb13920a6","ios":"levelo://app?vid=48f47f18-f44c-44b6-9b81-aa7fb13920a6"},"vehicle_type_id":"4","last_reported":1683399848,"current_range_meters":0,"station_id":"ce4bgnh2rcd13ifvqc0g","pricing_plan_id":"free"},{"bike_id":"60a40d55-1933-4992-8b78-e91bb8990eea","system_id":"levelo_inurba_marseille","lat":43.29581,"lon":5.36741,"is_reserved":false,"is_disabled":false,"rental_uris":{"android":"levelo://app?vid=60a40d55-1933-4992-8b78-e91bb8990eea","ios":"levelo://app?vid=60a40d55-1933-4992-8b78-e91bb8990eea"},"vehicle_type_id":"4","last_reported":1683399848,"current_range_meters":0,"station_id":"ce4bgph2rcd13ifvqc2g","pricing_plan_id":"free"},{"bike_id":"f74cadca-b52e-42f4-81ad-71df31a3a009","system_id":"levelo_inurba_marseille","lat":43.29573,"lon":5.367355,"is_reserved":false,"is_disabled":false,"rental_uris":{"android":"levelo://app?vid=f74cadca-b52e-42f4-81ad-71df31a3a009","ios":"levelo://app?vid=f74cadca-b52e-42f4-81ad-71df31a3a009"},"vehicle_type_id":"4","last_reported":1683399848,"current_range_meters":11600,"station_id":"ce4bgph2rcd13ifvqc2g","pricing_plan_id":"free"},{"bike_id":"c10c2c9c-1402-4989-9440-529cdef3d298","system_id":"levelo_inurba_marseille","lat":43.299028,"lon":5.381509,"is_reserved":false,"is_disabled":false,"rental_uris":{"android":"levelo://app?vid=c10c2c9c-1402-4989-9440-529cdef3d298","ios":"levelo://app?vid=c10c2c9c-1402-4989-9440-529cdef3d298"},"vehicle_type_id":"4","last_reported":1683399848,"current_range_meters":13200,"station_id":"ce4bgj12rcd13ifvqbc0","pricing_plan_id":"free"},{"bike_id":"ea6ff914-6b18-462a-9220-c0be5d00af2b","system_id":"levelo_inurba_marseille","lat":43.309589,"lon":5.390258,"is_reserved":false,"is_disabled":false,"rental_uris":{"android":"levelo://app?vid=ea6ff914-6b18-462a-9220-c0be5d00af2b","ios":"levelo://app?vid=ea6ff914-6b18-462a-9220-c0be5d00af2b"},"vehicle_type_id":"4","last_reported":1683399848,"current_range_meters":18000,"station_id":"ce4bgup2rcd13ifvqco0","pricing_plan_id":"free"},{"bike_id":"4464adb7-6eaa-4c76-a944-516cdb6a36d5","system_id":"levelo_inurba_marseille","lat":43.309589,"lon":5.390258,"is_reserved":false,"is_disabled":false,"rental_uris":{"android":"levelo://app?vid=4464adb7-6eaa-4c76-a944-516cdb6a36d5","ios":"levelo://app?vid=4464adb7-6eaa-4c76-a944-516cdb6a36d5"},"vehicle_type_id":"4","last_reported":1683399848,"current_range_meters":24400,"station_id":"ce4bgup2rcd13ifvqco0","pricing_plan_id":"free"},{"bike_id":"e07bf578-a7b1-4fdf-b6ca-2df5788b2781","system_id":"levelo_inurba_marseille","lat":43.317557,"lon":5.390173,"is_reserved":false,"is_disabled":false,"rental_uris":{"android":"levelo://app?vid=e07bf578-a7b1-4fdf-b6ca-2df5788b2781","ios":"levelo://app?vid=e07bf578-a7b1-4fdf-b6ca-2df5788b2781"},"vehicle_type_id":"4","last_reported":1683399848,"current_range_meters":16000,"station_id":"ce4bhqp2rcd13ifvqhng","pricing_plan_id":"free"},{"bike_id":"696e8eee-771a-46dc-9220-1e6413b93e7b","system_id":"levelo_inurba_marseille","lat":43.317557,"lon":5.390173,"is_reserved":false,"is_disabled":false,"rental_uris":{"android":"levelo://app?vid=696e8eee-771a-46dc-9220-1e6413b93e7b","ios":"levelo://app?vid=696e8eee-771a-46dc-9220-1e6413b93e7b"},"vehicle_type_id":"4","last_reported":1683399848,"current_range_meters":4400,"station_id":"ce4bhqp2rcd13ifvqhng","pricing_plan_id":"free"},{"bike_id":"5e26388f-afcc-4ebc-9b1c-d20adac7f39a","system_id":"levelo_inurba_marseille","lat":43.317557,"lon":5.390173,"is_reserved":false,"is_disabled":false,"rental_uris":{"android":"levelo://app?vid=5e26388f-afcc-4ebc-9b1c-d20adac7f39a","ios":"levelo://app?vid=5e26388f-afcc-4ebc-9b1c-d20adac7f39a"},"vehicle_type_id":"4","last_reported":1683399848,"current_range_meters":20000,"station_id":"ce4bhqp2rcd13ifvqhng","pricing_plan_id":"free"},{"bike_id":"60c66c87-4ca4-4156-b8a6-eda8bd157ca4","system_id":"levelo_inurba_marseille","lat":43.317557,"lon":5.390173,"is_reserved":false,"is_disabled":false,"rental_uris":{"android":"levelo://app?vid=60c66c87-4ca4-4156-b8a6-eda8bd157ca4","ios":"levelo://app?vid=60c66c87-4ca4-4156-b8a6-eda8bd157ca4"},"vehicle_type_id":"4","last_reported":1683399848,"current_range_meters":14000,"station_id":"ce4bhqp2rcd13ifvqhng","pricing_plan_id":"free"},{"bike_id":"a150add8-d665-4c51-881f-d30d53362dbe","system_id":"levelo_inurba_marseille","lat":43.31763,"lon":5.39022,"is_reserved":false,"is_disabled":false,"rental_uris":{"android":"levelo://app?vid=a150add8-d665-4c51-881f-d30d53362dbe","ios":"levelo://app?vid=a150add8-d665-4c51-881f-d30d53362dbe"},"vehicle_type_id":"4","last_reported":1683399848,"current_range_meters":4800,"station_id":"ce4bhqp2rcd13ifvqhng","pricing_plan_id":"free"},{"bike_id":"165cf4ec-ee3c-4a5c-929b-636fc1f79c2d","system_id":"levelo_inurba_marseille","lat":43.317557,"lon":5.390173,"is_reserved":false,"is_disabled":false,"rental_uris":{"android":"levelo://app?vid=165cf4ec-ee3c-4a5c-929b-636fc1f79c2d","ios":"levelo://app?vid=165cf4ec-ee3c-4a5c-929b-636fc1f79c2d"},"vehicle_type_id":"4","last_reported":1683399848,"current_range_meters":18000,"station_id":"ce4bhqp2rcd13ifvqhng","pricing_plan_id":"free"},{"bike_id":"513f4152-1d41-4154-b9a6-d56f8c8853c2","system_id":"levelo_inurba_marseille","lat":43.298037,"lon":5.381066,"is_reserved":false,"is_disabled":false,"rental_uris":{"android":"levelo://app?vid=513f4152-1d41-4154-b9a6-d56f8c8853c2","ios":"levelo://app?vid=513f4152-1d41-4154-b9a6-d56f8c8853c2"},"vehicle_type_id":"4","last_reported":1683399848,"current_range_meters":3200,"station_id":"ce4bgip2rcd13ifvqbb0","pricing_plan_id":"free"},{"bike_id":"5bf72e3c-875b-4a49-956c-64ba44482199","system_id":"levelo_inurba_marseille","lat":43.298037,"lon":5.381066,"is_reserved":false,"is_disabled":false,"rental_uris":{"android":"levelo://app?vid=5bf72e3c-875b-4a49-956c-64ba44482199","ios":"levelo://app?vid=5bf72e3c-875b-4a49-956c-64ba44482199"},"vehicle_type_id":"4","last_reported":1683399848,"current_range_meters":5200,"station_id":"ce4bgip2rcd13ifvqbb0","pricing_plan_id":"free"},{"bike_id":"669b95de-72bc-41ff-845b-2a8bb1fb7420","system_id":"levelo_inurba_marseille","lat":43.298037,"lon":5.381066,"is_reserved":false,"is_disabled":false,"rental_uris":{"android":"levelo://app?vid=669b95de-72bc-41ff-845b-2a8bb1fb7420","ios":"levelo://app?vid=669b95de-72bc-41ff-845b-2a8bb1fb7420"},"vehicle_type_id":"4","last_reported":1683399848,"current_range_meters":1200,"station_id":"ce4bgip2rcd13ifvqbb0","pricing_plan_id":"free"},{"bike_id":"10b74a67-e45c-461d-855c-7a1be5333a3d","system_id":"levelo_inurba_marseille","lat":43.29584,"lon":5.37519,"is_reserved":false,"is_disabled":false,"rental_uris":{"android":"levelo://app?vid=10b74a67-e45c-461d-855c-7a1be5333a3d","ios":"levelo://app?vid=10b74a67-e45c-461d-855c-7a1be5333a3d"},"vehicle_type_id":"4","last_reported":1683399848,"current_range_meters":1200,"station_id":"ce4bgh92rcd13ifvqb50","pricing_plan_id":"free"},{"bike_id":"21827311-0ae8-42f3-863f-bca455277de9","system_id":"levelo_inurba_marseille","lat":43.295748,"lon":5.37522,"is_reserved":false,"is_disabled":false,"rental_uris":{"android":"levelo://app?vid=21827311-0ae8-42f3-863f-bca455277de9","ios":"levelo://app?vid=21827311-0ae8-42f3-863f-bca455277de9"},"vehicle_type_id":"4","last_reported":1683399848,"current_range_meters":4400,"station_id":"ce4bgh92rcd13ifvqb50","pricing_plan_id":"free"},{"bike_id":"643b402e-60f5-4476-b1f5-07d0a1339ae9","system_id":"levelo_inurba_marseille","lat":43.298037,"lon":5.381066,"is_reserved":false,"is_disabled":false,"rental_uris":{"android":"levelo://app?vid=643b402e-60f5-4476-b1f5-07d0a1339ae9","ios":"levelo://app?vid=643b402e-60f5-4476-b1f5-07d0a1339ae9"},"vehicle_type_id":"4","last_reported":1683399848,"current_range_meters":16400,"station_id":"ce4bgip2rcd13ifvqbb0","pricing_plan_id":"free"},{"bike_id":"7e7aa7ae-1790-4126-8c5f-b33bf98f026a","system_id":"levelo_inurba_marseille","lat":43.2958,"lon":5.37521,"is_reserved":false,"is_disabled":false,"rental_uris":{"android":"levelo://app?vid=7e7aa7ae-1790-4126-8c5f-b33bf98f026a","ios":"levelo://app?vid=7e7aa7ae-1790-4126-8c5f-b33bf98f026a"},"vehicle_type_id":"4","last_reported":1683399848,"current_range_meters":10000,"station_id":"ce4bgh92rcd13ifvqb50","pricing_plan_id":"free"},{"bike_id":"f184227c-0fad-431b-ad3d-5c56cc242ceb","system_id":"levelo_inurba_marseille","lat":43.298037,"lon":5.381066,"is_reserved":false,"is_disabled":false,"rental_uris":{"android":"levelo://app?vid=f184227c-0fad-431b-ad3d-5c56cc242ceb","ios":"levelo://app?vid=f184227c-0fad-431b-ad3d-5c56cc242ceb"},"vehicle_type_id":"4","last_reported":1683399848,"current_range_meters":5200,"station_id":"ce4bgip2rcd13ifvqbb0","pricing_plan_id":"free"},{"bike_id":"5f9ecefd-6afa-427b-95f8-a062415f2770","system_id":"levelo_inurba_marseille","lat":43.295748,"lon":5.37522,"is_reserved":false,"is_disabled":false,"rental_uris":{"android":"levelo://app?vid=5f9ecefd-6afa-427b-95f8-a062415f2770","ios":"levelo://app?vid=5f9ecefd-6afa-427b-95f8-a062415f2770"},"vehicle_type_id":"4","last_reported":1683399848,"current_range_meters":2000,"station_id":"ce4bgh92rcd13ifvqb50","pricing_plan_id":"free"},{"bike_id":"4e50306f-fb58-438e-95a3-5ccfe8db8998","system_id":"levelo_inurba_marseille","lat":43.296263,"lon":5.377094,"is_reserved":false,"is_disabled":false,"rental_uris":{"android":"levelo://app?vid=4e50306f-fb58-438e-95a3-5ccfe8db8998","ios":"levelo://app?vid=4e50306f-fb58-438e-95a3-5ccfe8db8998"},"vehicle_type_id":"4","last_reported":1683399848,"current_range_meters":5200,"station_id":"ce4bgi92rcd13ifvqb90","pricing_plan_id":"free"},{"bike_id":"18c621c6-04d3-49f0-a044-31423d71b33c","system_id":"levelo_inurba_marseille","lat":43.304274,"lon":5.388873,"is_reserved":false,"is_disabled":false,"rental_uris":{"android":"levelo://app?vid=18c621c6-04d3-49f0-a044-31423d71b33c","ios":"levelo://app?vid=18c621c6-04d3-49f0-a044-31423d71b33c"},"vehicle_type_id":"4","last_reported":1683399848,"current_range_meters":15600,"station_id":"ce4bgk12rcd13ifvqbi0","pricing_plan_id":"free"},{"bike_id":"13efc024-0177-49d1-812b-4908185cb61d","system_id":"levelo_inurba_marseille","lat":43.29621,"lon":5.3772,"is_reserved":false,"is_disabled":false,"rental_uris":{"android":"levelo://app?vid=13efc024-0177-49d1-812b-4908185cb61d","ios":"levelo://app?vid=13efc024-0177-49d1-812b-4908185cb61d"},"vehicle_type_id":"4","last_reported":1683399848,"current_range_meters":16800,"station_id":"","pricing_plan_id":"free"},{"bike_id":"7683de4c-be6e-42eb-8ad4-e18fd4770f16","system_id":"levelo_inurba_marseille","lat":43.29545,"lon":5.37448,"is_reserved":false,"is_disabled":false,"rental_uris":{"android":"levelo://app?vid=7683de4c-be6e-42eb-8ad4-e18fd4770f16","ios":"levelo://app?vid=7683de4c-be6e-42eb-8ad4-e18fd4770f16"},"vehicle_type_id":"4","last_reported":1683399848,"current_range_meters":0,"station_id":"","pricing_plan_id":"free"},{"bike_id":"62243650-e111-4e68-a7e4-4e8c2dca1594","system_id":"levelo_inurba_marseille","lat":43.29571,"lon":5.37565,"is_reserved":false,"is_disabled":false,"rental_uris":{"android":"levelo://app?vid=62243650-e111-4e68-a7e4-4e8c2dca1594","ios":"levelo://app?vid=62243650-e111-4e68-a7e4-4e8c2dca1594"},"vehicle_type_id":"4","last_reported":1683399848,"current_range_meters":2800,"station_id":"ce4bgi92rcd13ifvqb90","pricing_plan_id":"free"},{"bike_id":"3cc1dbf5-7b98-4bf1-8404-613089aced07","system_id":"levelo_inurba_marseille","lat":43.295279,"lon":5.375048,"is_reserved":false,"is_disabled":false,"rental_uris":{"android":"levelo://app?vid=3cc1dbf5-7b98-4bf1-8404-613089aced07","ios":"levelo://app?vid=3cc1dbf5-7b98-4bf1-8404-613089aced07"},"vehicle_type_id":"4","last_reported":1683399848,"current_range_meters":0,"station_id":"ce4bgkp2rcd13ifvqbmg","pricing_plan_id":"free"},{"bike_id":"bc43130e-b31e-4f8d-be48-d57d24e1386b","system_id":"levelo_inurba_marseille","lat":43.299717,"lon":5.384845,"is_reserved":false,"is_disabled":false,"rental_uris":{"android":"levelo://app?vid=bc43130e-b31e-4f8d-be48-d57d24e1386b","ios":"levelo://app?vid=bc43130e-b31e-4f8d-be48-d57d24e1386b"},"vehicle_type_id":"4","last_reported":1683399848,"current_range_meters":0,"station_id":"ce4bgj92rcd13ifvqbd0","pricing_plan_id":"free"},{"bike_id":"97bc7cf2-9fd4-4a78-a821-476e4f7ff816","system_id":"levelo_inurba_marseille","lat":43.29857,"lon":5.38389,"is_reserved":false,"is_disabled":false,"rental_uris":{"android":"levelo://app?vid=97bc7cf2-9fd4-4a78-a821-476e4f7ff816","ios":"levelo://app?vid=97bc7cf2-9fd4-4a78-a821-476e4f7ff816"},"vehicle_type_id":"4","last_reported":1683399848,"current_range_meters":11200,"station_id":"","pricing_plan_id":"free"},{"bike_id":"f0dcfd84-4222-444a-b26d-9f99a892695b","system_id":"levelo_inurba_marseille","lat":43.31457,"lon":5.39281,"is_reserved":false,"is_disabled":false,"rental_uris":{"android":"levelo://app?vid=f0dcfd84-4222-444a-b26d-9f99a892695b","ios":"levelo://app?vid=f0dcfd84-4222-444a-b26d-9f99a892695b"},"vehicle_type_id":"4","last_reported":1683399848,"current_range_meters":6400,"station_id":"","pricing_plan_id":"free"},{"bike_id":"0d21f0be-996a-4685-a91b-35ab90881a49","system_id":"levelo_inurba_marseille","lat":43.29494,"lon":5.37588,"is_reserved":false,"is_disabled":false,"rental_uris":{"android":"levelo://app?vid=0d21f0be-996a-4685-a91b-35ab90881a49","ios":"levelo://app?vid=0d21f0be-996a-4685-a91b-35ab90881a49"},"vehicle_type_id":"4","last_reported":1683399848,"current_range_meters":17600,"station_id":"","pricing_plan_id":"free"},{"bike_id":"c234a54e-497d-4abb-9de6-86dba63c2a0e","system_id":"levelo_inurba_marseille","lat":43.29601,"lon":5.381084,"is_reserved":false,"is_disabled":false,"rental_uris":{"android":"levelo://app?vid=c234a54e-497d-4abb-9de6-86dba63c2a0e","ios":"levelo://app?vid=c234a54e-497d-4abb-9de6-86dba63c2a0e"},"vehicle_type_id":"4","last_reported":1683399848,"current_range_meters":13200,"station_id":"ce4bgl12rcd13ifvqbo0","pricing_plan_id":"free"},{"bike_id":"9d4ea58b-c73a-4f9e-9791-a8450a90feda","system_id":"levelo_inurba_marseille","lat":43.29602,"lon":5.381084,"is_reserved":false,"is_disabled":false,"rental_uris":{"android":"levelo://app?vid=9d4ea58b-c73a-4f9e-9791-a8450a90feda","ios":"levelo://app?vid=9d4ea58b-c73a-4f9e-9791-a8450a90feda"},"vehicle_type_id":"4","last_reported":1683399848,"current_range_meters":6000,"station_id":"ce4bgl12rcd13ifvqbo0","pricing_plan_id":"free"},{"bike_id":"ca06f05c-9cda-4692-96a5-376294a11480","system_id":"levelo_inurba_marseille","lat":43.29602,"lon":5.381084,"is_reserved":false,"is_disabled":false,"rental_uris":{"android":"levelo://app?vid=ca06f05c-9cda-4692-96a5-376294a11480","ios":"levelo://app?vid=ca06f05c-9cda-4692-96a5-376294a11480"},"vehicle_type_id":"4","last_reported":1683399848,"current_range_meters":8800,"station_id":"ce4bgl12rcd13ifvqbo0","pricing_plan_id":"free"},{"bike_id":"36853e17-07cc-4cba-8a0e-d1cb5c1433d0","system_id":"levelo_inurba_marseille","lat":43.293249,"lon":5.371578,"is_reserved":false,"is_disabled":false,"rental_uris":{"android":"levelo://app?vid=36853e17-07cc-4cba-8a0e-d1cb5c1433d0","ios":"levelo://app?vid=36853e17-07cc-4cba-8a0e-d1cb5c1433d0"},"vehicle_type_id":"4","last_reported":1683399848,"current_range_meters":0,"station_id":"ce4bgh92rcd13ifvqb40","pricing_plan_id":"free"},{"bike_id":"6ce54040-72f1-49ee-9158-e651019f0ea0","system_id":"levelo_inurba_marseille","lat":43.29281,"lon":5.36847,"is_reserved":false,"is_disabled":false,"rental_uris":{"android":"levelo://app?vid=6ce54040-72f1-49ee-9158-e651019f0ea0","ios":"levelo://app?vid=6ce54040-72f1-49ee-9158-e651019f0ea0"},"vehicle_type_id":"4","last_reported":1683399848,"current_range_meters":4400,"station_id":"ce4bhbp2rcd13ifvqesg","pricing_plan_id":"free"},{"bike_id":"fbc37f0b-28ef-49e3-b781-67ec8fda10c5","system_id":"levelo_inurba_marseille","lat":43.29281,"lon":5.36848,"is_reserved":false,"is_disabled":false,"rental_uris":{"android":"levelo://app?vid=fbc37f0b-28ef-49e3-b781-67ec8fda10c5","ios":"levelo://app?vid=fbc37f0b-28ef-49e3-b781-67ec8fda10c5"},"vehicle_type_id":"4","last_reported":1683399848,"current_range_meters":17200,"station_id":"ce4bhbp2rcd13ifvqesg","pricing_plan_id":"free"},{"bike_id":"3ba08c7d-23b1-4315-a0e7-e46d7d3977d0","system_id":"levelo_inurba_marseille","lat":43.2928,"lon":5.36842,"is_reserved":false,"is_disabled":false,"rental_uris":{"android":"levelo://app?vid=3ba08c7d-23b1-4315-a0e7-e46d7d3977d0","ios":"levelo://app?vid=3ba08c7d-23b1-4315-a0e7-e46d7d3977d0"},"vehicle_type_id":"4","last_reported":1683399848,"current_range_meters":0,"station_id":"ce4bhbp2rcd13ifvqesg","pricing_plan_id":"free"},{"bike_id":"a56c5f36-9f28-4557-8ee3-30395cd64560","system_id":"levelo_inurba_marseille","lat":43.2928,"lon":5.36842,"is_reserved":false,"is_disabled":false,"rental_uris":{"android":"levelo://app?vid=a56c5f36-9f28-4557-8ee3-30395cd64560","ios":"levelo://app?vid=a56c5f36-9f28-4557-8ee3-30395cd64560"},"vehicle_type_id":"4","last_reported":1683399848,"current_range_meters":4800,"station_id":"ce4bhbp2rcd13ifvqesg","pricing_plan_id":"free"},{"bike_id":"a588e3de-9a2e-4369-aeb7-22c80f32f0a7","system_id":"levelo_inurba_marseille","lat":43.29279,"lon":5.36843,"is_reserved":false,"is_disabled":false,"rental_uris":{"android":"levelo://app?vid=a588e3de-9a2e-4369-aeb7-22c80f32f0a7","ios":"levelo://app?vid=a588e3de-9a2e-4369-aeb7-22c80f32f0a7"},"vehicle_type_id":"4","last_reported":1683399848,"current_range_meters":2800,"station_id":"ce4bhbp2rcd13ifvqesg","pricing_plan_id":"free"},{"bike_id":"10f9306a-b16c-4afc-8205-f7955694958d","system_id":"levelo_inurba_marseille","lat":43.29275,"lon":5.36841,"is_reserved":false,"is_disabled":false,"rental_uris":{"android":"levelo://app?vid=10f9306a-b16c-4afc-8205-f7955694958d","ios":"levelo://app?vid=10f9306a-b16c-4afc-8205-f7955694958d"},"vehicle_type_id":"4","last_reported":1683399848,"current_range_meters":0,"station_id":"ce4bhbp2rcd13ifvqesg","pricing_plan_id":"free"},{"bike_id":"f2ba9260-ea5b-4f6f-bd0f-3c0ae395e0e8","system_id":"levelo_inurba_marseille","lat":43.293009,"lon":5.374584,"is_reserved":false,"is_disabled":false,"rental_uris":{"android":"levelo://app?vid=f2ba9260-ea5b-4f6f-bd0f-3c0ae395e0e8","ios":"levelo://app?vid=f2ba9260-ea5b-4f6f-bd0f-3c0ae395e0e8"},"vehicle_type_id":"4","last_reported":1683399848,"current_range_meters":9200,"station_id":"ce4bgi12rcd13ifvqb70","pricing_plan_id":"free"},{"bike_id":"a14705f2-8482-47d1-b811-caebf28de485","system_id":"levelo_inurba_marseille","lat":43.293009,"lon":5.374584,"is_reserved":false,"is_disabled":false,"rental_uris":{"android":"levelo://app?vid=a14705f2-8482-47d1-b811-caebf28de485","ios":"levelo://app?vid=a14705f2-8482-47d1-b811-caebf28de485"},"vehicle_type_id":"4","last_reported":1683399848,"current_range_meters":20400,"station_id":"ce4bgi12rcd13ifvqb70","pricing_plan_id":"free"},{"bike_id":"d9a9250a-0030-4163-8ff4-c2280b496644","system_id":"levelo_inurba_marseille","lat":43.293009,"lon":5.374584,"is_reserved":false,"is_disabled":false,"rental_uris":{"android":"levelo://app?vid=d9a9250a-0030-4163-8ff4-c2280b496644","ios":"levelo://app?vid=d9a9250a-0030-4163-8ff4-c2280b496644"},"vehicle_type_id":"4","last_reported":1683399848,"current_range_meters":14800,"station_id":"ce4bgi12rcd13ifvqb70","pricing_plan_id":"free"},{"bike_id":"5c19bef2-1c6d-4f8d-9eee-fd8193d27b93","system_id":"levelo_inurba_marseille","lat":43.293009,"lon":5.374584,"is_reserved":false,"is_disabled":false,"rental_uris":{"android":"levelo://app?vid=5c19bef2-1c6d-4f8d-9eee-fd8193d27b93","ios":"levelo://app?vid=5c19bef2-1c6d-4f8d-9eee-fd8193d27b93"},"vehicle_type_id":"4","last_reported":1683399848,"current_range_meters":25200,"station_id":"ce4bgi12rcd13ifvqb70","pricing_plan_id":"free"},{"bike_id":"8ffb9840-54e9-4c82-9093-4c211a2731cb","system_id":"levelo_inurba_marseille","lat":43.292644,"lon":5.384257,"is_reserved":false,"is_disabled":false,"rental_uris":{"android":"levelo://app?vid=8ffb9840-54e9-4c82-9093-4c211a2731cb","ios":"levelo://app?vid=8ffb9840-54e9-4c82-9093-4c211a2731cb"},"vehicle_type_id":"4","last_reported":1683399848,"current_range_meters":26000,"station_id":"ce4bh692rcd13ifvqea0","pricing_plan_id":"free"},{"bike_id":"d8dcef71-f16b-4aee-a008-1a7779d5a04e","system_id":"levelo_inurba_marseille","lat":43.2936,"lon":5.37835,"is_reserved":false,"is_disabled":false,"rental_uris":{"android":"levelo://app?vid=d8dcef71-f16b-4aee-a008-1a7779d5a04e","ios":"levelo://app?vid=d8dcef71-f16b-4aee-a008-1a7779d5a04e"},"vehicle_type_id":"4","last_reported":1683399848,"current_range_meters":28400,"station_id":"ce4bgjh2rcd13ifvqbf0","pricing_plan_id":"free"},{"bike_id":"3377d4d6-fda9-42fa-bd57-8509afd0f3ef","system_id":"levelo_inurba_marseille","lat":43.2936,"lon":5.37835,"is_reserved":false,"is_disabled":false,"rental_uris":{"android":"levelo://app?vid=3377d4d6-fda9-42fa-bd57-8509afd0f3ef","ios":"levelo://app?vid=3377d4d6-fda9-42fa-bd57-8509afd0f3ef"},"vehicle_type_id":"4","last_reported":1683399848,"current_range_meters":3600,"station_id":"ce4bgjh2rcd13ifvqbf0","pricing_plan_id":"free"},{"bike_id":"419cb010-c133-494d-b7e4-e000dc250cf1","system_id":"levelo_inurba_marseille","lat":43.302992,"lon":5.392136,"is_reserved":false,"is_disabled":false,"rental_uris":{"android":"levelo://app?vid=419cb010-c133-494d-b7e4-e000dc250cf1","ios":"levelo://app?vid=419cb010-c133-494d-b7e4-e000dc250cf1"},"vehicle_type_id":"4","last_reported":1683399848,"current_range_meters":14400,"station_id":"ce4bgkh2rcd13ifvqbk0","pricing_plan_id":"free"},{"bike_id":"1c4cbb6c-53bf-42f5-a723-425ba86eaf45","system_id":"levelo_inurba_marseille","lat":43.2936,"lon":5.37835,"is_reserved":false,"is_disabled":false,"rental_uris":{"android":"levelo://app?vid=1c4cbb6c-53bf-42f5-a723-425ba86eaf45","ios":"levelo://app?vid=1c4cbb6c-53bf-42f5-a723-425ba86eaf45"},"vehicle_type_id":"4","last_reported":1683399848,"current_range_meters":19600,"station_id":"ce4bgjh2rcd13ifvqbf0","pricing_plan_id":"free"},{"bike_id":"5f7aed9a-19b1-44d8-ad31-56a7a597ede1","system_id":"levelo_inurba_marseille","lat":43.29366,"lon":5.37845,"is_reserved":false,"is_disabled":false,"rental_uris":{"android":"levelo://app?vid=5f7aed9a-19b1-44d8-ad31-56a7a597ede1","ios":"levelo://app?vid=5f7aed9a-19b1-44d8-ad31-56a7a597ede1"},"vehicle_type_id":"4","last_reported":1683399848,"current_range_meters":18400,"station_id":"ce4bgjh2rcd13ifvqbf0","pricing_plan_id":"free"},{"bike_id":"2c6274e9-ee0f-4575-aea7-25caab137695","system_id":"levelo_inurba_marseille","lat":43.298764,"lon":5.388973,"is_reserved":false,"is_disabled":false,"rental_uris":{"android":"levelo://app?vid=2c6274e9-ee0f-4575-aea7-25caab137695","ios":"levelo://app?vid=2c6274e9-ee0f-4575-aea7-25caab137695"},"vehicle_type_id":"4","last_reported":1683399848,"current_range_meters":0,"station_id":"ce4bh392rcd13ifvqdl0","pricing_plan_id":"free"},{"bike_id":"2f74b640-07cd-4071-8baa-8c7d163a2f92","system_id":"levelo_inurba_marseille","lat":43.298764,"lon":5.388973,"is_reserved":false,"is_disabled":false,"rental_uris":{"android":"levelo://app?vid=2f74b640-07cd-4071-8baa-8c7d163a2f92","ios":"levelo://app?vid=2f74b640-07cd-4071-8baa-8c7d163a2f92"},"vehicle_type_id":"4","last_reported":1683399848,"current_range_meters":10800,"station_id":"ce4bh392rcd13ifvqdl0","pricing_plan_id":"free"},{"bike_id":"5a183e4a-fd2d-4090-add2-fd703dfcf6de","system_id":"levelo_inurba_marseille","lat":43.291671,"lon":5.371575,"is_reserved":false,"is_disabled":false,"rental_uris":{"android":"levelo://app?vid=5a183e4a-fd2d-4090-add2-fd703dfcf6de","ios":"levelo://app?vid=5a183e4a-fd2d-4090-add2-fd703dfcf6de"},"vehicle_type_id":"4","last_reported":1683399848,"current_range_meters":20000,"station_id":"ce4bha92rcd13ifvqeh0","pricing_plan_id":"free"},{"bike_id":"259cd88f-d6c4-4763-b1e2-c7638dc28358","system_id":"levelo_inurba_marseille","lat":43.291675,"lon":5.371583,"is_reserved":false,"is_disabled":false,"rental_uris":{"android":"levelo://app?vid=259cd88f-d6c4-4763-b1e2-c7638dc28358","ios":"levelo://app?vid=259cd88f-d6c4-4763-b1e2-c7638dc28358"},"vehicle_type_id":"4","last_reported":1683399848,"current_range_meters":17200,"station_id":"ce4bha92rcd13ifvqeh0","pricing_plan_id":"free"},{"bike_id":"28b8cd3a-7626-458a-b565-55f270c020df","system_id":"levelo_inurba_marseille","lat":43.298764,"lon":5.388973,"is_reserved":false,"is_disabled":false,"rental_uris":{"android":"levelo://app?vid=28b8cd3a-7626-458a-b565-55f270c020df","ios":"levelo://app?vid=28b8cd3a-7626-458a-b565-55f270c020df"},"vehicle_type_id":"4","last_reported":1683399848,"current_range_meters":10800,"station_id":"ce4bh392rcd13ifvqdl0","pricing_plan_id":"free"},{"bike_id":"deea7fd7-2d9d-4159-8183-21ced049a749","system_id":"levelo_inurba_marseille","lat":43.291671,"lon":5.371575,"is_reserved":false,"is_disabled":false,"rental_uris":{"android":"levelo://app?vid=deea7fd7-2d9d-4159-8183-21ced049a749","ios":"levelo://app?vid=deea7fd7-2d9d-4159-8183-21ced049a749"},"vehicle_type_id":"4","last_reported":1683399848,"current_range_meters":16400,"station_id":"ce4bha92rcd13ifvqeh0","pricing_plan_id":"free"},{"bike_id":"6d33557b-b9d6-4a42-80ab-24b1992c44fb","system_id":"levelo_inurba_marseille","lat":43.31322,"lon":5.39684,"is_reserved":false,"is_disabled":false,"rental_uris":{"android":"levelo://app?vid=6d33557b-b9d6-4a42-80ab-24b1992c44fb","ios":"levelo://app?vid=6d33557b-b9d6-4a42-80ab-24b1992c44fb"},"vehicle_type_id":"4","last_reported":1683399848,"current_range_meters":400,"station_id":"","pricing_plan_id":"free"},{"bike_id":"712d22f6-507d-4705-8309-8afe2cb796b3","system_id":"levelo_inurba_marseille","lat":43.313291,"lon":5.396838,"is_reserved":false,"is_disabled":false,"rental_uris":{"android":"levelo://app?vid=712d22f6-507d-4705-8309-8afe2cb796b3","ios":"levelo://app?vid=712d22f6-507d-4705-8309-8afe2cb796b3"},"vehicle_type_id":"4","last_reported":1683399848,"current_range_meters":0,"station_id":"ce4bgvp2rcd13ifvqcu0","pricing_plan_id":"free"},{"bike_id":"5907034e-878f-4406-b9bf-5e3b5ca3cf6c","system_id":"levelo_inurba_marseille","lat":43.29529,"lon":5.385581,"is_reserved":false,"is_disabled":false,"rental_uris":{"android":"levelo://app?vid=5907034e-878f-4406-b9bf-5e3b5ca3cf6c","ios":"levelo://app?vid=5907034e-878f-4406-b9bf-5e3b5ca3cf6c"},"vehicle_type_id":"4","last_reported":1683399848,"current_range_meters":1200,"station_id":"ce4bgih2rcd13ifvqba0","pricing_plan_id":"free"},{"bike_id":"b5d3df38-5c98-4a46-b885-00e7ae18be2c","system_id":"levelo_inurba_marseille","lat":43.29529,"lon":5.385581,"is_reserved":false,"is_disabled":false,"rental_uris":{"android":"levelo://app?vid=b5d3df38-5c98-4a46-b885-00e7ae18be2c","ios":"levelo://app?vid=b5d3df38-5c98-4a46-b885-00e7ae18be2c"},"vehicle_type_id":"4","last_reported":1683399848,"current_range_meters":2400,"station_id":"ce4bgih2rcd13ifvqba0","pricing_plan_id":"free"},{"bike_id":"1c05c1dc-bf1e-4c92-95ce-780cd8a65de8","system_id":"levelo_inurba_marseille","lat":43.29529,"lon":5.385581,"is_reserved":false,"is_disabled":false,"rental_uris":{"android":"levelo://app?vid=1c05c1dc-bf1e-4c92-95ce-780cd8a65de8","ios":"levelo://app?vid=1c05c1dc-bf1e-4c92-95ce-780cd8a65de8"},"vehicle_type_id":"4","last_reported":1683399848,"current_range_meters":23200,"station_id":"ce4bgih2rcd13ifvqba0","pricing_plan_id":"free"},{"bike_id":"ca2184e9-26d1-46ac-887a-8d8cdf7a1ce8","system_id":"levelo_inurba_marseille","lat":43.29529,"lon":5.385581,"is_reserved":false,"is_disabled":false,"rental_uris":{"android":"levelo://app?vid=ca2184e9-26d1-46ac-887a-8d8cdf7a1ce8","ios":"levelo://app?vid=ca2184e9-26d1-46ac-887a-8d8cdf7a1ce8"},"vehicle_type_id":"4","last_reported":1683399848,"current_range_meters":2400,"station_id":"ce4bgih2rcd13ifvqba0","pricing_plan_id":"free"},{"bike_id":"008b3725-a728-48ac-9978-f43a114e642c","system_id":"levelo_inurba_marseille","lat":43.29529,"lon":5.38536,"is_reserved":false,"is_disabled":false,"rental_uris":{"android":"levelo://app?vid=008b3725-a728-48ac-9978-f43a114e642c","ios":"levelo://app?vid=008b3725-a728-48ac-9978-f43a114e642c"},"vehicle_type_id":"4","last_reported":1683399848,"current_range_meters":2000,"station_id":"ce4bgih2rcd13ifvqba0","pricing_plan_id":"free"},{"bike_id":"78515159-c835-408a-97b8-1f1af80d0159","system_id":"levelo_inurba_marseille","lat":43.29529,"lon":5.385581,"is_reserved":false,"is_disabled":false,"rental_uris":{"android":"levelo://app?vid=78515159-c835-408a-97b8-1f1af80d0159","ios":"levelo://app?vid=78515159-c835-408a-97b8-1f1af80d0159"},"vehicle_type_id":"4","last_reported":1683399848,"current_range_meters":11600,"station_id":"ce4bgih2rcd13ifvqba0","pricing_plan_id":"free"},{"bike_id":"09e3bf20-d785-427c-bee8-3e0800566ab4","system_id":"levelo_inurba_marseille","lat":43.29532,"lon":5.38542,"is_reserved":false,"is_disabled":false,"rental_uris":{"android":"levelo://app?vid=09e3bf20-d785-427c-bee8-3e0800566ab4","ios":"levelo://app?vid=09e3bf20-d785-427c-bee8-3e0800566ab4"},"vehicle_type_id":"4","last_reported":1683399848,"current_range_meters":0,"station_id":"ce4bgih2rcd13ifvqba0","pricing_plan_id":"free"},{"bike_id":"a5b6235d-d56a-46ef-97f5-f3cfe80d4290","system_id":"levelo_inurba_marseille","lat":43.29529,"lon":5.385581,"is_reserved":false,"is_disabled":false,"rental_uris":{"android":"levelo://app?vid=a5b6235d-d56a-46ef-97f5-f3cfe80d4290","ios":"levelo://app?vid=a5b6235d-d56a-46ef-97f5-f3cfe80d4290"},"vehicle_type_id":"4","last_reported":1683399848,"current_range_meters":800,"station_id":"ce4bgih2rcd13ifvqba0","pricing_plan_id":"free"},{"bike_id":"116977e1-4cc2-464d-bfa7-5567a4713b5e","system_id":"levelo_inurba_marseille","lat":43.29529,"lon":5.385581,"is_reserved":false,"is_disabled":false,"rental_uris":{"android":"levelo://app?vid=116977e1-4cc2-464d-bfa7-5567a4713b5e","ios":"levelo://app?vid=116977e1-4cc2-464d-bfa7-5567a4713b5e"},"vehicle_type_id":"4","last_reported":1683399848,"current_range_meters":8400,"station_id":"ce4bgih2rcd13ifvqba0","pricing_plan_id":"free"},{"bike_id":"d67f214c-7b61-444b-8eda-92bce8a37051","system_id":"levelo_inurba_marseille","lat":43.290779,"lon":5.371482,"is_reserved":false,"is_disabled":false,"rental_uris":{"android":"levelo://app?vid=d67f214c-7b61-444b-8eda-92bce8a37051","ios":"levelo://app?vid=d67f214c-7b61-444b-8eda-92bce8a37051"},"vehicle_type_id":"4","last_reported":1683399848,"current_range_meters":18000,"station_id":"ce4bh5p2rcd13ifvqe4g","pricing_plan_id":"free"},{"bike_id":"8391c20d-94c1-4591-90c3-99ccbe28ebe8","system_id":"levelo_inurba_marseille","lat":43.290779,"lon":5.371482,"is_reserved":false,"is_disabled":false,"rental_uris":{"android":"levelo://app?vid=8391c20d-94c1-4591-90c3-99ccbe28ebe8","ios":"levelo://app?vid=8391c20d-94c1-4591-90c3-99ccbe28ebe8"},"vehicle_type_id":"4","last_reported":1683399848,"current_range_meters":5200,"station_id":"ce4bh5p2rcd13ifvqe4g","pricing_plan_id":"free"},{"bike_id":"cc1758af-2a0a-4f0a-b43b-c0f9b51ea8f6","system_id":"levelo_inurba_marseille","lat":43.290779,"lon":5.371482,"is_reserved":false,"is_disabled":false,"rental_uris":{"android":"levelo://app?vid=cc1758af-2a0a-4f0a-b43b-c0f9b51ea8f6","ios":"levelo://app?vid=cc1758af-2a0a-4f0a-b43b-c0f9b51ea8f6"},"vehicle_type_id":"4","last_reported":1683399848,"current_range_meters":12000,"station_id":"ce4bh5p2rcd13ifvqe4g","pricing_plan_id":"free"},{"bike_id":"8aa41df0-0bc3-47c0-a98e-825c84558548","system_id":"levelo_inurba_marseille","lat":43.29413,"lon":5.385944,"is_reserved":false,"is_disabled":false,"rental_uris":{"android":"levelo://app?vid=8aa41df0-0bc3-47c0-a98e-825c84558548","ios":"levelo://app?vid=8aa41df0-0bc3-47c0-a98e-825c84558548"},"vehicle_type_id":"4","last_reported":1683399848,"current_range_meters":0,"station_id":"ce4bh2h2rcd13ifvqdh0","pricing_plan_id":"free"},{"bike_id":"3ca876ab-5dcd-4a94-8bb5-b4e15854d0cb","system_id":"levelo_inurba_marseille","lat":43.29422,"lon":5.38613,"is_reserved":false,"is_disabled":false,"rental_uris":{"android":"levelo://app?vid=3ca876ab-5dcd-4a94-8bb5-b4e15854d0cb","ios":"levelo://app?vid=3ca876ab-5dcd-4a94-8bb5-b4e15854d0cb"},"vehicle_type_id":"4","last_reported":1683399848,"current_range_meters":0,"station_id":"ce4bh2h2rcd13ifvqdh0","pricing_plan_id":"free"},{"bike_id":"db11392d-5882-4fb4-8673-7f33954a768d","system_id":"levelo_inurba_marseille","lat":43.29423,"lon":5.38618,"is_reserved":false,"is_disabled":false,"rental_uris":{"android":"levelo://app?vid=db11392d-5882-4fb4-8673-7f33954a768d","ios":"levelo://app?vid=db11392d-5882-4fb4-8673-7f33954a768d"},"vehicle_type_id":"4","last_reported":1683399848,"current_range_meters":0,"station_id":"ce4bh2h2rcd13ifvqdh0","pricing_plan_id":"free"},{"bike_id":"feed5bae-c54c-4855-8dcd-3b0888dfb2a1","system_id":"levelo_inurba_marseille","lat":43.29421,"lon":5.38615,"is_reserved":false,"is_disabled":false,"rental_uris":{"android":"levelo://app?vid=feed5bae-c54c-4855-8dcd-3b0888dfb2a1","ios":"levelo://app?vid=feed5bae-c54c-4855-8dcd-3b0888dfb2a1"},"vehicle_type_id":"4","last_reported":1683399848,"current_range_meters":4000,"station_id":"ce4bh2h2rcd13ifvqdh0","pricing_plan_id":"free"},{"bike_id":"c2425bcf-5d2f-4782-b0a7-83e2ed04e3d5","system_id":"levelo_inurba_marseille","lat":43.294153,"lon":5.386305,"is_reserved":false,"is_disabled":false,"rental_uris":{"android":"levelo://app?vid=c2425bcf-5d2f-4782-b0a7-83e2ed04e3d5","ios":"levelo://app?vid=c2425bcf-5d2f-4782-b0a7-83e2ed04e3d5"},"vehicle_type_id":"4","last_reported":1683399848,"current_range_meters":15200,"station_id":"ce4bh2h2rcd13ifvqdh0","pricing_plan_id":"free"},{"bike_id":"733e54f4-d9d9-4958-8353-905e44748b18","system_id":"levelo_inurba_marseille","lat":43.29422,"lon":5.38628,"is_reserved":false,"is_disabled":false,"rental_uris":{"android":"levelo://app?vid=733e54f4-d9d9-4958-8353-905e44748b18","ios":"levelo://app?vid=733e54f4-d9d9-4958-8353-905e44748b18"},"vehicle_type_id":"4","last_reported":1683399848,"current_range_meters":18800,"station_id":"ce4bh2h2rcd13ifvqdh0","pricing_plan_id":"free"},{"bike_id":"1b77f571-326a-4ac9-9022-57aab9aa1d56","system_id":"levelo_inurba_marseille","lat":43.29419,"lon":5.38624,"is_reserved":false,"is_disabled":false,"rental_uris":{"android":"levelo://app?vid=1b77f571-326a-4ac9-9022-57aab9aa1d56","ios":"levelo://app?vid=1b77f571-326a-4ac9-9022-57aab9aa1d56"},"vehicle_type_id":"4","last_reported":1683399848,"current_range_meters":20800,"station_id":"ce4bh2h2rcd13ifvqdh0","pricing_plan_id":"free"},{"bike_id":"48517bd2-2d01-4256-9f5c-9fa3829bf31b","system_id":"levelo_inurba_marseille","lat":43.29034,"lon":5.37566,"is_reserved":false,"is_disabled":false,"rental_uris":{"android":"levelo://app?vid=48517bd2-2d01-4256-9f5c-9fa3829bf31b","ios":"levelo://app?vid=48517bd2-2d01-4256-9f5c-9fa3829bf31b"},"vehicle_type_id":"4","last_reported":1683399848,"current_range_meters":26800,"station_id":"ce4bh692rcd13ifvqe90","pricing_plan_id":"free"},{"bike_id":"b3270820-1a46-4160-88a7-c8d68c0419cb","system_id":"levelo_inurba_marseille","lat":43.29414,"lon":5.3862,"is_reserved":false,"is_disabled":false,"rental_uris":{"android":"levelo://app?vid=b3270820-1a46-4160-88a7-c8d68c0419cb","ios":"levelo://app?vid=b3270820-1a46-4160-88a7-c8d68c0419cb"},"vehicle_type_id":"4","last_reported":1683399848,"current_range_meters":24000,"station_id":"ce4bh2h2rcd13ifvqdh0","pricing_plan_id":"free"},{"bike_id":"a6e998c0-63f5-4bdb-bdc1-10ade0105695","system_id":"levelo_inurba_marseille","lat":43.29416,"lon":5.38624,"is_reserved":false,"is_disabled":false,"rental_uris":{"android":"levelo://app?vid=a6e998c0-63f5-4bdb-bdc1-10ade0105695","ios":"levelo://app?vid=a6e998c0-63f5-4bdb-bdc1-10ade0105695"},"vehicle_type_id":"4","last_reported":1683399848,"current_range_meters":13600,"station_id":"ce4bh2h2rcd13ifvqdh0","pricing_plan_id":"free"},{"bike_id":"33cd5af3-6ec6-4da9-8b4a-16149a891e67","system_id":"levelo_inurba_marseille","lat":43.29417,"lon":5.38627,"is_reserved":false,"is_disabled":false,"rental_uris":{"android":"levelo://app?vid=33cd5af3-6ec6-4da9-8b4a-16149a891e67","ios":"levelo://app?vid=33cd5af3-6ec6-4da9-8b4a-16149a891e67"},"vehicle_type_id":"4","last_reported":1683399848,"current_range_meters":0,"station_id":"ce4bh2h2rcd13ifvqdh0","pricing_plan_id":"free"},{"bike_id":"4a1c22d9-5b16-4f0b-983e-8f9ad5c6a191","system_id":"levelo_inurba_marseille","lat":43.29423,"lon":5.38638,"is_reserved":false,"is_disabled":false,"rental_uris":{"android":"levelo://app?vid=4a1c22d9-5b16-4f0b-983e-8f9ad5c6a191","ios":"levelo://app?vid=4a1c22d9-5b16-4f0b-983e-8f9ad5c6a191"},"vehicle_type_id":"4","last_reported":1683399848,"current_range_meters":0,"station_id":"ce4bh2h2rcd13ifvqdh0","pricing_plan_id":"free"},{"bike_id":"8817ceb1-758f-4f45-be3d-c46b2ec717ad","system_id":"levelo_inurba_marseille","lat":43.29417,"lon":5.38628,"is_reserved":false,"is_disabled":false,"rental_uris":{"android":"levelo://app?vid=8817ceb1-758f-4f45-be3d-c46b2ec717ad","ios":"levelo://app?vid=8817ceb1-758f-4f45-be3d-c46b2ec717ad"},"vehicle_type_id":"4","last_reported":1683399848,"current_range_meters":1600,"station_id":"ce4bh2h2rcd13ifvqdh0","pricing_plan_id":"free"},{"bike_id":"de509a14-3cc3-4c99-89b8-9e423fd2a9b9","system_id":"levelo_inurba_marseille","lat":43.289184,"lon":5.366408,"is_reserved":false,"is_disabled":false,"rental_uris":{"android":"levelo://app?vid=de509a14-3cc3-4c99-89b8-9e423fd2a9b9","ios":"levelo://app?vid=de509a14-3cc3-4c99-89b8-9e423fd2a9b9"},"vehicle_type_id":"4","last_reported":1683399848,"current_range_meters":0,"station_id":"ce4bhap2rcd13ifvqek0","pricing_plan_id":"free"},{"bike_id":"68d49cbd-4d26-4782-adcb-d6cfbd2bdc1b","system_id":"levelo_inurba_marseille","lat":43.29417,"lon":5.38631,"is_reserved":false,"is_disabled":false,"rental_uris":{"android":"levelo://app?vid=68d49cbd-4d26-4782-adcb-d6cfbd2bdc1b","ios":"levelo://app?vid=68d49cbd-4d26-4782-adcb-d6cfbd2bdc1b"},"vehicle_type_id":"4","last_reported":1683399848,"current_range_meters":20400,"station_id":"ce4bh2h2rcd13ifvqdh0","pricing_plan_id":"free"},{"bike_id":"ef44dd42-a578-4ac5-b292-54e8b9a671b4","system_id":"levelo_inurba_marseille","lat":43.294162,"lon":5.386292,"is_reserved":false,"is_disabled":false,"rental_uris":{"android":"levelo://app?vid=ef44dd42-a578-4ac5-b292-54e8b9a671b4","ios":"levelo://app?vid=ef44dd42-a578-4ac5-b292-54e8b9a671b4"},"vehicle_type_id":"4","last_reported":1683399848,"current_range_meters":26000,"station_id":"ce4bh2h2rcd13ifvqdh0","pricing_plan_id":"free"},{"bike_id":"64852965-45ab-476c-9341-bb14c41e4bc3","system_id":"levelo_inurba_marseille","lat":43.289184,"lon":5.366408,"is_reserved":false,"is_disabled":false,"rental_uris":{"android":"levelo://app?vid=64852965-45ab-476c-9341-bb14c41e4bc3","ios":"levelo://app?vid=64852965-45ab-476c-9341-bb14c41e4bc3"},"vehicle_type_id":"4","last_reported":1683399848,"current_range_meters":800,"station_id":"ce4bhap2rcd13ifvqek0","pricing_plan_id":"free"},{"bike_id":"0f218eff-8f9e-455d-b052-3aec78335582","system_id":"levelo_inurba_marseille","lat":43.29277,"lon":5.38443,"is_reserved":false,"is_disabled":false,"rental_uris":{"android":"levelo://app?vid=0f218eff-8f9e-455d-b052-3aec78335582","ios":"levelo://app?vid=0f218eff-8f9e-455d-b052-3aec78335582"},"vehicle_type_id":"4","last_reported":1683399848,"current_range_meters":3600,"station_id":"ce4bh692rcd13ifvqea0","pricing_plan_id":"free"},{"bike_id":"2bcc12d5-1118-4349-a3dc-dde3ca2c107b","system_id":"levelo_inurba_marseille","lat":43.292644,"lon":5.384257,"is_reserved":false,"is_disabled":false,"rental_uris":{"android":"levelo://app?vid=2bcc12d5-1118-4349-a3dc-dde3ca2c107b","ios":"levelo://app?vid=2bcc12d5-1118-4349-a3dc-dde3ca2c107b"},"vehicle_type_id":"4","last_reported":1683399848,"current_range_meters":25200,"station_id":"ce4bh692rcd13ifvqea0","pricing_plan_id":"free"},{"bike_id":"c559d6b6-5f45-4ddf-ad0a-33fec7bb67ef","system_id":"levelo_inurba_marseille","lat":43.29269,"lon":5.38431,"is_reserved":false,"is_disabled":false,"rental_uris":{"android":"levelo://app?vid=c559d6b6-5f45-4ddf-ad0a-33fec7bb67ef","ios":"levelo://app?vid=c559d6b6-5f45-4ddf-ad0a-33fec7bb67ef"},"vehicle_type_id":"4","last_reported":1683399848,"current_range_meters":4000,"station_id":"ce4bh692rcd13ifvqea0","pricing_plan_id":"free"},{"bike_id":"e943a6f7-e8e6-473f-bd7a-b66bb2fcb2e2","system_id":"levelo_inurba_marseille","lat":43.292644,"lon":5.384257,"is_reserved":false,"is_disabled":false,"rental_uris":{"android":"levelo://app?vid=e943a6f7-e8e6-473f-bd7a-b66bb2fcb2e2","ios":"levelo://app?vid=e943a6f7-e8e6-473f-bd7a-b66bb2fcb2e2"},"vehicle_type_id":"4","last_reported":1683399848,"current_range_meters":10400,"station_id":"ce4bh692rcd13ifvqea0","pricing_plan_id":"free"},{"bike_id":"031401c8-fb0a-4f9e-a7ca-dd7f62195c60","system_id":"levelo_inurba_marseille","lat":43.29269,"lon":5.38432,"is_reserved":false,"is_disabled":false,"rental_uris":{"android":"levelo://app?vid=031401c8-fb0a-4f9e-a7ca-dd7f62195c60","ios":"levelo://app?vid=031401c8-fb0a-4f9e-a7ca-dd7f62195c60"},"vehicle_type_id":"4","last_reported":1683399848,"current_range_meters":9600,"station_id":"ce4bh692rcd13ifvqea0","pricing_plan_id":"free"},{"bike_id":"f5b142e0-2c7e-493c-b25a-399ad5aa9721","system_id":"levelo_inurba_marseille","lat":43.292644,"lon":5.384257,"is_reserved":false,"is_disabled":false,"rental_uris":{"android":"levelo://app?vid=f5b142e0-2c7e-493c-b25a-399ad5aa9721","ios":"levelo://app?vid=f5b142e0-2c7e-493c-b25a-399ad5aa9721"},"vehicle_type_id":"4","last_reported":1683399848,"current_range_meters":2400,"station_id":"ce4bh692rcd13ifvqea0","pricing_plan_id":"free"},{"bike_id":"ef8817cc-2635-4cde-92bc-00720a63daaf","system_id":"levelo_inurba_marseille","lat":43.29268,"lon":5.38436,"is_reserved":false,"is_disabled":false,"rental_uris":{"android":"levelo://app?vid=ef8817cc-2635-4cde-92bc-00720a63daaf","ios":"levelo://app?vid=ef8817cc-2635-4cde-92bc-00720a63daaf"},"vehicle_type_id":"4","last_reported":1683399848,"current_range_meters":24800,"station_id":"ce4bh692rcd13ifvqea0","pricing_plan_id":"free"},{"bike_id":"b66f304a-5f8d-4240-8d58-f6400773ac95","system_id":"levelo_inurba_marseille","lat":43.292644,"lon":5.384257,"is_reserved":false,"is_disabled":false,"rental_uris":{"android":"levelo://app?vid=b66f304a-5f8d-4240-8d58-f6400773ac95","ios":"levelo://app?vid=b66f304a-5f8d-4240-8d58-f6400773ac95"},"vehicle_type_id":"4","last_reported":1683399848,"current_range_meters":12400,"station_id":"ce4bh692rcd13ifvqea0","pricing_plan_id":"free"},{"bike_id":"b8617b70-7e12-49cd-ae63-da2c4d4d73dd","system_id":"levelo_inurba_marseille","lat":43.29268,"lon":5.38437,"is_reserved":false,"is_disabled":false,"rental_uris":{"android":"levelo://app?vid=b8617b70-7e12-49cd-ae63-da2c4d4d73dd","ios":"levelo://app?vid=b8617b70-7e12-49cd-ae63-da2c4d4d73dd"},"vehicle_type_id":"4","last_reported":1683399848,"current_range_meters":17600,"station_id":"ce4bh692rcd13ifvqea0","pricing_plan_id":"free"},{"bike_id":"9df29763-3f82-407b-98bc-0b94194080e2","system_id":"levelo_inurba_marseille","lat":43.29273,"lon":5.38448,"is_reserved":false,"is_disabled":false,"rental_uris":{"android":"levelo://app?vid=9df29763-3f82-407b-98bc-0b94194080e2","ios":"levelo://app?vid=9df29763-3f82-407b-98bc-0b94194080e2"},"vehicle_type_id":"4","last_reported":1683399848,"current_range_meters":8800,"station_id":"ce4bh692rcd13ifvqea0","pricing_plan_id":"free"},{"bike_id":"db269131-28db-495c-9106-3a8679a74e04","system_id":"levelo_inurba_marseille","lat":43.29274,"lon":5.38453,"is_reserved":false,"is_disabled":false,"rental_uris":{"android":"levelo://app?vid=db269131-28db-495c-9106-3a8679a74e04","ios":"levelo://app?vid=db269131-28db-495c-9106-3a8679a74e04"},"vehicle_type_id":"4","last_reported":1683399848,"current_range_meters":2000,"station_id":"ce4bh692rcd13ifvqea0","pricing_plan_id":"free"},{"bike_id":"01a398aa-0346-4b29-941a-1d956e8bae52","system_id":"levelo_inurba_marseille","lat":43.29263,"lon":5.38434,"is_reserved":false,"is_disabled":false,"rental_uris":{"android":"levelo://app?vid=01a398aa-0346-4b29-941a-1d956e8bae52","ios":"levelo://app?vid=01a398aa-0346-4b29-941a-1d956e8bae52"},"vehicle_type_id":"4","last_reported":1683399848,"current_range_meters":16800,"station_id":"ce4bh692rcd13ifvqea0","pricing_plan_id":"free"},{"bike_id":"6b61bc55-cc66-4a16-85f7-7b1358e61929","system_id":"levelo_inurba_marseille","lat":43.292644,"lon":5.384257,"is_reserved":false,"is_disabled":false,"rental_uris":{"android":"levelo://app?vid=6b61bc55-cc66-4a16-85f7-7b1358e61929","ios":"levelo://app?vid=6b61bc55-cc66-4a16-85f7-7b1358e61929"},"vehicle_type_id":"4","last_reported":1683399848,"current_range_meters":1200,"station_id":"ce4bh692rcd13ifvqea0","pricing_plan_id":"free"},{"bike_id":"f8f7ad2e-ef3e-4596-8f6f-d40cac446dbb","system_id":"levelo_inurba_marseille","lat":43.29268,"lon":5.38446,"is_reserved":false,"is_disabled":false,"rental_uris":{"android":"levelo://app?vid=f8f7ad2e-ef3e-4596-8f6f-d40cac446dbb","ios":"levelo://app?vid=f8f7ad2e-ef3e-4596-8f6f-d40cac446dbb"},"vehicle_type_id":"4","last_reported":1683399848,"current_range_meters":1600,"station_id":"ce4bh692rcd13ifvqea0","pricing_plan_id":"free"},{"bike_id":"9ce2ac8f-acae-47b5-9d2b-73bb71c67ed2","system_id":"levelo_inurba_marseille","lat":43.2927,"lon":5.38452,"is_reserved":false,"is_disabled":false,"rental_uris":{"android":"levelo://app?vid=9ce2ac8f-acae-47b5-9d2b-73bb71c67ed2","ios":"levelo://app?vid=9ce2ac8f-acae-47b5-9d2b-73bb71c67ed2"},"vehicle_type_id":"4","last_reported":1683399848,"current_range_meters":17200,"station_id":"ce4bh692rcd13ifvqea0","pricing_plan_id":"free"},{"bike_id":"5812ff5e-349e-4a3d-b365-b93a214d8bd2","system_id":"levelo_inurba_marseille","lat":43.29261,"lon":5.38433,"is_reserved":false,"is_disabled":false,"rental_uris":{"android":"levelo://app?vid=5812ff5e-349e-4a3d-b365-b93a214d8bd2","ios":"levelo://app?vid=5812ff5e-349e-4a3d-b365-b93a214d8bd2"},"vehicle_type_id":"4","last_reported":1683399848,"current_range_meters":4400,"station_id":"ce4bh692rcd13ifvqea0","pricing_plan_id":"free"},{"bike_id":"00596f3f-44a9-462d-894d-2d6b6c66d28d","system_id":"levelo_inurba_marseille","lat":43.292644,"lon":5.384257,"is_reserved":false,"is_disabled":false,"rental_uris":{"android":"levelo://app?vid=00596f3f-44a9-462d-894d-2d6b6c66d28d","ios":"levelo://app?vid=00596f3f-44a9-462d-894d-2d6b6c66d28d"},"vehicle_type_id":"4","last_reported":1683399848,"current_range_meters":31200,"station_id":"ce4bh692rcd13ifvqea0","pricing_plan_id":"free"},{"bike_id":"e287cea6-b7b4-49f2-ba5a-9b1ef48bc977","system_id":"levelo_inurba_marseille","lat":43.29264,"lon":5.38441,"is_reserved":false,"is_disabled":false,"rental_uris":{"android":"levelo://app?vid=e287cea6-b7b4-49f2-ba5a-9b1ef48bc977","ios":"levelo://app?vid=e287cea6-b7b4-49f2-ba5a-9b1ef48bc977"},"vehicle_type_id":"4","last_reported":1683399848,"current_range_meters":14400,"station_id":"ce4bh692rcd13ifvqea0","pricing_plan_id":"free"},{"bike_id":"6b20a78f-89c7-4cf2-8338-a4a1a0eea641","system_id":"levelo_inurba_marseille","lat":43.29268,"lon":5.3845,"is_reserved":false,"is_disabled":false,"rental_uris":{"android":"levelo://app?vid=6b20a78f-89c7-4cf2-8338-a4a1a0eea641","ios":"levelo://app?vid=6b20a78f-89c7-4cf2-8338-a4a1a0eea641"},"vehicle_type_id":"4","last_reported":1683399848,"current_range_meters":6000,"station_id":"ce4bh692rcd13ifvqea0","pricing_plan_id":"free"},{"bike_id":"0fa3a4d3-0fa2-404c-a00e-b7f86a5a0f69","system_id":"levelo_inurba_marseille","lat":43.29262,"lon":5.38439,"is_reserved":false,"is_disabled":false,"rental_uris":{"android":"levelo://app?vid=0fa3a4d3-0fa2-404c-a00e-b7f86a5a0f69","ios":"levelo://app?vid=0fa3a4d3-0fa2-404c-a00e-b7f86a5a0f69"},"vehicle_type_id":"4","last_reported":1683399848,"current_range_meters":9600,"station_id":"ce4bh692rcd13ifvqea0","pricing_plan_id":"free"},{"bike_id":"7518ccbd-bfcb-4304-870a-d7125d5de9ea","system_id":"levelo_inurba_marseille","lat":43.292644,"lon":5.384257,"is_reserved":false,"is_disabled":false,"rental_uris":{"android":"levelo://app?vid=7518ccbd-bfcb-4304-870a-d7125d5de9ea","ios":"levelo://app?vid=7518ccbd-bfcb-4304-870a-d7125d5de9ea"},"vehicle_type_id":"4","last_reported":1683399848,"current_range_meters":28800,"station_id":"ce4bh692rcd13ifvqea0","pricing_plan_id":"free"},{"bike_id":"12a62743-d62e-40ee-887f-bd8e7c5d343f","system_id":"levelo_inurba_marseille","lat":43.29264,"lon":5.38444,"is_reserved":false,"is_disabled":false,"rental_uris":{"android":"levelo://app?vid=12a62743-d62e-40ee-887f-bd8e7c5d343f","ios":"levelo://app?vid=12a62743-d62e-40ee-887f-bd8e7c5d343f"},"vehicle_type_id":"4","last_reported":1683399848,"current_range_meters":27200,"station_id":"ce4bh692rcd13ifvqea0","pricing_plan_id":"free"},{"bike_id":"8a1df503-959a-4c2c-8457-c574bc25f424","system_id":"levelo_inurba_marseille","lat":43.29268,"lon":5.38454,"is_reserved":false,"is_disabled":false,"rental_uris":{"android":"levelo://app?vid=8a1df503-959a-4c2c-8457-c574bc25f424","ios":"levelo://app?vid=8a1df503-959a-4c2c-8457-c574bc25f424"},"vehicle_type_id":"4","last_reported":1683399848,"current_range_meters":22000,"station_id":"ce4bh692rcd13ifvqea0","pricing_plan_id":"free"},{"bike_id":"2cbc5c60-0741-413e-8fe4-6b48e62bf9c4","system_id":"levelo_inurba_marseille","lat":43.292644,"lon":5.384257,"is_reserved":false,"is_disabled":false,"rental_uris":{"android":"levelo://app?vid=2cbc5c60-0741-413e-8fe4-6b48e62bf9c4","ios":"levelo://app?vid=2cbc5c60-0741-413e-8fe4-6b48e62bf9c4"},"vehicle_type_id":"4","last_reported":1683399848,"current_range_meters":18400,"station_id":"ce4bh692rcd13ifvqea0","pricing_plan_id":"free"},{"bike_id":"08fa38a0-ba25-409c-9fa9-bd428ae3975d","system_id":"levelo_inurba_marseille","lat":43.29259,"lon":5.3845,"is_reserved":false,"is_disabled":false,"rental_uris":{"android":"levelo://app?vid=08fa38a0-ba25-409c-9fa9-bd428ae3975d","ios":"levelo://app?vid=08fa38a0-ba25-409c-9fa9-bd428ae3975d"},"vehicle_type_id":"4","last_reported":1683399848,"current_range_meters":23200,"station_id":"ce4bh692rcd13ifvqea0","pricing_plan_id":"free"},{"bike_id":"bd7b23aa-85f2-4f16-af8b-6f5bcdcc809e","system_id":"levelo_inurba_marseille","lat":43.292644,"lon":5.384257,"is_reserved":false,"is_disabled":false,"rental_uris":{"android":"levelo://app?vid=bd7b23aa-85f2-4f16-af8b-6f5bcdcc809e","ios":"levelo://app?vid=bd7b23aa-85f2-4f16-af8b-6f5bcdcc809e"},"vehicle_type_id":"4","last_reported":1683399848,"current_range_meters":2000,"station_id":"ce4bh692rcd13ifvqea0","pricing_plan_id":"free"},{"bike_id":"de5c6997-b4e9-40d2-92b0-9a866445a22e","system_id":"levelo_inurba_marseille","lat":43.290104,"lon":5.356111,"is_reserved":false,"is_disabled":false,"rental_uris":{"android":"levelo://app?vid=de5c6997-b4e9-40d2-92b0-9a866445a22e","ios":"levelo://app?vid=de5c6997-b4e9-40d2-92b0-9a866445a22e"},"vehicle_type_id":"4","last_reported":1683399848,"current_range_meters":0,"station_id":"ce4bhb92rcd13ifvqen0","pricing_plan_id":"free"},{"bike_id":"c7d204ce-6619-491c-8812-dc4b0a6a663b","system_id":"levelo_inurba_marseille","lat":43.33041,"lon":5.38917,"is_reserved":false,"is_disabled":false,"rental_uris":{"android":"levelo://app?vid=c7d204ce-6619-491c-8812-dc4b0a6a663b","ios":"levelo://app?vid=c7d204ce-6619-491c-8812-dc4b0a6a663b"},"vehicle_type_id":"4","last_reported":1683399848,"current_range_meters":28000,"station_id":"ce4bhr92rcd13ifvqhrg","pricing_plan_id":"free"},{"bike_id":"10a8eeb7-4f93-4e8d-81bd-f27d3d4ef515","system_id":"levelo_inurba_marseille","lat":43.33041,"lon":5.38918,"is_reserved":false,"is_disabled":false,"rental_uris":{"android":"levelo://app?vid=10a8eeb7-4f93-4e8d-81bd-f27d3d4ef515","ios":"levelo://app?vid=10a8eeb7-4f93-4e8d-81bd-f27d3d4ef515"},"vehicle_type_id":"4","last_reported":1683399848,"current_range_meters":25200,"station_id":"ce4bhr92rcd13ifvqhrg","pricing_plan_id":"free"},{"bike_id":"d6233f8b-531d-433b-b8e9-589e3920c098","system_id":"levelo_inurba_marseille","lat":43.33044,"lon":5.38915,"is_reserved":false,"is_disabled":false,"rental_uris":{"android":"levelo://app?vid=d6233f8b-531d-433b-b8e9-589e3920c098","ios":"levelo://app?vid=d6233f8b-531d-433b-b8e9-589e3920c098"},"vehicle_type_id":"4","last_reported":1683399848,"current_range_meters":20800,"station_id":"ce4bhr92rcd13ifvqhrg","pricing_plan_id":"free"},{"bike_id":"da86836b-d020-456b-ad95-a73c452d8db8","system_id":"levelo_inurba_marseille","lat":43.33041,"lon":5.3892,"is_reserved":false,"is_disabled":false,"rental_uris":{"android":"levelo://app?vid=da86836b-d020-456b-ad95-a73c452d8db8","ios":"levelo://app?vid=da86836b-d020-456b-ad95-a73c452d8db8"},"vehicle_type_id":"4","last_reported":1683399848,"current_range_meters":24000,"station_id":"ce4bhr92rcd13ifvqhrg","pricing_plan_id":"free"},{"bike_id":"d364d2ad-2c66-4587-a79b-ee0314a1a93f","system_id":"levelo_inurba_marseille","lat":43.33043,"lon":5.3892,"is_reserved":false,"is_disabled":false,"rental_uris":{"android":"levelo://app?vid=d364d2ad-2c66-4587-a79b-ee0314a1a93f","ios":"levelo://app?vid=d364d2ad-2c66-4587-a79b-ee0314a1a93f"},"vehicle_type_id":"4","last_reported":1683399848,"current_range_meters":16400,"station_id":"ce4bhr92rcd13ifvqhrg","pricing_plan_id":"free"},{"bike_id":"4da2ea4c-0587-4161-8586-452f9bca890c","system_id":"levelo_inurba_marseille","lat":43.33045,"lon":5.38918,"is_reserved":false,"is_disabled":false,"rental_uris":{"android":"levelo://app?vid=4da2ea4c-0587-4161-8586-452f9bca890c","ios":"levelo://app?vid=4da2ea4c-0587-4161-8586-452f9bca890c"},"vehicle_type_id":"4","last_reported":1683399848,"current_range_meters":18800,"station_id":"ce4bhr92rcd13ifvqhrg","pricing_plan_id":"free"},{"bike_id":"fe8d863b-eaf3-4fac-9bf6-10fdde4a5bf4","system_id":"levelo_inurba_marseille","lat":43.33044,"lon":5.38921,"is_reserved":false,"is_disabled":false,"rental_uris":{"android":"levelo://app?vid=fe8d863b-eaf3-4fac-9bf6-10fdde4a5bf4","ios":"levelo://app?vid=fe8d863b-eaf3-4fac-9bf6-10fdde4a5bf4"},"vehicle_type_id":"4","last_reported":1683399848,"current_range_meters":0,"station_id":"ce4bhr92rcd13ifvqhrg","pricing_plan_id":"free"},{"bike_id":"2a4c9986-79e6-473a-9088-a22214a8de69","system_id":"levelo_inurba_marseille","lat":43.33046,"lon":5.38918,"is_reserved":false,"is_disabled":false,"rental_uris":{"android":"levelo://app?vid=2a4c9986-79e6-473a-9088-a22214a8de69","ios":"levelo://app?vid=2a4c9986-79e6-473a-9088-a22214a8de69"},"vehicle_type_id":"4","last_reported":1683399848,"current_range_meters":15200,"station_id":"ce4bhr92rcd13ifvqhrg","pricing_plan_id":"free"},{"bike_id":"9993b21d-b92b-455d-bc97-303e3372131d","system_id":"levelo_inurba_marseille","lat":43.33045,"lon":5.3892,"is_reserved":false,"is_disabled":false,"rental_uris":{"android":"levelo://app?vid=9993b21d-b92b-455d-bc97-303e3372131d","ios":"levelo://app?vid=9993b21d-b92b-455d-bc97-303e3372131d"},"vehicle_type_id":"4","last_reported":1683399848,"current_range_meters":26400,"station_id":"ce4bhr92rcd13ifvqhrg","pricing_plan_id":"free"},{"bike_id":"276fe03b-4431-4a2c-b1e5-88809bc1c6ad","system_id":"levelo_inurba_marseille","lat":43.33045,"lon":5.38921,"is_reserved":false,"is_disabled":false,"rental_uris":{"android":"levelo://app?vid=276fe03b-4431-4a2c-b1e5-88809bc1c6ad","ios":"levelo://app?vid=276fe03b-4431-4a2c-b1e5-88809bc1c6ad"},"vehicle_type_id":"4","last_reported":1683399848,"current_range_meters":9200,"station_id":"ce4bhr92rcd13ifvqhrg","pricing_plan_id":"free"},{"bike_id":"8d9e3b32-0d5b-4f30-b006-27d419fc95c1","system_id":"levelo_inurba_marseille","lat":43.33044,"lon":5.38923,"is_reserved":false,"is_disabled":false,"rental_uris":{"android":"levelo://app?vid=8d9e3b32-0d5b-4f30-b006-27d419fc95c1","ios":"levelo://app?vid=8d9e3b32-0d5b-4f30-b006-27d419fc95c1"},"vehicle_type_id":"4","last_reported":1683399848,"current_range_meters":17200,"station_id":"ce4bhr92rcd13ifvqhrg","pricing_plan_id":"free"},{"bike_id":"496fc879-c6a2-4335-9eab-2fdd6a6f8bf1","system_id":"levelo_inurba_marseille","lat":43.33051,"lon":5.38917,"is_reserved":false,"is_disabled":false,"rental_uris":{"android":"levelo://app?vid=496fc879-c6a2-4335-9eab-2fdd6a6f8bf1","ios":"levelo://app?vid=496fc879-c6a2-4335-9eab-2fdd6a6f8bf1"},"vehicle_type_id":"4","last_reported":1683399848,"current_range_meters":15600,"station_id":"ce4bhr92rcd13ifvqhrg","pricing_plan_id":"free"},{"bike_id":"c6d8bc85-5d48-4175-a0b2-78b2152265a7","system_id":"levelo_inurba_marseille","lat":43.33052,"lon":5.38916,"is_reserved":false,"is_disabled":false,"rental_uris":{"android":"levelo://app?vid=c6d8bc85-5d48-4175-a0b2-78b2152265a7","ios":"levelo://app?vid=c6d8bc85-5d48-4175-a0b2-78b2152265a7"},"vehicle_type_id":"4","last_reported":1683399848,"current_range_meters":2800,"station_id":"ce4bhr92rcd13ifvqhrg","pricing_plan_id":"free"},{"bike_id":"8cd5e1e4-e937-439c-bf8a-43fbaac45a10","system_id":"levelo_inurba_marseille","lat":43.33043,"lon":5.3893,"is_reserved":false,"is_disabled":false,"rental_uris":{"android":"levelo://app?vid=8cd5e1e4-e937-439c-bf8a-43fbaac45a10","ios":"levelo://app?vid=8cd5e1e4-e937-439c-bf8a-43fbaac45a10"},"vehicle_type_id":"4","last_reported":1683399848,"current_range_meters":22800,"station_id":"ce4bhr92rcd13ifvqhrg","pricing_plan_id":"free"},{"bike_id":"1475d3ca-8b50-45bb-9e4d-ce2fc6662893","system_id":"levelo_inurba_marseille","lat":43.295169,"lon":5.390426,"is_reserved":false,"is_disabled":false,"rental_uris":{"android":"levelo://app?vid=1475d3ca-8b50-45bb-9e4d-ce2fc6662893","ios":"levelo://app?vid=1475d3ca-8b50-45bb-9e4d-ce2fc6662893"},"vehicle_type_id":"4","last_reported":1683399848,"current_range_meters":24800,"station_id":"ce4bh3p2rcd13ifvqdp0","pricing_plan_id":"free"},{"bike_id":"698fd097-8312-45e9-898a-2ed1e870c9dc","system_id":"levelo_inurba_marseille","lat":43.29019,"lon":5.38127,"is_reserved":false,"is_disabled":false,"rental_uris":{"android":"levelo://app?vid=698fd097-8312-45e9-898a-2ed1e870c9dc","ios":"levelo://app?vid=698fd097-8312-45e9-898a-2ed1e870c9dc"},"vehicle_type_id":"4","last_reported":1683399848,"current_range_meters":0,"station_id":"ce4bh4p2rcd13ifvqe1g","pricing_plan_id":"free"},{"bike_id":"d1338cde-b3d1-46b1-8800-7a50c92c327c","system_id":"levelo_inurba_marseille","lat":43.3375,"lon":5.3743,"is_reserved":false,"is_disabled":false,"rental_uris":{"android":"levelo://app?vid=d1338cde-b3d1-46b1-8800-7a50c92c327c","ios":"levelo://app?vid=d1338cde-b3d1-46b1-8800-7a50c92c327c"},"vehicle_type_id":"4","last_reported":1683399848,"current_range_meters":26400,"station_id":"","pricing_plan_id":"free"},{"bike_id":"20083ae5-f09f-4d10-9758-3cdd331d6a45","system_id":"levelo_inurba_marseille","lat":43.33748,"lon":5.37465,"is_reserved":false,"is_disabled":false,"rental_uris":{"android":"levelo://app?vid=20083ae5-f09f-4d10-9758-3cdd331d6a45","ios":"levelo://app?vid=20083ae5-f09f-4d10-9758-3cdd331d6a45"},"vehicle_type_id":"4","last_reported":1683399848,"current_range_meters":14800,"station_id":"","pricing_plan_id":"free"},{"bike_id":"34320fce-24bb-4291-be42-2c361aed67f0","system_id":"levelo_inurba_marseille","lat":43.33757,"lon":5.37444,"is_reserved":false,"is_disabled":false,"rental_uris":{"android":"levelo://app?vid=34320fce-24bb-4291-be42-2c361aed67f0","ios":"levelo://app?vid=34320fce-24bb-4291-be42-2c361aed67f0"},"vehicle_type_id":"4","last_reported":1683399848,"current_range_meters":22800,"station_id":"","pricing_plan_id":"free"},{"bike_id":"ab7b8dc5-9722-47e7-8a78-100d1a674f6d","system_id":"levelo_inurba_marseille","lat":43.33753,"lon":5.3747,"is_reserved":false,"is_disabled":false,"rental_uris":{"android":"levelo://app?vid=ab7b8dc5-9722-47e7-8a78-100d1a674f6d","ios":"levelo://app?vid=ab7b8dc5-9722-47e7-8a78-100d1a674f6d"},"vehicle_type_id":"4","last_reported":1683399848,"current_range_meters":6400,"station_id":"","pricing_plan_id":"free"},{"bike_id":"cc5900b6-b927-49fc-82db-4d13a3d02316","system_id":"levelo_inurba_marseille","lat":43.33752,"lon":5.37486,"is_reserved":false,"is_disabled":false,"rental_uris":{"android":"levelo://app?vid=cc5900b6-b927-49fc-82db-4d13a3d02316","ios":"levelo://app?vid=cc5900b6-b927-49fc-82db-4d13a3d02316"},"vehicle_type_id":"4","last_reported":1683399848,"current_range_meters":25200,"station_id":"","pricing_plan_id":"free"},{"bike_id":"c452a78d-8a25-4dac-a034-b406e8dd2a51","system_id":"levelo_inurba_marseille","lat":43.28779,"lon":5.3594,"is_reserved":false,"is_disabled":false,"rental_uris":{"android":"levelo://app?vid=c452a78d-8a25-4dac-a034-b406e8dd2a51","ios":"levelo://app?vid=c452a78d-8a25-4dac-a034-b406e8dd2a51"},"vehicle_type_id":"4","last_reported":1683399848,"current_range_meters":4000,"station_id":"","pricing_plan_id":"free"},{"bike_id":"db84b57a-c242-4d31-93f3-e9f12005c4b3","system_id":"levelo_inurba_marseille","lat":43.33762,"lon":5.37494,"is_reserved":false,"is_disabled":false,"rental_uris":{"android":"levelo://app?vid=db84b57a-c242-4d31-93f3-e9f12005c4b3","ios":"levelo://app?vid=db84b57a-c242-4d31-93f3-e9f12005c4b3"},"vehicle_type_id":"4","last_reported":1683399848,"current_range_meters":26000,"station_id":"","pricing_plan_id":"free"},{"bike_id":"a9bf4bc1-0161-4cb4-871d-433a745011ae","system_id":"levelo_inurba_marseille","lat":43.286591,"lon":5.363346,"is_reserved":false,"is_disabled":false,"rental_uris":{"android":"levelo://app?vid=a9bf4bc1-0161-4cb4-871d-433a745011ae","ios":"levelo://app?vid=a9bf4bc1-0161-4cb4-871d-433a745011ae"},"vehicle_type_id":"4","last_reported":1683399848,"current_range_meters":0,"station_id":"ce4bhah2rcd13ifvqej0","pricing_plan_id":"free"},{"bike_id":"773a64d3-a20f-4142-80c6-6c25f29d0c8c","system_id":"levelo_inurba_marseille","lat":43.29037,"lon":5.38633,"is_reserved":false,"is_disabled":false,"rental_uris":{"android":"levelo://app?vid=773a64d3-a20f-4142-80c6-6c25f29d0c8c","ios":"levelo://app?vid=773a64d3-a20f-4142-80c6-6c25f29d0c8c"},"vehicle_type_id":"4","last_reported":1683399848,"current_range_meters":5600,"station_id":"ce4bh4p2rcd13ifvqe0g","pricing_plan_id":"free"},{"bike_id":"a951bdd1-0f8c-42d3-b722-d9a5b51b7253","system_id":"levelo_inurba_marseille","lat":43.29032,"lon":5.38625,"is_reserved":false,"is_disabled":false,"rental_uris":{"android":"levelo://app?vid=a951bdd1-0f8c-42d3-b722-d9a5b51b7253","ios":"levelo://app?vid=a951bdd1-0f8c-42d3-b722-d9a5b51b7253"},"vehicle_type_id":"4","last_reported":1683399848,"current_range_meters":12800,"station_id":"ce4bh4p2rcd13ifvqe0g","pricing_plan_id":"free"},{"bike_id":"e85058a3-1f29-4c05-9768-e8c350ad0612","system_id":"levelo_inurba_marseille","lat":43.290345,"lon":5.38646,"is_reserved":false,"is_disabled":false,"rental_uris":{"android":"levelo://app?vid=e85058a3-1f29-4c05-9768-e8c350ad0612","ios":"levelo://app?vid=e85058a3-1f29-4c05-9768-e8c350ad0612"},"vehicle_type_id":"4","last_reported":1683399848,"current_range_meters":0,"station_id":"ce4bh4p2rcd13ifvqe0g","pricing_plan_id":"free"},{"bike_id":"d1fc6f9a-f819-48c0-88c0-b96ae2572b80","system_id":"levelo_inurba_marseille","lat":43.302759,"lon":5.400793,"is_reserved":false,"is_disabled":false,"rental_uris":{"android":"levelo://app?vid=d1fc6f9a-f819-48c0-88c0-b96ae2572b80","ios":"levelo://app?vid=d1fc6f9a-f819-48c0-88c0-b96ae2572b80"},"vehicle_type_id":"4","last_reported":1683399848,"current_range_meters":0,"station_id":"ce4bgvh2rcd13ifvqcs0","pricing_plan_id":"free"},{"bike_id":"19799e8b-a408-4c7d-855d-70c41ad628c9","system_id":"levelo_inurba_marseille","lat":43.302759,"lon":5.400793,"is_reserved":false,"is_disabled":false,"rental_uris":{"android":"levelo://app?vid=19799e8b-a408-4c7d-855d-70c41ad628c9","ios":"levelo://app?vid=19799e8b-a408-4c7d-855d-70c41ad628c9"},"vehicle_type_id":"4","last_reported":1683399848,"current_range_meters":7600,"station_id":"ce4bgvh2rcd13ifvqcs0","pricing_plan_id":"free"},{"bike_id":"93350c45-b50a-45bc-bda8-a381773e30c1","system_id":"levelo_inurba_marseille","lat":43.30769,"lon":5.40294,"is_reserved":false,"is_disabled":false,"rental_uris":{"android":"levelo://app?vid=93350c45-b50a-45bc-bda8-a381773e30c1","ios":"levelo://app?vid=93350c45-b50a-45bc-bda8-a381773e30c1"},"vehicle_type_id":"4","last_reported":1683399848,"current_range_meters":16400,"station_id":"","pricing_plan_id":"free"},{"bike_id":"ba5ae2eb-a982-4c86-95c1-a596365ac030","system_id":"levelo_inurba_marseille","lat":43.286039,"lon":5.370681,"is_reserved":false,"is_disabled":false,"rental_uris":{"android":"levelo://app?vid=ba5ae2eb-a982-4c86-95c1-a596365ac030","ios":"levelo://app?vid=ba5ae2eb-a982-4c86-95c1-a596365ac030"},"vehicle_type_id":"4","last_reported":1683399848,"current_range_meters":4800,"station_id":"ce4bht12rcd13ifvqi60","pricing_plan_id":"free"},{"bike_id":"4f8d7423-4ff3-44ad-ad83-cd803cdb69ac","system_id":"levelo_inurba_marseille","lat":43.316517,"lon":5.404375,"is_reserved":false,"is_disabled":false,"rental_uris":{"android":"levelo://app?vid=4f8d7423-4ff3-44ad-ad83-cd803cdb69ac","ios":"levelo://app?vid=4f8d7423-4ff3-44ad-ad83-cd803cdb69ac"},"vehicle_type_id":"4","last_reported":1683399848,"current_range_meters":23600,"station_id":"ce4bh012rcd13ifvqd00","pricing_plan_id":"free"},{"bike_id":"806c17c4-b1f0-4580-91cd-75a6a733323a","system_id":"levelo_inurba_marseille","lat":43.316517,"lon":5.404375,"is_reserved":false,"is_disabled":false,"rental_uris":{"android":"levelo://app?vid=806c17c4-b1f0-4580-91cd-75a6a733323a","ios":"levelo://app?vid=806c17c4-b1f0-4580-91cd-75a6a733323a"},"vehicle_type_id":"4","last_reported":1683399848,"current_range_meters":22000,"station_id":"ce4bh012rcd13ifvqd00","pricing_plan_id":"free"},{"bike_id":"6e1f3220-8727-4c3b-8ce1-0aba9dbae0ce","system_id":"levelo_inurba_marseille","lat":43.316517,"lon":5.404375,"is_reserved":false,"is_disabled":false,"rental_uris":{"android":"levelo://app?vid=6e1f3220-8727-4c3b-8ce1-0aba9dbae0ce","ios":"levelo://app?vid=6e1f3220-8727-4c3b-8ce1-0aba9dbae0ce"},"vehicle_type_id":"4","last_reported":1683399848,"current_range_meters":6400,"station_id":"ce4bh012rcd13ifvqd00","pricing_plan_id":"free"},{"bike_id":"23aeeff0-96bb-4a3d-8a6d-d84686e9b8ab","system_id":"levelo_inurba_marseille","lat":43.316517,"lon":5.404375,"is_reserved":false,"is_disabled":false,"rental_uris":{"android":"levelo://app?vid=23aeeff0-96bb-4a3d-8a6d-d84686e9b8ab","ios":"levelo://app?vid=23aeeff0-96bb-4a3d-8a6d-d84686e9b8ab"},"vehicle_type_id":"4","last_reported":1683399848,"current_range_meters":0,"station_id":"ce4bh012rcd13ifvqd00","pricing_plan_id":"free"},{"bike_id":"27865f6e-c046-4416-9233-48156b6bae2c","system_id":"levelo_inurba_marseille","lat":43.33482,"lon":5.38984,"is_reserved":false,"is_disabled":false,"rental_uris":{"android":"levelo://app?vid=27865f6e-c046-4416-9233-48156b6bae2c","ios":"levelo://app?vid=27865f6e-c046-4416-9233-48156b6bae2c"},"vehicle_type_id":"4","last_reported":1683399848,"current_range_meters":28800,"station_id":"","pricing_plan_id":"free"},{"bike_id":"a651d2d4-d040-4f69-b51c-94a7b7fe36ae","system_id":"levelo_inurba_marseille","lat":43.29609,"lon":5.39789,"is_reserved":false,"is_disabled":false,"rental_uris":{"android":"levelo://app?vid=a651d2d4-d040-4f69-b51c-94a7b7fe36ae","ios":"levelo://app?vid=a651d2d4-d040-4f69-b51c-94a7b7fe36ae"},"vehicle_type_id":"4","last_reported":1683399848,"current_range_meters":4800,"station_id":"ce4bhh12rcd13ifvqfg0","pricing_plan_id":"free"},{"bike_id":"bf28d484-617f-4a64-9a56-3baa97c06401","system_id":"levelo_inurba_marseille","lat":43.284534,"lon":5.358662,"is_reserved":false,"is_disabled":false,"rental_uris":{"android":"levelo://app?vid=bf28d484-617f-4a64-9a56-3baa97c06401","ios":"levelo://app?vid=bf28d484-617f-4a64-9a56-3baa97c06401"},"vehicle_type_id":"4","last_reported":1683399848,"current_range_meters":23600,"station_id":"ce4bhah2rcd13ifvqei0","pricing_plan_id":"free"},{"bike_id":"345e3260-e058-4b5d-9d37-8eb437928d16","system_id":"levelo_inurba_marseille","lat":43.295713,"lon":5.399639,"is_reserved":false,"is_disabled":false,"rental_uris":{"android":"levelo://app?vid=345e3260-e058-4b5d-9d37-8eb437928d16","ios":"levelo://app?vid=345e3260-e058-4b5d-9d37-8eb437928d16"},"vehicle_type_id":"4","last_reported":1683399848,"current_range_meters":20000,"station_id":"ce4bh312rcd13ifvqdj0","pricing_plan_id":"free"},{"bike_id":"bff45db0-8068-4648-ad77-86c507a1b75d","system_id":"levelo_inurba_marseille","lat":43.33717,"lon":5.391857,"is_reserved":false,"is_disabled":false,"rental_uris":{"android":"levelo://app?vid=bff45db0-8068-4648-ad77-86c507a1b75d","ios":"levelo://app?vid=bff45db0-8068-4648-ad77-86c507a1b75d"},"vehicle_type_id":"4","last_reported":1683399848,"current_range_meters":8800,"station_id":"ce4bhr92rcd13ifvqhsg","pricing_plan_id":"free"},{"bike_id":"c9c4f49a-801c-4a26-8233-f9fb4c97e2ff","system_id":"levelo_inurba_marseille","lat":43.33717,"lon":5.391857,"is_reserved":false,"is_disabled":false,"rental_uris":{"android":"levelo://app?vid=c9c4f49a-801c-4a26-8233-f9fb4c97e2ff","ios":"levelo://app?vid=c9c4f49a-801c-4a26-8233-f9fb4c97e2ff"},"vehicle_type_id":"4","last_reported":1683399848,"current_range_meters":4400,"station_id":"ce4bhr92rcd13ifvqhsg","pricing_plan_id":"free"},{"bike_id":"c02fb7ec-1fbd-4ea4-89f5-d9a6cd813577","system_id":"levelo_inurba_marseille","lat":43.323464,"lon":5.406297,"is_reserved":false,"is_disabled":false,"rental_uris":{"android":"levelo://app?vid=c02fb7ec-1fbd-4ea4-89f5-d9a6cd813577","ios":"levelo://app?vid=c02fb7ec-1fbd-4ea4-89f5-d9a6cd813577"},"vehicle_type_id":"4","last_reported":1683399848,"current_range_meters":13600,"station_id":"ce4bhq92rcd13ifvqhjg","pricing_plan_id":"free"},{"bike_id":"1ec83107-c10f-426a-9bfd-db683899b827","system_id":"levelo_inurba_marseille","lat":43.284793,"lon":5.384113,"is_reserved":false,"is_disabled":false,"rental_uris":{"android":"levelo://app?vid=1ec83107-c10f-426a-9bfd-db683899b827","ios":"levelo://app?vid=1ec83107-c10f-426a-9bfd-db683899b827"},"vehicle_type_id":"4","last_reported":1683399848,"current_range_meters":0,"station_id":"ce4bh512rcd13ifvqe3g","pricing_plan_id":"free"},{"bike_id":"99828481-7efd-456c-a8df-36166dc4b061","system_id":"levelo_inurba_marseille","lat":43.284793,"lon":5.384113,"is_reserved":false,"is_disabled":false,"rental_uris":{"android":"levelo://app?vid=99828481-7efd-456c-a8df-36166dc4b061","ios":"levelo://app?vid=99828481-7efd-456c-a8df-36166dc4b061"},"vehicle_type_id":"4","last_reported":1683399848,"current_range_meters":11600,"station_id":"ce4bh512rcd13ifvqe3g","pricing_plan_id":"free"},{"bike_id":"4ed7a428-e9e7-4ffb-9f52-a70f968674b8","system_id":"levelo_inurba_marseille","lat":43.284793,"lon":5.384119,"is_reserved":false,"is_disabled":false,"rental_uris":{"android":"levelo://app?vid=4ed7a428-e9e7-4ffb-9f52-a70f968674b8","ios":"levelo://app?vid=4ed7a428-e9e7-4ffb-9f52-a70f968674b8"},"vehicle_type_id":"4","last_reported":1683399848,"current_range_meters":6800,"station_id":"ce4bh512rcd13ifvqe3g","pricing_plan_id":"free"},{"bike_id":"ad3cdfdb-0864-4cce-8a5d-05a05de94244","system_id":"levelo_inurba_marseille","lat":43.3007,"lon":5.40562,"is_reserved":false,"is_disabled":false,"rental_uris":{"android":"levelo://app?vid=ad3cdfdb-0864-4cce-8a5d-05a05de94244","ios":"levelo://app?vid=ad3cdfdb-0864-4cce-8a5d-05a05de94244"},"vehicle_type_id":"4","last_reported":1683399848,"current_range_meters":19600,"station_id":"","pricing_plan_id":"free"},{"bike_id":"b74da06f-f065-4787-8f72-82a7fd6e61ba","system_id":"levelo_inurba_marseille","lat":43.284793,"lon":5.384113,"is_reserved":false,"is_disabled":false,"rental_uris":{"android":"levelo://app?vid=b74da06f-f065-4787-8f72-82a7fd6e61ba","ios":"levelo://app?vid=b74da06f-f065-4787-8f72-82a7fd6e61ba"},"vehicle_type_id":"4","last_reported":1683399848,"current_range_meters":0,"station_id":"ce4bh512rcd13ifvqe3g","pricing_plan_id":"free"},{"bike_id":"ba6e7fa0-bc0b-45be-aa3b-26e703c9405d","system_id":"levelo_inurba_marseille","lat":43.284793,"lon":5.384113,"is_reserved":false,"is_disabled":false,"rental_uris":{"android":"levelo://app?vid=ba6e7fa0-bc0b-45be-aa3b-26e703c9405d","ios":"levelo://app?vid=ba6e7fa0-bc0b-45be-aa3b-26e703c9405d"},"vehicle_type_id":"4","last_reported":1683399848,"current_range_meters":0,"station_id":"ce4bh512rcd13ifvqe3g","pricing_plan_id":"free"},{"bike_id":"ea82451a-24fd-4ce0-856a-dc6c1533f020","system_id":"levelo_inurba_marseille","lat":43.284787,"lon":5.384116,"is_reserved":false,"is_disabled":false,"rental_uris":{"android":"levelo://app?vid=ea82451a-24fd-4ce0-856a-dc6c1533f020","ios":"levelo://app?vid=ea82451a-24fd-4ce0-856a-dc6c1533f020"},"vehicle_type_id":"4","last_reported":1683399848,"current_range_meters":4800,"station_id":"ce4bh512rcd13ifvqe3g","pricing_plan_id":"free"},{"bike_id":"0398eac5-b2b1-4356-818b-ad812d26be54","system_id":"levelo_inurba_marseille","lat":43.284787,"lon":5.384116,"is_reserved":false,"is_disabled":false,"rental_uris":{"android":"levelo://app?vid=0398eac5-b2b1-4356-818b-ad812d26be54","ios":"levelo://app?vid=0398eac5-b2b1-4356-818b-ad812d26be54"},"vehicle_type_id":"4","last_reported":1683399848,"current_range_meters":800,"station_id":"ce4bh512rcd13ifvqe3g","pricing_plan_id":"free"},{"bike_id":"2029425f-43be-4026-bed4-adf553e32510","system_id":"levelo_inurba_marseille","lat":43.284793,"lon":5.384119,"is_reserved":false,"is_disabled":false,"rental_uris":{"android":"levelo://app?vid=2029425f-43be-4026-bed4-adf553e32510","ios":"levelo://app?vid=2029425f-43be-4026-bed4-adf553e32510"},"vehicle_type_id":"4","last_reported":1683399848,"current_range_meters":28400,"station_id":"ce4bh512rcd13ifvqe3g","pricing_plan_id":"free"},{"bike_id":"af5165ed-15d7-42b7-9308-0fb340be4321","system_id":"levelo_inurba_marseille","lat":43.284159,"lon":5.349798,"is_reserved":false,"is_disabled":false,"rental_uris":{"android":"levelo://app?vid=af5165ed-15d7-42b7-9308-0fb340be4321","ios":"levelo://app?vid=af5165ed-15d7-42b7-9308-0fb340be4321"},"vehicle_type_id":"4","last_reported":1683399848,"current_range_meters":6800,"station_id":"","pricing_plan_id":"free"},{"bike_id":"76242f32-c407-44d4-84d7-fa1d50b0f9dc","system_id":"levelo_inurba_marseille","lat":43.32444,"lon":5.40831,"is_reserved":false,"is_disabled":false,"rental_uris":{"android":"levelo://app?vid=76242f32-c407-44d4-84d7-fa1d50b0f9dc","ios":"levelo://app?vid=76242f32-c407-44d4-84d7-fa1d50b0f9dc"},"vehicle_type_id":"4","last_reported":1683399848,"current_range_meters":2000,"station_id":"","pricing_plan_id":"free"},{"bike_id":"fa541099-72bc-4e12-a8b6-0f17bbc79b3c","system_id":"levelo_inurba_marseille","lat":43.28049,"lon":5.36958,"is_reserved":false,"is_disabled":false,"rental_uris":{"android":"levelo://app?vid=fa541099-72bc-4e12-a8b6-0f17bbc79b3c","ios":"levelo://app?vid=fa541099-72bc-4e12-a8b6-0f17bbc79b3c"},"vehicle_type_id":"4","last_reported":1683399848,"current_range_meters":14000,"station_id":"ce4bha12rcd13ifvqef0","pricing_plan_id":"free"},{"bike_id":"053b6c12-8e39-4f87-b8d7-f78a0df1b0c8","system_id":"levelo_inurba_marseille","lat":43.283502,"lon":5.386471,"is_reserved":false,"is_disabled":false,"rental_uris":{"android":"levelo://app?vid=053b6c12-8e39-4f87-b8d7-f78a0df1b0c8","ios":"levelo://app?vid=053b6c12-8e39-4f87-b8d7-f78a0df1b0c8"},"vehicle_type_id":"4","last_reported":1683399848,"current_range_meters":1200,"station_id":"ce4bh492rcd13ifvqdvg","pricing_plan_id":"free"},{"bike_id":"33afa7b2-2a5c-447e-a1a3-19548d644379","system_id":"levelo_inurba_marseille","lat":43.28045,"lon":5.36947,"is_reserved":false,"is_disabled":false,"rental_uris":{"android":"levelo://app?vid=33afa7b2-2a5c-447e-a1a3-19548d644379","ios":"levelo://app?vid=33afa7b2-2a5c-447e-a1a3-19548d644379"},