{"last_updated":1693645561,"ttl":30,"version":"2.2","data":{"bikes":[{"bike_id":"b33c4e84-4c63-48b0-a490-5a538ec35e49","system_id":"levelo_inurba_marseille","lat":43.31341,"lon":5.367098,"is_reserved":false,"is_disabled":false,"rental_uris":{"android":"levelo://app?vid=b33c4e84-4c63-48b0-a490-5a538ec35e49","ios":"levelo://app?vid=b33c4e84-4c63-48b0-a490-5a538ec35e49"},"vehicle_type_id":"4","last_reported":1693645561,"current_range_meters":31200,"station_id":"ce4bgr92rcd13ifvqc6g","pricing_plan_id":"free"},{"bike_id":"9eeb91a1-9d89-4754-931e-a158fe076e25","system_id":"levelo_inurba_marseille","lat":43.312239,"lon":5.368562,"is_reserved":false,"is_disabled":false,"rental_uris":{"android":"levelo://app?vid=9eeb91a1-9d89-4754-931e-a158fe076e25","ios":"levelo://app?vid=9eeb91a1-9d89-4754-931e-a158fe076e25"},"vehicle_type_id":"4","last_reported":1693645561,"current_range_meters":25600,"station_id":"ce4bgl92rcd13ifvqbq0","pricing_plan_id":"free"},{"bike_id":"d2be997d-44d2-40a5-bb20-02aeaaf65fa5","system_id":"levelo_inurba_marseille","lat":43.314811,"lon":5.373104,"is_reserved":false,"is_disabled":false,"rental_uris":{"android":"levelo://app?vid=d2be997d-44d2-40a5-bb20-02aeaaf65fa5","ios":"levelo://app?vid=d2be997d-44d2-40a5-bb20-02aeaaf65fa5"},"vehicle_type_id":"4","last_reported":1693645561,"current_range_meters":30800,"station_id":"ce4bgt12rcd13ifvqcd0","pricing_plan_id":"free"},{"bike_id":"b7c86637-7bf4-40ef-9324-aaaa01385b2e","system_id":"levelo_inurba_marseille","lat":43.314811,"lon":5.373103,"is_reserved":false,"is_disabled":false,"rental_uris":{"android":"levelo://app?vid=b7c86637-7bf4-40ef-9324-aaaa01385b2e","ios":"levelo://app?vid=b7c86637-7bf4-40ef-9324-aaaa01385b2e"},"vehicle_type_id":"4","last_reported":1693645561,"current_range_meters":4800,"station_id":"ce4bgt12rcd13ifvqcd0","pricing_plan_id":"free"},{"bike_id":"dbdfb9f1-27ea-41a9-8aaa-8528b50c591b","system_id":"levelo_inurba_marseille","lat":43.30883,"lon":5.37196,"is_reserved":false,"is_disabled":false,"rental_uris":{"android":"levelo://app?vid=dbdfb9f1-27ea-41a9-8aaa-8528b50c591b","ios":"levelo://app?vid=dbdfb9f1-27ea-41a9-8aaa-8528b50c591b"},"vehicle_type_id":"4","last_reported":1693645561,"current_range_meters":21200,"station_id":"ce4bguh2rcd13ifvqckg","pricing_plan_id":"free"},{"bike_id":"98eaab63-6ee2-4bce-b2be-dc1f073321e0","system_id":"levelo_inurba_marseille","lat":43.30548,"lon":5.3656,"is_reserved":false,"is_disabled":false,"rental_uris":{"android":"levelo://app?vid=98eaab63-6ee2-4bce-b2be-dc1f073321e0","ios":"levelo://app?vid=98eaab63-6ee2-4bce-b2be-dc1f073321e0"},"vehicle_type_id":"4","last_reported":1693645561,"current_range_meters":16800,"station_id":"","pricing_plan_id":"free"},{"bike_id":"e4104818-20ba-49f4-8df7-0e331501ad9f","system_id":"levelo_inurba_marseille","lat":43.30547,"lon":5.3653,"is_reserved":false,"is_disabled":false,"rental_uris":{"android":"levelo://app?vid=e4104818-20ba-49f4-8df7-0e331501ad9f","ios":"levelo://app?vid=e4104818-20ba-49f4-8df7-0e331501ad9f"},"vehicle_type_id":"4","last_reported":1693645561,"current_range_meters":17200,"station_id":"ce4bgs12rcd13ifvqcag","pricing_plan_id":"free"},{"bike_id":"77bffcd4-7f6c-4c2e-a19c-cac7f81c85ac","system_id":"levelo_inurba_marseille","lat":43.30547,"lon":5.36529,"is_reserved":false,"is_disabled":false,"rental_uris":{"android":"levelo://app?vid=77bffcd4-7f6c-4c2e-a19c-cac7f81c85ac","ios":"levelo://app?vid=77bffcd4-7f6c-4c2e-a19c-cac7f81c85ac"},"vehicle_type_id":"4","last_reported":1693645561,"current_range_meters":30000,"station_id":"ce4bgs12rcd13ifvqcag","pricing_plan_id":"free"},{"bike_id":"b1ee65d4-7c03-4b99-aca5-feb254d5d8ac","system_id":"levelo_inurba_marseille","lat":43.305706,"lon":5.365654,"is_reserved":false,"is_disabled":false,"rental_uris":{"android":"levelo://app?vid=b1ee65d4-7c03-4b99-aca5-feb254d5d8ac","ios":"levelo://app?vid=b1ee65d4-7c03-4b99-aca5-feb254d5d8ac"},"vehicle_type_id":"4","last_reported":1693645561,"current_range_meters":19200,"station_id":"ce4bgs12rcd13ifvqcag","pricing_plan_id":"free"},{"bike_id":"534c0cb4-7297-4ab0-9198-c8c8bc3d29a6","system_id":"levelo_inurba_marseille","lat":43.305706,"lon":5.365654,"is_reserved":false,"is_disabled":false,"rental_uris":{"android":"levelo://app?vid=534c0cb4-7297-4ab0-9198-c8c8bc3d29a6","ios":"levelo://app?vid=534c0cb4-7297-4ab0-9198-c8c8bc3d29a6"},"vehicle_type_id":"4","last_reported":1693645561,"current_range_meters":28800,"station_id":"ce4bgs12rcd13ifvqcag","pricing_plan_id":"free"},{"bike_id":"971b7cdc-5ca6-4770-87da-800576e8aee5","system_id":"levelo_inurba_marseille","lat":43.30529,"lon":5.36728,"is_reserved":false,"is_disabled":false,"rental_uris":{"android":"levelo://app?vid=971b7cdc-5ca6-4770-87da-800576e8aee5","ios":"levelo://app?vid=971b7cdc-5ca6-4770-87da-800576e8aee5"},"vehicle_type_id":"4","last_reported":1693645561,"current_range_meters":29600,"station_id":"ce4bgrp2rcd13ifvqc9g","pricing_plan_id":"free"},{"bike_id":"f8803160-a94b-4c20-83e4-865ec3e99172","system_id":"levelo_inurba_marseille","lat":43.305706,"lon":5.365654,"is_reserved":false,"is_disabled":false,"rental_uris":{"android":"levelo://app?vid=f8803160-a94b-4c20-83e4-865ec3e99172","ios":"levelo://app?vid=f8803160-a94b-4c20-83e4-865ec3e99172"},"vehicle_type_id":"4","last_reported":1693645561,"current_range_meters":11200,"station_id":"ce4bgs12rcd13ifvqcag","pricing_plan_id":"free"},{"bike_id":"4cb6c6ba-3509-40a1-a851-ac2d2e32fcca","system_id":"levelo_inurba_marseille","lat":43.305706,"lon":5.365654,"is_reserved":false,"is_disabled":false,"rental_uris":{"android":"levelo://app?vid=4cb6c6ba-3509-40a1-a851-ac2d2e32fcca","ios":"levelo://app?vid=4cb6c6ba-3509-40a1-a851-ac2d2e32fcca"},"vehicle_type_id":"4","last_reported":1693645561,"current_range_meters":16000,"station_id":"ce4bgs12rcd13ifvqcag","pricing_plan_id":"free"},{"bike_id":"244e410c-4974-4de3-98b5-c89ddd057eeb","system_id":"levelo_inurba_marseille","lat":43.30542,"lon":5.36934,"is_reserved":false,"is_disabled":false,"rental_uris":{"android":"levelo://app?vid=244e410c-4974-4de3-98b5-c89ddd057eeb","ios":"levelo://app?vid=244e410c-4974-4de3-98b5-c89ddd057eeb"},"vehicle_type_id":"4","last_reported":1693645561,"current_range_meters":0,"station_id":"","pricing_plan_id":"free"},{"bike_id":"51b22de2-1528-4357-a70a-27a1b98184bb","system_id":"levelo_inurba_marseille","lat":43.305706,"lon":5.365654,"is_reserved":false,"is_disabled":false,"rental_uris":{"android":"levelo://app?vid=51b22de2-1528-4357-a70a-27a1b98184bb","ios":"levelo://app?vid=51b22de2-1528-4357-a70a-27a1b98184bb"},"vehicle_type_id":"4","last_reported":1693645561,"current_range_meters":3200,"station_id":"ce4bgs12rcd13ifvqcag","pricing_plan_id":"free"},{"bike_id":"23e6b7f6-f1e7-4fb1-9117-498027cf6cf7","system_id":"levelo_inurba_marseille","lat":43.305706,"lon":5.365654,"is_reserved":false,"is_disabled":false,"rental_uris":{"android":"levelo://app?vid=23e6b7f6-f1e7-4fb1-9117-498027cf6cf7","ios":"levelo://app?vid=23e6b7f6-f1e7-4fb1-9117-498027cf6cf7"},"vehicle_type_id":"4","last_reported":1693645561,"current_range_meters":11200,"station_id":"ce4bgs12rcd13ifvqcag","pricing_plan_id":"free"},{"bike_id":"0fe14439-f5fb-4611-be00-cccecea170c2","system_id":"levelo_inurba_marseille","lat":43.305989,"lon":5.37225,"is_reserved":false,"is_disabled":false,"rental_uris":{"android":"levelo://app?vid=0fe14439-f5fb-4611-be00-cccecea170c2","ios":"levelo://app?vid=0fe14439-f5fb-4611-be00-cccecea170c2"},"vehicle_type_id":"4","last_reported":1693645561,"current_range_meters":28000,"station_id":"ce4bgqh2rcd13ifvqc4g","pricing_plan_id":"free"},{"bike_id":"476e5c87-670d-4431-86b8-335289836c29","system_id":"levelo_inurba_marseille","lat":43.305989,"lon":5.37225,"is_reserved":false,"is_disabled":false,"rental_uris":{"android":"levelo://app?vid=476e5c87-670d-4431-86b8-335289836c29","ios":"levelo://app?vid=476e5c87-670d-4431-86b8-335289836c29"},"vehicle_type_id":"4","last_reported":1693645561,"current_range_meters":15200,"station_id":"ce4bgqh2rcd13ifvqc4g","pricing_plan_id":"free"},{"bike_id":"0d5ca9db-2b7d-44e7-befb-aaffe250637b","system_id":"levelo_inurba_marseille","lat":43.305989,"lon":5.37225,"is_reserved":false,"is_disabled":false,"rental_uris":{"android":"levelo://app?vid=0d5ca9db-2b7d-44e7-befb-aaffe250637b","ios":"levelo://app?vid=0d5ca9db-2b7d-44e7-befb-aaffe250637b"},"vehicle_type_id":"4","last_reported":1693645561,"current_range_meters":10800,"station_id":"ce4bgqh2rcd13ifvqc4g","pricing_plan_id":"free"},{"bike_id":"ae86956e-77b4-404f-bff6-8d881de06d82","system_id":"levelo_inurba_marseille","lat":43.305989,"lon":5.37225,"is_reserved":false,"is_disabled":false,"rental_uris":{"android":"levelo://app?vid=ae86956e-77b4-404f-bff6-8d881de06d82","ios":"levelo://app?vid=ae86956e-77b4-404f-bff6-8d881de06d82"},"vehicle_type_id":"4","last_reported":1693645561,"current_range_meters":4400,"station_id":"ce4bgqh2rcd13ifvqc4g","pricing_plan_id":"free"},{"bike_id":"29581f50-e598-41f1-b375-95975556024b","system_id":"levelo_inurba_marseille","lat":43.305989,"lon":5.37225,"is_reserved":false,"is_disabled":false,"rental_uris":{"android":"levelo://app?vid=29581f50-e598-41f1-b375-95975556024b","ios":"levelo://app?vid=29581f50-e598-41f1-b375-95975556024b"},"vehicle_type_id":"4","last_reported":1693645561,"current_range_meters":29200,"station_id":"ce4bgqh2rcd13ifvqc4g","pricing_plan_id":"free"},{"bike_id":"bb67a166-4b8d-4e72-932e-ccb718ebd73d","system_id":"levelo_inurba_marseille","lat":43.31121,"lon":5.37777,"is_reserved":false,"is_disabled":false,"rental_uris":{"android":"levelo://app?vid=bb67a166-4b8d-4e72-932e-ccb718ebd73d","ios":"levelo://app?vid=bb67a166-4b8d-4e72-932e-ccb718ebd73d"},"vehicle_type_id":"4","last_reported":1693645561,"current_range_meters":0,"station_id":"ce4bgt92rcd13ifvqcg0","pricing_plan_id":"free"},{"bike_id":"5a3520a4-3139-4244-a292-22e2945b251b","system_id":"levelo_inurba_marseille","lat":43.317075,"lon":5.377367,"is_reserved":false,"is_disabled":false,"rental_uris":{"android":"levelo://app?vid=5a3520a4-3139-4244-a292-22e2945b251b","ios":"levelo://app?vid=5a3520a4-3139-4244-a292-22e2945b251b"},"vehicle_type_id":"4","last_reported":1693645561,"current_range_meters":29600,"station_id":"ce4bgth2rcd13ifvqch0","pricing_plan_id":"free"},{"bike_id":"6be39998-e5a7-413c-bc48-680c46555620","system_id":"levelo_inurba_marseille","lat":43.317075,"lon":5.377367,"is_reserved":false,"is_disabled":false,"rental_uris":{"android":"levelo://app?vid=6be39998-e5a7-413c-bc48-680c46555620","ios":"levelo://app?vid=6be39998-e5a7-413c-bc48-680c46555620"},"vehicle_type_id":"4","last_reported":1693645561,"current_range_meters":29200,"station_id":"ce4bgth2rcd13ifvqch0","pricing_plan_id":"free"},{"bike_id":"f7a751a5-6a1b-42d1-bcc9-b979b9b30848","system_id":"levelo_inurba_marseille","lat":43.317075,"lon":5.377367,"is_reserved":false,"is_disabled":false,"rental_uris":{"android":"levelo://app?vid=f7a751a5-6a1b-42d1-bcc9-b979b9b30848","ios":"levelo://app?vid=f7a751a5-6a1b-42d1-bcc9-b979b9b30848"},"vehicle_type_id":"4","last_reported":1693645561,"current_range_meters":28400,"station_id":"ce4bgth2rcd13ifvqch0","pricing_plan_id":"free"},{"bike_id":"b2c82aac-d7cf-4310-907c-1d6219c23cc6","system_id":"levelo_inurba_marseille","lat":43.31706,"lon":5.3775,"is_reserved":false,"is_disabled":false,"rental_uris":{"android":"levelo://app?vid=b2c82aac-d7cf-4310-907c-1d6219c23cc6","ios":"levelo://app?vid=b2c82aac-d7cf-4310-907c-1d6219c23cc6"},"vehicle_type_id":"4","last_reported":1693645561,"current_range_meters":24800,"station_id":"ce4bgth2rcd13ifvqch0","pricing_plan_id":"free"},{"bike_id":"cd2430b5-d827-457f-a12a-f29afa394529","system_id":"levelo_inurba_marseille","lat":43.31706,"lon":5.37751,"is_reserved":false,"is_disabled":false,"rental_uris":{"android":"levelo://app?vid=cd2430b5-d827-457f-a12a-f29afa394529","ios":"levelo://app?vid=cd2430b5-d827-457f-a12a-f29afa394529"},"vehicle_type_id":"4","last_reported":1693645561,"current_range_meters":21600,"station_id":"ce4bgth2rcd13ifvqch0","pricing_plan_id":"free"},{"bike_id":"cbd332e6-8ea0-428d-9035-f235e67f62de","system_id":"levelo_inurba_marseille","lat":43.317075,"lon":5.377367,"is_reserved":false,"is_disabled":false,"rental_uris":{"android":"levelo://app?vid=cbd332e6-8ea0-428d-9035-f235e67f62de","ios":"levelo://app?vid=cbd332e6-8ea0-428d-9035-f235e67f62de"},"vehicle_type_id":"4","last_reported":1693645561,"current_range_meters":27600,"station_id":"ce4bgth2rcd13ifvqch0","pricing_plan_id":"free"},{"bike_id":"10851892-fa9e-457e-8eb6-196fa5c971ea","system_id":"levelo_inurba_marseille","lat":43.31707,"lon":5.37752,"is_reserved":false,"is_disabled":false,"rental_uris":{"android":"levelo://app?vid=10851892-fa9e-457e-8eb6-196fa5c971ea","ios":"levelo://app?vid=10851892-fa9e-457e-8eb6-196fa5c971ea"},"vehicle_type_id":"4","last_reported":1693645561,"current_range_meters":800,"station_id":"ce4bgth2rcd13ifvqch0","pricing_plan_id":"free"},{"bike_id":"c8bb3a8b-8386-442a-b3a4-ab5a34351b09","system_id":"levelo_inurba_marseille","lat":43.317075,"lon":5.377367,"is_reserved":false,"is_disabled":false,"rental_uris":{"android":"levelo://app?vid=c8bb3a8b-8386-442a-b3a4-ab5a34351b09","ios":"levelo://app?vid=c8bb3a8b-8386-442a-b3a4-ab5a34351b09"},"vehicle_type_id":"4","last_reported":1693645561,"current_range_meters":30400,"station_id":"ce4bgth2rcd13ifvqch0","pricing_plan_id":"free"},{"bike_id":"8162ffaa-7be5-4297-aaba-3459fbd8c8fa","system_id":"levelo_inurba_marseille","lat":43.317075,"lon":5.377367,"is_reserved":false,"is_disabled":false,"rental_uris":{"android":"levelo://app?vid=8162ffaa-7be5-4297-aaba-3459fbd8c8fa","ios":"levelo://app?vid=8162ffaa-7be5-4297-aaba-3459fbd8c8fa"},"vehicle_type_id":"4","last_reported":1693645561,"current_range_meters":26800,"station_id":"ce4bgth2rcd13ifvqch0","pricing_plan_id":"free"},{"bike_id":"e3b52bc6-1fc1-4928-a3ae-03e21f3ef462","system_id":"levelo_inurba_marseille","lat":43.30299,"lon":5.36879,"is_reserved":false,"is_disabled":false,"rental_uris":{"android":"levelo://app?vid=e3b52bc6-1fc1-4928-a3ae-03e21f3ef462","ios":"levelo://app?vid=e3b52bc6-1fc1-4928-a3ae-03e21f3ef462"},"vehicle_type_id":"4","last_reported":1693645561,"current_range_meters":22400,"station_id":"ce4bgqh2rcd13ifvqc5g","pricing_plan_id":"free"},{"bike_id":"9f8cb947-b9ee-4fd5-8055-26e669042321","system_id":"levelo_inurba_marseille","lat":43.315289,"lon":5.380349,"is_reserved":false,"is_disabled":false,"rental_uris":{"android":"levelo://app?vid=9f8cb947-b9ee-4fd5-8055-26e669042321","ios":"levelo://app?vid=9f8cb947-b9ee-4fd5-8055-26e669042321"},"vehicle_type_id":"4","last_reported":1693645561,"current_range_meters":20400,"station_id":"ce4bhsp2rcd13ifvqi50","pricing_plan_id":"free"},{"bike_id":"81c1ad5e-88b7-496b-b0a9-730546888aad","system_id":"levelo_inurba_marseille","lat":43.30798,"lon":5.38133,"is_reserved":false,"is_disabled":false,"rental_uris":{"android":"levelo://app?vid=81c1ad5e-88b7-496b-b0a9-730546888aad","ios":"levelo://app?vid=81c1ad5e-88b7-496b-b0a9-730546888aad"},"vehicle_type_id":"4","last_reported":1693645561,"current_range_meters":22800,"station_id":"ce4bgt12rcd13ifvqce0","pricing_plan_id":"free"},{"bike_id":"daa2cf7b-38e6-479e-ba67-20aab4e20d01","system_id":"levelo_inurba_marseille","lat":43.30799,"lon":5.38144,"is_reserved":false,"is_disabled":false,"rental_uris":{"android":"levelo://app?vid=daa2cf7b-38e6-479e-ba67-20aab4e20d01","ios":"levelo://app?vid=daa2cf7b-38e6-479e-ba67-20aab4e20d01"},"vehicle_type_id":"4","last_reported":1693645561,"current_range_meters":12000,"station_id":"ce4bgt12rcd13ifvqce0","pricing_plan_id":"free"},{"bike_id":"649b911b-e314-4240-adac-aeb2b075f529","system_id":"levelo_inurba_marseille","lat":43.304606,"lon":5.379026,"is_reserved":false,"is_disabled":false,"rental_uris":{"android":"levelo://app?vid=649b911b-e314-4240-adac-aeb2b075f529","ios":"levelo://app?vid=649b911b-e314-4240-adac-aeb2b075f529"},"vehicle_type_id":"4","last_reported":1693645561,"current_range_meters":31200,"station_id":"ce4bgup2rcd13ifvqcn0","pricing_plan_id":"free"},{"bike_id":"f853549a-8c04-446d-b273-0bba5c903d48","system_id":"levelo_inurba_marseille","lat":43.304606,"lon":5.379026,"is_reserved":false,"is_disabled":false,"rental_uris":{"android":"levelo://app?vid=f853549a-8c04-446d-b273-0bba5c903d48","ios":"levelo://app?vid=f853549a-8c04-446d-b273-0bba5c903d48"},"vehicle_type_id":"4","last_reported":1693645561,"current_range_meters":12000,"station_id":"ce4bgup2rcd13ifvqcn0","pricing_plan_id":"free"},{"bike_id":"57d8e758-f7d0-4d10-9158-c8c4302bb1c9","system_id":"levelo_inurba_marseille","lat":43.304606,"lon":5.379026,"is_reserved":false,"is_disabled":false,"rental_uris":{"android":"levelo://app?vid=57d8e758-f7d0-4d10-9158-c8c4302bb1c9","ios":"levelo://app?vid=57d8e758-f7d0-4d10-9158-c8c4302bb1c9"},"vehicle_type_id":"4","last_reported":1693645561,"current_range_meters":30800,"station_id":"ce4bgup2rcd13ifvqcn0","pricing_plan_id":"free"},{"bike_id":"d0a87872-8b1a-4332-beb4-3753c400b4f8","system_id":"levelo_inurba_marseille","lat":43.304606,"lon":5.379026,"is_reserved":false,"is_disabled":false,"rental_uris":{"android":"levelo://app?vid=d0a87872-8b1a-4332-beb4-3753c400b4f8","ios":"levelo://app?vid=d0a87872-8b1a-4332-beb4-3753c400b4f8"},"vehicle_type_id":"4","last_reported":1693645561,"current_range_meters":31600,"station_id":"ce4bgup2rcd13ifvqcn0","pricing_plan_id":"free"},{"bike_id":"6c025a73-bc82-4388-a0a4-72abd715c333","system_id":"levelo_inurba_marseille","lat":43.304606,"lon":5.379026,"is_reserved":false,"is_disabled":false,"rental_uris":{"android":"levelo://app?vid=6c025a73-bc82-4388-a0a4-72abd715c333","ios":"levelo://app?vid=6c025a73-bc82-4388-a0a4-72abd715c333"},"vehicle_type_id":"4","last_reported":1693645561,"current_range_meters":31200,"station_id":"ce4bgup2rcd13ifvqcn0","pricing_plan_id":"free"},{"bike_id":"bfc7faef-99b3-44b9-97be-640d421c6e4d","system_id":"levelo_inurba_marseille","lat":43.304606,"lon":5.379026,"is_reserved":false,"is_disabled":false,"rental_uris":{"android":"levelo://app?vid=bfc7faef-99b3-44b9-97be-640d421c6e4d","ios":"levelo://app?vid=bfc7faef-99b3-44b9-97be-640d421c6e4d"},"vehicle_type_id":"4","last_reported":1693645561,"current_range_meters":26800,"station_id":"ce4bgup2rcd13ifvqcn0","pricing_plan_id":"free"},{"bike_id":"427d69c6-b165-467b-b7e2-99920708b0ce","system_id":"levelo_inurba_marseille","lat":43.304606,"lon":5.379026,"is_reserved":false,"is_disabled":false,"rental_uris":{"android":"levelo://app?vid=427d69c6-b165-467b-b7e2-99920708b0ce","ios":"levelo://app?vid=427d69c6-b165-467b-b7e2-99920708b0ce"},"vehicle_type_id":"4","last_reported":1693645561,"current_range_meters":31600,"station_id":"ce4bgup2rcd13ifvqcn0","pricing_plan_id":"free"},{"bike_id":"386a4cc5-04dc-42d8-a00c-75f04a3b979e","system_id":"levelo_inurba_marseille","lat":43.304606,"lon":5.379026,"is_reserved":false,"is_disabled":false,"rental_uris":{"android":"levelo://app?vid=386a4cc5-04dc-42d8-a00c-75f04a3b979e","ios":"levelo://app?vid=386a4cc5-04dc-42d8-a00c-75f04a3b979e"},"vehicle_type_id":"4","last_reported":1693645561,"current_range_meters":13200,"station_id":"ce4bgup2rcd13ifvqcn0","pricing_plan_id":"free"},{"bike_id":"7cb6c239-674c-4753-a2c5-475f18512b60","system_id":"levelo_inurba_marseille","lat":43.30461,"lon":5.37896,"is_reserved":false,"is_disabled":false,"rental_uris":{"android":"levelo://app?vid=7cb6c239-674c-4753-a2c5-475f18512b60","ios":"levelo://app?vid=7cb6c239-674c-4753-a2c5-475f18512b60"},"vehicle_type_id":"4","last_reported":1693645561,"current_range_meters":31200,"station_id":"ce4bgup2rcd13ifvqcn0","pricing_plan_id":"free"},{"bike_id":"aef2be07-d911-44ab-b7e0-668fa28f35f6","system_id":"levelo_inurba_marseille","lat":43.304606,"lon":5.379026,"is_reserved":false,"is_disabled":false,"rental_uris":{"android":"levelo://app?vid=aef2be07-d911-44ab-b7e0-668fa28f35f6","ios":"levelo://app?vid=aef2be07-d911-44ab-b7e0-668fa28f35f6"},"vehicle_type_id":"4","last_reported":1693645561,"current_range_meters":30400,"station_id":"ce4bgup2rcd13ifvqcn0","pricing_plan_id":"free"},{"bike_id":"4be1c381-7288-4384-8247-33a835b73cb1","system_id":"levelo_inurba_marseille","lat":43.304606,"lon":5.379026,"is_reserved":false,"is_disabled":false,"rental_uris":{"android":"levelo://app?vid=4be1c381-7288-4384-8247-33a835b73cb1","ios":"levelo://app?vid=4be1c381-7288-4384-8247-33a835b73cb1"},"vehicle_type_id":"4","last_reported":1693645561,"current_range_meters":8400,"station_id":"ce4bgup2rcd13ifvqcn0","pricing_plan_id":"free"},{"bike_id":"8c5b3281-498e-4ec8-91c8-6c00832ef28d","system_id":"levelo_inurba_marseille","lat":43.30466,"lon":5.37905,"is_reserved":false,"is_disabled":false,"rental_uris":{"android":"levelo://app?vid=8c5b3281-498e-4ec8-91c8-6c00832ef28d","ios":"levelo://app?vid=8c5b3281-498e-4ec8-91c8-6c00832ef28d"},"vehicle_type_id":"4","last_reported":1693645561,"current_range_meters":16000,"station_id":"","pricing_plan_id":"free"},{"bike_id":"86d2d51e-23f5-41a8-9bdb-1e27cc865440","system_id":"levelo_inurba_marseille","lat":43.304606,"lon":5.379026,"is_reserved":false,"is_disabled":false,"rental_uris":{"android":"levelo://app?vid=86d2d51e-23f5-41a8-9bdb-1e27cc865440","ios":"levelo://app?vid=86d2d51e-23f5-41a8-9bdb-1e27cc865440"},"vehicle_type_id":"4","last_reported":1693645561,"current_range_meters":12800,"station_id":"ce4bgup2rcd13ifvqcn0","pricing_plan_id":"free"},{"bike_id":"e8edc699-e019-4685-9157-d91aeb094abb","system_id":"levelo_inurba_marseille","lat":43.304606,"lon":5.379026,"is_reserved":false,"is_disabled":false,"rental_uris":{"android":"levelo://app?vid=e8edc699-e019-4685-9157-d91aeb094abb","ios":"levelo://app?vid=e8edc699-e019-4685-9157-d91aeb094abb"},"vehicle_type_id":"4","last_reported":1693645561,"current_range_meters":14800,"station_id":"ce4bgup2rcd13ifvqcn0","pricing_plan_id":"free"},{"bike_id":"6b03bed6-9d8d-426d-9c32-3cd72a2d7a4c","system_id":"levelo_inurba_marseille","lat":43.304606,"lon":5.379026,"is_reserved":false,"is_disabled":false,"rental_uris":{"android":"levelo://app?vid=6b03bed6-9d8d-426d-9c32-3cd72a2d7a4c","ios":"levelo://app?vid=6b03bed6-9d8d-426d-9c32-3cd72a2d7a4c"},"vehicle_type_id":"4","last_reported":1693645561,"current_range_meters":30800,"station_id":"ce4bgup2rcd13ifvqcn0","pricing_plan_id":"free"},{"bike_id":"8f81e3f8-ca17-4b48-9a54-766f5bb86c6d","system_id":"levelo_inurba_marseille","lat":43.302784,"lon":5.377158,"is_reserved":false,"is_disabled":false,"rental_uris":{"android":"levelo://app?vid=8f81e3f8-ca17-4b48-9a54-766f5bb86c6d","ios":"levelo://app?vid=8f81e3f8-ca17-4b48-9a54-766f5bb86c6d"},"vehicle_type_id":"4","last_reported":1693645561,"current_range_meters":22800,"station_id":"ce4bguh2rcd13ifvqcj0","pricing_plan_id":"free"},{"bike_id":"fc957125-9e1a-4db3-a282-ea564c21d3b7","system_id":"levelo_inurba_marseille","lat":43.302784,"lon":5.377158,"is_reserved":false,"is_disabled":false,"rental_uris":{"android":"levelo://app?vid=fc957125-9e1a-4db3-a282-ea564c21d3b7","ios":"levelo://app?vid=fc957125-9e1a-4db3-a282-ea564c21d3b7"},"vehicle_type_id":"4","last_reported":1693645561,"current_range_meters":31200,"station_id":"ce4bguh2rcd13ifvqcj0","pricing_plan_id":"free"},{"bike_id":"b6abff1c-f097-4297-b7f5-e905b62cd8ab","system_id":"levelo_inurba_marseille","lat":43.319935,"lon":5.381699,"is_reserved":false,"is_disabled":false,"rental_uris":{"android":"levelo://app?vid=b6abff1c-f097-4297-b7f5-e905b62cd8ab","ios":"levelo://app?vid=b6abff1c-f097-4297-b7f5-e905b62cd8ab"},"vehicle_type_id":"4","last_reported":1693645561,"current_range_meters":16400,"station_id":"ce4bhr12rcd13ifvqhpg","pricing_plan_id":"free"},{"bike_id":"d13e2fc0-5196-41d3-8d49-bf9314309b08","system_id":"levelo_inurba_marseille","lat":43.319935,"lon":5.381699,"is_reserved":false,"is_disabled":false,"rental_uris":{"android":"levelo://app?vid=d13e2fc0-5196-41d3-8d49-bf9314309b08","ios":"levelo://app?vid=d13e2fc0-5196-41d3-8d49-bf9314309b08"},"vehicle_type_id":"4","last_reported":1693645561,"current_range_meters":29600,"station_id":"ce4bhr12rcd13ifvqhpg","pricing_plan_id":"free"},{"bike_id":"77cc4a87-903a-4ac8-836f-05d771ccc1e4","system_id":"levelo_inurba_marseille","lat":43.31997,"lon":5.38144,"is_reserved":false,"is_disabled":false,"rental_uris":{"android":"levelo://app?vid=77cc4a87-903a-4ac8-836f-05d771ccc1e4","ios":"levelo://app?vid=77cc4a87-903a-4ac8-836f-05d771ccc1e4"},"vehicle_type_id":"4","last_reported":1693645561,"current_range_meters":24000,"station_id":"ce4bhr12rcd13ifvqhpg","pricing_plan_id":"free"},{"bike_id":"1e0f211e-028a-46cb-9a0d-9899ac904750","system_id":"levelo_inurba_marseille","lat":43.319935,"lon":5.381699,"is_reserved":false,"is_disabled":false,"rental_uris":{"android":"levelo://app?vid=1e0f211e-028a-46cb-9a0d-9899ac904750","ios":"levelo://app?vid=1e0f211e-028a-46cb-9a0d-9899ac904750"},"vehicle_type_id":"4","last_reported":1693645561,"current_range_meters":26400,"station_id":"ce4bhr12rcd13ifvqhpg","pricing_plan_id":"free"},{"bike_id":"cc28612f-b913-4e07-81a1-e8a4df49747b","system_id":"levelo_inurba_marseille","lat":43.319935,"lon":5.381699,"is_reserved":false,"is_disabled":false,"rental_uris":{"android":"levelo://app?vid=cc28612f-b913-4e07-81a1-e8a4df49747b","ios":"levelo://app?vid=cc28612f-b913-4e07-81a1-e8a4df49747b"},"vehicle_type_id":"4","last_reported":1693645561,"current_range_meters":14000,"station_id":"ce4bhr12rcd13ifvqhpg","pricing_plan_id":"free"},{"bike_id":"c0aa06d4-ea1c-42f1-82e3-b4b98c641344","system_id":"levelo_inurba_marseille","lat":43.319935,"lon":5.381699,"is_reserved":false,"is_disabled":false,"rental_uris":{"android":"levelo://app?vid=c0aa06d4-ea1c-42f1-82e3-b4b98c641344","ios":"levelo://app?vid=c0aa06d4-ea1c-42f1-82e3-b4b98c641344"},"vehicle_type_id":"4","last_reported":1693645561,"current_range_meters":20800,"station_id":"ce4bhr12rcd13ifvqhpg","pricing_plan_id":"free"},{"bike_id":"3ce12e8d-2187-433e-90ea-725012bee47a","system_id":"levelo_inurba_marseille","lat":43.31998,"lon":5.38149,"is_reserved":false,"is_disabled":false,"rental_uris":{"android":"levelo://app?vid=3ce12e8d-2187-433e-90ea-725012bee47a","ios":"levelo://app?vid=3ce12e8d-2187-433e-90ea-725012bee47a"},"vehicle_type_id":"4","last_reported":1693645561,"current_range_meters":23200,"station_id":"ce4bhr12rcd13ifvqhpg","pricing_plan_id":"free"},{"bike_id":"a0fb1b81-d9c6-4639-ae7b-1e716e9cb029","system_id":"levelo_inurba_marseille","lat":43.31347,"lon":5.38495,"is_reserved":false,"is_disabled":false,"rental_uris":{"android":"levelo://app?vid=a0fb1b81-d9c6-4639-ae7b-1e716e9cb029","ios":"levelo://app?vid=a0fb1b81-d9c6-4639-ae7b-1e716e9cb029"},"vehicle_type_id":"4","last_reported":1693645561,"current_range_meters":21600,"station_id":"ce4bgt92rcd13ifvqcf0","pricing_plan_id":"free"},{"bike_id":"038be0a0-a8f9-4d4b-97f0-faf955be44a6","system_id":"levelo_inurba_marseille","lat":43.299222,"lon":5.365554,"is_reserved":false,"is_disabled":false,"rental_uris":{"android":"levelo://app?vid=038be0a0-a8f9-4d4b-97f0-faf955be44a6","ios":"levelo://app?vid=038be0a0-a8f9-4d4b-97f0-faf955be44a6"},"vehicle_type_id":"4","last_reported":1693645561,"current_range_meters":10400,"station_id":"ce4bgm92rcd13ifvqbr0","pricing_plan_id":"free"},{"bike_id":"7cf93e4f-b2ee-47b5-998f-860604407e4a","system_id":"levelo_inurba_marseille","lat":43.29939,"lon":5.36549,"is_reserved":false,"is_disabled":false,"rental_uris":{"android":"levelo://app?vid=7cf93e4f-b2ee-47b5-998f-860604407e4a","ios":"levelo://app?vid=7cf93e4f-b2ee-47b5-998f-860604407e4a"},"vehicle_type_id":"4","last_reported":1693645561,"current_range_meters":0,"station_id":"ce4bgm92rcd13ifvqbr0","pricing_plan_id":"free"},{"bike_id":"87786b3b-4105-4da4-a048-6e0c39d7e41b","system_id":"levelo_inurba_marseille","lat":43.298433,"lon":5.362774,"is_reserved":false,"is_disabled":false,"rental_uris":{"android":"levelo://app?vid=87786b3b-4105-4da4-a048-6e0c39d7e41b","ios":"levelo://app?vid=87786b3b-4105-4da4-a048-6e0c39d7e41b"},"vehicle_type_id":"4","last_reported":1693645561,"current_range_meters":30000,"station_id":"ce4bgpp2rcd13ifvqc3g","pricing_plan_id":"free"},{"bike_id":"882c92c4-2aa3-4872-9ff6-59d5d55e2e05","system_id":"levelo_inurba_marseille","lat":43.298433,"lon":5.362774,"is_reserved":false,"is_disabled":false,"rental_uris":{"android":"levelo://app?vid=882c92c4-2aa3-4872-9ff6-59d5d55e2e05","ios":"levelo://app?vid=882c92c4-2aa3-4872-9ff6-59d5d55e2e05"},"vehicle_type_id":"4","last_reported":1693645561,"current_range_meters":19200,"station_id":"ce4bgpp2rcd13ifvqc3g","pricing_plan_id":"free"},{"bike_id":"ef7d27a6-4e2b-45f4-a858-b27e7825c241","system_id":"levelo_inurba_marseille","lat":43.298433,"lon":5.362774,"is_reserved":false,"is_disabled":false,"rental_uris":{"android":"levelo://app?vid=ef7d27a6-4e2b-45f4-a858-b27e7825c241","ios":"levelo://app?vid=ef7d27a6-4e2b-45f4-a858-b27e7825c241"},"vehicle_type_id":"4","last_reported":1693645561,"current_range_meters":17600,"station_id":"ce4bgpp2rcd13ifvqc3g","pricing_plan_id":"free"},{"bike_id":"924d6452-f7f7-4baa-af9a-49926af70474","system_id":"levelo_inurba_marseille","lat":43.297794,"lon":5.370888,"is_reserved":false,"is_disabled":false,"rental_uris":{"android":"levelo://app?vid=924d6452-f7f7-4baa-af9a-49926af70474","ios":"levelo://app?vid=924d6452-f7f7-4baa-af9a-49926af70474"},"vehicle_type_id":"4","last_reported":1693645561,"current_range_meters":28000,"station_id":"ce4bgop2rcd13ifvqc1g","pricing_plan_id":"free"},{"bike_id":"8143ebd5-c5c5-467f-a353-1c0066f90341","system_id":"levelo_inurba_marseille","lat":43.29801,"lon":5.37099,"is_reserved":false,"is_disabled":false,"rental_uris":{"android":"levelo://app?vid=8143ebd5-c5c5-467f-a353-1c0066f90341","ios":"levelo://app?vid=8143ebd5-c5c5-467f-a353-1c0066f90341"},"vehicle_type_id":"4","last_reported":1693645561,"current_range_meters":31200,"station_id":"ce4bgop2rcd13ifvqc1g","pricing_plan_id":"free"},{"bike_id":"038136ba-fad4-4de5-b8ef-a1f9016e88d0","system_id":"levelo_inurba_marseille","lat":43.29787,"lon":5.37091,"is_reserved":false,"is_disabled":false,"rental_uris":{"android":"levelo://app?vid=038136ba-fad4-4de5-b8ef-a1f9016e88d0","ios":"levelo://app?vid=038136ba-fad4-4de5-b8ef-a1f9016e88d0"},"vehicle_type_id":"4","last_reported":1693645561,"current_range_meters":30000,"station_id":"ce4bgop2rcd13ifvqc1g","pricing_plan_id":"free"},{"bike_id":"c5eee610-be09-4243-9cee-abef8479a037","system_id":"levelo_inurba_marseille","lat":43.32283,"lon":5.38268,"is_reserved":false,"is_disabled":false,"rental_uris":{"android":"levelo://app?vid=c5eee610-be09-4243-9cee-abef8479a037","ios":"levelo://app?vid=c5eee610-be09-4243-9cee-abef8479a037"},"vehicle_type_id":"4","last_reported":1693645561,"current_range_meters":12000,"station_id":"ce4bhr12rcd13ifvqhqg","pricing_plan_id":"free"},{"bike_id":"61aecc97-3e80-4a49-8c3e-0135b524d154","system_id":"levelo_inurba_marseille","lat":43.32288,"lon":5.38268,"is_reserved":false,"is_disabled":false,"rental_uris":{"android":"levelo://app?vid=61aecc97-3e80-4a49-8c3e-0135b524d154","ios":"levelo://app?vid=61aecc97-3e80-4a49-8c3e-0135b524d154"},"vehicle_type_id":"4","last_reported":1693645561,"current_range_meters":20000,"station_id":"ce4bhr12rcd13ifvqhqg","pricing_plan_id":"free"},{"bike_id":"bc8f34a2-0447-439b-8108-9a4250aef71a","system_id":"levelo_inurba_marseille","lat":43.32288,"lon":5.38269,"is_reserved":false,"is_disabled":false,"rental_uris":{"android":"levelo://app?vid=bc8f34a2-0447-439b-8108-9a4250aef71a","ios":"levelo://app?vid=bc8f34a2-0447-439b-8108-9a4250aef71a"},"vehicle_type_id":"4","last_reported":1693645561,"current_range_meters":27200,"station_id":"ce4bhr12rcd13ifvqhqg","pricing_plan_id":"free"},{"bike_id":"5f01af5c-44ab-4ebc-aaad-7ffbcecaa287","system_id":"levelo_inurba_marseille","lat":43.297774,"lon":5.370875,"is_reserved":false,"is_disabled":false,"rental_uris":{"android":"levelo://app?vid=5f01af5c-44ab-4ebc-aaad-7ffbcecaa287","ios":"levelo://app?vid=5f01af5c-44ab-4ebc-aaad-7ffbcecaa287"},"vehicle_type_id":"4","last_reported":1693645561,"current_range_meters":29600,"station_id":"ce4bgop2rcd13ifvqc1g","pricing_plan_id":"free"},{"bike_id":"3d2a691c-74eb-4958-aebd-9ebc95f3d8a8","system_id":"levelo_inurba_marseille","lat":43.322872,"lon":5.382756,"is_reserved":false,"is_disabled":false,"rental_uris":{"android":"levelo://app?vid=3d2a691c-74eb-4958-aebd-9ebc95f3d8a8","ios":"levelo://app?vid=3d2a691c-74eb-4958-aebd-9ebc95f3d8a8"},"vehicle_type_id":"4","last_reported":1693645561,"current_range_meters":13600,"station_id":"ce4bhr12rcd13ifvqhqg","pricing_plan_id":"free"},{"bike_id":"47534ecf-82c1-4e69-a6a3-d03ad6aaa4a0","system_id":"levelo_inurba_marseille","lat":43.3229,"lon":5.38272,"is_reserved":false,"is_disabled":false,"rental_uris":{"android":"levelo://app?vid=47534ecf-82c1-4e69-a6a3-d03ad6aaa4a0","ios":"levelo://app?vid=47534ecf-82c1-4e69-a6a3-d03ad6aaa4a0"},"vehicle_type_id":"4","last_reported":1693645561,"current_range_meters":5600,"station_id":"ce4bhr12rcd13ifvqhqg","pricing_plan_id":"free"},{"bike_id":"c29114e8-dc25-4be3-832f-1611beb9061c","system_id":"levelo_inurba_marseille","lat":43.322872,"lon":5.382756,"is_reserved":false,"is_disabled":false,"rental_uris":{"android":"levelo://app?vid=c29114e8-dc25-4be3-832f-1611beb9061c","ios":"levelo://app?vid=c29114e8-dc25-4be3-832f-1611beb9061c"},"vehicle_type_id":"4","last_reported":1693645561,"current_range_meters":23200,"station_id":"ce4bhr12rcd13ifvqhqg","pricing_plan_id":"free"},{"bike_id":"3dbd29e3-656f-4591-9768-b2ad20e6e577","system_id":"levelo_inurba_marseille","lat":43.328371,"lon":5.366909,"is_reserved":false,"is_disabled":false,"rental_uris":{"android":"levelo://app?vid=3dbd29e3-656f-4591-9768-b2ad20e6e577","ios":"levelo://app?vid=3dbd29e3-656f-4591-9768-b2ad20e6e577"},"vehicle_type_id":"4","last_reported":1693645561,"current_range_meters":0,"station_id":"ce4bhs92rcd13ifvqi0g","pricing_plan_id":"free"},{"bike_id":"dd789220-e7b5-42c1-b9dc-dc4243148021","system_id":"levelo_inurba_marseille","lat":43.297163,"lon":5.365866,"is_reserved":false,"is_disabled":false,"rental_uris":{"android":"levelo://app?vid=dd789220-e7b5-42c1-b9dc-dc4243148021","ios":"levelo://app?vid=dd789220-e7b5-42c1-b9dc-dc4243148021"},"vehicle_type_id":"4","last_reported":1693645561,"current_range_meters":31200,"station_id":"ce4bgn12rcd13ifvqbt0","pricing_plan_id":"free"},{"bike_id":"89b58d80-4eea-4210-a3bb-62651105c46f","system_id":"levelo_inurba_marseille","lat":43.297163,"lon":5.365866,"is_reserved":false,"is_disabled":false,"rental_uris":{"android":"levelo://app?vid=89b58d80-4eea-4210-a3bb-62651105c46f","ios":"levelo://app?vid=89b58d80-4eea-4210-a3bb-62651105c46f"},"vehicle_type_id":"4","last_reported":1693645561,"current_range_meters":26400,"station_id":"ce4bgn12rcd13ifvqbt0","pricing_plan_id":"free"},{"bike_id":"3d3e5e97-ecaa-4219-a4c0-1f2abb37ab33","system_id":"levelo_inurba_marseille","lat":43.297163,"lon":5.365866,"is_reserved":false,"is_disabled":false,"rental_uris":{"android":"levelo://app?vid=3d3e5e97-ecaa-4219-a4c0-1f2abb37ab33","ios":"levelo://app?vid=3d3e5e97-ecaa-4219-a4c0-1f2abb37ab33"},"vehicle_type_id":"4","last_reported":1693645561,"current_range_meters":29600,"station_id":"ce4bgn12rcd13ifvqbt0","pricing_plan_id":"free"},{"bike_id":"0094493f-bfa7-4f2f-9002-684e904e5f1c","system_id":"levelo_inurba_marseille","lat":43.297163,"lon":5.365866,"is_reserved":false,"is_disabled":false,"rental_uris":{"android":"levelo://app?vid=0094493f-bfa7-4f2f-9002-684e904e5f1c","ios":"levelo://app?vid=0094493f-bfa7-4f2f-9002-684e904e5f1c"},"vehicle_type_id":"4","last_reported":1693645561,"current_range_meters":31600,"station_id":"ce4bgn12rcd13ifvqbt0","pricing_plan_id":"free"},{"bike_id":"baa26f52-9101-4f48-8f57-aabd7df26a43","system_id":"levelo_inurba_marseille","lat":43.297163,"lon":5.365866,"is_reserved":false,"is_disabled":false,"rental_uris":{"android":"levelo://app?vid=baa26f52-9101-4f48-8f57-aabd7df26a43","ios":"levelo://app?vid=baa26f52-9101-4f48-8f57-aabd7df26a43"},"vehicle_type_id":"4","last_reported":1693645561,"current_range_meters":21600,"station_id":"ce4bgn12rcd13ifvqbt0","pricing_plan_id":"free"},{"bike_id":"bd0bd295-6ecc-40c4-a4d0-89f645593756","system_id":"levelo_inurba_marseille","lat":43.297163,"lon":5.365866,"is_reserved":false,"is_disabled":false,"rental_uris":{"android":"levelo://app?vid=bd0bd295-6ecc-40c4-a4d0-89f645593756","ios":"levelo://app?vid=bd0bd295-6ecc-40c4-a4d0-89f645593756"},"vehicle_type_id":"4","last_reported":1693645561,"current_range_meters":21200,"station_id":"ce4bgn12rcd13ifvqbt0","pricing_plan_id":"free"},{"bike_id":"41bb4846-a20b-4e32-b887-3c0286ab3738","system_id":"levelo_inurba_marseille","lat":43.297163,"lon":5.365866,"is_reserved":false,"is_disabled":false,"rental_uris":{"android":"levelo://app?vid=41bb4846-a20b-4e32-b887-3c0286ab3738","ios":"levelo://app?vid=41bb4846-a20b-4e32-b887-3c0286ab3738"},"vehicle_type_id":"4","last_reported":1693645561,"current_range_meters":12800,"station_id":"ce4bgn12rcd13ifvqbt0","pricing_plan_id":"free"},{"bike_id":"beaaf89b-e123-41e7-8924-3a2f2ad7d612","system_id":"levelo_inurba_marseille","lat":43.2968,"lon":5.37291,"is_reserved":false,"is_disabled":false,"rental_uris":{"android":"levelo://app?vid=beaaf89b-e123-41e7-8924-3a2f2ad7d612","ios":"levelo://app?vid=beaaf89b-e123-41e7-8924-3a2f2ad7d612"},"vehicle_type_id":"4","last_reported":1693645561,"current_range_meters":4800,"station_id":"ce4bgk12rcd13ifvqbj0","pricing_plan_id":"free"},{"bike_id":"6ab14aa3-360a-473b-b834-7ee2fd4b11ca","system_id":"levelo_inurba_marseille","lat":43.2968,"lon":5.37291,"is_reserved":false,"is_disabled":false,"rental_uris":{"android":"levelo://app?vid=6ab14aa3-360a-473b-b834-7ee2fd4b11ca","ios":"levelo://app?vid=6ab14aa3-360a-473b-b834-7ee2fd4b11ca"},"vehicle_type_id":"4","last_reported":1693645561,"current_range_meters":13200,"station_id":"ce4bgk12rcd13ifvqbj0","pricing_plan_id":"free"},{"bike_id":"babb01a4-3689-4560-ad36-e9d637321219","system_id":"levelo_inurba_marseille","lat":43.2968,"lon":5.37291,"is_reserved":false,"is_disabled":false,"rental_uris":{"android":"levelo://app?vid=babb01a4-3689-4560-ad36-e9d637321219","ios":"levelo://app?vid=babb01a4-3689-4560-ad36-e9d637321219"},"vehicle_type_id":"4","last_reported":1693645561,"current_range_meters":26800,"station_id":"ce4bgk12rcd13ifvqbj0","pricing_plan_id":"free"},{"bike_id":"0e4df512-bbb1-4763-87c4-5023b7b9548d","system_id":"levelo_inurba_marseille","lat":43.2968,"lon":5.37291,"is_reserved":false,"is_disabled":false,"rental_uris":{"android":"levelo://app?vid=0e4df512-bbb1-4763-87c4-5023b7b9548d","ios":"levelo://app?vid=0e4df512-bbb1-4763-87c4-5023b7b9548d"},"vehicle_type_id":"4","last_reported":1693645561,"current_range_meters":11200,"station_id":"ce4bgk12rcd13ifvqbj0","pricing_plan_id":"free"},{"bike_id":"65d934c8-ea94-404c-b991-a012f59c0b64","system_id":"levelo_inurba_marseille","lat":43.296129,"lon":5.370777,"is_reserved":false,"is_disabled":false,"rental_uris":{"android":"levelo://app?vid=65d934c8-ea94-404c-b991-a012f59c0b64","ios":"levelo://app?vid=65d934c8-ea94-404c-b991-a012f59c0b64"},"vehicle_type_id":"4","last_reported":1693645561,"current_range_meters":24000,"station_id":"ce4bgnh2rcd13ifvqc0g","pricing_plan_id":"free"},{"bike_id":"0365b26b-c5ae-47a4-86c4-bc2420ee9d10","system_id":"levelo_inurba_marseille","lat":43.296131,"lon":5.370773,"is_reserved":false,"is_disabled":false,"rental_uris":{"android":"levelo://app?vid=0365b26b-c5ae-47a4-86c4-bc2420ee9d10","ios":"levelo://app?vid=0365b26b-c5ae-47a4-86c4-bc2420ee9d10"},"vehicle_type_id":"4","last_reported":1693645561,"current_range_meters":28400,"station_id":"ce4bgnh2rcd13ifvqc0g","pricing_plan_id":"free"},{"bike_id":"1f7d8c84-e2db-4a99-8419-bac7b6b867b2","system_id":"levelo_inurba_marseille","lat":43.29573,"lon":5.367355,"is_reserved":false,"is_disabled":false,"rental_uris":{"android":"levelo://app?vid=1f7d8c84-e2db-4a99-8419-bac7b6b867b2","ios":"levelo://app?vid=1f7d8c84-e2db-4a99-8419-bac7b6b867b2"},"vehicle_type_id":"4","last_reported":1693645561,"current_range_meters":24000,"station_id":"ce4bgph2rcd13ifvqc2g","pricing_plan_id":"free"},{"bike_id":"d3139180-8ba9-4c91-b6e4-8baae3c22113","system_id":"levelo_inurba_marseille","lat":43.296131,"lon":5.370773,"is_reserved":false,"is_disabled":false,"rental_uris":{"android":"levelo://app?vid=d3139180-8ba9-4c91-b6e4-8baae3c22113","ios":"levelo://app?vid=d3139180-8ba9-4c91-b6e4-8baae3c22113"},"vehicle_type_id":"4","last_reported":1693645561,"current_range_meters":31200,"station_id":"ce4bgnh2rcd13ifvqc0g","pricing_plan_id":"free"},{"bike_id":"df9d81aa-922e-4ac6-b831-6750ca8c19d4","system_id":"levelo_inurba_marseille","lat":43.296131,"lon":5.370791,"is_reserved":false,"is_disabled":false,"rental_uris":{"android":"levelo://app?vid=df9d81aa-922e-4ac6-b831-6750ca8c19d4","ios":"levelo://app?vid=df9d81aa-922e-4ac6-b831-6750ca8c19d4"},"vehicle_type_id":"4","last_reported":1693645561,"current_range_meters":25600,"station_id":"ce4bgnh2rcd13ifvqc0g","pricing_plan_id":"free"},{"bike_id":"62470b30-343f-48c9-9ba1-857694ee5ce6","system_id":"levelo_inurba_marseille","lat":43.296131,"lon":5.370791,"is_reserved":false,"is_disabled":false,"rental_uris":{"android":"levelo://app?vid=62470b30-343f-48c9-9ba1-857694ee5ce6","ios":"levelo://app?vid=62470b30-343f-48c9-9ba1-857694ee5ce6"},"vehicle_type_id":"4","last_reported":1693645561,"current_range_meters":19600,"station_id":"ce4bgnh2rcd13ifvqc0g","pricing_plan_id":"free"},{"bike_id":"01ae45b6-73a2-41ad-bb65-ffb3b75aac38","system_id":"levelo_inurba_marseille","lat":43.29573,"lon":5.367355,"is_reserved":false,"is_disabled":false,"rental_uris":{"android":"levelo://app?vid=01ae45b6-73a2-41ad-bb65-ffb3b75aac38","ios":"levelo://app?vid=01ae45b6-73a2-41ad-bb65-ffb3b75aac38"},"vehicle_type_id":"4","last_reported":1693645561,"current_range_meters":10400,"station_id":"ce4bgph2rcd13ifvqc2g","pricing_plan_id":"free"},{"bike_id":"3a8b74fc-0c7f-4a1a-9f6b-3b412c379e94","system_id":"levelo_inurba_marseille","lat":43.29573,"lon":5.367355,"is_reserved":false,"is_disabled":false,"rental_uris":{"android":"levelo://app?vid=3a8b74fc-0c7f-4a1a-9f6b-3b412c379e94","ios":"levelo://app?vid=3a8b74fc-0c7f-4a1a-9f6b-3b412c379e94"},"vehicle_type_id":"4","last_reported":1693645561,"current_range_meters":29600,"station_id":"ce4bgph2rcd13ifvqc2g","pricing_plan_id":"free"},{"bike_id":"609f359f-66c7-4fab-8cb0-54e43183453d","system_id":"levelo_inurba_marseille","lat":43.296935,"lon":5.376544,"is_reserved":false,"is_disabled":false,"rental_uris":{"android":"levelo://app?vid=609f359f-66c7-4fab-8cb0-54e43183453d","ios":"levelo://app?vid=609f359f-66c7-4fab-8cb0-54e43183453d"},"vehicle_type_id":"4","last_reported":1693645561,"current_range_meters":14000,"station_id":"ce4bgkh2rcd13ifvqbl0","pricing_plan_id":"free"},{"bike_id":"e5e090dd-901f-43b7-a48e-1d3136e592be","system_id":"levelo_inurba_marseille","lat":43.296921,"lon":5.376579,"is_reserved":false,"is_disabled":false,"rental_uris":{"android":"levelo://app?vid=e5e090dd-901f-43b7-a48e-1d3136e592be","ios":"levelo://app?vid=e5e090dd-901f-43b7-a48e-1d3136e592be"},"vehicle_type_id":"4","last_reported":1693645561,"current_range_meters":30800,"station_id":"ce4bgkh2rcd13ifvqbl0","pricing_plan_id":"free"},{"bike_id":"74603b1d-5a06-445b-bae1-cbfb427aa90e","system_id":"levelo_inurba_marseille","lat":43.309589,"lon":5.390258,"is_reserved":false,"is_disabled":false,"rental_uris":{"android":"levelo://app?vid=74603b1d-5a06-445b-bae1-cbfb427aa90e","ios":"levelo://app?vid=74603b1d-5a06-445b-bae1-cbfb427aa90e"},"vehicle_type_id":"4","last_reported":1693645561,"current_range_meters":31200,"station_id":"ce4bgup2rcd13ifvqco0","pricing_plan_id":"free"},{"bike_id":"2c93ce6f-c5e1-4ec9-9941-ebb7469bb8f2","system_id":"levelo_inurba_marseille","lat":43.31763,"lon":5.39005,"is_reserved":false,"is_disabled":false,"rental_uris":{"android":"levelo://app?vid=2c93ce6f-c5e1-4ec9-9941-ebb7469bb8f2","ios":"levelo://app?vid=2c93ce6f-c5e1-4ec9-9941-ebb7469bb8f2"},"vehicle_type_id":"4","last_reported":1693645561,"current_range_meters":16800,"station_id":"ce4bhqp2rcd13ifvqhng","pricing_plan_id":"free"},{"bike_id":"5ed040b5-07fc-421c-a106-d68afc9d9f9f","system_id":"levelo_inurba_marseille","lat":43.3176,"lon":5.39008,"is_reserved":false,"is_disabled":false,"rental_uris":{"android":"levelo://app?vid=5ed040b5-07fc-421c-a106-d68afc9d9f9f","ios":"levelo://app?vid=5ed040b5-07fc-421c-a106-d68afc9d9f9f"},"vehicle_type_id":"4","last_reported":1693645561,"current_range_meters":28400,"station_id":"ce4bhqp2rcd13ifvqhng","pricing_plan_id":"free"},{"bike_id":"ac9cdec9-c2bb-4624-8988-75d685c984e1","system_id":"levelo_inurba_marseille","lat":43.317557,"lon":5.390173,"is_reserved":false,"is_disabled":false,"rental_uris":{"android":"levelo://app?vid=ac9cdec9-c2bb-4624-8988-75d685c984e1","ios":"levelo://app?vid=ac9cdec9-c2bb-4624-8988-75d685c984e1"},"vehicle_type_id":"4","last_reported":1693645561,"current_range_meters":24000,"station_id":"ce4bhqp2rcd13ifvqhng","pricing_plan_id":"free"},{"bike_id":"88d9d596-f438-4684-ae9f-d2d3fa8d2d69","system_id":"levelo_inurba_marseille","lat":43.3176,"lon":5.39012,"is_reserved":false,"is_disabled":false,"rental_uris":{"android":"levelo://app?vid=88d9d596-f438-4684-ae9f-d2d3fa8d2d69","ios":"levelo://app?vid=88d9d596-f438-4684-ae9f-d2d3fa8d2d69"},"vehicle_type_id":"4","last_reported":1693645561,"current_range_meters":30400,"station_id":"ce4bhqp2rcd13ifvqhng","pricing_plan_id":"free"},{"bike_id":"9b40ba95-867a-4a95-98f3-a3dbf1eaca73","system_id":"levelo_inurba_marseille","lat":43.31756,"lon":5.39016,"is_reserved":false,"is_disabled":false,"rental_uris":{"android":"levelo://app?vid=9b40ba95-867a-4a95-98f3-a3dbf1eaca73","ios":"levelo://app?vid=9b40ba95-867a-4a95-98f3-a3dbf1eaca73"},"vehicle_type_id":"4","last_reported":1693645561,"current_range_meters":22000,"station_id":"ce4bhqp2rcd13ifvqhng","pricing_plan_id":"free"},{"bike_id":"1b5b4211-83a3-483e-9cdf-2b196fba5adb","system_id":"levelo_inurba_marseille","lat":43.31758,"lon":5.39016,"is_reserved":false,"is_disabled":false,"rental_uris":{"android":"levelo://app?vid=1b5b4211-83a3-483e-9cdf-2b196fba5adb","ios":"levelo://app?vid=1b5b4211-83a3-483e-9cdf-2b196fba5adb"},"vehicle_type_id":"4","last_reported":1693645561,"current_range_meters":31200,"station_id":"ce4bhqp2rcd13ifvqhng","pricing_plan_id":"free"},{"bike_id":"86d37462-6f2c-4ee1-b5e1-16f3e9285866","system_id":"levelo_inurba_marseille","lat":43.31755,"lon":5.39023,"is_reserved":false,"is_disabled":false,"rental_uris":{"android":"levelo://app?vid=86d37462-6f2c-4ee1-b5e1-16f3e9285866","ios":"levelo://app?vid=86d37462-6f2c-4ee1-b5e1-16f3e9285866"},"vehicle_type_id":"4","last_reported":1693645561,"current_range_meters":17200,"station_id":"ce4bhqp2rcd13ifvqhng","pricing_plan_id":"free"},{"bike_id":"2d38d843-9501-4a8b-8d1e-e53e054245cc","system_id":"levelo_inurba_marseille","lat":43.29702,"lon":5.37811,"is_reserved":false,"is_disabled":false,"rental_uris":{"android":"levelo://app?vid=2d38d843-9501-4a8b-8d1e-e53e054245cc","ios":"levelo://app?vid=2d38d843-9501-4a8b-8d1e-e53e054245cc"},"vehicle_type_id":"4","last_reported":1693645561,"current_range_meters":28800,"station_id":"","pricing_plan_id":"free"},{"bike_id":"63f111f0-9783-4720-a6d7-b9adbc330568","system_id":"levelo_inurba_marseille","lat":43.298037,"lon":5.381066,"is_reserved":false,"is_disabled":false,"rental_uris":{"android":"levelo://app?vid=63f111f0-9783-4720-a6d7-b9adbc330568","ios":"levelo://app?vid=63f111f0-9783-4720-a6d7-b9adbc330568"},"vehicle_type_id":"4","last_reported":1693645561,"current_range_meters":25200,"station_id":"ce4bgip2rcd13ifvqbb0","pricing_plan_id":"free"},{"bike_id":"6d048559-415f-4361-a440-52dea9bc3af3","system_id":"levelo_inurba_marseille","lat":43.295748,"lon":5.37522,"is_reserved":false,"is_disabled":false,"rental_uris":{"android":"levelo://app?vid=6d048559-415f-4361-a440-52dea9bc3af3","ios":"levelo://app?vid=6d048559-415f-4361-a440-52dea9bc3af3"},"vehicle_type_id":"4","last_reported":1693645561,"current_range_meters":19200,"station_id":"ce4bgh92rcd13ifvqb50","pricing_plan_id":"free"},{"bike_id":"e39fe441-bf0c-4b17-8ef2-92913bd81f9f","system_id":"levelo_inurba_marseille","lat":43.29575,"lon":5.37501,"is_reserved":false,"is_disabled":false,"rental_uris":{"android":"levelo://app?vid=e39fe441-bf0c-4b17-8ef2-92913bd81f9f","ios":"levelo://app?vid=e39fe441-bf0c-4b17-8ef2-92913bd81f9f"},"vehicle_type_id":"4","last_reported":1693645561,"current_range_meters":6000,"station_id":"ce4bgh92rcd13ifvqb50","pricing_plan_id":"free"},{"bike_id":"f5171aa3-2555-417a-99c7-c024560b4941","system_id":"levelo_inurba_marseille","lat":43.295748,"lon":5.37522,"is_reserved":false,"is_disabled":false,"rental_uris":{"android":"levelo://app?vid=f5171aa3-2555-417a-99c7-c024560b4941","ios":"levelo://app?vid=f5171aa3-2555-417a-99c7-c024560b4941"},"vehicle_type_id":"4","last_reported":1693645561,"current_range_meters":28800,"station_id":"ce4bgh92rcd13ifvqb50","pricing_plan_id":"free"},{"bike_id":"f5e245d1-bfab-454e-b1bf-d456f16bb92c","system_id":"levelo_inurba_marseille","lat":43.295748,"lon":5.37522,"is_reserved":false,"is_disabled":false,"rental_uris":{"android":"levelo://app?vid=f5e245d1-bfab-454e-b1bf-d456f16bb92c","ios":"levelo://app?vid=f5e245d1-bfab-454e-b1bf-d456f16bb92c"},"vehicle_type_id":"4","last_reported":1693645561,"current_range_meters":25600,"station_id":"ce4bgh92rcd13ifvqb50","pricing_plan_id":"free"},{"bike_id":"d638a361-8b95-422b-933f-52ad15b797f9","system_id":"levelo_inurba_marseille","lat":43.295748,"lon":5.37522,"is_reserved":false,"is_disabled":false,"rental_uris":{"android":"levelo://app?vid=d638a361-8b95-422b-933f-52ad15b797f9","ios":"levelo://app?vid=d638a361-8b95-422b-933f-52ad15b797f9"},"vehicle_type_id":"4","last_reported":1693645561,"current_range_meters":26800,"station_id":"ce4bgh92rcd13ifvqb50","pricing_plan_id":"free"},{"bike_id":"e81775fe-f40c-4726-970e-6a1e45c93e79","system_id":"levelo_inurba_marseille","lat":43.295748,"lon":5.37522,"is_reserved":false,"is_disabled":false,"rental_uris":{"android":"levelo://app?vid=e81775fe-f40c-4726-970e-6a1e45c93e79","ios":"levelo://app?vid=e81775fe-f40c-4726-970e-6a1e45c93e79"},"vehicle_type_id":"4","last_reported":1693645561,"current_range_meters":22000,"station_id":"ce4bgh92rcd13ifvqb50","pricing_plan_id":"free"},{"bike_id":"d112ea74-bb96-494a-9d04-5a3bbd7e3025","system_id":"levelo_inurba_marseille","lat":43.29559,"lon":5.37517,"is_reserved":false,"is_disabled":false,"rental_uris":{"android":"levelo://app?vid=d112ea74-bb96-494a-9d04-5a3bbd7e3025","ios":"levelo://app?vid=d112ea74-bb96-494a-9d04-5a3bbd7e3025"},"vehicle_type_id":"4","last_reported":1693645561,"current_range_meters":0,"station_id":"ce4bgh92rcd13ifvqb50","pricing_plan_id":"free"},{"bike_id":"0565dd35-884a-45b7-aa9c-6282c344889b","system_id":"levelo_inurba_marseille","lat":43.296277,"lon":5.377108,"is_reserved":false,"is_disabled":false,"rental_uris":{"android":"levelo://app?vid=0565dd35-884a-45b7-aa9c-6282c344889b","ios":"levelo://app?vid=0565dd35-884a-45b7-aa9c-6282c344889b"},"vehicle_type_id":"4","last_reported":1693645561,"current_range_meters":6400,"station_id":"ce4bgi92rcd13ifvqb90","pricing_plan_id":"free"},{"bike_id":"32820dac-0f25-4222-b37a-c51154190a1a","system_id":"levelo_inurba_marseille","lat":43.295748,"lon":5.37522,"is_reserved":false,"is_disabled":false,"rental_uris":{"android":"levelo://app?vid=32820dac-0f25-4222-b37a-c51154190a1a","ios":"levelo://app?vid=32820dac-0f25-4222-b37a-c51154190a1a"},"vehicle_type_id":"4","last_reported":1693645561,"current_range_meters":18400,"station_id":"ce4bgh92rcd13ifvqb50","pricing_plan_id":"free"},{"bike_id":"f7008e85-008a-40d1-bc7b-1b4647e36978","system_id":"levelo_inurba_marseille","lat":43.295748,"lon":5.37522,"is_reserved":false,"is_disabled":false,"rental_uris":{"android":"levelo://app?vid=f7008e85-008a-40d1-bc7b-1b4647e36978","ios":"levelo://app?vid=f7008e85-008a-40d1-bc7b-1b4647e36978"},"vehicle_type_id":"4","last_reported":1693645561,"current_range_meters":29200,"station_id":"ce4bgh92rcd13ifvqb50","pricing_plan_id":"free"},{"bike_id":"f7636694-d23b-4427-92c1-ebb02b5fce93","system_id":"levelo_inurba_marseille","lat":43.295279,"lon":5.375048,"is_reserved":false,"is_disabled":false,"rental_uris":{"android":"levelo://app?vid=f7636694-d23b-4427-92c1-ebb02b5fce93","ios":"levelo://app?vid=f7636694-d23b-4427-92c1-ebb02b5fce93"},"vehicle_type_id":"4","last_reported":1693645561,"current_range_meters":31200,"station_id":"ce4bgkp2rcd13ifvqbmg","pricing_plan_id":"free"},{"bike_id":"a3c4d14f-2b21-4746-bfb3-4a72c53e5335","system_id":"levelo_inurba_marseille","lat":43.295279,"lon":5.375048,"is_reserved":false,"is_disabled":false,"rental_uris":{"android":"levelo://app?vid=a3c4d14f-2b21-4746-bfb3-4a72c53e5335","ios":"levelo://app?vid=a3c4d14f-2b21-4746-bfb3-4a72c53e5335"},"vehicle_type_id":"4","last_reported":1693645561,"current_range_meters":26800,"station_id":"ce4bgkp2rcd13ifvqbmg","pricing_plan_id":"free"},{"bike_id":"603d1c98-d82b-485d-94fd-5a3f3accdc03","system_id":"levelo_inurba_marseille","lat":43.295279,"lon":5.375048,"is_reserved":false,"is_disabled":false,"rental_uris":{"android":"levelo://app?vid=603d1c98-d82b-485d-94fd-5a3f3accdc03","ios":"levelo://app?vid=603d1c98-d82b-485d-94fd-5a3f3accdc03"},"vehicle_type_id":"4","last_reported":1693645561,"current_range_meters":28400,"station_id":"ce4bgkp2rcd13ifvqbmg","pricing_plan_id":"free"},{"bike_id":"5ee953b6-9e0a-4223-968e-3d86e267bf64","system_id":"levelo_inurba_marseille","lat":43.295279,"lon":5.375048,"is_reserved":false,"is_disabled":false,"rental_uris":{"android":"levelo://app?vid=5ee953b6-9e0a-4223-968e-3d86e267bf64","ios":"levelo://app?vid=5ee953b6-9e0a-4223-968e-3d86e267bf64"},"vehicle_type_id":"4","last_reported":1693645561,"current_range_meters":25200,"station_id":"ce4bgkp2rcd13ifvqbmg","pricing_plan_id":"free"},{"bike_id":"97173fa7-7764-422f-beb5-d8c2d9040046","system_id":"levelo_inurba_marseille","lat":43.299717,"lon":5.384845,"is_reserved":false,"is_disabled":false,"rental_uris":{"android":"levelo://app?vid=97173fa7-7764-422f-beb5-d8c2d9040046","ios":"levelo://app?vid=97173fa7-7764-422f-beb5-d8c2d9040046"},"vehicle_type_id":"4","last_reported":1693645561,"current_range_meters":19600,"station_id":"ce4bgj92rcd13ifvqbd0","pricing_plan_id":"free"},{"bike_id":"fee14877-1faf-490e-afc8-be288fcb55c9","system_id":"levelo_inurba_marseille","lat":43.295279,"lon":5.375048,"is_reserved":false,"is_disabled":false,"rental_uris":{"android":"levelo://app?vid=fee14877-1faf-490e-afc8-be288fcb55c9","ios":"levelo://app?vid=fee14877-1faf-490e-afc8-be288fcb55c9"},"vehicle_type_id":"4","last_reported":1693645561,"current_range_meters":22400,"station_id":"ce4bgkp2rcd13ifvqbmg","pricing_plan_id":"free"},{"bike_id":"9180c84f-0f25-4355-8dec-d34711128242","system_id":"levelo_inurba_marseille","lat":43.32363,"lon":5.38875,"is_reserved":false,"is_disabled":false,"rental_uris":{"android":"levelo://app?vid=9180c84f-0f25-4355-8dec-d34711128242","ios":"levelo://app?vid=9180c84f-0f25-4355-8dec-d34711128242"},"vehicle_type_id":"4","last_reported":1693645561,"current_range_meters":21600,"station_id":"ce4bhqp2rcd13ifvqhog","pricing_plan_id":"free"},{"bike_id":"75dd2d9b-e11c-4209-90bf-8c81a9698c47","system_id":"levelo_inurba_marseille","lat":43.32363,"lon":5.38875,"is_reserved":false,"is_disabled":false,"rental_uris":{"android":"levelo://app?vid=75dd2d9b-e11c-4209-90bf-8c81a9698c47","ios":"levelo://app?vid=75dd2d9b-e11c-4209-90bf-8c81a9698c47"},"vehicle_type_id":"4","last_reported":1693645561,"current_range_meters":28000,"station_id":"ce4bhqp2rcd13ifvqhog","pricing_plan_id":"free"},{"bike_id":"66f9b899-9afc-428f-834e-64755a969a1b","system_id":"levelo_inurba_marseille","lat":43.32362,"lon":5.38879,"is_reserved":false,"is_disabled":false,"rental_uris":{"android":"levelo://app?vid=66f9b899-9afc-428f-834e-64755a969a1b","ios":"levelo://app?vid=66f9b899-9afc-428f-834e-64755a969a1b"},"vehicle_type_id":"4","last_reported":1693645561,"current_range_meters":21600,"station_id":"ce4bhqp2rcd13ifvqhog","pricing_plan_id":"free"},{"bike_id":"8181e861-4f28-43e6-b352-b668aa565979","system_id":"levelo_inurba_marseille","lat":43.32361,"lon":5.38881,"is_reserved":false,"is_disabled":false,"rental_uris":{"android":"levelo://app?vid=8181e861-4f28-43e6-b352-b668aa565979","ios":"levelo://app?vid=8181e861-4f28-43e6-b352-b668aa565979"},"vehicle_type_id":"4","last_reported":1693645561,"current_range_meters":27600,"station_id":"ce4bhqp2rcd13ifvqhog","pricing_plan_id":"free"},{"bike_id":"df89e0ad-9ac5-4d8c-9181-83c1d4b49783","system_id":"levelo_inurba_marseille","lat":43.32367,"lon":5.388836,"is_reserved":false,"is_disabled":false,"rental_uris":{"android":"levelo://app?vid=df89e0ad-9ac5-4d8c-9181-83c1d4b49783","ios":"levelo://app?vid=df89e0ad-9ac5-4d8c-9181-83c1d4b49783"},"vehicle_type_id":"4","last_reported":1693645561,"current_range_meters":15600,"station_id":"ce4bhqp2rcd13ifvqhog","pricing_plan_id":"free"},{"bike_id":"04f31de1-a848-4881-bad0-807b42e86222","system_id":"levelo_inurba_marseille","lat":43.32366,"lon":5.38879,"is_reserved":false,"is_disabled":false,"rental_uris":{"android":"levelo://app?vid=04f31de1-a848-4881-bad0-807b42e86222","ios":"levelo://app?vid=04f31de1-a848-4881-bad0-807b42e86222"},"vehicle_type_id":"4","last_reported":1693645561,"current_range_meters":2800,"station_id":"ce4bhqp2rcd13ifvqhog","pricing_plan_id":"free"},{"bike_id":"ff25b2c0-9288-4710-aefe-153e38ec535b","system_id":"levelo_inurba_marseille","lat":43.32364,"lon":5.38882,"is_reserved":false,"is_disabled":false,"rental_uris":{"android":"levelo://app?vid=ff25b2c0-9288-4710-aefe-153e38ec535b","ios":"levelo://app?vid=ff25b2c0-9288-4710-aefe-153e38ec535b"},"vehicle_type_id":"4","last_reported":1693645561,"current_range_meters":18800,"station_id":"ce4bhqp2rcd13ifvqhog","pricing_plan_id":"free"},{"bike_id":"04bd86b5-0561-4cf7-b54e-88dfd8a933b3","system_id":"levelo_inurba_marseille","lat":43.32364,"lon":5.38883,"is_reserved":false,"is_disabled":false,"rental_uris":{"android":"levelo://app?vid=04bd86b5-0561-4cf7-b54e-88dfd8a933b3","ios":"levelo://app?vid=04bd86b5-0561-4cf7-b54e-88dfd8a933b3"},"vehicle_type_id":"4","last_reported":1693645561,"current_range_meters":27600,"station_id":"ce4bhqp2rcd13ifvqhog","pricing_plan_id":"free"},{"bike_id":"d1b6c76b-72f9-4ed2-9124-7ec62e1f65b7","system_id":"levelo_inurba_marseille","lat":43.32361,"lon":5.38886,"is_reserved":false,"is_disabled":false,"rental_uris":{"android":"levelo://app?vid=d1b6c76b-72f9-4ed2-9124-7ec62e1f65b7","ios":"levelo://app?vid=d1b6c76b-72f9-4ed2-9124-7ec62e1f65b7"},"vehicle_type_id":"4","last_reported":1693645561,"current_range_meters":4400,"station_id":"ce4bhqp2rcd13ifvqhog","pricing_plan_id":"free"},{"bike_id":"982e8d03-ab6f-4922-8981-759d28ba6ba2","system_id":"levelo_inurba_marseille","lat":43.32361,"lon":5.38887,"is_reserved":false,"is_disabled":false,"rental_uris":{"android":"levelo://app?vid=982e8d03-ab6f-4922-8981-759d28ba6ba2","ios":"levelo://app?vid=982e8d03-ab6f-4922-8981-759d28ba6ba2"},"vehicle_type_id":"4","last_reported":1693645561,"current_range_meters":0,"station_id":"ce4bhqp2rcd13ifvqhog","pricing_plan_id":"free"},{"bike_id":"899db4cf-53c9-490f-9588-c2dabe0e6d13","system_id":"levelo_inurba_marseille","lat":43.32369,"lon":5.38881,"is_reserved":false,"is_disabled":false,"rental_uris":{"android":"levelo://app?vid=899db4cf-53c9-490f-9588-c2dabe0e6d13","ios":"levelo://app?vid=899db4cf-53c9-490f-9588-c2dabe0e6d13"},"vehicle_type_id":"4","last_reported":1693645561,"current_range_meters":2800,"station_id":"ce4bhqp2rcd13ifvqhog","pricing_plan_id":"free"},{"bike_id":"04fb0b55-eca4-4523-9030-6f57805ceb21","system_id":"levelo_inurba_marseille","lat":43.29602,"lon":5.381084,"is_reserved":false,"is_disabled":false,"rental_uris":{"android":"levelo://app?vid=04fb0b55-eca4-4523-9030-6f57805ceb21","ios":"levelo://app?vid=04fb0b55-eca4-4523-9030-6f57805ceb21"},"vehicle_type_id":"4","last_reported":1693645561,"current_range_meters":28000,"station_id":"ce4bgl12rcd13ifvqbo0","pricing_plan_id":"free"},{"bike_id":"914582d8-3637-482a-acba-fa0c03d87b28","system_id":"levelo_inurba_marseille","lat":43.29312,"lon":5.37157,"is_reserved":false,"is_disabled":false,"rental_uris":{"android":"levelo://app?vid=914582d8-3637-482a-acba-fa0c03d87b28","ios":"levelo://app?vid=914582d8-3637-482a-acba-fa0c03d87b28"},"vehicle_type_id":"4","last_reported":1693645561,"current_range_meters":29200,"station_id":"ce4bgh92rcd13ifvqb40","pricing_plan_id":"free"},{"bike_id":"d202f2d5-0134-48c7-b4e9-c45211d807bd","system_id":"levelo_inurba_marseille","lat":43.2931,"lon":5.37178,"is_reserved":false,"is_disabled":false,"rental_uris":{"android":"levelo://app?vid=d202f2d5-0134-48c7-b4e9-c45211d807bd","ios":"levelo://app?vid=d202f2d5-0134-48c7-b4e9-c45211d807bd"},"vehicle_type_id":"4","last_reported":1693645561,"current_range_meters":11200,"station_id":"ce4bgh92rcd13ifvqb40","pricing_plan_id":"free"},{"bike_id":"9a6f7f92-2849-4c76-9cab-bdbf6fda7632","system_id":"levelo_inurba_marseille","lat":43.29308,"lon":5.3718,"is_reserved":false,"is_disabled":false,"rental_uris":{"android":"levelo://app?vid=9a6f7f92-2849-4c76-9cab-bdbf6fda7632","ios":"levelo://app?vid=9a6f7f92-2849-4c76-9cab-bdbf6fda7632"},"vehicle_type_id":"4","last_reported":1693645561,"current_range_meters":17600,"station_id":"ce4bgh92rcd13ifvqb40","pricing_plan_id":"free"},{"bike_id":"1b7b0043-4b37-4764-b4ee-9d07518d0346","system_id":"levelo_inurba_marseille","lat":43.29308,"lon":5.37181,"is_reserved":false,"is_disabled":false,"rental_uris":{"android":"levelo://app?vid=1b7b0043-4b37-4764-b4ee-9d07518d0346","ios":"levelo://app?vid=1b7b0043-4b37-4764-b4ee-9d07518d0346"},"vehicle_type_id":"4","last_reported":1693645561,"current_range_meters":21600,"station_id":"ce4bgh92rcd13ifvqb40","pricing_plan_id":"free"},{"bike_id":"69552ebd-52fd-412c-85c6-b602dd4b000d","system_id":"levelo_inurba_marseille","lat":43.29307,"lon":5.37175,"is_reserved":false,"is_disabled":false,"rental_uris":{"android":"levelo://app?vid=69552ebd-52fd-412c-85c6-b602dd4b000d","ios":"levelo://app?vid=69552ebd-52fd-412c-85c6-b602dd4b000d"},"vehicle_type_id":"4","last_reported":1693645561,"current_range_meters":7200,"station_id":"ce4bgh92rcd13ifvqb40","pricing_plan_id":"free"},{"bike_id":"530c4e5f-c44d-4f20-8ae0-be54d3602dd3","system_id":"levelo_inurba_marseille","lat":43.292749,"lon":5.368402,"is_reserved":false,"is_disabled":false,"rental_uris":{"android":"levelo://app?vid=530c4e5f-c44d-4f20-8ae0-be54d3602dd3","ios":"levelo://app?vid=530c4e5f-c44d-4f20-8ae0-be54d3602dd3"},"vehicle_type_id":"4","last_reported":1693645561,"current_range_meters":20400,"station_id":"ce4bhbp2rcd13ifvqesg","pricing_plan_id":"free"},{"bike_id":"209e4d1c-b8bc-46e5-a034-d6f27bebc562","system_id":"levelo_inurba_marseille","lat":43.29306,"lon":5.3717,"is_reserved":false,"is_disabled":false,"rental_uris":{"android":"levelo://app?vid=209e4d1c-b8bc-46e5-a034-d6f27bebc562","ios":"levelo://app?vid=209e4d1c-b8bc-46e5-a034-d6f27bebc562"},"vehicle_type_id":"4","last_reported":1693645561,"current_range_meters":6800,"station_id":"ce4bgh92rcd13ifvqb40","pricing_plan_id":"free"},{"bike_id":"8ff6dce7-e7b1-4feb-a44a-43bdb9aefda7","system_id":"levelo_inurba_marseille","lat":43.29278,"lon":5.36841,"is_reserved":false,"is_disabled":false,"rental_uris":{"android":"levelo://app?vid=8ff6dce7-e7b1-4feb-a44a-43bdb9aefda7","ios":"levelo://app?vid=8ff6dce7-e7b1-4feb-a44a-43bdb9aefda7"},"vehicle_type_id":"4","last_reported":1693645561,"current_range_meters":27600,"station_id":"ce4bhbp2rcd13ifvqesg","pricing_plan_id":"free"},{"bike_id":"e585bbf7-1399-42b2-9e2c-ed673167b551","system_id":"levelo_inurba_marseille","lat":43.292749,"lon":5.368402,"is_reserved":false,"is_disabled":false,"rental_uris":{"android":"levelo://app?vid=e585bbf7-1399-42b2-9e2c-ed673167b551","ios":"levelo://app?vid=e585bbf7-1399-42b2-9e2c-ed673167b551"},"vehicle_type_id":"4","last_reported":1693645561,"current_range_meters":23200,"station_id":"ce4bhbp2rcd13ifvqesg","pricing_plan_id":"free"},{"bike_id":"9f616d29-16c8-4b37-ab38-d20afc65a261","system_id":"levelo_inurba_marseille","lat":43.29278,"lon":5.36848,"is_reserved":false,"is_disabled":false,"rental_uris":{"android":"levelo://app?vid=9f616d29-16c8-4b37-ab38-d20afc65a261","ios":"levelo://app?vid=9f616d29-16c8-4b37-ab38-d20afc65a261"},"vehicle_type_id":"4","last_reported":1693645561,"current_range_meters":26000,"station_id":"ce4bhbp2rcd13ifvqesg","pricing_plan_id":"free"},{"bike_id":"07bec1ce-a58f-411d-ade6-7e115a34f816","system_id":"levelo_inurba_marseille","lat":43.29277,"lon":5.36844,"is_reserved":false,"is_disabled":false,"rental_uris":{"android":"levelo://app?vid=07bec1ce-a58f-411d-ade6-7e115a34f816","ios":"levelo://app?vid=07bec1ce-a58f-411d-ade6-7e115a34f816"},"vehicle_type_id":"4","last_reported":1693645561,"current_range_meters":23600,"station_id":"ce4bhbp2rcd13ifvqesg","pricing_plan_id":"free"},{"bike_id":"d747e5bf-10b9-4421-9cdc-70e707299c7b","system_id":"levelo_inurba_marseille","lat":43.29276,"lon":5.36842,"is_reserved":false,"is_disabled":false,"rental_uris":{"android":"levelo://app?vid=d747e5bf-10b9-4421-9cdc-70e707299c7b","ios":"levelo://app?vid=d747e5bf-10b9-4421-9cdc-70e707299c7b"},"vehicle_type_id":"4","last_reported":1693645561,"current_range_meters":24400,"station_id":"ce4bhbp2rcd13ifvqesg","pricing_plan_id":"free"},{"bike_id":"362c4735-917e-43e6-8216-c30419076652","system_id":"levelo_inurba_marseille","lat":43.29276,"lon":5.36845,"is_reserved":false,"is_disabled":false,"rental_uris":{"android":"levelo://app?vid=362c4735-917e-43e6-8216-c30419076652","ios":"levelo://app?vid=362c4735-917e-43e6-8216-c30419076652"},"vehicle_type_id":"4","last_reported":1693645561,"current_range_meters":16400,"station_id":"ce4bhbp2rcd13ifvqesg","pricing_plan_id":"free"},{"bike_id":"f6f59d06-8882-4e86-9b3e-fd52236ed8c8","system_id":"levelo_inurba_marseille","lat":43.29275,"lon":5.36838,"is_reserved":false,"is_disabled":false,"rental_uris":{"android":"levelo://app?vid=f6f59d06-8882-4e86-9b3e-fd52236ed8c8","ios":"levelo://app?vid=f6f59d06-8882-4e86-9b3e-fd52236ed8c8"},"vehicle_type_id":"4","last_reported":1693645561,"current_range_meters":22000,"station_id":"ce4bhbp2rcd13ifvqesg","pricing_plan_id":"free"},{"bike_id":"51dac959-8b72-4803-9681-766763cc1532","system_id":"levelo_inurba_marseille","lat":43.29304,"lon":5.37182,"is_reserved":false,"is_disabled":false,"rental_uris":{"android":"levelo://app?vid=51dac959-8b72-4803-9681-766763cc1532","ios":"levelo://app?vid=51dac959-8b72-4803-9681-766763cc1532"},"vehicle_type_id":"4","last_reported":1693645561,"current_range_meters":7600,"station_id":"ce4bgh92rcd13ifvqb40","pricing_plan_id":"free"},{"bike_id":"fdea147c-8b80-4ebd-9029-e254888d629c","system_id":"levelo_inurba_marseille","lat":43.29275,"lon":5.36847,"is_reserved":false,"is_disabled":false,"rental_uris":{"android":"levelo://app?vid=fdea147c-8b80-4ebd-9029-e254888d629c","ios":"levelo://app?vid=fdea147c-8b80-4ebd-9029-e254888d629c"},"vehicle_type_id":"4","last_reported":1693645561,"current_range_meters":24400,"station_id":"ce4bhbp2rcd13ifvqesg","pricing_plan_id":"free"},{"bike_id":"d8e1d3fc-9b44-488d-9288-190ac5c9f806","system_id":"levelo_inurba_marseille","lat":43.29297,"lon":5.37163,"is_reserved":false,"is_disabled":false,"rental_uris":{"android":"levelo://app?vid=d8e1d3fc-9b44-488d-9288-190ac5c9f806","ios":"levelo://app?vid=d8e1d3fc-9b44-488d-9288-190ac5c9f806"},"vehicle_type_id":"4","last_reported":1693645561,"current_range_meters":24000,"station_id":"ce4bgh92rcd13ifvqb40","pricing_plan_id":"free"},{"bike_id":"af378848-4ab5-4a0c-a75c-c290cd6c3483","system_id":"levelo_inurba_marseille","lat":43.32459,"lon":5.38946,"is_reserved":false,"is_disabled":false,"rental_uris":{"android":"levelo://app?vid=af378848-4ab5-4a0c-a75c-c290cd6c3483","ios":"levelo://app?vid=af378848-4ab5-4a0c-a75c-c290cd6c3483"},"vehicle_type_id":"4","last_reported":1693645561,"current_range_meters":0,"station_id":"","pricing_plan_id":"free"},{"bike_id":"815dbd24-9e7a-4670-af71-866572f15105","system_id":"levelo_inurba_marseille","lat":43.293009,"lon":5.374584,"is_reserved":false,"is_disabled":false,"rental_uris":{"android":"levelo://app?vid=815dbd24-9e7a-4670-af71-866572f15105","ios":"levelo://app?vid=815dbd24-9e7a-4670-af71-866572f15105"},"vehicle_type_id":"4","last_reported":1693645561,"current_range_meters":27600,"station_id":"ce4bgi12rcd13ifvqb70","pricing_plan_id":"free"},{"bike_id":"3db47a94-d11b-4a53-9961-e3a2da34e556","system_id":"levelo_inurba_marseille","lat":43.305994,"lon":5.393687,"is_reserved":false,"is_disabled":false,"rental_uris":{"android":"levelo://app?vid=3db47a94-d11b-4a53-9961-e3a2da34e556","ios":"levelo://app?vid=3db47a94-d11b-4a53-9961-e3a2da34e556"},"vehicle_type_id":"4","last_reported":1693645561,"current_range_meters":10400,"station_id":"ce4bh0p2rcd13ifvqd80","pricing_plan_id":"free"},{"bike_id":"7ef30387-dee8-4fc5-add3-10e167f4b540","system_id":"levelo_inurba_marseille","lat":43.29294,"lon":5.37454,"is_reserved":false,"is_disabled":false,"rental_uris":{"android":"levelo://app?vid=7ef30387-dee8-4fc5-add3-10e167f4b540","ios":"levelo://app?vid=7ef30387-dee8-4fc5-add3-10e167f4b540"},"vehicle_type_id":"4","last_reported":1693645561,"current_range_meters":30800,"station_id":"","pricing_plan_id":"free"},{"bike_id":"004e6546-11a2-474a-8dcb-e5af29791ed5","system_id":"levelo_inurba_marseille","lat":43.293009,"lon":5.374584,"is_reserved":false,"is_disabled":false,"rental_uris":{"android":"levelo://app?vid=004e6546-11a2-474a-8dcb-e5af29791ed5","ios":"levelo://app?vid=004e6546-11a2-474a-8dcb-e5af29791ed5"},"vehicle_type_id":"4","last_reported":1693645561,"current_range_meters":18000,"station_id":"ce4bgi12rcd13ifvqb70","pricing_plan_id":"free"},{"bike_id":"91f8da76-05e1-41d0-b9e9-08b543b01244","system_id":"levelo_inurba_marseille","lat":43.293009,"lon":5.374584,"is_reserved":false,"is_disabled":false,"rental_uris":{"android":"levelo://app?vid=91f8da76-05e1-41d0-b9e9-08b543b01244","ios":"levelo://app?vid=91f8da76-05e1-41d0-b9e9-08b543b01244"},"vehicle_type_id":"4","last_reported":1693645561,"current_range_meters":28400,"station_id":"ce4bgi12rcd13ifvqb70","pricing_plan_id":"free"},{"bike_id":"7155b85d-c582-4a75-bd2d-9d9ccae1a2a0","system_id":"levelo_inurba_marseille","lat":43.293009,"lon":5.374584,"is_reserved":false,"is_disabled":false,"rental_uris":{"android":"levelo://app?vid=7155b85d-c582-4a75-bd2d-9d9ccae1a2a0","ios":"levelo://app?vid=7155b85d-c582-4a75-bd2d-9d9ccae1a2a0"},"vehicle_type_id":"4","last_reported":1693645561,"current_range_meters":29200,"station_id":"ce4bgi12rcd13ifvqb70","pricing_plan_id":"free"},{"bike_id":"0724f352-a262-45b7-9b71-9a09ff17d945","system_id":"levelo_inurba_marseille","lat":43.302992,"lon":5.392136,"is_reserved":false,"is_disabled":false,"rental_uris":{"android":"levelo://app?vid=0724f352-a262-45b7-9b71-9a09ff17d945","ios":"levelo://app?vid=0724f352-a262-45b7-9b71-9a09ff17d945"},"vehicle_type_id":"4","last_reported":1693645561,"current_range_meters":23200,"station_id":"ce4bgkh2rcd13ifvqbk0","pricing_plan_id":"free"},{"bike_id":"38fef587-7cc5-4800-b069-87b8f296a10a","system_id":"levelo_inurba_marseille","lat":43.30289,"lon":5.39206,"is_reserved":false,"is_disabled":false,"rental_uris":{"android":"levelo://app?vid=38fef587-7cc5-4800-b069-87b8f296a10a","ios":"levelo://app?vid=38fef587-7cc5-4800-b069-87b8f296a10a"},"vehicle_type_id":"4","last_reported":1693645561,"current_range_meters":20800,"station_id":"ce4bgkh2rcd13ifvqbk0","pricing_plan_id":"free"},{"bike_id":"59d4a7cc-c4d8-47e1-a63f-2e26b5d209c3","system_id":"levelo_inurba_marseille","lat":43.2936,"lon":5.37835,"is_reserved":false,"is_disabled":false,"rental_uris":{"android":"levelo://app?vid=59d4a7cc-c4d8-47e1-a63f-2e26b5d209c3","ios":"levelo://app?vid=59d4a7cc-c4d8-47e1-a63f-2e26b5d209c3"},"vehicle_type_id":"4","last_reported":1693645561,"current_range_meters":30400,"station_id":"ce4bgjh2rcd13ifvqbf0","pricing_plan_id":"free"},{"bike_id":"240d4142-ef01-42b5-8f7d-208491dbf36a","system_id":"levelo_inurba_marseille","lat":43.30293,"lon":5.39215,"is_reserved":false,"is_disabled":false,"rental_uris":{"android":"levelo://app?vid=240d4142-ef01-42b5-8f7d-208491dbf36a","ios":"levelo://app?vid=240d4142-ef01-42b5-8f7d-208491dbf36a"},"vehicle_type_id":"4","last_reported":1693645561,"current_range_meters":0,"station_id":"ce4bgkh2rcd13ifvqbk0","pricing_plan_id":"free"},{"bike_id":"7fdd63cf-3a11-4415-ae6f-373a83be2158","system_id":"levelo_inurba_marseille","lat":43.293336,"lon":5.355826,"is_reserved":false,"is_disabled":false,"rental_uris":{"android":"levelo://app?vid=7fdd63cf-3a11-4415-ae6f-373a83be2158","ios":"levelo://app?vid=7fdd63cf-3a11-4415-ae6f-373a83be2158"},"vehicle_type_id":"4","last_reported":1693645561,"current_range_meters":23600,"station_id":"ce4bhb12rcd13ifvqel0","pricing_plan_id":"free"},{"bike_id":"cfab151b-fa48-494c-aaea-a93973a80913","system_id":"levelo_inurba_marseille","lat":43.292311,"lon":5.360731,"is_reserved":false,"is_disabled":false,"rental_uris":{"android":"levelo://app?vid=cfab151b-fa48-494c-aaea-a93973a80913","ios":"levelo://app?vid=cfab151b-fa48-494c-aaea-a93973a80913"},"vehicle_type_id":"4","last_reported":1693645561,"current_range_meters":18800,"station_id":"ce4bhbh2rcd13ifvqeqg","pricing_plan_id":"free"},{"bike_id":"5684c08e-fc7a-418a-be77-537ffe50f81a","system_id":"levelo_inurba_marseille","lat":43.292663,"lon":5.376389,"is_reserved":false,"is_disabled":false,"rental_uris":{"android":"levelo://app?vid=5684c08e-fc7a-418a-be77-537ffe50f81a","ios":"levelo://app?vid=5684c08e-fc7a-418a-be77-537ffe50f81a"},"vehicle_type_id":"4","last_reported":1693645561,"current_range_meters":31600,"station_id":"ce4bgi12rcd13ifvqb80","pricing_plan_id":"free"},{"bike_id":"e3f80c20-ca6e-471e-9a65-cc3314320e9c","system_id":"levelo_inurba_marseille","lat":43.292663,"lon":5.376389,"is_reserved":false,"is_disabled":false,"rental_uris":{"android":"levelo://app?vid=e3f80c20-ca6e-471e-9a65-cc3314320e9c","ios":"levelo://app?vid=e3f80c20-ca6e-471e-9a65-cc3314320e9c"},"vehicle_type_id":"4","last_reported":1693645561,"current_range_meters":31600,"station_id":"ce4bgi12rcd13ifvqb80","pricing_plan_id":"free"},{"bike_id":"5fdfec97-3448-472d-9a89-952b0716edc0","system_id":"levelo_inurba_marseille","lat":43.292663,"lon":5.376389,"is_reserved":false,"is_disabled":false,"rental_uris":{"android":"levelo://app?vid=5fdfec97-3448-472d-9a89-952b0716edc0","ios":"levelo://app?vid=5fdfec97-3448-472d-9a89-952b0716edc0"},"vehicle_type_id":"4","last_reported":1693645561,"current_range_meters":20000,"station_id":"ce4bgi12rcd13ifvqb80","pricing_plan_id":"free"},{"bike_id":"f7083fd5-efe5-48a2-b680-64c8430a0774","system_id":"levelo_inurba_marseille","lat":43.29176,"lon":5.37143,"is_reserved":false,"is_disabled":false,"rental_uris":{"android":"levelo://app?vid=f7083fd5-efe5-48a2-b680-64c8430a0774","ios":"levelo://app?vid=f7083fd5-efe5-48a2-b680-64c8430a0774"},"vehicle_type_id":"4","last_reported":1693645561,"current_range_meters":20000,"station_id":"ce4bha92rcd13ifvqeh0","pricing_plan_id":"free"},{"bike_id":"199ac740-afb2-4ecb-9e06-e9b3e7d6b1e7","system_id":"levelo_inurba_marseille","lat":43.292663,"lon":5.376389,"is_reserved":false,"is_disabled":false,"rental_uris":{"android":"levelo://app?vid=199ac740-afb2-4ecb-9e06-e9b3e7d6b1e7","ios":"levelo://app?vid=199ac740-afb2-4ecb-9e06-e9b3e7d6b1e7"},"vehicle_type_id":"4","last_reported":1693645561,"current_range_meters":32000,"station_id":"ce4bgi12rcd13ifvqb80","pricing_plan_id":"free"},{"bike_id":"d7b1f32d-b69d-4627-8b90-652fff125e59","system_id":"levelo_inurba_marseille","lat":43.291671,"lon":5.371575,"is_reserved":false,"is_disabled":false,"rental_uris":{"android":"levelo://app?vid=d7b1f32d-b69d-4627-8b90-652fff125e59","ios":"levelo://app?vid=d7b1f32d-b69d-4627-8b90-652fff125e59"},"vehicle_type_id":"4","last_reported":1693645561,"current_range_meters":18000,"station_id":"ce4bha92rcd13ifvqeh0","pricing_plan_id":"free"},{"bike_id":"b127cb02-a67f-4944-955b-2653cb69db42","system_id":"levelo_inurba_marseille","lat":43.29142,"lon":5.36689,"is_reserved":false,"is_disabled":false,"rental_uris":{"android":"levelo://app?vid=b127cb02-a67f-4944-955b-2653cb69db42","ios":"levelo://app?vid=b127cb02-a67f-4944-955b-2653cb69db42"},"vehicle_type_id":"4","last_reported":1693645561,"current_range_meters":22400,"station_id":"ce4bhc92rcd13ifvqetg","pricing_plan_id":"free"},{"bike_id":"93a784d8-293f-4132-a8d1-7ed104c0db94","system_id":"levelo_inurba_marseille","lat":43.291675,"lon":5.371583,"is_reserved":false,"is_disabled":false,"rental_uris":{"android":"levelo://app?vid=93a784d8-293f-4132-a8d1-7ed104c0db94","ios":"levelo://app?vid=93a784d8-293f-4132-a8d1-7ed104c0db94"},"vehicle_type_id":"4","last_reported":1693645561,"current_range_meters":19200,"station_id":"ce4bha92rcd13ifvqeh0","pricing_plan_id":"free"},{"bike_id":"301a5efd-f386-488b-a3f7-4b36d298ca26","system_id":"levelo_inurba_marseille","lat":43.292663,"lon":5.376389,"is_reserved":false,"is_disabled":false,"rental_uris":{"android":"levelo://app?vid=301a5efd-f386-488b-a3f7-4b36d298ca26","ios":"levelo://app?vid=301a5efd-f386-488b-a3f7-4b36d298ca26"},"vehicle_type_id":"4","last_reported":1693645561,"current_range_meters":30800,"station_id":"ce4bgi12rcd13ifvqb80","pricing_plan_id":"free"},{"bike_id":"ae8b89c4-822a-4c27-9ea0-e4ed931d8d32","system_id":"levelo_inurba_marseille","lat":43.30897,"lon":5.3963,"is_reserved":false,"is_disabled":false,"rental_uris":{"android":"levelo://app?vid=ae8b89c4-822a-4c27-9ea0-e4ed931d8d32","ios":"levelo://app?vid=ae8b89c4-822a-4c27-9ea0-e4ed931d8d32"},"vehicle_type_id":"4","last_reported":1693645561,"current_range_meters":5600,"station_id":"ce4bh012rcd13ifvqcv0","pricing_plan_id":"free"},{"bike_id":"ac8353a9-a056-4905-a30f-e33c160fd190","system_id":"levelo_inurba_marseille","lat":43.309038,"lon":5.396546,"is_reserved":false,"is_disabled":false,"rental_uris":{"android":"levelo://app?vid=ac8353a9-a056-4905-a30f-e33c160fd190","ios":"levelo://app?vid=ac8353a9-a056-4905-a30f-e33c160fd190"},"vehicle_type_id":"4","last_reported":1693645561,"current_range_meters":28800,"station_id":"ce4bh012rcd13ifvqcv0","pricing_plan_id":"free"},{"bike_id":"9b1474c0-783e-4960-a86d-edf7653df8fe","system_id":"levelo_inurba_marseille","lat":43.29202,"lon":5.3579,"is_reserved":false,"is_disabled":false,"rental_uris":{"android":"levelo://app?vid=9b1474c0-783e-4960-a86d-edf7653df8fe","ios":"levelo://app?vid=9b1474c0-783e-4960-a86d-edf7653df8fe"},"vehicle_type_id":"4","last_reported":1693645561,"current_range_meters":6800,"station_id":"ce4bhb12rcd13ifvqel0","pricing_plan_id":"free"},{"bike_id":"803260df-5b57-4fba-ac16-815015929b11","system_id":"levelo_inurba_marseille","lat":43.309038,"lon":5.396546,"is_reserved":false,"is_disabled":false,"rental_uris":{"android":"levelo://app?vid=803260df-5b57-4fba-ac16-815015929b11","ios":"levelo://app?vid=803260df-5b57-4fba-ac16-815015929b11"},"vehicle_type_id":"4","last_reported":1693645561,"current_range_meters":29600,"station_id":"ce4bh012rcd13ifvqcv0","pricing_plan_id":"free"},{"bike_id":"06744e85-b10d-4017-8f88-6d08511da424","system_id":"levelo_inurba_marseille","lat":43.30894,"lon":5.39637,"is_reserved":false,"is_disabled":false,"rental_uris":{"android":"levelo://app?vid=06744e85-b10d-4017-8f88-6d08511da424","ios":"levelo://app?vid=06744e85-b10d-4017-8f88-6d08511da424"},"vehicle_type_id":"4","last_reported":1693645561,"current_range_meters":21600,"station_id":"ce4bh012rcd13ifvqcv0","pricing_plan_id":"free"},{"bike_id":"43dde3a8-fde9-48a2-8baf-85e806dd0549","system_id":"levelo_inurba_marseille","lat":43.30883,"lon":5.39637,"is_reserved":false,"is_disabled":false,"rental_uris":{"android":"levelo://app?vid=43dde3a8-fde9-48a2-8baf-85e806dd0549","ios":"levelo://app?vid=43dde3a8-fde9-48a2-8baf-85e806dd0549"},"vehicle_type_id":"4","last_reported":1693645561,"current_range_meters":27600,"station_id":"ce4bh012rcd13ifvqcv0","pricing_plan_id":"free"},{"bike_id":"73c2e0c0-a939-4bc3-943a-e52094180bff","system_id":"levelo_inurba_marseille","lat":43.291994,"lon":5.357886,"is_reserved":false,"is_disabled":false,"rental_uris":{"android":"levelo://app?vid=73c2e0c0-a939-4bc3-943a-e52094180bff","ios":"levelo://app?vid=73c2e0c0-a939-4bc3-943a-e52094180bff"},"vehicle_type_id":"4","last_reported":1693645561,"current_range_meters":19200,"station_id":"ce4bhb12rcd13ifvqel0","pricing_plan_id":"free"},{"bike_id":"9a471148-0680-41e5-a6e1-bc62e3260716","system_id":"levelo_inurba_marseille","lat":43.29189,"lon":5.3579,"is_reserved":false,"is_disabled":false,"rental_uris":{"android":"levelo://app?vid=9a471148-0680-41e5-a6e1-bc62e3260716","ios":"levelo://app?vid=9a471148-0680-41e5-a6e1-bc62e3260716"},"vehicle_type_id":"4","last_reported":1693645561,"current_range_meters":23200,"station_id":"ce4bhb12rcd13ifvqel0","pricing_plan_id":"free"},{"bike_id":"9962a1ea-c826-45bf-8828-79ea60085bcb","system_id":"levelo_inurba_marseille","lat":43.30888,"lon":5.39651,"is_reserved":false,"is_disabled":false,"rental_uris":{"android":"levelo://app?vid=9962a1ea-c826-45bf-8828-79ea60085bcb","ios":"levelo://app?vid=9962a1ea-c826-45bf-8828-79ea60085bcb"},"vehicle_type_id":"4","last_reported":1693645561,"current_range_meters":16800,"station_id":"ce4bh012rcd13ifvqcv0","pricing_plan_id":"free"},{"bike_id":"ee9fda39-82ef-49cb-b68e-dc585b441c62","system_id":"levelo_inurba_marseille","lat":43.31325,"lon":5.39698,"is_reserved":false,"is_disabled":false,"rental_uris":{"android":"levelo://app?vid=ee9fda39-82ef-49cb-b68e-dc585b441c62","ios":"levelo://app?vid=ee9fda39-82ef-49cb-b68e-dc585b441c62"},"vehicle_type_id":"4","last_reported":1693645561,"current_range_meters":29200,"station_id":"ce4bgvp2rcd13ifvqcu0","pricing_plan_id":"free"},{"bike_id":"0d962e12-b732-4464-bc89-f40845207671","system_id":"levelo_inurba_marseille","lat":43.33221,"lon":5.38114,"is_reserved":false,"is_disabled":false,"rental_uris":{"android":"levelo://app?vid=0d962e12-b732-4464-bc89-f40845207671","ios":"levelo://app?vid=0d962e12-b732-4464-bc89-f40845207671"},"vehicle_type_id":"4","last_reported":1693645561,"current_range_meters":7200,"station_id":"","pricing_plan_id":"free"},{"bike_id":"4efc91a3-c45f-4b5f-b193-9f18908d6671","system_id":"levelo_inurba_marseille","lat":43.302008,"lon":5.394694,"is_reserved":false,"is_disabled":false,"rental_uris":{"android":"levelo://app?vid=4efc91a3-c45f-4b5f-b193-9f18908d6671","ios":"levelo://app?vid=4efc91a3-c45f-4b5f-b193-9f18908d6671"},"vehicle_type_id":"4","last_reported":1693645561,"current_range_meters":22800,"station_id":"ce4bh0p2rcd13ifvqd70","pricing_plan_id":"free"},{"bike_id":"49902f58-2f94-4f14-a734-c66621edeb0c","system_id":"levelo_inurba_marseille","lat":43.290624,"lon":5.359245,"is_reserved":false,"is_disabled":false,"rental_uris":{"android":"levelo://app?vid=49902f58-2f94-4f14-a734-c66621edeb0c","ios":"levelo://app?vid=49902f58-2f94-4f14-a734-c66621edeb0c"},"vehicle_type_id":"4","last_reported":1693645561,"current_range_meters":2000,"station_id":"ce4bha92rcd13ifvqeg0","pricing_plan_id":"free"},{"bike_id":"e7051171-57bb-4899-8dd7-6622ec700dd4","system_id":"levelo_inurba_marseille","lat":43.290327,"lon":5.375711,"is_reserved":false,"is_disabled":false,"rental_uris":{"android":"levelo://app?vid=e7051171-57bb-4899-8dd7-6622ec700dd4","ios":"levelo://app?vid=e7051171-57bb-4899-8dd7-6622ec700dd4"},"vehicle_type_id":"4","last_reported":1693645561,"current_range_meters":22000,"station_id":"ce4bh692rcd13ifvqe90","pricing_plan_id":"free"},{"bike_id":"96c3e610-eaf8-4e0a-b02a-e6ccc993344d","system_id":"levelo_inurba_marseille","lat":43.290327,"lon":5.375711,"is_reserved":false,"is_disabled":false,"rental_uris":{"android":"levelo://app?vid=96c3e610-eaf8-4e0a-b02a-e6ccc993344d","ios":"levelo://app?vid=96c3e610-eaf8-4e0a-b02a-e6ccc993344d"},"vehicle_type_id":"4","last_reported":1693645561,"current_range_meters":28400,"station_id":"ce4bh692rcd13ifvqe90","pricing_plan_id":"free"},{"bike_id":"5d23a368-8f0d-46bd-be91-53ddd6829868","system_id":"levelo_inurba_marseille","lat":43.290327,"lon":5.375711,"is_reserved":false,"is_disabled":false,"rental_uris":{"android":"levelo://app?vid=5d23a368-8f0d-46bd-be91-53ddd6829868","ios":"levelo://app?vid=5d23a368-8f0d-46bd-be91-53ddd6829868"},"vehicle_type_id":"4","last_reported":1693645561,"current_range_meters":18800,"station_id":"ce4bh692rcd13ifvqe90","pricing_plan_id":"free"},{"bike_id":"3cf5a6e1-89aa-4f98-a721-e55d80cab647","system_id":"levelo_inurba_marseille","lat":43.290327,"lon":5.375711,"is_reserved":false,"is_disabled":false,"rental_uris":{"android":"levelo://app?vid=3cf5a6e1-89aa-4f98-a721-e55d80cab647","ios":"levelo://app?vid=3cf5a6e1-89aa-4f98-a721-e55d80cab647"},"vehicle_type_id":"4","last_reported":1693645561,"current_range_meters":22400,"station_id":"ce4bh692rcd13ifvqe90","pricing_plan_id":"free"},{"bike_id":"07df3f8e-08e9-43c7-99ac-be82fe32d894","system_id":"levelo_inurba_marseille","lat":43.294162,"lon":5.386292,"is_reserved":false,"is_disabled":false,"rental_uris":{"android":"levelo://app?vid=07df3f8e-08e9-43c7-99ac-be82fe32d894","ios":"levelo://app?vid=07df3f8e-08e9-43c7-99ac-be82fe32d894"},"vehicle_type_id":"4","last_reported":1693645561,"current_range_meters":29200,"station_id":"ce4bh2h2rcd13ifvqdh0","pricing_plan_id":"free"},{"bike_id":"2f93318d-a393-4e93-88c9-60d3ec241b0e","system_id":"levelo_inurba_marseille","lat":43.28938,"lon":5.3664,"is_reserved":false,"is_disabled":false,"rental_uris":{"android":"levelo://app?vid=2f93318d-a393-4e93-88c9-60d3ec241b0e","ios":"levelo://app?vid=2f93318d-a393-4e93-88c9-60d3ec241b0e"},"vehicle_type_id":"4","last_reported":1693645561,"current_range_meters":31200,"station_id":"ce4bhap2rcd13ifvqek0","pricing_plan_id":"free"},{"bike_id":"d44b248b-2729-4a95-8507-d37fcddc12d4","system_id":"levelo_inurba_marseille","lat":43.289184,"lon":5.366408,"is_reserved":false,"is_disabled":false,"rental_uris":{"android":"levelo://app?vid=d44b248b-2729-4a95-8507-d37fcddc12d4","ios":"levelo://app?vid=d44b248b-2729-4a95-8507-d37fcddc12d4"},"vehicle_type_id":"4","last_reported":1693645561,"current_range_meters":23200,"station_id":"ce4bhap2rcd13ifvqek0","pricing_plan_id":"free"},{"bike_id":"fd40afdf-e566-4c3c-bfc0-9f36aba9dc16","system_id":"levelo_inurba_marseille","lat":43.289184,"lon":5.366408,"is_reserved":false,"is_disabled":false,"rental_uris":{"android":"levelo://app?vid=fd40afdf-e566-4c3c-bfc0-9f36aba9dc16","ios":"levelo://app?vid=fd40afdf-e566-4c3c-bfc0-9f36aba9dc16"},"vehicle_type_id":"4","last_reported":1693645561,"current_range_meters":30000,"station_id":"ce4bhap2rcd13ifvqek0","pricing_plan_id":"free"},{"bike_id":"65f557a9-d4fb-4c2d-91b6-1bc44a0384fa","system_id":"levelo_inurba_marseille","lat":43.292644,"lon":5.384257,"is_reserved":false,"is_disabled":false,"rental_uris":{"android":"levelo://app?vid=65f557a9-d4fb-4c2d-91b6-1bc44a0384fa","ios":"levelo://app?vid=65f557a9-d4fb-4c2d-91b6-1bc44a0384fa"},"vehicle_type_id":"4","last_reported":1693645561,"current_range_meters":27600,"station_id":"ce4bh692rcd13ifvqea0","pricing_plan_id":"free"},{"bike_id":"fc15edac-e414-412e-ab74-3489ddadbcd9","system_id":"levelo_inurba_marseille","lat":43.33041,"lon":5.38916,"is_reserved":false,"is_disabled":false,"rental_uris":{"android":"levelo://app?vid=fc15edac-e414-412e-ab74-3489ddadbcd9","ios":"levelo://app?vid=fc15edac-e414-412e-ab74-3489ddadbcd9"},"vehicle_type_id":"4","last_reported":1693645561,"current_range_meters":28400,"station_id":"ce4bhr92rcd13ifvqhrg","pricing_plan_id":"free"},{"bike_id":"d346ead7-ea15-4af0-898b-f25c067a214a","system_id":"levelo_inurba_marseille","lat":43.3304,"lon":5.38919,"is_reserved":false,"is_disabled":false,"rental_uris":{"android":"levelo://app?vid=d346ead7-ea15-4af0-898b-f25c067a214a","ios":"levelo://app?vid=d346ead7-ea15-4af0-898b-f25c067a214a"},"vehicle_type_id":"4","last_reported":1693645561,"current_range_meters":16800,"station_id":"ce4bhr92rcd13ifvqhrg","pricing_plan_id":"free"},{"bike_id":"978b0ff4-c9df-43ed-a4e7-ec9b1854c595","system_id":"levelo_inurba_marseille","lat":43.33041,"lon":5.38918,"is_reserved":false,"is_disabled":false,"rental_uris":{"android":"levelo://app?vid=978b0ff4-c9df-43ed-a4e7-ec9b1854c595","ios":"levelo://app?vid=978b0ff4-c9df-43ed-a4e7-ec9b1854c595"},"vehicle_type_id":"4","last_reported":1693645561,"current_range_meters":17200,"station_id":"ce4bhr92rcd13ifvqhrg","pricing_plan_id":"free"},{"bike_id":"8077604d-b9d4-4aae-b42f-6a79c8cc4721","system_id":"levelo_inurba_marseille","lat":43.33041,"lon":5.38918,"is_reserved":false,"is_disabled":false,"rental_uris":{"android":"levelo://app?vid=8077604d-b9d4-4aae-b42f-6a79c8cc4721","ios":"levelo://app?vid=8077604d-b9d4-4aae-b42f-6a79c8cc4721"},"vehicle_type_id":"4","last_reported":1693645561,"current_range_meters":24800,"station_id":"ce4bhr92rcd13ifvqhrg","pricing_plan_id":"free"},{"bike_id":"97bd55a4-42e4-4fe4-b814-e15741181f07","system_id":"levelo_inurba_marseille","lat":43.33045,"lon":5.38912,"is_reserved":false,"is_disabled":false,"rental_uris":{"android":"levelo://app?vid=97bd55a4-42e4-4fe4-b814-e15741181f07","ios":"levelo://app?vid=97bd55a4-42e4-4fe4-b814-e15741181f07"},"vehicle_type_id":"4","last_reported":1693645561,"current_range_meters":2400,"station_id":"ce4bhr92rcd13ifvqhrg","pricing_plan_id":"free"},{"bike_id":"e7c8cfe2-9bdf-4363-a136-3e02a3639875","system_id":"levelo_inurba_marseille","lat":43.33044,"lon":5.38914,"is_reserved":false,"is_disabled":false,"rental_uris":{"android":"levelo://app?vid=e7c8cfe2-9bdf-4363-a136-3e02a3639875","ios":"levelo://app?vid=e7c8cfe2-9bdf-4363-a136-3e02a3639875"},"vehicle_type_id":"4","last_reported":1693645561,"current_range_meters":10000,"station_id":"ce4bhr92rcd13ifvqhrg","pricing_plan_id":"free"},{"bike_id":"3e0449ec-e32f-417c-946f-951095c26cc1","system_id":"levelo_inurba_marseille","lat":43.33044,"lon":5.38915,"is_reserved":false,"is_disabled":false,"rental_uris":{"android":"levelo://app?vid=3e0449ec-e32f-417c-946f-951095c26cc1","ios":"levelo://app?vid=3e0449ec-e32f-417c-946f-951095c26cc1"},"vehicle_type_id":"4","last_reported":1693645561,"current_range_meters":27600,"station_id":"ce4bhr92rcd13ifvqhrg","pricing_plan_id":"free"},{"bike_id":"fb1ac503-d411-45ea-8192-311f725eeb98","system_id":"levelo_inurba_marseille","lat":43.33042,"lon":5.38919,"is_reserved":false,"is_disabled":false,"rental_uris":{"android":"levelo://app?vid=fb1ac503-d411-45ea-8192-311f725eeb98","ios":"levelo://app?vid=fb1ac503-d411-45ea-8192-311f725eeb98"},"vehicle_type_id":"4","last_reported":1693645561,"current_range_meters":22800,"station_id":"ce4bhr92rcd13ifvqhrg","pricing_plan_id":"free"},{"bike_id":"276df892-9a2a-40a9-929d-29c6fe2dac65","system_id":"levelo_inurba_marseille","lat":43.33049,"lon":5.38911,"is_reserved":false,"is_disabled":false,"rental_uris":{"android":"levelo://app?vid=276df892-9a2a-40a9-929d-29c6fe2dac65","ios":"levelo://app?vid=276df892-9a2a-40a9-929d-29c6fe2dac65"},"vehicle_type_id":"4","last_reported":1693645561,"current_range_meters":23200,"station_id":"ce4bhr92rcd13ifvqhrg","pricing_plan_id":"free"},{"bike_id":"028b16b4-c861-455c-93e2-214442c48086","system_id":"levelo_inurba_marseille","lat":43.290103,"lon":5.356114,"is_reserved":false,"is_disabled":false,"rental_uris":{"android":"levelo://app?vid=028b16b4-c861-455c-93e2-214442c48086","ios":"levelo://app?vid=028b16b4-c861-455c-93e2-214442c48086"},"vehicle_type_id":"4","last_reported":1693645561,"current_range_meters":30800,"station_id":"ce4bhb92rcd13ifvqen0","pricing_plan_id":"free"},{"bike_id":"2cdba739-ebc5-413a-8a24-35edd08d69ea","system_id":"levelo_inurba_marseille","lat":43.33046,"lon":5.38916,"is_reserved":false,"is_disabled":false,"rental_uris":{"android":"levelo://app?vid=2cdba739-ebc5-413a-8a24-35edd08d69ea","ios":"levelo://app?vid=2cdba739-ebc5-413a-8a24-35edd08d69ea"},"vehicle_type_id":"4","last_reported":1693645561,"current_range_meters":17600,"station_id":"ce4bhr92rcd13ifvqhrg","pricing_plan_id":"free"},{"bike_id":"c1b0850d-0a53-4da0-9f6b-a9a94f67666e","system_id":"levelo_inurba_marseille","lat":43.3305,"lon":5.3891,"is_reserved":false,"is_disabled":false,"rental_uris":{"android":"levelo://app?vid=c1b0850d-0a53-4da0-9f6b-a9a94f67666e","ios":"levelo://app?vid=c1b0850d-0a53-4da0-9f6b-a9a94f67666e"},"vehicle_type_id":"4","last_reported":1693645561,"current_range_meters":22000,"station_id":"ce4bhr92rcd13ifvqhrg","pricing_plan_id":"free"},{"bike_id":"90f1fc97-49d0-4df8-9f32-3dfcd4a32851","system_id":"levelo_inurba_marseille","lat":43.33041,"lon":5.38924,"is_reserved":false,"is_disabled":false,"rental_uris":{"android":"levelo://app?vid=90f1fc97-49d0-4df8-9f32-3dfcd4a32851","ios":"levelo://app?vid=90f1fc97-49d0-4df8-9f32-3dfcd4a32851"},"vehicle_type_id":"4","last_reported":1693645561,"current_range_meters":15200,"station_id":"ce4bhr92rcd13ifvqhrg","pricing_plan_id":"free"},{"bike_id":"1895038e-acdb-4d35-aa35-e1291f23a30a","system_id":"levelo_inurba_marseille","lat":43.290104,"lon":5.356111,"is_reserved":false,"is_disabled":false,"rental_uris":{"android":"levelo://app?vid=1895038e-acdb-4d35-aa35-e1291f23a30a","ios":"levelo://app?vid=1895038e-acdb-4d35-aa35-e1291f23a30a"},"vehicle_type_id":"4","last_reported":1693645561,"current_range_meters":31200,"station_id":"ce4bhb92rcd13ifvqen0","pricing_plan_id":"free"},{"bike_id":"d7932d52-0b99-415c-88dc-561d5faa16a4","system_id":"levelo_inurba_marseille","lat":43.290103,"lon":5.356114,"is_reserved":false,"is_disabled":false,"rental_uris":{"android":"levelo://app?vid=d7932d52-0b99-415c-88dc-561d5faa16a4","ios":"levelo://app?vid=d7932d52-0b99-415c-88dc-561d5faa16a4"},"vehicle_type_id":"4","last_reported":1693645561,"current_range_meters":23200,"station_id":"ce4bhb92rcd13ifvqen0","pricing_plan_id":"free"},{"bike_id":"0540474d-0897-4266-896c-60728871344b","system_id":"levelo_inurba_marseille","lat":43.290995,"lon":5.381361,"is_reserved":false,"is_disabled":false,"rental_uris":{"android":"levelo://app?vid=0540474d-0897-4266-896c-60728871344b","ios":"levelo://app?vid=0540474d-0897-4266-896c-60728871344b"},"vehicle_type_id":"4","last_reported":1693645561,"current_range_meters":10800,"station_id":"ce4bh512rcd13ifvqe2g","pricing_plan_id":"free"},{"bike_id":"a234c56b-5bb2-4d10-a3a2-e7a05a7f37b2","system_id":"levelo_inurba_marseille","lat":43.289741,"lon":5.378306,"is_reserved":false,"is_disabled":false,"rental_uris":{"android":"levelo://app?vid=a234c56b-5bb2-4d10-a3a2-e7a05a7f37b2","ios":"levelo://app?vid=a234c56b-5bb2-4d10-a3a2-e7a05a7f37b2"},"vehicle_type_id":"4","last_reported":1693645561,"current_range_meters":30000,"station_id":"ce4bh9p2rcd13ifvqed0","pricing_plan_id":"free"},{"bike_id":"8ed56a4f-b22a-4a1c-ad4d-f1b36ef2ae9e","system_id":"levelo_inurba_marseille","lat":43.295169,"lon":5.390426,"is_reserved":false,"is_disabled":false,"rental_uris":{"android":"levelo://app?vid=8ed56a4f-b22a-4a1c-ad4d-f1b36ef2ae9e","ios":"levelo://app?vid=8ed56a4f-b22a-4a1c-ad4d-f1b36ef2ae9e"},"vehicle_type_id":"4","last_reported":1693645561,"current_range_meters":0,"station_id":"ce4bh3p2rcd13ifvqdp0","pricing_plan_id":"free"},{"bike_id":"d63a3db1-cdf5-438b-bb3e-8ddfb12a53d3","system_id":"levelo_inurba_marseille","lat":43.295169,"lon":5.390426,"is_reserved":false,"is_disabled":false,"rental_uris":{"android":"levelo://app?vid=d63a3db1-cdf5-438b-bb3e-8ddfb12a53d3","ios":"levelo://app?vid=d63a3db1-cdf5-438b-bb3e-8ddfb12a53d3"},"vehicle_type_id":"4","last_reported":1693645561,"current_range_meters":19600,"station_id":"ce4bh3p2rcd13ifvqdp0","pricing_plan_id":"free"},{"bike_id":"2178ba09-c607-4379-b135-12862098ef8a","system_id":"levelo_inurba_marseille","lat":43.295169,"lon":5.390426,"is_reserved":false,"is_disabled":false,"rental_uris":{"android":"levelo://app?vid=2178ba09-c607-4379-b135-12862098ef8a","ios":"levelo://app?vid=2178ba09-c607-4379-b135-12862098ef8a"},"vehicle_type_id":"4","last_reported":1693645561,"current_range_meters":26400,"station_id":"ce4bh3p2rcd13ifvqdp0","pricing_plan_id":"free"},{"bike_id":"a539a8ec-90b8-4622-ab39-3e3fc36dfad4","system_id":"levelo_inurba_marseille","lat":43.31273,"lon":5.40163,"is_reserved":false,"is_disabled":false,"rental_uris":{"android":"levelo://app?vid=a539a8ec-90b8-4622-ab39-3e3fc36dfad4","ios":"levelo://app?vid=a539a8ec-90b8-4622-ab39-3e3fc36dfad4"},"vehicle_type_id":"4","last_reported":1693645561,"current_range_meters":30800,"station_id":"ce4bh092rcd13ifvqd30","pricing_plan_id":"free"},{"bike_id":"efed6bec-b140-4ed5-b100-8ac7ed8de679","system_id":"levelo_inurba_marseille","lat":43.312609,"lon":5.401662,"is_reserved":false,"is_disabled":false,"rental_uris":{"android":"levelo://app?vid=efed6bec-b140-4ed5-b100-8ac7ed8de679","ios":"levelo://app?vid=efed6bec-b140-4ed5-b100-8ac7ed8de679"},"vehicle_type_id":"4","last_reported":1693645561,"current_range_meters":29600,"station_id":"ce4bh092rcd13ifvqd30","pricing_plan_id":"free"},{"bike_id":"b5975560-4e49-4060-9bf8-807fd3a6c92c","system_id":"levelo_inurba_marseille","lat":43.3093,"lon":5.40138,"is_reserved":false,"is_disabled":false,"rental_uris":{"android":"levelo://app?vid=b5975560-4e49-4060-9bf8-807fd3a6c92c","ios":"levelo://app?vid=b5975560-4e49-4060-9bf8-807fd3a6c92c"},"vehicle_type_id":"4","last_reported":1693645561,"current_range_meters":5200,"station_id":"ce4bgvp2rcd13ifvqct0","pricing_plan_id":"free"},{"bike_id":"5e0b65a3-4830-4efe-8df2-f90e6871cc74","system_id":"levelo_inurba_marseille","lat":43.30642,"lon":5.401031,"is_reserved":false,"is_disabled":false,"rental_uris":{"android":"levelo://app?vid=5e0b65a3-4830-4efe-8df2-f90e6871cc74","ios":"levelo://app?vid=5e0b65a3-4830-4efe-8df2-f90e6871cc74"},"vehicle_type_id":"4","last_reported":1693645561,"current_range_meters":26000,"station_id":"ce4bh112rcd13ifvqda0","pricing_plan_id":"free"},{"bike_id":"abf7faa4-f03d-4a24-a102-3f9a043fed48","system_id":"levelo_inurba_marseille","lat":43.309371,"lon":5.401449,"is_reserved":false,"is_disabled":false,"rental_uris":{"android":"levelo://app?vid=abf7faa4-f03d-4a24-a102-3f9a043fed48","ios":"levelo://app?vid=abf7faa4-f03d-4a24-a102-3f9a043fed48"},"vehicle_type_id":"4","last_reported":1693645561,"current_range_meters":29600,"station_id":"ce4bgvp2rcd13ifvqct0","pricing_plan_id":"free"},{"bike_id":"b7e65c0b-c882-44cd-bda6-a110e75c09fb","system_id":"levelo_inurba_marseille","lat":43.309371,"lon":5.401449,"is_reserved":false,"is_disabled":false,"rental_uris":{"android":"levelo://app?vid=b7e65c0b-c882-44cd-bda6-a110e75c09fb","ios":"levelo://app?vid=b7e65c0b-c882-44cd-bda6-a110e75c09fb"},"vehicle_type_id":"4","last_reported":1693645561,"current_range_meters":28800,"station_id":"ce4bgvp2rcd13ifvqct0","pricing_plan_id":"free"},{"bike_id":"77f2b3c1-c1cc-4f97-a9e2-f5997d659e7f","system_id":"levelo_inurba_marseille","lat":43.30929,"lon":5.40152,"is_reserved":false,"is_disabled":false,"rental_uris":{"android":"levelo://app?vid=77f2b3c1-c1cc-4f97-a9e2-f5997d659e7f","ios":"levelo://app?vid=77f2b3c1-c1cc-4f97-a9e2-f5997d659e7f"},"vehicle_type_id":"4","last_reported":1693645561,"current_range_meters":29600,"station_id":"ce4bgvp2rcd13ifvqct0","pricing_plan_id":"free"},{"bike_id":"75199276-b705-4ad7-b6a9-49aeaa84628a","system_id":"levelo_inurba_marseille","lat":43.286591,"lon":5.363346,"is_reserved":false,"is_disabled":false,"rental_uris":{"android":"levelo://app?vid=75199276-b705-4ad7-b6a9-49aeaa84628a","ios":"levelo://app?vid=75199276-b705-4ad7-b6a9-49aeaa84628a"},"vehicle_type_id":"4","last_reported":1693645561,"current_range_meters":28400,"station_id":"ce4bhah2rcd13ifvqej0","pricing_plan_id":"free"},{"bike_id":"2365150f-73ab-4507-aea4-76016e6109c8","system_id":"levelo_inurba_marseille","lat":43.286593,"lon":5.363346,"is_reserved":false,"is_disabled":false,"rental_uris":{"android":"levelo://app?vid=2365150f-73ab-4507-aea4-76016e6109c8","ios":"levelo://app?vid=2365150f-73ab-4507-aea4-76016e6109c8"},"vehicle_type_id":"4","last_reported":1693645561,"current_range_meters":26800,"station_id":"ce4bhah2rcd13ifvqej0","pricing_plan_id":"free"},{"bike_id":"2251256b-f963-4da4-89e9-8b48d227b3c0","system_id":"levelo_inurba_marseille","lat":43.290345,"lon":5.38646,"is_reserved":false,"is_disabled":false,"rental_uris":{"android":"levelo://app?vid=2251256b-f963-4da4-89e9-8b48d227b3c0","ios":"levelo://app?vid=2251256b-f963-4da4-89e9-8b48d227b3c0"},"vehicle_type_id":"4","last_reported":1693645561,"current_range_meters":1600,"station_id":"ce4bh4p2rcd13ifvqe0g","pricing_plan_id":"free"},