{"last_updated":1778525347,"ttl":60,"version":"2.2","data":{"bikes":[{"bike_id":"e1a93a2f-32e5-4018-843e-16e11dd57d2d","system_id":"levelo_inurba_marseille","lat":43.2861,"lon":5.37055,"is_reserved":false,"is_disabled":false,"rental_uris":{"android":"levelo://app?vid=e1a93a2f-32e5-4018-843e-16e11dd57d2d","ios":"levelo://app?vid=e1a93a2f-32e5-4018-843e-16e11dd57d2d"},"vehicle_type_id":"4","last_reported":1778525348,"current_range_meters":2800,"station_id":"ce4bht12rcd13ifvqi60","pricing_plan_id":"cebpf4jnsgd1na2vs0mg"},{"bike_id":"b5f29cd1-9b76-4e43-a4e7-d260fbddd313","system_id":"levelo_inurba_marseille","lat":43.322,"lon":5.37472,"is_reserved":false,"is_disabled":false,"rental_uris":{"android":"levelo://app?vid=b5f29cd1-9b76-4e43-a4e7-d260fbddd313","ios":"levelo://app?vid=b5f29cd1-9b76-4e43-a4e7-d260fbddd313"},"vehicle_type_id":"4","last_reported":1778525348,"current_range_meters":2800,"station_id":"","pricing_plan_id":"cebpf4jnsgd1na2vs0mg"},{"bike_id":"04318cd3-98ea-450b-b5f3-4a7277c0604c","system_id":"levelo_inurba_marseille","lat":43.24641,"lon":5.43149,"is_reserved":false,"is_disabled":true,"rental_uris":{"android":"levelo://app?vid=04318cd3-98ea-450b-b5f3-4a7277c0604c","ios":"levelo://app?vid=04318cd3-98ea-450b-b5f3-4a7277c0604c"},"vehicle_type_id":"4","last_reported":1778525348,"current_range_meters":2800,"station_id":"st_d2m6c4gdas8pm72e190g","pricing_plan_id":"cebpf4jnsgd1na2vs0mg"},{"bike_id":"3da2fb52-61bb-4052-b8e4-2f0dba17569b","system_id":"levelo_inurba_marseille","lat":43.31973,"lon":5.4395,"is_reserved":false,"is_disabled":false,"rental_uris":{"android":"levelo://app?vid=3da2fb52-61bb-4052-b8e4-2f0dba17569b","ios":"levelo://app?vid=3da2fb52-61bb-4052-b8e4-2f0dba17569b"},"vehicle_type_id":"4","last_reported":1778525348,"current_range_meters":2800,"station_id":"","pricing_plan_id":"cebpf4jnsgd1na2vs0mg"},{"bike_id":"6d3035a6-4960-4776-9353-dbebf9ff4657","system_id":"levelo_inurba_marseille","lat":43.262,"lon":5.37444,"is_reserved":false,"is_disabled":false,"rental_uris":{"android":"levelo://app?vid=6d3035a6-4960-4776-9353-dbebf9ff4657","ios":"levelo://app?vid=6d3035a6-4960-4776-9353-dbebf9ff4657"},"vehicle_type_id":"4","last_reported":1778525348,"current_range_meters":2800,"station_id":"ce4bhgp2rcd13ifvqfc0","pricing_plan_id":"cebpf4jnsgd1na2vs0mg"},{"bike_id":"eed94608-3471-4036-b6a4-9ada6a00e98a","system_id":"levelo_inurba_marseille","lat":43.292981,"lon":5.37458,"is_reserved":false,"is_disabled":false,"rental_uris":{"android":"levelo://app?vid=eed94608-3471-4036-b6a4-9ada6a00e98a","ios":"levelo://app?vid=eed94608-3471-4036-b6a4-9ada6a00e98a"},"vehicle_type_id":"4","last_reported":1778525348,"current_range_meters":2800,"station_id":"ce4bgi12rcd13ifvqb70","pricing_plan_id":"cebpf4jnsgd1na2vs0mg"},{"bike_id":"fd2aabb0-69b1-4e19-8f89-0b64d5239b99","system_id":"levelo_inurba_marseille","lat":43.249754,"lon":5.404689,"is_reserved":false,"is_disabled":false,"rental_uris":{"android":"levelo://app?vid=fd2aabb0-69b1-4e19-8f89-0b64d5239b99","ios":"levelo://app?vid=fd2aabb0-69b1-4e19-8f89-0b64d5239b99"},"vehicle_type_id":"4","last_reported":1778525348,"current_range_meters":2800,"station_id":"","pricing_plan_id":"cebpf4jnsgd1na2vs0mg"},{"bike_id":"7717eebd-4819-4d69-9bce-ebeb25c76450","system_id":"levelo_inurba_marseille","lat":43.28479,"lon":5.38412,"is_reserved":false,"is_disabled":false,"rental_uris":{"android":"levelo://app?vid=7717eebd-4819-4d69-9bce-ebeb25c76450","ios":"levelo://app?vid=7717eebd-4819-4d69-9bce-ebeb25c76450"},"vehicle_type_id":"4","last_reported":1778525348,"current_range_meters":2800,"station_id":"ce4bh512rcd13ifvqe3g","pricing_plan_id":"cebpf4jnsgd1na2vs0mg"},{"bike_id":"7a55cea0-fb18-4ae3-8d05-e6520bed9b73","system_id":"levelo_inurba_marseille","lat":43.32097,"lon":5.36792,"is_reserved":false,"is_disabled":false,"rental_uris":{"android":"levelo://app?vid=7a55cea0-fb18-4ae3-8d05-e6520bed9b73","ios":"levelo://app?vid=7a55cea0-fb18-4ae3-8d05-e6520bed9b73"},"vehicle_type_id":"4","last_reported":1778525348,"current_range_meters":2800,"station_id":"ce4bhrh2rcd13ifvqhug","pricing_plan_id":"cebpf4jnsgd1na2vs0mg"},{"bike_id":"cd9378d3-4754-434e-83de-3ee3607d36a2","system_id":"levelo_inurba_marseille","lat":43.30536,"lon":5.36705,"is_reserved":false,"is_disabled":false,"rental_uris":{"android":"levelo://app?vid=cd9378d3-4754-434e-83de-3ee3607d36a2","ios":"levelo://app?vid=cd9378d3-4754-434e-83de-3ee3607d36a2"},"vehicle_type_id":"4","last_reported":1778525348,"current_range_meters":2800,"station_id":"ce4bgrp2rcd13ifvqc9g","pricing_plan_id":"cebpf4jnsgd1na2vs0mg"},{"bike_id":"2dff6cf5-621a-4490-af86-73480bd817c4","system_id":"levelo_inurba_marseille","lat":43.28841,"lon":5.39289,"is_reserved":false,"is_disabled":false,"rental_uris":{"android":"levelo://app?vid=2dff6cf5-621a-4490-af86-73480bd817c4","ios":"levelo://app?vid=2dff6cf5-621a-4490-af86-73480bd817c4"},"vehicle_type_id":"4","last_reported":1778525348,"current_range_meters":2800,"station_id":"ce4bh2p2rcd13ifvqdi0","pricing_plan_id":"cebpf4jnsgd1na2vs0mg"},{"bike_id":"2e3c3c64-f437-471f-9202-8541af5ab890","system_id":"levelo_inurba_marseille","lat":43.29516,"lon":5.39393,"is_reserved":false,"is_disabled":false,"rental_uris":{"android":"levelo://app?vid=2e3c3c64-f437-471f-9202-8541af5ab890","ios":"levelo://app?vid=2e3c3c64-f437-471f-9202-8541af5ab890"},"vehicle_type_id":"4","last_reported":1778525348,"current_range_meters":2800,"station_id":"ce4bh292rcd13ifvqdf0","pricing_plan_id":"cebpf4jnsgd1na2vs0mg"},{"bike_id":"17ccf42b-0a22-422d-848e-c435ff3881eb","system_id":"levelo_inurba_marseille","lat":43.2748,"lon":5.41596,"is_reserved":false,"is_disabled":false,"rental_uris":{"android":"levelo://app?vid=17ccf42b-0a22-422d-848e-c435ff3881eb","ios":"levelo://app?vid=17ccf42b-0a22-422d-848e-c435ff3881eb"},"vehicle_type_id":"4","last_reported":1778525348,"current_range_meters":3200,"station_id":"st_d6im8g6chgec73a5pndg","pricing_plan_id":"cebpf4jnsgd1na2vs0mg"},{"bike_id":"fa2d404a-d5be-4827-862c-e25025d65719","system_id":"levelo_inurba_marseille","lat":43.29061,"lon":5.37143,"is_reserved":false,"is_disabled":true,"rental_uris":{"android":"levelo://app?vid=fa2d404a-d5be-4827-862c-e25025d65719","ios":"levelo://app?vid=fa2d404a-d5be-4827-862c-e25025d65719"},"vehicle_type_id":"4","last_reported":1778525348,"current_range_meters":3200,"station_id":"ce4bh5p2rcd13ifvqe4g","pricing_plan_id":"cebpf4jnsgd1na2vs0mg"},{"bike_id":"7c187170-4daa-4ad6-9b3f-d68ef6eeb781","system_id":"levelo_inurba_marseille","lat":43.29894,"lon":5.38878,"is_reserved":false,"is_disabled":false,"rental_uris":{"android":"levelo://app?vid=7c187170-4daa-4ad6-9b3f-d68ef6eeb781","ios":"levelo://app?vid=7c187170-4daa-4ad6-9b3f-d68ef6eeb781"},"vehicle_type_id":"4","last_reported":1778525348,"current_range_meters":3200,"station_id":"ce4bh392rcd13ifvqdl0","pricing_plan_id":"cebpf4jnsgd1na2vs0mg"},{"bike_id":"507be34d-72bf-45c5-957c-3bfa43203607","system_id":"levelo_inurba_marseille","lat":43.31992,"lon":5.3817,"is_reserved":false,"is_disabled":true,"rental_uris":{"android":"levelo://app?vid=507be34d-72bf-45c5-957c-3bfa43203607","ios":"levelo://app?vid=507be34d-72bf-45c5-957c-3bfa43203607"},"vehicle_type_id":"4","last_reported":1778525348,"current_range_meters":3200,"station_id":"ce4bhr12rcd13ifvqhpg","pricing_plan_id":"cebpf4jnsgd1na2vs0mg"},{"bike_id":"6ac0db1e-e0a6-4ff7-918d-9cdd73f6925f","system_id":"levelo_inurba_marseille","lat":43.28041,"lon":5.36959,"is_reserved":false,"is_disabled":false,"rental_uris":{"android":"levelo://app?vid=6ac0db1e-e0a6-4ff7-918d-9cdd73f6925f","ios":"levelo://app?vid=6ac0db1e-e0a6-4ff7-918d-9cdd73f6925f"},"vehicle_type_id":"4","last_reported":1778525348,"current_range_meters":3200,"station_id":"ce4bha12rcd13ifvqef0","pricing_plan_id":"cebpf4jnsgd1na2vs0mg"},{"bike_id":"482ea0fe-af57-4182-9a69-bc8816007dc9","system_id":"levelo_inurba_marseille","lat":43.28342,"lon":5.381,"is_reserved":false,"is_disabled":false,"rental_uris":{"android":"levelo://app?vid=482ea0fe-af57-4182-9a69-bc8816007dc9","ios":"levelo://app?vid=482ea0fe-af57-4182-9a69-bc8816007dc9"},"vehicle_type_id":"4","last_reported":1778525348,"current_range_meters":3200,"station_id":"ce4bh412rcd13ifvqdr0","pricing_plan_id":"cebpf4jnsgd1na2vs0mg"},{"bike_id":"9352c521-2877-495b-80c5-72a80181774e","system_id":"levelo_inurba_marseille","lat":43.24941,"lon":5.40517,"is_reserved":false,"is_disabled":false,"rental_uris":{"android":"levelo://app?vid=9352c521-2877-495b-80c5-72a80181774e","ios":"levelo://app?vid=9352c521-2877-495b-80c5-72a80181774e"},"vehicle_type_id":"4","last_reported":1778525348,"current_range_meters":3200,"station_id":"st_d2ngiaodas8pm72gd1h0","pricing_plan_id":"cebpf4jnsgd1na2vs0mg"},{"bike_id":"bf55380f-174c-4a5d-b81d-37c181d83f40","system_id":"levelo_inurba_marseille","lat":43.3088,"lon":5.39654,"is_reserved":false,"is_disabled":false,"rental_uris":{"android":"levelo://app?vid=bf55380f-174c-4a5d-b81d-37c181d83f40","ios":"levelo://app?vid=bf55380f-174c-4a5d-b81d-37c181d83f40"},"vehicle_type_id":"4","last_reported":1778525348,"current_range_meters":3200,"station_id":"ce4bh012rcd13ifvqcv0","pricing_plan_id":"cebpf4jnsgd1na2vs0mg"},{"bike_id":"44ee2362-fe04-4866-ae78-314487a1c926","system_id":"levelo_inurba_marseille","lat":43.26034,"lon":5.38617,"is_reserved":false,"is_disabled":false,"rental_uris":{"android":"levelo://app?vid=44ee2362-fe04-4866-ae78-314487a1c926","ios":"levelo://app?vid=44ee2362-fe04-4866-ae78-314487a1c926"},"vehicle_type_id":"4","last_reported":1778525348,"current_range_meters":3200,"station_id":"","pricing_plan_id":"cebpf4jnsgd1na2vs0mg"},{"bike_id":"43f05791-8f3e-47f7-abd8-a2f18ec3256e","system_id":"levelo_inurba_marseille","lat":43.307899,"lon":5.381556,"is_reserved":false,"is_disabled":false,"rental_uris":{"android":"levelo://app?vid=43f05791-8f3e-47f7-abd8-a2f18ec3256e","ios":"levelo://app?vid=43f05791-8f3e-47f7-abd8-a2f18ec3256e"},"vehicle_type_id":"4","last_reported":1778525348,"current_range_meters":3200,"station_id":"ce4bgt12rcd13ifvqce0","pricing_plan_id":"cebpf4jnsgd1na2vs0mg"},{"bike_id":"d000cc14-c65a-4f44-b7c9-7983b4c7a469","system_id":"levelo_inurba_marseille","lat":43.29007,"lon":5.35615,"is_reserved":false,"is_disabled":false,"rental_uris":{"android":"levelo://app?vid=d000cc14-c65a-4f44-b7c9-7983b4c7a469","ios":"levelo://app?vid=d000cc14-c65a-4f44-b7c9-7983b4c7a469"},"vehicle_type_id":"4","last_reported":1778525348,"current_range_meters":3200,"station_id":"ce4bhb92rcd13ifvqen0","pricing_plan_id":"cebpf4jnsgd1na2vs0mg"},{"bike_id":"de1b7d43-6a22-4fe2-b0d4-db73bfdc5548","system_id":"levelo_inurba_marseille","lat":43.25817,"lon":5.39454,"is_reserved":false,"is_disabled":false,"rental_uris":{"android":"levelo://app?vid=de1b7d43-6a22-4fe2-b0d4-db73bfdc5548","ios":"levelo://app?vid=de1b7d43-6a22-4fe2-b0d4-db73bfdc5548"},"vehicle_type_id":"4","last_reported":1778525348,"current_range_meters":3200,"station_id":"ce4bhip2rcd13ifvqft0","pricing_plan_id":"cebpf4jnsgd1na2vs0mg"},{"bike_id":"590b323d-7847-4a96-96c0-12c8f49e8de1","system_id":"levelo_inurba_marseille","lat":43.30433,"lon":5.39742,"is_reserved":false,"is_disabled":false,"rental_uris":{"android":"levelo://app?vid=590b323d-7847-4a96-96c0-12c8f49e8de1","ios":"levelo://app?vid=590b323d-7847-4a96-96c0-12c8f49e8de1"},"vehicle_type_id":"4","last_reported":1778525348,"current_range_meters":3200,"station_id":"ce4bh092rcd13ifvqd20","pricing_plan_id":"cebpf4jnsgd1na2vs0mg"},{"bike_id":"ac50047d-0481-4d6a-ac69-152bbc6a1ff4","system_id":"levelo_inurba_marseille","lat":43.28682,"lon":5.37379,"is_reserved":false,"is_disabled":false,"rental_uris":{"android":"levelo://app?vid=ac50047d-0481-4d6a-ac69-152bbc6a1ff4","ios":"levelo://app?vid=ac50047d-0481-4d6a-ac69-152bbc6a1ff4"},"vehicle_type_id":"4","last_reported":1778525348,"current_range_meters":3200,"station_id":"ce4bh3p2rcd13ifvqdq0","pricing_plan_id":"cebpf4jnsgd1na2vs0mg"},{"bike_id":"db29ec50-d428-4587-8b2a-0ee55fb48f2b","system_id":"levelo_inurba_marseille","lat":43.26575,"lon":5.39004,"is_reserved":false,"is_disabled":false,"rental_uris":{"android":"levelo://app?vid=db29ec50-d428-4587-8b2a-0ee55fb48f2b","ios":"levelo://app?vid=db29ec50-d428-4587-8b2a-0ee55fb48f2b"},"vehicle_type_id":"4","last_reported":1778525348,"current_range_meters":3600,"station_id":"ce4bhe12rcd13ifvqf30","pricing_plan_id":"cebpf4jnsgd1na2vs0mg"},{"bike_id":"c140dd48-2de4-47e4-80ce-ada1630b84dc","system_id":"levelo_inurba_marseille","lat":43.30943,"lon":5.390187,"is_reserved":false,"is_disabled":false,"rental_uris":{"android":"levelo://app?vid=c140dd48-2de4-47e4-80ce-ada1630b84dc","ios":"levelo://app?vid=c140dd48-2de4-47e4-80ce-ada1630b84dc"},"vehicle_type_id":"4","last_reported":1778525348,"current_range_meters":3600,"station_id":"ce4bgup2rcd13ifvqco0","pricing_plan_id":"cebpf4jnsgd1na2vs0mg"},{"bike_id":"f6f40374-43fa-47de-b3a0-6f7526ff03b2","system_id":"levelo_inurba_marseille","lat":43.24959,"lon":5.40488,"is_reserved":false,"is_disabled":false,"rental_uris":{"android":"levelo://app?vid=f6f40374-43fa-47de-b3a0-6f7526ff03b2","ios":"levelo://app?vid=f6f40374-43fa-47de-b3a0-6f7526ff03b2"},"vehicle_type_id":"4","last_reported":1778525348,"current_range_meters":3600,"station_id":"st_d2ngiaodas8pm72gd1h0","pricing_plan_id":"cebpf4jnsgd1na2vs0mg"},{"bike_id":"f087a09f-50d0-44f7-9b55-75a4271662d8","system_id":"levelo_inurba_marseille","lat":43.27847,"lon":5.39193,"is_reserved":false,"is_disabled":false,"rental_uris":{"android":"levelo://app?vid=f087a09f-50d0-44f7-9b55-75a4271662d8","ios":"levelo://app?vid=f087a09f-50d0-44f7-9b55-75a4271662d8"},"vehicle_type_id":"4","last_reported":1778525348,"current_range_meters":3600,"station_id":"ce4bhjp2rcd13ifvqga0","pricing_plan_id":"cebpf4jnsgd1na2vs0mg"},{"bike_id":"e461e96d-9bcf-4941-b3c0-cc34caae2fc7","system_id":"levelo_inurba_marseille","lat":43.28399,"lon":5.37515,"is_reserved":false,"is_disabled":false,"rental_uris":{"android":"levelo://app?vid=e461e96d-9bcf-4941-b3c0-cc34caae2fc7","ios":"levelo://app?vid=e461e96d-9bcf-4941-b3c0-cc34caae2fc7"},"vehicle_type_id":"4","last_reported":1778525348,"current_range_meters":3600,"station_id":"ce4bh412rcd13ifvqds0","pricing_plan_id":"cebpf4jnsgd1na2vs0mg"},{"bike_id":"4e11e63d-2b6f-4e98-9606-0ab15a7a72ab","system_id":"levelo_inurba_marseille","lat":43.28413,"lon":5.34983,"is_reserved":false,"is_disabled":false,"rental_uris":{"android":"levelo://app?vid=4e11e63d-2b6f-4e98-9606-0ab15a7a72ab","ios":"levelo://app?vid=4e11e63d-2b6f-4e98-9606-0ab15a7a72ab"},"vehicle_type_id":"4","last_reported":1778525348,"current_range_meters":3600,"station_id":"ce4bhbh2rcd13ifvqepg","pricing_plan_id":"cebpf4jnsgd1na2vs0mg"},{"bike_id":"d1e10d7a-2a66-43cb-a1a4-07b5845b8592","system_id":"levelo_inurba_marseille","lat":43.29284,"lon":5.38525,"is_reserved":false,"is_disabled":false,"rental_uris":{"android":"levelo://app?vid=d1e10d7a-2a66-43cb-a1a4-07b5845b8592","ios":"levelo://app?vid=d1e10d7a-2a66-43cb-a1a4-07b5845b8592"},"vehicle_type_id":"4","last_reported":1778525348,"current_range_meters":3600,"station_id":"ce4bh692rcd13ifvqea0","pricing_plan_id":"cebpf4jnsgd1na2vs0mg"},{"bike_id":"ae40ecc9-333a-41df-a59d-eec870ba774b","system_id":"levelo_inurba_marseille","lat":43.27833,"lon":5.392116,"is_reserved":false,"is_disabled":false,"rental_uris":{"android":"levelo://app?vid=ae40ecc9-333a-41df-a59d-eec870ba774b","ios":"levelo://app?vid=ae40ecc9-333a-41df-a59d-eec870ba774b"},"vehicle_type_id":"4","last_reported":1778525348,"current_range_meters":3600,"station_id":"ce4bhjp2rcd13ifvqga0","pricing_plan_id":"cebpf4jnsgd1na2vs0mg"},{"bike_id":"328fc79b-6804-4d01-af71-228a208e5176","system_id":"levelo_inurba_marseille","lat":43.23316,"lon":5.35797,"is_reserved":false,"is_disabled":false,"rental_uris":{"android":"levelo://app?vid=328fc79b-6804-4d01-af71-228a208e5176","ios":"levelo://app?vid=328fc79b-6804-4d01-af71-228a208e5176"},"vehicle_type_id":"4","last_reported":1778525348,"current_range_meters":3600,"station_id":"","pricing_plan_id":"cebpf4jnsgd1na2vs0mg"},{"bike_id":"bfdb93c2-712b-4db7-b9fc-61bbe20edd00","system_id":"levelo_inurba_marseille","lat":43.24393,"lon":5.37043,"is_reserved":false,"is_disabled":true,"rental_uris":{"android":"levelo://app?vid=bfdb93c2-712b-4db7-b9fc-61bbe20edd00","ios":"levelo://app?vid=bfdb93c2-712b-4db7-b9fc-61bbe20edd00"},"vehicle_type_id":"4","last_reported":1778525348,"current_range_meters":3600,"station_id":"ce4bhhh2rcd13ifvqfk0","pricing_plan_id":"cebpf4jnsgd1na2vs0mg"},{"bike_id":"2dad26c4-79ea-487f-b610-b69ec0b91c96","system_id":"levelo_inurba_marseille","lat":43.28714,"lon":5.379352,"is_reserved":false,"is_disabled":false,"rental_uris":{"android":"levelo://app?vid=2dad26c4-79ea-487f-b610-b69ec0b91c96","ios":"levelo://app?vid=2dad26c4-79ea-487f-b610-b69ec0b91c96"},"vehicle_type_id":"4","last_reported":1778525348,"current_range_meters":3600,"station_id":"ce4bh9p2rcd13ifvqec0","pricing_plan_id":"cebpf4jnsgd1na2vs0mg"},{"bike_id":"6e96bdee-a3dd-4fea-9080-1f4f927aa10f","system_id":"levelo_inurba_marseille","lat":43.25591,"lon":5.38213,"is_reserved":false,"is_disabled":false,"rental_uris":{"android":"levelo://app?vid=6e96bdee-a3dd-4fea-9080-1f4f927aa10f","ios":"levelo://app?vid=6e96bdee-a3dd-4fea-9080-1f4f927aa10f"},"vehicle_type_id":"4","last_reported":1778525348,"current_range_meters":3600,"station_id":"ce4bhih2rcd13ifvqfs0","pricing_plan_id":"cebpf4jnsgd1na2vs0mg"},{"bike_id":"f9b4eaa5-0e6e-4877-ba09-7480c1c2b248","system_id":"levelo_inurba_marseille","lat":43.31167,"lon":5.38714,"is_reserved":false,"is_disabled":false,"rental_uris":{"android":"levelo://app?vid=f9b4eaa5-0e6e-4877-ba09-7480c1c2b248","ios":"levelo://app?vid=f9b4eaa5-0e6e-4877-ba09-7480c1c2b248"},"vehicle_type_id":"4","last_reported":1778525348,"current_range_meters":3600,"station_id":"ce4bgv12rcd13ifvqcp0","pricing_plan_id":"cebpf4jnsgd1na2vs0mg"},{"bike_id":"e4e765a0-1aab-4d4e-ae7a-cc4e5a5cbe69","system_id":"levelo_inurba_marseille","lat":43.27997,"lon":5.40008,"is_reserved":false,"is_disabled":false,"rental_uris":{"android":"levelo://app?vid=e4e765a0-1aab-4d4e-ae7a-cc4e5a5cbe69","ios":"levelo://app?vid=e4e765a0-1aab-4d4e-ae7a-cc4e5a5cbe69"},"vehicle_type_id":"4","last_reported":1778525348,"current_range_meters":3600,"station_id":"ce4bho92rcd13ifvqh4g","pricing_plan_id":"cebpf4jnsgd1na2vs0mg"},{"bike_id":"9e7f6605-b502-4180-b158-bc72cd1296dc","system_id":"levelo_inurba_marseille","lat":43.29789,"lon":5.39329,"is_reserved":false,"is_disabled":false,"rental_uris":{"android":"levelo://app?vid=9e7f6605-b502-4180-b158-bc72cd1296dc","ios":"levelo://app?vid=9e7f6605-b502-4180-b158-bc72cd1296dc"},"vehicle_type_id":"4","last_reported":1778525348,"current_range_meters":3600,"station_id":"chh1huq6cuj3fo74tm60","pricing_plan_id":"cebpf4jnsgd1na2vs0mg"},{"bike_id":"00cf6f06-f025-463e-9135-6ffaebc9a6cd","system_id":"levelo_inurba_marseille","lat":43.29604,"lon":5.38032,"is_reserved":false,"is_disabled":false,"rental_uris":{"android":"levelo://app?vid=00cf6f06-f025-463e-9135-6ffaebc9a6cd","ios":"levelo://app?vid=00cf6f06-f025-463e-9135-6ffaebc9a6cd"},"vehicle_type_id":"4","last_reported":1778525348,"current_range_meters":3600,"station_id":"","pricing_plan_id":"cebpf4jnsgd1na2vs0mg"},{"bike_id":"147018a3-5847-4a13-b423-c2d6f1acccd5","system_id":"levelo_inurba_marseille","lat":43.25576,"lon":5.38223,"is_reserved":false,"is_disabled":false,"rental_uris":{"android":"levelo://app?vid=147018a3-5847-4a13-b423-c2d6f1acccd5","ios":"levelo://app?vid=147018a3-5847-4a13-b423-c2d6f1acccd5"},"vehicle_type_id":"4","last_reported":1778525348,"current_range_meters":3600,"station_id":"ce4bhih2rcd13ifvqfs0","pricing_plan_id":"cebpf4jnsgd1na2vs0mg"},{"bike_id":"268ef948-ae36-4d31-887f-1a3dd79219aa","system_id":"levelo_inurba_marseille","lat":43.3152,"lon":5.38037,"is_reserved":false,"is_disabled":false,"rental_uris":{"android":"levelo://app?vid=268ef948-ae36-4d31-887f-1a3dd79219aa","ios":"levelo://app?vid=268ef948-ae36-4d31-887f-1a3dd79219aa"},"vehicle_type_id":"4","last_reported":1778525348,"current_range_meters":3600,"station_id":"ce4bhsp2rcd13ifvqi50","pricing_plan_id":"cebpf4jnsgd1na2vs0mg"},{"bike_id":"f045a936-21e5-4c51-97f3-2d8a97531bb0","system_id":"levelo_inurba_marseille","lat":43.23062,"lon":5.35494,"is_reserved":false,"is_disabled":false,"rental_uris":{"android":"levelo://app?vid=f045a936-21e5-4c51-97f3-2d8a97531bb0","ios":"levelo://app?vid=f045a936-21e5-4c51-97f3-2d8a97531bb0"},"vehicle_type_id":"4","last_reported":1778525348,"current_range_meters":4000,"station_id":"cpo3342slgdg3j2ifvpg","pricing_plan_id":"cebpf4jnsgd1na2vs0mg"},{"bike_id":"c1775866-e028-474b-ad8d-5f809a1ea766","system_id":"levelo_inurba_marseille","lat":43.31055,"lon":5.36811,"is_reserved":false,"is_disabled":false,"rental_uris":{"android":"levelo://app?vid=c1775866-e028-474b-ad8d-5f809a1ea766","ios":"levelo://app?vid=c1775866-e028-474b-ad8d-5f809a1ea766"},"vehicle_type_id":"4","last_reported":1778525348,"current_range_meters":4000,"station_id":"","pricing_plan_id":"cebpf4jnsgd1na2vs0mg"},{"bike_id":"50b9163b-20cf-4836-b9a5-535132894940","system_id":"levelo_inurba_marseille","lat":43.28868,"lon":5.42518,"is_reserved":false,"is_disabled":false,"rental_uris":{"android":"levelo://app?vid=50b9163b-20cf-4836-b9a5-535132894940","ios":"levelo://app?vid=50b9163b-20cf-4836-b9a5-535132894940"},"vehicle_type_id":"4","last_reported":1778525348,"current_range_meters":4000,"station_id":"st_d3b462108ojc7389ooeg","pricing_plan_id":"cebpf4jnsgd1na2vs0mg"},{"bike_id":"83ec6e59-8525-4e61-9cff-4dbbe7f05102","system_id":"levelo_inurba_marseille","lat":43.2953,"lon":5.39037,"is_reserved":false,"is_disabled":false,"rental_uris":{"android":"levelo://app?vid=83ec6e59-8525-4e61-9cff-4dbbe7f05102","ios":"levelo://app?vid=83ec6e59-8525-4e61-9cff-4dbbe7f05102"},"vehicle_type_id":"4","last_reported":1778525348,"current_range_meters":4000,"station_id":"ce4bh3p2rcd13ifvqdp0","pricing_plan_id":"cebpf4jnsgd1na2vs0mg"},{"bike_id":"77353947-9ea4-4d5f-a3ba-efd4ffdafca3","system_id":"levelo_inurba_marseille","lat":43.24472,"lon":5.41059,"is_reserved":false,"is_disabled":false,"rental_uris":{"android":"levelo://app?vid=77353947-9ea4-4d5f-a3ba-efd4ffdafca3","ios":"levelo://app?vid=77353947-9ea4-4d5f-a3ba-efd4ffdafca3"},"vehicle_type_id":"4","last_reported":1778525348,"current_range_meters":4000,"station_id":"","pricing_plan_id":"cebpf4jnsgd1na2vs0mg"},{"bike_id":"f15d5df6-7ab6-48e7-af66-dab0794f7384","system_id":"levelo_inurba_marseille","lat":43.21191,"lon":5.3508,"is_reserved":false,"is_disabled":false,"rental_uris":{"android":"levelo://app?vid=f15d5df6-7ab6-48e7-af66-dab0794f7384","ios":"levelo://app?vid=f15d5df6-7ab6-48e7-af66-dab0794f7384"},"vehicle_type_id":"4","last_reported":1778525348,"current_range_meters":4000,"station_id":"st_cvj6sg6p6f1abm77japg","pricing_plan_id":"cebpf4jnsgd1na2vs0mg"},{"bike_id":"37b581d4-a78c-4db1-8701-3ab33cd83c8a","system_id":"levelo_inurba_marseille","lat":43.30134,"lon":5.4311,"is_reserved":false,"is_disabled":true,"rental_uris":{"android":"levelo://app?vid=37b581d4-a78c-4db1-8701-3ab33cd83c8a","ios":"levelo://app?vid=37b581d4-a78c-4db1-8701-3ab33cd83c8a"},"vehicle_type_id":"4","last_reported":1778525348,"current_range_meters":4000,"station_id":"st_d3js3co5814s73ftftug","pricing_plan_id":"cebpf4jnsgd1na2vs0mg"},{"bike_id":"b8528c49-e778-4cdd-b6ce-2710cf1c80f4","system_id":"levelo_inurba_marseille","lat":43.28696,"lon":5.42704,"is_reserved":false,"is_disabled":false,"rental_uris":{"android":"levelo://app?vid=b8528c49-e778-4cdd-b6ce-2710cf1c80f4","ios":"levelo://app?vid=b8528c49-e778-4cdd-b6ce-2710cf1c80f4"},"vehicle_type_id":"4","last_reported":1778525348,"current_range_meters":4000,"station_id":"","pricing_plan_id":"cebpf4jnsgd1na2vs0mg"},{"bike_id":"c8c2a57a-d15f-4660-9e5f-977efab313c6","system_id":"levelo_inurba_marseille","lat":43.28924,"lon":5.38395,"is_reserved":false,"is_disabled":false,"rental_uris":{"android":"levelo://app?vid=c8c2a57a-d15f-4660-9e5f-977efab313c6","ios":"levelo://app?vid=c8c2a57a-d15f-4660-9e5f-977efab313c6"},"vehicle_type_id":"4","last_reported":1778525348,"current_range_meters":4000,"station_id":"ce4bh612rcd13ifvqe6g","pricing_plan_id":"cebpf4jnsgd1na2vs0mg"},{"bike_id":"f7325664-231f-4d91-adea-08851f268f90","system_id":"levelo_inurba_marseille","lat":43.33147,"lon":5.37726,"is_reserved":false,"is_disabled":false,"rental_uris":{"android":"levelo://app?vid=f7325664-231f-4d91-adea-08851f268f90","ios":"levelo://app?vid=f7325664-231f-4d91-adea-08851f268f90"},"vehicle_type_id":"4","last_reported":1778525348,"current_range_meters":4000,"station_id":"st_d46cu089ee8s73dldbu0","pricing_plan_id":"cebpf4jnsgd1na2vs0mg"},{"bike_id":"c2734294-b560-4241-b9fc-d8f8b9f7c307","system_id":"levelo_inurba_marseille","lat":43.25836,"lon":5.39257,"is_reserved":false,"is_disabled":false,"rental_uris":{"android":"levelo://app?vid=c2734294-b560-4241-b9fc-d8f8b9f7c307","ios":"levelo://app?vid=c2734294-b560-4241-b9fc-d8f8b9f7c307"},"vehicle_type_id":"4","last_reported":1778525348,"current_range_meters":4000,"station_id":"","pricing_plan_id":"cebpf4jnsgd1na2vs0mg"},{"bike_id":"d0475dcc-e885-4152-8bc6-c652a5c04b2d","system_id":"levelo_inurba_marseille","lat":43.309638,"lon":5.379803,"is_reserved":false,"is_disabled":false,"rental_uris":{"android":"levelo://app?vid=d0475dcc-e885-4152-8bc6-c652a5c04b2d","ios":"levelo://app?vid=d0475dcc-e885-4152-8bc6-c652a5c04b2d"},"vehicle_type_id":"4","last_reported":1778525348,"current_range_meters":4400,"station_id":"ce4bgt92rcd13ifvqcg0","pricing_plan_id":"cebpf4jnsgd1na2vs0mg"},{"bike_id":"c65458b8-3877-4f0b-a4bd-55fe3bfe27cf","system_id":"levelo_inurba_marseille","lat":43.30595,"lon":5.37199,"is_reserved":false,"is_disabled":false,"rental_uris":{"android":"levelo://app?vid=c65458b8-3877-4f0b-a4bd-55fe3bfe27cf","ios":"levelo://app?vid=c65458b8-3877-4f0b-a4bd-55fe3bfe27cf"},"vehicle_type_id":"4","last_reported":1778525348,"current_range_meters":4400,"station_id":"ce4bgqh2rcd13ifvqc4g","pricing_plan_id":"cebpf4jnsgd1na2vs0mg"},{"bike_id":"51c33c4f-93e3-4914-8b70-f8494a43df13","system_id":"levelo_inurba_marseille","lat":43.28444,"lon":5.37461,"is_reserved":false,"is_disabled":true,"rental_uris":{"android":"levelo://app?vid=51c33c4f-93e3-4914-8b70-f8494a43df13","ios":"levelo://app?vid=51c33c4f-93e3-4914-8b70-f8494a43df13"},"vehicle_type_id":"4","last_reported":1778525348,"current_range_meters":4400,"station_id":"","pricing_plan_id":"cebpf4jnsgd1na2vs0mg"},{"bike_id":"f9a7bccd-1495-4061-b58b-e29b80fabf7e","system_id":"levelo_inurba_marseille","lat":43.29969,"lon":5.38492,"is_reserved":false,"is_disabled":false,"rental_uris":{"android":"levelo://app?vid=f9a7bccd-1495-4061-b58b-e29b80fabf7e","ios":"levelo://app?vid=f9a7bccd-1495-4061-b58b-e29b80fabf7e"},"vehicle_type_id":"4","last_reported":1778525348,"current_range_meters":4400,"station_id":"ce4bgj92rcd13ifvqbd0","pricing_plan_id":"cebpf4jnsgd1na2vs0mg"},{"bike_id":"40326dfc-c43c-49b9-91fd-f253b800ccf8","system_id":"levelo_inurba_marseille","lat":43.28728,"lon":5.37937,"is_reserved":false,"is_disabled":true,"rental_uris":{"android":"levelo://app?vid=40326dfc-c43c-49b9-91fd-f253b800ccf8","ios":"levelo://app?vid=40326dfc-c43c-49b9-91fd-f253b800ccf8"},"vehicle_type_id":"4","last_reported":1778525348,"current_range_meters":4400,"station_id":"ce4bh9p2rcd13ifvqec0","pricing_plan_id":"cebpf4jnsgd1na2vs0mg"},{"bike_id":"36653935-d23c-4d2d-a7af-3f406c22003a","system_id":"levelo_inurba_marseille","lat":43.26561,"lon":5.40327,"is_reserved":false,"is_disabled":false,"rental_uris":{"android":"levelo://app?vid=36653935-d23c-4d2d-a7af-3f406c22003a","ios":"levelo://app?vid=36653935-d23c-4d2d-a7af-3f406c22003a"},"vehicle_type_id":"4","last_reported":1778525348,"current_range_meters":4400,"station_id":"ce4bhmp2rcd13ifvqgng","pricing_plan_id":"cebpf4jnsgd1na2vs0mg"},{"bike_id":"2ded40e3-79a9-4270-9b19-a95c651b67df","system_id":"levelo_inurba_marseille","lat":43.24545,"lon":5.39519,"is_reserved":false,"is_disabled":false,"rental_uris":{"android":"levelo://app?vid=2ded40e3-79a9-4270-9b19-a95c651b67df","ios":"levelo://app?vid=2ded40e3-79a9-4270-9b19-a95c651b67df"},"vehicle_type_id":"4","last_reported":1778525348,"current_range_meters":4400,"station_id":"ce4bhlp2rcd13ifvqgjg","pricing_plan_id":"cebpf4jnsgd1na2vs0mg"},{"bike_id":"6d160137-b529-4509-ac93-c9d644147c05","system_id":"levelo_inurba_marseille","lat":43.29006,"lon":5.35605,"is_reserved":false,"is_disabled":false,"rental_uris":{"android":"levelo://app?vid=6d160137-b529-4509-ac93-c9d644147c05","ios":"levelo://app?vid=6d160137-b529-4509-ac93-c9d644147c05"},"vehicle_type_id":"4","last_reported":1778525348,"current_range_meters":4400,"station_id":"ce4bhb92rcd13ifvqen0","pricing_plan_id":"cebpf4jnsgd1na2vs0mg"},{"bike_id":"dc3d872f-b541-4dd3-a578-2855f0ad8694","system_id":"levelo_inurba_marseille","lat":43.33163,"lon":5.37681,"is_reserved":false,"is_disabled":false,"rental_uris":{"android":"levelo://app?vid=dc3d872f-b541-4dd3-a578-2855f0ad8694","ios":"levelo://app?vid=dc3d872f-b541-4dd3-a578-2855f0ad8694"},"vehicle_type_id":"4","last_reported":1778525348,"current_range_meters":4400,"station_id":"st_d46cu089ee8s73dldbu0","pricing_plan_id":"cebpf4jnsgd1na2vs0mg"},{"bike_id":"6ed004a5-8489-49b9-83b6-f09efcb76f62","system_id":"levelo_inurba_marseille","lat":43.248092,"lon":5.374632,"is_reserved":false,"is_disabled":false,"rental_uris":{"android":"levelo://app?vid=6ed004a5-8489-49b9-83b6-f09efcb76f62","ios":"levelo://app?vid=6ed004a5-8489-49b9-83b6-f09efcb76f62"},"vehicle_type_id":"4","last_reported":1778525348,"current_range_meters":4800,"station_id":"ce4bhgh2rcd13ifvqfb0","pricing_plan_id":"cebpf4jnsgd1na2vs0mg"},{"bike_id":"47559409-0fc5-4332-af63-6d2351c0a07b","system_id":"levelo_inurba_marseille","lat":43.28582,"lon":5.38297,"is_reserved":false,"is_disabled":false,"rental_uris":{"android":"levelo://app?vid=47559409-0fc5-4332-af63-6d2351c0a07b","ios":"levelo://app?vid=47559409-0fc5-4332-af63-6d2351c0a07b"},"vehicle_type_id":"4","last_reported":1778525348,"current_range_meters":4800,"station_id":"","pricing_plan_id":"cebpf4jnsgd1na2vs0mg"},{"bike_id":"92898ab7-4a80-4e3f-a36e-4fe8ee6c9259","system_id":"levelo_inurba_marseille","lat":43.25099,"lon":5.40327,"is_reserved":false,"is_disabled":false,"rental_uris":{"android":"levelo://app?vid=92898ab7-4a80-4e3f-a36e-4fe8ee6c9259","ios":"levelo://app?vid=92898ab7-4a80-4e3f-a36e-4fe8ee6c9259"},"vehicle_type_id":"4","last_reported":1778525348,"current_range_meters":4800,"station_id":"ce4bhlh2rcd13ifvqgig","pricing_plan_id":"cebpf4jnsgd1na2vs0mg"},{"bike_id":"30556c87-ff3c-4660-b8b1-da977798e9b2","system_id":"levelo_inurba_marseille","lat":43.24604,"lon":5.4209,"is_reserved":false,"is_disabled":false,"rental_uris":{"android":"levelo://app?vid=30556c87-ff3c-4660-b8b1-da977798e9b2","ios":"levelo://app?vid=30556c87-ff3c-4660-b8b1-da977798e9b2"},"vehicle_type_id":"4","last_reported":1778525348,"current_range_meters":4800,"station_id":"","pricing_plan_id":"cebpf4jnsgd1na2vs0mg"},{"bike_id":"c3155dd0-c1b3-4201-b864-1d5e6c3440fc","system_id":"levelo_inurba_marseille","lat":43.29256,"lon":5.38457,"is_reserved":false,"is_disabled":false,"rental_uris":{"android":"levelo://app?vid=c3155dd0-c1b3-4201-b864-1d5e6c3440fc","ios":"levelo://app?vid=c3155dd0-c1b3-4201-b864-1d5e6c3440fc"},"vehicle_type_id":"4","last_reported":1778525348,"current_range_meters":4800,"station_id":"ce4bh692rcd13ifvqea0","pricing_plan_id":"cebpf4jnsgd1na2vs0mg"},{"bike_id":"99c96722-046d-4279-a15b-c7f7d5935166","system_id":"levelo_inurba_marseille","lat":43.28153,"lon":5.42652,"is_reserved":false,"is_disabled":false,"rental_uris":{"android":"levelo://app?vid=99c96722-046d-4279-a15b-c7f7d5935166","ios":"levelo://app?vid=99c96722-046d-4279-a15b-c7f7d5935166"},"vehicle_type_id":"4","last_reported":1778525348,"current_range_meters":4800,"station_id":"ce4bhnh2rcd13ifvqgug","pricing_plan_id":"cebpf4jnsgd1na2vs0mg"},{"bike_id":"b5ed26f9-a3a8-4d08-bd35-011709374a8f","system_id":"levelo_inurba_marseille","lat":43.28708,"lon":5.37392,"is_reserved":false,"is_disabled":false,"rental_uris":{"android":"levelo://app?vid=b5ed26f9-a3a8-4d08-bd35-011709374a8f","ios":"levelo://app?vid=b5ed26f9-a3a8-4d08-bd35-011709374a8f"},"vehicle_type_id":"4","last_reported":1778525348,"current_range_meters":4800,"station_id":"ce4bh3p2rcd13ifvqdq0","pricing_plan_id":"cebpf4jnsgd1na2vs0mg"},{"bike_id":"94c7adb8-7b44-440f-88bf-b37804150397","system_id":"levelo_inurba_marseille","lat":43.27063,"lon":5.42276,"is_reserved":false,"is_disabled":false,"rental_uris":{"android":"levelo://app?vid=94c7adb8-7b44-440f-88bf-b37804150397","ios":"levelo://app?vid=94c7adb8-7b44-440f-88bf-b37804150397"},"vehicle_type_id":"4","last_reported":1778525348,"current_range_meters":4800,"station_id":"ce4bhk92rcd13ifvqgb0","pricing_plan_id":"cebpf4jnsgd1na2vs0mg"},{"bike_id":"e5c479a1-a598-4fbd-9a93-5d6737fa5b83","system_id":"levelo_inurba_marseille","lat":43.32047,"lon":5.41548,"is_reserved":false,"is_disabled":false,"rental_uris":{"android":"levelo://app?vid=e5c479a1-a598-4fbd-9a93-5d6737fa5b83","ios":"levelo://app?vid=e5c479a1-a598-4fbd-9a93-5d6737fa5b83"},"vehicle_type_id":"4","last_reported":1778525348,"current_range_meters":4800,"station_id":"ce4bhq92rcd13ifvqhkg","pricing_plan_id":"cebpf4jnsgd1na2vs0mg"},{"bike_id":"964ca3ba-09c6-46d1-8cdd-5a247f468c54","system_id":"levelo_inurba_marseille","lat":43.28417,"lon":5.34989,"is_reserved":false,"is_disabled":false,"rental_uris":{"android":"levelo://app?vid=964ca3ba-09c6-46d1-8cdd-5a247f468c54","ios":"levelo://app?vid=964ca3ba-09c6-46d1-8cdd-5a247f468c54"},"vehicle_type_id":"4","last_reported":1778525348,"current_range_meters":4800,"station_id":"ce4bhbh2rcd13ifvqepg","pricing_plan_id":"cebpf4jnsgd1na2vs0mg"},{"bike_id":"c1b6e664-0dff-4a91-8be0-ef199814b92f","system_id":"levelo_inurba_marseille","lat":43.2496,"lon":5.40489,"is_reserved":false,"is_disabled":false,"rental_uris":{"android":"levelo://app?vid=c1b6e664-0dff-4a91-8be0-ef199814b92f","ios":"levelo://app?vid=c1b6e664-0dff-4a91-8be0-ef199814b92f"},"vehicle_type_id":"4","last_reported":1778525348,"current_range_meters":4800,"station_id":"st_d2ngiaodas8pm72gd1h0","pricing_plan_id":"cebpf4jnsgd1na2vs0mg"},{"bike_id":"d4aff205-73f1-42ee-8e1f-95ea17a0f3d5","system_id":"levelo_inurba_marseille","lat":43.28867,"lon":5.37801,"is_reserved":false,"is_disabled":false,"rental_uris":{"android":"levelo://app?vid=d4aff205-73f1-42ee-8e1f-95ea17a0f3d5","ios":"levelo://app?vid=d4aff205-73f1-42ee-8e1f-95ea17a0f3d5"},"vehicle_type_id":"4","last_reported":1778525348,"current_range_meters":4800,"station_id":"","pricing_plan_id":"cebpf4jnsgd1na2vs0mg"},{"bike_id":"17a9247e-700d-4835-b466-6530ebf13e02","system_id":"levelo_inurba_marseille","lat":43.305635,"lon":5.365536,"is_reserved":false,"is_disabled":false,"rental_uris":{"android":"levelo://app?vid=17a9247e-700d-4835-b466-6530ebf13e02","ios":"levelo://app?vid=17a9247e-700d-4835-b466-6530ebf13e02"},"vehicle_type_id":"4","last_reported":1778525348,"current_range_meters":4800,"station_id":"ce4bgs12rcd13ifvqcag","pricing_plan_id":"cebpf4jnsgd1na2vs0mg"},{"bike_id":"b5ec01f2-b17b-439a-a31f-ab8c4fa7e42a","system_id":"levelo_inurba_marseille","lat":43.292,"lon":5.39304,"is_reserved":false,"is_disabled":false,"rental_uris":{"android":"levelo://app?vid=b5ec01f2-b17b-439a-a31f-ab8c4fa7e42a","ios":"levelo://app?vid=b5ec01f2-b17b-439a-a31f-ab8c4fa7e42a"},"vehicle_type_id":"4","last_reported":1778525348,"current_range_meters":4800,"station_id":"ce4bh192rcd13ifvqdd0","pricing_plan_id":"cebpf4jnsgd1na2vs0mg"},{"bike_id":"bc8ed7c9-6fd5-4d94-80f9-94b559aa7956","system_id":"levelo_inurba_marseille","lat":43.28617,"lon":5.35111,"is_reserved":false,"is_disabled":false,"rental_uris":{"android":"levelo://app?vid=bc8ed7c9-6fd5-4d94-80f9-94b559aa7956","ios":"levelo://app?vid=bc8ed7c9-6fd5-4d94-80f9-94b559aa7956"},"vehicle_type_id":"4","last_reported":1778525348,"current_range_meters":4800,"station_id":"ce4bhch2rcd13ifvqeug","pricing_plan_id":"cebpf4jnsgd1na2vs0mg"},{"bike_id":"85b91fc3-5e4b-4ab8-871e-244077c4ec75","system_id":"levelo_inurba_marseille","lat":43.24622,"lon":5.43137,"is_reserved":false,"is_disabled":false,"rental_uris":{"android":"levelo://app?vid=85b91fc3-5e4b-4ab8-871e-244077c4ec75","ios":"levelo://app?vid=85b91fc3-5e4b-4ab8-871e-244077c4ec75"},"vehicle_type_id":"4","last_reported":1778525348,"current_range_meters":4800,"station_id":"st_d2m6c4gdas8pm72e190g","pricing_plan_id":"cebpf4jnsgd1na2vs0mg"},{"bike_id":"55ffb50f-2fd4-4e52-8ede-6286e349f10a","system_id":"levelo_inurba_marseille","lat":43.21187,"lon":5.35073,"is_reserved":false,"is_disabled":true,"rental_uris":{"android":"levelo://app?vid=55ffb50f-2fd4-4e52-8ede-6286e349f10a","ios":"levelo://app?vid=55ffb50f-2fd4-4e52-8ede-6286e349f10a"},"vehicle_type_id":"4","last_reported":1778525348,"current_range_meters":4800,"station_id":"st_cvj6sg6p6f1abm77japg","pricing_plan_id":"cebpf4jnsgd1na2vs0mg"},{"bike_id":"8fda15f4-4d05-4cf7-a767-45b8d7531dc1","system_id":"levelo_inurba_marseille","lat":43.21746,"lon":5.346,"is_reserved":false,"is_disabled":false,"rental_uris":{"android":"levelo://app?vid=8fda15f4-4d05-4cf7-a767-45b8d7531dc1","ios":"levelo://app?vid=8fda15f4-4d05-4cf7-a767-45b8d7531dc1"},"vehicle_type_id":"4","last_reported":1778525348,"current_range_meters":4800,"station_id":"st_cvj6r9ubvosntc0bgbag","pricing_plan_id":"cebpf4jnsgd1na2vs0mg"},{"bike_id":"735acf5a-4df3-4724-bfab-8be70eff296f","system_id":"levelo_inurba_marseille","lat":43.27844,"lon":5.40669,"is_reserved":false,"is_disabled":false,"rental_uris":{"android":"levelo://app?vid=735acf5a-4df3-4724-bfab-8be70eff296f","ios":"levelo://app?vid=735acf5a-4df3-4724-bfab-8be70eff296f"},"vehicle_type_id":"4","last_reported":1778525348,"current_range_meters":5600,"station_id":"","pricing_plan_id":"cebpf4jnsgd1na2vs0mg"},{"bike_id":"2a88c8d6-901a-46de-936e-8ca8169700e0","system_id":"levelo_inurba_marseille","lat":43.2465,"lon":5.38891,"is_reserved":false,"is_disabled":false,"rental_uris":{"android":"levelo://app?vid=2a88c8d6-901a-46de-936e-8ca8169700e0","ios":"levelo://app?vid=2a88c8d6-901a-46de-936e-8ca8169700e0"},"vehicle_type_id":"4","last_reported":1778525348,"current_range_meters":5600,"station_id":"ce4bhg12rcd13ifvqf60","pricing_plan_id":"cebpf4jnsgd1na2vs0mg"},{"bike_id":"44b82dc4-674a-446b-8c81-727d389f2177","system_id":"levelo_inurba_marseille","lat":43.28696,"lon":5.46682,"is_reserved":false,"is_disabled":false,"rental_uris":{"android":"levelo://app?vid=44b82dc4-674a-446b-8c81-727d389f2177","ios":"levelo://app?vid=44b82dc4-674a-446b-8c81-727d389f2177"},"vehicle_type_id":"4","last_reported":1778525348,"current_range_meters":5600,"station_id":"st_d6tc3vkotcvc738tfjhg","pricing_plan_id":"cebpf4jnsgd1na2vs0mg"},{"bike_id":"0dabfbc0-4a0f-4f2b-89ae-d1cc3f1139a9","system_id":"levelo_inurba_marseille","lat":43.26553,"lon":5.37278,"is_reserved":false,"is_disabled":false,"rental_uris":{"android":"levelo://app?vid=0dabfbc0-4a0f-4f2b-89ae-d1cc3f1139a9","ios":"levelo://app?vid=0dabfbc0-4a0f-4f2b-89ae-d1cc3f1139a9"},"vehicle_type_id":"4","last_reported":1778525348,"current_range_meters":5600,"station_id":"ce4bhg12rcd13ifvqf70","pricing_plan_id":"cebpf4jnsgd1na2vs0mg"},{"bike_id":"64c0b735-e604-4295-a4dc-68daf370ff2e","system_id":"levelo_inurba_marseille","lat":43.24163,"lon":5.36388,"is_reserved":false,"is_disabled":false,"rental_uris":{"android":"levelo://app?vid=64c0b735-e604-4295-a4dc-68daf370ff2e","ios":"levelo://app?vid=64c0b735-e604-4295-a4dc-68daf370ff2e"},"vehicle_type_id":"4","last_reported":1778525348,"current_range_meters":5600,"station_id":"cpo36qri1sfpv3e86is0","pricing_plan_id":"cebpf4jnsgd1na2vs0mg"},{"bike_id":"240219cb-71f5-46df-9051-aba53aa41bff","system_id":"levelo_inurba_marseille","lat":43.292687,"lon":5.376314,"is_reserved":false,"is_disabled":false,"rental_uris":{"android":"levelo://app?vid=240219cb-71f5-46df-9051-aba53aa41bff","ios":"levelo://app?vid=240219cb-71f5-46df-9051-aba53aa41bff"},"vehicle_type_id":"4","last_reported":1778525348,"current_range_meters":5600,"station_id":"ce4bgi12rcd13ifvqb80","pricing_plan_id":"cebpf4jnsgd1na2vs0mg"},{"bike_id":"ca4e35a0-d5f0-4e64-9a0d-eaec2ebca584","system_id":"levelo_inurba_marseille","lat":43.30801,"lon":5.38154,"is_reserved":false,"is_disabled":false,"rental_uris":{"android":"levelo://app?vid=ca4e35a0-d5f0-4e64-9a0d-eaec2ebca584","ios":"levelo://app?vid=ca4e35a0-d5f0-4e64-9a0d-eaec2ebca584"},"vehicle_type_id":"4","last_reported":1778525348,"current_range_meters":5600,"station_id":"ce4bgt12rcd13ifvqce0","pricing_plan_id":"cebpf4jnsgd1na2vs0mg"},{"bike_id":"ba87d939-b5e9-42b6-94f3-fee77c8a3594","system_id":"levelo_inurba_marseille","lat":43.268084,"lon":5.402702,"is_reserved":false,"is_disabled":false,"rental_uris":{"android":"levelo://app?vid=ba87d939-b5e9-42b6-94f3-fee77c8a3594","ios":"levelo://app?vid=ba87d939-b5e9-42b6-94f3-fee77c8a3594"},"vehicle_type_id":"4","last_reported":1778525348,"current_range_meters":5600,"station_id":"ce501612rcd8frsf0b60","pricing_plan_id":"cebpf4jnsgd1na2vs0mg"},{"bike_id":"390b0db0-9531-4ed5-8ee2-c5021109ceb1","system_id":"levelo_inurba_marseille","lat":43.26565,"lon":5.37296,"is_reserved":false,"is_disabled":false,"rental_uris":{"android":"levelo://app?vid=390b0db0-9531-4ed5-8ee2-c5021109ceb1","ios":"levelo://app?vid=390b0db0-9531-4ed5-8ee2-c5021109ceb1"},"vehicle_type_id":"4","last_reported":1778525348,"current_range_meters":5600,"station_id":"ce4bhg12rcd13ifvqf70","pricing_plan_id":"cebpf4jnsgd1na2vs0mg"},{"bike_id":"88049ccf-a823-49be-a699-eb2ad440588f","system_id":"levelo_inurba_marseille","lat":43.25884,"lon":5.3989,"is_reserved":false,"is_disabled":true,"rental_uris":{"android":"levelo://app?vid=88049ccf-a823-49be-a699-eb2ad440588f","ios":"levelo://app?vid=88049ccf-a823-49be-a699-eb2ad440588f"},"vehicle_type_id":"4","last_reported":1778525348,"current_range_meters":5600,"station_id":"ce4bhl92rcd13ifvqghg","pricing_plan_id":"cebpf4jnsgd1na2vs0mg"},{"bike_id":"5212eb38-8f93-4759-ab83-a0445116221f","system_id":"levelo_inurba_marseille","lat":43.29963,"lon":5.38506,"is_reserved":false,"is_disabled":false,"rental_uris":{"android":"levelo://app?vid=5212eb38-8f93-4759-ab83-a0445116221f","ios":"levelo://app?vid=5212eb38-8f93-4759-ab83-a0445116221f"},"vehicle_type_id":"4","last_reported":1778525348,"current_range_meters":5600,"station_id":"ce4bgj92rcd13ifvqbd0","pricing_plan_id":"cebpf4jnsgd1na2vs0mg"},{"bike_id":"85848f87-2086-4bcc-99c6-54082387897b","system_id":"levelo_inurba_marseille","lat":43.24627,"lon":5.43157,"is_reserved":false,"is_disabled":false,"rental_uris":{"android":"levelo://app?vid=85848f87-2086-4bcc-99c6-54082387897b","ios":"levelo://app?vid=85848f87-2086-4bcc-99c6-54082387897b"},"vehicle_type_id":"4","last_reported":1778525348,"current_range_meters":6000,"station_id":"st_d2m6c4gdas8pm72e190g","pricing_plan_id":"cebpf4jnsgd1na2vs0mg"},{"bike_id":"791c74b2-cd78-47b0-86de-d73597579821","system_id":"levelo_inurba_marseille","lat":43.305964,"lon":5.393521,"is_reserved":false,"is_disabled":true,"rental_uris":{"android":"levelo://app?vid=791c74b2-cd78-47b0-86de-d73597579821","ios":"levelo://app?vid=791c74b2-cd78-47b0-86de-d73597579821"},"vehicle_type_id":"4","last_reported":1778525348,"current_range_meters":6000,"station_id":"ce4bgh92rcd13ifvqb40","pricing_plan_id":"cebpf4jnsgd1na2vs0mg"},{"bike_id":"ca8fc2f4-2b28-46f5-a851-53f57db24260","system_id":"levelo_inurba_marseille","lat":43.29787,"lon":5.39347,"is_reserved":false,"is_disabled":false,"rental_uris":{"android":"levelo://app?vid=ca8fc2f4-2b28-46f5-a851-53f57db24260","ios":"levelo://app?vid=ca8fc2f4-2b28-46f5-a851-53f57db24260"},"vehicle_type_id":"4","last_reported":1778525348,"current_range_meters":6000,"station_id":"chh1huq6cuj3fo74tm60","pricing_plan_id":"cebpf4jnsgd1na2vs0mg"},{"bike_id":"a4d8ca74-5e1f-4753-b683-d799f4d6ae6a","system_id":"levelo_inurba_marseille","lat":43.286124,"lon":5.351078,"is_reserved":false,"is_disabled":false,"rental_uris":{"android":"levelo://app?vid=a4d8ca74-5e1f-4753-b683-d799f4d6ae6a","ios":"levelo://app?vid=a4d8ca74-5e1f-4753-b683-d799f4d6ae6a"},"vehicle_type_id":"4","last_reported":1778525348,"current_range_meters":6000,"station_id":"ce4bhch2rcd13ifvqeug","pricing_plan_id":"cebpf4jnsgd1na2vs0mg"},{"bike_id":"98ab0ff5-8aff-4a49-b025-b2967ef87973","system_id":"levelo_inurba_marseille","lat":43.29556,"lon":5.38246,"is_reserved":false,"is_disabled":false,"rental_uris":{"android":"levelo://app?vid=98ab0ff5-8aff-4a49-b025-b2967ef87973","ios":"levelo://app?vid=98ab0ff5-8aff-4a49-b025-b2967ef87973"},"vehicle_type_id":"4","last_reported":1778525348,"current_range_meters":6000,"station_id":"","pricing_plan_id":"cebpf4jnsgd1na2vs0mg"},{"bike_id":"b2f83896-8187-42fd-827a-b9a4e4bfb462","system_id":"levelo_inurba_marseille","lat":43.29687,"lon":5.37307,"is_reserved":false,"is_disabled":false,"rental_uris":{"android":"levelo://app?vid=b2f83896-8187-42fd-827a-b9a4e4bfb462","ios":"levelo://app?vid=b2f83896-8187-42fd-827a-b9a4e4bfb462"},"vehicle_type_id":"4","last_reported":1778525348,"current_range_meters":6000,"station_id":"ce4bgk12rcd13ifvqbj0","pricing_plan_id":"cebpf4jnsgd1na2vs0mg"},{"bike_id":"8457949a-f96c-4e28-9046-d3e7d6f87d4a","system_id":"levelo_inurba_marseille","lat":43.31722,"lon":5.37748,"is_reserved":false,"is_disabled":false,"rental_uris":{"android":"levelo://app?vid=8457949a-f96c-4e28-9046-d3e7d6f87d4a","ios":"levelo://app?vid=8457949a-f96c-4e28-9046-d3e7d6f87d4a"},"vehicle_type_id":"4","last_reported":1778525348,"current_range_meters":6000,"station_id":"ce4bgth2rcd13ifvqch0","pricing_plan_id":"cebpf4jnsgd1na2vs0mg"},{"bike_id":"bebc2005-6016-4783-97ac-f70ce7c5cdd0","system_id":"levelo_inurba_marseille","lat":43.24404,"lon":5.37064,"is_reserved":false,"is_disabled":true,"rental_uris":{"android":"levelo://app?vid=bebc2005-6016-4783-97ac-f70ce7c5cdd0","ios":"levelo://app?vid=bebc2005-6016-4783-97ac-f70ce7c5cdd0"},"vehicle_type_id":"4","last_reported":1778525348,"current_range_meters":6000,"station_id":"ce4bhhh2rcd13ifvqfk0","pricing_plan_id":"cebpf4jnsgd1na2vs0mg"},{"bike_id":"1bafaa93-1657-48ae-b57a-37309f0ace6f","system_id":"levelo_inurba_marseille","lat":43.2957,"lon":5.37509,"is_reserved":false,"is_disabled":false,"rental_uris":{"android":"levelo://app?vid=1bafaa93-1657-48ae-b57a-37309f0ace6f","ios":"levelo://app?vid=1bafaa93-1657-48ae-b57a-37309f0ace6f"},"vehicle_type_id":"4","last_reported":1778525348,"current_range_meters":6000,"station_id":"ce4bgh92rcd13ifvqb50","pricing_plan_id":"cebpf4jnsgd1na2vs0mg"},{"bike_id":"c2e7a83f-4005-4921-aed2-b73c33c42bf5","system_id":"levelo_inurba_marseille","lat":43.31277,"lon":5.40161,"is_reserved":false,"is_disabled":false,"rental_uris":{"android":"levelo://app?vid=c2e7a83f-4005-4921-aed2-b73c33c42bf5","ios":"levelo://app?vid=c2e7a83f-4005-4921-aed2-b73c33c42bf5"},"vehicle_type_id":"4","last_reported":1778525348,"current_range_meters":6000,"station_id":"ce4bh092rcd13ifvqd30","pricing_plan_id":"cebpf4jnsgd1na2vs0mg"},{"bike_id":"0c64acdb-e8c1-4c41-abc8-f3040a106904","system_id":"levelo_inurba_marseille","lat":43.23988,"lon":5.36582,"is_reserved":false,"is_disabled":false,"rental_uris":{"android":"levelo://app?vid=0c64acdb-e8c1-4c41-abc8-f3040a106904","ios":"levelo://app?vid=0c64acdb-e8c1-4c41-abc8-f3040a106904"},"vehicle_type_id":"4","last_reported":1778525348,"current_range_meters":6000,"station_id":"ce4bhi12rcd13ifvqfp0","pricing_plan_id":"cebpf4jnsgd1na2vs0mg"},{"bike_id":"9d599ad8-20ec-4f47-843c-349011d99ffb","system_id":"levelo_inurba_marseille","lat":43.29519,"lon":5.39394,"is_reserved":false,"is_disabled":false,"rental_uris":{"android":"levelo://app?vid=9d599ad8-20ec-4f47-843c-349011d99ffb","ios":"levelo://app?vid=9d599ad8-20ec-4f47-843c-349011d99ffb"},"vehicle_type_id":"4","last_reported":1778525348,"current_range_meters":6000,"station_id":"ce4bh292rcd13ifvqdf0","pricing_plan_id":"cebpf4jnsgd1na2vs0mg"},{"bike_id":"e63cf599-2985-4853-a756-a9f45960f7f7","system_id":"levelo_inurba_marseille","lat":43.23895,"lon":5.37449,"is_reserved":false,"is_disabled":false,"rental_uris":{"android":"levelo://app?vid=e63cf599-2985-4853-a756-a9f45960f7f7","ios":"levelo://app?vid=e63cf599-2985-4853-a756-a9f45960f7f7"},"vehicle_type_id":"4","last_reported":1778525348,"current_range_meters":6000,"station_id":"st_d6sm7csbq4hs73f8fpjg","pricing_plan_id":"cebpf4jnsgd1na2vs0mg"},{"bike_id":"3909cc5a-c557-46cd-854e-7b073febb426","system_id":"levelo_inurba_marseille","lat":43.29868,"lon":5.39731,"is_reserved":false,"is_disabled":false,"rental_uris":{"android":"levelo://app?vid=3909cc5a-c557-46cd-854e-7b073febb426","ios":"levelo://app?vid=3909cc5a-c557-46cd-854e-7b073febb426"},"vehicle_type_id":"4","last_reported":1778525348,"current_range_meters":6000,"station_id":"ce4bh0h2rcd13ifvqd50","pricing_plan_id":"cebpf4jnsgd1na2vs0mg"},{"bike_id":"2f5c7f86-49ca-4c26-8239-f2b3bbf51fda","system_id":"levelo_inurba_marseille","lat":43.26517,"lon":5.3954,"is_reserved":false,"is_disabled":false,"rental_uris":{"android":"levelo://app?vid=2f5c7f86-49ca-4c26-8239-f2b3bbf51fda","ios":"levelo://app?vid=2f5c7f86-49ca-4c26-8239-f2b3bbf51fda"},"vehicle_type_id":"4","last_reported":1778525348,"current_range_meters":6400,"station_id":"ce4bhi12rcd13ifvqfq0","pricing_plan_id":"cebpf4jnsgd1na2vs0mg"},{"bike_id":"bd76e70d-e925-443d-accb-3c4cac54fa53","system_id":"levelo_inurba_marseille","lat":43.28745,"lon":5.38972,"is_reserved":false,"is_disabled":false,"rental_uris":{"android":"levelo://app?vid=bd76e70d-e925-443d-accb-3c4cac54fa53","ios":"levelo://app?vid=bd76e70d-e925-443d-accb-3c4cac54fa53"},"vehicle_type_id":"4","last_reported":1778525348,"current_range_meters":6400,"station_id":"ce4bh3h2rcd13ifvqdo0","pricing_plan_id":"cebpf4jnsgd1na2vs0mg"},{"bike_id":"2045449d-114f-47cf-8791-7d12be9f5d63","system_id":"levelo_inurba_marseille","lat":43.29818,"lon":5.44062,"is_reserved":false,"is_disabled":false,"rental_uris":{"android":"levelo://app?vid=2045449d-114f-47cf-8791-7d12be9f5d63","ios":"levelo://app?vid=2045449d-114f-47cf-8791-7d12be9f5d63"},"vehicle_type_id":"4","last_reported":1778525348,"current_range_meters":6400,"station_id":"st_d3jp68qikq2c7381ktn0","pricing_plan_id":"cebpf4jnsgd1na2vs0mg"},{"bike_id":"40d5c8e1-bbd6-4e1b-b79d-3819ff28e45f","system_id":"levelo_inurba_marseille","lat":43.28267,"lon":5.35075,"is_reserved":false,"is_disabled":false,"rental_uris":{"android":"levelo://app?vid=40d5c8e1-bbd6-4e1b-b79d-3819ff28e45f","ios":"levelo://app?vid=40d5c8e1-bbd6-4e1b-b79d-3819ff28e45f"},"vehicle_type_id":"4","last_reported":1778525348,"current_range_meters":6400,"station_id":"ce4bhbp2rcd13ifvqerg","pricing_plan_id":"cebpf4jnsgd1na2vs0mg"},{"bike_id":"cdf5b7a0-bfcb-47a4-9fac-d679f268fc50","system_id":"levelo_inurba_marseille","lat":43.30431,"lon":5.39744,"is_reserved":false,"is_disabled":false,"rental_uris":{"android":"levelo://app?vid=cdf5b7a0-bfcb-47a4-9fac-d679f268fc50","ios":"levelo://app?vid=cdf5b7a0-bfcb-47a4-9fac-d679f268fc50"},"vehicle_type_id":"4","last_reported":1778525348,"current_range_meters":6400,"station_id":"ce4bh092rcd13ifvqd20","pricing_plan_id":"cebpf4jnsgd1na2vs0mg"},{"bike_id":"43398c28-7b43-455a-926b-944d373087a7","system_id":"levelo_inurba_marseille","lat":43.2925,"lon":5.38437,"is_reserved":false,"is_disabled":false,"rental_uris":{"android":"levelo://app?vid=43398c28-7b43-455a-926b-944d373087a7","ios":"levelo://app?vid=43398c28-7b43-455a-926b-944d373087a7"},"vehicle_type_id":"4","last_reported":1778525348,"current_range_meters":6400,"station_id":"ce4bh692rcd13ifvqea0","pricing_plan_id":"cebpf4jnsgd1na2vs0mg"},{"bike_id":"8c05c670-fb97-44ec-8b9a-408f0f845305","system_id":"levelo_inurba_marseille","lat":43.28611,"lon":5.37065,"is_reserved":false,"is_disabled":false,"rental_uris":{"android":"levelo://app?vid=8c05c670-fb97-44ec-8b9a-408f0f845305","ios":"levelo://app?vid=8c05c670-fb97-44ec-8b9a-408f0f845305"},"vehicle_type_id":"4","last_reported":1778525348,"current_range_meters":6400,"station_id":"ce4bht12rcd13ifvqi60","pricing_plan_id":"cebpf4jnsgd1na2vs0mg"},{"bike_id":"ed38f90f-8a32-4d6c-b2bc-fd0c34613ef4","system_id":"levelo_inurba_marseille","lat":43.29475,"lon":5.38632,"is_reserved":false,"is_disabled":false,"rental_uris":{"android":"levelo://app?vid=ed38f90f-8a32-4d6c-b2bc-fd0c34613ef4","ios":"levelo://app?vid=ed38f90f-8a32-4d6c-b2bc-fd0c34613ef4"},"vehicle_type_id":"4","last_reported":1778525348,"current_range_meters":6400,"station_id":"","pricing_plan_id":"cebpf4jnsgd1na2vs0mg"},{"bike_id":"e6f97e5e-858e-416a-abde-cea17b95debe","system_id":"levelo_inurba_marseille","lat":43.28719,"lon":5.46681,"is_reserved":false,"is_disabled":false,"rental_uris":{"android":"levelo://app?vid=e6f97e5e-858e-416a-abde-cea17b95debe","ios":"levelo://app?vid=e6f97e5e-858e-416a-abde-cea17b95debe"},"vehicle_type_id":"4","last_reported":1778525348,"current_range_meters":6400,"station_id":"","pricing_plan_id":"cebpf4jnsgd1na2vs0mg"},{"bike_id":"20bbc245-de50-4e87-87da-7ba97d8821ed","system_id":"levelo_inurba_marseille","lat":43.28941,"lon":5.36632,"is_reserved":false,"is_disabled":false,"rental_uris":{"android":"levelo://app?vid=20bbc245-de50-4e87-87da-7ba97d8821ed","ios":"levelo://app?vid=20bbc245-de50-4e87-87da-7ba97d8821ed"},"vehicle_type_id":"4","last_reported":1778525348,"current_range_meters":6400,"station_id":"ce4bhap2rcd13ifvqek0","pricing_plan_id":"cebpf4jnsgd1na2vs0mg"},{"bike_id":"14fab16d-8e96-4004-b49c-64eb32515d3d","system_id":"levelo_inurba_marseille","lat":43.26935,"lon":5.38926,"is_reserved":false,"is_disabled":false,"rental_uris":{"android":"levelo://app?vid=14fab16d-8e96-4004-b49c-64eb32515d3d","ios":"levelo://app?vid=14fab16d-8e96-4004-b49c-64eb32515d3d"},"vehicle_type_id":"4","last_reported":1778525348,"current_range_meters":6400,"station_id":"ce4bhhh2rcd13ifvqfl0","pricing_plan_id":"cebpf4jnsgd1na2vs0mg"},{"bike_id":"9aad11a4-9a52-4fec-9725-ef5ceb82088c","system_id":"levelo_inurba_marseille","lat":43.24629,"lon":5.43158,"is_reserved":false,"is_disabled":true,"rental_uris":{"android":"levelo://app?vid=9aad11a4-9a52-4fec-9725-ef5ceb82088c","ios":"levelo://app?vid=9aad11a4-9a52-4fec-9725-ef5ceb82088c"},"vehicle_type_id":"4","last_reported":1778525348,"current_range_meters":6400,"station_id":"st_d2m6c4gdas8pm72e190g","pricing_plan_id":"cebpf4jnsgd1na2vs0mg"},{"bike_id":"4b8e7de5-f943-4c39-a632-54a908e5ef58","system_id":"levelo_inurba_marseille","lat":43.28416,"lon":5.3752,"is_reserved":false,"is_disabled":false,"rental_uris":{"android":"levelo://app?vid=4b8e7de5-f943-4c39-a632-54a908e5ef58","ios":"levelo://app?vid=4b8e7de5-f943-4c39-a632-54a908e5ef58"},"vehicle_type_id":"4","last_reported":1778525348,"current_range_meters":6400,"station_id":"ce4bh412rcd13ifvqds0","pricing_plan_id":"cebpf4jnsgd1na2vs0mg"},{"bike_id":"0a9432b0-8f95-49f7-bf8e-b0374fe74916","system_id":"levelo_inurba_marseille","lat":43.286993,"lon":5.373838,"is_reserved":false,"is_disabled":false,"rental_uris":{"android":"levelo://app?vid=0a9432b0-8f95-49f7-bf8e-b0374fe74916","ios":"levelo://app?vid=0a9432b0-8f95-49f7-bf8e-b0374fe74916"},"vehicle_type_id":"4","last_reported":1778525348,"current_range_meters":6400,"station_id":"ce4bh3p2rcd13ifvqdq0","pricing_plan_id":"cebpf4jnsgd1na2vs0mg"},{"bike_id":"d41dd175-5bfe-48c4-8352-4a80d32b168e","system_id":"levelo_inurba_marseille","lat":43.25039,"lon":5.38881,"is_reserved":false,"is_disabled":false,"rental_uris":{"android":"levelo://app?vid=d41dd175-5bfe-48c4-8352-4a80d32b168e","ios":"levelo://app?vid=d41dd175-5bfe-48c4-8352-4a80d32b168e"},"vehicle_type_id":"4","last_reported":1778525348,"current_range_meters":6400,"station_id":"ce4bhgp2rcd13ifvqfd0","pricing_plan_id":"cebpf4jnsgd1na2vs0mg"},{"bike_id":"a687de40-285a-4965-b64b-ee2f6457bc7f","system_id":"levelo_inurba_marseille","lat":43.337444,"lon":5.374475,"is_reserved":false,"is_disabled":false,"rental_uris":{"android":"levelo://app?vid=a687de40-285a-4965-b64b-ee2f6457bc7f","ios":"levelo://app?vid=a687de40-285a-4965-b64b-ee2f6457bc7f"},"vehicle_type_id":"4","last_reported":1778525348,"current_range_meters":6800,"station_id":"ce4bgjh2rcd13ifvqbf0","pricing_plan_id":"cebpf4jnsgd1na2vs0mg"},{"bike_id":"cf7ae309-d891-460e-ab87-bc46e8324309","system_id":"levelo_inurba_marseille","lat":43.33551,"lon":5.37458,"is_reserved":false,"is_disabled":false,"rental_uris":{"android":"levelo://app?vid=cf7ae309-d891-460e-ab87-bc46e8324309","ios":"levelo://app?vid=cf7ae309-d891-460e-ab87-bc46e8324309"},"vehicle_type_id":"4","last_reported":1778525348,"current_range_meters":6800,"station_id":"st_d46tts09ee8s73dlu43g","pricing_plan_id":"cebpf4jnsgd1na2vs0mg"},{"bike_id":"3476530f-c2e4-43c4-97d0-7b60ad96eae6","system_id":"levelo_inurba_marseille","lat":43.29211,"lon":5.36013,"is_reserved":false,"is_disabled":false,"rental_uris":{"android":"levelo://app?vid=3476530f-c2e4-43c4-97d0-7b60ad96eae6","ios":"levelo://app?vid=3476530f-c2e4-43c4-97d0-7b60ad96eae6"},"vehicle_type_id":"4","last_reported":1778525348,"current_range_meters":6800,"station_id":"ce4bhbh2rcd13ifvqeqg","pricing_plan_id":"cebpf4jnsgd1na2vs0mg"},{"bike_id":"ac3d0288-806c-484d-a53f-2698f9156917","system_id":"levelo_inurba_marseille","lat":43.26059,"lon":5.39392,"is_reserved":false,"is_disabled":false,"rental_uris":{"android":"levelo://app?vid=ac3d0288-806c-484d-a53f-2698f9156917","ios":"levelo://app?vid=ac3d0288-806c-484d-a53f-2698f9156917"},"vehicle_type_id":"4","last_reported":1778525348,"current_range_meters":6800,"station_id":"ce4bhh92rcd13ifvqfj0","pricing_plan_id":"cebpf4jnsgd1na2vs0mg"},{"bike_id":"e0dcdb7c-f6c9-48b1-9d51-9065196df587","system_id":"levelo_inurba_marseille","lat":43.2815,"lon":5.4264,"is_reserved":false,"is_disabled":true,"rental_uris":{"android":"levelo://app?vid=e0dcdb7c-f6c9-48b1-9d51-9065196df587","ios":"levelo://app?vid=e0dcdb7c-f6c9-48b1-9d51-9065196df587"},"vehicle_type_id":"4","last_reported":1778525348,"current_range_meters":6800,"station_id":"ce4bhnh2rcd13ifvqgug","pricing_plan_id":"cebpf4jnsgd1na2vs0mg"},{"bike_id":"3f548fa3-aa24-4628-8da4-99af516773b2","system_id":"levelo_inurba_marseille","lat":43.2792,"lon":5.41082,"is_reserved":false,"is_disabled":false,"rental_uris":{"android":"levelo://app?vid=3f548fa3-aa24-4628-8da4-99af516773b2","ios":"levelo://app?vid=3f548fa3-aa24-4628-8da4-99af516773b2"},"vehicle_type_id":"4","last_reported":1778525348,"current_range_meters":6800,"station_id":"ce4bhnp2rcd13ifvqh0g","pricing_plan_id":"cebpf4jnsgd1na2vs0mg"},{"bike_id":"662c8520-bfe6-4791-897f-ed06d541dc6e","system_id":"levelo_inurba_marseille","lat":43.27073,"lon":5.38305,"is_reserved":false,"is_disabled":false,"rental_uris":{"android":"levelo://app?vid=662c8520-bfe6-4791-897f-ed06d541dc6e","ios":"levelo://app?vid=662c8520-bfe6-4791-897f-ed06d541dc6e"},"vehicle_type_id":"4","last_reported":1778525348,"current_range_meters":6800,"station_id":"st_d3n2fo6cfp8s73cte1j0","pricing_plan_id":"cebpf4jnsgd1na2vs0mg"},{"bike_id":"dbc30a86-cb82-4b41-bc40-321ccad8be9f","system_id":"levelo_inurba_marseille","lat":43.29611,"lon":5.37712,"is_reserved":false,"is_disabled":true,"rental_uris":{"android":"levelo://app?vid=dbc30a86-cb82-4b41-bc40-321ccad8be9f","ios":"levelo://app?vid=dbc30a86-cb82-4b41-bc40-321ccad8be9f"},"vehicle_type_id":"4","last_reported":1778525348,"current_range_meters":6800,"station_id":"ce4bgi92rcd13ifvqb90","pricing_plan_id":"cebpf4jnsgd1na2vs0mg"},{"bike_id":"369803e0-cf2f-4230-a91a-a5b633dc7de3","system_id":"levelo_inurba_marseille","lat":43.33156,"lon":5.37746,"is_reserved":false,"is_disabled":false,"rental_uris":{"android":"levelo://app?vid=369803e0-cf2f-4230-a91a-a5b633dc7de3","ios":"levelo://app?vid=369803e0-cf2f-4230-a91a-a5b633dc7de3"},"vehicle_type_id":"4","last_reported":1778525348,"current_range_meters":6800,"station_id":"","pricing_plan_id":"cebpf4jnsgd1na2vs0mg"},{"bike_id":"ac2f3b4e-4d5f-47ab-a54f-a79122b769fc","system_id":"levelo_inurba_marseille","lat":43.33156,"lon":5.37689,"is_reserved":false,"is_disabled":false,"rental_uris":{"android":"levelo://app?vid=ac2f3b4e-4d5f-47ab-a54f-a79122b769fc","ios":"levelo://app?vid=ac2f3b4e-4d5f-47ab-a54f-a79122b769fc"},"vehicle_type_id":"4","last_reported":1778525348,"current_range_meters":6800,"station_id":"st_d46cu089ee8s73dldbu0","pricing_plan_id":"cebpf4jnsgd1na2vs0mg"},{"bike_id":"8ca63be4-57b3-4179-8d1f-c116772701a0","system_id":"levelo_inurba_marseille","lat":43.26495,"lon":5.37302,"is_reserved":false,"is_disabled":false,"rental_uris":{"android":"levelo://app?vid=8ca63be4-57b3-4179-8d1f-c116772701a0","ios":"levelo://app?vid=8ca63be4-57b3-4179-8d1f-c116772701a0"},"vehicle_type_id":"4","last_reported":1778525348,"current_range_meters":6800,"station_id":"","pricing_plan_id":"cebpf4jnsgd1na2vs0mg"},{"bike_id":"704ef1b4-c37f-42f2-856b-86a2d338b4e1","system_id":"levelo_inurba_marseille","lat":43.21189,"lon":5.35085,"is_reserved":false,"is_disabled":false,"rental_uris":{"android":"levelo://app?vid=704ef1b4-c37f-42f2-856b-86a2d338b4e1","ios":"levelo://app?vid=704ef1b4-c37f-42f2-856b-86a2d338b4e1"},"vehicle_type_id":"4","last_reported":1778525348,"current_range_meters":6800,"station_id":"st_cvj6sg6p6f1abm77japg","pricing_plan_id":"cebpf4jnsgd1na2vs0mg"},{"bike_id":"84255655-5c32-4f1a-b7e1-03bba33a9fce","system_id":"levelo_inurba_marseille","lat":43.27303,"lon":5.39103,"is_reserved":false,"is_disabled":false,"rental_uris":{"android":"levelo://app?vid=84255655-5c32-4f1a-b7e1-03bba33a9fce","ios":"levelo://app?vid=84255655-5c32-4f1a-b7e1-03bba33a9fce"},"vehicle_type_id":"4","last_reported":1778525348,"current_range_meters":6800,"station_id":"ce4bhgp2rcd13ifvqfe0","pricing_plan_id":"cebpf4jnsgd1na2vs0mg"},{"bike_id":"025c6536-0e76-4a3d-acdb-aed5f3ec9228","system_id":"levelo_inurba_marseille","lat":43.29627,"lon":5.40592,"is_reserved":false,"is_disabled":false,"rental_uris":{"android":"levelo://app?vid=025c6536-0e76-4a3d-acdb-aed5f3ec9228","ios":"levelo://app?vid=025c6536-0e76-4a3d-acdb-aed5f3ec9228"},"vehicle_type_id":"4","last_reported":1778525348,"current_range_meters":6800,"station_id":"ce4bh0h2rcd13ifvqd60","pricing_plan_id":"cebpf4jnsgd1na2vs0mg"},{"bike_id":"78081d02-b68f-4a28-b0d3-fb08cdf3d612","system_id":"levelo_inurba_marseille","lat":43.28415,"lon":5.37519,"is_reserved":false,"is_disabled":false,"rental_uris":{"android":"levelo://app?vid=78081d02-b68f-4a28-b0d3-fb08cdf3d612","ios":"levelo://app?vid=78081d02-b68f-4a28-b0d3-fb08cdf3d612"},"vehicle_type_id":"4","last_reported":1778525348,"current_range_meters":6800,"station_id":"ce4bh412rcd13ifvqds0","pricing_plan_id":"cebpf4jnsgd1na2vs0mg"},{"bike_id":"9efa53dc-9801-474a-81e3-4a5968c0efbf","system_id":"levelo_inurba_marseille","lat":43.30293,"lon":5.39199,"is_reserved":false,"is_disabled":false,"rental_uris":{"android":"levelo://app?vid=9efa53dc-9801-474a-81e3-4a5968c0efbf","ios":"levelo://app?vid=9efa53dc-9801-474a-81e3-4a5968c0efbf"},"vehicle_type_id":"4","last_reported":1778525348,"current_range_meters":6800,"station_id":"ce4bgkh2rcd13ifvqbk0","pricing_plan_id":"cebpf4jnsgd1na2vs0mg"},{"bike_id":"1fa4b452-9d0c-43b3-a29a-3d70cafac9f2","system_id":"levelo_inurba_marseille","lat":43.32274,"lon":5.36892,"is_reserved":false,"is_disabled":false,"rental_uris":{"android":"levelo://app?vid=1fa4b452-9d0c-43b3-a29a-3d70cafac9f2","ios":"levelo://app?vid=1fa4b452-9d0c-43b3-a29a-3d70cafac9f2"},"vehicle_type_id":"4","last_reported":1778525348,"current_range_meters":6800,"station_id":"","pricing_plan_id":"cebpf4jnsgd1na2vs0mg"},{"bike_id":"1b1c72c9-3be4-43c0-b7b2-dbd5ba8023b5","system_id":"levelo_inurba_marseille","lat":43.28417,"lon":5.34983,"is_reserved":false,"is_disabled":false,"rental_uris":{"android":"levelo://app?vid=1b1c72c9-3be4-43c0-b7b2-dbd5ba8023b5","ios":"levelo://app?vid=1b1c72c9-3be4-43c0-b7b2-dbd5ba8023b5"},"vehicle_type_id":"4","last_reported":1778525348,"current_range_meters":6800,"station_id":"ce4bhbh2rcd13ifvqepg","pricing_plan_id":"cebpf4jnsgd1na2vs0mg"},{"bike_id":"cf6e1ad4-0d06-4814-9123-fe5de6e20024","system_id":"levelo_inurba_marseille","lat":43.30699,"lon":5.3736,"is_reserved":false,"is_disabled":false,"rental_uris":{"android":"levelo://app?vid=cf6e1ad4-0d06-4814-9123-fe5de6e20024","ios":"levelo://app?vid=cf6e1ad4-0d06-4814-9123-fe5de6e20024"},"vehicle_type_id":"4","last_reported":1778525348,"current_range_meters":6800,"station_id":"","pricing_plan_id":"cebpf4jnsgd1na2vs0mg"},{"bike_id":"eb77a4c1-971a-4242-88f3-b2ec5c06ea79","system_id":"levelo_inurba_marseille","lat":43.33158,"lon":5.37682,"is_reserved":false,"is_disabled":false,"rental_uris":{"android":"levelo://app?vid=eb77a4c1-971a-4242-88f3-b2ec5c06ea79","ios":"levelo://app?vid=eb77a4c1-971a-4242-88f3-b2ec5c06ea79"},"vehicle_type_id":"4","last_reported":1778525348,"current_range_meters":6800,"station_id":"st_d46cu089ee8s73dldbu0","pricing_plan_id":"cebpf4jnsgd1na2vs0mg"},{"bike_id":"242e2d82-acd5-449c-92a9-f72b463f7b99","system_id":"levelo_inurba_marseille","lat":43.29999,"lon":5.38453,"is_reserved":false,"is_disabled":false,"rental_uris":{"android":"levelo://app?vid=242e2d82-acd5-449c-92a9-f72b463f7b99","ios":"levelo://app?vid=242e2d82-acd5-449c-92a9-f72b463f7b99"},"vehicle_type_id":"4","last_reported":1778525348,"current_range_meters":6800,"station_id":"ce4bgj92rcd13ifvqbd0","pricing_plan_id":"cebpf4jnsgd1na2vs0mg"},{"bike_id":"2b89d12d-7a84-4c6f-b7fc-f57b4076c4fb","system_id":"levelo_inurba_marseille","lat":43.29524,"lon":5.39058,"is_reserved":false,"is_disabled":false,"rental_uris":{"android":"levelo://app?vid=2b89d12d-7a84-4c6f-b7fc-f57b4076c4fb","ios":"levelo://app?vid=2b89d12d-7a84-4c6f-b7fc-f57b4076c4fb"},"vehicle_type_id":"4","last_reported":1778525348,"current_range_meters":6800,"station_id":"ce4bh3p2rcd13ifvqdp0","pricing_plan_id":"cebpf4jnsgd1na2vs0mg"},{"bike_id":"7611b2d8-e5cc-4cba-857d-a21493449522","system_id":"levelo_inurba_marseille","lat":43.29198,"lon":5.39316,"is_reserved":false,"is_disabled":false,"rental_uris":{"android":"levelo://app?vid=7611b2d8-e5cc-4cba-857d-a21493449522","ios":"levelo://app?vid=7611b2d8-e5cc-4cba-857d-a21493449522"},"vehicle_type_id":"4","last_reported":1778525348,"current_range_meters":6800,"station_id":"ce4bh192rcd13ifvqdd0","pricing_plan_id":"cebpf4jnsgd1na2vs0mg"},{"bike_id":"db56fd89-6a44-464e-b53b-8d3c5e87a5ef","system_id":"levelo_inurba_marseille","lat":43.30638,"lon":5.40085,"is_reserved":false,"is_disabled":false,"rental_uris":{"android":"levelo://app?vid=db56fd89-6a44-464e-b53b-8d3c5e87a5ef","ios":"levelo://app?vid=db56fd89-6a44-464e-b53b-8d3c5e87a5ef"},"vehicle_type_id":"4","last_reported":1778525348,"current_range_meters":7200,"station_id":"ce4bh112rcd13ifvqda0","pricing_plan_id":"cebpf4jnsgd1na2vs0mg"},{"bike_id":"e91b55d4-eedb-44c3-ad1b-00b0f561b88b","system_id":"levelo_inurba_marseille","lat":43.30882,"lon":5.3719,"is_reserved":false,"is_disabled":false,"rental_uris":{"android":"levelo://app?vid=e91b55d4-eedb-44c3-ad1b-00b0f561b88b","ios":"levelo://app?vid=e91b55d4-eedb-44c3-ad1b-00b0f561b88b"},"vehicle_type_id":"4","last_reported":1778525348,"current_range_meters":7200,"station_id":"ce4bguh2rcd13ifvqckg","pricing_plan_id":"cebpf4jnsgd1na2vs0mg"},{"bike_id":"b8033c2c-9df9-449a-b9a9-83b803e8eec4","system_id":"levelo_inurba_marseille","lat":43.27816,"lon":5.40715,"is_reserved":false,"is_disabled":false,"rental_uris":{"android":"levelo://app?vid=b8033c2c-9df9-449a-b9a9-83b803e8eec4","ios":"levelo://app?vid=b8033c2c-9df9-449a-b9a9-83b803e8eec4"},"vehicle_type_id":"4","last_reported":1778525348,"current_range_meters":7200,"station_id":"ce4bhnh2rcd13ifvqgtg","pricing_plan_id":"cebpf4jnsgd1na2vs0mg"},{"bike_id":"36db56de-6337-4067-891e-544b901c358c","system_id":"levelo_inurba_marseille","lat":43.25338,"lon":5.42172,"is_reserved":false,"is_disabled":false,"rental_uris":{"android":"levelo://app?vid=36db56de-6337-4067-891e-544b901c358c","ios":"levelo://app?vid=36db56de-6337-4067-891e-544b901c358c"},"vehicle_type_id":"4","last_reported":1778525348,"current_range_meters":7200,"station_id":"st_d2m65c5bi1j21697t3ng","pricing_plan_id":"cebpf4jnsgd1na2vs0mg"},{"bike_id":"8aa5b6fe-8d4e-4f93-9a0a-0b58264ad05b","system_id":"levelo_inurba_marseille","lat":43.24778,"lon":5.37425,"is_reserved":false,"is_disabled":false,"rental_uris":{"android":"levelo://app?vid=8aa5b6fe-8d4e-4f93-9a0a-0b58264ad05b","ios":"levelo://app?vid=8aa5b6fe-8d4e-4f93-9a0a-0b58264ad05b"},"vehicle_type_id":"4","last_reported":1778525348,"current_range_meters":7200,"station_id":"ce4bhgh2rcd13ifvqfb0","pricing_plan_id":"cebpf4jnsgd1na2vs0mg"},{"bike_id":"f029f8ae-e922-401a-85cf-d8779cc416ab","system_id":"levelo_inurba_marseille","lat":43.29943,"lon":5.38526,"is_reserved":false,"is_disabled":false,"rental_uris":{"android":"levelo://app?vid=f029f8ae-e922-401a-85cf-d8779cc416ab","ios":"levelo://app?vid=f029f8ae-e922-401a-85cf-d8779cc416ab"},"vehicle_type_id":"4","last_reported":1778525348,"current_range_meters":7200,"station_id":"ce4bgj92rcd13ifvqbd0","pricing_plan_id":"cebpf4jnsgd1na2vs0mg"},{"bike_id":"843c9c4f-794a-4c43-b393-96f847fd3d7c","system_id":"levelo_inurba_marseille","lat":43.30299,"lon":5.40463,"is_reserved":false,"is_disabled":false,"rental_uris":{"android":"levelo://app?vid=843c9c4f-794a-4c43-b393-96f847fd3d7c","ios":"levelo://app?vid=843c9c4f-794a-4c43-b393-96f847fd3d7c"},"vehicle_type_id":"4","last_reported":1778525348,"current_range_meters":7200,"station_id":"ce4bh012rcd13ifvqd10","pricing_plan_id":"cebpf4jnsgd1na2vs0mg"},{"bike_id":"84c16214-58d9-4301-bfed-3929feca2904","system_id":"levelo_inurba_marseille","lat":43.26551,"lon":5.37282,"is_reserved":false,"is_disabled":false,"rental_uris":{"android":"levelo://app?vid=84c16214-58d9-4301-bfed-3929feca2904","ios":"levelo://app?vid=84c16214-58d9-4301-bfed-3929feca2904"},"vehicle_type_id":"4","last_reported":1778525348,"current_range_meters":7200,"station_id":"ce4bhg12rcd13ifvqf70","pricing_plan_id":"cebpf4jnsgd1na2vs0mg"},{"bike_id":"c300b24d-578c-4534-b551-a731de8afa41","system_id":"levelo_inurba_marseille","lat":43.31988,"lon":5.38161,"is_reserved":false,"is_disabled":false,"rental_uris":{"android":"levelo://app?vid=c300b24d-578c-4534-b551-a731de8afa41","ios":"levelo://app?vid=c300b24d-578c-4534-b551-a731de8afa41"},"vehicle_type_id":"4","last_reported":1778525348,"current_range_meters":7200,"station_id":"ce4bhr12rcd13ifvqhpg","pricing_plan_id":"cebpf4jnsgd1na2vs0mg"},{"bike_id":"d54f05f9-b0c8-4527-b8c2-0e7ae1b4abd6","system_id":"levelo_inurba_marseille","lat":43.31079,"lon":5.4243,"is_reserved":false,"is_disabled":false,"rental_uris":{"android":"levelo://app?vid=d54f05f9-b0c8-4527-b8c2-0e7ae1b4abd6","ios":"levelo://app?vid=d54f05f9-b0c8-4527-b8c2-0e7ae1b4abd6"},"vehicle_type_id":"4","last_reported":1778525348,"current_range_meters":7200,"station_id":"ce4bhp92rcd13ifvqhag","pricing_plan_id":"cebpf4jnsgd1na2vs0mg"},{"bike_id":"06845545-d530-4f11-90d2-b18a3cc972db","system_id":"levelo_inurba_marseille","lat":43.28095,"lon":5.37853,"is_reserved":false,"is_disabled":false,"rental_uris":{"android":"levelo://app?vid=06845545-d530-4f11-90d2-b18a3cc972db","ios":"levelo://app?vid=06845545-d530-4f11-90d2-b18a3cc972db"},"vehicle_type_id":"4","last_reported":1778525348,"current_range_meters":7200,"station_id":"ce4bha12rcd13ifvqee0","pricing_plan_id":"cebpf4jnsgd1na2vs0mg"},{"bike_id":"f99e5b30-6adf-4af6-9228-9ab20336512c","system_id":"levelo_inurba_marseille","lat":43.21753,"lon":5.34594,"is_reserved":false,"is_disabled":true,"rental_uris":{"android":"levelo://app?vid=f99e5b30-6adf-4af6-9228-9ab20336512c","ios":"levelo://app?vid=f99e5b30-6adf-4af6-9228-9ab20336512c"},"vehicle_type_id":"4","last_reported":1778525348,"current_range_meters":7200,"station_id":"st_cvj6r9ubvosntc0bgbag","pricing_plan_id":"cebpf4jnsgd1na2vs0mg"},{"bike_id":"c601b697-e58d-4b51-bc4b-771cefe7b023","system_id":"levelo_inurba_marseille","lat":43.2623,"lon":5.4042,"is_reserved":false,"is_disabled":false,"rental_uris":{"android":"levelo://app?vid=c601b697-e58d-4b51-bc4b-771cefe7b023","ios":"levelo://app?vid=c601b697-e58d-4b51-bc4b-771cefe7b023"},"vehicle_type_id":"4","last_reported":1778525348,"current_range_meters":7200,"station_id":"ce4bhmh2rcd13ifvqgmg","pricing_plan_id":"cebpf4jnsgd1na2vs0mg"},{"bike_id":"e3b32efc-f569-4792-8761-60c097854bfa","system_id":"levelo_inurba_marseille","lat":43.29205,"lon":5.42691,"is_reserved":false,"is_disabled":false,"rental_uris":{"android":"levelo://app?vid=e3b32efc-f569-4792-8761-60c097854bfa","ios":"levelo://app?vid=e3b32efc-f569-4792-8761-60c097854bfa"},"vehicle_type_id":"4","last_reported":1778525348,"current_range_meters":7200,"station_id":"","pricing_plan_id":"cebpf4jnsgd1na2vs0mg"},{"bike_id":"e1ce9823-28ac-48ef-be8d-52abc2aaec01","system_id":"levelo_inurba_marseille","lat":43.25585,"lon":5.38225,"is_reserved":false,"is_disabled":false,"rental_uris":{"android":"levelo://app?vid=e1ce9823-28ac-48ef-be8d-52abc2aaec01","ios":"levelo://app?vid=e1ce9823-28ac-48ef-be8d-52abc2aaec01"},"vehicle_type_id":"4","last_reported":1778525348,"current_range_meters":7200,"station_id":"ce4bhih2rcd13ifvqfs0","pricing_plan_id":"cebpf4jnsgd1na2vs0mg"},{"bike_id":"ca9dbd37-08d6-4605-b97a-99167d1a227f","system_id":"levelo_inurba_marseille","lat":43.28427,"lon":5.3499,"is_reserved":false,"is_disabled":false,"rental_uris":{"android":"levelo://app?vid=ca9dbd37-08d6-4605-b97a-99167d1a227f","ios":"levelo://app?vid=ca9dbd37-08d6-4605-b97a-99167d1a227f"},"vehicle_type_id":"4","last_reported":1778525348,"current_range_meters":8000,"station_id":"ce4bhbh2rcd13ifvqepg","pricing_plan_id":"cebpf4jnsgd1na2vs0mg"},{"bike_id":"40124baf-60e0-43e7-859f-56c1c67c0e61","system_id":"levelo_inurba_marseille","lat":43.29701,"lon":5.36621,"is_reserved":false,"is_disabled":false,"rental_uris":{"android":"levelo://app?vid=40124baf-60e0-43e7-859f-56c1c67c0e61","ios":"levelo://app?vid=40124baf-60e0-43e7-859f-56c1c67c0e61"},"vehicle_type_id":"4","last_reported":1778525348,"current_range_meters":8000,"station_id":"ce4bgn12rcd13ifvqbt0","pricing_plan_id":"cebpf4jnsgd1na2vs0mg"},{"bike_id":"3f98417d-62a3-47b4-b263-8215a81bd04c","system_id":"levelo_inurba_marseille","lat":43.23791,"lon":5.36635,"is_reserved":false,"is_disabled":true,"rental_uris":{"android":"levelo://app?vid=3f98417d-62a3-47b4-b263-8215a81bd04c","ios":"levelo://app?vid=3f98417d-62a3-47b4-b263-8215a81bd04c"},"vehicle_type_id":"4","last_reported":1778525348,"current_range_meters":8000,"station_id":"st_d3nk18o9ro0c73en2l3g","pricing_plan_id":"cebpf4jnsgd1na2vs0mg"},{"bike_id":"5aa4839d-99e5-4a1c-95cb-8253baf14528","system_id":"levelo_inurba_marseille","lat":43.29931,"lon":5.37477,"is_reserved":false,"is_disabled":false,"rental_uris":{"android":"levelo://app?vid=5aa4839d-99e5-4a1c-95cb-8253baf14528","ios":"levelo://app?vid=5aa4839d-99e5-4a1c-95cb-8253baf14528"},"vehicle_type_id":"4","last_reported":1778525348,"current_range_meters":8000,"station_id":"ce4bgjh2rcd13ifvqbg0","pricing_plan_id":"cebpf4jnsgd1na2vs0mg"},{"bike_id":"f686b01a-c70f-439e-97a0-39cc13ce32f3","system_id":"levelo_inurba_marseille","lat":43.24045,"lon":5.37737,"is_reserved":false,"is_disabled":true,"rental_uris":{"android":"levelo://app?vid=f686b01a-c70f-439e-97a0-39cc13ce32f3","ios":"levelo://app?vid=f686b01a-c70f-439e-97a0-39cc13ce32f3"},"vehicle_type_id":"4","last_reported":1778525348,"current_range_meters":8000,"station_id":"ce4bhnp2rcd13ifvqgvg","pricing_plan_id":"cebpf4jnsgd1na2vs0mg"},{"bike_id":"f08fd671-6039-42d3-9555-565586ddb900","system_id":"levelo_inurba_marseille","lat":43.232,"lon":5.35561,"is_reserved":false,"is_disabled":false,"rental_uris":{"android":"levelo://app?vid=f08fd671-6039-42d3-9555-565586ddb900","ios":"levelo://app?vid=f08fd671-6039-42d3-9555-565586ddb900"},"vehicle_type_id":"4","last_reported":1778525348,"current_range_meters":8000,"station_id":"ce4bhu92rcd13ifvqi70","pricing_plan_id":"cebpf4jnsgd1na2vs0mg"},{"bike_id":"03243661-1970-4f28-b56e-9db07bbc888f","system_id":"levelo_inurba_marseille","lat":43.24676,"lon":5.38165,"is_reserved":false,"is_disabled":false,"rental_uris":{"android":"levelo://app?vid=03243661-1970-4f28-b56e-9db07bbc888f","ios":"levelo://app?vid=03243661-1970-4f28-b56e-9db07bbc888f"},"vehicle_type_id":"4","last_reported":1778525348,"current_range_meters":8000,"station_id":"ce4bhih2rcd13ifvqfr0","pricing_plan_id":"cebpf4jnsgd1na2vs0mg"},{"bike_id":"2ee209a1-9d1d-4e9e-9774-87571da52929","system_id":"levelo_inurba_marseille","lat":43.21193,"lon":5.35069,"is_reserved":false,"is_disabled":false,"rental_uris":{"android":"levelo://app?vid=2ee209a1-9d1d-4e9e-9774-87571da52929","ios":"levelo://app?vid=2ee209a1-9d1d-4e9e-9774-87571da52929"},"vehicle_type_id":"4","last_reported":1778525348,"current_range_meters":8000,"station_id":"st_cvj6sg6p6f1abm77japg","pricing_plan_id":"cebpf4jnsgd1na2vs0mg"},{"bike_id":"83086ac4-e0d1-47e6-a1c0-3a6ae3f00bec","system_id":"levelo_inurba_marseille","lat":43.29202,"lon":5.36021,"is_reserved":false,"is_disabled":false,"rental_uris":{"android":"levelo://app?vid=83086ac4-e0d1-47e6-a1c0-3a6ae3f00bec","ios":"levelo://app?vid=83086ac4-e0d1-47e6-a1c0-3a6ae3f00bec"},"vehicle_type_id":"4","last_reported":1778525348,"current_range_meters":8000,"station_id":"","pricing_plan_id":"cebpf4jnsgd1na2vs0mg"},{"bike_id":"0cd47256-0720-4759-bfd6-176875a52e3c","system_id":"levelo_inurba_marseille","lat":43.24663,"lon":5.38161,"is_reserved":false,"is_disabled":false,"rental_uris":{"android":"levelo://app?vid=0cd47256-0720-4759-bfd6-176875a52e3c","ios":"levelo://app?vid=0cd47256-0720-4759-bfd6-176875a52e3c"},"vehicle_type_id":"4","last_reported":1778525348,"current_range_meters":8000,"station_id":"ce4bhih2rcd13ifvqfr0","pricing_plan_id":"cebpf4jnsgd1na2vs0mg"},{"bike_id":"b75bc027-97cc-4e5f-a5aa-cc74cd820ae5","system_id":"levelo_inurba_marseille","lat":43.24463,"lon":5.42535,"is_reserved":false,"is_disabled":false,"rental_uris":{"android":"levelo://app?vid=b75bc027-97cc-4e5f-a5aa-cc74cd820ae5","ios":"levelo://app?vid=b75bc027-97cc-4e5f-a5aa-cc74cd820ae5"},"vehicle_type_id":"4","last_reported":1778525348,"current_range_meters":8000,"station_id":"st_d4a3vfp97mjs738cd8kg","pricing_plan_id":"cebpf4jnsgd1na2vs0mg"},{"bike_id":"db6819e6-5e5c-4862-8d70-81fd8e476f36","system_id":"levelo_inurba_marseille","lat":43.30878,"lon":5.37174,"is_reserved":false,"is_disabled":false,"rental_uris":{"android":"levelo://app?vid=db6819e6-5e5c-4862-8d70-81fd8e476f36","ios":"levelo://app?vid=db6819e6-5e5c-4862-8d70-81fd8e476f36"},"vehicle_type_id":"4","last_reported":1778525348,"current_range_meters":8000,"station_id":"ce4bguh2rcd13ifvqckg","pricing_plan_id":"cebpf4jnsgd1na2vs0mg"},{"bike_id":"ec52d4cf-f8c9-43d9-9271-a432f86aa150","system_id":"levelo_inurba_marseille","lat":43.23152,"lon":5.437,"is_reserved":false,"is_disabled":false,"rental_uris":{"android":"levelo://app?vid=ec52d4cf-f8c9-43d9-9271-a432f86aa150","ios":"levelo://app?vid=ec52d4cf-f8c9-43d9-9271-a432f86aa150"},"vehicle_type_id":"4","last_reported":1778525348,"current_range_meters":8000,"station_id":"ce4bhmp2rcd13ifvqgog","pricing_plan_id":"cebpf4jnsgd1na2vs0mg"},{"bike_id":"5af74e6e-451d-49a9-ac85-239f32f9afdd","system_id":"levelo_inurba_marseille","lat":43.3229,"lon":5.38268,"is_reserved":false,"is_disabled":false,"rental_uris":{"android":"levelo://app?vid=5af74e6e-451d-49a9-ac85-239f32f9afdd","ios":"levelo://app?vid=5af74e6e-451d-49a9-ac85-239f32f9afdd"},"vehicle_type_id":"4","last_reported":1778525348,"current_range_meters":8000,"station_id":"ce4bhr12rcd13ifvqhqg","pricing_plan_id":"cebpf4jnsgd1na2vs0mg"},{"bike_id":"9447d417-04b6-4022-8018-c5a4d79d79c2","system_id":"levelo_inurba_marseille","lat":43.28223,"lon":5.39047,"is_reserved":false,"is_disabled":false,"rental_uris":{"android":"levelo://app?vid=9447d417-04b6-4022-8018-c5a4d79d79c2","ios":"levelo://app?vid=9447d417-04b6-4022-8018-c5a4d79d79c2"},"vehicle_type_id":"4","last_reported":1778525348,"current_range_meters":8000,"station_id":"ce4bhn92rcd13ifvqgsg","pricing_plan_id":"cebpf4jnsgd1na2vs0mg"},{"bike_id":"a0130f1b-ce31-44b6-bbce-189c0edcff68","system_id":"levelo_inurba_marseille","lat":43.30459,"lon":5.37896,"is_reserved":false,"is_disabled":true,"rental_uris":{"android":"levelo://app?vid=a0130f1b-ce31-44b6-bbce-189c0edcff68","ios":"levelo://app?vid=a0130f1b-ce31-44b6-bbce-189c0edcff68"},"vehicle_type_id":"4","last_reported":1778525348,"current_range_meters":8000,"station_id":"ce4bgup2rcd13ifvqcn0","pricing_plan_id":"cebpf4jnsgd1na2vs0mg"},{"bike_id":"658ecace-889c-488b-b08f-bc36f1d1e8f2","system_id":"levelo_inurba_marseille","lat":43.29532,"lon":5.3903,"is_reserved":false,"is_disabled":false,"rental_uris":{"android":"levelo://app?vid=658ecace-889c-488b-b08f-bc36f1d1e8f2","ios":"levelo://app?vid=658ecace-889c-488b-b08f-bc36f1d1e8f2"},"vehicle_type_id":"4","last_reported":1778525348,"current_range_meters":8000,"station_id":"ce4bh3p2rcd13ifvqdp0","pricing_plan_id":"cebpf4jnsgd1na2vs0mg"},{"bike_id":"de15025b-6ccd-4c02-a679-94e68edc9c98","system_id":"levelo_inurba_marseille","lat":43.28789,"lon":5.42422,"is_reserved":false,"is_disabled":false,"rental_uris":{"android":"levelo://app?vid=de15025b-6ccd-4c02-a679-94e68edc9c98","ios":"levelo://app?vid=de15025b-6ccd-4c02-a679-94e68edc9c98"},"vehicle_type_id":"4","last_reported":1778525348,"current_range_meters":8000,"station_id":"","pricing_plan_id":"cebpf4jnsgd1na2vs0mg"},{"bike_id":"df0de1d8-a8c1-4636-b2dd-0b5a7aa223f0","system_id":"levelo_inurba_marseille","lat":43.25089,"lon":5.39516,"is_reserved":false,"is_disabled":false,"rental_uris":{"android":"levelo://app?vid=df0de1d8-a8c1-4636-b2dd-0b5a7aa223f0","ios":"levelo://app?vid=df0de1d8-a8c1-4636-b2dd-0b5a7aa223f0"},"vehicle_type_id":"4","last_reported":1778525348,"current_range_meters":8000,"station_id":"ce4bhm12rcd13ifvqgkg","pricing_plan_id":"cebpf4jnsgd1na2vs0mg"},{"bike_id":"2336c371-a2b9-486a-9975-08141a01f30f","system_id":"levelo_inurba_marseille","lat":43.296211,"lon":5.371778,"is_reserved":false,"is_disabled":false,"rental_uris":{"android":"levelo://app?vid=2336c371-a2b9-486a-9975-08141a01f30f","ios":"levelo://app?vid=2336c371-a2b9-486a-9975-08141a01f30f"},"vehicle_type_id":"4","last_reported":1778525348,"current_range_meters":8000,"station_id":"ce4bgnh2rcd13ifvqc0g","pricing_plan_id":"cebpf4jnsgd1na2vs0mg"},{"bike_id":"914b94a4-bf59-4af5-993a-5a5d7a6154fb","system_id":"levelo_inurba_marseille","lat":43.31745,"lon":5.39021,"is_reserved":false,"is_disabled":false,"rental_uris":{"android":"levelo://app?vid=914b94a4-bf59-4af5-993a-5a5d7a6154fb","ios":"levelo://app?vid=914b94a4-bf59-4af5-993a-5a5d7a6154fb"},"vehicle_type_id":"4","last_reported":1778525348,"current_range_meters":8000,"station_id":"ce4bhqp2rcd13ifvqhng","pricing_plan_id":"cebpf4jnsgd1na2vs0mg"},{"bike_id":"0e403d26-ae81-44fb-ab96-f3110fa1a174","system_id":"levelo_inurba_marseille","lat":43.26563,"lon":5.39028,"is_reserved":false,"is_disabled":true,"rental_uris":{"android":"levelo://app?vid=0e403d26-ae81-44fb-ab96-f3110fa1a174","ios":"levelo://app?vid=0e403d26-ae81-44fb-ab96-f3110fa1a174"},"vehicle_type_id":"4","last_reported":1778525348,"current_range_meters":8400,"station_id":"ce4bhe12rcd13ifvqf30","pricing_plan_id":"cebpf4jnsgd1na2vs0mg"},{"bike_id":"d17e6582-43ff-45e2-b2c7-bca32efc83d9","system_id":"levelo_inurba_marseille","lat":43.26223,"lon":5.3876,"is_reserved":false,"is_disabled":false,"rental_uris":{"android":"levelo://app?vid=d17e6582-43ff-45e2-b2c7-bca32efc83d9","ios":"levelo://app?vid=d17e6582-43ff-45e2-b2c7-bca32efc83d9"},"vehicle_type_id":"4","last_reported":1778525348,"current_range_meters":8400,"station_id":"","pricing_plan_id":"cebpf4jnsgd1na2vs0mg"},{"bike_id":"0034e0d5-efa8-4050-ae35-323708811a0d","system_id":"levelo_inurba_marseille","lat":43.25321,"lon":5.42147,"is_reserved":false,"is_disabled":false,"rental_uris":{"android":"levelo://app?vid=0034e0d5-efa8-4050-ae35-323708811a0d","ios":"levelo://app?vid=0034e0d5-efa8-4050-ae35-323708811a0d"},"vehicle_type_id":"4","last_reported":1778525348,"current_range_meters":8400,"station_id":"st_d2m65c5bi1j21697t3ng","pricing_plan_id":"cebpf4jnsgd1na2vs0mg"},{"bike_id":"6687113e-3a7a-46e3-867b-b9b5b727b9e3","system_id":"levelo_inurba_marseille","lat":43.29713,"lon":5.3658,"is_reserved":false,"is_disabled":true,"rental_uris":{"android":"levelo://app?vid=6687113e-3a7a-46e3-867b-b9b5b727b9e3","ios":"levelo://app?vid=6687113e-3a7a-46e3-867b-b9b5b727b9e3"},"vehicle_type_id":"4","last_reported":1778525348,"current_range_meters":8400,"station_id":"ce4bgn12rcd13ifvqbt0","pricing_plan_id":"cebpf4jnsgd1na2vs0mg"},{"bike_id":"8af20e15-ced1-4da7-a7dd-24cc0225934d","system_id":"levelo_inurba_marseille","lat":43.27918,"lon":5.39573,"is_reserved":false,"is_disabled":false,"rental_uris":{"android":"levelo://app?vid=8af20e15-ced1-4da7-a7dd-24cc0225934d","ios":"levelo://app?vid=8af20e15-ced1-4da7-a7dd-24cc0225934d"},"vehicle_type_id":"4","last_reported":1778525348,"current_range_meters":8400,"station_id":"ce4bhf92rcd13ifvqf40","pricing_plan_id":"cebpf4jnsgd1na2vs0mg"},{"bike_id":"ce8907b4-95ae-4cb1-8ed0-698c7f370c57","system_id":"levelo_inurba_marseille","lat":43.28154,"lon":5.42637,"is_reserved":false,"is_disabled":false,"rental_uris":{"android":"levelo://app?vid=ce8907b4-95ae-4cb1-8ed0-698c7f370c57","ios":"levelo://app?vid=ce8907b4-95ae-4cb1-8ed0-698c7f370c57"},"vehicle_type_id":"4","last_reported":1778525348,"current_range_meters":8400,"station_id":"ce4bhnh2rcd13ifvqgug","pricing_plan_id":"cebpf4jnsgd1na2vs0mg"},{"bike_id":"1f9561d8-586e-48b6-8f59-b32daf0821a8","system_id":"levelo_inurba_marseille","lat":43.28706,"lon":5.4669,"is_reserved":false,"is_disabled":false,"rental_uris":{"android":"levelo://app?vid=1f9561d8-586e-48b6-8f59-b32daf0821a8","ios":"levelo://app?vid=1f9561d8-586e-48b6-8f59-b32daf0821a8"},"vehicle_type_id":"4","last_reported":1778525348,"current_range_meters":8400,"station_id":"st_d6tc3vkotcvc738tfjhg","pricing_plan_id":"cebpf4jnsgd1na2vs0mg"},{"bike_id":"3c7e612c-c8f3-438d-9cc6-1ad96cad716e","system_id":"levelo_inurba_marseille","lat":43.2752,"lon":5.4245,"is_reserved":false,"is_disabled":false,"rental_uris":{"android":"levelo://app?vid=3c7e612c-c8f3-438d-9cc6-1ad96cad716e","ios":"levelo://app?vid=3c7e612c-c8f3-438d-9cc6-1ad96cad716e"},"vehicle_type_id":"4","last_reported":1778525348,"current_range_meters":8400,"station_id":"ce4bhn92rcd13ifvqgrg","pricing_plan_id":"cebpf4jnsgd1na2vs0mg"},{"bike_id":"87c3c982-c846-4e34-9c1c-84f993fcace0","system_id":"levelo_inurba_marseille","lat":43.30416,"lon":5.41288,"is_reserved":false,"is_disabled":false,"rental_uris":{"android":"levelo://app?vid=87c3c982-c846-4e34-9c1c-84f993fcace0","ios":"levelo://app?vid=87c3c982-c846-4e34-9c1c-84f993fcace0"},"vehicle_type_id":"4","last_reported":1778525348,"current_range_meters":8400,"station_id":"ce4bhop2rcd13ifvqh8g","pricing_plan_id":"cebpf4jnsgd1na2vs0mg"},{"bike_id":"002d1676-a704-4135-b245-6c297a5aed56","system_id":"levelo_inurba_marseille","lat":43.2417,"lon":5.36403,"is_reserved":false,"is_disabled":false,"rental_uris":{"android":"levelo://app?vid=002d1676-a704-4135-b245-6c297a5aed56","ios":"levelo://app?vid=002d1676-a704-4135-b245-6c297a5aed56"},"vehicle_type_id":"4","last_reported":1778525348,"current_range_meters":8400,"station_id":"cpo36qri1sfpv3e86is0","pricing_plan_id":"cebpf4jnsgd1na2vs0mg"},{"bike_id":"bc8b4f62-757f-4f86-badb-a2ea4e2c51d1","system_id":"levelo_inurba_marseille","lat":43.31366,"lon":5.38506,"is_reserved":false,"is_disabled":false,"rental_uris":{"android":"levelo://app?vid=bc8b4f62-757f-4f86-badb-a2ea4e2c51d1","ios":"levelo://app?vid=bc8b4f62-757f-4f86-badb-a2ea4e2c51d1"},"vehicle_type_id":"4","last_reported":1778525348,"current_range_meters":8400,"station_id":"ce4bgt92rcd13ifvqcf0","pricing_plan_id":"cebpf4jnsgd1na2vs0mg"},{"bike_id":"d865f9a0-14b6-46bd-bba4-d835d1328292","system_id":"levelo_inurba_marseille","lat":43.31165,"lon":5.38721,"is_reserved":false,"is_disabled":true,"rental_uris":{"android":"levelo://app?vid=d865f9a0-14b6-46bd-bba4-d835d1328292","ios":"levelo://app?vid=d865f9a0-14b6-46bd-bba4-d835d1328292"},"vehicle_type_id":"4","last_reported":1778525348,"current_range_meters":8400,"station_id":"ce4bgv12rcd13ifvqcp0","pricing_plan_id":"cebpf4jnsgd1na2vs0mg"},{"bike_id":"71a33395-519e-4307-a4fd-d537d1762317","system_id":"levelo_inurba_marseille","lat":43.23235,"lon":5.35545,"is_reserved":false,"is_disabled":false,"rental_uris":{"android":"levelo://app?vid=71a33395-519e-4307-a4fd-d537d1762317","ios":"levelo://app?vid=71a33395-519e-4307-a4fd-d537d1762317"},"vehicle_type_id":"4","last_reported":1778525348,"current_range_meters":8400,"station_id":"ce4bhu92rcd13ifvqi70","pricing_plan_id":"cebpf4jnsgd1na2vs0mg"},{"bike_id":"b06dc624-9d1b-44bd-b8d1-2da3c164f736","system_id":"levelo_inurba_marseille","lat":43.30512,"lon":5.45965,"is_reserved":false,"is_disabled":false,"rental_uris":{"android":"levelo://app?vid=b06dc624-9d1b-44bd-b8d1-2da3c164f736","ios":"levelo://app?vid=b06dc624-9d1b-44bd-b8d1-2da3c164f736"},"vehicle_type_id":"4","last_reported":1778525348,"current_range_meters":8400,"station_id":"","pricing_plan_id":"cebpf4jnsgd1na2vs0mg"},{"bike_id":"2e9e95a9-c02c-41fe-b78c-00db027d1d26","system_id":"levelo_inurba_marseille","lat":43.29581,"lon":5.37494,"is_reserved":false,"is_disabled":true,"rental_uris":{"android":"levelo://app?vid=2e9e95a9-c02c-41fe-b78c-00db027d1d26","ios":"levelo://app?vid=2e9e95a9-c02c-41fe-b78c-00db027d1d26"},"vehicle_type_id":"4","last_reported":1778525348,"current_range_meters":8400,"station_id":"ce4bgh92rcd13ifvqb50","pricing_plan_id":"cebpf4jnsgd1na2vs0mg"},{"bike_id":"61ac7924-aeac-4897-90c0-0c4217d06809","system_id":"levelo_inurba_marseille","lat":43.28936,"lon":5.36647,"is_reserved":false,"is_disabled":false,"rental_uris":{"android":"levelo://app?vid=61ac7924-aeac-4897-90c0-0c4217d06809","ios":"levelo://app?vid=61ac7924-aeac-4897-90c0-0c4217d06809"},"vehicle_type_id":"4","last_reported":1778525348,"current_range_meters":8400,"station_id":"ce4bhap2rcd13ifvqek0","pricing_plan_id":"cebpf4jnsgd1na2vs0mg"},{"bike_id":"d0823b7c-018c-49ab-9f02-6e77743233c6","system_id":"levelo_inurba_marseille","lat":43.25005,"lon":5.38916,"is_reserved":false,"is_disabled":false,"rental_uris":{"android":"levelo://app?vid=d0823b7c-018c-49ab-9f02-6e77743233c6","ios":"levelo://app?vid=d0823b7c-018c-49ab-9f02-6e77743233c6"},"vehicle_type_id":"4","last_reported":1778525348,"current_range_meters":8400,"station_id":"ce4bhgp2rcd13ifvqfd0","pricing_plan_id":"cebpf4jnsgd1na2vs0mg"},{"bike_id":"40b308dc-3975-46df-808d-caad3b300b93","system_id":"levelo_inurba_marseille","lat":43.24811,"lon":5.37459,"is_reserved":false,"is_disabled":false,"rental_uris":{"android":"levelo://app?vid=40b308dc-3975-46df-808d-caad3b300b93","ios":"levelo://app?vid=40b308dc-3975-46df-808d-caad3b300b93"},"vehicle_type_id":"4","last_reported":1778525348,"current_range_meters":8400,"station_id":"ce4bhgh2rcd13ifvqfb0","pricing_plan_id":"cebpf4jnsgd1na2vs0mg"},{"bike_id":"cf26fdd5-f4b9-4028-802d-fe70647801ec","system_id":"levelo_inurba_marseille","lat":43.29229,"lon":5.38467,"is_reserved":false,"is_disabled":false,"rental_uris":{"android":"levelo://app?vid=cf26fdd5-f4b9-4028-802d-fe70647801ec","ios":"levelo://app?vid=cf26fdd5-f4b9-4028-802d-fe70647801ec"},"vehicle_type_id":"4","last_reported":1778525348,"current_range_meters":8400,"station_id":"","pricing_plan_id":"cebpf4jnsgd1na2vs0mg"},{"bike_id":"eb1c057e-e140-42d0-aee5-bd6e1cccb573","system_id":"levelo_inurba_marseille","lat":43.31923,"lon":5.40947,"is_reserved":false,"is_disabled":false,"rental_uris":{"android":"levelo://app?vid=eb1c057e-e140-42d0-aee5-bd6e1cccb573","ios":"levelo://app?vid=eb1c057e-e140-42d0-aee5-bd6e1cccb573"},"vehicle_type_id":"4","last_reported":1778525348,"current_range_meters":8400,"station_id":"","pricing_plan_id":"cebpf4jnsgd1na2vs0mg"},{"bike_id":"f727966a-f675-4b55-a0c1-5be7d0d58eff","system_id":"levelo_inurba_marseille","lat":43.24548,"lon":5.39512,"is_reserved":false,"is_disabled":false,"rental_uris":{"android":"levelo://app?vid=f727966a-f675-4b55-a0c1-5be7d0d58eff","ios":"levelo://app?vid=f727966a-f675-4b55-a0c1-5be7d0d58eff"},"vehicle_type_id":"4","last_reported":1778525348,"current_range_meters":8400,"station_id":"ce4bhlp2rcd13ifvqgjg","pricing_plan_id":"cebpf4jnsgd1na2vs0mg"},{"bike_id":"1fe8397d-8c37-465c-baf5-6eefeccfaa2d","system_id":"levelo_inurba_marseille","lat":43.29525,"lon":5.3905,"is_reserved":false,"is_disabled":false,"rental_uris":{"android":"levelo://app?vid=1fe8397d-8c37-465c-baf5-6eefeccfaa2d","ios":"levelo://app?vid=1fe8397d-8c37-465c-baf5-6eefeccfaa2d"},"vehicle_type_id":"4","last_reported":1778525348,"current_range_meters":8400,"station_id":"ce4bh3p2rcd13ifvqdp0","pricing_plan_id":"cebpf4jnsgd1na2vs0mg"},{"bike_id":"3ffcfa2b-7872-4877-ae02-8553b8c4f090","system_id":"levelo_inurba_marseille","lat":43.27902,"lon":5.37994,"is_reserved":false,"is_disabled":false,"rental_uris":{"android":"levelo://app?vid=3ffcfa2b-7872-4877-ae02-8553b8c4f090","ios":"levelo://app?vid=3ffcfa2b-7872-4877-ae02-8553b8c4f090"},"vehicle_type_id":"4","last_reported":1778525348,"current_range_meters":8400,"station_id":"ce4bhf92rcd13ifvqf50","pricing_plan_id":"cebpf4jnsgd1na2vs0mg"},{"bike_id":"89057c05-c72e-4f5a-a0db-f5b7c4f54905","system_id":"levelo_inurba_marseille","lat":43.27951,"lon":5.41042,"is_reserved":false,"is_disabled":true,"rental_uris":{"android":"levelo://app?vid=89057c05-c72e-4f5a-a0db-f5b7c4f54905","ios":"levelo://app?vid=89057c05-c72e-4f5a-a0db-f5b7c4f54905"},"vehicle_type_id":"4","last_reported":1778525348,"current_range_meters":8400,"station_id":"ce4bhnp2rcd13ifvqh0g","pricing_plan_id":"cebpf4jnsgd1na2vs0mg"},{"bike_id":"899ee52f-b14d-4ea5-b62f-5de99561350a","system_id":"levelo_inurba_marseille","lat":43.29797,"lon":5.40386,"is_reserved":false,"is_disabled":false,"rental_uris":{"android":"levelo://app?vid=899ee52f-b14d-4ea5-b62f-5de99561350a","ios":"levelo://app?vid=899ee52f-b14d-4ea5-b62f-5de99561350a"},"vehicle_type_id":"4","last_reported":1778525348,"current_range_meters":8400,"station_id":"ce4bh112rcd13ifvqd90","pricing_plan_id":"cebpf4jnsgd1na2vs0mg"},{"bike_id":"5c57b0a9-4456-469e-9ccc-d549d84450c8","system_id":"levelo_inurba_marseille","lat":43.30089,"lon":5.39098,"is_reserved":false,"is_disabled":false,"rental_uris":{"android":"levelo://app?vid=5c57b0a9-4456-469e-9ccc-d549d84450c8","ios":"levelo://app?vid=5c57b0a9-4456-469e-9ccc-d549d84450c8"},"vehicle_type_id":"4","last_reported":1778525348,"current_range_meters":8400,"station_id":"ce4bh192rcd13ifvqdb0","pricing_plan_id":"cebpf4jnsgd1na2vs0mg"},{"bike_id":"2f62e821-8ef2-4265-b35e-9e268dcd0a58","system_id":"levelo_inurba_marseille","lat":43.29172,"lon":5.39342,"is_reserved":false,"is_disabled":false,"rental_uris":{"android":"levelo://app?vid=2f62e821-8ef2-4265-b35e-9e268dcd0a58","ios":"levelo://app?vid=2f62e821-8ef2-4265-b35e-9e268dcd0a58"},"vehicle_type_id":"4","last_reported":1778525348,"current_range_meters":8400,"station_id":"","pricing_plan_id":"cebpf4jnsgd1na2vs0mg"},{"bike_id":"216e48ab-97a6-478b-9028-f19804defb00","system_id":"levelo_inurba_marseille","lat":43.2861,"lon":5.37058,"is_reserved":false,"is_disabled":false,"rental_uris":{"android":"levelo://app?vid=216e48ab-97a6-478b-9028-f19804defb00","ios":"levelo://app?vid=216e48ab-97a6-478b-9028-f19804defb00"},"vehicle_type_id":"4","last_reported":1778525348,"current_range_meters":8400,"station_id":"ce4bht12rcd13ifvqi60","pricing_plan_id":"cebpf4jnsgd1na2vs0mg"},{"bike_id":"8673eca3-8676-4675-8699-2fd983e8eddf","system_id":"levelo_inurba_marseille","lat":43.2857,"lon":5.35171,"is_reserved":false,"is_disabled":false,"rental_uris":{"android":"levelo://app?vid=8673eca3-8676-4675-8699-2fd983e8eddf","ios":"levelo://app?vid=8673eca3-8676-4675-8699-2fd983e8eddf"},"vehicle_type_id":"4","last_reported":1778525348,"current_range_meters":8400,"station_id":"ce4bhch2rcd13ifvqeug","pricing_plan_id":"cebpf4jnsgd1na2vs0mg"},{"bike_id":"8e4b050e-78bc-4587-a179-01ce687f4825","system_id":"levelo_inurba_marseille","lat":43.24644,"lon":5.38902,"is_reserved":false,"is_disabled":false,"rental_uris":{"android":"levelo://app?vid=8e4b050e-78bc-4587-a179-01ce687f4825","ios":"levelo://app?vid=8e4b050e-78bc-4587-a179-01ce687f4825"},"vehicle_type_id":"4","last_reported":1778525348,"current_range_meters":8400,"station_id":"ce4bhg12rcd13ifvqf60","pricing_plan_id":"cebpf4jnsgd1na2vs0mg"},{"bike_id":"4bd356ab-895c-4740-9d62-f191e4a3c2eb","system_id":"levelo_inurba_marseille","lat":43.28151,"lon":5.42639,"is_reserved":false,"is_disabled":false,"rental_uris":{"android":"levelo://app?vid=4bd356ab-895c-4740-9d62-f191e4a3c2eb","ios":"levelo://app?vid=4bd356ab-895c-4740-9d62-f191e4a3c2eb"},"vehicle_type_id":"4","last_reported":1778525348,"current_range_meters":8400,"station_id":"ce4bhnh2rcd13ifvqgug","pricing_plan_id":"cebpf4jnsgd1na2vs0mg"},{"bike_id":"9c4f1664-9524-40df-8ddd-40291c22de8a","system_id":"levelo_inurba_marseille","lat":43.2407,"lon":5.3776,"is_reserved":false,"is_disabled":false,"rental_uris":{"android":"levelo://app?vid=9c4f1664-9524-40df-8ddd-40291c22de8a","ios":"levelo://app?vid=9c4f1664-9524-40df-8ddd-40291c22de8a"},"vehicle_type_id":"4","last_reported":1778525348,"current_range_meters":8400,"station_id":"ce4bhnp2rcd13ifvqgvg","pricing_plan_id":"cebpf4jnsgd1na2vs0mg"},{"bike_id":"ca631ba7-3c6b-495d-913b-a8415fbbd400","system_id":"levelo_inurba_marseille","lat":43.30639,"lon":5.40073,"is_reserved":false,"is_disabled":false,"rental_uris":{"android":"levelo://app?vid=ca631ba7-3c6b-495d-913b-a8415fbbd400","ios":"levelo://app?vid=ca631ba7-3c6b-495d-913b-a8415fbbd400"},"vehicle_type_id":"4","last_reported":1778525348,"current_range_meters":8800,"station_id":"ce4bh112rcd13ifvqda0","pricing_plan_id":"cebpf4jnsgd1na2vs0mg"},{"bike_id":"b4643069-1bba-49d7-9f54-c382b88be3c1","system_id":"levelo_inurba_marseille","lat":43.28388,"lon":5.37537,"is_reserved":false,"is_disabled":false,"rental_uris":{"android":"levelo://app?vid=b4643069-1bba-49d7-9f54-c382b88be3c1","ios":"levelo://app?vid=b4643069-1bba-49d7-9f54-c382b88be3c1"},"vehicle_type_id":"4","last_reported":1778525348,"current_range_meters":8800,"station_id":"ce4bh412rcd13ifvqds0","pricing_plan_id":"cebpf4jnsgd1na2vs0mg"},{"bike_id":"6404d429-d7aa-4fe1-9b5b-cee756c89926","system_id":"levelo_inurba_marseille","lat":43.24675,"lon":5.38142,"is_reserved":false,"is_disabled":false,"rental_uris":{"android":"levelo://app?vid=6404d429-d7aa-4fe1-9b5b-cee756c89926","ios":"levelo://app?vid=6404d429-d7aa-4fe1-9b5b-cee756c89926"},"vehicle_type_id":"4","last_reported":1778525348,"current_range_meters":8800,"station_id":"ce4bhih2rcd13ifvqfr0","pricing_plan_id":"cebpf4jnsgd1na2vs0mg"},{"bike_id":"e3785dea-f699-4ef5-adf5-27138181cbf5","system_id":"levelo_inurba_marseille","lat":43.27549,"lon":5.35908,"is_reserved":false,"is_disabled":false,"rental_uris":{"android":"levelo://app?vid=e3785dea-f699-4ef5-adf5-27138181cbf5","ios":"levelo://app?vid=e3785dea-f699-4ef5-adf5-27138181cbf5"},"vehicle_type_id":"4","last_reported":1778525348,"current_range_meters":8800,"station_id":"","pricing_plan_id":"cebpf4jnsgd1na2vs0mg"},{"bike_id":"6f859d81-fece-48b6-b52a-50a48ef980da","system_id":"levelo_inurba_marseille","lat":43.29195,"lon":5.39318,"is_reserved":false,"is_disabled":false,"rental_uris":{"android":"levelo://app?vid=6f859d81-fece-48b6-b52a-50a48ef980da","ios":"levelo://app?vid=6f859d81-fece-48b6-b52a-50a48ef980da"},"vehicle_type_id":"4","last_reported":1778525348,"current_range_meters":8800,"station_id":"ce4bh192rcd13ifvqdd0","pricing_plan_id":"cebpf4jnsgd1na2vs0mg"},{"bike_id":"a99213b0-0abe-4ccf-9540-eb4b4f3c3d4c","system_id":"levelo_inurba_marseille","lat":43.26936,"lon":5.38904,"is_reserved":false,"is_disabled":false,"rental_uris":{"android":"levelo://app?vid=a99213b0-0abe-4ccf-9540-eb4b4f3c3d4c","ios":"levelo://app?vid=a99213b0-0abe-4ccf-9540-eb4b4f3c3d4c"},"vehicle_type_id":"4","last_reported":1778525348,"current_range_meters":8800,"station_id":"ce4bhhh2rcd13ifvqfl0","pricing_plan_id":"cebpf4jnsgd1na2vs0mg"},{"bike_id":"c54af5dc-7299-45b5-b934-5ad453e3fe61","system_id":"levelo_inurba_marseille","lat":43.29565,"lon":5.37551,"is_reserved":false,"is_disabled":true,"rental_uris":{"android":"levelo://app?vid=c54af5dc-7299-45b5-b934-5ad453e3fe61","ios":"levelo://app?vid=c54af5dc-7299-45b5-b934-5ad453e3fe61"},"vehicle_type_id":"4","last_reported":1778525348,"current_range_meters":8800,"station_id":"ce4bgh92rcd13ifvqb50","pricing_plan_id":"cebpf4jnsgd1na2vs0mg"},