{"last_updated":1774626052,"ttl":60,"version":"2.2","data":{"bikes":[{"bike_id":"2cb5cd58-9e2d-42f2-add2-d82eea54ba59","system_id":"levelo_inurba_marseille","lat":43.32036,"lon":5.4158,"is_reserved":false,"is_disabled":false,"rental_uris":{"android":"levelo://app?vid=2cb5cd58-9e2d-42f2-add2-d82eea54ba59","ios":"levelo://app?vid=2cb5cd58-9e2d-42f2-add2-d82eea54ba59"},"vehicle_type_id":"4","last_reported":1774626052,"current_range_meters":2800,"station_id":"ce4bhq92rcd13ifvqhkg","pricing_plan_id":"cebpf4jnsgd1na2vs0mg"},{"bike_id":"c202e1ac-eeee-4893-a12f-7465af8c14d6","system_id":"levelo_inurba_marseille","lat":43.31184,"lon":5.38709,"is_reserved":false,"is_disabled":false,"rental_uris":{"android":"levelo://app?vid=c202e1ac-eeee-4893-a12f-7465af8c14d6","ios":"levelo://app?vid=c202e1ac-eeee-4893-a12f-7465af8c14d6"},"vehicle_type_id":"4","last_reported":1774626052,"current_range_meters":2800,"station_id":"ce4bgv12rcd13ifvqcp0","pricing_plan_id":"cebpf4jnsgd1na2vs0mg"},{"bike_id":"bc6f68ef-ff2e-4910-8fbf-a9c7619cd5d1","system_id":"levelo_inurba_marseille","lat":43.33532,"lon":5.37457,"is_reserved":false,"is_disabled":false,"rental_uris":{"android":"levelo://app?vid=bc6f68ef-ff2e-4910-8fbf-a9c7619cd5d1","ios":"levelo://app?vid=bc6f68ef-ff2e-4910-8fbf-a9c7619cd5d1"},"vehicle_type_id":"4","last_reported":1774626052,"current_range_meters":2800,"station_id":"st_d46tts09ee8s73dlu43g","pricing_plan_id":"cebpf4jnsgd1na2vs0mg"},{"bike_id":"db8e1c36-1d9c-44d2-bc2d-f91041c6fca2","system_id":"levelo_inurba_marseille","lat":43.28557,"lon":5.45956,"is_reserved":false,"is_disabled":false,"rental_uris":{"android":"levelo://app?vid=db8e1c36-1d9c-44d2-bc2d-f91041c6fca2","ios":"levelo://app?vid=db8e1c36-1d9c-44d2-bc2d-f91041c6fca2"},"vehicle_type_id":"4","last_reported":1774626052,"current_range_meters":2800,"station_id":"","pricing_plan_id":"cebpf4jnsgd1na2vs0mg"},{"bike_id":"770ee2ec-62b5-4f13-b252-5e0a77aa2913","system_id":"levelo_inurba_marseille","lat":43.31875,"lon":5.37645,"is_reserved":false,"is_disabled":false,"rental_uris":{"android":"levelo://app?vid=770ee2ec-62b5-4f13-b252-5e0a77aa2913","ios":"levelo://app?vid=770ee2ec-62b5-4f13-b252-5e0a77aa2913"},"vehicle_type_id":"4","last_reported":1774626052,"current_range_meters":2800,"station_id":"","pricing_plan_id":"cebpf4jnsgd1na2vs0mg"},{"bike_id":"026bbd3e-661d-4021-a8c5-649d1bcfdca0","system_id":"levelo_inurba_marseille","lat":43.29501,"lon":5.37391,"is_reserved":false,"is_disabled":false,"rental_uris":{"android":"levelo://app?vid=026bbd3e-661d-4021-a8c5-649d1bcfdca0","ios":"levelo://app?vid=026bbd3e-661d-4021-a8c5-649d1bcfdca0"},"vehicle_type_id":"4","last_reported":1774626052,"current_range_meters":3200,"station_id":"","pricing_plan_id":"cebpf4jnsgd1na2vs0mg"},{"bike_id":"95062790-6cce-4e40-bd4c-3b693b1539eb","system_id":"levelo_inurba_marseille","lat":43.25664,"lon":5.41046,"is_reserved":false,"is_disabled":false,"rental_uris":{"android":"levelo://app?vid=95062790-6cce-4e40-bd4c-3b693b1539eb","ios":"levelo://app?vid=95062790-6cce-4e40-bd4c-3b693b1539eb"},"vehicle_type_id":"4","last_reported":1774626052,"current_range_meters":3200,"station_id":"","pricing_plan_id":"cebpf4jnsgd1na2vs0mg"},{"bike_id":"d896d699-3ac7-4823-b169-2267a272f07c","system_id":"levelo_inurba_marseille","lat":43.25824,"lon":5.39415,"is_reserved":false,"is_disabled":false,"rental_uris":{"android":"levelo://app?vid=d896d699-3ac7-4823-b169-2267a272f07c","ios":"levelo://app?vid=d896d699-3ac7-4823-b169-2267a272f07c"},"vehicle_type_id":"4","last_reported":1774626052,"current_range_meters":3200,"station_id":"ce4bhip2rcd13ifvqft0","pricing_plan_id":"cebpf4jnsgd1na2vs0mg"},{"bike_id":"d906b732-28cc-48b8-aaad-29edfc0965c8","system_id":"levelo_inurba_marseille","lat":43.2762,"lon":5.36099,"is_reserved":false,"is_disabled":false,"rental_uris":{"android":"levelo://app?vid=d906b732-28cc-48b8-aaad-29edfc0965c8","ios":"levelo://app?vid=d906b732-28cc-48b8-aaad-29edfc0965c8"},"vehicle_type_id":"4","last_reported":1774626052,"current_range_meters":3200,"station_id":"ce4bgj92rcd13ifvqbe0","pricing_plan_id":"cebpf4jnsgd1na2vs0mg"},{"bike_id":"9a1b7562-5c14-4853-ad31-a4b1e826c8d0","system_id":"levelo_inurba_marseille","lat":43.22576,"lon":5.41647,"is_reserved":false,"is_disabled":false,"rental_uris":{"android":"levelo://app?vid=9a1b7562-5c14-4853-ad31-a4b1e826c8d0","ios":"levelo://app?vid=9a1b7562-5c14-4853-ad31-a4b1e826c8d0"},"vehicle_type_id":"4","last_reported":1774626052,"current_range_meters":3200,"station_id":"st_d2o4gvlbi1j2169b742g","pricing_plan_id":"cebpf4jnsgd1na2vs0mg"},{"bike_id":"cb987341-9eea-47e0-a110-a9bf2004877c","system_id":"levelo_inurba_marseille","lat":43.249538,"lon":5.404932,"is_reserved":false,"is_disabled":false,"rental_uris":{"android":"levelo://app?vid=cb987341-9eea-47e0-a110-a9bf2004877c","ios":"levelo://app?vid=cb987341-9eea-47e0-a110-a9bf2004877c"},"vehicle_type_id":"4","last_reported":1774626052,"current_range_meters":3200,"station_id":"st_d2ngiaodas8pm72gd1h0","pricing_plan_id":"cebpf4jnsgd1na2vs0mg"},{"bike_id":"6823ffc9-5cad-4ce3-b86d-8d999ced6302","system_id":"levelo_inurba_marseille","lat":43.31252,"lon":5.36881,"is_reserved":false,"is_disabled":false,"rental_uris":{"android":"levelo://app?vid=6823ffc9-5cad-4ce3-b86d-8d999ced6302","ios":"levelo://app?vid=6823ffc9-5cad-4ce3-b86d-8d999ced6302"},"vehicle_type_id":"4","last_reported":1774626052,"current_range_meters":3200,"station_id":"ce4bgl92rcd13ifvqbq0","pricing_plan_id":"cebpf4jnsgd1na2vs0mg"},{"bike_id":"e2fabea8-fec8-4403-91af-ad7f2d964bb9","system_id":"levelo_inurba_marseille","lat":43.29893,"lon":5.42085,"is_reserved":false,"is_disabled":false,"rental_uris":{"android":"levelo://app?vid=e2fabea8-fec8-4403-91af-ad7f2d964bb9","ios":"levelo://app?vid=e2fabea8-fec8-4403-91af-ad7f2d964bb9"},"vehicle_type_id":"4","last_reported":1774626052,"current_range_meters":3600,"station_id":"st_d6tc004otcvc738tfe70","pricing_plan_id":"cebpf4jnsgd1na2vs0mg"},{"bike_id":"a98e7b73-b30a-4f9b-96c6-ec530884d631","system_id":"levelo_inurba_marseille","lat":43.23786,"lon":5.36609,"is_reserved":false,"is_disabled":false,"rental_uris":{"android":"levelo://app?vid=a98e7b73-b30a-4f9b-96c6-ec530884d631","ios":"levelo://app?vid=a98e7b73-b30a-4f9b-96c6-ec530884d631"},"vehicle_type_id":"4","last_reported":1774626052,"current_range_meters":3600,"station_id":"st_d3nk18o9ro0c73en2l3g","pricing_plan_id":"cebpf4jnsgd1na2vs0mg"},{"bike_id":"556a70e5-d70c-44f4-8a76-7b132e8f73e5","system_id":"levelo_inurba_marseille","lat":43.28896,"lon":5.38387,"is_reserved":false,"is_disabled":false,"rental_uris":{"android":"levelo://app?vid=556a70e5-d70c-44f4-8a76-7b132e8f73e5","ios":"levelo://app?vid=556a70e5-d70c-44f4-8a76-7b132e8f73e5"},"vehicle_type_id":"4","last_reported":1774626052,"current_range_meters":3600,"station_id":"ce4bh612rcd13ifvqe6g","pricing_plan_id":"cebpf4jnsgd1na2vs0mg"},{"bike_id":"b0257da6-29b0-40f2-a5bf-6ff6c48b36b8","system_id":"levelo_inurba_marseille","lat":43.2848,"lon":5.48393,"is_reserved":false,"is_disabled":false,"rental_uris":{"android":"levelo://app?vid=b0257da6-29b0-40f2-a5bf-6ff6c48b36b8","ios":"levelo://app?vid=b0257da6-29b0-40f2-a5bf-6ff6c48b36b8"},"vehicle_type_id":"4","last_reported":1774626052,"current_range_meters":3600,"station_id":"","pricing_plan_id":"cebpf4jnsgd1na2vs0mg"},{"bike_id":"8e20a755-6ad9-40fb-807b-d194aed10107","system_id":"levelo_inurba_marseille","lat":43.295685,"lon":5.37526,"is_reserved":false,"is_disabled":false,"rental_uris":{"android":"levelo://app?vid=8e20a755-6ad9-40fb-807b-d194aed10107","ios":"levelo://app?vid=8e20a755-6ad9-40fb-807b-d194aed10107"},"vehicle_type_id":"4","last_reported":1774626052,"current_range_meters":4000,"station_id":"ce4bgh92rcd13ifvqb50","pricing_plan_id":"cebpf4jnsgd1na2vs0mg"},{"bike_id":"aa929685-e4dd-4a31-a1c6-979463fa81a3","system_id":"levelo_inurba_marseille","lat":43.28491,"lon":5.48393,"is_reserved":false,"is_disabled":false,"rental_uris":{"android":"levelo://app?vid=aa929685-e4dd-4a31-a1c6-979463fa81a3","ios":"levelo://app?vid=aa929685-e4dd-4a31-a1c6-979463fa81a3"},"vehicle_type_id":"4","last_reported":1774626052,"current_range_meters":4000,"station_id":"st_d3svhcjqgbts73a3dn0g","pricing_plan_id":"cebpf4jnsgd1na2vs0mg"},{"bike_id":"4bf5ee1a-db28-4d49-a9e5-e023cbb5efa9","system_id":"levelo_inurba_marseille","lat":43.26487,"lon":5.37959,"is_reserved":false,"is_disabled":false,"rental_uris":{"android":"levelo://app?vid=4bf5ee1a-db28-4d49-a9e5-e023cbb5efa9","ios":"levelo://app?vid=4bf5ee1a-db28-4d49-a9e5-e023cbb5efa9"},"vehicle_type_id":"4","last_reported":1774626052,"current_range_meters":4000,"station_id":"","pricing_plan_id":"cebpf4jnsgd1na2vs0mg"},{"bike_id":"a206a1fc-ad71-47c7-8011-84675fafc178","system_id":"levelo_inurba_marseille","lat":43.31226,"lon":5.36867,"is_reserved":false,"is_disabled":false,"rental_uris":{"android":"levelo://app?vid=a206a1fc-ad71-47c7-8011-84675fafc178","ios":"levelo://app?vid=a206a1fc-ad71-47c7-8011-84675fafc178"},"vehicle_type_id":"4","last_reported":1774626052,"current_range_meters":4000,"station_id":"ce4bgl92rcd13ifvqbq0","pricing_plan_id":"cebpf4jnsgd1na2vs0mg"},{"bike_id":"3ab98d54-0020-4383-9198-d1ae40e931d7","system_id":"levelo_inurba_marseille","lat":43.26225,"lon":5.40448,"is_reserved":false,"is_disabled":false,"rental_uris":{"android":"levelo://app?vid=3ab98d54-0020-4383-9198-d1ae40e931d7","ios":"levelo://app?vid=3ab98d54-0020-4383-9198-d1ae40e931d7"},"vehicle_type_id":"4","last_reported":1774626052,"current_range_meters":4000,"station_id":"ce4bhmh2rcd13ifvqgmg","pricing_plan_id":"cebpf4jnsgd1na2vs0mg"},{"bike_id":"5ee79f78-c077-4e4b-853f-9dadde04ec9a","system_id":"levelo_inurba_marseille","lat":43.32502,"lon":5.38296,"is_reserved":false,"is_disabled":false,"rental_uris":{"android":"levelo://app?vid=5ee79f78-c077-4e4b-853f-9dadde04ec9a","ios":"levelo://app?vid=5ee79f78-c077-4e4b-853f-9dadde04ec9a"},"vehicle_type_id":"4","last_reported":1774626052,"current_range_meters":4000,"station_id":"st_d4asgbiv49dc73anf9m0","pricing_plan_id":"cebpf4jnsgd1na2vs0mg"},{"bike_id":"95499898-c966-4d35-ae05-c608fe124272","system_id":"levelo_inurba_marseille","lat":43.27503,"lon":5.41571,"is_reserved":false,"is_disabled":false,"rental_uris":{"android":"levelo://app?vid=95499898-c966-4d35-ae05-c608fe124272","ios":"levelo://app?vid=95499898-c966-4d35-ae05-c608fe124272"},"vehicle_type_id":"4","last_reported":1774626052,"current_range_meters":4000,"station_id":"st_d6im8g6chgec73a5pndg","pricing_plan_id":"cebpf4jnsgd1na2vs0mg"},{"bike_id":"5d50e5a1-2776-45f5-b9ff-1dc20663f1a3","system_id":"levelo_inurba_marseille","lat":43.27183,"lon":5.40986,"is_reserved":false,"is_disabled":false,"rental_uris":{"android":"levelo://app?vid=5d50e5a1-2776-45f5-b9ff-1dc20663f1a3","ios":"levelo://app?vid=5d50e5a1-2776-45f5-b9ff-1dc20663f1a3"},"vehicle_type_id":"4","last_reported":1774626052,"current_range_meters":4000,"station_id":"ce4bhl12rcd13ifvqgf0","pricing_plan_id":"cebpf4jnsgd1na2vs0mg"},{"bike_id":"0f56ada4-0139-4533-81b0-539cec19117a","system_id":"levelo_inurba_marseille","lat":43.30045,"lon":5.37702,"is_reserved":false,"is_disabled":false,"rental_uris":{"android":"levelo://app?vid=0f56ada4-0139-4533-81b0-539cec19117a","ios":"levelo://app?vid=0f56ada4-0139-4533-81b0-539cec19117a"},"vehicle_type_id":"4","last_reported":1774626052,"current_range_meters":4000,"station_id":"","pricing_plan_id":"cebpf4jnsgd1na2vs0mg"},{"bike_id":"304f09eb-d9e2-49f5-ab92-08bad78da312","system_id":"levelo_inurba_marseille","lat":43.23781,"lon":5.36631,"is_reserved":false,"is_disabled":false,"rental_uris":{"android":"levelo://app?vid=304f09eb-d9e2-49f5-ab92-08bad78da312","ios":"levelo://app?vid=304f09eb-d9e2-49f5-ab92-08bad78da312"},"vehicle_type_id":"4","last_reported":1774626052,"current_range_meters":4000,"station_id":"st_d3nk18o9ro0c73en2l3g","pricing_plan_id":"cebpf4jnsgd1na2vs0mg"},{"bike_id":"a396b1f4-f83d-47a5-95e1-1e80054c273f","system_id":"levelo_inurba_marseille","lat":43.25719,"lon":5.41114,"is_reserved":false,"is_disabled":false,"rental_uris":{"android":"levelo://app?vid=a396b1f4-f83d-47a5-95e1-1e80054c273f","ios":"levelo://app?vid=a396b1f4-f83d-47a5-95e1-1e80054c273f"},"vehicle_type_id":"4","last_reported":1774626052,"current_range_meters":4000,"station_id":"ce4bhkp2rcd13ifvqgd0","pricing_plan_id":"cebpf4jnsgd1na2vs0mg"},{"bike_id":"d9f1e599-9996-4001-a299-ae38459379b5","system_id":"levelo_inurba_marseille","lat":43.31892,"lon":5.36828,"is_reserved":false,"is_disabled":false,"rental_uris":{"android":"levelo://app?vid=d9f1e599-9996-4001-a299-ae38459379b5","ios":"levelo://app?vid=d9f1e599-9996-4001-a299-ae38459379b5"},"vehicle_type_id":"4","last_reported":1774626052,"current_range_meters":4000,"station_id":"","pricing_plan_id":"cebpf4jnsgd1na2vs0mg"},{"bike_id":"99fdde14-d00f-4b87-a06e-d19f16d9d69a","system_id":"levelo_inurba_marseille","lat":43.30214,"lon":5.38034,"is_reserved":false,"is_disabled":false,"rental_uris":{"android":"levelo://app?vid=99fdde14-d00f-4b87-a06e-d19f16d9d69a","ios":"levelo://app?vid=99fdde14-d00f-4b87-a06e-d19f16d9d69a"},"vehicle_type_id":"4","last_reported":1774626052,"current_range_meters":4000,"station_id":"","pricing_plan_id":"cebpf4jnsgd1na2vs0mg"},{"bike_id":"6d3dd8ac-9eab-4224-808a-cdcebc6c91eb","system_id":"levelo_inurba_marseille","lat":43.29535,"lon":5.39396,"is_reserved":false,"is_disabled":false,"rental_uris":{"android":"levelo://app?vid=6d3dd8ac-9eab-4224-808a-cdcebc6c91eb","ios":"levelo://app?vid=6d3dd8ac-9eab-4224-808a-cdcebc6c91eb"},"vehicle_type_id":"4","last_reported":1774626052,"current_range_meters":4000,"station_id":"ce4bh292rcd13ifvqdf0","pricing_plan_id":"cebpf4jnsgd1na2vs0mg"},{"bike_id":"f8c795ac-536b-4df8-970f-0dfae1b65e58","system_id":"levelo_inurba_marseille","lat":43.28611,"lon":5.37065,"is_reserved":false,"is_disabled":false,"rental_uris":{"android":"levelo://app?vid=f8c795ac-536b-4df8-970f-0dfae1b65e58","ios":"levelo://app?vid=f8c795ac-536b-4df8-970f-0dfae1b65e58"},"vehicle_type_id":"4","last_reported":1774626052,"current_range_meters":4000,"station_id":"ce4bht12rcd13ifvqi60","pricing_plan_id":"cebpf4jnsgd1na2vs0mg"},{"bike_id":"523dbc6b-74b8-45c3-9d07-fb79c6e71ecc","system_id":"levelo_inurba_marseille","lat":43.29291,"lon":5.37144,"is_reserved":false,"is_disabled":false,"rental_uris":{"android":"levelo://app?vid=523dbc6b-74b8-45c3-9d07-fb79c6e71ecc","ios":"levelo://app?vid=523dbc6b-74b8-45c3-9d07-fb79c6e71ecc"},"vehicle_type_id":"4","last_reported":1774626052,"current_range_meters":4400,"station_id":"ce4bgh92rcd13ifvqb40","pricing_plan_id":"cebpf4jnsgd1na2vs0mg"},{"bike_id":"04040786-c00a-4f60-b99f-06cd5500dcbe","system_id":"levelo_inurba_marseille","lat":43.26963,"lon":5.38641,"is_reserved":false,"is_disabled":false,"rental_uris":{"android":"levelo://app?vid=04040786-c00a-4f60-b99f-06cd5500dcbe","ios":"levelo://app?vid=04040786-c00a-4f60-b99f-06cd5500dcbe"},"vehicle_type_id":"4","last_reported":1774626052,"current_range_meters":4400,"station_id":"ce4bhh92rcd13ifvqfh0","pricing_plan_id":"cebpf4jnsgd1na2vs0mg"},{"bike_id":"9ac2d7e7-51d6-4c20-9245-1abdbf115c06","system_id":"levelo_inurba_marseille","lat":43.27507,"lon":5.41689,"is_reserved":false,"is_disabled":false,"rental_uris":{"android":"levelo://app?vid=9ac2d7e7-51d6-4c20-9245-1abdbf115c06","ios":"levelo://app?vid=9ac2d7e7-51d6-4c20-9245-1abdbf115c06"},"vehicle_type_id":"4","last_reported":1774626052,"current_range_meters":4400,"station_id":"","pricing_plan_id":"cebpf4jnsgd1na2vs0mg"},{"bike_id":"2e82bbc6-8da9-49e4-aac6-1974853df07b","system_id":"levelo_inurba_marseille","lat":43.30897,"lon":5.3965,"is_reserved":false,"is_disabled":false,"rental_uris":{"android":"levelo://app?vid=2e82bbc6-8da9-49e4-aac6-1974853df07b","ios":"levelo://app?vid=2e82bbc6-8da9-49e4-aac6-1974853df07b"},"vehicle_type_id":"4","last_reported":1774626052,"current_range_meters":4400,"station_id":"ce4bh012rcd13ifvqcv0","pricing_plan_id":"cebpf4jnsgd1na2vs0mg"},{"bike_id":"f39d8b02-6dc1-4aa3-9619-221f5e63d8fe","system_id":"levelo_inurba_marseille","lat":43.27085,"lon":5.42297,"is_reserved":false,"is_disabled":false,"rental_uris":{"android":"levelo://app?vid=f39d8b02-6dc1-4aa3-9619-221f5e63d8fe","ios":"levelo://app?vid=f39d8b02-6dc1-4aa3-9619-221f5e63d8fe"},"vehicle_type_id":"4","last_reported":1774626052,"current_range_meters":4800,"station_id":"ce4bhk92rcd13ifvqgb0","pricing_plan_id":"cebpf4jnsgd1na2vs0mg"},{"bike_id":"beca5126-c985-47d5-859f-464bcda92937","system_id":"levelo_inurba_marseille","lat":43.2378,"lon":5.3663,"is_reserved":false,"is_disabled":false,"rental_uris":{"android":"levelo://app?vid=beca5126-c985-47d5-859f-464bcda92937","ios":"levelo://app?vid=beca5126-c985-47d5-859f-464bcda92937"},"vehicle_type_id":"4","last_reported":1774626052,"current_range_meters":4800,"station_id":"st_d3nk18o9ro0c73en2l3g","pricing_plan_id":"cebpf4jnsgd1na2vs0mg"},{"bike_id":"281319e4-7e8f-4d1b-acd6-d0520ce58acc","system_id":"levelo_inurba_marseille","lat":43.26028,"lon":5.3755,"is_reserved":false,"is_disabled":false,"rental_uris":{"android":"levelo://app?vid=281319e4-7e8f-4d1b-acd6-d0520ce58acc","ios":"levelo://app?vid=281319e4-7e8f-4d1b-acd6-d0520ce58acc"},"vehicle_type_id":"4","last_reported":1774626052,"current_range_meters":4800,"station_id":"ce4bhgh2rcd13ifvqfa0","pricing_plan_id":"cebpf4jnsgd1na2vs0mg"},{"bike_id":"70fc1285-1707-417c-bf8d-28b8d684acaf","system_id":"levelo_inurba_marseille","lat":43.33166,"lon":5.37703,"is_reserved":false,"is_disabled":false,"rental_uris":{"android":"levelo://app?vid=70fc1285-1707-417c-bf8d-28b8d684acaf","ios":"levelo://app?vid=70fc1285-1707-417c-bf8d-28b8d684acaf"},"vehicle_type_id":"4","last_reported":1774626052,"current_range_meters":4800,"station_id":"st_d46cu089ee8s73dldbu0","pricing_plan_id":"cebpf4jnsgd1na2vs0mg"},{"bike_id":"195e0631-ed2b-43bc-b6d1-51410ce940b3","system_id":"levelo_inurba_marseille","lat":43.28484,"lon":5.48393,"is_reserved":false,"is_disabled":false,"rental_uris":{"android":"levelo://app?vid=195e0631-ed2b-43bc-b6d1-51410ce940b3","ios":"levelo://app?vid=195e0631-ed2b-43bc-b6d1-51410ce940b3"},"vehicle_type_id":"4","last_reported":1774626052,"current_range_meters":5600,"station_id":"","pricing_plan_id":"cebpf4jnsgd1na2vs0mg"},{"bike_id":"afd03c50-565a-4fab-930b-02ac75fa7357","system_id":"levelo_inurba_marseille","lat":43.30589,"lon":5.37236,"is_reserved":false,"is_disabled":false,"rental_uris":{"android":"levelo://app?vid=afd03c50-565a-4fab-930b-02ac75fa7357","ios":"levelo://app?vid=afd03c50-565a-4fab-930b-02ac75fa7357"},"vehicle_type_id":"4","last_reported":1774626052,"current_range_meters":5600,"station_id":"ce4bgqh2rcd13ifvqc4g","pricing_plan_id":"cebpf4jnsgd1na2vs0mg"},{"bike_id":"60745d19-0a4f-44d5-90ce-af1c93b483f7","system_id":"levelo_inurba_marseille","lat":43.28427,"lon":5.34985,"is_reserved":false,"is_disabled":false,"rental_uris":{"android":"levelo://app?vid=60745d19-0a4f-44d5-90ce-af1c93b483f7","ios":"levelo://app?vid=60745d19-0a4f-44d5-90ce-af1c93b483f7"},"vehicle_type_id":"4","last_reported":1774626052,"current_range_meters":5600,"station_id":"ce4bhbh2rcd13ifvqepg","pricing_plan_id":"cebpf4jnsgd1na2vs0mg"},{"bike_id":"648ba343-8eea-4260-8dc5-9dcd56af79b3","system_id":"levelo_inurba_marseille","lat":43.297028,"lon":5.36607,"is_reserved":false,"is_disabled":false,"rental_uris":{"android":"levelo://app?vid=648ba343-8eea-4260-8dc5-9dcd56af79b3","ios":"levelo://app?vid=648ba343-8eea-4260-8dc5-9dcd56af79b3"},"vehicle_type_id":"4","last_reported":1774626052,"current_range_meters":5600,"station_id":"ce4bgn12rcd13ifvqbt0","pricing_plan_id":"cebpf4jnsgd1na2vs0mg"},{"bike_id":"d98423cf-94ce-4749-89f6-e8a1ee474779","system_id":"levelo_inurba_marseille","lat":43.28444,"lon":5.34966,"is_reserved":false,"is_disabled":false,"rental_uris":{"android":"levelo://app?vid=d98423cf-94ce-4749-89f6-e8a1ee474779","ios":"levelo://app?vid=d98423cf-94ce-4749-89f6-e8a1ee474779"},"vehicle_type_id":"4","last_reported":1774626052,"current_range_meters":5600,"station_id":"ce4bhbh2rcd13ifvqepg","pricing_plan_id":"cebpf4jnsgd1na2vs0mg"},{"bike_id":"10fe5563-f532-4492-919a-4905f9dfe4ff","system_id":"levelo_inurba_marseille","lat":43.2848,"lon":5.48393,"is_reserved":false,"is_disabled":false,"rental_uris":{"android":"levelo://app?vid=10fe5563-f532-4492-919a-4905f9dfe4ff","ios":"levelo://app?vid=10fe5563-f532-4492-919a-4905f9dfe4ff"},"vehicle_type_id":"4","last_reported":1774626052,"current_range_meters":5600,"station_id":"","pricing_plan_id":"cebpf4jnsgd1na2vs0mg"},{"bike_id":"14bd929d-15a5-45a7-a3b4-f3f662f5dfb3","system_id":"levelo_inurba_marseille","lat":43.33545,"lon":5.37464,"is_reserved":false,"is_disabled":false,"rental_uris":{"android":"levelo://app?vid=14bd929d-15a5-45a7-a3b4-f3f662f5dfb3","ios":"levelo://app?vid=14bd929d-15a5-45a7-a3b4-f3f662f5dfb3"},"vehicle_type_id":"4","last_reported":1774626052,"current_range_meters":5600,"station_id":"st_d46tts09ee8s73dlu43g","pricing_plan_id":"cebpf4jnsgd1na2vs0mg"},{"bike_id":"b5114d54-1a10-4d09-9c82-f6aa7d7d3f8c","system_id":"levelo_inurba_marseille","lat":43.22564,"lon":5.41597,"is_reserved":false,"is_disabled":false,"rental_uris":{"android":"levelo://app?vid=b5114d54-1a10-4d09-9c82-f6aa7d7d3f8c","ios":"levelo://app?vid=b5114d54-1a10-4d09-9c82-f6aa7d7d3f8c"},"vehicle_type_id":"4","last_reported":1774626052,"current_range_meters":6000,"station_id":"st_d2o4gvlbi1j2169b742g","pricing_plan_id":"cebpf4jnsgd1na2vs0mg"},{"bike_id":"da379db4-a5c5-4afa-833a-c43b879f6db6","system_id":"levelo_inurba_marseille","lat":43.28617,"lon":5.3511,"is_reserved":false,"is_disabled":false,"rental_uris":{"android":"levelo://app?vid=da379db4-a5c5-4afa-833a-c43b879f6db6","ios":"levelo://app?vid=da379db4-a5c5-4afa-833a-c43b879f6db6"},"vehicle_type_id":"4","last_reported":1774626052,"current_range_meters":6000,"station_id":"ce4bhch2rcd13ifvqeug","pricing_plan_id":"cebpf4jnsgd1na2vs0mg"},{"bike_id":"9c1cdab7-8171-442d-9864-8c0c68039557","system_id":"levelo_inurba_marseille","lat":43.32109,"lon":5.36774,"is_reserved":false,"is_disabled":false,"rental_uris":{"android":"levelo://app?vid=9c1cdab7-8171-442d-9864-8c0c68039557","ios":"levelo://app?vid=9c1cdab7-8171-442d-9864-8c0c68039557"},"vehicle_type_id":"4","last_reported":1774626052,"current_range_meters":6000,"station_id":"ce4bhrh2rcd13ifvqhug","pricing_plan_id":"cebpf4jnsgd1na2vs0mg"},{"bike_id":"4a6ad84e-6e22-459e-abd6-075453ffbbfd","system_id":"levelo_inurba_marseille","lat":43.30524,"lon":5.36541,"is_reserved":false,"is_disabled":false,"rental_uris":{"android":"levelo://app?vid=4a6ad84e-6e22-459e-abd6-075453ffbbfd","ios":"levelo://app?vid=4a6ad84e-6e22-459e-abd6-075453ffbbfd"},"vehicle_type_id":"4","last_reported":1774626052,"current_range_meters":6000,"station_id":"ce4bgs12rcd13ifvqcag","pricing_plan_id":"cebpf4jnsgd1na2vs0mg"},{"bike_id":"afc75428-11b0-4e54-8fa9-bdbb1f816951","system_id":"levelo_inurba_marseille","lat":43.28264,"lon":5.35063,"is_reserved":false,"is_disabled":false,"rental_uris":{"android":"levelo://app?vid=afc75428-11b0-4e54-8fa9-bdbb1f816951","ios":"levelo://app?vid=afc75428-11b0-4e54-8fa9-bdbb1f816951"},"vehicle_type_id":"4","last_reported":1774626052,"current_range_meters":6000,"station_id":"ce4bhbp2rcd13ifvqerg","pricing_plan_id":"cebpf4jnsgd1na2vs0mg"},{"bike_id":"bfd7cb66-3073-4920-8151-129c410ea860","system_id":"levelo_inurba_marseille","lat":43.33542,"lon":5.37466,"is_reserved":false,"is_disabled":false,"rental_uris":{"android":"levelo://app?vid=bfd7cb66-3073-4920-8151-129c410ea860","ios":"levelo://app?vid=bfd7cb66-3073-4920-8151-129c410ea860"},"vehicle_type_id":"4","last_reported":1774626052,"current_range_meters":6000,"station_id":"st_d46tts09ee8s73dlu43g","pricing_plan_id":"cebpf4jnsgd1na2vs0mg"},{"bike_id":"01336c29-76f7-452a-a669-aca7c1c80632","system_id":"levelo_inurba_marseille","lat":43.28607,"lon":5.37037,"is_reserved":false,"is_disabled":false,"rental_uris":{"android":"levelo://app?vid=01336c29-76f7-452a-a669-aca7c1c80632","ios":"levelo://app?vid=01336c29-76f7-452a-a669-aca7c1c80632"},"vehicle_type_id":"4","last_reported":1774626052,"current_range_meters":6000,"station_id":"ce4bht12rcd13ifvqi60","pricing_plan_id":"cebpf4jnsgd1na2vs0mg"},{"bike_id":"0e3d4c2e-9c7b-478f-9fac-739f9f7dbdf6","system_id":"levelo_inurba_marseille","lat":43.3131,"lon":5.36751,"is_reserved":false,"is_disabled":false,"rental_uris":{"android":"levelo://app?vid=0e3d4c2e-9c7b-478f-9fac-739f9f7dbdf6","ios":"levelo://app?vid=0e3d4c2e-9c7b-478f-9fac-739f9f7dbdf6"},"vehicle_type_id":"4","last_reported":1774626052,"current_range_meters":6000,"station_id":"ce4bgr92rcd13ifvqc6g","pricing_plan_id":"cebpf4jnsgd1na2vs0mg"},{"bike_id":"7534e2d4-d311-41e7-b92f-16aaffeeb042","system_id":"levelo_inurba_marseille","lat":43.28274,"lon":5.35063,"is_reserved":false,"is_disabled":false,"rental_uris":{"android":"levelo://app?vid=7534e2d4-d311-41e7-b92f-16aaffeeb042","ios":"levelo://app?vid=7534e2d4-d311-41e7-b92f-16aaffeeb042"},"vehicle_type_id":"4","last_reported":1774626052,"current_range_meters":6000,"station_id":"ce4bhbp2rcd13ifvqerg","pricing_plan_id":"cebpf4jnsgd1na2vs0mg"},{"bike_id":"27c547a4-33e7-4ac4-b96a-1b0bee3eb424","system_id":"levelo_inurba_marseille","lat":43.26946,"lon":5.38893,"is_reserved":false,"is_disabled":false,"rental_uris":{"android":"levelo://app?vid=27c547a4-33e7-4ac4-b96a-1b0bee3eb424","ios":"levelo://app?vid=27c547a4-33e7-4ac4-b96a-1b0bee3eb424"},"vehicle_type_id":"4","last_reported":1774626052,"current_range_meters":6400,"station_id":"ce4bhhh2rcd13ifvqfl0","pricing_plan_id":"cebpf4jnsgd1na2vs0mg"},{"bike_id":"eeae46d2-cc4e-4b7d-af7d-8ae32bf9b6b1","system_id":"levelo_inurba_marseille","lat":43.30632,"lon":5.37216,"is_reserved":false,"is_disabled":false,"rental_uris":{"android":"levelo://app?vid=eeae46d2-cc4e-4b7d-af7d-8ae32bf9b6b1","ios":"levelo://app?vid=eeae46d2-cc4e-4b7d-af7d-8ae32bf9b6b1"},"vehicle_type_id":"4","last_reported":1774626052,"current_range_meters":6400,"station_id":"ce4bgqh2rcd13ifvqc4g","pricing_plan_id":"cebpf4jnsgd1na2vs0mg"},{"bike_id":"2457fc1b-679d-4a71-90e9-ad408ab6ed9d","system_id":"levelo_inurba_marseille","lat":43.33383,"lon":5.38003,"is_reserved":false,"is_disabled":false,"rental_uris":{"android":"levelo://app?vid=2457fc1b-679d-4a71-90e9-ad408ab6ed9d","ios":"levelo://app?vid=2457fc1b-679d-4a71-90e9-ad408ab6ed9d"},"vehicle_type_id":"4","last_reported":1774626052,"current_range_meters":6400,"station_id":"","pricing_plan_id":"cebpf4jnsgd1na2vs0mg"},{"bike_id":"2555a893-6a3e-4c23-8e6c-9c60bcd40259","system_id":"levelo_inurba_marseille","lat":43.29871,"lon":5.36277,"is_reserved":false,"is_disabled":false,"rental_uris":{"android":"levelo://app?vid=2555a893-6a3e-4c23-8e6c-9c60bcd40259","ios":"levelo://app?vid=2555a893-6a3e-4c23-8e6c-9c60bcd40259"},"vehicle_type_id":"4","last_reported":1774626052,"current_range_meters":6400,"station_id":"ce4bgpp2rcd13ifvqc3g","pricing_plan_id":"cebpf4jnsgd1na2vs0mg"},{"bike_id":"0e158215-1434-44e6-b740-9d456d67dba0","system_id":"levelo_inurba_marseille","lat":43.23149,"lon":5.43693,"is_reserved":false,"is_disabled":false,"rental_uris":{"android":"levelo://app?vid=0e158215-1434-44e6-b740-9d456d67dba0","ios":"levelo://app?vid=0e158215-1434-44e6-b740-9d456d67dba0"},"vehicle_type_id":"4","last_reported":1774626052,"current_range_meters":6400,"station_id":"ce4bhmp2rcd13ifvqgog","pricing_plan_id":"cebpf4jnsgd1na2vs0mg"},{"bike_id":"0a77b6e1-05db-46f0-a0db-225ba15242da","system_id":"levelo_inurba_marseille","lat":43.24685,"lon":5.38177,"is_reserved":false,"is_disabled":false,"rental_uris":{"android":"levelo://app?vid=0a77b6e1-05db-46f0-a0db-225ba15242da","ios":"levelo://app?vid=0a77b6e1-05db-46f0-a0db-225ba15242da"},"vehicle_type_id":"4","last_reported":1774626052,"current_range_meters":6400,"station_id":"ce4bhih2rcd13ifvqfr0","pricing_plan_id":"cebpf4jnsgd1na2vs0mg"},{"bike_id":"b492596c-1f93-4731-9219-481c3eebf72b","system_id":"levelo_inurba_marseille","lat":43.26361,"lon":5.41066,"is_reserved":false,"is_disabled":false,"rental_uris":{"android":"levelo://app?vid=b492596c-1f93-4731-9219-481c3eebf72b","ios":"levelo://app?vid=b492596c-1f93-4731-9219-481c3eebf72b"},"vehicle_type_id":"4","last_reported":1774626052,"current_range_meters":6400,"station_id":"st_d4e5ca6na9uc73bfl5fg","pricing_plan_id":"cebpf4jnsgd1na2vs0mg"},{"bike_id":"b38373c4-334e-43c0-8346-e67621fa9685","system_id":"levelo_inurba_marseille","lat":43.2119,"lon":5.3507,"is_reserved":false,"is_disabled":false,"rental_uris":{"android":"levelo://app?vid=b38373c4-334e-43c0-8346-e67621fa9685","ios":"levelo://app?vid=b38373c4-334e-43c0-8346-e67621fa9685"},"vehicle_type_id":"4","last_reported":1774626052,"current_range_meters":6400,"station_id":"st_cvj6sg6p6f1abm77japg","pricing_plan_id":"cebpf4jnsgd1na2vs0mg"},{"bike_id":"ed9b8903-fd7a-4bcd-a2f1-b692211d5c75","system_id":"levelo_inurba_marseille","lat":43.29807,"lon":5.44063,"is_reserved":false,"is_disabled":false,"rental_uris":{"android":"levelo://app?vid=ed9b8903-fd7a-4bcd-a2f1-b692211d5c75","ios":"levelo://app?vid=ed9b8903-fd7a-4bcd-a2f1-b692211d5c75"},"vehicle_type_id":"4","last_reported":1774626052,"current_range_meters":6400,"station_id":"st_d3jp68qikq2c7381ktn0","pricing_plan_id":"cebpf4jnsgd1na2vs0mg"},{"bike_id":"0a0f1c8b-e730-4f5f-8de3-acf145fb1790","system_id":"levelo_inurba_marseille","lat":43.24672,"lon":5.4008,"is_reserved":false,"is_disabled":false,"rental_uris":{"android":"levelo://app?vid=0a0f1c8b-e730-4f5f-8de3-acf145fb1790","ios":"levelo://app?vid=0a0f1c8b-e730-4f5f-8de3-acf145fb1790"},"vehicle_type_id":"4","last_reported":1774626052,"current_range_meters":6400,"station_id":"","pricing_plan_id":"cebpf4jnsgd1na2vs0mg"},{"bike_id":"3ac2f73c-fd89-4693-91cf-7fffcc7f48aa","system_id":"levelo_inurba_marseille","lat":43.29934,"lon":5.36544,"is_reserved":false,"is_disabled":false,"rental_uris":{"android":"levelo://app?vid=3ac2f73c-fd89-4693-91cf-7fffcc7f48aa","ios":"levelo://app?vid=3ac2f73c-fd89-4693-91cf-7fffcc7f48aa"},"vehicle_type_id":"4","last_reported":1774626052,"current_range_meters":6400,"station_id":"ce4bgm92rcd13ifvqbr0","pricing_plan_id":"cebpf4jnsgd1na2vs0mg"},{"bike_id":"3d505283-c2d9-49cb-a33a-765060539192","system_id":"levelo_inurba_marseille","lat":43.337444,"lon":5.374475,"is_reserved":false,"is_disabled":false,"rental_uris":{"android":"levelo://app?vid=3d505283-c2d9-49cb-a33a-765060539192","ios":"levelo://app?vid=3d505283-c2d9-49cb-a33a-765060539192"},"vehicle_type_id":"4","last_reported":1774626052,"current_range_meters":6400,"station_id":"","pricing_plan_id":"cebpf4jnsgd1na2vs0mg"},{"bike_id":"91bd31f2-be9b-436a-b78a-8cf5541031ec","system_id":"levelo_inurba_marseille","lat":43.33758,"lon":5.3748,"is_reserved":false,"is_disabled":false,"rental_uris":{"android":"levelo://app?vid=91bd31f2-be9b-436a-b78a-8cf5541031ec","ios":"levelo://app?vid=91bd31f2-be9b-436a-b78a-8cf5541031ec"},"vehicle_type_id":"4","last_reported":1774626052,"current_range_meters":6800,"station_id":"","pricing_plan_id":"cebpf4jnsgd1na2vs0mg"},{"bike_id":"a2dc3a3f-4e0d-496d-b246-5d2073e3cd10","system_id":"levelo_inurba_marseille","lat":43.23779,"lon":5.36624,"is_reserved":false,"is_disabled":false,"rental_uris":{"android":"levelo://app?vid=a2dc3a3f-4e0d-496d-b246-5d2073e3cd10","ios":"levelo://app?vid=a2dc3a3f-4e0d-496d-b246-5d2073e3cd10"},"vehicle_type_id":"4","last_reported":1774626052,"current_range_meters":6800,"station_id":"st_d3nk18o9ro0c73en2l3g","pricing_plan_id":"cebpf4jnsgd1na2vs0mg"},{"bike_id":"2168fd10-874c-476f-97d1-11a52fc14733","system_id":"levelo_inurba_marseille","lat":43.27908,"lon":5.38012,"is_reserved":false,"is_disabled":false,"rental_uris":{"android":"levelo://app?vid=2168fd10-874c-476f-97d1-11a52fc14733","ios":"levelo://app?vid=2168fd10-874c-476f-97d1-11a52fc14733"},"vehicle_type_id":"4","last_reported":1774626052,"current_range_meters":6800,"station_id":"ce4bhf92rcd13ifvqf50","pricing_plan_id":"cebpf4jnsgd1na2vs0mg"},{"bike_id":"b6e8f2fa-fae4-4140-af91-d0651531ab91","system_id":"levelo_inurba_marseille","lat":43.22582,"lon":5.41635,"is_reserved":false,"is_disabled":false,"rental_uris":{"android":"levelo://app?vid=b6e8f2fa-fae4-4140-af91-d0651531ab91","ios":"levelo://app?vid=b6e8f2fa-fae4-4140-af91-d0651531ab91"},"vehicle_type_id":"4","last_reported":1774626052,"current_range_meters":6800,"station_id":"st_d2o4gvlbi1j2169b742g","pricing_plan_id":"cebpf4jnsgd1na2vs0mg"},{"bike_id":"ac130e88-9e2f-4bea-b0d7-97afed67ab83","system_id":"levelo_inurba_marseille","lat":43.32339,"lon":5.3672,"is_reserved":false,"is_disabled":false,"rental_uris":{"android":"levelo://app?vid=ac130e88-9e2f-4bea-b0d7-97afed67ab83","ios":"levelo://app?vid=ac130e88-9e2f-4bea-b0d7-97afed67ab83"},"vehicle_type_id":"4","last_reported":1774626052,"current_range_meters":6800,"station_id":"ce4bhsh2rcd13ifvqi2g","pricing_plan_id":"cebpf4jnsgd1na2vs0mg"},{"bike_id":"161d527a-87a7-498b-9e3a-2aeaa2612f42","system_id":"levelo_inurba_marseille","lat":43.24394,"lon":5.37079,"is_reserved":false,"is_disabled":false,"rental_uris":{"android":"levelo://app?vid=161d527a-87a7-498b-9e3a-2aeaa2612f42","ios":"levelo://app?vid=161d527a-87a7-498b-9e3a-2aeaa2612f42"},"vehicle_type_id":"4","last_reported":1774626052,"current_range_meters":6800,"station_id":"ce4bhhh2rcd13ifvqfk0","pricing_plan_id":"cebpf4jnsgd1na2vs0mg"},{"bike_id":"c5fdd429-2766-4dbc-bc45-043fcb785445","system_id":"levelo_inurba_marseille","lat":43.27818,"lon":5.40715,"is_reserved":false,"is_disabled":false,"rental_uris":{"android":"levelo://app?vid=c5fdd429-2766-4dbc-bc45-043fcb785445","ios":"levelo://app?vid=c5fdd429-2766-4dbc-bc45-043fcb785445"},"vehicle_type_id":"4","last_reported":1774626052,"current_range_meters":6800,"station_id":"ce4bhnh2rcd13ifvqgtg","pricing_plan_id":"cebpf4jnsgd1na2vs0mg"},{"bike_id":"c24bc431-ded0-4618-b64c-e21b5bde7f3d","system_id":"levelo_inurba_marseille","lat":43.30943,"lon":5.3911,"is_reserved":false,"is_disabled":false,"rental_uris":{"android":"levelo://app?vid=c24bc431-ded0-4618-b64c-e21b5bde7f3d","ios":"levelo://app?vid=c24bc431-ded0-4618-b64c-e21b5bde7f3d"},"vehicle_type_id":"4","last_reported":1774626052,"current_range_meters":6800,"station_id":"","pricing_plan_id":"cebpf4jnsgd1na2vs0mg"},{"bike_id":"41215aec-5f35-41c4-8875-01313ebb4475","system_id":"levelo_inurba_marseille","lat":43.28884,"lon":5.43769,"is_reserved":false,"is_disabled":false,"rental_uris":{"android":"levelo://app?vid=41215aec-5f35-41c4-8875-01313ebb4475","ios":"levelo://app?vid=41215aec-5f35-41c4-8875-01313ebb4475"},"vehicle_type_id":"4","last_reported":1774626052,"current_range_meters":6800,"station_id":"","pricing_plan_id":"cebpf4jnsgd1na2vs0mg"},{"bike_id":"33c4c740-db80-485d-9c0e-f3083e547def","system_id":"levelo_inurba_marseille","lat":43.22577,"lon":5.41648,"is_reserved":false,"is_disabled":false,"rental_uris":{"android":"levelo://app?vid=33c4c740-db80-485d-9c0e-f3083e547def","ios":"levelo://app?vid=33c4c740-db80-485d-9c0e-f3083e547def"},"vehicle_type_id":"4","last_reported":1774626052,"current_range_meters":6800,"station_id":"st_d2o4gvlbi1j2169b742g","pricing_plan_id":"cebpf4jnsgd1na2vs0mg"},{"bike_id":"20ba71e0-3d55-4d07-b402-43fab81f2269","system_id":"levelo_inurba_marseille","lat":43.30755,"lon":5.36815,"is_reserved":false,"is_disabled":false,"rental_uris":{"android":"levelo://app?vid=20ba71e0-3d55-4d07-b402-43fab81f2269","ios":"levelo://app?vid=20ba71e0-3d55-4d07-b402-43fab81f2269"},"vehicle_type_id":"4","last_reported":1774626052,"current_range_meters":6800,"station_id":"ce4bgn92rcd13ifvqbvg","pricing_plan_id":"cebpf4jnsgd1na2vs0mg"},{"bike_id":"5d4074f7-be9f-44d7-b283-987566d29577","system_id":"levelo_inurba_marseille","lat":43.29924,"lon":5.38136,"is_reserved":false,"is_disabled":false,"rental_uris":{"android":"levelo://app?vid=5d4074f7-be9f-44d7-b283-987566d29577","ios":"levelo://app?vid=5d4074f7-be9f-44d7-b283-987566d29577"},"vehicle_type_id":"4","last_reported":1774626052,"current_range_meters":6800,"station_id":"ce4bgj12rcd13ifvqbc0","pricing_plan_id":"cebpf4jnsgd1na2vs0mg"},{"bike_id":"5ff0b8e0-c6fc-4471-b906-1fb573f75580","system_id":"levelo_inurba_marseille","lat":43.26789,"lon":5.39429,"is_reserved":false,"is_disabled":false,"rental_uris":{"android":"levelo://app?vid=5ff0b8e0-c6fc-4471-b906-1fb573f75580","ios":"levelo://app?vid=5ff0b8e0-c6fc-4471-b906-1fb573f75580"},"vehicle_type_id":"4","last_reported":1774626052,"current_range_meters":6800,"station_id":"ce4bhh12rcd13ifvqfg0","pricing_plan_id":"cebpf4jnsgd1na2vs0mg"},{"bike_id":"80db360c-7472-4e5e-a72d-ff0ab9900c5d","system_id":"levelo_inurba_marseille","lat":43.29201,"lon":5.42611,"is_reserved":false,"is_disabled":false,"rental_uris":{"android":"levelo://app?vid=80db360c-7472-4e5e-a72d-ff0ab9900c5d","ios":"levelo://app?vid=80db360c-7472-4e5e-a72d-ff0ab9900c5d"},"vehicle_type_id":"4","last_reported":1774626052,"current_range_meters":6800,"station_id":"","pricing_plan_id":"cebpf4jnsgd1na2vs0mg"},{"bike_id":"4397ae44-635b-43b0-a1ea-4e1a061d0889","system_id":"levelo_inurba_marseille","lat":43.24178,"lon":5.36393,"is_reserved":false,"is_disabled":false,"rental_uris":{"android":"levelo://app?vid=4397ae44-635b-43b0-a1ea-4e1a061d0889","ios":"levelo://app?vid=4397ae44-635b-43b0-a1ea-4e1a061d0889"},"vehicle_type_id":"4","last_reported":1774626052,"current_range_meters":6800,"station_id":"cpo36qri1sfpv3e86is0","pricing_plan_id":"cebpf4jnsgd1na2vs0mg"},{"bike_id":"4a3fafa3-97dd-4e01-b9cb-9d4de29423f4","system_id":"levelo_inurba_marseille","lat":43.2481,"lon":5.37457,"is_reserved":false,"is_disabled":false,"rental_uris":{"android":"levelo://app?vid=4a3fafa3-97dd-4e01-b9cb-9d4de29423f4","ios":"levelo://app?vid=4a3fafa3-97dd-4e01-b9cb-9d4de29423f4"},"vehicle_type_id":"4","last_reported":1774626052,"current_range_meters":6800,"station_id":"ce4bhgh2rcd13ifvqfb0","pricing_plan_id":"cebpf4jnsgd1na2vs0mg"},{"bike_id":"4c89b9ce-52ed-4fac-8617-1a28e06018e5","system_id":"levelo_inurba_marseille","lat":43.24802,"lon":5.37451,"is_reserved":false,"is_disabled":false,"rental_uris":{"android":"levelo://app?vid=4c89b9ce-52ed-4fac-8617-1a28e06018e5","ios":"levelo://app?vid=4c89b9ce-52ed-4fac-8617-1a28e06018e5"},"vehicle_type_id":"4","last_reported":1774626052,"current_range_meters":6800,"station_id":"ce4bhgh2rcd13ifvqfb0","pricing_plan_id":"cebpf4jnsgd1na2vs0mg"},{"bike_id":"3979c6e6-d956-4dfd-9b85-963cde66489d","system_id":"levelo_inurba_marseille","lat":43.26542,"lon":5.37292,"is_reserved":false,"is_disabled":false,"rental_uris":{"android":"levelo://app?vid=3979c6e6-d956-4dfd-9b85-963cde66489d","ios":"levelo://app?vid=3979c6e6-d956-4dfd-9b85-963cde66489d"},"vehicle_type_id":"4","last_reported":1774626052,"current_range_meters":6800,"station_id":"ce4bhg12rcd13ifvqf70","pricing_plan_id":"cebpf4jnsgd1na2vs0mg"},{"bike_id":"0291cdaa-5df4-4c06-a64e-8a33d79939fd","system_id":"levelo_inurba_marseille","lat":43.24644,"lon":5.43153,"is_reserved":false,"is_disabled":false,"rental_uris":{"android":"levelo://app?vid=0291cdaa-5df4-4c06-a64e-8a33d79939fd","ios":"levelo://app?vid=0291cdaa-5df4-4c06-a64e-8a33d79939fd"},"vehicle_type_id":"4","last_reported":1774626052,"current_range_meters":6800,"station_id":"","pricing_plan_id":"cebpf4jnsgd1na2vs0mg"},{"bike_id":"d6d88029-64b8-4411-919c-483ad9a8dd34","system_id":"levelo_inurba_marseille","lat":43.21194,"lon":5.35076,"is_reserved":false,"is_disabled":false,"rental_uris":{"android":"levelo://app?vid=d6d88029-64b8-4411-919c-483ad9a8dd34","ios":"levelo://app?vid=d6d88029-64b8-4411-919c-483ad9a8dd34"},"vehicle_type_id":"4","last_reported":1774626052,"current_range_meters":7200,"station_id":"st_cvj6sg6p6f1abm77japg","pricing_plan_id":"cebpf4jnsgd1na2vs0mg"},{"bike_id":"cd9d9b00-0f0e-4b81-98a5-32faab1cebb6","system_id":"levelo_inurba_marseille","lat":43.28405,"lon":5.3498,"is_reserved":false,"is_disabled":false,"rental_uris":{"android":"levelo://app?vid=cd9d9b00-0f0e-4b81-98a5-32faab1cebb6","ios":"levelo://app?vid=cd9d9b00-0f0e-4b81-98a5-32faab1cebb6"},"vehicle_type_id":"4","last_reported":1774626052,"current_range_meters":7200,"station_id":"ce4bhbh2rcd13ifvqepg","pricing_plan_id":"cebpf4jnsgd1na2vs0mg"},{"bike_id":"889bc233-e8d7-4178-b626-67618c25a6a7","system_id":"levelo_inurba_marseille","lat":43.29597,"lon":5.38097,"is_reserved":false,"is_disabled":false,"rental_uris":{"android":"levelo://app?vid=889bc233-e8d7-4178-b626-67618c25a6a7","ios":"levelo://app?vid=889bc233-e8d7-4178-b626-67618c25a6a7"},"vehicle_type_id":"4","last_reported":1774626052,"current_range_meters":7200,"station_id":"ce4bgl12rcd13ifvqbo0","pricing_plan_id":"cebpf4jnsgd1na2vs0mg"},{"bike_id":"062b0a7d-ab62-4e18-af48-36f8a7922ee1","system_id":"levelo_inurba_marseille","lat":43.301452,"lon":5.398627,"is_reserved":false,"is_disabled":false,"rental_uris":{"android":"levelo://app?vid=062b0a7d-ab62-4e18-af48-36f8a7922ee1","ios":"levelo://app?vid=062b0a7d-ab62-4e18-af48-36f8a7922ee1"},"vehicle_type_id":"4","last_reported":1774626052,"current_range_meters":7200,"station_id":"ce4bh0h2rcd13ifvqd40","pricing_plan_id":"cebpf4jnsgd1na2vs0mg"},{"bike_id":"d4c807a0-5c59-4d90-96e9-d2b1d7e9948c","system_id":"levelo_inurba_marseille","lat":43.28071,"lon":5.39646,"is_reserved":false,"is_disabled":false,"rental_uris":{"android":"levelo://app?vid=d4c807a0-5c59-4d90-96e9-d2b1d7e9948c","ios":"levelo://app?vid=d4c807a0-5c59-4d90-96e9-d2b1d7e9948c"},"vehicle_type_id":"4","last_reported":1774626052,"current_range_meters":7200,"station_id":"ce4bho12rcd13ifvqh2g","pricing_plan_id":"cebpf4jnsgd1na2vs0mg"},{"bike_id":"17ed106d-4063-4cf3-9925-e4f1dbf31273","system_id":"levelo_inurba_marseille","lat":43.25587,"lon":5.38255,"is_reserved":false,"is_disabled":false,"rental_uris":{"android":"levelo://app?vid=17ed106d-4063-4cf3-9925-e4f1dbf31273","ios":"levelo://app?vid=17ed106d-4063-4cf3-9925-e4f1dbf31273"},"vehicle_type_id":"4","last_reported":1774626052,"current_range_meters":7200,"station_id":"ce4bhih2rcd13ifvqfs0","pricing_plan_id":"cebpf4jnsgd1na2vs0mg"},{"bike_id":"ae758492-79f2-476f-b0b6-5b6613e02dd5","system_id":"levelo_inurba_marseille","lat":43.21194,"lon":5.3506,"is_reserved":false,"is_disabled":false,"rental_uris":{"android":"levelo://app?vid=ae758492-79f2-476f-b0b6-5b6613e02dd5","ios":"levelo://app?vid=ae758492-79f2-476f-b0b6-5b6613e02dd5"},"vehicle_type_id":"4","last_reported":1774626052,"current_range_meters":7200,"station_id":"st_cvj6sg6p6f1abm77japg","pricing_plan_id":"cebpf4jnsgd1na2vs0mg"},{"bike_id":"491f2694-6ed1-4268-a23d-fc08c617dff1","system_id":"levelo_inurba_marseille","lat":43.23784,"lon":5.36622,"is_reserved":false,"is_disabled":false,"rental_uris":{"android":"levelo://app?vid=491f2694-6ed1-4268-a23d-fc08c617dff1","ios":"levelo://app?vid=491f2694-6ed1-4268-a23d-fc08c617dff1"},"vehicle_type_id":"4","last_reported":1774626052,"current_range_meters":7200,"station_id":"st_d3nk18o9ro0c73en2l3g","pricing_plan_id":"cebpf4jnsgd1na2vs0mg"},{"bike_id":"3ce66bd8-d863-49c9-ab9a-31f303881080","system_id":"levelo_inurba_marseille","lat":43.23781,"lon":5.36624,"is_reserved":false,"is_disabled":false,"rental_uris":{"android":"levelo://app?vid=3ce66bd8-d863-49c9-ab9a-31f303881080","ios":"levelo://app?vid=3ce66bd8-d863-49c9-ab9a-31f303881080"},"vehicle_type_id":"4","last_reported":1774626052,"current_range_meters":7200,"station_id":"st_d3nk18o9ro0c73en2l3g","pricing_plan_id":"cebpf4jnsgd1na2vs0mg"},{"bike_id":"a5189253-f89e-4200-92f4-f7e09eb72645","system_id":"levelo_inurba_marseille","lat":43.26703,"lon":5.38231,"is_reserved":false,"is_disabled":false,"rental_uris":{"android":"levelo://app?vid=a5189253-f89e-4200-92f4-f7e09eb72645","ios":"levelo://app?vid=a5189253-f89e-4200-92f4-f7e09eb72645"},"vehicle_type_id":"4","last_reported":1774626052,"current_range_meters":7200,"station_id":"ce4bhg92rcd13ifvqf90","pricing_plan_id":"cebpf4jnsgd1na2vs0mg"},{"bike_id":"dda26fe6-226c-4701-bb77-0b26c40ac4a2","system_id":"levelo_inurba_marseille","lat":43.28297,"lon":5.35119,"is_reserved":false,"is_disabled":false,"rental_uris":{"android":"levelo://app?vid=dda26fe6-226c-4701-bb77-0b26c40ac4a2","ios":"levelo://app?vid=dda26fe6-226c-4701-bb77-0b26c40ac4a2"},"vehicle_type_id":"4","last_reported":1774626052,"current_range_meters":7200,"station_id":"","pricing_plan_id":"cebpf4jnsgd1na2vs0mg"},{"bike_id":"2bcf4c6a-ad4f-47aa-9dbf-5ef96a394a04","system_id":"levelo_inurba_marseille","lat":43.24661,"lon":5.38164,"is_reserved":false,"is_disabled":false,"rental_uris":{"android":"levelo://app?vid=2bcf4c6a-ad4f-47aa-9dbf-5ef96a394a04","ios":"levelo://app?vid=2bcf4c6a-ad4f-47aa-9dbf-5ef96a394a04"},"vehicle_type_id":"4","last_reported":1774626052,"current_range_meters":7200,"station_id":"ce4bhih2rcd13ifvqfr0","pricing_plan_id":"cebpf4jnsgd1na2vs0mg"},{"bike_id":"d9eb8630-cc93-4613-a409-2999b9763cf1","system_id":"levelo_inurba_marseille","lat":43.2466,"lon":5.38156,"is_reserved":false,"is_disabled":false,"rental_uris":{"android":"levelo://app?vid=d9eb8630-cc93-4613-a409-2999b9763cf1","ios":"levelo://app?vid=d9eb8630-cc93-4613-a409-2999b9763cf1"},"vehicle_type_id":"4","last_reported":1774626052,"current_range_meters":7200,"station_id":"ce4bhih2rcd13ifvqfr0","pricing_plan_id":"cebpf4jnsgd1na2vs0mg"},{"bike_id":"885cc689-57e8-4d95-8cdc-ecb3e6fa8c21","system_id":"levelo_inurba_marseille","lat":43.26375,"lon":5.41078,"is_reserved":false,"is_disabled":false,"rental_uris":{"android":"levelo://app?vid=885cc689-57e8-4d95-8cdc-ecb3e6fa8c21","ios":"levelo://app?vid=885cc689-57e8-4d95-8cdc-ecb3e6fa8c21"},"vehicle_type_id":"4","last_reported":1774626052,"current_range_meters":7200,"station_id":"st_d4e5ca6na9uc73bfl5fg","pricing_plan_id":"cebpf4jnsgd1na2vs0mg"},{"bike_id":"361bff30-6f65-4179-8930-4ff3d21333ec","system_id":"levelo_inurba_marseille","lat":43.27179,"lon":5.40975,"is_reserved":false,"is_disabled":false,"rental_uris":{"android":"levelo://app?vid=361bff30-6f65-4179-8930-4ff3d21333ec","ios":"levelo://app?vid=361bff30-6f65-4179-8930-4ff3d21333ec"},"vehicle_type_id":"4","last_reported":1774626052,"current_range_meters":8000,"station_id":"ce4bhl12rcd13ifvqgf0","pricing_plan_id":"cebpf4jnsgd1na2vs0mg"},{"bike_id":"ee67d274-4fbd-4321-906c-22d4e8f3bac5","system_id":"levelo_inurba_marseille","lat":43.32483,"lon":5.36578,"is_reserved":false,"is_disabled":false,"rental_uris":{"android":"levelo://app?vid=ee67d274-4fbd-4321-906c-22d4e8f3bac5","ios":"levelo://app?vid=ee67d274-4fbd-4321-906c-22d4e8f3bac5"},"vehicle_type_id":"4","last_reported":1774626052,"current_range_meters":8000,"station_id":"ce4bhs12rcd13ifvqhvg","pricing_plan_id":"cebpf4jnsgd1na2vs0mg"},{"bike_id":"e4b97950-5826-475e-8558-d2e5bcc219f8","system_id":"levelo_inurba_marseille","lat":43.29801,"lon":5.3654,"is_reserved":false,"is_disabled":false,"rental_uris":{"android":"levelo://app?vid=e4b97950-5826-475e-8558-d2e5bcc219f8","ios":"levelo://app?vid=e4b97950-5826-475e-8558-d2e5bcc219f8"},"vehicle_type_id":"4","last_reported":1774626052,"current_range_meters":8000,"station_id":"","pricing_plan_id":"cebpf4jnsgd1na2vs0mg"},{"bike_id":"23c9dcfe-7dab-4c87-96ea-1494e0f9cf49","system_id":"levelo_inurba_marseille","lat":43.29624,"lon":5.37164,"is_reserved":false,"is_disabled":false,"rental_uris":{"android":"levelo://app?vid=23c9dcfe-7dab-4c87-96ea-1494e0f9cf49","ios":"levelo://app?vid=23c9dcfe-7dab-4c87-96ea-1494e0f9cf49"},"vehicle_type_id":"4","last_reported":1774626052,"current_range_meters":8000,"station_id":"ce4bgnh2rcd13ifvqc0g","pricing_plan_id":"cebpf4jnsgd1na2vs0mg"},{"bike_id":"cdd299a1-37f2-4ecb-9e76-2bb680085162","system_id":"levelo_inurba_marseille","lat":43.27582,"lon":5.38424,"is_reserved":false,"is_disabled":false,"rental_uris":{"android":"levelo://app?vid=cdd299a1-37f2-4ecb-9e76-2bb680085162","ios":"levelo://app?vid=cdd299a1-37f2-4ecb-9e76-2bb680085162"},"vehicle_type_id":"4","last_reported":1774626052,"current_range_meters":8000,"station_id":"ce4bhh92rcd13ifvqfi0","pricing_plan_id":"cebpf4jnsgd1na2vs0mg"},{"bike_id":"ace30790-d9f4-4362-b049-53b5308efc6b","system_id":"levelo_inurba_marseille","lat":43.31992,"lon":5.3815,"is_reserved":false,"is_disabled":false,"rental_uris":{"android":"levelo://app?vid=ace30790-d9f4-4362-b049-53b5308efc6b","ios":"levelo://app?vid=ace30790-d9f4-4362-b049-53b5308efc6b"},"vehicle_type_id":"4","last_reported":1774626052,"current_range_meters":8000,"station_id":"ce4bhr12rcd13ifvqhpg","pricing_plan_id":"cebpf4jnsgd1na2vs0mg"},{"bike_id":"e369da6f-cf9a-43c1-bdbc-66801ef116da","system_id":"levelo_inurba_marseille","lat":43.28603,"lon":5.35103,"is_reserved":false,"is_disabled":false,"rental_uris":{"android":"levelo://app?vid=e369da6f-cf9a-43c1-bdbc-66801ef116da","ios":"levelo://app?vid=e369da6f-cf9a-43c1-bdbc-66801ef116da"},"vehicle_type_id":"4","last_reported":1774626052,"current_range_meters":8000,"station_id":"ce4bhch2rcd13ifvqeug","pricing_plan_id":"cebpf4jnsgd1na2vs0mg"},{"bike_id":"fbab2f2d-05f5-4078-ae6c-ccf2c29b1e07","system_id":"levelo_inurba_marseille","lat":43.28262,"lon":5.35059,"is_reserved":false,"is_disabled":false,"rental_uris":{"android":"levelo://app?vid=fbab2f2d-05f5-4078-ae6c-ccf2c29b1e07","ios":"levelo://app?vid=fbab2f2d-05f5-4078-ae6c-ccf2c29b1e07"},"vehicle_type_id":"4","last_reported":1774626052,"current_range_meters":8000,"station_id":"ce4bhbp2rcd13ifvqerg","pricing_plan_id":"cebpf4jnsgd1na2vs0mg"},{"bike_id":"e0630bd5-d252-45e8-8d79-6b11a3c25514","system_id":"levelo_inurba_marseille","lat":43.26554,"lon":5.37288,"is_reserved":false,"is_disabled":false,"rental_uris":{"android":"levelo://app?vid=e0630bd5-d252-45e8-8d79-6b11a3c25514","ios":"levelo://app?vid=e0630bd5-d252-45e8-8d79-6b11a3c25514"},"vehicle_type_id":"4","last_reported":1774626052,"current_range_meters":8000,"station_id":"ce4bhg12rcd13ifvqf70","pricing_plan_id":"cebpf4jnsgd1na2vs0mg"},{"bike_id":"845b6cfa-5f37-43ff-bdc8-8b703e2f2ae6","system_id":"levelo_inurba_marseille","lat":43.29617,"lon":5.3773,"is_reserved":false,"is_disabled":false,"rental_uris":{"android":"levelo://app?vid=845b6cfa-5f37-43ff-bdc8-8b703e2f2ae6","ios":"levelo://app?vid=845b6cfa-5f37-43ff-bdc8-8b703e2f2ae6"},"vehicle_type_id":"4","last_reported":1774626052,"current_range_meters":8000,"station_id":"ce4bgi92rcd13ifvqb90","pricing_plan_id":"cebpf4jnsgd1na2vs0mg"},{"bike_id":"14c52e92-a064-4cb0-8ea6-97671dd13594","system_id":"levelo_inurba_marseille","lat":43.26189,"lon":5.3745,"is_reserved":false,"is_disabled":false,"rental_uris":{"android":"levelo://app?vid=14c52e92-a064-4cb0-8ea6-97671dd13594","ios":"levelo://app?vid=14c52e92-a064-4cb0-8ea6-97671dd13594"},"vehicle_type_id":"4","last_reported":1774626052,"current_range_meters":8000,"station_id":"ce4bhgp2rcd13ifvqfc0","pricing_plan_id":"cebpf4jnsgd1na2vs0mg"},{"bike_id":"5b3e8da5-094a-4d76-8d93-c73e89772c78","system_id":"levelo_inurba_marseille","lat":43.28001,"lon":5.41669,"is_reserved":false,"is_disabled":false,"rental_uris":{"android":"levelo://app?vid=5b3e8da5-094a-4d76-8d93-c73e89772c78","ios":"levelo://app?vid=5b3e8da5-094a-4d76-8d93-c73e89772c78"},"vehicle_type_id":"4","last_reported":1774626052,"current_range_meters":8000,"station_id":"ce4bho12rcd13ifvqh1g","pricing_plan_id":"cebpf4jnsgd1na2vs0mg"},{"bike_id":"29b8f791-7789-4e9b-8e39-c750aefccf04","system_id":"levelo_inurba_marseille","lat":43.23788,"lon":5.36629,"is_reserved":false,"is_disabled":false,"rental_uris":{"android":"levelo://app?vid=29b8f791-7789-4e9b-8e39-c750aefccf04","ios":"levelo://app?vid=29b8f791-7789-4e9b-8e39-c750aefccf04"},"vehicle_type_id":"4","last_reported":1774626052,"current_range_meters":8000,"station_id":"st_d3nk18o9ro0c73en2l3g","pricing_plan_id":"cebpf4jnsgd1na2vs0mg"},{"bike_id":"8f614727-091e-435c-b4f2-9f43e95b276c","system_id":"levelo_inurba_marseille","lat":43.29595,"lon":5.37506,"is_reserved":false,"is_disabled":false,"rental_uris":{"android":"levelo://app?vid=8f614727-091e-435c-b4f2-9f43e95b276c","ios":"levelo://app?vid=8f614727-091e-435c-b4f2-9f43e95b276c"},"vehicle_type_id":"4","last_reported":1774626052,"current_range_meters":8000,"station_id":"ce4bgh92rcd13ifvqb50","pricing_plan_id":"cebpf4jnsgd1na2vs0mg"},{"bike_id":"e88c5369-05aa-418f-be4c-918713df3c68","system_id":"levelo_inurba_marseille","lat":43.26635,"lon":5.38872,"is_reserved":false,"is_disabled":false,"rental_uris":{"android":"levelo://app?vid=e88c5369-05aa-418f-be4c-918713df3c68","ios":"levelo://app?vid=e88c5369-05aa-418f-be4c-918713df3c68"},"vehicle_type_id":"4","last_reported":1774626052,"current_range_meters":8000,"station_id":"","pricing_plan_id":"cebpf4jnsgd1na2vs0mg"},{"bike_id":"b8b93532-5e6a-47b9-bcbd-22347b0280f5","system_id":"levelo_inurba_marseille","lat":43.3015,"lon":5.38074,"is_reserved":false,"is_disabled":false,"rental_uris":{"android":"levelo://app?vid=b8b93532-5e6a-47b9-bcbd-22347b0280f5","ios":"levelo://app?vid=b8b93532-5e6a-47b9-bcbd-22347b0280f5"},"vehicle_type_id":"4","last_reported":1774626052,"current_range_meters":8000,"station_id":"ce4bgjp2rcd13ifvqbh0","pricing_plan_id":"cebpf4jnsgd1na2vs0mg"},{"bike_id":"3958c75b-f26d-45b9-9ba8-f7b4d60729ef","system_id":"levelo_inurba_marseille","lat":43.26681,"lon":5.38278,"is_reserved":false,"is_disabled":false,"rental_uris":{"android":"levelo://app?vid=3958c75b-f26d-45b9-9ba8-f7b4d60729ef","ios":"levelo://app?vid=3958c75b-f26d-45b9-9ba8-f7b4d60729ef"},"vehicle_type_id":"4","last_reported":1774626052,"current_range_meters":8000,"station_id":"ce4bhg92rcd13ifvqf90","pricing_plan_id":"cebpf4jnsgd1na2vs0mg"},{"bike_id":"5c23e0f0-3718-460a-acbf-0792e1920dc6","system_id":"levelo_inurba_marseille","lat":43.28435,"lon":5.34985,"is_reserved":false,"is_disabled":false,"rental_uris":{"android":"levelo://app?vid=5c23e0f0-3718-460a-acbf-0792e1920dc6","ios":"levelo://app?vid=5c23e0f0-3718-460a-acbf-0792e1920dc6"},"vehicle_type_id":"4","last_reported":1774626052,"current_range_meters":8000,"station_id":"ce4bhbh2rcd13ifvqepg","pricing_plan_id":"cebpf4jnsgd1na2vs0mg"},{"bike_id":"6671c61a-045c-4d83-b5a9-69cb797098b8","system_id":"levelo_inurba_marseille","lat":43.3441,"lon":5.3595,"is_reserved":false,"is_disabled":false,"rental_uris":{"android":"levelo://app?vid=6671c61a-045c-4d83-b5a9-69cb797098b8","ios":"levelo://app?vid=6671c61a-045c-4d83-b5a9-69cb797098b8"},"vehicle_type_id":"4","last_reported":1774626052,"current_range_meters":8000,"station_id":"","pricing_plan_id":"cebpf4jnsgd1na2vs0mg"},{"bike_id":"18a91529-06e5-4b51-b178-940cb96e7217","system_id":"levelo_inurba_marseille","lat":43.23777,"lon":5.36617,"is_reserved":false,"is_disabled":false,"rental_uris":{"android":"levelo://app?vid=18a91529-06e5-4b51-b178-940cb96e7217","ios":"levelo://app?vid=18a91529-06e5-4b51-b178-940cb96e7217"},"vehicle_type_id":"4","last_reported":1774626052,"current_range_meters":8400,"station_id":"st_d3nk18o9ro0c73en2l3g","pricing_plan_id":"cebpf4jnsgd1na2vs0mg"},{"bike_id":"2f62e1a5-fac4-44d7-9f31-8de236e9386f","system_id":"levelo_inurba_marseille","lat":43.30927,"lon":5.40109,"is_reserved":false,"is_disabled":false,"rental_uris":{"android":"levelo://app?vid=2f62e1a5-fac4-44d7-9f31-8de236e9386f","ios":"levelo://app?vid=2f62e1a5-fac4-44d7-9f31-8de236e9386f"},"vehicle_type_id":"4","last_reported":1774626052,"current_range_meters":8400,"station_id":"ce4bgvp2rcd13ifvqct0","pricing_plan_id":"cebpf4jnsgd1na2vs0mg"},{"bike_id":"001735b0-89dd-4106-9b34-cdf6e23455af","system_id":"levelo_inurba_marseille","lat":43.27815,"lon":5.40722,"is_reserved":false,"is_disabled":false,"rental_uris":{"android":"levelo://app?vid=001735b0-89dd-4106-9b34-cdf6e23455af","ios":"levelo://app?vid=001735b0-89dd-4106-9b34-cdf6e23455af"},"vehicle_type_id":"4","last_reported":1774626052,"current_range_meters":8400,"station_id":"ce4bhnh2rcd13ifvqgtg","pricing_plan_id":"cebpf4jnsgd1na2vs0mg"},{"bike_id":"7993b2a6-ccf1-42a0-9307-e94116230608","system_id":"levelo_inurba_marseille","lat":43.28619,"lon":5.35099,"is_reserved":false,"is_disabled":false,"rental_uris":{"android":"levelo://app?vid=7993b2a6-ccf1-42a0-9307-e94116230608","ios":"levelo://app?vid=7993b2a6-ccf1-42a0-9307-e94116230608"},"vehicle_type_id":"4","last_reported":1774626052,"current_range_meters":8400,"station_id":"ce4bhch2rcd13ifvqeug","pricing_plan_id":"cebpf4jnsgd1na2vs0mg"},{"bike_id":"2079b28e-e67c-46f2-b341-0eb57b27bb0e","system_id":"levelo_inurba_marseille","lat":43.31186,"lon":5.36871,"is_reserved":false,"is_disabled":false,"rental_uris":{"android":"levelo://app?vid=2079b28e-e67c-46f2-b341-0eb57b27bb0e","ios":"levelo://app?vid=2079b28e-e67c-46f2-b341-0eb57b27bb0e"},"vehicle_type_id":"4","last_reported":1774626052,"current_range_meters":8400,"station_id":"ce4bgl92rcd13ifvqbq0","pricing_plan_id":"cebpf4jnsgd1na2vs0mg"},{"bike_id":"27f65587-f91a-41b1-aacf-8da5e702b79e","system_id":"levelo_inurba_marseille","lat":43.29745,"lon":5.42806,"is_reserved":false,"is_disabled":false,"rental_uris":{"android":"levelo://app?vid=27f65587-f91a-41b1-aacf-8da5e702b79e","ios":"levelo://app?vid=27f65587-f91a-41b1-aacf-8da5e702b79e"},"vehicle_type_id":"4","last_reported":1774626052,"current_range_meters":8400,"station_id":"st_d3md5207bmas73dh9klg","pricing_plan_id":"cebpf4jnsgd1na2vs0mg"},{"bike_id":"915ccf51-81c4-4a81-94b6-b9522edf5a8e","system_id":"levelo_inurba_marseille","lat":43.32667,"lon":5.40915,"is_reserved":false,"is_disabled":false,"rental_uris":{"android":"levelo://app?vid=915ccf51-81c4-4a81-94b6-b9522edf5a8e","ios":"levelo://app?vid=915ccf51-81c4-4a81-94b6-b9522edf5a8e"},"vehicle_type_id":"4","last_reported":1774626052,"current_range_meters":8400,"station_id":"","pricing_plan_id":"cebpf4jnsgd1na2vs0mg"},{"bike_id":"86723fb3-7a32-4a1d-b53a-b3b04e07fae1","system_id":"levelo_inurba_marseille","lat":43.31023,"lon":5.37167,"is_reserved":false,"is_disabled":false,"rental_uris":{"android":"levelo://app?vid=86723fb3-7a32-4a1d-b53a-b3b04e07fae1","ios":"levelo://app?vid=86723fb3-7a32-4a1d-b53a-b3b04e07fae1"},"vehicle_type_id":"4","last_reported":1774626052,"current_range_meters":8400,"station_id":"st_d4kl2rp97mjs73e7tdfg","pricing_plan_id":"cebpf4jnsgd1na2vs0mg"},{"bike_id":"a858ea89-34aa-421e-b0a5-1ea8bb4dbce1","system_id":"levelo_inurba_marseille","lat":43.29262,"lon":5.36848,"is_reserved":false,"is_disabled":false,"rental_uris":{"android":"levelo://app?vid=a858ea89-34aa-421e-b0a5-1ea8bb4dbce1","ios":"levelo://app?vid=a858ea89-34aa-421e-b0a5-1ea8bb4dbce1"},"vehicle_type_id":"4","last_reported":1774626052,"current_range_meters":8400,"station_id":"ce4bhbp2rcd13ifvqesg","pricing_plan_id":"cebpf4jnsgd1na2vs0mg"},{"bike_id":"6a73b5ce-8037-4f6e-8d1a-9311852b5f34","system_id":"levelo_inurba_marseille","lat":43.28077,"lon":5.39652,"is_reserved":false,"is_disabled":false,"rental_uris":{"android":"levelo://app?vid=6a73b5ce-8037-4f6e-8d1a-9311852b5f34","ios":"levelo://app?vid=6a73b5ce-8037-4f6e-8d1a-9311852b5f34"},"vehicle_type_id":"4","last_reported":1774626052,"current_range_meters":8400,"station_id":"ce4bho12rcd13ifvqh2g","pricing_plan_id":"cebpf4jnsgd1na2vs0mg"},{"bike_id":"cffe0f18-179f-425b-a01b-de771d22df74","system_id":"levelo_inurba_marseille","lat":43.26793,"lon":5.39415,"is_reserved":false,"is_disabled":false,"rental_uris":{"android":"levelo://app?vid=cffe0f18-179f-425b-a01b-de771d22df74","ios":"levelo://app?vid=cffe0f18-179f-425b-a01b-de771d22df74"},"vehicle_type_id":"4","last_reported":1774626052,"current_range_meters":8400,"station_id":"ce4bhh12rcd13ifvqfg0","pricing_plan_id":"cebpf4jnsgd1na2vs0mg"},{"bike_id":"5ef65278-351c-45c4-8778-5bfec1e20cef","system_id":"levelo_inurba_marseille","lat":43.30418,"lon":5.39748,"is_reserved":false,"is_disabled":false,"rental_uris":{"android":"levelo://app?vid=5ef65278-351c-45c4-8778-5bfec1e20cef","ios":"levelo://app?vid=5ef65278-351c-45c4-8778-5bfec1e20cef"},"vehicle_type_id":"4","last_reported":1774626052,"current_range_meters":8400,"station_id":"ce4bh092rcd13ifvqd20","pricing_plan_id":"cebpf4jnsgd1na2vs0mg"},{"bike_id":"be500756-1c0b-4c02-b419-04946b950617","system_id":"levelo_inurba_marseille","lat":43.26386,"lon":5.41082,"is_reserved":false,"is_disabled":false,"rental_uris":{"android":"levelo://app?vid=be500756-1c0b-4c02-b419-04946b950617","ios":"levelo://app?vid=be500756-1c0b-4c02-b419-04946b950617"},"vehicle_type_id":"4","last_reported":1774626052,"current_range_meters":8400,"station_id":"st_d4e5ca6na9uc73bfl5fg","pricing_plan_id":"cebpf4jnsgd1na2vs0mg"},{"bike_id":"aa6eb777-c9be-4964-beb1-ce00e8883a0c","system_id":"levelo_inurba_marseille","lat":43.30887,"lon":5.39652,"is_reserved":false,"is_disabled":true,"rental_uris":{"android":"levelo://app?vid=aa6eb777-c9be-4964-beb1-ce00e8883a0c","ios":"levelo://app?vid=aa6eb777-c9be-4964-beb1-ce00e8883a0c"},"vehicle_type_id":"4","last_reported":1774626052,"current_range_meters":8800,"station_id":"ce4bh012rcd13ifvqcv0","pricing_plan_id":"cebpf4jnsgd1na2vs0mg"},{"bike_id":"3137e3ea-7797-4cae-a237-2a996dd9ad4a","system_id":"levelo_inurba_marseille","lat":43.28477,"lon":5.48399,"is_reserved":false,"is_disabled":false,"rental_uris":{"android":"levelo://app?vid=3137e3ea-7797-4cae-a237-2a996dd9ad4a","ios":"levelo://app?vid=3137e3ea-7797-4cae-a237-2a996dd9ad4a"},"vehicle_type_id":"4","last_reported":1774626052,"current_range_meters":8800,"station_id":"","pricing_plan_id":"cebpf4jnsgd1na2vs0mg"},{"bike_id":"536bf1ff-af50-4d37-864c-781dcfce400a","system_id":"levelo_inurba_marseille","lat":43.24174,"lon":5.39724,"is_reserved":false,"is_disabled":false,"rental_uris":{"android":"levelo://app?vid=536bf1ff-af50-4d37-864c-781dcfce400a","ios":"levelo://app?vid=536bf1ff-af50-4d37-864c-781dcfce400a"},"vehicle_type_id":"4","last_reported":1774626052,"current_range_meters":8800,"station_id":"ce4bhn12rcd13ifvqgpg","pricing_plan_id":"cebpf4jnsgd1na2vs0mg"},{"bike_id":"2873a201-01ad-44f0-a3f4-1c2939d32934","system_id":"levelo_inurba_marseille","lat":43.31544,"lon":5.38011,"is_reserved":false,"is_disabled":false,"rental_uris":{"android":"levelo://app?vid=2873a201-01ad-44f0-a3f4-1c2939d32934","ios":"levelo://app?vid=2873a201-01ad-44f0-a3f4-1c2939d32934"},"vehicle_type_id":"4","last_reported":1774626052,"current_range_meters":8800,"station_id":"ce4bhsp2rcd13ifvqi50","pricing_plan_id":"cebpf4jnsgd1na2vs0mg"},{"bike_id":"d853da6c-5cf5-41ea-807a-d36018f85d3c","system_id":"levelo_inurba_marseille","lat":43.23189,"lon":5.40002,"is_reserved":false,"is_disabled":true,"rental_uris":{"android":"levelo://app?vid=d853da6c-5cf5-41ea-807a-d36018f85d3c","ios":"levelo://app?vid=d853da6c-5cf5-41ea-807a-d36018f85d3c"},"vehicle_type_id":"4","last_reported":1774626052,"current_range_meters":8800,"station_id":"ce4bhn12rcd13ifvqgqg","pricing_plan_id":"cebpf4jnsgd1na2vs0mg"},{"bike_id":"8b44b9ba-553c-4a19-bbbe-b5eddb2ee588","system_id":"levelo_inurba_marseille","lat":43.301,"lon":5.37653,"is_reserved":false,"is_disabled":false,"rental_uris":{"android":"levelo://app?vid=8b44b9ba-553c-4a19-bbbe-b5eddb2ee588","ios":"levelo://app?vid=8b44b9ba-553c-4a19-bbbe-b5eddb2ee588"},"vehicle_type_id":"4","last_reported":1774626052,"current_range_meters":8800,"station_id":"","pricing_plan_id":"cebpf4jnsgd1na2vs0mg"},{"bike_id":"017cc899-a510-41b6-b2c0-841cd8ab0838","system_id":"levelo_inurba_marseille","lat":43.31253,"lon":5.36904,"is_reserved":false,"is_disabled":false,"rental_uris":{"android":"levelo://app?vid=017cc899-a510-41b6-b2c0-841cd8ab0838","ios":"levelo://app?vid=017cc899-a510-41b6-b2c0-841cd8ab0838"},"vehicle_type_id":"4","last_reported":1774626052,"current_range_meters":8800,"station_id":"","pricing_plan_id":"cebpf4jnsgd1na2vs0mg"},{"bike_id":"e9011982-58e3-4839-a122-3544648d155b","system_id":"levelo_inurba_marseille","lat":43.30421,"lon":5.39759,"is_reserved":false,"is_disabled":false,"rental_uris":{"android":"levelo://app?vid=e9011982-58e3-4839-a122-3544648d155b","ios":"levelo://app?vid=e9011982-58e3-4839-a122-3544648d155b"},"vehicle_type_id":"4","last_reported":1774626052,"current_range_meters":8800,"station_id":"ce4bh092rcd13ifvqd20","pricing_plan_id":"cebpf4jnsgd1na2vs0mg"},{"bike_id":"6d1dd35d-1ce3-4297-9706-721b82716928","system_id":"levelo_inurba_marseille","lat":43.23785,"lon":5.36627,"is_reserved":false,"is_disabled":false,"rental_uris":{"android":"levelo://app?vid=6d1dd35d-1ce3-4297-9706-721b82716928","ios":"levelo://app?vid=6d1dd35d-1ce3-4297-9706-721b82716928"},"vehicle_type_id":"4","last_reported":1774626052,"current_range_meters":8800,"station_id":"st_d3nk18o9ro0c73en2l3g","pricing_plan_id":"cebpf4jnsgd1na2vs0mg"},{"bike_id":"6a955117-a6f8-4dce-83db-37ec04942146","system_id":"levelo_inurba_marseille","lat":43.30508,"lon":5.37902,"is_reserved":false,"is_disabled":false,"rental_uris":{"android":"levelo://app?vid=6a955117-a6f8-4dce-83db-37ec04942146","ios":"levelo://app?vid=6a955117-a6f8-4dce-83db-37ec04942146"},"vehicle_type_id":"4","last_reported":1774626052,"current_range_meters":8800,"station_id":"","pricing_plan_id":"cebpf4jnsgd1na2vs0mg"},{"bike_id":"d6acb52f-be73-46f9-b093-effcccb373b6","system_id":"levelo_inurba_marseille","lat":43.26539,"lon":5.37285,"is_reserved":false,"is_disabled":false,"rental_uris":{"android":"levelo://app?vid=d6acb52f-be73-46f9-b093-effcccb373b6","ios":"levelo://app?vid=d6acb52f-be73-46f9-b093-effcccb373b6"},"vehicle_type_id":"4","last_reported":1774626052,"current_range_meters":8800,"station_id":"ce4bhg12rcd13ifvqf70","pricing_plan_id":"cebpf4jnsgd1na2vs0mg"},{"bike_id":"cdf48671-b824-4bd3-9ba9-9bb0058467b7","system_id":"levelo_inurba_marseille","lat":43.28609,"lon":5.35112,"is_reserved":false,"is_disabled":false,"rental_uris":{"android":"levelo://app?vid=cdf48671-b824-4bd3-9ba9-9bb0058467b7","ios":"levelo://app?vid=cdf48671-b824-4bd3-9ba9-9bb0058467b7"},"vehicle_type_id":"4","last_reported":1774626052,"current_range_meters":8800,"station_id":"ce4bhch2rcd13ifvqeug","pricing_plan_id":"cebpf4jnsgd1na2vs0mg"},{"bike_id":"dd21cd2f-ab57-4cd4-a438-b1fa2bdb0a92","system_id":"levelo_inurba_marseille","lat":43.31249,"lon":5.36835,"is_reserved":false,"is_disabled":false,"rental_uris":{"android":"levelo://app?vid=dd21cd2f-ab57-4cd4-a438-b1fa2bdb0a92","ios":"levelo://app?vid=dd21cd2f-ab57-4cd4-a438-b1fa2bdb0a92"},"vehicle_type_id":"4","last_reported":1774626052,"current_range_meters":8800,"station_id":"ce4bgl92rcd13ifvqbq0","pricing_plan_id":"cebpf4jnsgd1na2vs0mg"},{"bike_id":"8fe4b1f4-9080-46b9-85a2-ce71bc022ee8","system_id":"levelo_inurba_marseille","lat":43.25113,"lon":5.40327,"is_reserved":false,"is_disabled":false,"rental_uris":{"android":"levelo://app?vid=8fe4b1f4-9080-46b9-85a2-ce71bc022ee8","ios":"levelo://app?vid=8fe4b1f4-9080-46b9-85a2-ce71bc022ee8"},"vehicle_type_id":"4","last_reported":1774626052,"current_range_meters":8800,"station_id":"ce4bhlh2rcd13ifvqgig","pricing_plan_id":"cebpf4jnsgd1na2vs0mg"},{"bike_id":"30e88e0e-470b-46c9-8ebc-1994865cdbf4","system_id":"levelo_inurba_marseille","lat":43.26236,"lon":5.40454,"is_reserved":false,"is_disabled":false,"rental_uris":{"android":"levelo://app?vid=30e88e0e-470b-46c9-8ebc-1994865cdbf4","ios":"levelo://app?vid=30e88e0e-470b-46c9-8ebc-1994865cdbf4"},"vehicle_type_id":"4","last_reported":1774626052,"current_range_meters":8800,"station_id":"ce4bhmh2rcd13ifvqgmg","pricing_plan_id":"cebpf4jnsgd1na2vs0mg"},{"bike_id":"7f5f4a35-fda4-4a33-b7ae-332aa08e4387","system_id":"levelo_inurba_marseille","lat":43.29767,"lon":5.42776,"is_reserved":false,"is_disabled":false,"rental_uris":{"android":"levelo://app?vid=7f5f4a35-fda4-4a33-b7ae-332aa08e4387","ios":"levelo://app?vid=7f5f4a35-fda4-4a33-b7ae-332aa08e4387"},"vehicle_type_id":"4","last_reported":1774626052,"current_range_meters":8800,"station_id":"st_d3md5207bmas73dh9klg","pricing_plan_id":"cebpf4jnsgd1na2vs0mg"},{"bike_id":"aafcee39-2aef-4ad2-a7ed-48ca03369385","system_id":"levelo_inurba_marseille","lat":43.244,"lon":5.37054,"is_reserved":false,"is_disabled":false,"rental_uris":{"android":"levelo://app?vid=aafcee39-2aef-4ad2-a7ed-48ca03369385","ios":"levelo://app?vid=aafcee39-2aef-4ad2-a7ed-48ca03369385"},"vehicle_type_id":"4","last_reported":1774626052,"current_range_meters":8800,"station_id":"ce4bhhh2rcd13ifvqfk0","pricing_plan_id":"cebpf4jnsgd1na2vs0mg"},{"bike_id":"2d095ec1-44b8-4164-a185-0a73881873fc","system_id":"levelo_inurba_marseille","lat":43.31232,"lon":5.3688,"is_reserved":false,"is_disabled":false,"rental_uris":{"android":"levelo://app?vid=2d095ec1-44b8-4164-a185-0a73881873fc","ios":"levelo://app?vid=2d095ec1-44b8-4164-a185-0a73881873fc"},"vehicle_type_id":"4","last_reported":1774626052,"current_range_meters":8800,"station_id":"ce4bgl92rcd13ifvqbq0","pricing_plan_id":"cebpf4jnsgd1na2vs0mg"},{"bike_id":"56c9867f-19cb-4a74-abcd-02a14f65f0aa","system_id":"levelo_inurba_marseille","lat":43.26496,"lon":5.39539,"is_reserved":false,"is_disabled":false,"rental_uris":{"android":"levelo://app?vid=56c9867f-19cb-4a74-abcd-02a14f65f0aa","ios":"levelo://app?vid=56c9867f-19cb-4a74-abcd-02a14f65f0aa"},"vehicle_type_id":"4","last_reported":1774626052,"current_range_meters":9200,"station_id":"ce4bhi12rcd13ifvqfq0","pricing_plan_id":"cebpf4jnsgd1na2vs0mg"},{"bike_id":"38d4b5fb-6c40-49bc-8782-b1dbf5006ae3","system_id":"levelo_inurba_marseille","lat":43.24175,"lon":5.39677,"is_reserved":false,"is_disabled":false,"rental_uris":{"android":"levelo://app?vid=38d4b5fb-6c40-49bc-8782-b1dbf5006ae3","ios":"levelo://app?vid=38d4b5fb-6c40-49bc-8782-b1dbf5006ae3"},"vehicle_type_id":"4","last_reported":1774626052,"current_range_meters":9200,"station_id":"ce4bhn12rcd13ifvqgpg","pricing_plan_id":"cebpf4jnsgd1na2vs0mg"},{"bike_id":"d32cdaf4-dccc-4757-9100-320132e3534c","system_id":"levelo_inurba_marseille","lat":43.286643,"lon":5.386699,"is_reserved":false,"is_disabled":false,"rental_uris":{"android":"levelo://app?vid=d32cdaf4-dccc-4757-9100-320132e3534c","ios":"levelo://app?vid=d32cdaf4-dccc-4757-9100-320132e3534c"},"vehicle_type_id":"4","last_reported":1774626052,"current_range_meters":9200,"station_id":"ce4bh492rcd13ifvqdug","pricing_plan_id":"cebpf4jnsgd1na2vs0mg"},{"bike_id":"c5412bb6-bec7-4456-bdb3-6b87df0ff39f","system_id":"levelo_inurba_marseille","lat":43.31198,"lon":5.36918,"is_reserved":false,"is_disabled":false,"rental_uris":{"android":"levelo://app?vid=c5412bb6-bec7-4456-bdb3-6b87df0ff39f","ios":"levelo://app?vid=c5412bb6-bec7-4456-bdb3-6b87df0ff39f"},"vehicle_type_id":"4","last_reported":1774626052,"current_range_meters":9200,"station_id":"","pricing_plan_id":"cebpf4jnsgd1na2vs0mg"},{"bike_id":"7d38c45a-0011-4d05-9bbf-54b7323ff394","system_id":"levelo_inurba_marseille","lat":43.26379,"lon":5.41065,"is_reserved":false,"is_disabled":false,"rental_uris":{"android":"levelo://app?vid=7d38c45a-0011-4d05-9bbf-54b7323ff394","ios":"levelo://app?vid=7d38c45a-0011-4d05-9bbf-54b7323ff394"},"vehicle_type_id":"4","last_reported":1774626052,"current_range_meters":9200,"station_id":"st_d4e5ca6na9uc73bfl5fg","pricing_plan_id":"cebpf4jnsgd1na2vs0mg"},{"bike_id":"f7cb61ea-1df7-4388-b663-7919adc79911","system_id":"levelo_inurba_marseille","lat":43.31146,"lon":5.36806,"is_reserved":false,"is_disabled":false,"rental_uris":{"android":"levelo://app?vid=f7cb61ea-1df7-4388-b663-7919adc79911","ios":"levelo://app?vid=f7cb61ea-1df7-4388-b663-7919adc79911"},"vehicle_type_id":"4","last_reported":1774626052,"current_range_meters":9200,"station_id":"","pricing_plan_id":"cebpf4jnsgd1na2vs0mg"},{"bike_id":"e4b8931c-03ca-41c7-bb73-d8e8fdaf8d69","system_id":"levelo_inurba_marseille","lat":43.25612,"lon":5.38285,"is_reserved":false,"is_disabled":false,"rental_uris":{"android":"levelo://app?vid=e4b8931c-03ca-41c7-bb73-d8e8fdaf8d69","ios":"levelo://app?vid=e4b8931c-03ca-41c7-bb73-d8e8fdaf8d69"},"vehicle_type_id":"4","last_reported":1774626052,"current_range_meters":9200,"station_id":"","pricing_plan_id":"cebpf4jnsgd1na2vs0mg"},{"bike_id":"b763695a-1f10-4560-8ac2-61dccf3a0596","system_id":"levelo_inurba_marseille","lat":43.29552,"lon":5.38559,"is_reserved":false,"is_disabled":false,"rental_uris":{"android":"levelo://app?vid=b763695a-1f10-4560-8ac2-61dccf3a0596","ios":"levelo://app?vid=b763695a-1f10-4560-8ac2-61dccf3a0596"},"vehicle_type_id":"4","last_reported":1774626052,"current_range_meters":9200,"station_id":"ce4bgih2rcd13ifvqba0","pricing_plan_id":"cebpf4jnsgd1na2vs0mg"},{"bike_id":"6d106594-19d4-410a-8438-74af7bf89a11","system_id":"levelo_inurba_marseille","lat":43.28416,"lon":5.34978,"is_reserved":false,"is_disabled":false,"rental_uris":{"android":"levelo://app?vid=6d106594-19d4-410a-8438-74af7bf89a11","ios":"levelo://app?vid=6d106594-19d4-410a-8438-74af7bf89a11"},"vehicle_type_id":"4","last_reported":1774626052,"current_range_meters":9200,"station_id":"ce4bhbh2rcd13ifvqepg","pricing_plan_id":"cebpf4jnsgd1na2vs0mg"},{"bike_id":"6dac0b4d-7f30-42cc-9e02-b269d2083b71","system_id":"levelo_inurba_marseille","lat":43.29721,"lon":5.3769,"is_reserved":false,"is_disabled":false,"rental_uris":{"android":"levelo://app?vid=6dac0b4d-7f30-42cc-9e02-b269d2083b71","ios":"levelo://app?vid=6dac0b4d-7f30-42cc-9e02-b269d2083b71"},"vehicle_type_id":"4","last_reported":1774626052,"current_range_meters":9200,"station_id":"ce4bgkh2rcd13ifvqbl0","pricing_plan_id":"cebpf4jnsgd1na2vs0mg"},{"bike_id":"2d5262be-582c-4d87-a7a2-b4c3f4ed4d38","system_id":"levelo_inurba_marseille","lat":43.22573,"lon":5.41647,"is_reserved":false,"is_disabled":false,"rental_uris":{"android":"levelo://app?vid=2d5262be-582c-4d87-a7a2-b4c3f4ed4d38","ios":"levelo://app?vid=2d5262be-582c-4d87-a7a2-b4c3f4ed4d38"},"vehicle_type_id":"4","last_reported":1774626052,"current_range_meters":9200,"station_id":"st_d2o4gvlbi1j2169b742g","pricing_plan_id":"cebpf4jnsgd1na2vs0mg"},{"bike_id":"80afa0b1-a6e4-41a6-91a8-c1a9b41838b5","system_id":"levelo_inurba_marseille","lat":43.31759,"lon":5.39867,"is_reserved":false,"is_disabled":false,"rental_uris":{"android":"levelo://app?vid=80afa0b1-a6e4-41a6-91a8-c1a9b41838b5","ios":"levelo://app?vid=80afa0b1-a6e4-41a6-91a8-c1a9b41838b5"},"vehicle_type_id":"4","last_reported":1774626052,"current_range_meters":9200,"station_id":"","pricing_plan_id":"cebpf4jnsgd1na2vs0mg"},{"bike_id":"8226a0cc-4997-42c2-a99d-916a1ce77e0d","system_id":"levelo_inurba_marseille","lat":43.28259,"lon":5.35068,"is_reserved":false,"is_disabled":false,"rental_uris":{"android":"levelo://app?vid=8226a0cc-4997-42c2-a99d-916a1ce77e0d","ios":"levelo://app?vid=8226a0cc-4997-42c2-a99d-916a1ce77e0d"},"vehicle_type_id":"4","last_reported":1774626052,"current_range_meters":9200,"station_id":"ce4bhbp2rcd13ifvqerg","pricing_plan_id":"cebpf4jnsgd1na2vs0mg"},{"bike_id":"f1f52da2-2a90-4056-a614-e4abc5daae5c","system_id":"levelo_inurba_marseille","lat":43.26378,"lon":5.41067,"is_reserved":false,"is_disabled":false,"rental_uris":{"android":"levelo://app?vid=f1f52da2-2a90-4056-a614-e4abc5daae5c","ios":"levelo://app?vid=f1f52da2-2a90-4056-a614-e4abc5daae5c"},"vehicle_type_id":"4","last_reported":1774626052,"current_range_meters":9200,"station_id":"st_d4e5ca6na9uc73bfl5fg","pricing_plan_id":"cebpf4jnsgd1na2vs0mg"},{"bike_id":"9c448445-1c60-4520-a1cb-98a7a7992b90","system_id":"levelo_inurba_marseille","lat":43.28465,"lon":5.48435,"is_reserved":false,"is_disabled":false,"rental_uris":{"android":"levelo://app?vid=9c448445-1c60-4520-a1cb-98a7a7992b90","ios":"levelo://app?vid=9c448445-1c60-4520-a1cb-98a7a7992b90"},"vehicle_type_id":"4","last_reported":1774626052,"current_range_meters":9200,"station_id":"st_d3svhcjqgbts73a3dn0g","pricing_plan_id":"cebpf4jnsgd1na2vs0mg"},{"bike_id":"ade5b7ca-6eb3-4d39-b491-1ca734a7a46a","system_id":"levelo_inurba_marseille","lat":43.28593,"lon":5.35086,"is_reserved":false,"is_disabled":false,"rental_uris":{"android":"levelo://app?vid=ade5b7ca-6eb3-4d39-b491-1ca734a7a46a","ios":"levelo://app?vid=ade5b7ca-6eb3-4d39-b491-1ca734a7a46a"},"vehicle_type_id":"4","last_reported":1774626052,"current_range_meters":9200,"station_id":"ce4bhch2rcd13ifvqeug","pricing_plan_id":"cebpf4jnsgd1na2vs0mg"},{"bike_id":"988fa466-b526-471d-8030-15aae034cebe","system_id":"levelo_inurba_marseille","lat":43.2808,"lon":5.39643,"is_reserved":false,"is_disabled":false,"rental_uris":{"android":"levelo://app?vid=988fa466-b526-471d-8030-15aae034cebe","ios":"levelo://app?vid=988fa466-b526-471d-8030-15aae034cebe"},"vehicle_type_id":"4","last_reported":1774626052,"current_range_meters":9200,"station_id":"ce4bho12rcd13ifvqh2g","pricing_plan_id":"cebpf4jnsgd1na2vs0mg"},{"bike_id":"a0e1fe6f-1b0c-4b69-b699-3f3295a2fce0","system_id":"levelo_inurba_marseille","lat":43.28402,"lon":5.34984,"is_reserved":false,"is_disabled":false,"rental_uris":{"android":"levelo://app?vid=a0e1fe6f-1b0c-4b69-b699-3f3295a2fce0","ios":"levelo://app?vid=a0e1fe6f-1b0c-4b69-b699-3f3295a2fce0"},"vehicle_type_id":"4","last_reported":1774626052,"current_range_meters":9600,"station_id":"ce4bhbh2rcd13ifvqepg","pricing_plan_id":"cebpf4jnsgd1na2vs0mg"},{"bike_id":"785c5a62-1a9c-4a92-9305-1c2031869d1c","system_id":"levelo_inurba_marseille","lat":43.26687,"lon":5.38265,"is_reserved":false,"is_disabled":false,"rental_uris":{"android":"levelo://app?vid=785c5a62-1a9c-4a92-9305-1c2031869d1c","ios":"levelo://app?vid=785c5a62-1a9c-4a92-9305-1c2031869d1c"},"vehicle_type_id":"4","last_reported":1774626052,"current_range_meters":9600,"station_id":"ce4bhg92rcd13ifvqf90","pricing_plan_id":"cebpf4jnsgd1na2vs0mg"},{"bike_id":"ac1a9d6c-17a0-4e01-9607-d886e691e83d","system_id":"levelo_inurba_marseille","lat":43.24389,"lon":5.37076,"is_reserved":false,"is_disabled":false,"rental_uris":{"android":"levelo://app?vid=ac1a9d6c-17a0-4e01-9607-d886e691e83d","ios":"levelo://app?vid=ac1a9d6c-17a0-4e01-9607-d886e691e83d"},"vehicle_type_id":"4","last_reported":1774626052,"current_range_meters":9600,"station_id":"ce4bhhh2rcd13ifvqfk0","pricing_plan_id":"cebpf4jnsgd1na2vs0mg"},{"bike_id":"9d5c17ef-b954-43e5-858c-031ff3265ba8","system_id":"levelo_inurba_marseille","lat":43.23177,"lon":5.39944,"is_reserved":false,"is_disabled":false,"rental_uris":{"android":"levelo://app?vid=9d5c17ef-b954-43e5-858c-031ff3265ba8","ios":"levelo://app?vid=9d5c17ef-b954-43e5-858c-031ff3265ba8"},"vehicle_type_id":"4","last_reported":1774626052,"current_range_meters":9600,"station_id":"ce4bhn12rcd13ifvqgqg","pricing_plan_id":"cebpf4jnsgd1na2vs0mg"},{"bike_id":"13758e40-3343-4461-81bb-b6a3001d9426","system_id":"levelo_inurba_marseille","lat":43.32491,"lon":5.36573,"is_reserved":false,"is_disabled":false,"rental_uris":{"android":"levelo://app?vid=13758e40-3343-4461-81bb-b6a3001d9426","ios":"levelo://app?vid=13758e40-3343-4461-81bb-b6a3001d9426"},"vehicle_type_id":"4","last_reported":1774626052,"current_range_meters":9600,"station_id":"ce4bhs12rcd13ifvqhvg","pricing_plan_id":"cebpf4jnsgd1na2vs0mg"},{"bike_id":"3629b600-0973-43f7-911e-b3eb2f49b025","system_id":"levelo_inurba_marseille","lat":43.33543,"lon":5.37466,"is_reserved":false,"is_disabled":false,"rental_uris":{"android":"levelo://app?vid=3629b600-0973-43f7-911e-b3eb2f49b025","ios":"levelo://app?vid=3629b600-0973-43f7-911e-b3eb2f49b025"},"vehicle_type_id":"4","last_reported":1774626052,"current_range_meters":9600,"station_id":"st_d46tts09ee8s73dlu43g","pricing_plan_id":"cebpf4jnsgd1na2vs0mg"},{"bike_id":"edac6523-df16-47dc-adeb-975cdf805ce1","system_id":"levelo_inurba_marseille","lat":43.26595,"lon":5.39049,"is_reserved":false,"is_disabled":false,"rental_uris":{"android":"levelo://app?vid=edac6523-df16-47dc-adeb-975cdf805ce1","ios":"levelo://app?vid=edac6523-df16-47dc-adeb-975cdf805ce1"},"vehicle_type_id":"4","last_reported":1774626052,"current_range_meters":9600,"station_id":"","pricing_plan_id":"cebpf4jnsgd1na2vs0mg"},{"bike_id":"b4f7f0b9-7d56-42ad-a631-1e0eab6073dc","system_id":"levelo_inurba_marseille","lat":43.30527,"lon":5.36542,"is_reserved":false,"is_disabled":false,"rental_uris":{"android":"levelo://app?vid=b4f7f0b9-7d56-42ad-a631-1e0eab6073dc","ios":"levelo://app?vid=b4f7f0b9-7d56-42ad-a631-1e0eab6073dc"},"vehicle_type_id":"4","last_reported":1774626052,"current_range_meters":9600,"station_id":"ce4bgs12rcd13ifvqcag","pricing_plan_id":"cebpf4jnsgd1na2vs0mg"},{"bike_id":"a36b32fe-3c3c-4e8e-bdc5-ac9d34714bd2","system_id":"levelo_inurba_marseille","lat":43.29962,"lon":5.42068,"is_reserved":false,"is_disabled":false,"rental_uris":{"android":"levelo://app?vid=a36b32fe-3c3c-4e8e-bdc5-ac9d34714bd2","ios":"levelo://app?vid=a36b32fe-3c3c-4e8e-bdc5-ac9d34714bd2"},"vehicle_type_id":"4","last_reported":1774626052,"current_range_meters":9600,"station_id":"","pricing_plan_id":"cebpf4jnsgd1na2vs0mg"},{"bike_id":"ccae95a5-965a-472f-8138-32ecadf6ef35","system_id":"levelo_inurba_marseille","lat":43.25353,"lon":5.42183,"is_reserved":false,"is_disabled":false,"rental_uris":{"android":"levelo://app?vid=ccae95a5-965a-472f-8138-32ecadf6ef35","ios":"levelo://app?vid=ccae95a5-965a-472f-8138-32ecadf6ef35"},"vehicle_type_id":"4","last_reported":1774626052,"current_range_meters":9600,"station_id":"st_d2m65c5bi1j21697t3ng","pricing_plan_id":"cebpf4jnsgd1na2vs0mg"},{"bike_id":"9724ed57-cb7c-40c5-95ff-cb0aae8c0029","system_id":"levelo_inurba_marseille","lat":43.31697,"lon":5.37737,"is_reserved":false,"is_disabled":false,"rental_uris":{"android":"levelo://app?vid=9724ed57-cb7c-40c5-95ff-cb0aae8c0029","ios":"levelo://app?vid=9724ed57-cb7c-40c5-95ff-cb0aae8c0029"},"vehicle_type_id":"4","last_reported":1774626052,"current_range_meters":9600,"station_id":"ce4bgth2rcd13ifvqch0","pricing_plan_id":"cebpf4jnsgd1na2vs0mg"},{"bike_id":"b74978cb-5b51-4041-8c1c-97c8f4ca71d2","system_id":"levelo_inurba_marseille","lat":43.3118,"lon":5.4063,"is_reserved":false,"is_disabled":false,"rental_uris":{"android":"levelo://app?vid=b74978cb-5b51-4041-8c1c-97c8f4ca71d2","ios":"levelo://app?vid=b74978cb-5b51-4041-8c1c-97c8f4ca71d2"},"vehicle_type_id":"4","last_reported":1774626052,"current_range_meters":9600,"station_id":"","pricing_plan_id":"cebpf4jnsgd1na2vs0mg"},{"bike_id":"28483bf5-dea0-476c-af06-fd95f4e48f8f","system_id":"levelo_inurba_marseille","lat":43.33487,"lon":5.36365,"is_reserved":false,"is_disabled":false,"rental_uris":{"android":"levelo://app?vid=28483bf5-dea0-476c-af06-fd95f4e48f8f","ios":"levelo://app?vid=28483bf5-dea0-476c-af06-fd95f4e48f8f"},"vehicle_type_id":"4","last_reported":1774626052,"current_range_meters":9600,"station_id":"","pricing_plan_id":"cebpf4jnsgd1na2vs0mg"},{"bike_id":"5afc8403-6d30-4cf0-9969-def159c6d031","system_id":"levelo_inurba_marseille","lat":43.24377,"lon":5.37038,"is_reserved":false,"is_disabled":false,"rental_uris":{"android":"levelo://app?vid=5afc8403-6d30-4cf0-9969-def159c6d031","ios":"levelo://app?vid=5afc8403-6d30-4cf0-9969-def159c6d031"},"vehicle_type_id":"4","last_reported":1774626052,"current_range_meters":9600,"station_id":"ce4bhhh2rcd13ifvqfk0","pricing_plan_id":"cebpf4jnsgd1na2vs0mg"},{"bike_id":"cb4a4c94-9b99-4725-accd-1cce9a4cd238","system_id":"levelo_inurba_marseille","lat":43.2465,"lon":5.38891,"is_reserved":false,"is_disabled":false,"rental_uris":{"android":"levelo://app?vid=cb4a4c94-9b99-4725-accd-1cce9a4cd238","ios":"levelo://app?vid=cb4a4c94-9b99-4725-accd-1cce9a4cd238"},"vehicle_type_id":"4","last_reported":1774626052,"current_range_meters":9600,"station_id":"ce4bhg12rcd13ifvqf60","pricing_plan_id":"cebpf4jnsgd1na2vs0mg"},{"bike_id":"93882759-032c-4711-99f8-9cac080b3dd4","system_id":"levelo_inurba_marseille","lat":43.23786,"lon":5.36643,"is_reserved":false,"is_disabled":false,"rental_uris":{"android":"levelo://app?vid=93882759-032c-4711-99f8-9cac080b3dd4","ios":"levelo://app?vid=93882759-032c-4711-99f8-9cac080b3dd4"},"vehicle_type_id":"4","last_reported":1774626052,"current_range_meters":9600,"station_id":"st_d3nk18o9ro0c73en2l3g","pricing_plan_id":"cebpf4jnsgd1na2vs0mg"},{"bike_id":"32ea30a7-33ee-439a-aaa8-c59438d47b43","system_id":"levelo_inurba_marseille","lat":43.29792,"lon":5.40398,"is_reserved":false,"is_disabled":false,"rental_uris":{"android":"levelo://app?vid=32ea30a7-33ee-439a-aaa8-c59438d47b43","ios":"levelo://app?vid=32ea30a7-33ee-439a-aaa8-c59438d47b43"},"vehicle_type_id":"4","last_reported":1774626052,"current_range_meters":9600,"station_id":"ce4bh112rcd13ifvqd90","pricing_plan_id":"cebpf4jnsgd1na2vs0mg"},{"bike_id":"c5ab6d8a-7ec8-43ac-85d6-c1ec088c9632","system_id":"levelo_inurba_marseille","lat":43.28705,"lon":5.46673,"is_reserved":false,"is_disabled":false,"rental_uris":{"android":"levelo://app?vid=c5ab6d8a-7ec8-43ac-85d6-c1ec088c9632","ios":"levelo://app?vid=c5ab6d8a-7ec8-43ac-85d6-c1ec088c9632"},"vehicle_type_id":"4","last_reported":1774626052,"current_range_meters":9600,"station_id":"st_d6tc3vkotcvc738tfjhg","pricing_plan_id":"cebpf4jnsgd1na2vs0mg"},{"bike_id":"f9f08687-c1b8-40c9-9066-4660c25d33f0","system_id":"levelo_inurba_marseille","lat":43.29574,"lon":5.37503,"is_reserved":false,"is_disabled":false,"rental_uris":{"android":"levelo://app?vid=f9f08687-c1b8-40c9-9066-4660c25d33f0","ios":"levelo://app?vid=f9f08687-c1b8-40c9-9066-4660c25d33f0"},"vehicle_type_id":"4","last_reported":1774626052,"current_range_meters":9600,"station_id":"ce4bgh92rcd13ifvqb50","pricing_plan_id":"cebpf4jnsgd1na2vs0mg"},{"bike_id":"a85546b1-cac7-4600-a478-a58c51945af2","system_id":"levelo_inurba_marseille","lat":43.24654,"lon":5.38898,"is_reserved":false,"is_disabled":false,"rental_uris":{"android":"levelo://app?vid=a85546b1-cac7-4600-a478-a58c51945af2","ios":"levelo://app?vid=a85546b1-cac7-4600-a478-a58c51945af2"},"vehicle_type_id":"4","last_reported":1774626052,"current_range_meters":9600,"station_id":"ce4bhg12rcd13ifvqf60","pricing_plan_id":"cebpf4jnsgd1na2vs0mg"},{"bike_id":"fa1cf32b-219e-482f-8f48-62ab358ef348","system_id":"levelo_inurba_marseille","lat":43.28423,"lon":5.34982,"is_reserved":false,"is_disabled":false,"rental_uris":{"android":"levelo://app?vid=fa1cf32b-219e-482f-8f48-62ab358ef348","ios":"levelo://app?vid=fa1cf32b-219e-482f-8f48-62ab358ef348"},"vehicle_type_id":"4","last_reported":1774626052,"current_range_meters":9600,"station_id":"ce4bhbh2rcd13ifvqepg","pricing_plan_id":"cebpf4jnsgd1na2vs0mg"},{"bike_id":"b2fad5df-b1d6-4937-9ecf-f89014474969","system_id":"levelo_inurba_marseille","lat":43.26935,"lon":5.38914,"is_reserved":false,"is_disabled":false,"rental_uris":{"android":"levelo://app?vid=b2fad5df-b1d6-4937-9ecf-f89014474969","ios":"levelo://app?vid=b2fad5df-b1d6-4937-9ecf-f89014474969"},"vehicle_type_id":"4","last_reported":1774626052,"current_range_meters":9600,"station_id":"ce4bhhh2rcd13ifvqfl0","pricing_plan_id":"cebpf4jnsgd1na2vs0mg"},{"bike_id":"fd9b3ec1-b2fa-4d8a-8e15-d40038de36d6","system_id":"levelo_inurba_marseille","lat":43.22564,"lon":5.41626,"is_reserved":false,"is_disabled":false,"rental_uris":{"android":"levelo://app?vid=fd9b3ec1-b2fa-4d8a-8e15-d40038de36d6","ios":"levelo://app?vid=fd9b3ec1-b2fa-4d8a-8e15-d40038de36d6"},"vehicle_type_id":"4","last_reported":1774626052,"current_range_meters":9600,"station_id":"st_d2o4gvlbi1j2169b742g","pricing_plan_id":"cebpf4jnsgd1na2vs0mg"},{"bike_id":"899c9f36-9b83-4ce9-bd7d-0f95dd541b6a","system_id":"levelo_inurba_marseille","lat":43.32342,"lon":5.36729,"is_reserved":false,"is_disabled":false,"rental_uris":{"android":"levelo://app?vid=899c9f36-9b83-4ce9-bd7d-0f95dd541b6a","ios":"levelo://app?vid=899c9f36-9b83-4ce9-bd7d-0f95dd541b6a"},"vehicle_type_id":"4","last_reported":1774626052,"current_range_meters":10000,"station_id":"ce4bhsh2rcd13ifvqi2g","pricing_plan_id":"cebpf4jnsgd1na2vs0mg"},{"bike_id":"c9a37dba-3562-4b13-ad12-2a2bd158c7ee","system_id":"levelo_inurba_marseille","lat":43.28935,"lon":5.38378,"is_reserved":false,"is_disabled":false,"rental_uris":{"android":"levelo://app?vid=c9a37dba-3562-4b13-ad12-2a2bd158c7ee","ios":"levelo://app?vid=c9a37dba-3562-4b13-ad12-2a2bd158c7ee"},"vehicle_type_id":"4","last_reported":1774626052,"current_range_meters":10000,"station_id":"ce4bh612rcd13ifvqe6g","pricing_plan_id":"cebpf4jnsgd1na2vs0mg"},{"bike_id":"a40d72b2-2bcf-493e-95a3-5d51f9f17551","system_id":"levelo_inurba_marseille","lat":43.26206,"lon":5.37448,"is_reserved":false,"is_disabled":false,"rental_uris":{"android":"levelo://app?vid=a40d72b2-2bcf-493e-95a3-5d51f9f17551","ios":"levelo://app?vid=a40d72b2-2bcf-493e-95a3-5d51f9f17551"},"vehicle_type_id":"4","last_reported":1774626052,"current_range_meters":10000,"station_id":"ce4bhgp2rcd13ifvqfc0","pricing_plan_id":"cebpf4jnsgd1na2vs0mg"},{"bike_id":"b18c59fa-aef6-40e0-8ab0-2f91884a1bd7","system_id":"levelo_inurba_marseille","lat":43.27436,"lon":5.39419,"is_reserved":false,"is_disabled":false,"rental_uris":{"android":"levelo://app?vid=b18c59fa-aef6-40e0-8ab0-2f91884a1bd7","ios":"levelo://app?vid=b18c59fa-aef6-40e0-8ab0-2f91884a1bd7"},"vehicle_type_id":"4","last_reported":1774626052,"current_range_meters":10000,"station_id":"ce4bhdp2rcd13ifvqf20","pricing_plan_id":"cebpf4jnsgd1na2vs0mg"},{"bike_id":"c32806f3-9e0d-4b67-b36e-f22406dc81e3","system_id":"levelo_inurba_marseille","lat":43.24354,"lon":5.37053,"is_reserved":false,"is_disabled":false,"rental_uris":{"android":"levelo://app?vid=c32806f3-9e0d-4b67-b36e-f22406dc81e3","ios":"levelo://app?vid=c32806f3-9e0d-4b67-b36e-f22406dc81e3"},"vehicle_type_id":"4","last_reported":1774626052,"current_range_meters":10000,"station_id":"ce4bhhh2rcd13ifvqfk0","pricing_plan_id":"cebpf4jnsgd1na2vs0mg"},{"bike_id":"2a1bca9d-1b4f-47b3-99cb-c57ae504608a","system_id":"levelo_inurba_marseille","lat":43.26209,"lon":5.37438,"is_reserved":false,"is_disabled":false,"rental_uris":{"android":"levelo://app?vid=2a1bca9d-1b4f-47b3-99cb-c57ae504608a","ios":"levelo://app?vid=2a1bca9d-1b4f-47b3-99cb-c57ae504608a"},"vehicle_type_id":"4","last_reported":1774626052,"current_range_meters":10000,"station_id":"ce4bhgp2rcd13ifvqfc0","pricing_plan_id":"cebpf4jnsgd1na2vs0mg"},{"bike_id":"c7af05b3-4ddb-499c-ae8b-c6fd8683ba94","system_id":"levelo_inurba_marseille","lat":43.29564,"lon":5.38366,"is_reserved":false,"is_disabled":false,"rental_uris":{"android":"levelo://app?vid=c7af05b3-4ddb-499c-ae8b-c6fd8683ba94","ios":"levelo://app?vid=c7af05b3-4ddb-499c-ae8b-c6fd8683ba94"},"vehicle_type_id":"4","last_reported":1774626052,"current_range_meters":10000,"station_id":"","pricing_plan_id":"cebpf4jnsgd1na2vs0mg"},{"bike_id":"278cdfab-a899-4508-b301-6e9672c95aa4","system_id":"levelo_inurba_marseille","lat":43.23889,"lon":5.37468,"is_reserved":false,"is_disabled":false,"rental_uris":{"android":"levelo://app?vid=278cdfab-a899-4508-b301-6e9672c95aa4","ios":"levelo://app?vid=278cdfab-a899-4508-b301-6e9672c95aa4"},"vehicle_type_id":"4","last_reported":1774626052,"current_range_meters":10000,"station_id":"st_d6sm7csbq4hs73f8fpjg","pricing_plan_id":"cebpf4jnsgd1na2vs0mg"},{"bike_id":"e8df83cf-6381-4e7e-9379-074a8e881801","system_id":"levelo_inurba_marseille","lat":43.31886,"lon":5.36815,"is_reserved":false,"is_disabled":false,"rental_uris":{"android":"levelo://app?vid=e8df83cf-6381-4e7e-9379-074a8e881801","ios":"levelo://app?vid=e8df83cf-6381-4e7e-9379-074a8e881801"},"vehicle_type_id":"4","last_reported":1774626052,"current_range_meters":10000,"station_id":"","pricing_plan_id":"cebpf4jnsgd1na2vs0mg"},{"bike_id":"67c1c6e6-4211-4250-be02-a52880e1c23a","system_id":"levelo_inurba_marseille","lat":43.26506,"lon":5.40735,"is_reserved":false,"is_disabled":false,"rental_uris":{"android":"levelo://app?vid=67c1c6e6-4211-4250-be02-a52880e1c23a","ios":"levelo://app?vid=67c1c6e6-4211-4250-be02-a52880e1c23a"},"vehicle_type_id":"4","last_reported":1774626052,"current_range_meters":10000,"station_id":"","pricing_plan_id":"cebpf4jnsgd1na2vs0mg"},{"bike_id":"4f5cf7ef-ddb5-4d25-9c0b-bec33f5f4447","system_id":"levelo_inurba_marseille","lat":43.30953,"lon":5.3685,"is_reserved":false,"is_disabled":false,"rental_uris":{"android":"levelo://app?vid=4f5cf7ef-ddb5-4d25-9c0b-bec33f5f4447","ios":"levelo://app?vid=4f5cf7ef-ddb5-4d25-9c0b-bec33f5f4447"},"vehicle_type_id":"4","last_reported":1774626052,"current_range_meters":10000,"station_id":"","pricing_plan_id":"cebpf4jnsgd1na2vs0mg"},{"bike_id":"c5ffcb6e-94c8-46bc-bcbe-82a7f99bb502","system_id":"levelo_inurba_marseille","lat":43.27832,"lon":5.39198,"is_reserved":false,"is_disabled":true,"rental_uris":{"android":"levelo://app?vid=c5ffcb6e-94c8-46bc-bcbe-82a7f99bb502","ios":"levelo://app?vid=c5ffcb6e-94c8-46bc-bcbe-82a7f99bb502"},"vehicle_type_id":"4","last_reported":1774626052,"current_range_meters":10800,"station_id":"ce4bhjp2rcd13ifvqga0","pricing_plan_id":"cebpf4jnsgd1na2vs0mg"},{"bike_id":"2f019591-3087-43f0-affb-e2eede13213e","system_id":"levelo_inurba_marseille","lat":43.24211,"lon":5.36636,"is_reserved":false,"is_disabled":false,"rental_uris":{"android":"levelo://app?vid=2f019591-3087-43f0-affb-e2eede13213e","ios":"levelo://app?vid=2f019591-3087-43f0-affb-e2eede13213e"},"vehicle_type_id":"4","last_reported":1774626052,"current_range_meters":10800,"station_id":"","pricing_plan_id":"cebpf4jnsgd1na2vs0mg"},{"bike_id":"c1a2033e-9e9b-4030-9b04-bf093e2d0897","system_id":"levelo_inurba_marseille","lat":43.30526,"lon":5.38417,"is_reserved":false,"is_disabled":false,"rental_uris":{"android":"levelo://app?vid=c1a2033e-9e9b-4030-9b04-bf093e2d0897","ios":"levelo://app?vid=c1a2033e-9e9b-4030-9b04-bf093e2d0897"},"vehicle_type_id":"4","last_reported":1774626052,"current_range_meters":10800,"station_id":"ce4bgg92rcd13ifvqb30","pricing_plan_id":"cebpf4jnsgd1na2vs0mg"},{"bike_id":"92cb4986-12bc-44d4-ad49-496427bf2b45","system_id":"levelo_inurba_marseille","lat":43.28539,"lon":5.44108,"is_reserved":false,"is_disabled":false,"rental_uris":{"android":"levelo://app?vid=92cb4986-12bc-44d4-ad49-496427bf2b45","ios":"levelo://app?vid=92cb4986-12bc-44d4-ad49-496427bf2b45"},"vehicle_type_id":"4","last_reported":1774626052,"current_range_meters":10800,"station_id":"st_d3j3df2ikq2c7380ej80","pricing_plan_id":"cebpf4jnsgd1na2vs0mg"},{"bike_id":"1fce7f1d-4e59-45d5-ad05-440b881821b7","system_id":"levelo_inurba_marseille","lat":43.23773,"lon":5.36713,"is_reserved":false,"is_disabled":false,"rental_uris":{"android":"levelo://app?vid=1fce7f1d-4e59-45d5-ad05-440b881821b7","ios":"levelo://app?vid=1fce7f1d-4e59-45d5-ad05-440b881821b7"},"vehicle_type_id":"4","last_reported":1774626052,"current_range_meters":10800,"station_id":"st_d3nk18o9ro0c73en2l3g","pricing_plan_id":"cebpf4jnsgd1na2vs0mg"},{"bike_id":"729a6da4-6f27-4d44-8d7d-deea038f283e","system_id":"levelo_inurba_marseille","lat":43.33528,"lon":5.3748,"is_reserved":false,"is_disabled":false,"rental_uris":{"android":"levelo://app?vid=729a6da4-6f27-4d44-8d7d-deea038f283e","ios":"levelo://app?vid=729a6da4-6f27-4d44-8d7d-deea038f283e"},"vehicle_type_id":"4","last_reported":1774626052,"current_range_meters":10800,"station_id":"st_d46tts09ee8s73dlu43g","pricing_plan_id":"cebpf4jnsgd1na2vs0mg"},{"bike_id":"e6e0832c-ba80-40ad-a254-4cab56deb706","system_id":"levelo_inurba_marseille","lat":43.25853,"lon":5.39409,"is_reserved":false,"is_disabled":false,"rental_uris":{"android":"levelo://app?vid=e6e0832c-ba80-40ad-a254-4cab56deb706","ios":"levelo://app?vid=e6e0832c-ba80-40ad-a254-4cab56deb706"},"vehicle_type_id":"4","last_reported":1774626052,"current_range_meters":10800,"station_id":"ce4bhip2rcd13ifvqft0","pricing_plan_id":"cebpf4jnsgd1na2vs0mg"},{"bike_id":"c43c1a99-37ff-4b05-9624-2b0d98f0336a","system_id":"levelo_inurba_marseille","lat":43.23895,"lon":5.37451,"is_reserved":false,"is_disabled":false,"rental_uris":{"android":"levelo://app?vid=c43c1a99-37ff-4b05-9624-2b0d98f0336a","ios":"levelo://app?vid=c43c1a99-37ff-4b05-9624-2b0d98f0336a"},"vehicle_type_id":"4","last_reported":1774626052,"current_range_meters":10800,"station_id":"st_d6sm7csbq4hs73f8fpjg","pricing_plan_id":"cebpf4jnsgd1na2vs0mg"},{"bike_id":"9932e5bf-bd2d-48f7-9701-8046aa634f41","system_id":"levelo_inurba_marseille","lat":43.23065,"lon":5.35494,"is_reserved":false,"is_disabled":false,"rental_uris":{"android":"levelo://app?vid=9932e5bf-bd2d-48f7-9701-8046aa634f41","ios":"levelo://app?vid=9932e5bf-bd2d-48f7-9701-8046aa634f41"},"vehicle_type_id":"4","last_reported":1774626052,"current_range_meters":10800,"station_id":"cpo3342slgdg3j2ifvpg","pricing_plan_id":"cebpf4jnsgd1na2vs0mg"},{"bike_id":"817cc3d6-fa3f-473f-ba55-8622829fc390","system_id":"levelo_inurba_marseille","lat":43.24412,"lon":5.37081,"is_reserved":false,"is_disabled":false,"rental_uris":{"android":"levelo://app?vid=817cc3d6-fa3f-473f-ba55-8622829fc390","ios":"levelo://app?vid=817cc3d6-fa3f-473f-ba55-8622829fc390"},"vehicle_type_id":"4","last_reported":1774626052,"current_range_meters":10800,"station_id":"ce4bhhh2rcd13ifvqfk0","pricing_plan_id":"cebpf4jnsgd1na2vs0mg"},{"bike_id":"966a3699-46b4-48ff-97a4-8646114ef3d6","system_id":"levelo_inurba_marseille","lat":43.33542,"lon":5.37454,"is_reserved":false,"is_disabled":false,"rental_uris":{"android":"levelo://app?vid=966a3699-46b4-48ff-97a4-8646114ef3d6","ios":"levelo://app?vid=966a3699-46b4-48ff-97a4-8646114ef3d6"},"vehicle_type_id":"4","last_reported":1774626052,"current_range_meters":10800,"station_id":"st_d46tts09ee8s73dlu43g","pricing_plan_id":"cebpf4jnsgd1na2vs0mg"},{"bike_id":"ef3d2908-5f04-46b3-8950-985b7bd33bee","system_id":"levelo_inurba_marseille","lat":43.28606,"lon":5.35089,"is_reserved":false,"is_disabled":false,"rental_uris":{"android":"levelo://app?vid=ef3d2908-5f04-46b3-8950-985b7bd33bee","ios":"levelo://app?vid=ef3d2908-5f04-46b3-8950-985b7bd33bee"},"vehicle_type_id":"4","last_reported":1774626052,"current_range_meters":10800,"station_id":"ce4bhch2rcd13ifvqeug","pricing_plan_id":"cebpf4jnsgd1na2vs0mg"},{"bike_id":"8221bf63-795d-4188-8725-0d3b358bd53f","system_id":"levelo_inurba_marseille","lat":43.244,"lon":5.37064,"is_reserved":false,"is_disabled":false,"rental_uris":{"android":"levelo://app?vid=8221bf63-795d-4188-8725-0d3b358bd53f","ios":"levelo://app?vid=8221bf63-795d-4188-8725-0d3b358bd53f"},"vehicle_type_id":"4","last_reported":1774626052,"current_range_meters":10800,"station_id":"ce4bhhh2rcd13ifvqfk0","pricing_plan_id":"cebpf4jnsgd1na2vs0mg"},{"bike_id":"f0e144ee-9495-4f8a-a2cc-ca52880973a9","system_id":"levelo_inurba_marseille","lat":43.30403,"lon":5.41272,"is_reserved":false,"is_disabled":false,"rental_uris":{"android":"levelo://app?vid=f0e144ee-9495-4f8a-a2cc-ca52880973a9","ios":"levelo://app?vid=f0e144ee-9495-4f8a-a2cc-ca52880973a9"},"vehicle_type_id":"4","last_reported":1774626052,"current_range_meters":10800,"station_id":"ce4bhop2rcd13ifvqh8g","pricing_plan_id":"cebpf4jnsgd1na2vs0mg"},{"bike_id":"134b69d1-f519-43d5-b409-2067daabe397","system_id":"levelo_inurba_marseille","lat":43.30423,"lon":5.41277,"is_reserved":false,"is_disabled":false,"rental_uris":{"android":"levelo://app?vid=134b69d1-f519-43d5-b409-2067daabe397","ios":"levelo://app?vid=134b69d1-f519-43d5-b409-2067daabe397"},"vehicle_type_id":"4","last_reported":1774626052,"current_range_meters":10800,"station_id":"ce4bhop2rcd13ifvqh8g","pricing_plan_id":"cebpf4jnsgd1na2vs0mg"},{"bike_id":"c55c2bfc-d4e1-4083-b2c3-95bec08b83d7","system_id":"levelo_inurba_marseille","lat":43.31537,"lon":5.38049,"is_reserved":false,"is_disabled":false,"rental_uris":{"android":"levelo://app?vid=c55c2bfc-d4e1-4083-b2c3-95bec08b83d7","ios":"levelo://app?vid=c55c2bfc-d4e1-4083-b2c3-95bec08b83d7"},"vehicle_type_id":"4","last_reported":1774626052,"current_range_meters":11200,"station_id":"ce4bhsp2rcd13ifvqi50","pricing_plan_id":"cebpf4jnsgd1na2vs0mg"},{"bike_id":"883dc76f-ea39-4856-ad3f-83646c0ba349","system_id":"levelo_inurba_marseille","lat":43.303,"lon":5.37761,"is_reserved":false,"is_disabled":false,"rental_uris":{"android":"levelo://app?vid=883dc76f-ea39-4856-ad3f-83646c0ba349","ios":"levelo://app?vid=883dc76f-ea39-4856-ad3f-83646c0ba349"},"vehicle_type_id":"4","last_reported":1774626052,"current_range_meters":11200,"station_id":"ce4bguh2rcd13ifvqcj0","pricing_plan_id":"cebpf4jnsgd1na2vs0mg"},{"bike_id":"7694298c-2292-44dc-9958-896e83a49e9b","system_id":"levelo_inurba_marseille","lat":43.24149,"lon":5.39039,"is_reserved":false,"is_disabled":false,"rental_uris":{"android":"levelo://app?vid=7694298c-2292-44dc-9958-896e83a49e9b","ios":"levelo://app?vid=7694298c-2292-44dc-9958-896e83a49e9b"},"vehicle_type_id":"4","last_reported":1774626052,"current_range_meters":11200,"station_id":"","pricing_plan_id":"cebpf4jnsgd1na2vs0mg"},{"bike_id":"f37700b1-789f-47fc-a942-907cb5ef40e0","system_id":"levelo_inurba_marseille","lat":43.31242,"lon":5.36885,"is_reserved":false,"is_disabled":false,"rental_uris":{"android":"levelo://app?vid=f37700b1-789f-47fc-a942-907cb5ef40e0","ios":"levelo://app?vid=f37700b1-789f-47fc-a942-907cb5ef40e0"},"vehicle_type_id":"4","last_reported":1774626052,"current_range_meters":11200,"station_id":"ce4bgl92rcd13ifvqbq0","pricing_plan_id":"cebpf4jnsgd1na2vs0mg"},{"bike_id":"288dad8c-a346-4fdd-ae68-61ddb58d71ae","system_id":"levelo_inurba_marseille","lat":43.29174,"lon":5.42755,"is_reserved":false,"is_disabled":false,"rental_uris":{"android":"levelo://app?vid=288dad8c-a346-4fdd-ae68-61ddb58d71ae","ios":"levelo://app?vid=288dad8c-a346-4fdd-ae68-61ddb58d71ae"},