{"last_updated":1723219808,"ttl":30,"version":"2.2","data":{"bikes":[{"bike_id":"8f547097-401e-4291-9e8c-d662091a5008","system_id":"levelo_inurba_marseille","lat":43.312326,"lon":5.368594,"is_reserved":false,"is_disabled":false,"rental_uris":{"android":"levelo://app?vid=8f547097-401e-4291-9e8c-d662091a5008","ios":"levelo://app?vid=8f547097-401e-4291-9e8c-d662091a5008"},"vehicle_type_id":"4","last_reported":1723219808,"current_range_meters":0,"station_id":"ce4bgl92rcd13ifvqbq0","pricing_plan_id":"cebpf4jnsgd1na2vs0mg"},{"bike_id":"dceb7393-da0f-449c-abe1-ce72972c64b4","system_id":"levelo_inurba_marseille","lat":43.315686,"lon":5.372364,"is_reserved":false,"is_disabled":false,"rental_uris":{"android":"levelo://app?vid=dceb7393-da0f-449c-abe1-ce72972c64b4","ios":"levelo://app?vid=dceb7393-da0f-449c-abe1-ce72972c64b4"},"vehicle_type_id":"4","last_reported":1723219808,"current_range_meters":16000,"station_id":"","pricing_plan_id":"cebpf4jnsgd1na2vs0mg"},{"bike_id":"8d3c6a06-75da-4b8b-85c3-ffd4e6f1d836","system_id":"levelo_inurba_marseille","lat":43.305368,"lon":5.367343,"is_reserved":false,"is_disabled":false,"rental_uris":{"android":"levelo://app?vid=8d3c6a06-75da-4b8b-85c3-ffd4e6f1d836","ios":"levelo://app?vid=8d3c6a06-75da-4b8b-85c3-ffd4e6f1d836"},"vehicle_type_id":"4","last_reported":1723219808,"current_range_meters":2000,"station_id":"ce4bgrp2rcd13ifvqc9g","pricing_plan_id":"cebpf4jnsgd1na2vs0mg"},{"bike_id":"f882c3aa-d418-4d79-a4b8-bcc1d0281ff2","system_id":"levelo_inurba_marseille","lat":43.305706,"lon":5.365654,"is_reserved":false,"is_disabled":false,"rental_uris":{"android":"levelo://app?vid=f882c3aa-d418-4d79-a4b8-bcc1d0281ff2","ios":"levelo://app?vid=f882c3aa-d418-4d79-a4b8-bcc1d0281ff2"},"vehicle_type_id":"4","last_reported":1723219808,"current_range_meters":2800,"station_id":"ce4bgs12rcd13ifvqcag","pricing_plan_id":"cebpf4jnsgd1na2vs0mg"},{"bike_id":"11f39d9a-6616-4aad-8e96-a876163f489b","system_id":"levelo_inurba_marseille","lat":43.305989,"lon":5.37225,"is_reserved":false,"is_disabled":false,"rental_uris":{"android":"levelo://app?vid=11f39d9a-6616-4aad-8e96-a876163f489b","ios":"levelo://app?vid=11f39d9a-6616-4aad-8e96-a876163f489b"},"vehicle_type_id":"4","last_reported":1723219808,"current_range_meters":29200,"station_id":"ce4bgqh2rcd13ifvqc4g","pricing_plan_id":"cebpf4jnsgd1na2vs0mg"},{"bike_id":"b413d63c-ad4f-4454-aeb7-1b7abb643e65","system_id":"levelo_inurba_marseille","lat":43.305989,"lon":5.37225,"is_reserved":false,"is_disabled":false,"rental_uris":{"android":"levelo://app?vid=b413d63c-ad4f-4454-aeb7-1b7abb643e65","ios":"levelo://app?vid=b413d63c-ad4f-4454-aeb7-1b7abb643e65"},"vehicle_type_id":"4","last_reported":1723219808,"current_range_meters":6000,"station_id":"ce4bgqh2rcd13ifvqc4g","pricing_plan_id":"cebpf4jnsgd1na2vs0mg"},{"bike_id":"72cb8044-30cc-4598-ba7f-939bb236fdb6","system_id":"levelo_inurba_marseille","lat":43.305989,"lon":5.37225,"is_reserved":false,"is_disabled":false,"rental_uris":{"android":"levelo://app?vid=72cb8044-30cc-4598-ba7f-939bb236fdb6","ios":"levelo://app?vid=72cb8044-30cc-4598-ba7f-939bb236fdb6"},"vehicle_type_id":"4","last_reported":1723219808,"current_range_meters":26800,"station_id":"ce4bgqh2rcd13ifvqc4g","pricing_plan_id":"cebpf4jnsgd1na2vs0mg"},{"bike_id":"69251490-c44c-4fb2-bfb3-406bd489112b","system_id":"levelo_inurba_marseille","lat":43.30595,"lon":5.37222,"is_reserved":false,"is_disabled":false,"rental_uris":{"android":"levelo://app?vid=69251490-c44c-4fb2-bfb3-406bd489112b","ios":"levelo://app?vid=69251490-c44c-4fb2-bfb3-406bd489112b"},"vehicle_type_id":"4","last_reported":1723219808,"current_range_meters":1600,"station_id":"ce4bgqh2rcd13ifvqc4g","pricing_plan_id":"cebpf4jnsgd1na2vs0mg"},{"bike_id":"86f62387-c813-4f93-95fa-db3db7652a22","system_id":"levelo_inurba_marseille","lat":43.307945,"lon":5.376487,"is_reserved":false,"is_disabled":false,"rental_uris":{"android":"levelo://app?vid=86f62387-c813-4f93-95fa-db3db7652a22","ios":"levelo://app?vid=86f62387-c813-4f93-95fa-db3db7652a22"},"vehicle_type_id":"4","last_reported":1723219808,"current_range_meters":0,"station_id":"ce4bgv92rcd13ifvqcq0","pricing_plan_id":"cebpf4jnsgd1na2vs0mg"},{"bike_id":"b10d0c9d-2736-450a-8b97-c7ba5768cb99","system_id":"levelo_inurba_marseille","lat":43.315289,"lon":5.380349,"is_reserved":false,"is_disabled":false,"rental_uris":{"android":"levelo://app?vid=b10d0c9d-2736-450a-8b97-c7ba5768cb99","ios":"levelo://app?vid=b10d0c9d-2736-450a-8b97-c7ba5768cb99"},"vehicle_type_id":"4","last_reported":1723219808,"current_range_meters":17600,"station_id":"ce4bhsp2rcd13ifvqi50","pricing_plan_id":"cebpf4jnsgd1na2vs0mg"},{"bike_id":"09dd09d7-2641-48cc-babf-bff6f9018875","system_id":"levelo_inurba_marseille","lat":43.30787,"lon":5.3796,"is_reserved":false,"is_disabled":false,"rental_uris":{"android":"levelo://app?vid=09dd09d7-2641-48cc-babf-bff6f9018875","ios":"levelo://app?vid=09dd09d7-2641-48cc-babf-bff6f9018875"},"vehicle_type_id":"4","last_reported":1723219808,"current_range_meters":0,"station_id":"","pricing_plan_id":"cebpf4jnsgd1na2vs0mg"},{"bike_id":"01f0fdfb-851f-4031-bd14-8016ba943acd","system_id":"levelo_inurba_marseille","lat":43.308012,"lon":5.381511,"is_reserved":false,"is_disabled":false,"rental_uris":{"android":"levelo://app?vid=01f0fdfb-851f-4031-bd14-8016ba943acd","ios":"levelo://app?vid=01f0fdfb-851f-4031-bd14-8016ba943acd"},"vehicle_type_id":"4","last_reported":1723219808,"current_range_meters":3200,"station_id":"ce4bgt12rcd13ifvqce0","pricing_plan_id":"cebpf4jnsgd1na2vs0mg"},{"bike_id":"192bc778-be1f-402d-b1df-16d7172e5519","system_id":"levelo_inurba_marseille","lat":43.31359,"lon":5.38283,"is_reserved":false,"is_disabled":false,"rental_uris":{"android":"levelo://app?vid=192bc778-be1f-402d-b1df-16d7172e5519","ios":"levelo://app?vid=192bc778-be1f-402d-b1df-16d7172e5519"},"vehicle_type_id":"4","last_reported":1723219808,"current_range_meters":4800,"station_id":"","pricing_plan_id":"cebpf4jnsgd1na2vs0mg"},{"bike_id":"ec842611-7552-416d-8234-e456d89f321d","system_id":"levelo_inurba_marseille","lat":43.308012,"lon":5.381511,"is_reserved":false,"is_disabled":false,"rental_uris":{"android":"levelo://app?vid=ec842611-7552-416d-8234-e456d89f321d","ios":"levelo://app?vid=ec842611-7552-416d-8234-e456d89f321d"},"vehicle_type_id":"4","last_reported":1723219808,"current_range_meters":4000,"station_id":"ce4bgt12rcd13ifvqce0","pricing_plan_id":"cebpf4jnsgd1na2vs0mg"},{"bike_id":"61414811-d21f-4108-aa41-87fc25f92444","system_id":"levelo_inurba_marseille","lat":43.304606,"lon":5.379026,"is_reserved":false,"is_disabled":false,"rental_uris":{"android":"levelo://app?vid=61414811-d21f-4108-aa41-87fc25f92444","ios":"levelo://app?vid=61414811-d21f-4108-aa41-87fc25f92444"},"vehicle_type_id":"4","last_reported":1723219808,"current_range_meters":18000,"station_id":"ce4bgup2rcd13ifvqcn0","pricing_plan_id":"cebpf4jnsgd1na2vs0mg"},{"bike_id":"68ed2792-c496-4a62-ba93-80fff03ff672","system_id":"levelo_inurba_marseille","lat":43.324771,"lon":5.36557,"is_reserved":false,"is_disabled":false,"rental_uris":{"android":"levelo://app?vid=68ed2792-c496-4a62-ba93-80fff03ff672","ios":"levelo://app?vid=68ed2792-c496-4a62-ba93-80fff03ff672"},"vehicle_type_id":"4","last_reported":1723219808,"current_range_meters":29200,"station_id":"ce4bhs12rcd13ifvqhvg","pricing_plan_id":"cebpf4jnsgd1na2vs0mg"},{"bike_id":"f1485742-ef43-47d0-8fd7-546bcb11552d","system_id":"levelo_inurba_marseille","lat":43.324771,"lon":5.36557,"is_reserved":false,"is_disabled":false,"rental_uris":{"android":"levelo://app?vid=f1485742-ef43-47d0-8fd7-546bcb11552d","ios":"levelo://app?vid=f1485742-ef43-47d0-8fd7-546bcb11552d"},"vehicle_type_id":"4","last_reported":1723219808,"current_range_meters":31200,"station_id":"ce4bhs12rcd13ifvqhvg","pricing_plan_id":"cebpf4jnsgd1na2vs0mg"},{"bike_id":"a31dc16c-e316-4507-9dd4-d6be96eed54c","system_id":"levelo_inurba_marseille","lat":43.324771,"lon":5.36557,"is_reserved":false,"is_disabled":false,"rental_uris":{"android":"levelo://app?vid=a31dc16c-e316-4507-9dd4-d6be96eed54c","ios":"levelo://app?vid=a31dc16c-e316-4507-9dd4-d6be96eed54c"},"vehicle_type_id":"4","last_reported":1723219808,"current_range_meters":30800,"station_id":"ce4bhs12rcd13ifvqhvg","pricing_plan_id":"cebpf4jnsgd1na2vs0mg"},{"bike_id":"a6d7d5f9-58e9-4d56-913b-34bdb381bc1d","system_id":"levelo_inurba_marseille","lat":43.32488,"lon":5.36588,"is_reserved":false,"is_disabled":false,"rental_uris":{"android":"levelo://app?vid=a6d7d5f9-58e9-4d56-913b-34bdb381bc1d","ios":"levelo://app?vid=a6d7d5f9-58e9-4d56-913b-34bdb381bc1d"},"vehicle_type_id":"4","last_reported":1723219808,"current_range_meters":11600,"station_id":"ce4bhs12rcd13ifvqhvg","pricing_plan_id":"cebpf4jnsgd1na2vs0mg"},{"bike_id":"f4082f49-e56d-40f8-aea3-3f17dcfb699b","system_id":"levelo_inurba_marseille","lat":43.32487,"lon":5.36556,"is_reserved":false,"is_disabled":false,"rental_uris":{"android":"levelo://app?vid=f4082f49-e56d-40f8-aea3-3f17dcfb699b","ios":"levelo://app?vid=f4082f49-e56d-40f8-aea3-3f17dcfb699b"},"vehicle_type_id":"4","last_reported":1723219808,"current_range_meters":0,"station_id":"ce4bhs12rcd13ifvqhvg","pricing_plan_id":"cebpf4jnsgd1na2vs0mg"},{"bike_id":"4398cd50-4799-43a9-9e4e-38e93a2dde9c","system_id":"levelo_inurba_marseille","lat":43.3249,"lon":5.36577,"is_reserved":false,"is_disabled":false,"rental_uris":{"android":"levelo://app?vid=4398cd50-4799-43a9-9e4e-38e93a2dde9c","ios":"levelo://app?vid=4398cd50-4799-43a9-9e4e-38e93a2dde9c"},"vehicle_type_id":"4","last_reported":1723219808,"current_range_meters":21200,"station_id":"ce4bhs12rcd13ifvqhvg","pricing_plan_id":"cebpf4jnsgd1na2vs0mg"},{"bike_id":"8a6122e3-f9de-4422-8948-52a96f6679df","system_id":"levelo_inurba_marseille","lat":43.30053,"lon":5.36664,"is_reserved":false,"is_disabled":false,"rental_uris":{"android":"levelo://app?vid=8a6122e3-f9de-4422-8948-52a96f6679df","ios":"levelo://app?vid=8a6122e3-f9de-4422-8948-52a96f6679df"},"vehicle_type_id":"4","last_reported":1723219808,"current_range_meters":0,"station_id":"","pricing_plan_id":"cebpf4jnsgd1na2vs0mg"},{"bike_id":"58fbf6ec-a4da-418b-939a-b9d01b6f6dc5","system_id":"levelo_inurba_marseille","lat":43.310804,"lon":5.38359,"is_reserved":false,"is_disabled":false,"rental_uris":{"android":"levelo://app?vid=58fbf6ec-a4da-418b-939a-b9d01b6f6dc5","ios":"levelo://app?vid=58fbf6ec-a4da-418b-939a-b9d01b6f6dc5"},"vehicle_type_id":"4","last_reported":1723219808,"current_range_meters":17600,"station_id":"ce4bgv92rcd13ifvqcr0","pricing_plan_id":"cebpf4jnsgd1na2vs0mg"},{"bike_id":"a3ead3dd-f7a5-4742-9e1a-b92a723511ae","system_id":"levelo_inurba_marseille","lat":43.319935,"lon":5.381699,"is_reserved":false,"is_disabled":false,"rental_uris":{"android":"levelo://app?vid=a3ead3dd-f7a5-4742-9e1a-b92a723511ae","ios":"levelo://app?vid=a3ead3dd-f7a5-4742-9e1a-b92a723511ae"},"vehicle_type_id":"4","last_reported":1723219808,"current_range_meters":22800,"station_id":"ce4bhr12rcd13ifvqhpg","pricing_plan_id":"cebpf4jnsgd1na2vs0mg"},{"bike_id":"4731948c-1cc7-498d-877f-5408f71bb3bd","system_id":"levelo_inurba_marseille","lat":43.313553,"lon":5.384981,"is_reserved":false,"is_disabled":false,"rental_uris":{"android":"levelo://app?vid=4731948c-1cc7-498d-877f-5408f71bb3bd","ios":"levelo://app?vid=4731948c-1cc7-498d-877f-5408f71bb3bd"},"vehicle_type_id":"4","last_reported":1723219808,"current_range_meters":25200,"station_id":"ce4bgt92rcd13ifvqcf0","pricing_plan_id":"cebpf4jnsgd1na2vs0mg"},{"bike_id":"85b67301-d572-4b71-83b0-7911d39fde0a","system_id":"levelo_inurba_marseille","lat":43.299724,"lon":5.371829,"is_reserved":false,"is_disabled":false,"rental_uris":{"android":"levelo://app?vid=85b67301-d572-4b71-83b0-7911d39fde0a","ios":"levelo://app?vid=85b67301-d572-4b71-83b0-7911d39fde0a"},"vehicle_type_id":"4","last_reported":1723219808,"current_range_meters":22800,"station_id":"ce4bgr92rcd13ifvqc7g","pricing_plan_id":"cebpf4jnsgd1na2vs0mg"},{"bike_id":"cf273339-3480-42a6-84e4-1d69ea6df0d0","system_id":"levelo_inurba_marseille","lat":43.299724,"lon":5.371829,"is_reserved":false,"is_disabled":false,"rental_uris":{"android":"levelo://app?vid=cf273339-3480-42a6-84e4-1d69ea6df0d0","ios":"levelo://app?vid=cf273339-3480-42a6-84e4-1d69ea6df0d0"},"vehicle_type_id":"4","last_reported":1723219808,"current_range_meters":800,"station_id":"ce4bgr92rcd13ifvqc7g","pricing_plan_id":"cebpf4jnsgd1na2vs0mg"},{"bike_id":"82059d66-a4df-44e7-81a8-148ceabff1f7","system_id":"levelo_inurba_marseille","lat":43.299243,"lon":5.374807,"is_reserved":false,"is_disabled":false,"rental_uris":{"android":"levelo://app?vid=82059d66-a4df-44e7-81a8-148ceabff1f7","ios":"levelo://app?vid=82059d66-a4df-44e7-81a8-148ceabff1f7"},"vehicle_type_id":"4","last_reported":1723219808,"current_range_meters":400,"station_id":"ce4bgjh2rcd13ifvqbg0","pricing_plan_id":"cebpf4jnsgd1na2vs0mg"},{"bike_id":"846b2fc5-c46b-486f-b782-cd417764b2cc","system_id":"levelo_inurba_marseille","lat":43.297774,"lon":5.370875,"is_reserved":false,"is_disabled":false,"rental_uris":{"android":"levelo://app?vid=846b2fc5-c46b-486f-b782-cd417764b2cc","ios":"levelo://app?vid=846b2fc5-c46b-486f-b782-cd417764b2cc"},"vehicle_type_id":"4","last_reported":1723219808,"current_range_meters":18800,"station_id":"ce4bgop2rcd13ifvqc1g","pricing_plan_id":"cebpf4jnsgd1na2vs0mg"},{"bike_id":"216240ef-238f-48ba-bd26-5d1c9cf540df","system_id":"levelo_inurba_marseille","lat":43.31456,"lon":5.38784,"is_reserved":false,"is_disabled":false,"rental_uris":{"android":"levelo://app?vid=216240ef-238f-48ba-bd26-5d1c9cf540df","ios":"levelo://app?vid=216240ef-238f-48ba-bd26-5d1c9cf540df"},"vehicle_type_id":"4","last_reported":1723219808,"current_range_meters":4000,"station_id":"","pricing_plan_id":"cebpf4jnsgd1na2vs0mg"},{"bike_id":"2b5ea920-b93d-4a52-8a41-b26ffc20afc7","system_id":"levelo_inurba_marseille","lat":43.297774,"lon":5.370875,"is_reserved":false,"is_disabled":false,"rental_uris":{"android":"levelo://app?vid=2b5ea920-b93d-4a52-8a41-b26ffc20afc7","ios":"levelo://app?vid=2b5ea920-b93d-4a52-8a41-b26ffc20afc7"},"vehicle_type_id":"4","last_reported":1723219808,"current_range_meters":9200,"station_id":"ce4bgop2rcd13ifvqc1g","pricing_plan_id":"cebpf4jnsgd1na2vs0mg"},{"bike_id":"7936739b-ddfd-4970-a301-2efc1f53beec","system_id":"levelo_inurba_marseille","lat":43.2958,"lon":5.367463,"is_reserved":false,"is_disabled":false,"rental_uris":{"android":"levelo://app?vid=7936739b-ddfd-4970-a301-2efc1f53beec","ios":"levelo://app?vid=7936739b-ddfd-4970-a301-2efc1f53beec"},"vehicle_type_id":"4","last_reported":1723219808,"current_range_meters":0,"station_id":"ce4bgph2rcd13ifvqc2g","pricing_plan_id":"cebpf4jnsgd1na2vs0mg"},{"bike_id":"8f4cec70-1001-48e3-9d72-48d49bff9ddb","system_id":"levelo_inurba_marseille","lat":43.299028,"lon":5.381509,"is_reserved":false,"is_disabled":false,"rental_uris":{"android":"levelo://app?vid=8f4cec70-1001-48e3-9d72-48d49bff9ddb","ios":"levelo://app?vid=8f4cec70-1001-48e3-9d72-48d49bff9ddb"},"vehicle_type_id":"4","last_reported":1723219808,"current_range_meters":0,"station_id":"ce4bgj12rcd13ifvqbc0","pricing_plan_id":"cebpf4jnsgd1na2vs0mg"},{"bike_id":"514e9fba-ab2e-4e2c-9c62-6069d3673fea","system_id":"levelo_inurba_marseille","lat":43.3226,"lon":5.38734,"is_reserved":false,"is_disabled":false,"rental_uris":{"android":"levelo://app?vid=514e9fba-ab2e-4e2c-9c62-6069d3673fea","ios":"levelo://app?vid=514e9fba-ab2e-4e2c-9c62-6069d3673fea"},"vehicle_type_id":"4","last_reported":1723219808,"current_range_meters":20000,"station_id":"","pricing_plan_id":"cebpf4jnsgd1na2vs0mg"},{"bike_id":"24438fe6-690a-4896-a8a8-e7847fe9cc3a","system_id":"levelo_inurba_marseille","lat":43.298037,"lon":5.381066,"is_reserved":false,"is_disabled":false,"rental_uris":{"android":"levelo://app?vid=24438fe6-690a-4896-a8a8-e7847fe9cc3a","ios":"levelo://app?vid=24438fe6-690a-4896-a8a8-e7847fe9cc3a"},"vehicle_type_id":"4","last_reported":1723219808,"current_range_meters":0,"station_id":"ce4bgip2rcd13ifvqbb0","pricing_plan_id":"cebpf4jnsgd1na2vs0mg"},{"bike_id":"03ec93a8-ca95-4d1f-afd0-7560db641fc8","system_id":"levelo_inurba_marseille","lat":43.296277,"lon":5.377108,"is_reserved":false,"is_disabled":false,"rental_uris":{"android":"levelo://app?vid=03ec93a8-ca95-4d1f-afd0-7560db641fc8","ios":"levelo://app?vid=03ec93a8-ca95-4d1f-afd0-7560db641fc8"},"vehicle_type_id":"4","last_reported":1723219808,"current_range_meters":0,"station_id":"ce4bgi92rcd13ifvqb90","pricing_plan_id":"cebpf4jnsgd1na2vs0mg"},{"bike_id":"96c91536-1381-4a05-85f3-fa190a98a3ca","system_id":"levelo_inurba_marseille","lat":43.295748,"lon":5.37522,"is_reserved":false,"is_disabled":false,"rental_uris":{"android":"levelo://app?vid=96c91536-1381-4a05-85f3-fa190a98a3ca","ios":"levelo://app?vid=96c91536-1381-4a05-85f3-fa190a98a3ca"},"vehicle_type_id":"4","last_reported":1723219808,"current_range_meters":2400,"station_id":"ce4bgh92rcd13ifvqb50","pricing_plan_id":"cebpf4jnsgd1na2vs0mg"},{"bike_id":"4b182eb5-68d9-42d3-9004-2e3a4619d3e8","system_id":"levelo_inurba_marseille","lat":43.295748,"lon":5.37522,"is_reserved":false,"is_disabled":false,"rental_uris":{"android":"levelo://app?vid=4b182eb5-68d9-42d3-9004-2e3a4619d3e8","ios":"levelo://app?vid=4b182eb5-68d9-42d3-9004-2e3a4619d3e8"},"vehicle_type_id":"4","last_reported":1723219808,"current_range_meters":14400,"station_id":"ce4bgh92rcd13ifvqb50","pricing_plan_id":"cebpf4jnsgd1na2vs0mg"},{"bike_id":"db3fb424-4687-40b8-a7bc-7885edd57e9b","system_id":"levelo_inurba_marseille","lat":43.295748,"lon":5.37522,"is_reserved":false,"is_disabled":false,"rental_uris":{"android":"levelo://app?vid=db3fb424-4687-40b8-a7bc-7885edd57e9b","ios":"levelo://app?vid=db3fb424-4687-40b8-a7bc-7885edd57e9b"},"vehicle_type_id":"4","last_reported":1723219808,"current_range_meters":0,"station_id":"ce4bgh92rcd13ifvqb50","pricing_plan_id":"cebpf4jnsgd1na2vs0mg"},{"bike_id":"7cafa80b-1eef-46ca-880a-90c4150c6b80","system_id":"levelo_inurba_marseille","lat":43.295748,"lon":5.37522,"is_reserved":false,"is_disabled":false,"rental_uris":{"android":"levelo://app?vid=7cafa80b-1eef-46ca-880a-90c4150c6b80","ios":"levelo://app?vid=7cafa80b-1eef-46ca-880a-90c4150c6b80"},"vehicle_type_id":"4","last_reported":1723219808,"current_range_meters":8400,"station_id":"ce4bgh92rcd13ifvqb50","pricing_plan_id":"cebpf4jnsgd1na2vs0mg"},{"bike_id":"e87cee56-4aa7-4aea-9a05-e7e8da08b296","system_id":"levelo_inurba_marseille","lat":43.304278,"lon":5.388868,"is_reserved":false,"is_disabled":false,"rental_uris":{"android":"levelo://app?vid=e87cee56-4aa7-4aea-9a05-e7e8da08b296","ios":"levelo://app?vid=e87cee56-4aa7-4aea-9a05-e7e8da08b296"},"vehicle_type_id":"4","last_reported":1723219808,"current_range_meters":2800,"station_id":"ce4bgk12rcd13ifvqbi0","pricing_plan_id":"cebpf4jnsgd1na2vs0mg"},{"bike_id":"09889ef2-4031-44dc-a0fa-642dd806b3cf","system_id":"levelo_inurba_marseille","lat":43.295748,"lon":5.37522,"is_reserved":false,"is_disabled":false,"rental_uris":{"android":"levelo://app?vid=09889ef2-4031-44dc-a0fa-642dd806b3cf","ios":"levelo://app?vid=09889ef2-4031-44dc-a0fa-642dd806b3cf"},"vehicle_type_id":"4","last_reported":1723219808,"current_range_meters":4000,"station_id":"ce4bgh92rcd13ifvqb50","pricing_plan_id":"cebpf4jnsgd1na2vs0mg"},{"bike_id":"5550a75c-efe1-43f5-a046-345ce3d7410d","system_id":"levelo_inurba_marseille","lat":43.304278,"lon":5.388868,"is_reserved":false,"is_disabled":false,"rental_uris":{"android":"levelo://app?vid=5550a75c-efe1-43f5-a046-345ce3d7410d","ios":"levelo://app?vid=5550a75c-efe1-43f5-a046-345ce3d7410d"},"vehicle_type_id":"4","last_reported":1723219808,"current_range_meters":3600,"station_id":"ce4bgk12rcd13ifvqbi0","pricing_plan_id":"cebpf4jnsgd1na2vs0mg"},{"bike_id":"cbf50f8e-6eda-44ce-a556-b33e985ef0e6","system_id":"levelo_inurba_marseille","lat":43.29886,"lon":5.38306,"is_reserved":false,"is_disabled":false,"rental_uris":{"android":"levelo://app?vid=cbf50f8e-6eda-44ce-a556-b33e985ef0e6","ios":"levelo://app?vid=cbf50f8e-6eda-44ce-a556-b33e985ef0e6"},"vehicle_type_id":"4","last_reported":1723219808,"current_range_meters":24800,"station_id":"","pricing_plan_id":"cebpf4jnsgd1na2vs0mg"},{"bike_id":"3e6c81ce-b151-42e5-adb0-b7dcb72f38c9","system_id":"levelo_inurba_marseille","lat":43.296277,"lon":5.377108,"is_reserved":false,"is_disabled":false,"rental_uris":{"android":"levelo://app?vid=3e6c81ce-b151-42e5-adb0-b7dcb72f38c9","ios":"levelo://app?vid=3e6c81ce-b151-42e5-adb0-b7dcb72f38c9"},"vehicle_type_id":"4","last_reported":1723219808,"current_range_meters":0,"station_id":"ce4bgi92rcd13ifvqb90","pricing_plan_id":"cebpf4jnsgd1na2vs0mg"},{"bike_id":"a382ecb4-eabb-4b6b-904d-8927f657537c","system_id":"levelo_inurba_marseille","lat":43.299707,"lon":5.384859,"is_reserved":false,"is_disabled":false,"rental_uris":{"android":"levelo://app?vid=a382ecb4-eabb-4b6b-904d-8927f657537c","ios":"levelo://app?vid=a382ecb4-eabb-4b6b-904d-8927f657537c"},"vehicle_type_id":"4","last_reported":1723219808,"current_range_meters":0,"station_id":"ce4bgj92rcd13ifvqbd0","pricing_plan_id":"cebpf4jnsgd1na2vs0mg"},{"bike_id":"1e6012a6-2869-4042-b04f-10279a14d0a5","system_id":"levelo_inurba_marseille","lat":43.299724,"lon":5.384848,"is_reserved":false,"is_disabled":false,"rental_uris":{"android":"levelo://app?vid=1e6012a6-2869-4042-b04f-10279a14d0a5","ios":"levelo://app?vid=1e6012a6-2869-4042-b04f-10279a14d0a5"},"vehicle_type_id":"4","last_reported":1723219808,"current_range_meters":0,"station_id":"ce4bgj92rcd13ifvqbd0","pricing_plan_id":"cebpf4jnsgd1na2vs0mg"},{"bike_id":"19656c95-262a-46ca-9011-0c5c1c1a5161","system_id":"levelo_inurba_marseille","lat":43.299724,"lon":5.384848,"is_reserved":false,"is_disabled":false,"rental_uris":{"android":"levelo://app?vid=19656c95-262a-46ca-9011-0c5c1c1a5161","ios":"levelo://app?vid=19656c95-262a-46ca-9011-0c5c1c1a5161"},"vehicle_type_id":"4","last_reported":1723219808,"current_range_meters":8000,"station_id":"ce4bgj92rcd13ifvqbd0","pricing_plan_id":"cebpf4jnsgd1na2vs0mg"},{"bike_id":"ef771259-5477-47e0-86d5-b693915c6c36","system_id":"levelo_inurba_marseille","lat":43.2958,"lon":5.37721,"is_reserved":false,"is_disabled":false,"rental_uris":{"android":"levelo://app?vid=ef771259-5477-47e0-86d5-b693915c6c36","ios":"levelo://app?vid=ef771259-5477-47e0-86d5-b693915c6c36"},"vehicle_type_id":"4","last_reported":1723219808,"current_range_meters":0,"station_id":"","pricing_plan_id":"cebpf4jnsgd1na2vs0mg"},{"bike_id":"c42c5c0b-eaa8-4b94-a6a1-0c1b56372cba","system_id":"levelo_inurba_marseille","lat":43.30085,"lon":5.390856,"is_reserved":false,"is_disabled":false,"rental_uris":{"android":"levelo://app?vid=c42c5c0b-eaa8-4b94-a6a1-0c1b56372cba","ios":"levelo://app?vid=c42c5c0b-eaa8-4b94-a6a1-0c1b56372cba"},"vehicle_type_id":"4","last_reported":1723219808,"current_range_meters":2400,"station_id":"ce4bh192rcd13ifvqdb0","pricing_plan_id":"cebpf4jnsgd1na2vs0mg"},{"bike_id":"172ef63c-994b-4a6c-9546-980c074a591a","system_id":"levelo_inurba_marseille","lat":43.29602,"lon":5.381084,"is_reserved":false,"is_disabled":false,"rental_uris":{"android":"levelo://app?vid=172ef63c-994b-4a6c-9546-980c074a591a","ios":"levelo://app?vid=172ef63c-994b-4a6c-9546-980c074a591a"},"vehicle_type_id":"4","last_reported":1723219808,"current_range_meters":0,"station_id":"ce4bgl12rcd13ifvqbo0","pricing_plan_id":"cebpf4jnsgd1na2vs0mg"},{"bike_id":"c8ea8082-19c1-4694-9cad-6e144bdd3c52","system_id":"levelo_inurba_marseille","lat":43.293259,"lon":5.371586,"is_reserved":false,"is_disabled":false,"rental_uris":{"android":"levelo://app?vid=c8ea8082-19c1-4694-9cad-6e144bdd3c52","ios":"levelo://app?vid=c8ea8082-19c1-4694-9cad-6e144bdd3c52"},"vehicle_type_id":"4","last_reported":1723219808,"current_range_meters":0,"station_id":"ce4bgh92rcd13ifvqb40","pricing_plan_id":"cebpf4jnsgd1na2vs0mg"},{"bike_id":"8885c26f-ed38-4522-8ed1-68eba086526c","system_id":"levelo_inurba_marseille","lat":43.2931,"lon":5.3718,"is_reserved":false,"is_disabled":false,"rental_uris":{"android":"levelo://app?vid=8885c26f-ed38-4522-8ed1-68eba086526c","ios":"levelo://app?vid=8885c26f-ed38-4522-8ed1-68eba086526c"},"vehicle_type_id":"4","last_reported":1723219808,"current_range_meters":0,"station_id":"ce4bgh92rcd13ifvqb40","pricing_plan_id":"cebpf4jnsgd1na2vs0mg"},{"bike_id":"97e2fd63-a888-4390-a32f-209d232edbfa","system_id":"levelo_inurba_marseille","lat":43.292749,"lon":5.368402,"is_reserved":false,"is_disabled":false,"rental_uris":{"android":"levelo://app?vid=97e2fd63-a888-4390-a32f-209d232edbfa","ios":"levelo://app?vid=97e2fd63-a888-4390-a32f-209d232edbfa"},"vehicle_type_id":"4","last_reported":1723219808,"current_range_meters":6400,"station_id":"ce4bhbp2rcd13ifvqesg","pricing_plan_id":"cebpf4jnsgd1na2vs0mg"},{"bike_id":"9a218602-c1ce-4cec-90dd-5a478f026ff2","system_id":"levelo_inurba_marseille","lat":43.29275,"lon":5.36841,"is_reserved":false,"is_disabled":false,"rental_uris":{"android":"levelo://app?vid=9a218602-c1ce-4cec-90dd-5a478f026ff2","ios":"levelo://app?vid=9a218602-c1ce-4cec-90dd-5a478f026ff2"},"vehicle_type_id":"4","last_reported":1723219808,"current_range_meters":12000,"station_id":"ce4bhbp2rcd13ifvqesg","pricing_plan_id":"cebpf4jnsgd1na2vs0mg"},{"bike_id":"96051c71-d648-4c6d-ac3f-f588385178b8","system_id":"levelo_inurba_marseille","lat":43.305994,"lon":5.393345,"is_reserved":false,"is_disabled":false,"rental_uris":{"android":"levelo://app?vid=96051c71-d648-4c6d-ac3f-f588385178b8","ios":"levelo://app?vid=96051c71-d648-4c6d-ac3f-f588385178b8"},"vehicle_type_id":"4","last_reported":1723219808,"current_range_meters":2400,"station_id":"ce4bh0p2rcd13ifvqd80","pricing_plan_id":"cebpf4jnsgd1na2vs0mg"},{"bike_id":"f66fec40-8cca-4700-a45b-76fd2057f129","system_id":"levelo_inurba_marseille","lat":43.293009,"lon":5.374584,"is_reserved":false,"is_disabled":false,"rental_uris":{"android":"levelo://app?vid=f66fec40-8cca-4700-a45b-76fd2057f129","ios":"levelo://app?vid=f66fec40-8cca-4700-a45b-76fd2057f129"},"vehicle_type_id":"4","last_reported":1723219808,"current_range_meters":0,"station_id":"ce4bgi12rcd13ifvqb70","pricing_plan_id":"cebpf4jnsgd1na2vs0mg"},{"bike_id":"348aeead-e709-47e0-b3c2-44a335ed4e43","system_id":"levelo_inurba_marseille","lat":43.293009,"lon":5.374584,"is_reserved":false,"is_disabled":false,"rental_uris":{"android":"levelo://app?vid=348aeead-e709-47e0-b3c2-44a335ed4e43","ios":"levelo://app?vid=348aeead-e709-47e0-b3c2-44a335ed4e43"},"vehicle_type_id":"4","last_reported":1723219808,"current_range_meters":0,"station_id":"ce4bgi12rcd13ifvqb70","pricing_plan_id":"cebpf4jnsgd1na2vs0mg"},{"bike_id":"79f38d0c-e410-4760-941e-96a5c11958a4","system_id":"levelo_inurba_marseille","lat":43.31152,"lon":5.39515,"is_reserved":false,"is_disabled":false,"rental_uris":{"android":"levelo://app?vid=79f38d0c-e410-4760-941e-96a5c11958a4","ios":"levelo://app?vid=79f38d0c-e410-4760-941e-96a5c11958a4"},"vehicle_type_id":"4","last_reported":1723219808,"current_range_meters":16400,"station_id":"","pricing_plan_id":"cebpf4jnsgd1na2vs0mg"},{"bike_id":"8d37495d-9961-45f8-ba67-ee81725ae3ae","system_id":"levelo_inurba_marseille","lat":43.29228,"lon":5.36363,"is_reserved":false,"is_disabled":false,"rental_uris":{"android":"levelo://app?vid=8d37495d-9961-45f8-ba67-ee81725ae3ae","ios":"levelo://app?vid=8d37495d-9961-45f8-ba67-ee81725ae3ae"},"vehicle_type_id":"4","last_reported":1723219808,"current_range_meters":12400,"station_id":"","pricing_plan_id":"cebpf4jnsgd1na2vs0mg"},{"bike_id":"3db34748-6e5d-4f0d-bf24-73fefb166d45","system_id":"levelo_inurba_marseille","lat":43.300852,"lon":5.390859,"is_reserved":false,"is_disabled":false,"rental_uris":{"android":"levelo://app?vid=3db34748-6e5d-4f0d-bf24-73fefb166d45","ios":"levelo://app?vid=3db34748-6e5d-4f0d-bf24-73fefb166d45"},"vehicle_type_id":"4","last_reported":1723219808,"current_range_meters":0,"station_id":"ce4bh192rcd13ifvqdb0","pricing_plan_id":"cebpf4jnsgd1na2vs0mg"},{"bike_id":"8669c215-f64f-4991-918a-38e605b47e3d","system_id":"levelo_inurba_marseille","lat":43.292909,"lon":5.355526,"is_reserved":false,"is_disabled":false,"rental_uris":{"android":"levelo://app?vid=8669c215-f64f-4991-918a-38e605b47e3d","ios":"levelo://app?vid=8669c215-f64f-4991-918a-38e605b47e3d"},"vehicle_type_id":"4","last_reported":1723219808,"current_range_meters":12400,"station_id":"","pricing_plan_id":"cebpf4jnsgd1na2vs0mg"},{"bike_id":"9ce2c080-5495-4182-b4d8-52bbff109127","system_id":"levelo_inurba_marseille","lat":43.30955,"lon":5.39642,"is_reserved":false,"is_disabled":false,"rental_uris":{"android":"levelo://app?vid=9ce2c080-5495-4182-b4d8-52bbff109127","ios":"levelo://app?vid=9ce2c080-5495-4182-b4d8-52bbff109127"},"vehicle_type_id":"4","last_reported":1723219808,"current_range_meters":10000,"station_id":"","pricing_plan_id":"cebpf4jnsgd1na2vs0mg"},{"bike_id":"fd6589d7-3907-4224-a760-4f6fe441a486","system_id":"levelo_inurba_marseille","lat":43.291994,"lon":5.357886,"is_reserved":false,"is_disabled":false,"rental_uris":{"android":"levelo://app?vid=fd6589d7-3907-4224-a760-4f6fe441a486","ios":"levelo://app?vid=fd6589d7-3907-4224-a760-4f6fe441a486"},"vehicle_type_id":"4","last_reported":1723219808,"current_range_meters":2800,"station_id":"ce4bhb12rcd13ifvqel0","pricing_plan_id":"cebpf4jnsgd1na2vs0mg"},{"bike_id":"9d4b68a5-c93f-4844-a235-5ff4a055b660","system_id":"levelo_inurba_marseille","lat":43.292385,"lon":5.37767,"is_reserved":false,"is_disabled":false,"rental_uris":{"android":"levelo://app?vid=9d4b68a5-c93f-4844-a235-5ff4a055b660","ios":"levelo://app?vid=9d4b68a5-c93f-4844-a235-5ff4a055b660"},"vehicle_type_id":"4","last_reported":1723219808,"current_range_meters":15200,"station_id":"","pricing_plan_id":"cebpf4jnsgd1na2vs0mg"},{"bike_id":"1715b274-70b3-47dd-88a9-a017d897730e","system_id":"levelo_inurba_marseille","lat":43.29529,"lon":5.385581,"is_reserved":false,"is_disabled":false,"rental_uris":{"android":"levelo://app?vid=1715b274-70b3-47dd-88a9-a017d897730e","ios":"levelo://app?vid=1715b274-70b3-47dd-88a9-a017d897730e"},"vehicle_type_id":"4","last_reported":1723219808,"current_range_meters":800,"station_id":"ce4bgih2rcd13ifvqba0","pricing_plan_id":"cebpf4jnsgd1na2vs0mg"},{"bike_id":"c4c02c58-6d55-4755-9327-bf33b3b0bc1a","system_id":"levelo_inurba_marseille","lat":43.33334,"lon":5.37979,"is_reserved":false,"is_disabled":false,"rental_uris":{"android":"levelo://app?vid=c4c02c58-6d55-4755-9327-bf33b3b0bc1a","ios":"levelo://app?vid=c4c02c58-6d55-4755-9327-bf33b3b0bc1a"},"vehicle_type_id":"4","last_reported":1723219808,"current_range_meters":23600,"station_id":"","pricing_plan_id":"cebpf4jnsgd1na2vs0mg"},{"bike_id":"34ab55a5-ca8e-44bb-bbbf-69c1c28142fe","system_id":"levelo_inurba_marseille","lat":43.294162,"lon":5.386292,"is_reserved":false,"is_disabled":false,"rental_uris":{"android":"levelo://app?vid=34ab55a5-ca8e-44bb-bbbf-69c1c28142fe","ios":"levelo://app?vid=34ab55a5-ca8e-44bb-bbbf-69c1c28142fe"},"vehicle_type_id":"4","last_reported":1723219808,"current_range_meters":8800,"station_id":"ce4bh2h2rcd13ifvqdh0","pricing_plan_id":"cebpf4jnsgd1na2vs0mg"},{"bike_id":"7f947edf-4c47-48ad-855c-d729138e2946","system_id":"levelo_inurba_marseille","lat":43.294153,"lon":5.386305,"is_reserved":false,"is_disabled":false,"rental_uris":{"android":"levelo://app?vid=7f947edf-4c47-48ad-855c-d729138e2946","ios":"levelo://app?vid=7f947edf-4c47-48ad-855c-d729138e2946"},"vehicle_type_id":"4","last_reported":1723219808,"current_range_meters":12000,"station_id":"ce4bh2h2rcd13ifvqdh0","pricing_plan_id":"cebpf4jnsgd1na2vs0mg"},{"bike_id":"1f67bc80-bfc0-40af-ac25-0f0d99bd1ff8","system_id":"levelo_inurba_marseille","lat":43.294153,"lon":5.386305,"is_reserved":false,"is_disabled":false,"rental_uris":{"android":"levelo://app?vid=1f67bc80-bfc0-40af-ac25-0f0d99bd1ff8","ios":"levelo://app?vid=1f67bc80-bfc0-40af-ac25-0f0d99bd1ff8"},"vehicle_type_id":"4","last_reported":1723219808,"current_range_meters":800,"station_id":"ce4bh2h2rcd13ifvqdh0","pricing_plan_id":"cebpf4jnsgd1na2vs0mg"},{"bike_id":"fcdc482a-2cdd-45ba-9290-a00bf081eaf6","system_id":"levelo_inurba_marseille","lat":43.289184,"lon":5.366408,"is_reserved":false,"is_disabled":false,"rental_uris":{"android":"levelo://app?vid=fcdc482a-2cdd-45ba-9290-a00bf081eaf6","ios":"levelo://app?vid=fcdc482a-2cdd-45ba-9290-a00bf081eaf6"},"vehicle_type_id":"4","last_reported":1723219808,"current_range_meters":0,"station_id":"ce4bhap2rcd13ifvqek0","pricing_plan_id":"cebpf4jnsgd1na2vs0mg"},{"bike_id":"a3c280af-8360-46cf-aa24-7b020d52fd64","system_id":"levelo_inurba_marseille","lat":43.289184,"lon":5.366408,"is_reserved":false,"is_disabled":false,"rental_uris":{"android":"levelo://app?vid=a3c280af-8360-46cf-aa24-7b020d52fd64","ios":"levelo://app?vid=a3c280af-8360-46cf-aa24-7b020d52fd64"},"vehicle_type_id":"4","last_reported":1723219808,"current_range_meters":18800,"station_id":"ce4bhap2rcd13ifvqek0","pricing_plan_id":"cebpf4jnsgd1na2vs0mg"},{"bike_id":"f4a06a62-d805-4180-9316-1c5063230230","system_id":"levelo_inurba_marseille","lat":43.289468,"lon":5.363719,"is_reserved":false,"is_disabled":false,"rental_uris":{"android":"levelo://app?vid=f4a06a62-d805-4180-9316-1c5063230230","ios":"levelo://app?vid=f4a06a62-d805-4180-9316-1c5063230230"},"vehicle_type_id":"4","last_reported":1723219808,"current_range_meters":6800,"station_id":"ce4bhc92rcd13ifvqetg","pricing_plan_id":"cebpf4jnsgd1na2vs0mg"},{"bike_id":"cfb7ab70-7f5d-43ab-9398-a40a8408f955","system_id":"levelo_inurba_marseille","lat":43.304274,"lon":5.397513,"is_reserved":false,"is_disabled":false,"rental_uris":{"android":"levelo://app?vid=cfb7ab70-7f5d-43ab-9398-a40a8408f955","ios":"levelo://app?vid=cfb7ab70-7f5d-43ab-9398-a40a8408f955"},"vehicle_type_id":"4","last_reported":1723219808,"current_range_meters":14400,"station_id":"ce4bh092rcd13ifvqd20","pricing_plan_id":"cebpf4jnsgd1na2vs0mg"},{"bike_id":"882da133-6db4-44d1-a8e8-6e26406f7657","system_id":"levelo_inurba_marseille","lat":43.29263,"lon":5.38439,"is_reserved":false,"is_disabled":false,"rental_uris":{"android":"levelo://app?vid=882da133-6db4-44d1-a8e8-6e26406f7657","ios":"levelo://app?vid=882da133-6db4-44d1-a8e8-6e26406f7657"},"vehicle_type_id":"4","last_reported":1723219808,"current_range_meters":0,"station_id":"ce4bh692rcd13ifvqea0","pricing_plan_id":"cebpf4jnsgd1na2vs0mg"},{"bike_id":"77ec93d7-305a-44c1-bc12-75fb60e55489","system_id":"levelo_inurba_marseille","lat":43.292642,"lon":5.384254,"is_reserved":false,"is_disabled":false,"rental_uris":{"android":"levelo://app?vid=77ec93d7-305a-44c1-bc12-75fb60e55489","ios":"levelo://app?vid=77ec93d7-305a-44c1-bc12-75fb60e55489"},"vehicle_type_id":"4","last_reported":1723219808,"current_range_meters":800,"station_id":"ce4bh692rcd13ifvqea0","pricing_plan_id":"cebpf4jnsgd1na2vs0mg"},{"bike_id":"921b4190-b61f-4059-82eb-c21268d05e8d","system_id":"levelo_inurba_marseille","lat":43.29009,"lon":5.35611,"is_reserved":false,"is_disabled":false,"rental_uris":{"android":"levelo://app?vid=921b4190-b61f-4059-82eb-c21268d05e8d","ios":"levelo://app?vid=921b4190-b61f-4059-82eb-c21268d05e8d"},"vehicle_type_id":"4","last_reported":1723219808,"current_range_meters":6400,"station_id":"ce4bhb92rcd13ifvqen0","pricing_plan_id":"cebpf4jnsgd1na2vs0mg"},{"bike_id":"c7cb3208-a3f8-459d-9918-a06e52e9584d","system_id":"levelo_inurba_marseille","lat":43.29007,"lon":5.35614,"is_reserved":false,"is_disabled":false,"rental_uris":{"android":"levelo://app?vid=c7cb3208-a3f8-459d-9918-a06e52e9584d","ios":"levelo://app?vid=c7cb3208-a3f8-459d-9918-a06e52e9584d"},"vehicle_type_id":"4","last_reported":1723219808,"current_range_meters":8000,"station_id":"ce4bhb92rcd13ifvqen0","pricing_plan_id":"cebpf4jnsgd1na2vs0mg"},{"bike_id":"02cf2e15-8e71-49c9-a4eb-e60948c08a39","system_id":"levelo_inurba_marseille","lat":43.29007,"lon":5.35611,"is_reserved":false,"is_disabled":false,"rental_uris":{"android":"levelo://app?vid=02cf2e15-8e71-49c9-a4eb-e60948c08a39","ios":"levelo://app?vid=02cf2e15-8e71-49c9-a4eb-e60948c08a39"},"vehicle_type_id":"4","last_reported":1723219808,"current_range_meters":0,"station_id":"ce4bhb92rcd13ifvqen0","pricing_plan_id":"cebpf4jnsgd1na2vs0mg"},{"bike_id":"1c332850-d6e0-4886-95cf-2b35a9256fbe","system_id":"levelo_inurba_marseille","lat":43.290103,"lon":5.356114,"is_reserved":false,"is_disabled":false,"rental_uris":{"android":"levelo://app?vid=1c332850-d6e0-4886-95cf-2b35a9256fbe","ios":"levelo://app?vid=1c332850-d6e0-4886-95cf-2b35a9256fbe"},"vehicle_type_id":"4","last_reported":1723219808,"current_range_meters":1200,"station_id":"ce4bhb92rcd13ifvqen0","pricing_plan_id":"cebpf4jnsgd1na2vs0mg"},{"bike_id":"6d0ac748-cc7d-4c07-81cd-63b4d9f112fe","system_id":"levelo_inurba_marseille","lat":43.29005,"lon":5.35614,"is_reserved":false,"is_disabled":false,"rental_uris":{"android":"levelo://app?vid=6d0ac748-cc7d-4c07-81cd-63b4d9f112fe","ios":"levelo://app?vid=6d0ac748-cc7d-4c07-81cd-63b4d9f112fe"},"vehicle_type_id":"4","last_reported":1723219808,"current_range_meters":0,"station_id":"ce4bhb92rcd13ifvqen0","pricing_plan_id":"cebpf4jnsgd1na2vs0mg"},{"bike_id":"1f943de6-1cbd-42ec-ae82-878c28b4cdff","system_id":"levelo_inurba_marseille","lat":43.290104,"lon":5.356111,"is_reserved":false,"is_disabled":false,"rental_uris":{"android":"levelo://app?vid=1f943de6-1cbd-42ec-ae82-878c28b4cdff","ios":"levelo://app?vid=1f943de6-1cbd-42ec-ae82-878c28b4cdff"},"vehicle_type_id":"4","last_reported":1723219808,"current_range_meters":1200,"station_id":"ce4bhb92rcd13ifvqen0","pricing_plan_id":"cebpf4jnsgd1na2vs0mg"},{"bike_id":"c86d495d-7570-44b2-aac1-2f3f4d196f2b","system_id":"levelo_inurba_marseille","lat":43.290103,"lon":5.356114,"is_reserved":false,"is_disabled":false,"rental_uris":{"android":"levelo://app?vid=c86d495d-7570-44b2-aac1-2f3f4d196f2b","ios":"levelo://app?vid=c86d495d-7570-44b2-aac1-2f3f4d196f2b"},"vehicle_type_id":"4","last_reported":1723219808,"current_range_meters":0,"station_id":"ce4bhb92rcd13ifvqen0","pricing_plan_id":"cebpf4jnsgd1na2vs0mg"},{"bike_id":"e5607d85-4a2c-4544-a9f9-d34c9d8685f7","system_id":"levelo_inurba_marseille","lat":43.290104,"lon":5.356111,"is_reserved":false,"is_disabled":false,"rental_uris":{"android":"levelo://app?vid=e5607d85-4a2c-4544-a9f9-d34c9d8685f7","ios":"levelo://app?vid=e5607d85-4a2c-4544-a9f9-d34c9d8685f7"},"vehicle_type_id":"4","last_reported":1723219808,"current_range_meters":0,"station_id":"ce4bhb92rcd13ifvqen0","pricing_plan_id":"cebpf4jnsgd1na2vs0mg"},{"bike_id":"b6ebccca-afd1-4c82-9653-b93d3232e2b7","system_id":"levelo_inurba_marseille","lat":43.290103,"lon":5.356114,"is_reserved":false,"is_disabled":false,"rental_uris":{"android":"levelo://app?vid=b6ebccca-afd1-4c82-9653-b93d3232e2b7","ios":"levelo://app?vid=b6ebccca-afd1-4c82-9653-b93d3232e2b7"},"vehicle_type_id":"4","last_reported":1723219808,"current_range_meters":8400,"station_id":"ce4bhb92rcd13ifvqen0","pricing_plan_id":"cebpf4jnsgd1na2vs0mg"},{"bike_id":"fd80fc14-a8b1-4ab5-93b6-50c42ae518c7","system_id":"levelo_inurba_marseille","lat":43.295169,"lon":5.390426,"is_reserved":false,"is_disabled":false,"rental_uris":{"android":"levelo://app?vid=fd80fc14-a8b1-4ab5-93b6-50c42ae518c7","ios":"levelo://app?vid=fd80fc14-a8b1-4ab5-93b6-50c42ae518c7"},"vehicle_type_id":"4","last_reported":1723219808,"current_range_meters":13200,"station_id":"ce4bh3p2rcd13ifvqdp0","pricing_plan_id":"cebpf4jnsgd1na2vs0mg"},{"bike_id":"d3974ea7-87ef-4b55-a761-280d4c5ab06b","system_id":"levelo_inurba_marseille","lat":43.297815,"lon":5.393548,"is_reserved":false,"is_disabled":false,"rental_uris":{"android":"levelo://app?vid=d3974ea7-87ef-4b55-a761-280d4c5ab06b","ios":"levelo://app?vid=d3974ea7-87ef-4b55-a761-280d4c5ab06b"},"vehicle_type_id":"4","last_reported":1723219808,"current_range_meters":5600,"station_id":"chh1huq6cuj3fo74tm60","pricing_plan_id":"cebpf4jnsgd1na2vs0mg"},{"bike_id":"14b1031e-85de-4794-96d5-579cf369a762","system_id":"levelo_inurba_marseille","lat":43.29775,"lon":5.39339,"is_reserved":false,"is_disabled":false,"rental_uris":{"android":"levelo://app?vid=14b1031e-85de-4794-96d5-579cf369a762","ios":"levelo://app?vid=14b1031e-85de-4794-96d5-579cf369a762"},"vehicle_type_id":"4","last_reported":1723219808,"current_range_meters":11200,"station_id":"chh1huq6cuj3fo74tm60","pricing_plan_id":"cebpf4jnsgd1na2vs0mg"},{"bike_id":"d60f18e3-8288-4d96-9194-40133d94f7b6","system_id":"levelo_inurba_marseille","lat":43.295169,"lon":5.390426,"is_reserved":false,"is_disabled":false,"rental_uris":{"android":"levelo://app?vid=d60f18e3-8288-4d96-9194-40133d94f7b6","ios":"levelo://app?vid=d60f18e3-8288-4d96-9194-40133d94f7b6"},"vehicle_type_id":"4","last_reported":1723219808,"current_range_meters":2400,"station_id":"ce4bh3p2rcd13ifvqdp0","pricing_plan_id":"cebpf4jnsgd1na2vs0mg"},{"bike_id":"dd069a4e-60e0-4d57-b80c-31ae094c90de","system_id":"levelo_inurba_marseille","lat":43.33028,"lon":5.39043,"is_reserved":false,"is_disabled":false,"rental_uris":{"android":"levelo://app?vid=dd069a4e-60e0-4d57-b80c-31ae094c90de","ios":"levelo://app?vid=dd069a4e-60e0-4d57-b80c-31ae094c90de"},"vehicle_type_id":"4","last_reported":1723219808,"current_range_meters":0,"station_id":"ce4bhr92rcd13ifvqhrg","pricing_plan_id":"cebpf4jnsgd1na2vs0mg"},{"bike_id":"81fbadb7-7706-4c91-a2d0-2d6b485a3e43","system_id":"levelo_inurba_marseille","lat":43.31065,"lon":5.40103,"is_reserved":false,"is_disabled":false,"rental_uris":{"android":"levelo://app?vid=81fbadb7-7706-4c91-a2d0-2d6b485a3e43","ios":"levelo://app?vid=81fbadb7-7706-4c91-a2d0-2d6b485a3e43"},"vehicle_type_id":"4","last_reported":1723219808,"current_range_meters":6800,"station_id":"","pricing_plan_id":"cebpf4jnsgd1na2vs0mg"},{"bike_id":"5b46c2c2-c7bd-40df-87b2-42207cffbc8f","system_id":"levelo_inurba_marseille","lat":43.28856,"lon":5.358371,"is_reserved":false,"is_disabled":false,"rental_uris":{"android":"levelo://app?vid=5b46c2c2-c7bd-40df-87b2-42207cffbc8f","ios":"levelo://app?vid=5b46c2c2-c7bd-40df-87b2-42207cffbc8f"},"vehicle_type_id":"4","last_reported":1723219808,"current_range_meters":6800,"station_id":"ce4bhb12rcd13ifvqem0","pricing_plan_id":"cebpf4jnsgd1na2vs0mg"},{"bike_id":"b82d858a-91a0-49bf-a6fc-8ae898ab18fa","system_id":"levelo_inurba_marseille","lat":43.312609,"lon":5.401662,"is_reserved":false,"is_disabled":false,"rental_uris":{"android":"levelo://app?vid=b82d858a-91a0-49bf-a6fc-8ae898ab18fa","ios":"levelo://app?vid=b82d858a-91a0-49bf-a6fc-8ae898ab18fa"},"vehicle_type_id":"4","last_reported":1723219808,"current_range_meters":31200,"station_id":"ce4bh092rcd13ifvqd30","pricing_plan_id":"cebpf4jnsgd1na2vs0mg"},{"bike_id":"ac75d8e5-5139-4e43-a64e-51e7994c2517","system_id":"levelo_inurba_marseille","lat":43.337444,"lon":5.374475,"is_reserved":false,"is_disabled":false,"rental_uris":{"android":"levelo://app?vid=ac75d8e5-5139-4e43-a64e-51e7994c2517","ios":"levelo://app?vid=ac75d8e5-5139-4e43-a64e-51e7994c2517"},"vehicle_type_id":"3","last_reported":1723219808,"current_range_meters":24800,"station_id":"","pricing_plan_id":"cebpf4jnsgd1na2vs0mg"},{"bike_id":"9e745aa0-558b-42bd-a802-43f154b1ee4d","system_id":"levelo_inurba_marseille","lat":43.309371,"lon":5.401449,"is_reserved":false,"is_disabled":false,"rental_uris":{"android":"levelo://app?vid=9e745aa0-558b-42bd-a802-43f154b1ee4d","ios":"levelo://app?vid=9e745aa0-558b-42bd-a802-43f154b1ee4d"},"vehicle_type_id":"4","last_reported":1723219808,"current_range_meters":17200,"station_id":"ce4bgvp2rcd13ifvqct0","pricing_plan_id":"cebpf4jnsgd1na2vs0mg"},{"bike_id":"d3c65f15-4bc8-4ca9-9aa8-9c164f6294f7","system_id":"levelo_inurba_marseille","lat":43.312609,"lon":5.401662,"is_reserved":false,"is_disabled":false,"rental_uris":{"android":"levelo://app?vid=d3c65f15-4bc8-4ca9-9aa8-9c164f6294f7","ios":"levelo://app?vid=d3c65f15-4bc8-4ca9-9aa8-9c164f6294f7"},"vehicle_type_id":"4","last_reported":1723219808,"current_range_meters":8000,"station_id":"ce4bh092rcd13ifvqd30","pricing_plan_id":"cebpf4jnsgd1na2vs0mg"},{"bike_id":"03b27eed-e5d1-4452-9ad1-01cdd4cc993e","system_id":"levelo_inurba_marseille","lat":43.309371,"lon":5.401449,"is_reserved":false,"is_disabled":false,"rental_uris":{"android":"levelo://app?vid=03b27eed-e5d1-4452-9ad1-01cdd4cc993e","ios":"levelo://app?vid=03b27eed-e5d1-4452-9ad1-01cdd4cc993e"},"vehicle_type_id":"4","last_reported":1723219808,"current_range_meters":9600,"station_id":"ce4bgvp2rcd13ifvqct0","pricing_plan_id":"cebpf4jnsgd1na2vs0mg"},{"bike_id":"1596ed5a-2748-4147-884b-51e994b2b8ca","system_id":"levelo_inurba_marseille","lat":43.337482,"lon":5.374568,"is_reserved":false,"is_disabled":false,"rental_uris":{"android":"levelo://app?vid=1596ed5a-2748-4147-884b-51e994b2b8ca","ios":"levelo://app?vid=1596ed5a-2748-4147-884b-51e994b2b8ca"},"vehicle_type_id":"4","last_reported":1723219808,"current_range_meters":20000,"station_id":"","pricing_plan_id":"cebpf4jnsgd1na2vs0mg"},{"bike_id":"6137b86e-8de9-4c4f-94ef-bfa372175031","system_id":"levelo_inurba_marseille","lat":43.337513,"lon":5.37454,"is_reserved":false,"is_disabled":false,"rental_uris":{"android":"levelo://app?vid=6137b86e-8de9-4c4f-94ef-bfa372175031","ios":"levelo://app?vid=6137b86e-8de9-4c4f-94ef-bfa372175031"},"vehicle_type_id":"4","last_reported":1723219808,"current_range_meters":19200,"station_id":"","pricing_plan_id":"cebpf4jnsgd1na2vs0mg"},{"bike_id":"f2c39657-f64b-4c05-b0b3-af94dc52094d","system_id":"levelo_inurba_marseille","lat":43.337523,"lon":5.374488,"is_reserved":false,"is_disabled":false,"rental_uris":{"android":"levelo://app?vid=f2c39657-f64b-4c05-b0b3-af94dc52094d","ios":"levelo://app?vid=f2c39657-f64b-4c05-b0b3-af94dc52094d"},"vehicle_type_id":"4","last_reported":1723219808,"current_range_meters":4000,"station_id":"","pricing_plan_id":"cebpf4jnsgd1na2vs0mg"},{"bike_id":"c24ccdf3-8374-4625-a41a-8280c7fc42b0","system_id":"levelo_inurba_marseille","lat":43.337554,"lon":5.374452,"is_reserved":false,"is_disabled":false,"rental_uris":{"android":"levelo://app?vid=c24ccdf3-8374-4625-a41a-8280c7fc42b0","ios":"levelo://app?vid=c24ccdf3-8374-4625-a41a-8280c7fc42b0"},"vehicle_type_id":"4","last_reported":1723219808,"current_range_meters":28800,"station_id":"","pricing_plan_id":"cebpf4jnsgd1na2vs0mg"},{"bike_id":"95e665ed-afbb-4ece-97e4-ecc3d1a7e7e9","system_id":"levelo_inurba_marseille","lat":43.33764,"lon":5.374342,"is_reserved":false,"is_disabled":false,"rental_uris":{"android":"levelo://app?vid=95e665ed-afbb-4ece-97e4-ecc3d1a7e7e9","ios":"levelo://app?vid=95e665ed-afbb-4ece-97e4-ecc3d1a7e7e9"},"vehicle_type_id":"4","last_reported":1723219808,"current_range_meters":30400,"station_id":"","pricing_plan_id":"cebpf4jnsgd1na2vs0mg"},{"bike_id":"9c370677-6c6f-4d23-8cf0-7d8de4f71f2a","system_id":"levelo_inurba_marseille","lat":43.337705,"lon":5.37432,"is_reserved":false,"is_disabled":false,"rental_uris":{"android":"levelo://app?vid=9c370677-6c6f-4d23-8cf0-7d8de4f71f2a","ios":"levelo://app?vid=9c370677-6c6f-4d23-8cf0-7d8de4f71f2a"},"vehicle_type_id":"4","last_reported":1723219808,"current_range_meters":22800,"station_id":"","pricing_plan_id":"cebpf4jnsgd1na2vs0mg"},{"bike_id":"475ed14f-5d86-4ce1-9e44-9d4d1bef7035","system_id":"levelo_inurba_marseille","lat":43.33769,"lon":5.37475,"is_reserved":false,"is_disabled":false,"rental_uris":{"android":"levelo://app?vid=475ed14f-5d86-4ce1-9e44-9d4d1bef7035","ios":"levelo://app?vid=475ed14f-5d86-4ce1-9e44-9d4d1bef7035"},"vehicle_type_id":"4","last_reported":1723219808,"current_range_meters":27200,"station_id":"","pricing_plan_id":"cebpf4jnsgd1na2vs0mg"},{"bike_id":"d871b7f7-eeea-4a03-a584-5a3087b1ea7e","system_id":"levelo_inurba_marseille","lat":43.301117,"lon":5.398795,"is_reserved":false,"is_disabled":false,"rental_uris":{"android":"levelo://app?vid=d871b7f7-eeea-4a03-a584-5a3087b1ea7e","ios":"levelo://app?vid=d871b7f7-eeea-4a03-a584-5a3087b1ea7e"},"vehicle_type_id":"4","last_reported":1723219808,"current_range_meters":0,"station_id":"ce4bh0h2rcd13ifvqd40","pricing_plan_id":"cebpf4jnsgd1na2vs0mg"},{"bike_id":"0cf1d05a-f7b3-4e0e-a087-9ba75ff7f2af","system_id":"levelo_inurba_marseille","lat":43.301117,"lon":5.398795,"is_reserved":false,"is_disabled":false,"rental_uris":{"android":"levelo://app?vid=0cf1d05a-f7b3-4e0e-a087-9ba75ff7f2af","ios":"levelo://app?vid=0cf1d05a-f7b3-4e0e-a087-9ba75ff7f2af"},"vehicle_type_id":"4","last_reported":1723219808,"current_range_meters":6400,"station_id":"ce4bh0h2rcd13ifvqd40","pricing_plan_id":"cebpf4jnsgd1na2vs0mg"},{"bike_id":"c7873418-21fa-4319-9512-ce160273c722","system_id":"levelo_inurba_marseille","lat":43.261782,"lon":5.374515,"is_reserved":false,"is_disabled":false,"rental_uris":{"android":"levelo://app?vid=c7873418-21fa-4319-9512-ce160273c722","ios":"levelo://app?vid=c7873418-21fa-4319-9512-ce160273c722"},"vehicle_type_id":"4","last_reported":1723219808,"current_range_meters":12800,"station_id":"ce4bhgp2rcd13ifvqfc0","pricing_plan_id":"cebpf4jnsgd1na2vs0mg"},{"bike_id":"d685b03c-795e-417b-af0c-567ad42f20cb","system_id":"levelo_inurba_marseille","lat":43.287731,"lon":5.357053,"is_reserved":false,"is_disabled":false,"rental_uris":{"android":"levelo://app?vid=d685b03c-795e-417b-af0c-567ad42f20cb","ios":"levelo://app?vid=d685b03c-795e-417b-af0c-567ad42f20cb"},"vehicle_type_id":"4","last_reported":1723219808,"current_range_meters":12000,"station_id":"","pricing_plan_id":"cebpf4jnsgd1na2vs0mg"},{"bike_id":"33d84580-cbd8-4714-a8cc-5ca38b5d5dea","system_id":"levelo_inurba_marseille","lat":43.286591,"lon":5.363346,"is_reserved":false,"is_disabled":false,"rental_uris":{"android":"levelo://app?vid=33d84580-cbd8-4714-a8cc-5ca38b5d5dea","ios":"levelo://app?vid=33d84580-cbd8-4714-a8cc-5ca38b5d5dea"},"vehicle_type_id":"4","last_reported":1723219808,"current_range_meters":2400,"station_id":"ce4bhah2rcd13ifvqej0","pricing_plan_id":"cebpf4jnsgd1na2vs0mg"},{"bike_id":"43d078f9-b122-4b54-9ff9-a2ec9f7b3873","system_id":"levelo_inurba_marseille","lat":43.28665,"lon":5.363563,"is_reserved":false,"is_disabled":false,"rental_uris":{"android":"levelo://app?vid=43d078f9-b122-4b54-9ff9-a2ec9f7b3873","ios":"levelo://app?vid=43d078f9-b122-4b54-9ff9-a2ec9f7b3873"},"vehicle_type_id":"4","last_reported":1723219808,"current_range_meters":0,"station_id":"ce4bhah2rcd13ifvqej0","pricing_plan_id":"cebpf4jnsgd1na2vs0mg"},{"bike_id":"8d6a9cee-82ee-4d18-970f-28dc3811c382","system_id":"levelo_inurba_marseille","lat":43.286591,"lon":5.363346,"is_reserved":false,"is_disabled":false,"rental_uris":{"android":"levelo://app?vid=8d6a9cee-82ee-4d18-970f-28dc3811c382","ios":"levelo://app?vid=8d6a9cee-82ee-4d18-970f-28dc3811c382"},"vehicle_type_id":"4","last_reported":1723219808,"current_range_meters":26000,"station_id":"ce4bhah2rcd13ifvqej0","pricing_plan_id":"cebpf4jnsgd1na2vs0mg"},{"bike_id":"39884811-5408-4d3b-ba88-3d38bde7bd9f","system_id":"levelo_inurba_marseille","lat":43.286591,"lon":5.363346,"is_reserved":false,"is_disabled":false,"rental_uris":{"android":"levelo://app?vid=39884811-5408-4d3b-ba88-3d38bde7bd9f","ios":"levelo://app?vid=39884811-5408-4d3b-ba88-3d38bde7bd9f"},"vehicle_type_id":"4","last_reported":1723219808,"current_range_meters":0,"station_id":"ce4bhah2rcd13ifvqej0","pricing_plan_id":"cebpf4jnsgd1na2vs0mg"},{"bike_id":"163823ab-6b53-4bd4-bead-bf8ad3619410","system_id":"levelo_inurba_marseille","lat":43.298681,"lon":5.397225,"is_reserved":false,"is_disabled":false,"rental_uris":{"android":"levelo://app?vid=163823ab-6b53-4bd4-bead-bf8ad3619410","ios":"levelo://app?vid=163823ab-6b53-4bd4-bead-bf8ad3619410"},"vehicle_type_id":"4","last_reported":1723219808,"current_range_meters":4000,"station_id":"ce4bh0h2rcd13ifvqd50","pricing_plan_id":"cebpf4jnsgd1na2vs0mg"},{"bike_id":"4086b13c-9af1-4e4d-89e1-9f1ba58db356","system_id":"levelo_inurba_marseille","lat":43.298681,"lon":5.397225,"is_reserved":false,"is_disabled":false,"rental_uris":{"android":"levelo://app?vid=4086b13c-9af1-4e4d-89e1-9f1ba58db356","ios":"levelo://app?vid=4086b13c-9af1-4e4d-89e1-9f1ba58db356"},"vehicle_type_id":"4","last_reported":1723219808,"current_range_meters":0,"station_id":"ce4bh0h2rcd13ifvqd50","pricing_plan_id":"cebpf4jnsgd1na2vs0mg"},{"bike_id":"fe25e551-0f98-4ce1-82eb-767248aa6ec1","system_id":"levelo_inurba_marseille","lat":43.289307,"lon":5.38406,"is_reserved":false,"is_disabled":false,"rental_uris":{"android":"levelo://app?vid=fe25e551-0f98-4ce1-82eb-767248aa6ec1","ios":"levelo://app?vid=fe25e551-0f98-4ce1-82eb-767248aa6ec1"},"vehicle_type_id":"4","last_reported":1723219808,"current_range_meters":20000,"station_id":"ce4bh612rcd13ifvqe6g","pricing_plan_id":"cebpf4jnsgd1na2vs0mg"},{"bike_id":"3098c4c0-169b-4c5f-8615-22f16706f0f1","system_id":"levelo_inurba_marseille","lat":43.29035,"lon":5.38655,"is_reserved":false,"is_disabled":false,"rental_uris":{"android":"levelo://app?vid=3098c4c0-169b-4c5f-8615-22f16706f0f1","ios":"levelo://app?vid=3098c4c0-169b-4c5f-8615-22f16706f0f1"},"vehicle_type_id":"4","last_reported":1723219808,"current_range_meters":0,"station_id":"ce4bh4p2rcd13ifvqe0g","pricing_plan_id":"cebpf4jnsgd1na2vs0mg"},{"bike_id":"f5e2de60-2beb-4922-acca-d9ac968a3ef9","system_id":"levelo_inurba_marseille","lat":43.302759,"lon":5.400793,"is_reserved":false,"is_disabled":false,"rental_uris":{"android":"levelo://app?vid=f5e2de60-2beb-4922-acca-d9ac968a3ef9","ios":"levelo://app?vid=f5e2de60-2beb-4922-acca-d9ac968a3ef9"},"vehicle_type_id":"4","last_reported":1723219808,"current_range_meters":2800,"station_id":"ce4bgvh2rcd13ifvqcs0","pricing_plan_id":"cebpf4jnsgd1na2vs0mg"},{"bike_id":"6f4ee892-6088-48db-b6b7-9ca8e650738d","system_id":"levelo_inurba_marseille","lat":43.286039,"lon":5.370681,"is_reserved":false,"is_disabled":false,"rental_uris":{"android":"levelo://app?vid=6f4ee892-6088-48db-b6b7-9ca8e650738d","ios":"levelo://app?vid=6f4ee892-6088-48db-b6b7-9ca8e650738d"},"vehicle_type_id":"4","last_reported":1723219808,"current_range_meters":15600,"station_id":"ce4bht12rcd13ifvqi60","pricing_plan_id":"cebpf4jnsgd1na2vs0mg"},{"bike_id":"31af76ec-b9b8-4187-a64b-383a8ae30b9d","system_id":"levelo_inurba_marseille","lat":43.286039,"lon":5.370679,"is_reserved":false,"is_disabled":false,"rental_uris":{"android":"levelo://app?vid=31af76ec-b9b8-4187-a64b-383a8ae30b9d","ios":"levelo://app?vid=31af76ec-b9b8-4187-a64b-383a8ae30b9d"},"vehicle_type_id":"4","last_reported":1723219808,"current_range_meters":22000,"station_id":"ce4bht12rcd13ifvqi60","pricing_plan_id":"cebpf4jnsgd1na2vs0mg"},{"bike_id":"967f5dca-8aa8-4ac7-9223-d7f496eb6c1f","system_id":"levelo_inurba_marseille","lat":43.286039,"lon":5.370681,"is_reserved":false,"is_disabled":false,"rental_uris":{"android":"levelo://app?vid=967f5dca-8aa8-4ac7-9223-d7f496eb6c1f","ios":"levelo://app?vid=967f5dca-8aa8-4ac7-9223-d7f496eb6c1f"},"vehicle_type_id":"4","last_reported":1723219808,"current_range_meters":0,"station_id":"ce4bht12rcd13ifvqi60","pricing_plan_id":"cebpf4jnsgd1na2vs0mg"},{"bike_id":"7b29f4c2-b90d-4c99-a59a-9fa8fe553935","system_id":"levelo_inurba_marseille","lat":43.287184,"lon":5.37937,"is_reserved":false,"is_disabled":false,"rental_uris":{"android":"levelo://app?vid=7b29f4c2-b90d-4c99-a59a-9fa8fe553935","ios":"levelo://app?vid=7b29f4c2-b90d-4c99-a59a-9fa8fe553935"},"vehicle_type_id":"4","last_reported":1723219808,"current_range_meters":3600,"station_id":"ce4bh9p2rcd13ifvqec0","pricing_plan_id":"cebpf4jnsgd1na2vs0mg"},{"bike_id":"c8ecf022-1444-4ae9-8721-c7145d301523","system_id":"levelo_inurba_marseille","lat":43.287185,"lon":5.379373,"is_reserved":false,"is_disabled":false,"rental_uris":{"android":"levelo://app?vid=c8ecf022-1444-4ae9-8721-c7145d301523","ios":"levelo://app?vid=c8ecf022-1444-4ae9-8721-c7145d301523"},"vehicle_type_id":"4","last_reported":1723219808,"current_range_meters":17600,"station_id":"ce4bh9p2rcd13ifvqec0","pricing_plan_id":"cebpf4jnsgd1na2vs0mg"},{"bike_id":"033f771e-a5bb-4cff-8219-ccb03daa2387","system_id":"levelo_inurba_marseille","lat":43.28717,"lon":5.37933,"is_reserved":false,"is_disabled":false,"rental_uris":{"android":"levelo://app?vid=033f771e-a5bb-4cff-8219-ccb03daa2387","ios":"levelo://app?vid=033f771e-a5bb-4cff-8219-ccb03daa2387"},"vehicle_type_id":"4","last_reported":1723219808,"current_range_meters":0,"station_id":"ce4bh9p2rcd13ifvqec0","pricing_plan_id":"cebpf4jnsgd1na2vs0mg"},{"bike_id":"a9ca5ee6-3c17-4148-b9c7-5a3f03637bba","system_id":"levelo_inurba_marseille","lat":43.28734,"lon":5.35213,"is_reserved":false,"is_disabled":false,"rental_uris":{"android":"levelo://app?vid=a9ca5ee6-3c17-4148-b9c7-5a3f03637bba","ios":"levelo://app?vid=a9ca5ee6-3c17-4148-b9c7-5a3f03637bba"},"vehicle_type_id":"4","last_reported":1723219808,"current_range_meters":0,"station_id":"","pricing_plan_id":"cebpf4jnsgd1na2vs0mg"},{"bike_id":"be24832c-aed8-435a-a78c-9bb0fccb5637","system_id":"levelo_inurba_marseille","lat":43.291994,"lon":5.392907,"is_reserved":false,"is_disabled":false,"rental_uris":{"android":"levelo://app?vid=be24832c-aed8-435a-a78c-9bb0fccb5637","ios":"levelo://app?vid=be24832c-aed8-435a-a78c-9bb0fccb5637"},"vehicle_type_id":"4","last_reported":1723219808,"current_range_meters":18800,"station_id":"ce4bh192rcd13ifvqdd0","pricing_plan_id":"cebpf4jnsgd1na2vs0mg"},{"bike_id":"12790b0f-ecb6-4156-89ed-59ccb7d19d39","system_id":"levelo_inurba_marseille","lat":43.291994,"lon":5.392907,"is_reserved":false,"is_disabled":false,"rental_uris":{"android":"levelo://app?vid=12790b0f-ecb6-4156-89ed-59ccb7d19d39","ios":"levelo://app?vid=12790b0f-ecb6-4156-89ed-59ccb7d19d39"},"vehicle_type_id":"4","last_reported":1723219808,"current_range_meters":2400,"station_id":"ce4bh192rcd13ifvqdd0","pricing_plan_id":"cebpf4jnsgd1na2vs0mg"},{"bike_id":"68389459-43b4-4fe3-9280-8bf031a2288b","system_id":"levelo_inurba_marseille","lat":43.284534,"lon":5.358662,"is_reserved":false,"is_disabled":false,"rental_uris":{"android":"levelo://app?vid=68389459-43b4-4fe3-9280-8bf031a2288b","ios":"levelo://app?vid=68389459-43b4-4fe3-9280-8bf031a2288b"},"vehicle_type_id":"4","last_reported":1723219808,"current_range_meters":17600,"station_id":"ce4bhah2rcd13ifvqei0","pricing_plan_id":"cebpf4jnsgd1na2vs0mg"},{"bike_id":"3e7358d4-69b4-467a-b398-89a9932cd558","system_id":"levelo_inurba_marseille","lat":43.284538,"lon":5.358657,"is_reserved":false,"is_disabled":false,"rental_uris":{"android":"levelo://app?vid=3e7358d4-69b4-467a-b398-89a9932cd558","ios":"levelo://app?vid=3e7358d4-69b4-467a-b398-89a9932cd558"},"vehicle_type_id":"4","last_reported":1723219808,"current_range_meters":6400,"station_id":"ce4bhah2rcd13ifvqei0","pricing_plan_id":"cebpf4jnsgd1na2vs0mg"},{"bike_id":"deaee2da-deb7-449b-9b16-fe4ffd7fe3cd","system_id":"levelo_inurba_marseille","lat":43.284538,"lon":5.358657,"is_reserved":false,"is_disabled":false,"rental_uris":{"android":"levelo://app?vid=deaee2da-deb7-449b-9b16-fe4ffd7fe3cd","ios":"levelo://app?vid=deaee2da-deb7-449b-9b16-fe4ffd7fe3cd"},"vehicle_type_id":"4","last_reported":1723219808,"current_range_meters":11600,"station_id":"ce4bhah2rcd13ifvqei0","pricing_plan_id":"cebpf4jnsgd1na2vs0mg"},{"bike_id":"f2c77adb-ddaa-467a-a7fe-5ee2c37a73a3","system_id":"levelo_inurba_marseille","lat":43.284538,"lon":5.358657,"is_reserved":false,"is_disabled":false,"rental_uris":{"android":"levelo://app?vid=f2c77adb-ddaa-467a-a7fe-5ee2c37a73a3","ios":"levelo://app?vid=f2c77adb-ddaa-467a-a7fe-5ee2c37a73a3"},"vehicle_type_id":"4","last_reported":1723219808,"current_range_meters":0,"station_id":"ce4bhah2rcd13ifvqei0","pricing_plan_id":"cebpf4jnsgd1na2vs0mg"},{"bike_id":"3929d6ba-05c8-44c3-883b-cd0fa050c70a","system_id":"levelo_inurba_marseille","lat":43.285848,"lon":5.350787,"is_reserved":false,"is_disabled":false,"rental_uris":{"android":"levelo://app?vid=3929d6ba-05c8-44c3-883b-cd0fa050c70a","ios":"levelo://app?vid=3929d6ba-05c8-44c3-883b-cd0fa050c70a"},"vehicle_type_id":"4","last_reported":1723219808,"current_range_meters":2400,"station_id":"ce4bhch2rcd13ifvqeug","pricing_plan_id":"cebpf4jnsgd1na2vs0mg"},{"bike_id":"6b0dcde2-2e22-4703-a918-c63013b9c3a0","system_id":"levelo_inurba_marseille","lat":43.2862,"lon":5.35106,"is_reserved":false,"is_disabled":false,"rental_uris":{"android":"levelo://app?vid=6b0dcde2-2e22-4703-a918-c63013b9c3a0","ios":"levelo://app?vid=6b0dcde2-2e22-4703-a918-c63013b9c3a0"},"vehicle_type_id":"4","last_reported":1723219808,"current_range_meters":0,"station_id":"ce4bhch2rcd13ifvqeug","pricing_plan_id":"cebpf4jnsgd1na2vs0mg"},{"bike_id":"2590bd2f-5a07-403f-be21-0e49cb1e3c9c","system_id":"levelo_inurba_marseille","lat":43.285848,"lon":5.350787,"is_reserved":false,"is_disabled":false,"rental_uris":{"android":"levelo://app?vid=2590bd2f-5a07-403f-be21-0e49cb1e3c9c","ios":"levelo://app?vid=2590bd2f-5a07-403f-be21-0e49cb1e3c9c"},"vehicle_type_id":"4","last_reported":1723219808,"current_range_meters":0,"station_id":"ce4bhch2rcd13ifvqeug","pricing_plan_id":"cebpf4jnsgd1na2vs0mg"},{"bike_id":"ebe1aec2-8f96-4ea2-a595-e3fbf59fdcfb","system_id":"levelo_inurba_marseille","lat":43.285848,"lon":5.350787,"is_reserved":false,"is_disabled":false,"rental_uris":{"android":"levelo://app?vid=ebe1aec2-8f96-4ea2-a595-e3fbf59fdcfb","ios":"levelo://app?vid=ebe1aec2-8f96-4ea2-a595-e3fbf59fdcfb"},"vehicle_type_id":"4","last_reported":1723219808,"current_range_meters":26400,"station_id":"ce4bhch2rcd13ifvqeug","pricing_plan_id":"cebpf4jnsgd1na2vs0mg"},{"bike_id":"3a773ef1-e078-4a89-9825-6265950835b4","system_id":"levelo_inurba_marseille","lat":43.285848,"lon":5.350787,"is_reserved":false,"is_disabled":false,"rental_uris":{"android":"levelo://app?vid=3a773ef1-e078-4a89-9825-6265950835b4","ios":"levelo://app?vid=3a773ef1-e078-4a89-9825-6265950835b4"},"vehicle_type_id":"4","last_reported":1723219808,"current_range_meters":10000,"station_id":"ce4bhch2rcd13ifvqeug","pricing_plan_id":"cebpf4jnsgd1na2vs0mg"},{"bike_id":"c5abee8d-f285-4e9c-b608-09a4d94929d6","system_id":"levelo_inurba_marseille","lat":43.28615,"lon":5.35112,"is_reserved":false,"is_disabled":false,"rental_uris":{"android":"levelo://app?vid=c5abee8d-f285-4e9c-b608-09a4d94929d6","ios":"levelo://app?vid=c5abee8d-f285-4e9c-b608-09a4d94929d6"},"vehicle_type_id":"4","last_reported":1723219808,"current_range_meters":0,"station_id":"ce4bhch2rcd13ifvqeug","pricing_plan_id":"cebpf4jnsgd1na2vs0mg"},{"bike_id":"fd8e5c21-cacb-498d-8901-7af76c742931","system_id":"levelo_inurba_marseille","lat":43.28617,"lon":5.35101,"is_reserved":false,"is_disabled":false,"rental_uris":{"android":"levelo://app?vid=fd8e5c21-cacb-498d-8901-7af76c742931","ios":"levelo://app?vid=fd8e5c21-cacb-498d-8901-7af76c742931"},"vehicle_type_id":"4","last_reported":1723219808,"current_range_meters":0,"station_id":"ce4bhch2rcd13ifvqeug","pricing_plan_id":"cebpf4jnsgd1na2vs0mg"},{"bike_id":"7ec17879-20ed-4406-a08f-9ed9f0b0e5e7","system_id":"levelo_inurba_marseille","lat":43.28614,"lon":5.35106,"is_reserved":false,"is_disabled":false,"rental_uris":{"android":"levelo://app?vid=7ec17879-20ed-4406-a08f-9ed9f0b0e5e7","ios":"levelo://app?vid=7ec17879-20ed-4406-a08f-9ed9f0b0e5e7"},"vehicle_type_id":"4","last_reported":1723219808,"current_range_meters":0,"station_id":"ce4bhch2rcd13ifvqeug","pricing_plan_id":"cebpf4jnsgd1na2vs0mg"},{"bike_id":"c2356eb1-c752-4341-9cad-fcb3e4c5156f","system_id":"levelo_inurba_marseille","lat":43.28612,"lon":5.35111,"is_reserved":false,"is_disabled":false,"rental_uris":{"android":"levelo://app?vid=c2356eb1-c752-4341-9cad-fcb3e4c5156f","ios":"levelo://app?vid=c2356eb1-c752-4341-9cad-fcb3e4c5156f"},"vehicle_type_id":"4","last_reported":1723219808,"current_range_meters":6000,"station_id":"ce4bhch2rcd13ifvqeug","pricing_plan_id":"cebpf4jnsgd1na2vs0mg"},{"bike_id":"32c18c5a-025f-4d43-9941-54d1fbb75192","system_id":"levelo_inurba_marseille","lat":43.2861,"lon":5.35104,"is_reserved":false,"is_disabled":false,"rental_uris":{"android":"levelo://app?vid=32c18c5a-025f-4d43-9941-54d1fbb75192","ios":"levelo://app?vid=32c18c5a-025f-4d43-9941-54d1fbb75192"},"vehicle_type_id":"4","last_reported":1723219808,"current_range_meters":21200,"station_id":"ce4bhch2rcd13ifvqeug","pricing_plan_id":"cebpf4jnsgd1na2vs0mg"},{"bike_id":"8afdfae2-8d96-40c6-9c21-23ffc29ffa80","system_id":"levelo_inurba_marseille","lat":43.2861,"lon":5.35101,"is_reserved":false,"is_disabled":false,"rental_uris":{"android":"levelo://app?vid=8afdfae2-8d96-40c6-9c21-23ffc29ffa80","ios":"levelo://app?vid=8afdfae2-8d96-40c6-9c21-23ffc29ffa80"},"vehicle_type_id":"4","last_reported":1723219808,"current_range_meters":0,"station_id":"ce4bhch2rcd13ifvqeug","pricing_plan_id":"cebpf4jnsgd1na2vs0mg"},{"bike_id":"a3824efe-118f-4c14-9952-bbe5b08e5934","system_id":"levelo_inurba_marseille","lat":43.283998,"lon":5.375062,"is_reserved":false,"is_disabled":false,"rental_uris":{"android":"levelo://app?vid=a3824efe-118f-4c14-9952-bbe5b08e5934","ios":"levelo://app?vid=a3824efe-118f-4c14-9952-bbe5b08e5934"},"vehicle_type_id":"4","last_reported":1723219808,"current_range_meters":18000,"station_id":"ce4bh412rcd13ifvqds0","pricing_plan_id":"cebpf4jnsgd1na2vs0mg"},{"bike_id":"37a6bcb8-3cd7-4932-aac1-caced50b2403","system_id":"levelo_inurba_marseille","lat":43.283998,"lon":5.375062,"is_reserved":false,"is_disabled":false,"rental_uris":{"android":"levelo://app?vid=37a6bcb8-3cd7-4932-aac1-caced50b2403","ios":"levelo://app?vid=37a6bcb8-3cd7-4932-aac1-caced50b2403"},"vehicle_type_id":"4","last_reported":1723219808,"current_range_meters":11600,"station_id":"ce4bh412rcd13ifvqds0","pricing_plan_id":"cebpf4jnsgd1na2vs0mg"},{"bike_id":"0e82a788-9197-45bd-b034-12a0184963e5","system_id":"levelo_inurba_marseille","lat":43.295713,"lon":5.399639,"is_reserved":false,"is_disabled":false,"rental_uris":{"android":"levelo://app?vid=0e82a788-9197-45bd-b034-12a0184963e5","ios":"levelo://app?vid=0e82a788-9197-45bd-b034-12a0184963e5"},"vehicle_type_id":"4","last_reported":1723219808,"current_range_meters":0,"station_id":"ce4bh312rcd13ifvqdj0","pricing_plan_id":"cebpf4jnsgd1na2vs0mg"},{"bike_id":"b0e2f542-34a3-48d2-8e53-6923f1a986cb","system_id":"levelo_inurba_marseille","lat":43.286595,"lon":5.386795,"is_reserved":false,"is_disabled":false,"rental_uris":{"android":"levelo://app?vid=b0e2f542-34a3-48d2-8e53-6923f1a986cb","ios":"levelo://app?vid=b0e2f542-34a3-48d2-8e53-6923f1a986cb"},"vehicle_type_id":"4","last_reported":1723219808,"current_range_meters":20400,"station_id":"ce4bh492rcd13ifvqdug","pricing_plan_id":"cebpf4jnsgd1na2vs0mg"},{"bike_id":"b6351c32-39e2-465e-9880-f65001c671d6","system_id":"levelo_inurba_marseille","lat":43.28431,"lon":5.34993,"is_reserved":false,"is_disabled":false,"rental_uris":{"android":"levelo://app?vid=b6351c32-39e2-465e-9880-f65001c671d6","ios":"levelo://app?vid=b6351c32-39e2-465e-9880-f65001c671d6"},"vehicle_type_id":"4","last_reported":1723219808,"current_range_meters":16000,"station_id":"ce4bhbh2rcd13ifvqepg","pricing_plan_id":"cebpf4jnsgd1na2vs0mg"},{"bike_id":"076d049a-1d06-4924-b580-4c1871ba6f42","system_id":"levelo_inurba_marseille","lat":43.28429,"lon":5.34993,"is_reserved":false,"is_disabled":false,"rental_uris":{"android":"levelo://app?vid=076d049a-1d06-4924-b580-4c1871ba6f42","ios":"levelo://app?vid=076d049a-1d06-4924-b580-4c1871ba6f42"},"vehicle_type_id":"4","last_reported":1723219808,"current_range_meters":14000,"station_id":"ce4bhbh2rcd13ifvqepg","pricing_plan_id":"cebpf4jnsgd1na2vs0mg"},{"bike_id":"3512f23c-ed55-4b8b-a447-0d0a7ceee6b0","system_id":"levelo_inurba_marseille","lat":43.284302,"lon":5.349843,"is_reserved":false,"is_disabled":false,"rental_uris":{"android":"levelo://app?vid=3512f23c-ed55-4b8b-a447-0d0a7ceee6b0","ios":"levelo://app?vid=3512f23c-ed55-4b8b-a447-0d0a7ceee6b0"},"vehicle_type_id":"4","last_reported":1723219808,"current_range_meters":26000,"station_id":"ce4bhbh2rcd13ifvqepg","pricing_plan_id":"cebpf4jnsgd1na2vs0mg"},{"bike_id":"0e4a147c-e0d8-41d6-8061-2b171dccd251","system_id":"levelo_inurba_marseille","lat":43.28428,"lon":5.34989,"is_reserved":false,"is_disabled":false,"rental_uris":{"android":"levelo://app?vid=0e4a147c-e0d8-41d6-8061-2b171dccd251","ios":"levelo://app?vid=0e4a147c-e0d8-41d6-8061-2b171dccd251"},"vehicle_type_id":"4","last_reported":1723219808,"current_range_meters":13200,"station_id":"ce4bhbh2rcd13ifvqepg","pricing_plan_id":"cebpf4jnsgd1na2vs0mg"},{"bike_id":"78f64a92-a56b-44a7-b074-f1933126a058","system_id":"levelo_inurba_marseille","lat":43.28425,"lon":5.34991,"is_reserved":false,"is_disabled":false,"rental_uris":{"android":"levelo://app?vid=78f64a92-a56b-44a7-b074-f1933126a058","ios":"levelo://app?vid=78f64a92-a56b-44a7-b074-f1933126a058"},"vehicle_type_id":"4","last_reported":1723219808,"current_range_meters":1600,"station_id":"ce4bhbh2rcd13ifvqepg","pricing_plan_id":"cebpf4jnsgd1na2vs0mg"},{"bike_id":"215f16f3-cad2-45cd-ab12-8da1176a461d","system_id":"levelo_inurba_marseille","lat":43.28427,"lon":5.34983,"is_reserved":false,"is_disabled":false,"rental_uris":{"android":"levelo://app?vid=215f16f3-cad2-45cd-ab12-8da1176a461d","ios":"levelo://app?vid=215f16f3-cad2-45cd-ab12-8da1176a461d"},"vehicle_type_id":"4","last_reported":1723219808,"current_range_meters":0,"station_id":"","pricing_plan_id":"cebpf4jnsgd1na2vs0mg"},{"bike_id":"18ea3a9e-92f8-4058-9428-56b683165226","system_id":"levelo_inurba_marseille","lat":43.28425,"lon":5.34989,"is_reserved":false,"is_disabled":false,"rental_uris":{"android":"levelo://app?vid=18ea3a9e-92f8-4058-9428-56b683165226","ios":"levelo://app?vid=18ea3a9e-92f8-4058-9428-56b683165226"},"vehicle_type_id":"4","last_reported":1723219808,"current_range_meters":24000,"station_id":"ce4bhbh2rcd13ifvqepg","pricing_plan_id":"cebpf4jnsgd1na2vs0mg"},{"bike_id":"46cee240-c796-45ed-b739-c753db7eac2f","system_id":"levelo_inurba_marseille","lat":43.284219,"lon":5.3497,"is_reserved":false,"is_disabled":false,"rental_uris":{"android":"levelo://app?vid=46cee240-c796-45ed-b739-c753db7eac2f","ios":"levelo://app?vid=46cee240-c796-45ed-b739-c753db7eac2f"},"vehicle_type_id":"4","last_reported":1723219808,"current_range_meters":23200,"station_id":"ce4bhbh2rcd13ifvqepg","pricing_plan_id":"cebpf4jnsgd1na2vs0mg"},{"bike_id":"09ead91c-9239-4ab2-91fa-18155103e147","system_id":"levelo_inurba_marseille","lat":43.284219,"lon":5.3497,"is_reserved":false,"is_disabled":false,"rental_uris":{"android":"levelo://app?vid=09ead91c-9239-4ab2-91fa-18155103e147","ios":"levelo://app?vid=09ead91c-9239-4ab2-91fa-18155103e147"},"vehicle_type_id":"4","last_reported":1723219808,"current_range_meters":22800,"station_id":"ce4bhbh2rcd13ifvqepg","pricing_plan_id":"cebpf4jnsgd1na2vs0mg"},{"bike_id":"a0c4298d-d39f-45d7-9350-c9ec007ff730","system_id":"levelo_inurba_marseille","lat":43.28423,"lon":5.34994,"is_reserved":false,"is_disabled":false,"rental_uris":{"android":"levelo://app?vid=a0c4298d-d39f-45d7-9350-c9ec007ff730","ios":"levelo://app?vid=a0c4298d-d39f-45d7-9350-c9ec007ff730"},"vehicle_type_id":"4","last_reported":1723219808,"current_range_meters":21600,"station_id":"ce4bhbh2rcd13ifvqepg","pricing_plan_id":"cebpf4jnsgd1na2vs0mg"},{"bike_id":"ecb1a3a4-f3fd-47cf-9783-ac5cd2f682d8","system_id":"levelo_inurba_marseille","lat":43.284219,"lon":5.3497,"is_reserved":false,"is_disabled":false,"rental_uris":{"android":"levelo://app?vid=ecb1a3a4-f3fd-47cf-9783-ac5cd2f682d8","ios":"levelo://app?vid=ecb1a3a4-f3fd-47cf-9783-ac5cd2f682d8"},"vehicle_type_id":"4","last_reported":1723219808,"current_range_meters":2400,"station_id":"ce4bhbh2rcd13ifvqepg","pricing_plan_id":"cebpf4jnsgd1na2vs0mg"},{"bike_id":"eda6edfe-7265-4964-b194-1a428c890a95","system_id":"levelo_inurba_marseille","lat":43.284219,"lon":5.3497,"is_reserved":false,"is_disabled":false,"rental_uris":{"android":"levelo://app?vid=eda6edfe-7265-4964-b194-1a428c890a95","ios":"levelo://app?vid=eda6edfe-7265-4964-b194-1a428c890a95"},"vehicle_type_id":"4","last_reported":1723219808,"current_range_meters":13200,"station_id":"ce4bhbh2rcd13ifvqepg","pricing_plan_id":"cebpf4jnsgd1na2vs0mg"},{"bike_id":"2c7a90ab-0fd0-49ce-b0cc-3867f0fb7818","system_id":"levelo_inurba_marseille","lat":43.28421,"lon":5.34992,"is_reserved":false,"is_disabled":false,"rental_uris":{"android":"levelo://app?vid=2c7a90ab-0fd0-49ce-b0cc-3867f0fb7818","ios":"levelo://app?vid=2c7a90ab-0fd0-49ce-b0cc-3867f0fb7818"},"vehicle_type_id":"4","last_reported":1723219808,"current_range_meters":12400,"station_id":"ce4bhbh2rcd13ifvqepg","pricing_plan_id":"cebpf4jnsgd1na2vs0mg"},{"bike_id":"b1ef2f24-bd18-495e-a65a-697e236752f8","system_id":"levelo_inurba_marseille","lat":43.284217,"lon":5.349697,"is_reserved":false,"is_disabled":false,"rental_uris":{"android":"levelo://app?vid=b1ef2f24-bd18-495e-a65a-697e236752f8","ios":"levelo://app?vid=b1ef2f24-bd18-495e-a65a-697e236752f8"},"vehicle_type_id":"4","last_reported":1723219808,"current_range_meters":30000,"station_id":"ce4bhbh2rcd13ifvqepg","pricing_plan_id":"cebpf4jnsgd1na2vs0mg"},{"bike_id":"b1e910ee-6dec-48e8-8a31-a6486e554c35","system_id":"levelo_inurba_marseille","lat":43.28422,"lon":5.34987,"is_reserved":false,"is_disabled":false,"rental_uris":{"android":"levelo://app?vid=b1e910ee-6dec-48e8-8a31-a6486e554c35","ios":"levelo://app?vid=b1e910ee-6dec-48e8-8a31-a6486e554c35"},"vehicle_type_id":"4","last_reported":1723219808,"current_range_meters":11600,"station_id":"ce4bhbh2rcd13ifvqepg","pricing_plan_id":"cebpf4jnsgd1na2vs0mg"},{"bike_id":"627a13b3-77f6-4f43-93e7-d2a074f353a7","system_id":"levelo_inurba_marseille","lat":43.284221,"lon":5.349837,"is_reserved":false,"is_disabled":false,"rental_uris":{"android":"levelo://app?vid=627a13b3-77f6-4f43-93e7-d2a074f353a7","ios":"levelo://app?vid=627a13b3-77f6-4f43-93e7-d2a074f353a7"},"vehicle_type_id":"4","last_reported":1723219808,"current_range_meters":2000,"station_id":"","pricing_plan_id":"cebpf4jnsgd1na2vs0mg"},{"bike_id":"6e2f4db3-f6e3-41e3-a7be-d05127984c2b","system_id":"levelo_inurba_marseille","lat":43.284219,"lon":5.3497,"is_reserved":false,"is_disabled":false,"rental_uris":{"android":"levelo://app?vid=6e2f4db3-f6e3-41e3-a7be-d05127984c2b","ios":"levelo://app?vid=6e2f4db3-f6e3-41e3-a7be-d05127984c2b"},"vehicle_type_id":"4","last_reported":1723219808,"current_range_meters":15600,"station_id":"ce4bhbh2rcd13ifvqepg","pricing_plan_id":"cebpf4jnsgd1na2vs0mg"},{"bike_id":"23b5bc3d-2135-48ff-af1d-c7d75e45ea43","system_id":"levelo_inurba_marseille","lat":43.2842,"lon":5.349887,"is_reserved":false,"is_disabled":false,"rental_uris":{"android":"levelo://app?vid=23b5bc3d-2135-48ff-af1d-c7d75e45ea43","ios":"levelo://app?vid=23b5bc3d-2135-48ff-af1d-c7d75e45ea43"},"vehicle_type_id":"4","last_reported":1723219808,"current_range_meters":0,"station_id":"ce4bhbh2rcd13ifvqepg","pricing_plan_id":"cebpf4jnsgd1na2vs0mg"},{"bike_id":"5cb6360d-2404-4efb-8a81-27b9fadc8cbf","system_id":"levelo_inurba_marseille","lat":43.28418,"lon":5.34994,"is_reserved":false,"is_disabled":false,"rental_uris":{"android":"levelo://app?vid=5cb6360d-2404-4efb-8a81-27b9fadc8cbf","ios":"levelo://app?vid=5cb6360d-2404-4efb-8a81-27b9fadc8cbf"},"vehicle_type_id":"4","last_reported":1723219808,"current_range_meters":17200,"station_id":"ce4bhbh2rcd13ifvqepg","pricing_plan_id":"cebpf4jnsgd1na2vs0mg"},{"bike_id":"86eeae07-bfcf-494c-98f0-35dad5e18bdd","system_id":"levelo_inurba_marseille","lat":43.284219,"lon":5.3497,"is_reserved":false,"is_disabled":false,"rental_uris":{"android":"levelo://app?vid=86eeae07-bfcf-494c-98f0-35dad5e18bdd","ios":"levelo://app?vid=86eeae07-bfcf-494c-98f0-35dad5e18bdd"},"vehicle_type_id":"4","last_reported":1723219808,"current_range_meters":30400,"station_id":"ce4bhbh2rcd13ifvqepg","pricing_plan_id":"cebpf4jnsgd1na2vs0mg"},{"bike_id":"5381df68-db6a-47ce-b01e-9bc7a2b000b8","system_id":"levelo_inurba_marseille","lat":43.284219,"lon":5.3497,"is_reserved":false,"is_disabled":false,"rental_uris":{"android":"levelo://app?vid=5381df68-db6a-47ce-b01e-9bc7a2b000b8","ios":"levelo://app?vid=5381df68-db6a-47ce-b01e-9bc7a2b000b8"},"vehicle_type_id":"4","last_reported":1723219808,"current_range_meters":28800,"station_id":"ce4bhbh2rcd13ifvqepg","pricing_plan_id":"cebpf4jnsgd1na2vs0mg"},{"bike_id":"2448e1d7-f424-462a-b3eb-8f203173e7fd","system_id":"levelo_inurba_marseille","lat":43.28419,"lon":5.34988,"is_reserved":false,"is_disabled":false,"rental_uris":{"android":"levelo://app?vid=2448e1d7-f424-462a-b3eb-8f203173e7fd","ios":"levelo://app?vid=2448e1d7-f424-462a-b3eb-8f203173e7fd"},"vehicle_type_id":"4","last_reported":1723219808,"current_range_meters":12000,"station_id":"ce4bhbh2rcd13ifvqepg","pricing_plan_id":"cebpf4jnsgd1na2vs0mg"},{"bike_id":"3c6dacb6-8ecd-4a28-ac11-2e070c996f29","system_id":"levelo_inurba_marseille","lat":43.28423,"lon":5.34975,"is_reserved":false,"is_disabled":false,"rental_uris":{"android":"levelo://app?vid=3c6dacb6-8ecd-4a28-ac11-2e070c996f29","ios":"levelo://app?vid=3c6dacb6-8ecd-4a28-ac11-2e070c996f29"},"vehicle_type_id":"4","last_reported":1723219808,"current_range_meters":7200,"station_id":"ce4bhbh2rcd13ifvqepg","pricing_plan_id":"cebpf4jnsgd1na2vs0mg"},{"bike_id":"8bca1684-e128-4190-b0fe-2222c3fd7954","system_id":"levelo_inurba_marseille","lat":43.284173,"lon":5.349928,"is_reserved":false,"is_disabled":false,"rental_uris":{"android":"levelo://app?vid=8bca1684-e128-4190-b0fe-2222c3fd7954","ios":"levelo://app?vid=8bca1684-e128-4190-b0fe-2222c3fd7954"},"vehicle_type_id":"4","last_reported":1723219808,"current_range_meters":12400,"station_id":"ce4bhbh2rcd13ifvqepg","pricing_plan_id":"cebpf4jnsgd1na2vs0mg"},{"bike_id":"3d1b350b-25bb-480d-b61e-fd44583b2721","system_id":"levelo_inurba_marseille","lat":43.284184,"lon":5.349884,"is_reserved":false,"is_disabled":false,"rental_uris":{"android":"levelo://app?vid=3d1b350b-25bb-480d-b61e-fd44583b2721","ios":"levelo://app?vid=3d1b350b-25bb-480d-b61e-fd44583b2721"},"vehicle_type_id":"4","last_reported":1723219808,"current_range_meters":21200,"station_id":"ce4bhbh2rcd13ifvqepg","pricing_plan_id":"cebpf4jnsgd1na2vs0mg"},{"bike_id":"ffd4a1ef-0ce0-46c3-8e80-a3c8b1fff07e","system_id":"levelo_inurba_marseille","lat":43.284219,"lon":5.3497,"is_reserved":false,"is_disabled":false,"rental_uris":{"android":"levelo://app?vid=ffd4a1ef-0ce0-46c3-8e80-a3c8b1fff07e","ios":"levelo://app?vid=ffd4a1ef-0ce0-46c3-8e80-a3c8b1fff07e"},"vehicle_type_id":"4","last_reported":1723219808,"current_range_meters":27600,"station_id":"ce4bhbh2rcd13ifvqepg","pricing_plan_id":"cebpf4jnsgd1na2vs0mg"},{"bike_id":"12690711-30bf-432d-8d42-0fd8f3a5f952","system_id":"levelo_inurba_marseille","lat":43.2842,"lon":5.34982,"is_reserved":false,"is_disabled":false,"rental_uris":{"android":"levelo://app?vid=12690711-30bf-432d-8d42-0fd8f3a5f952","ios":"levelo://app?vid=12690711-30bf-432d-8d42-0fd8f3a5f952"},"vehicle_type_id":"4","last_reported":1723219808,"current_range_meters":18000,"station_id":"ce4bhbh2rcd13ifvqepg","pricing_plan_id":"cebpf4jnsgd1na2vs0mg"},{"bike_id":"4c2fc320-175d-45c2-b6e3-389fe8882b7a","system_id":"levelo_inurba_marseille","lat":43.28417,"lon":5.34991,"is_reserved":false,"is_disabled":false,"rental_uris":{"android":"levelo://app?vid=4c2fc320-175d-45c2-b6e3-389fe8882b7a","ios":"levelo://app?vid=4c2fc320-175d-45c2-b6e3-389fe8882b7a"},"vehicle_type_id":"4","last_reported":1723219808,"current_range_meters":26400,"station_id":"ce4bhbh2rcd13ifvqepg","pricing_plan_id":"cebpf4jnsgd1na2vs0mg"},{"bike_id":"4ace50f1-1dfd-4eb9-b2d4-09db31ac3b36","system_id":"levelo_inurba_marseille","lat":43.28417,"lon":5.3499,"is_reserved":false,"is_disabled":false,"rental_uris":{"android":"levelo://app?vid=4ace50f1-1dfd-4eb9-b2d4-09db31ac3b36","ios":"levelo://app?vid=4ace50f1-1dfd-4eb9-b2d4-09db31ac3b36"},"vehicle_type_id":"4","last_reported":1723219808,"current_range_meters":18000,"station_id":"ce4bhbh2rcd13ifvqepg","pricing_plan_id":"cebpf4jnsgd1na2vs0mg"},{"bike_id":"aa684a67-30e0-4d6c-aade-b91dfad2e9a2","system_id":"levelo_inurba_marseille","lat":43.28419,"lon":5.34983,"is_reserved":false,"is_disabled":false,"rental_uris":{"android":"levelo://app?vid=aa684a67-30e0-4d6c-aade-b91dfad2e9a2","ios":"levelo://app?vid=aa684a67-30e0-4d6c-aade-b91dfad2e9a2"},"vehicle_type_id":"4","last_reported":1723219808,"current_range_meters":0,"station_id":"ce4bhbh2rcd13ifvqepg","pricing_plan_id":"cebpf4jnsgd1na2vs0mg"},{"bike_id":"8fb6bc8d-dfab-4d9e-843c-1bb5212707cc","system_id":"levelo_inurba_marseille","lat":43.284219,"lon":5.3497,"is_reserved":false,"is_disabled":false,"rental_uris":{"android":"levelo://app?vid=8fb6bc8d-dfab-4d9e-843c-1bb5212707cc","ios":"levelo://app?vid=8fb6bc8d-dfab-4d9e-843c-1bb5212707cc"},"vehicle_type_id":"4","last_reported":1723219808,"current_range_meters":29200,"station_id":"ce4bhbh2rcd13ifvqepg","pricing_plan_id":"cebpf4jnsgd1na2vs0mg"},{"bike_id":"9b1d42ae-acd2-497c-b3fb-f68ba62530bf","system_id":"levelo_inurba_marseille","lat":43.28414,"lon":5.34997,"is_reserved":false,"is_disabled":false,"rental_uris":{"android":"levelo://app?vid=9b1d42ae-acd2-497c-b3fb-f68ba62530bf","ios":"levelo://app?vid=9b1d42ae-acd2-497c-b3fb-f68ba62530bf"},"vehicle_type_id":"4","last_reported":1723219808,"current_range_meters":31200,"station_id":"ce4bhbh2rcd13ifvqepg","pricing_plan_id":"cebpf4jnsgd1na2vs0mg"},{"bike_id":"14d55caf-cda7-4a0a-8a0b-aa9fe424fef4","system_id":"levelo_inurba_marseille","lat":43.28416,"lon":5.34987,"is_reserved":false,"is_disabled":false,"rental_uris":{"android":"levelo://app?vid=14d55caf-cda7-4a0a-8a0b-aa9fe424fef4","ios":"levelo://app?vid=14d55caf-cda7-4a0a-8a0b-aa9fe424fef4"},"vehicle_type_id":"4","last_reported":1723219808,"current_range_meters":14400,"station_id":"ce4bhbh2rcd13ifvqepg","pricing_plan_id":"cebpf4jnsgd1na2vs0mg"},{"bike_id":"93239807-cd92-4c27-91b1-f9acf649b653","system_id":"levelo_inurba_marseille","lat":43.28415,"lon":5.3499,"is_reserved":false,"is_disabled":false,"rental_uris":{"android":"levelo://app?vid=93239807-cd92-4c27-91b1-f9acf649b653","ios":"levelo://app?vid=93239807-cd92-4c27-91b1-f9acf649b653"},"vehicle_type_id":"4","last_reported":1723219808,"current_range_meters":2400,"station_id":"ce4bhbh2rcd13ifvqepg","pricing_plan_id":"cebpf4jnsgd1na2vs0mg"},{"bike_id":"cc5f563a-9faf-42aa-992e-124e889f04e3","system_id":"levelo_inurba_marseille","lat":43.284217,"lon":5.349697,"is_reserved":false,"is_disabled":false,"rental_uris":{"android":"levelo://app?vid=cc5f563a-9faf-42aa-992e-124e889f04e3","ios":"levelo://app?vid=cc5f563a-9faf-42aa-992e-124e889f04e3"},"vehicle_type_id":"4","last_reported":1723219808,"current_range_meters":15200,"station_id":"ce4bhbh2rcd13ifvqepg","pricing_plan_id":"cebpf4jnsgd1na2vs0mg"},{"bike_id":"d18c58ea-bd2b-415b-b7f1-ceff992ddd06","system_id":"levelo_inurba_marseille","lat":43.284219,"lon":5.3497,"is_reserved":false,"is_disabled":false,"rental_uris":{"android":"levelo://app?vid=d18c58ea-bd2b-415b-b7f1-ceff992ddd06","ios":"levelo://app?vid=d18c58ea-bd2b-415b-b7f1-ceff992ddd06"},"vehicle_type_id":"4","last_reported":1723219808,"current_range_meters":29600,"station_id":"ce4bhbh2rcd13ifvqepg","pricing_plan_id":"cebpf4jnsgd1na2vs0mg"},{"bike_id":"3d1709e8-5c47-45b7-b795-8c81e9886aa5","system_id":"levelo_inurba_marseille","lat":43.284219,"lon":5.3497,"is_reserved":false,"is_disabled":false,"rental_uris":{"android":"levelo://app?vid=3d1709e8-5c47-45b7-b795-8c81e9886aa5","ios":"levelo://app?vid=3d1709e8-5c47-45b7-b795-8c81e9886aa5"},"vehicle_type_id":"4","last_reported":1723219808,"current_range_meters":31200,"station_id":"ce4bhbh2rcd13ifvqepg","pricing_plan_id":"cebpf4jnsgd1na2vs0mg"},{"bike_id":"c92a65ae-d928-406b-b465-b00be7311d98","system_id":"levelo_inurba_marseille","lat":43.28414,"lon":5.34991,"is_reserved":false,"is_disabled":false,"rental_uris":{"android":"levelo://app?vid=c92a65ae-d928-406b-b465-b00be7311d98","ios":"levelo://app?vid=c92a65ae-d928-406b-b465-b00be7311d98"},"vehicle_type_id":"4","last_reported":1723219808,"current_range_meters":13600,"station_id":"ce4bhbh2rcd13ifvqepg","pricing_plan_id":"cebpf4jnsgd1na2vs0mg"},{"bike_id":"12e4675d-646e-4db7-80cd-badf54fc2c47","system_id":"levelo_inurba_marseille","lat":43.28413,"lon":5.34994,"is_reserved":false,"is_disabled":false,"rental_uris":{"android":"levelo://app?vid=12e4675d-646e-4db7-80cd-badf54fc2c47","ios":"levelo://app?vid=12e4675d-646e-4db7-80cd-badf54fc2c47"},"vehicle_type_id":"4","last_reported":1723219808,"current_range_meters":5200,"station_id":"ce4bhbh2rcd13ifvqepg","pricing_plan_id":"cebpf4jnsgd1na2vs0mg"},{"bike_id":"16ec1451-6fc2-4ddb-8500-e093eddb3c4e","system_id":"levelo_inurba_marseille","lat":43.284153,"lon":5.349861,"is_reserved":false,"is_disabled":false,"rental_uris":{"android":"levelo://app?vid=16ec1451-6fc2-4ddb-8500-e093eddb3c4e","ios":"levelo://app?vid=16ec1451-6fc2-4ddb-8500-e093eddb3c4e"},"vehicle_type_id":"4","last_reported":1723219808,"current_range_meters":16800,"station_id":"ce4bhbh2rcd13ifvqepg","pricing_plan_id":"cebpf4jnsgd1na2vs0mg"},{"bike_id":"f3e24bdd-1430-4d06-8dc6-b2a7c1ca9b9b","system_id":"levelo_inurba_marseille","lat":43.284214,"lon":5.349706,"is_reserved":false,"is_disabled":false,"rental_uris":{"android":"levelo://app?vid=f3e24bdd-1430-4d06-8dc6-b2a7c1ca9b9b","ios":"levelo://app?vid=f3e24bdd-1430-4d06-8dc6-b2a7c1ca9b9b"},"vehicle_type_id":"4","last_reported":1723219808,"current_range_meters":10800,"station_id":"ce4bhbh2rcd13ifvqepg","pricing_plan_id":"cebpf4jnsgd1na2vs0mg"},{"bike_id":"d89b611f-3312-4eab-be50-f09e5e60a495","system_id":"levelo_inurba_marseille","lat":43.284214,"lon":5.349706,"is_reserved":false,"is_disabled":false,"rental_uris":{"android":"levelo://app?vid=d89b611f-3312-4eab-be50-f09e5e60a495","ios":"levelo://app?vid=d89b611f-3312-4eab-be50-f09e5e60a495"},"vehicle_type_id":"4","last_reported":1723219808,"current_range_meters":22800,"station_id":"ce4bhbh2rcd13ifvqepg","pricing_plan_id":"cebpf4jnsgd1na2vs0mg"},{"bike_id":"609c7512-5cd9-4e32-b45c-a980e8d60cd1","system_id":"levelo_inurba_marseille","lat":43.284147,"lon":5.349823,"is_reserved":false,"is_disabled":false,"rental_uris":{"android":"levelo://app?vid=609c7512-5cd9-4e32-b45c-a980e8d60cd1","ios":"levelo://app?vid=609c7512-5cd9-4e32-b45c-a980e8d60cd1"},"vehicle_type_id":"4","last_reported":1723219808,"current_range_meters":21600,"station_id":"ce4bhbh2rcd13ifvqepg","pricing_plan_id":"cebpf4jnsgd1na2vs0mg"},{"bike_id":"a0ef5e47-5f28-4b9a-bdae-b8e7e656774b","system_id":"levelo_inurba_marseille","lat":43.284123,"lon":5.349855,"is_reserved":false,"is_disabled":false,"rental_uris":{"android":"levelo://app?vid=a0ef5e47-5f28-4b9a-bdae-b8e7e656774b","ios":"levelo://app?vid=a0ef5e47-5f28-4b9a-bdae-b8e7e656774b"},"vehicle_type_id":"4","last_reported":1723219808,"current_range_meters":22400,"station_id":"ce4bhbh2rcd13ifvqepg","pricing_plan_id":"cebpf4jnsgd1na2vs0mg"},{"bike_id":"cd5e952a-2de7-44d4-8e5f-9d812e2298ef","system_id":"levelo_inurba_marseille","lat":43.284214,"lon":5.349706,"is_reserved":false,"is_disabled":false,"rental_uris":{"android":"levelo://app?vid=cd5e952a-2de7-44d4-8e5f-9d812e2298ef","ios":"levelo://app?vid=cd5e952a-2de7-44d4-8e5f-9d812e2298ef"},"vehicle_type_id":"4","last_reported":1723219808,"current_range_meters":31200,"station_id":"ce4bhbh2rcd13ifvqepg","pricing_plan_id":"cebpf4jnsgd1na2vs0mg"},{"bike_id":"1088f428-8b13-4f00-bdca-bce3b4d137ed","system_id":"levelo_inurba_marseille","lat":43.284219,"lon":5.3497,"is_reserved":false,"is_disabled":false,"rental_uris":{"android":"levelo://app?vid=1088f428-8b13-4f00-bdca-bce3b4d137ed","ios":"levelo://app?vid=1088f428-8b13-4f00-bdca-bce3b4d137ed"},"vehicle_type_id":"4","last_reported":1723219808,"current_range_meters":26000,"station_id":"ce4bhbh2rcd13ifvqepg","pricing_plan_id":"cebpf4jnsgd1na2vs0mg"},{"bike_id":"9586ac5a-3942-4a00-95ef-c0d7f12e81b4","system_id":"levelo_inurba_marseille","lat":43.284217,"lon":5.349697,"is_reserved":false,"is_disabled":false,"rental_uris":{"android":"levelo://app?vid=9586ac5a-3942-4a00-95ef-c0d7f12e81b4","ios":"levelo://app?vid=9586ac5a-3942-4a00-95ef-c0d7f12e81b4"},"vehicle_type_id":"4","last_reported":1723219808,"current_range_meters":12400,"station_id":"ce4bhbh2rcd13ifvqepg","pricing_plan_id":"cebpf4jnsgd1na2vs0mg"},{"bike_id":"9d98019d-ed0b-4a63-b2e2-ad01a97d63a5","system_id":"levelo_inurba_marseille","lat":43.28415,"lon":5.34975,"is_reserved":false,"is_disabled":false,"rental_uris":{"android":"levelo://app?vid=9d98019d-ed0b-4a63-b2e2-ad01a97d63a5","ios":"levelo://app?vid=9d98019d-ed0b-4a63-b2e2-ad01a97d63a5"},"vehicle_type_id":"4","last_reported":1723219808,"current_range_meters":4800,"station_id":"ce4bhbh2rcd13ifvqepg","pricing_plan_id":"cebpf4jnsgd1na2vs0mg"},{"bike_id":"00e7158e-010a-441d-bd53-ce75b601cfa1","system_id":"levelo_inurba_marseille","lat":43.284114,"lon":5.349765,"is_reserved":false,"is_disabled":false,"rental_uris":{"android":"levelo://app?vid=00e7158e-010a-441d-bd53-ce75b601cfa1","ios":"levelo://app?vid=00e7158e-010a-441d-bd53-ce75b601cfa1"},"vehicle_type_id":"4","last_reported":1723219808,"current_range_meters":1200,"station_id":"ce4bhbh2rcd13ifvqepg","pricing_plan_id":"cebpf4jnsgd1na2vs0mg"},{"bike_id":"7f25f42f-9226-4326-a134-badd7a53f00a","system_id":"levelo_inurba_marseille","lat":43.2841,"lon":5.34976,"is_reserved":false,"is_disabled":false,"rental_uris":{"android":"levelo://app?vid=7f25f42f-9226-4326-a134-badd7a53f00a","ios":"levelo://app?vid=7f25f42f-9226-4326-a134-badd7a53f00a"},"vehicle_type_id":"4","last_reported":1723219808,"current_range_meters":20800,"station_id":"ce4bhbh2rcd13ifvqepg","pricing_plan_id":"cebpf4jnsgd1na2vs0mg"},{"bike_id":"d5b542e4-8945-4a19-a499-c32763061ff9","system_id":"levelo_inurba_marseille","lat":43.3346,"lon":5.39804,"is_reserved":false,"is_disabled":false,"rental_uris":{"android":"levelo://app?vid=d5b542e4-8945-4a19-a499-c32763061ff9","ios":"levelo://app?vid=d5b542e4-8945-4a19-a499-c32763061ff9"},"vehicle_type_id":"4","last_reported":1723219808,"current_range_meters":400,"station_id":"","pricing_plan_id":"cebpf4jnsgd1na2vs0mg"},{"bike_id":"274037fa-9ea9-4478-a370-454e9bd18d45","system_id":"levelo_inurba_marseille","lat":43.309926,"lon":5.41063,"is_reserved":false,"is_disabled":false,"rental_uris":{"android":"levelo://app?vid=274037fa-9ea9-4478-a370-454e9bd18d45","ios":"levelo://app?vid=274037fa-9ea9-4478-a370-454e9bd18d45"},"vehicle_type_id":"4","last_reported":1723219808,"current_range_meters":400,"station_id":"","pricing_plan_id":"cebpf4jnsgd1na2vs0mg"},{"bike_id":"73b24313-f3f8-466f-88f5-f6b13aa51ab3","system_id":"levelo_inurba_marseille","lat":43.292724,"lon":5.401131,"is_reserved":false,"is_disabled":false,"rental_uris":{"android":"levelo://app?vid=73b24313-f3f8-466f-88f5-f6b13aa51ab3","ios":"levelo://app?vid=73b24313-f3f8-466f-88f5-f6b13aa51ab3"},"vehicle_type_id":"4","last_reported":1723219808,"current_range_meters":800,"station_id":"ce4bh312rcd13ifvqdk0","pricing_plan_id":"cebpf4jnsgd1na2vs0mg"},{"bike_id":"835fee28-cc74-47aa-92b8-ec6315403962","system_id":"levelo_inurba_marseille","lat":43.292724,"lon":5.401131,"is_reserved":false,"is_disabled":false,"rental_uris":{"android":"levelo://app?vid=835fee28-cc74-47aa-92b8-ec6315403962","ios":"levelo://app?vid=835fee28-cc74-47aa-92b8-ec6315403962"},"vehicle_type_id":"4","last_reported":1723219808,"current_range_meters":4800,"station_id":"ce4bh312rcd13ifvqdk0","pricing_plan_id":"cebpf4jnsgd1na2vs0mg"},{"bike_id":"a544c5a6-5009-4151-961b-08a1502f9932","system_id":"levelo_inurba_marseille","lat":43.28284,"lon":5.35077,"is_reserved":false,"is_disabled":false,"rental_uris":{"android":"levelo://app?vid=a544c5a6-5009-4151-961b-08a1502f9932","ios":"levelo://app?vid=a544c5a6-5009-4151-961b-08a1502f9932"},"vehicle_type_id":"4","last_reported":1723219808,"current_range_meters":19200,"station_id":"ce4bhbp2rcd13ifvqerg","pricing_plan_id":"cebpf4jnsgd1na2vs0mg"},{"bike_id":"b0c327b8-f95b-4748-83d9-52dde89e3a67","system_id":"levelo_inurba_marseille","lat":43.282827,"lon":5.350713,"is_reserved":false,"is_disabled":false,"rental_uris":{"android":"levelo://app?vid=b0c327b8-f95b-4748-83d9-52dde89e3a67","ios":"levelo://app?vid=b0c327b8-f95b-4748-83d9-52dde89e3a67"},"vehicle_type_id":"4","last_reported":1723219808,"current_range_meters":2800,"station_id":"ce4bhbp2rcd13ifvqerg","pricing_plan_id":"cebpf4jnsgd1na2vs0mg"},{"bike_id":"d600c7b0-409a-4e4b-ad39-ad0170130de2","system_id":"levelo_inurba_marseille","lat":43.282754,"lon":5.350519,"is_reserved":false,"is_disabled":false,"rental_uris":{"android":"levelo://app?vid=d600c7b0-409a-4e4b-ad39-ad0170130de2","ios":"levelo://app?vid=d600c7b0-409a-4e4b-ad39-ad0170130de2"},"vehicle_type_id":"4","last_reported":1723219808,"current_range_meters":19600,"station_id":"ce4bhbp2rcd13ifvqerg","pricing_plan_id":"cebpf4jnsgd1na2vs0mg"},{"bike_id":"840bf7c9-6fe4-4d1b-bf0c-c1bc3462d9a5","system_id":"levelo_inurba_marseille","lat":43.28279,"lon":5.35068,"is_reserved":false,"is_disabled":false,"rental_uris":{"android":"levelo://app?vid=840bf7c9-6fe4-4d1b-bf0c-c1bc3462d9a5","ios":"levelo://app?vid=840bf7c9-6fe4-4d1b-bf0c-c1bc3462d9a5"},"vehicle_type_id":"4","last_reported":1723219808,"current_range_meters":0,"station_id":"ce4bhbp2rcd13ifvqerg","pricing_plan_id":"cebpf4jnsgd1na2vs0mg"},{"bike_id":"935dbd41-05af-48d0-b09d-2ed2da7d0489","system_id":"levelo_inurba_marseille","lat":43.28277,"lon":5.35072,"is_reserved":false,"is_disabled":false,"rental_uris":{"android":"levelo://app?vid=935dbd41-05af-48d0-b09d-2ed2da7d0489","ios":"levelo://app?vid=935dbd41-05af-48d0-b09d-2ed2da7d0489"},"vehicle_type_id":"4","last_reported":1723219808,"current_range_meters":6800,"station_id":"ce4bhbp2rcd13ifvqerg","pricing_plan_id":"cebpf4jnsgd1na2vs0mg"},{"bike_id":"b537e60e-63be-4f80-8c21-a86f9ec41120","system_id":"levelo_inurba_marseille","lat":43.28274,"lon":5.35074,"is_reserved":false,"is_disabled":false,"rental_uris":{"android":"levelo://app?vid=b537e60e-63be-4f80-8c21-a86f9ec41120","ios":"levelo://app?vid=b537e60e-63be-4f80-8c21-a86f9ec41120"},"vehicle_type_id":"4","last_reported":1723219808,"current_range_meters":1200,"station_id":"ce4bhbp2rcd13ifvqerg","pricing_plan_id":"cebpf4jnsgd1na2vs0mg"},{"bike_id":"eeffb70b-4560-448a-8377-01cd8df0f89f","system_id":"levelo_inurba_marseille","lat":43.28272,"lon":5.35075,"is_reserved":false,"is_disabled":false,"rental_uris":{"android":"levelo://app?vid=eeffb70b-4560-448a-8377-01cd8df0f89f","ios":"levelo://app?vid=eeffb70b-4560-448a-8377-01cd8df0f89f"},"vehicle_type_id":"4","last_reported":1723219808,"current_range_meters":0,"station_id":"ce4bhbp2rcd13ifvqerg","pricing_plan_id":"cebpf4jnsgd1na2vs0mg"},{"bike_id":"75eb6fbf-b1f7-4ed7-9071-dc2b43953c06","system_id":"levelo_inurba_marseille","lat":43.282754,"lon":5.350519,"is_reserved":false,"is_disabled":false,"rental_uris":{"android":"levelo://app?vid=75eb6fbf-b1f7-4ed7-9071-dc2b43953c06","ios":"levelo://app?vid=75eb6fbf-b1f7-4ed7-9071-dc2b43953c06"},"vehicle_type_id":"4","last_reported":1723219808,"current_range_meters":21200,"station_id":"ce4bhbp2rcd13ifvqerg","pricing_plan_id":"cebpf4jnsgd1na2vs0mg"},{"bike_id":"87e030b2-762b-4368-ac7c-439798f6d57f","system_id":"levelo_inurba_marseille","lat":43.28269,"lon":5.35082,"is_reserved":false,"is_disabled":false,"rental_uris":{"android":"levelo://app?vid=87e030b2-762b-4368-ac7c-439798f6d57f","ios":"levelo://app?vid=87e030b2-762b-4368-ac7c-439798f6d57f"},"vehicle_type_id":"4","last_reported":1723219808,"current_range_meters":23200,"station_id":"ce4bhbp2rcd13ifvqerg","pricing_plan_id":"cebpf4jnsgd1na2vs0mg"},{"bike_id":"bf6503b5-5ada-4de1-ab06-9f2272997bfd","system_id":"levelo_inurba_marseille","lat":43.28273,"lon":5.35067,"is_reserved":false,"is_disabled":false,"rental_uris":{"android":"levelo://app?vid=bf6503b5-5ada-4de1-ab06-9f2272997bfd","ios":"levelo://app?vid=bf6503b5-5ada-4de1-ab06-9f2272997bfd"},"vehicle_type_id":"4","last_reported":1723219808,"current_range_meters":0,"station_id":"ce4bhbp2rcd13ifvqerg","pricing_plan_id":"cebpf4jnsgd1na2vs0mg"},{"bike_id":"63f79a46-e15c-4664-9781-4713239ac93f","system_id":"levelo_inurba_marseille","lat":43.2827,"lon":5.35072,"is_reserved":false,"is_disabled":false,"rental_uris":{"android":"levelo://app?vid=63f79a46-e15c-4664-9781-4713239ac93f","ios":"levelo://app?vid=63f79a46-e15c-4664-9781-4713239ac93f"},"vehicle_type_id":"4","last_reported":1723219808,"current_range_meters":0,"station_id":"ce4bhbp2rcd13ifvqerg","pricing_plan_id":"cebpf4jnsgd1na2vs0mg"},{"bike_id":"e724013e-7337-4677-ab6a-12cd11290c82","system_id":"levelo_inurba_marseille","lat":43.282754,"lon":5.350519,"is_reserved":false,"is_disabled":false,"rental_uris":{"android":"levelo://app?vid=e724013e-7337-4677-ab6a-12cd11290c82","ios":"levelo://app?vid=e724013e-7337-4677-ab6a-12cd11290c82"},"vehicle_type_id":"4","last_reported":1723219808,"current_range_meters":17200,"station_id":"ce4bhbp2rcd13ifvqerg","pricing_plan_id":"cebpf4jnsgd1na2vs0mg"},{"bike_id":"11d6c64f-bdd1-46a9-8a58-ec1986b3dff4","system_id":"levelo_inurba_marseille","lat":43.28266,"lon":5.35076,"is_reserved":false,"is_disabled":false,"rental_uris":{"android":"levelo://app?vid=11d6c64f-bdd1-46a9-8a58-ec1986b3dff4","ios":"levelo://app?vid=11d6c64f-bdd1-46a9-8a58-ec1986b3dff4"},"vehicle_type_id":"4","last_reported":1723219808,"current_range_meters":0,"station_id":"ce4bhbp2rcd13ifvqerg","pricing_plan_id":"cebpf4jnsgd1na2vs0mg"},{"bike_id":"6d00edf5-bfd4-40b6-972b-7f010ad9063e","system_id":"levelo_inurba_marseille","lat":43.283502,"lon":5.386471,"is_reserved":false,"is_disabled":false,"rental_uris":{"android":"levelo://app?vid=6d00edf5-bfd4-40b6-972b-7f010ad9063e","ios":"levelo://app?vid=6d00edf5-bfd4-40b6-972b-7f010ad9063e"},"vehicle_type_id":"4","last_reported":1723219808,"current_range_meters":26000,"station_id":"ce4bh492rcd13ifvqdvg","pricing_plan_id":"cebpf4jnsgd1na2vs0mg"},{"bike_id":"f70272a5-6477-4f08-8b6e-5bd1232b7d25","system_id":"levelo_inurba_marseille","lat":43.283502,"lon":5.386471,"is_reserved":false,"is_disabled":false,"rental_uris":{"android":"levelo://app?vid=f70272a5-6477-4f08-8b6e-5bd1232b7d25","ios":"levelo://app?vid=f70272a5-6477-4f08-8b6e-5bd1232b7d25"},"vehicle_type_id":"4","last_reported":1723219808,"current_range_meters":1600,"station_id":"ce4bh492rcd13ifvqdvg","pricing_plan_id":"cebpf4jnsgd1na2vs0mg"},{"bike_id":"7d5a0ba9-4554-43d9-b7c8-a71903f46571","system_id":"levelo_inurba_marseille","lat":43.283502,"lon":5.386471,"is_reserved":false,"is_disabled":false,"rental_uris":{"android":"levelo://app?vid=7d5a0ba9-4554-43d9-b7c8-a71903f46571","ios":"levelo://app?vid=7d5a0ba9-4554-43d9-b7c8-a71903f46571"},"vehicle_type_id":"4","last_reported":1723219808,"current_range_meters":6800,"station_id":"ce4bh492rcd13ifvqdvg","pricing_plan_id":"cebpf4jnsgd1na2vs0mg"},{"bike_id":"b82985f0-d82a-4e54-be8c-7b899ecd0940","system_id":"levelo_inurba_marseille","lat":43.28039,"lon":5.369297,"is_reserved":false,"is_disabled":false,"rental_uris":{"android":"levelo://app?vid=b82985f0-d82a-4e54-be8c-7b899ecd0940","ios":"levelo://app?vid=b82985f0-d82a-4e54-be8c-7b899ecd0940"},"vehicle_type_id":"4","last_reported":1723219808,"current_range_meters":24800,"station_id":"ce4bha12rcd13ifvqef0","pricing_plan_id":"cebpf4jnsgd1na2vs0mg"},{"bike_id":"538b1d3a-bc62-48d7-9acb-682f5e26c3b0","system_id":"levelo_inurba_marseille","lat":43.280382,"lon":5.369291,"is_reserved":false,"is_disabled":false,"rental_uris":{"android":"levelo://app?vid=538b1d3a-bc62-48d7-9acb-682f5e26c3b0","ios":"levelo://app?vid=538b1d3a-bc62-48d7-9acb-682f5e26c3b0"},"vehicle_type_id":"4","last_reported":1723219808,"current_range_meters":14400,"station_id":"ce4bha12rcd13ifvqef0","pricing_plan_id":"cebpf4jnsgd1na2vs0mg"},{"bike_id":"96cdadca-52c9-41a1-80fb-78718365ff12","system_id":"levelo_inurba_marseille","lat":43.281044,"lon":5.378308,"is_reserved":false,"is_disabled":false,"rental_uris":{"android":"levelo://app?vid=96cdadca-52c9-41a1-80fb-78718365ff12","ios":"levelo://app?vid=96cdadca-52c9-41a1-80fb-78718365ff12"},"vehicle_type_id":"4","last_reported":1723219808,"current_range_meters":20400,"station_id":"ce4bha12rcd13ifvqee0","pricing_plan_id":"cebpf4jnsgd1na2vs0mg"},{"bike_id":"e2a0cfcf-161e-404e-8339-94f89f11b32a","system_id":"levelo_inurba_marseille","lat":43.281044,"lon":5.378308,"is_reserved":false,"is_disabled":false,"rental_uris":{"android":"levelo://app?vid=e2a0cfcf-161e-404e-8339-94f89f11b32a","ios":"levelo://app?vid=e2a0cfcf-161e-404e-8339-94f89f11b32a"},"vehicle_type_id":"4","last_reported":1723219808,"current_range_meters":4800,"station_id":"ce4bha12rcd13ifvqee0","pricing_plan_id":"cebpf4jnsgd1na2vs0mg"},{"bike_id":"89e3b2e9-17c9-4713-8f15-b2f8d1151597","system_id":"levelo_inurba_marseille","lat":43.28573,"lon":5.394992,"is_reserved":false,"is_disabled":false,"rental_uris":{"android":"levelo://app?vid=89e3b2e9-17c9-4713-8f15-b2f8d1151597","ios":"levelo://app?vid=89e3b2e9-17c9-4713-8f15-b2f8d1151597"},"vehicle_type_id":"4","last_reported":1723219808,"current_range_meters":3600,"station_id":"ce4bh292rcd13ifvqdg0","pricing_plan_id":"cebpf4jnsgd1na2vs0mg"},