{"last_updated":1690650289,"ttl":30,"version":"2.2","data":{"bikes":[{"bike_id":"cfb186af-3014-4ad7-b593-797b1a3ee359","system_id":"levelo_inurba_marseille","lat":43.313391,"lon":5.36706,"is_reserved":false,"is_disabled":false,"rental_uris":{"android":"levelo://app?vid=cfb186af-3014-4ad7-b593-797b1a3ee359","ios":"levelo://app?vid=cfb186af-3014-4ad7-b593-797b1a3ee359"},"vehicle_type_id":"4","last_reported":1690650290,"current_range_meters":31200,"station_id":"ce4bgr92rcd13ifvqc6g","pricing_plan_id":"free"},{"bike_id":"6919b2c8-2aaa-4cc0-a7fd-1815057bf249","system_id":"levelo_inurba_marseille","lat":43.31341,"lon":5.367098,"is_reserved":false,"is_disabled":false,"rental_uris":{"android":"levelo://app?vid=6919b2c8-2aaa-4cc0-a7fd-1815057bf249","ios":"levelo://app?vid=6919b2c8-2aaa-4cc0-a7fd-1815057bf249"},"vehicle_type_id":"4","last_reported":1690650290,"current_range_meters":30000,"station_id":"ce4bgr92rcd13ifvqc6g","pricing_plan_id":"free"},{"bike_id":"96728249-39f7-4740-81be-01ce45f0a0b2","system_id":"levelo_inurba_marseille","lat":43.313391,"lon":5.36706,"is_reserved":false,"is_disabled":false,"rental_uris":{"android":"levelo://app?vid=96728249-39f7-4740-81be-01ce45f0a0b2","ios":"levelo://app?vid=96728249-39f7-4740-81be-01ce45f0a0b2"},"vehicle_type_id":"4","last_reported":1690650290,"current_range_meters":30400,"station_id":"ce4bgr92rcd13ifvqc6g","pricing_plan_id":"free"},{"bike_id":"2a64066a-89f5-482f-b660-4a96f3b7764b","system_id":"levelo_inurba_marseille","lat":43.312239,"lon":5.368562,"is_reserved":false,"is_disabled":false,"rental_uris":{"android":"levelo://app?vid=2a64066a-89f5-482f-b660-4a96f3b7764b","ios":"levelo://app?vid=2a64066a-89f5-482f-b660-4a96f3b7764b"},"vehicle_type_id":"4","last_reported":1690650290,"current_range_meters":18000,"station_id":"ce4bgl92rcd13ifvqbq0","pricing_plan_id":"free"},{"bike_id":"0ff66791-6bc9-4af5-a447-38ebba77f167","system_id":"levelo_inurba_marseille","lat":43.3123,"lon":5.36864,"is_reserved":false,"is_disabled":false,"rental_uris":{"android":"levelo://app?vid=0ff66791-6bc9-4af5-a447-38ebba77f167","ios":"levelo://app?vid=0ff66791-6bc9-4af5-a447-38ebba77f167"},"vehicle_type_id":"4","last_reported":1690650290,"current_range_meters":13200,"station_id":"ce4bgl92rcd13ifvqbq0","pricing_plan_id":"free"},{"bike_id":"e526d4e2-849c-44ae-a0d7-5572a62df909","system_id":"levelo_inurba_marseille","lat":43.31225,"lon":5.36872,"is_reserved":false,"is_disabled":false,"rental_uris":{"android":"levelo://app?vid=e526d4e2-849c-44ae-a0d7-5572a62df909","ios":"levelo://app?vid=e526d4e2-849c-44ae-a0d7-5572a62df909"},"vehicle_type_id":"4","last_reported":1690650290,"current_range_meters":27600,"station_id":"ce4bgl92rcd13ifvqbq0","pricing_plan_id":"free"},{"bike_id":"4e55bb98-4735-4fba-814d-5ce42caa0523","system_id":"levelo_inurba_marseille","lat":43.309076,"lon":5.368465,"is_reserved":false,"is_disabled":false,"rental_uris":{"android":"levelo://app?vid=4e55bb98-4735-4fba-814d-5ce42caa0523","ios":"levelo://app?vid=4e55bb98-4735-4fba-814d-5ce42caa0523"},"vehicle_type_id":"4","last_reported":1690650290,"current_range_meters":28800,"station_id":"ce4bgn92rcd13ifvqbvg","pricing_plan_id":"free"},{"bike_id":"a474ad3f-1c02-4bd4-8cef-0ae48efcfa15","system_id":"levelo_inurba_marseille","lat":43.31487,"lon":5.37304,"is_reserved":false,"is_disabled":false,"rental_uris":{"android":"levelo://app?vid=a474ad3f-1c02-4bd4-8cef-0ae48efcfa15","ios":"levelo://app?vid=a474ad3f-1c02-4bd4-8cef-0ae48efcfa15"},"vehicle_type_id":"4","last_reported":1690650290,"current_range_meters":31200,"station_id":"ce4bgt12rcd13ifvqcd0","pricing_plan_id":"free"},{"bike_id":"b82576a2-e0bc-4a01-9fe4-31b488946cb5","system_id":"levelo_inurba_marseille","lat":43.31496,"lon":5.3731,"is_reserved":false,"is_disabled":false,"rental_uris":{"android":"levelo://app?vid=b82576a2-e0bc-4a01-9fe4-31b488946cb5","ios":"levelo://app?vid=b82576a2-e0bc-4a01-9fe4-31b488946cb5"},"vehicle_type_id":"4","last_reported":1690650290,"current_range_meters":29600,"station_id":"ce4bgt12rcd13ifvqcd0","pricing_plan_id":"free"},{"bike_id":"e8106915-e6ff-4cb2-9779-92d6e9390aed","system_id":"levelo_inurba_marseille","lat":43.315,"lon":5.37309,"is_reserved":false,"is_disabled":false,"rental_uris":{"android":"levelo://app?vid=e8106915-e6ff-4cb2-9779-92d6e9390aed","ios":"levelo://app?vid=e8106915-e6ff-4cb2-9779-92d6e9390aed"},"vehicle_type_id":"4","last_reported":1690650290,"current_range_meters":8400,"station_id":"ce4bgt12rcd13ifvqcd0","pricing_plan_id":"free"},{"bike_id":"5cf8e82b-5121-4436-b59c-fbea86df3a57","system_id":"levelo_inurba_marseille","lat":43.31556,"lon":5.373,"is_reserved":false,"is_disabled":false,"rental_uris":{"android":"levelo://app?vid=5cf8e82b-5121-4436-b59c-fbea86df3a57","ios":"levelo://app?vid=5cf8e82b-5121-4436-b59c-fbea86df3a57"},"vehicle_type_id":"4","last_reported":1690650290,"current_range_meters":20400,"station_id":"","pricing_plan_id":"free"},{"bike_id":"9650b008-4490-4ff5-ae94-091d9abc7a1b","system_id":"levelo_inurba_marseille","lat":43.305714,"lon":5.365633,"is_reserved":false,"is_disabled":false,"rental_uris":{"android":"levelo://app?vid=9650b008-4490-4ff5-ae94-091d9abc7a1b","ios":"levelo://app?vid=9650b008-4490-4ff5-ae94-091d9abc7a1b"},"vehicle_type_id":"4","last_reported":1690650290,"current_range_meters":8400,"station_id":"ce4bgs12rcd13ifvqcag","pricing_plan_id":"free"},{"bike_id":"3952bc95-72d9-4563-944c-75230ffeb9b2","system_id":"levelo_inurba_marseille","lat":43.305706,"lon":5.365654,"is_reserved":false,"is_disabled":false,"rental_uris":{"android":"levelo://app?vid=3952bc95-72d9-4563-944c-75230ffeb9b2","ios":"levelo://app?vid=3952bc95-72d9-4563-944c-75230ffeb9b2"},"vehicle_type_id":"4","last_reported":1690650290,"current_range_meters":0,"station_id":"ce4bgs12rcd13ifvqcag","pricing_plan_id":"free"},{"bike_id":"8e516cc0-7fe6-4f13-9d72-a31df806f2f8","system_id":"levelo_inurba_marseille","lat":43.305706,"lon":5.365654,"is_reserved":false,"is_disabled":false,"rental_uris":{"android":"levelo://app?vid=8e516cc0-7fe6-4f13-9d72-a31df806f2f8","ios":"levelo://app?vid=8e516cc0-7fe6-4f13-9d72-a31df806f2f8"},"vehicle_type_id":"4","last_reported":1690650290,"current_range_meters":19600,"station_id":"ce4bgs12rcd13ifvqcag","pricing_plan_id":"free"},{"bike_id":"a5de3f80-3041-43ed-bb8e-83f733cbc658","system_id":"levelo_inurba_marseille","lat":43.305368,"lon":5.367343,"is_reserved":false,"is_disabled":false,"rental_uris":{"android":"levelo://app?vid=a5de3f80-3041-43ed-bb8e-83f733cbc658","ios":"levelo://app?vid=a5de3f80-3041-43ed-bb8e-83f733cbc658"},"vehicle_type_id":"4","last_reported":1690650290,"current_range_meters":11600,"station_id":"ce4bgrp2rcd13ifvqc9g","pricing_plan_id":"free"},{"bike_id":"56c88522-a5ff-407a-b358-a618c8727ef1","system_id":"levelo_inurba_marseille","lat":43.305706,"lon":5.365654,"is_reserved":false,"is_disabled":false,"rental_uris":{"android":"levelo://app?vid=56c88522-a5ff-407a-b358-a618c8727ef1","ios":"levelo://app?vid=56c88522-a5ff-407a-b358-a618c8727ef1"},"vehicle_type_id":"4","last_reported":1690650290,"current_range_meters":28000,"station_id":"ce4bgs12rcd13ifvqcag","pricing_plan_id":"free"},{"bike_id":"01de37c3-b0e3-48aa-afd8-bd5077f9b6ef","system_id":"levelo_inurba_marseille","lat":43.305989,"lon":5.37225,"is_reserved":false,"is_disabled":false,"rental_uris":{"android":"levelo://app?vid=01de37c3-b0e3-48aa-afd8-bd5077f9b6ef","ios":"levelo://app?vid=01de37c3-b0e3-48aa-afd8-bd5077f9b6ef"},"vehicle_type_id":"4","last_reported":1690650290,"current_range_meters":8400,"station_id":"ce4bgqh2rcd13ifvqc4g","pricing_plan_id":"free"},{"bike_id":"f20ea888-8740-440b-bfeb-8eb2a7c1f652","system_id":"levelo_inurba_marseille","lat":43.305989,"lon":5.37225,"is_reserved":false,"is_disabled":false,"rental_uris":{"android":"levelo://app?vid=f20ea888-8740-440b-bfeb-8eb2a7c1f652","ios":"levelo://app?vid=f20ea888-8740-440b-bfeb-8eb2a7c1f652"},"vehicle_type_id":"4","last_reported":1690650290,"current_range_meters":29200,"station_id":"ce4bgqh2rcd13ifvqc4g","pricing_plan_id":"free"},{"bike_id":"a7179103-bd9e-43d9-8a6b-799f0b28947b","system_id":"levelo_inurba_marseille","lat":43.311131,"lon":5.377651,"is_reserved":false,"is_disabled":false,"rental_uris":{"android":"levelo://app?vid=a7179103-bd9e-43d9-8a6b-799f0b28947b","ios":"levelo://app?vid=a7179103-bd9e-43d9-8a6b-799f0b28947b"},"vehicle_type_id":"4","last_reported":1690650290,"current_range_meters":26000,"station_id":"ce4bgt92rcd13ifvqcg0","pricing_plan_id":"free"},{"bike_id":"6b4d7a96-dea8-4751-80d0-c260f6006869","system_id":"levelo_inurba_marseille","lat":43.311125,"lon":5.377624,"is_reserved":false,"is_disabled":false,"rental_uris":{"android":"levelo://app?vid=6b4d7a96-dea8-4751-80d0-c260f6006869","ios":"levelo://app?vid=6b4d7a96-dea8-4751-80d0-c260f6006869"},"vehicle_type_id":"4","last_reported":1690650290,"current_range_meters":18400,"station_id":"ce4bgt92rcd13ifvqcg0","pricing_plan_id":"free"},{"bike_id":"20c56900-55ac-42a6-9423-6aaa422ab9b2","system_id":"levelo_inurba_marseille","lat":43.311131,"lon":5.377651,"is_reserved":false,"is_disabled":false,"rental_uris":{"android":"levelo://app?vid=20c56900-55ac-42a6-9423-6aaa422ab9b2","ios":"levelo://app?vid=20c56900-55ac-42a6-9423-6aaa422ab9b2"},"vehicle_type_id":"4","last_reported":1690650290,"current_range_meters":29600,"station_id":"ce4bgt92rcd13ifvqcg0","pricing_plan_id":"free"},{"bike_id":"ec94505f-3139-4373-8e0d-97b9df42b605","system_id":"levelo_inurba_marseille","lat":43.30795,"lon":5.37641,"is_reserved":false,"is_disabled":false,"rental_uris":{"android":"levelo://app?vid=ec94505f-3139-4373-8e0d-97b9df42b605","ios":"levelo://app?vid=ec94505f-3139-4373-8e0d-97b9df42b605"},"vehicle_type_id":"4","last_reported":1690650290,"current_range_meters":16000,"station_id":"ce4bgv92rcd13ifvqcq0","pricing_plan_id":"free"},{"bike_id":"4e9ce199-97b7-4738-8ca8-7d142b671092","system_id":"levelo_inurba_marseille","lat":43.317075,"lon":5.377367,"is_reserved":false,"is_disabled":false,"rental_uris":{"android":"levelo://app?vid=4e9ce199-97b7-4738-8ca8-7d142b671092","ios":"levelo://app?vid=4e9ce199-97b7-4738-8ca8-7d142b671092"},"vehicle_type_id":"4","last_reported":1690650290,"current_range_meters":24000,"station_id":"ce4bgth2rcd13ifvqch0","pricing_plan_id":"free"},{"bike_id":"f2f804a2-cd8f-4ead-82dc-29a77c1e036f","system_id":"levelo_inurba_marseille","lat":43.317075,"lon":5.377367,"is_reserved":false,"is_disabled":false,"rental_uris":{"android":"levelo://app?vid=f2f804a2-cd8f-4ead-82dc-29a77c1e036f","ios":"levelo://app?vid=f2f804a2-cd8f-4ead-82dc-29a77c1e036f"},"vehicle_type_id":"4","last_reported":1690650290,"current_range_meters":13200,"station_id":"ce4bgth2rcd13ifvqch0","pricing_plan_id":"free"},{"bike_id":"2aa6be64-bf3e-4b13-b0cb-6a0c4ef23979","system_id":"levelo_inurba_marseille","lat":43.317075,"lon":5.377367,"is_reserved":false,"is_disabled":false,"rental_uris":{"android":"levelo://app?vid=2aa6be64-bf3e-4b13-b0cb-6a0c4ef23979","ios":"levelo://app?vid=2aa6be64-bf3e-4b13-b0cb-6a0c4ef23979"},"vehicle_type_id":"4","last_reported":1690650290,"current_range_meters":31200,"station_id":"ce4bgth2rcd13ifvqch0","pricing_plan_id":"free"},{"bike_id":"54e8bbd0-88aa-4ddb-a483-d897b5ef40d7","system_id":"levelo_inurba_marseille","lat":43.317075,"lon":5.377367,"is_reserved":false,"is_disabled":false,"rental_uris":{"android":"levelo://app?vid=54e8bbd0-88aa-4ddb-a483-d897b5ef40d7","ios":"levelo://app?vid=54e8bbd0-88aa-4ddb-a483-d897b5ef40d7"},"vehicle_type_id":"4","last_reported":1690650290,"current_range_meters":26000,"station_id":"ce4bgth2rcd13ifvqch0","pricing_plan_id":"free"},{"bike_id":"3b69d8cb-a3e6-4b29-b50f-b8548dcc2195","system_id":"levelo_inurba_marseille","lat":43.317075,"lon":5.377367,"is_reserved":false,"is_disabled":false,"rental_uris":{"android":"levelo://app?vid=3b69d8cb-a3e6-4b29-b50f-b8548dcc2195","ios":"levelo://app?vid=3b69d8cb-a3e6-4b29-b50f-b8548dcc2195"},"vehicle_type_id":"4","last_reported":1690650290,"current_range_meters":12400,"station_id":"ce4bgth2rcd13ifvqch0","pricing_plan_id":"free"},{"bike_id":"d8ac299b-7b85-4e93-8aa7-2e6be63e5689","system_id":"levelo_inurba_marseille","lat":43.317075,"lon":5.377367,"is_reserved":false,"is_disabled":false,"rental_uris":{"android":"levelo://app?vid=d8ac299b-7b85-4e93-8aa7-2e6be63e5689","ios":"levelo://app?vid=d8ac299b-7b85-4e93-8aa7-2e6be63e5689"},"vehicle_type_id":"4","last_reported":1690650290,"current_range_meters":31200,"station_id":"ce4bgth2rcd13ifvqch0","pricing_plan_id":"free"},{"bike_id":"19f08f2b-e2c5-45aa-b1a4-e2d3edfdf669","system_id":"levelo_inurba_marseille","lat":43.317075,"lon":5.377367,"is_reserved":false,"is_disabled":false,"rental_uris":{"android":"levelo://app?vid=19f08f2b-e2c5-45aa-b1a4-e2d3edfdf669","ios":"levelo://app?vid=19f08f2b-e2c5-45aa-b1a4-e2d3edfdf669"},"vehicle_type_id":"4","last_reported":1690650290,"current_range_meters":14800,"station_id":"ce4bgth2rcd13ifvqch0","pricing_plan_id":"free"},{"bike_id":"2b10d2b7-543f-409f-823b-1d9a1a93e071","system_id":"levelo_inurba_marseille","lat":43.311125,"lon":5.377624,"is_reserved":false,"is_disabled":false,"rental_uris":{"android":"levelo://app?vid=2b10d2b7-543f-409f-823b-1d9a1a93e071","ios":"levelo://app?vid=2b10d2b7-543f-409f-823b-1d9a1a93e071"},"vehicle_type_id":"4","last_reported":1690650290,"current_range_meters":4000,"station_id":"ce4bgt92rcd13ifvqcg0","pricing_plan_id":"free"},{"bike_id":"b9b8509c-bd5c-4d88-b797-44567bfff3d4","system_id":"levelo_inurba_marseille","lat":43.301939,"lon":5.366286,"is_reserved":false,"is_disabled":false,"rental_uris":{"android":"levelo://app?vid=b9b8509c-bd5c-4d88-b797-44567bfff3d4","ios":"levelo://app?vid=b9b8509c-bd5c-4d88-b797-44567bfff3d4"},"vehicle_type_id":"4","last_reported":1690650290,"current_range_meters":23600,"station_id":"ce4bgrh2rcd13ifvqc8g","pricing_plan_id":"free"},{"bike_id":"8a3ecf3f-7609-47ff-926e-d1d159cdc32b","system_id":"levelo_inurba_marseille","lat":43.311125,"lon":5.377624,"is_reserved":false,"is_disabled":false,"rental_uris":{"android":"levelo://app?vid=8a3ecf3f-7609-47ff-926e-d1d159cdc32b","ios":"levelo://app?vid=8a3ecf3f-7609-47ff-926e-d1d159cdc32b"},"vehicle_type_id":"4","last_reported":1690650290,"current_range_meters":16400,"station_id":"ce4bgt92rcd13ifvqcg0","pricing_plan_id":"free"},{"bike_id":"86c4bfbd-cb44-44b4-8f42-df20db2241ad","system_id":"levelo_inurba_marseille","lat":43.304606,"lon":5.379026,"is_reserved":false,"is_disabled":false,"rental_uris":{"android":"levelo://app?vid=86c4bfbd-cb44-44b4-8f42-df20db2241ad","ios":"levelo://app?vid=86c4bfbd-cb44-44b4-8f42-df20db2241ad"},"vehicle_type_id":"4","last_reported":1690650290,"current_range_meters":10800,"station_id":"ce4bgup2rcd13ifvqcn0","pricing_plan_id":"free"},{"bike_id":"b60b71a1-7215-4125-8bae-d72b912b0efa","system_id":"levelo_inurba_marseille","lat":43.302784,"lon":5.377158,"is_reserved":false,"is_disabled":false,"rental_uris":{"android":"levelo://app?vid=b60b71a1-7215-4125-8bae-d72b912b0efa","ios":"levelo://app?vid=b60b71a1-7215-4125-8bae-d72b912b0efa"},"vehicle_type_id":"4","last_reported":1690650290,"current_range_meters":13200,"station_id":"ce4bguh2rcd13ifvqcj0","pricing_plan_id":"free"},{"bike_id":"311741f3-6722-4bc5-a475-91c68824b4b2","system_id":"levelo_inurba_marseille","lat":43.30138,"lon":5.37421,"is_reserved":false,"is_disabled":false,"rental_uris":{"android":"levelo://app?vid=311741f3-6722-4bc5-a475-91c68824b4b2","ios":"levelo://app?vid=311741f3-6722-4bc5-a475-91c68824b4b2"},"vehicle_type_id":"4","last_reported":1690650290,"current_range_meters":7200,"station_id":"ce4bgs92rcd13ifvqcc0","pricing_plan_id":"free"},{"bike_id":"45bdbdc2-63b4-4cb5-b62f-4c38d5e82698","system_id":"levelo_inurba_marseille","lat":43.302784,"lon":5.377158,"is_reserved":false,"is_disabled":false,"rental_uris":{"android":"levelo://app?vid=45bdbdc2-63b4-4cb5-b62f-4c38d5e82698","ios":"levelo://app?vid=45bdbdc2-63b4-4cb5-b62f-4c38d5e82698"},"vehicle_type_id":"4","last_reported":1690650290,"current_range_meters":18000,"station_id":"ce4bguh2rcd13ifvqcj0","pricing_plan_id":"free"},{"bike_id":"dbbef295-2a0e-4b4b-8640-a9d635922a37","system_id":"levelo_inurba_marseille","lat":43.313571,"lon":5.384829,"is_reserved":false,"is_disabled":false,"rental_uris":{"android":"levelo://app?vid=dbbef295-2a0e-4b4b-8640-a9d635922a37","ios":"levelo://app?vid=dbbef295-2a0e-4b4b-8640-a9d635922a37"},"vehicle_type_id":"4","last_reported":1690650290,"current_range_meters":20800,"station_id":"ce4bgt92rcd13ifvqcf0","pricing_plan_id":"free"},{"bike_id":"899a587a-329a-402a-b7f0-8dfa61fcc4b5","system_id":"levelo_inurba_marseille","lat":43.299222,"lon":5.365554,"is_reserved":false,"is_disabled":false,"rental_uris":{"android":"levelo://app?vid=899a587a-329a-402a-b7f0-8dfa61fcc4b5","ios":"levelo://app?vid=899a587a-329a-402a-b7f0-8dfa61fcc4b5"},"vehicle_type_id":"4","last_reported":1690650290,"current_range_meters":20000,"station_id":"ce4bgm92rcd13ifvqbr0","pricing_plan_id":"free"},{"bike_id":"30537d43-af02-4a10-b928-7b9b8cf633d2","system_id":"levelo_inurba_marseille","lat":43.30528,"lon":5.38427,"is_reserved":false,"is_disabled":false,"rental_uris":{"android":"levelo://app?vid=30537d43-af02-4a10-b928-7b9b8cf633d2","ios":"levelo://app?vid=30537d43-af02-4a10-b928-7b9b8cf633d2"},"vehicle_type_id":"4","last_reported":1690650290,"current_range_meters":31200,"station_id":"ce4bgg92rcd13ifvqb30","pricing_plan_id":"free"},{"bike_id":"f3647de1-8a36-4d9b-8b9d-1de679f7ec27","system_id":"levelo_inurba_marseille","lat":43.298433,"lon":5.362774,"is_reserved":false,"is_disabled":false,"rental_uris":{"android":"levelo://app?vid=f3647de1-8a36-4d9b-8b9d-1de679f7ec27","ios":"levelo://app?vid=f3647de1-8a36-4d9b-8b9d-1de679f7ec27"},"vehicle_type_id":"4","last_reported":1690650290,"current_range_meters":5600,"station_id":"ce4bgpp2rcd13ifvqc3g","pricing_plan_id":"free"},{"bike_id":"c711f1e9-0ad6-4ad4-86e6-11e44320ef88","system_id":"levelo_inurba_marseille","lat":43.311722,"lon":5.387247,"is_reserved":false,"is_disabled":false,"rental_uris":{"android":"levelo://app?vid=c711f1e9-0ad6-4ad4-86e6-11e44320ef88","ios":"levelo://app?vid=c711f1e9-0ad6-4ad4-86e6-11e44320ef88"},"vehicle_type_id":"4","last_reported":1690650290,"current_range_meters":24000,"station_id":"ce4bgv12rcd13ifvqcp0","pricing_plan_id":"free"},{"bike_id":"24c6882a-a380-4067-b5af-858811ab87c3","system_id":"levelo_inurba_marseille","lat":43.311722,"lon":5.387247,"is_reserved":false,"is_disabled":false,"rental_uris":{"android":"levelo://app?vid=24c6882a-a380-4067-b5af-858811ab87c3","ios":"levelo://app?vid=24c6882a-a380-4067-b5af-858811ab87c3"},"vehicle_type_id":"4","last_reported":1690650290,"current_range_meters":4400,"station_id":"ce4bgv12rcd13ifvqcp0","pricing_plan_id":"free"},{"bike_id":"ef38c065-f553-49d0-b5ab-fe9bb879dcf9","system_id":"levelo_inurba_marseille","lat":43.297774,"lon":5.370875,"is_reserved":false,"is_disabled":false,"rental_uris":{"android":"levelo://app?vid=ef38c065-f553-49d0-b5ab-fe9bb879dcf9","ios":"levelo://app?vid=ef38c065-f553-49d0-b5ab-fe9bb879dcf9"},"vehicle_type_id":"4","last_reported":1690650290,"current_range_meters":18400,"station_id":"ce4bgop2rcd13ifvqc1g","pricing_plan_id":"free"},{"bike_id":"6e5ab3d6-5dc2-4abf-a8c8-2443abe2b257","system_id":"levelo_inurba_marseille","lat":43.297774,"lon":5.370875,"is_reserved":false,"is_disabled":false,"rental_uris":{"android":"levelo://app?vid=6e5ab3d6-5dc2-4abf-a8c8-2443abe2b257","ios":"levelo://app?vid=6e5ab3d6-5dc2-4abf-a8c8-2443abe2b257"},"vehicle_type_id":"4","last_reported":1690650290,"current_range_meters":15600,"station_id":"ce4bgop2rcd13ifvqc1g","pricing_plan_id":"free"},{"bike_id":"5c250b63-9a50-4159-9ac4-58fbbb5b166a","system_id":"levelo_inurba_marseille","lat":43.297774,"lon":5.370875,"is_reserved":false,"is_disabled":false,"rental_uris":{"android":"levelo://app?vid=5c250b63-9a50-4159-9ac4-58fbbb5b166a","ios":"levelo://app?vid=5c250b63-9a50-4159-9ac4-58fbbb5b166a"},"vehicle_type_id":"4","last_reported":1690650290,"current_range_meters":28400,"station_id":"ce4bgop2rcd13ifvqc1g","pricing_plan_id":"free"},{"bike_id":"fead3f1e-e9e6-4830-9da4-e98cba309113","system_id":"levelo_inurba_marseille","lat":43.322872,"lon":5.382756,"is_reserved":false,"is_disabled":false,"rental_uris":{"android":"levelo://app?vid=fead3f1e-e9e6-4830-9da4-e98cba309113","ios":"levelo://app?vid=fead3f1e-e9e6-4830-9da4-e98cba309113"},"vehicle_type_id":"4","last_reported":1690650290,"current_range_meters":16000,"station_id":"ce4bhr12rcd13ifvqhqg","pricing_plan_id":"free"},{"bike_id":"a196dbb0-0ca2-44b0-8b03-b7d3a734d20c","system_id":"levelo_inurba_marseille","lat":43.322872,"lon":5.382756,"is_reserved":false,"is_disabled":false,"rental_uris":{"android":"levelo://app?vid=a196dbb0-0ca2-44b0-8b03-b7d3a734d20c","ios":"levelo://app?vid=a196dbb0-0ca2-44b0-8b03-b7d3a734d20c"},"vehicle_type_id":"4","last_reported":1690650290,"current_range_meters":28800,"station_id":"ce4bhr12rcd13ifvqhqg","pricing_plan_id":"free"},{"bike_id":"01768fa1-df85-472a-bce4-e98c4f1a7eed","system_id":"levelo_inurba_marseille","lat":43.322872,"lon":5.382756,"is_reserved":false,"is_disabled":false,"rental_uris":{"android":"levelo://app?vid=01768fa1-df85-472a-bce4-e98c4f1a7eed","ios":"levelo://app?vid=01768fa1-df85-472a-bce4-e98c4f1a7eed"},"vehicle_type_id":"4","last_reported":1690650290,"current_range_meters":14000,"station_id":"ce4bhr12rcd13ifvqhqg","pricing_plan_id":"free"},{"bike_id":"3641a761-0636-4e0b-b047-72e86565129d","system_id":"levelo_inurba_marseille","lat":43.32288,"lon":5.38272,"is_reserved":false,"is_disabled":false,"rental_uris":{"android":"levelo://app?vid=3641a761-0636-4e0b-b047-72e86565129d","ios":"levelo://app?vid=3641a761-0636-4e0b-b047-72e86565129d"},"vehicle_type_id":"4","last_reported":1690650290,"current_range_meters":27200,"station_id":"ce4bhr12rcd13ifvqhqg","pricing_plan_id":"free"},{"bike_id":"89079465-ef29-4e95-9394-3a5c88303944","system_id":"levelo_inurba_marseille","lat":43.297694,"lon":5.370966,"is_reserved":false,"is_disabled":false,"rental_uris":{"android":"levelo://app?vid=89079465-ef29-4e95-9394-3a5c88303944","ios":"levelo://app?vid=89079465-ef29-4e95-9394-3a5c88303944"},"vehicle_type_id":"4","last_reported":1690650290,"current_range_meters":4800,"station_id":"","pricing_plan_id":"free"},{"bike_id":"dba5177e-02d7-4e92-8a5d-92716af712cd","system_id":"levelo_inurba_marseille","lat":43.297774,"lon":5.370875,"is_reserved":false,"is_disabled":false,"rental_uris":{"android":"levelo://app?vid=dba5177e-02d7-4e92-8a5d-92716af712cd","ios":"levelo://app?vid=dba5177e-02d7-4e92-8a5d-92716af712cd"},"vehicle_type_id":"4","last_reported":1690650290,"current_range_meters":6800,"station_id":"ce4bgop2rcd13ifvqc1g","pricing_plan_id":"free"},{"bike_id":"82f1e03d-e4c3-4aac-b6f0-c9fc3950fe62","system_id":"levelo_inurba_marseille","lat":43.322948,"lon":5.3827,"is_reserved":false,"is_disabled":false,"rental_uris":{"android":"levelo://app?vid=82f1e03d-e4c3-4aac-b6f0-c9fc3950fe62","ios":"levelo://app?vid=82f1e03d-e4c3-4aac-b6f0-c9fc3950fe62"},"vehicle_type_id":"4","last_reported":1690650290,"current_range_meters":24400,"station_id":"","pricing_plan_id":"free"},{"bike_id":"79bf6da4-5f08-488b-96b1-6e23f74ec5ec","system_id":"levelo_inurba_marseille","lat":43.32288,"lon":5.38282,"is_reserved":false,"is_disabled":false,"rental_uris":{"android":"levelo://app?vid=79bf6da4-5f08-488b-96b1-6e23f74ec5ec","ios":"levelo://app?vid=79bf6da4-5f08-488b-96b1-6e23f74ec5ec"},"vehicle_type_id":"4","last_reported":1690650290,"current_range_meters":15200,"station_id":"ce4bhr12rcd13ifvqhqg","pricing_plan_id":"free"},{"bike_id":"5b4ea449-8884-4c80-80f7-38ae4af1bc0a","system_id":"levelo_inurba_marseille","lat":43.328371,"lon":5.366909,"is_reserved":false,"is_disabled":false,"rental_uris":{"android":"levelo://app?vid=5b4ea449-8884-4c80-80f7-38ae4af1bc0a","ios":"levelo://app?vid=5b4ea449-8884-4c80-80f7-38ae4af1bc0a"},"vehicle_type_id":"4","last_reported":1690650290,"current_range_meters":30000,"station_id":"ce4bhs92rcd13ifvqi0g","pricing_plan_id":"free"},{"bike_id":"69e6e336-3b68-498d-96d3-e09d5c464444","system_id":"levelo_inurba_marseille","lat":43.32826,"lon":5.36684,"is_reserved":false,"is_disabled":false,"rental_uris":{"android":"levelo://app?vid=69e6e336-3b68-498d-96d3-e09d5c464444","ios":"levelo://app?vid=69e6e336-3b68-498d-96d3-e09d5c464444"},"vehicle_type_id":"4","last_reported":1690650290,"current_range_meters":23600,"station_id":"ce4bhs92rcd13ifvqi0g","pricing_plan_id":"free"},{"bike_id":"3f56ab11-c8db-4856-8929-e236d19fea1e","system_id":"levelo_inurba_marseille","lat":43.3283,"lon":5.36671,"is_reserved":false,"is_disabled":false,"rental_uris":{"android":"levelo://app?vid=3f56ab11-c8db-4856-8929-e236d19fea1e","ios":"levelo://app?vid=3f56ab11-c8db-4856-8929-e236d19fea1e"},"vehicle_type_id":"4","last_reported":1690650290,"current_range_meters":4800,"station_id":"ce4bhs92rcd13ifvqi0g","pricing_plan_id":"free"},{"bike_id":"c72ce1d8-c1fd-419a-9fc0-9ddeb92b3914","system_id":"levelo_inurba_marseille","lat":43.328371,"lon":5.366909,"is_reserved":false,"is_disabled":false,"rental_uris":{"android":"levelo://app?vid=c72ce1d8-c1fd-419a-9fc0-9ddeb92b3914","ios":"levelo://app?vid=c72ce1d8-c1fd-419a-9fc0-9ddeb92b3914"},"vehicle_type_id":"4","last_reported":1690650290,"current_range_meters":18400,"station_id":"ce4bhs92rcd13ifvqi0g","pricing_plan_id":"free"},{"bike_id":"dd789220-e7b5-42c1-b9dc-dc4243148021","system_id":"levelo_inurba_marseille","lat":43.297163,"lon":5.365866,"is_reserved":false,"is_disabled":false,"rental_uris":{"android":"levelo://app?vid=dd789220-e7b5-42c1-b9dc-dc4243148021","ios":"levelo://app?vid=dd789220-e7b5-42c1-b9dc-dc4243148021"},"vehicle_type_id":"4","last_reported":1690650290,"current_range_meters":31200,"station_id":"ce4bgn12rcd13ifvqbt0","pricing_plan_id":"free"},{"bike_id":"cf7370c1-273e-49e0-a620-296691215e33","system_id":"levelo_inurba_marseille","lat":43.29685,"lon":5.3729,"is_reserved":false,"is_disabled":false,"rental_uris":{"android":"levelo://app?vid=cf7370c1-273e-49e0-a620-296691215e33","ios":"levelo://app?vid=cf7370c1-273e-49e0-a620-296691215e33"},"vehicle_type_id":"4","last_reported":1690650290,"current_range_meters":0,"station_id":"ce4bgk12rcd13ifvqbj0","pricing_plan_id":"free"},{"bike_id":"9fdafda9-6cc9-4857-9f1f-a55413c86fec","system_id":"levelo_inurba_marseille","lat":43.29599,"lon":5.36731,"is_reserved":false,"is_disabled":false,"rental_uris":{"android":"levelo://app?vid=9fdafda9-6cc9-4857-9f1f-a55413c86fec","ios":"levelo://app?vid=9fdafda9-6cc9-4857-9f1f-a55413c86fec"},"vehicle_type_id":"4","last_reported":1690650290,"current_range_meters":11600,"station_id":"ce4bgph2rcd13ifvqc2g","pricing_plan_id":"free"},{"bike_id":"93f2dbca-9177-4218-ba0b-5b8427180d59","system_id":"levelo_inurba_marseille","lat":43.29573,"lon":5.367355,"is_reserved":false,"is_disabled":false,"rental_uris":{"android":"levelo://app?vid=93f2dbca-9177-4218-ba0b-5b8427180d59","ios":"levelo://app?vid=93f2dbca-9177-4218-ba0b-5b8427180d59"},"vehicle_type_id":"4","last_reported":1690650290,"current_range_meters":8800,"station_id":"ce4bgph2rcd13ifvqc2g","pricing_plan_id":"free"},{"bike_id":"d3f44883-4185-498a-977a-8f85af71cca3","system_id":"levelo_inurba_marseille","lat":43.309589,"lon":5.390258,"is_reserved":false,"is_disabled":false,"rental_uris":{"android":"levelo://app?vid=d3f44883-4185-498a-977a-8f85af71cca3","ios":"levelo://app?vid=d3f44883-4185-498a-977a-8f85af71cca3"},"vehicle_type_id":"4","last_reported":1690650290,"current_range_meters":10000,"station_id":"ce4bgup2rcd13ifvqco0","pricing_plan_id":"free"},{"bike_id":"7cd06668-7dfe-4aec-bfbe-8a9020f6e254","system_id":"levelo_inurba_marseille","lat":43.309589,"lon":5.390258,"is_reserved":false,"is_disabled":false,"rental_uris":{"android":"levelo://app?vid=7cd06668-7dfe-4aec-bfbe-8a9020f6e254","ios":"levelo://app?vid=7cd06668-7dfe-4aec-bfbe-8a9020f6e254"},"vehicle_type_id":"4","last_reported":1690650290,"current_range_meters":20000,"station_id":"ce4bgup2rcd13ifvqco0","pricing_plan_id":"free"},{"bike_id":"93dcbbfa-8da5-4199-8056-f12c7d71ef00","system_id":"levelo_inurba_marseille","lat":43.309589,"lon":5.390258,"is_reserved":false,"is_disabled":false,"rental_uris":{"android":"levelo://app?vid=93dcbbfa-8da5-4199-8056-f12c7d71ef00","ios":"levelo://app?vid=93dcbbfa-8da5-4199-8056-f12c7d71ef00"},"vehicle_type_id":"4","last_reported":1690650290,"current_range_meters":20000,"station_id":"ce4bgup2rcd13ifvqco0","pricing_plan_id":"free"},{"bike_id":"617d60d3-0e12-4acd-acb0-8e7d8ac755b1","system_id":"levelo_inurba_marseille","lat":43.309589,"lon":5.390258,"is_reserved":false,"is_disabled":false,"rental_uris":{"android":"levelo://app?vid=617d60d3-0e12-4acd-acb0-8e7d8ac755b1","ios":"levelo://app?vid=617d60d3-0e12-4acd-acb0-8e7d8ac755b1"},"vehicle_type_id":"4","last_reported":1690650290,"current_range_meters":6800,"station_id":"ce4bgup2rcd13ifvqco0","pricing_plan_id":"free"},{"bike_id":"0fb50f29-0925-4774-a0fc-8f8a253f7cad","system_id":"levelo_inurba_marseille","lat":43.309589,"lon":5.390258,"is_reserved":false,"is_disabled":false,"rental_uris":{"android":"levelo://app?vid=0fb50f29-0925-4774-a0fc-8f8a253f7cad","ios":"levelo://app?vid=0fb50f29-0925-4774-a0fc-8f8a253f7cad"},"vehicle_type_id":"4","last_reported":1690650290,"current_range_meters":17200,"station_id":"ce4bgup2rcd13ifvqco0","pricing_plan_id":"free"},{"bike_id":"bc2ced3f-7c18-4b78-bcd0-1c0f60fb9247","system_id":"levelo_inurba_marseille","lat":43.309589,"lon":5.390258,"is_reserved":false,"is_disabled":false,"rental_uris":{"android":"levelo://app?vid=bc2ced3f-7c18-4b78-bcd0-1c0f60fb9247","ios":"levelo://app?vid=bc2ced3f-7c18-4b78-bcd0-1c0f60fb9247"},"vehicle_type_id":"4","last_reported":1690650290,"current_range_meters":12400,"station_id":"ce4bgup2rcd13ifvqco0","pricing_plan_id":"free"},{"bike_id":"069368e5-790a-4859-b2ed-d65abdf756e7","system_id":"levelo_inurba_marseille","lat":43.309589,"lon":5.390258,"is_reserved":false,"is_disabled":false,"rental_uris":{"android":"levelo://app?vid=069368e5-790a-4859-b2ed-d65abdf756e7","ios":"levelo://app?vid=069368e5-790a-4859-b2ed-d65abdf756e7"},"vehicle_type_id":"4","last_reported":1690650290,"current_range_meters":8000,"station_id":"ce4bgup2rcd13ifvqco0","pricing_plan_id":"free"},{"bike_id":"9c6a379c-3461-432e-a37e-3f5b06601519","system_id":"levelo_inurba_marseille","lat":43.309589,"lon":5.390258,"is_reserved":false,"is_disabled":false,"rental_uris":{"android":"levelo://app?vid=9c6a379c-3461-432e-a37e-3f5b06601519","ios":"levelo://app?vid=9c6a379c-3461-432e-a37e-3f5b06601519"},"vehicle_type_id":"4","last_reported":1690650290,"current_range_meters":24400,"station_id":"ce4bgup2rcd13ifvqco0","pricing_plan_id":"free"},{"bike_id":"80996baf-8597-4552-b66a-a0139bedf903","system_id":"levelo_inurba_marseille","lat":43.309502,"lon":5.390365,"is_reserved":false,"is_disabled":false,"rental_uris":{"android":"levelo://app?vid=80996baf-8597-4552-b66a-a0139bedf903","ios":"levelo://app?vid=80996baf-8597-4552-b66a-a0139bedf903"},"vehicle_type_id":"4","last_reported":1690650290,"current_range_meters":2000,"station_id":"","pricing_plan_id":"free"},{"bike_id":"cac315d2-1688-41e9-acbc-5e115ad1d050","system_id":"levelo_inurba_marseille","lat":43.309589,"lon":5.390258,"is_reserved":false,"is_disabled":false,"rental_uris":{"android":"levelo://app?vid=cac315d2-1688-41e9-acbc-5e115ad1d050","ios":"levelo://app?vid=cac315d2-1688-41e9-acbc-5e115ad1d050"},"vehicle_type_id":"4","last_reported":1690650290,"current_range_meters":1200,"station_id":"ce4bgup2rcd13ifvqco0","pricing_plan_id":"free"},{"bike_id":"80b7f7d8-e5dd-4011-a6bb-95a2544b98e9","system_id":"levelo_inurba_marseille","lat":43.309589,"lon":5.390258,"is_reserved":false,"is_disabled":false,"rental_uris":{"android":"levelo://app?vid=80b7f7d8-e5dd-4011-a6bb-95a2544b98e9","ios":"levelo://app?vid=80b7f7d8-e5dd-4011-a6bb-95a2544b98e9"},"vehicle_type_id":"4","last_reported":1690650290,"current_range_meters":0,"station_id":"ce4bgup2rcd13ifvqco0","pricing_plan_id":"free"},{"bike_id":"f0b1921d-8fc5-42f6-8214-26455e772ce5","system_id":"levelo_inurba_marseille","lat":43.309589,"lon":5.390258,"is_reserved":false,"is_disabled":false,"rental_uris":{"android":"levelo://app?vid=f0b1921d-8fc5-42f6-8214-26455e772ce5","ios":"levelo://app?vid=f0b1921d-8fc5-42f6-8214-26455e772ce5"},"vehicle_type_id":"4","last_reported":1690650290,"current_range_meters":28000,"station_id":"ce4bgup2rcd13ifvqco0","pricing_plan_id":"free"},{"bike_id":"95c67d9e-6070-4329-94c9-9d6a6cd052d4","system_id":"levelo_inurba_marseille","lat":43.30432,"lon":5.38897,"is_reserved":false,"is_disabled":false,"rental_uris":{"android":"levelo://app?vid=95c67d9e-6070-4329-94c9-9d6a6cd052d4","ios":"levelo://app?vid=95c67d9e-6070-4329-94c9-9d6a6cd052d4"},"vehicle_type_id":"4","last_reported":1690650290,"current_range_meters":800,"station_id":"ce4bgk12rcd13ifvqbi0","pricing_plan_id":"free"},{"bike_id":"c2a2b313-4ad1-49dd-b749-6d052399a3c9","system_id":"levelo_inurba_marseille","lat":43.296168,"lon":5.377137,"is_reserved":false,"is_disabled":false,"rental_uris":{"android":"levelo://app?vid=c2a2b313-4ad1-49dd-b749-6d052399a3c9","ios":"levelo://app?vid=c2a2b313-4ad1-49dd-b749-6d052399a3c9"},"vehicle_type_id":"4","last_reported":1690650290,"current_range_meters":0,"station_id":"ce4bgi92rcd13ifvqb90","pricing_plan_id":"free"},{"bike_id":"2d047530-050b-483b-b488-bfd35fafcd60","system_id":"levelo_inurba_marseille","lat":43.29542,"lon":5.37453,"is_reserved":false,"is_disabled":false,"rental_uris":{"android":"levelo://app?vid=2d047530-050b-483b-b488-bfd35fafcd60","ios":"levelo://app?vid=2d047530-050b-483b-b488-bfd35fafcd60"},"vehicle_type_id":"4","last_reported":1690650290,"current_range_meters":17600,"station_id":"ce4bgkp2rcd13ifvqbmg","pricing_plan_id":"free"},{"bike_id":"b4fd5581-df7c-4ee2-b616-c96e0bbd6460","system_id":"levelo_inurba_marseille","lat":43.295279,"lon":5.375048,"is_reserved":false,"is_disabled":false,"rental_uris":{"android":"levelo://app?vid=b4fd5581-df7c-4ee2-b616-c96e0bbd6460","ios":"levelo://app?vid=b4fd5581-df7c-4ee2-b616-c96e0bbd6460"},"vehicle_type_id":"4","last_reported":1690650290,"current_range_meters":2000,"station_id":"ce4bgkp2rcd13ifvqbmg","pricing_plan_id":"free"},{"bike_id":"6986b50e-a4fe-4ed7-aa8d-1c5a213e054c","system_id":"levelo_inurba_marseille","lat":43.295279,"lon":5.375048,"is_reserved":false,"is_disabled":false,"rental_uris":{"android":"levelo://app?vid=6986b50e-a4fe-4ed7-aa8d-1c5a213e054c","ios":"levelo://app?vid=6986b50e-a4fe-4ed7-aa8d-1c5a213e054c"},"vehicle_type_id":"4","last_reported":1690650290,"current_range_meters":25600,"station_id":"ce4bgkp2rcd13ifvqbmg","pricing_plan_id":"free"},{"bike_id":"22115666-17f5-4f9d-9e00-effb99228827","system_id":"levelo_inurba_marseille","lat":43.299724,"lon":5.384848,"is_reserved":false,"is_disabled":false,"rental_uris":{"android":"levelo://app?vid=22115666-17f5-4f9d-9e00-effb99228827","ios":"levelo://app?vid=22115666-17f5-4f9d-9e00-effb99228827"},"vehicle_type_id":"4","last_reported":1690650290,"current_range_meters":2400,"station_id":"ce4bgj92rcd13ifvqbd0","pricing_plan_id":"free"},{"bike_id":"e58a3ca2-72e9-4459-a9a8-b40dc1c969fa","system_id":"levelo_inurba_marseille","lat":43.299724,"lon":5.384848,"is_reserved":false,"is_disabled":false,"rental_uris":{"android":"levelo://app?vid=e58a3ca2-72e9-4459-a9a8-b40dc1c969fa","ios":"levelo://app?vid=e58a3ca2-72e9-4459-a9a8-b40dc1c969fa"},"vehicle_type_id":"4","last_reported":1690650290,"current_range_meters":2400,"station_id":"ce4bgj92rcd13ifvqbd0","pricing_plan_id":"free"},{"bike_id":"bdf4b2ad-7c4d-4ba5-a50c-47c5d7357bba","system_id":"levelo_inurba_marseille","lat":43.299717,"lon":5.384845,"is_reserved":false,"is_disabled":false,"rental_uris":{"android":"levelo://app?vid=bdf4b2ad-7c4d-4ba5-a50c-47c5d7357bba","ios":"levelo://app?vid=bdf4b2ad-7c4d-4ba5-a50c-47c5d7357bba"},"vehicle_type_id":"4","last_reported":1690650290,"current_range_meters":26400,"station_id":"ce4bgj92rcd13ifvqbd0","pricing_plan_id":"free"},{"bike_id":"e755aa9a-04bf-458d-a1ad-ddf2ab7689b1","system_id":"levelo_inurba_marseille","lat":43.299707,"lon":5.384859,"is_reserved":false,"is_disabled":false,"rental_uris":{"android":"levelo://app?vid=e755aa9a-04bf-458d-a1ad-ddf2ab7689b1","ios":"levelo://app?vid=e755aa9a-04bf-458d-a1ad-ddf2ab7689b1"},"vehicle_type_id":"4","last_reported":1690650290,"current_range_meters":8400,"station_id":"ce4bgj92rcd13ifvqbd0","pricing_plan_id":"free"},{"bike_id":"80b95fb3-c398-4200-9197-c07b7e0f4e3a","system_id":"levelo_inurba_marseille","lat":43.32367,"lon":5.388836,"is_reserved":false,"is_disabled":false,"rental_uris":{"android":"levelo://app?vid=80b95fb3-c398-4200-9197-c07b7e0f4e3a","ios":"levelo://app?vid=80b95fb3-c398-4200-9197-c07b7e0f4e3a"},"vehicle_type_id":"4","last_reported":1690650290,"current_range_meters":25600,"station_id":"ce4bhqp2rcd13ifvqhog","pricing_plan_id":"free"},{"bike_id":"9d5b768f-410e-4149-87d3-dd56fee6c261","system_id":"levelo_inurba_marseille","lat":43.32366,"lon":5.38883,"is_reserved":false,"is_disabled":false,"rental_uris":{"android":"levelo://app?vid=9d5b768f-410e-4149-87d3-dd56fee6c261","ios":"levelo://app?vid=9d5b768f-410e-4149-87d3-dd56fee6c261"},"vehicle_type_id":"4","last_reported":1690650290,"current_range_meters":20000,"station_id":"ce4bhqp2rcd13ifvqhog","pricing_plan_id":"free"},{"bike_id":"bed242b5-0d00-4bd4-b1a6-8056715969fd","system_id":"levelo_inurba_marseille","lat":43.32365,"lon":5.38887,"is_reserved":false,"is_disabled":false,"rental_uris":{"android":"levelo://app?vid=bed242b5-0d00-4bd4-b1a6-8056715969fd","ios":"levelo://app?vid=bed242b5-0d00-4bd4-b1a6-8056715969fd"},"vehicle_type_id":"4","last_reported":1690650290,"current_range_meters":26800,"station_id":"ce4bhqp2rcd13ifvqhog","pricing_plan_id":"free"},{"bike_id":"390eb585-50db-4d90-b8b3-d3e3ee0231b7","system_id":"levelo_inurba_marseille","lat":43.32366,"lon":5.38887,"is_reserved":false,"is_disabled":false,"rental_uris":{"android":"levelo://app?vid=390eb585-50db-4d90-b8b3-d3e3ee0231b7","ios":"levelo://app?vid=390eb585-50db-4d90-b8b3-d3e3ee0231b7"},"vehicle_type_id":"4","last_reported":1690650290,"current_range_meters":21600,"station_id":"ce4bhqp2rcd13ifvqhog","pricing_plan_id":"free"},{"bike_id":"9ff2ed42-01e2-4041-819e-3a287b0d9f80","system_id":"levelo_inurba_marseille","lat":43.309589,"lon":5.390258,"is_reserved":false,"is_disabled":false,"rental_uris":{"android":"levelo://app?vid=9ff2ed42-01e2-4041-819e-3a287b0d9f80","ios":"levelo://app?vid=9ff2ed42-01e2-4041-819e-3a287b0d9f80"},"vehicle_type_id":"4","last_reported":1690650290,"current_range_meters":24400,"station_id":"ce4bgup2rcd13ifvqco0","pricing_plan_id":"free"},{"bike_id":"b0634691-ee98-446f-800c-3ecba2e77fe2","system_id":"levelo_inurba_marseille","lat":43.2931,"lon":5.37175,"is_reserved":false,"is_disabled":false,"rental_uris":{"android":"levelo://app?vid=b0634691-ee98-446f-800c-3ecba2e77fe2","ios":"levelo://app?vid=b0634691-ee98-446f-800c-3ecba2e77fe2"},"vehicle_type_id":"4","last_reported":1690650290,"current_range_meters":24400,"station_id":"ce4bgh92rcd13ifvqb40","pricing_plan_id":"free"},{"bike_id":"2a4e8f47-4765-4e6e-8580-9e04b15012c6","system_id":"levelo_inurba_marseille","lat":43.29307,"lon":5.37168,"is_reserved":false,"is_disabled":false,"rental_uris":{"android":"levelo://app?vid=2a4e8f47-4765-4e6e-8580-9e04b15012c6","ios":"levelo://app?vid=2a4e8f47-4765-4e6e-8580-9e04b15012c6"},"vehicle_type_id":"4","last_reported":1690650290,"current_range_meters":16800,"station_id":"ce4bgh92rcd13ifvqb40","pricing_plan_id":"free"},{"bike_id":"b4e080e6-8baf-450d-aefc-5d5f0e8d5b51","system_id":"levelo_inurba_marseille","lat":43.29305,"lon":5.3717,"is_reserved":false,"is_disabled":false,"rental_uris":{"android":"levelo://app?vid=b4e080e6-8baf-450d-aefc-5d5f0e8d5b51","ios":"levelo://app?vid=b4e080e6-8baf-450d-aefc-5d5f0e8d5b51"},"vehicle_type_id":"4","last_reported":1690650290,"current_range_meters":14800,"station_id":"ce4bgh92rcd13ifvqb40","pricing_plan_id":"free"},{"bike_id":"89d13541-a880-4750-a300-84a9c7a620a2","system_id":"levelo_inurba_marseille","lat":43.29305,"lon":5.37177,"is_reserved":false,"is_disabled":false,"rental_uris":{"android":"levelo://app?vid=89d13541-a880-4750-a300-84a9c7a620a2","ios":"levelo://app?vid=89d13541-a880-4750-a300-84a9c7a620a2"},"vehicle_type_id":"4","last_reported":1690650290,"current_range_meters":20800,"station_id":"ce4bgh92rcd13ifvqb40","pricing_plan_id":"free"},{"bike_id":"4f4d22f0-a4cd-4d1c-8047-017cb005d159","system_id":"levelo_inurba_marseille","lat":43.29305,"lon":5.371852,"is_reserved":false,"is_disabled":false,"rental_uris":{"android":"levelo://app?vid=4f4d22f0-a4cd-4d1c-8047-017cb005d159","ios":"levelo://app?vid=4f4d22f0-a4cd-4d1c-8047-017cb005d159"},"vehicle_type_id":"4","last_reported":1690650290,"current_range_meters":18400,"station_id":"ce4bgh92rcd13ifvqb40","pricing_plan_id":"free"},{"bike_id":"984cc399-4820-4b7c-870e-9ca30b2e62d9","system_id":"levelo_inurba_marseille","lat":43.305994,"lon":5.393687,"is_reserved":false,"is_disabled":false,"rental_uris":{"android":"levelo://app?vid=984cc399-4820-4b7c-870e-9ca30b2e62d9","ios":"levelo://app?vid=984cc399-4820-4b7c-870e-9ca30b2e62d9"},"vehicle_type_id":"4","last_reported":1690650290,"current_range_meters":28400,"station_id":"ce4bh0p2rcd13ifvqd80","pricing_plan_id":"free"},{"bike_id":"9d29852d-58c9-4cf4-83f6-e1f24b413e63","system_id":"levelo_inurba_marseille","lat":43.296263,"lon":5.40601,"is_reserved":false,"is_disabled":false,"rental_uris":{"android":"levelo://app?vid=9d29852d-58c9-4cf4-83f6-e1f24b413e63","ios":"levelo://app?vid=9d29852d-58c9-4cf4-83f6-e1f24b413e63"},"vehicle_type_id":"4","last_reported":1690650290,"current_range_meters":20000,"station_id":"ce4bh0h2rcd13ifvqd60","pricing_plan_id":"free"},{"bike_id":"f94534fb-3e2f-4255-861d-f9314f3b06ff","system_id":"levelo_inurba_marseille","lat":43.305994,"lon":5.393687,"is_reserved":false,"is_disabled":false,"rental_uris":{"android":"levelo://app?vid=f94534fb-3e2f-4255-861d-f9314f3b06ff","ios":"levelo://app?vid=f94534fb-3e2f-4255-861d-f9314f3b06ff"},"vehicle_type_id":"4","last_reported":1690650290,"current_range_meters":800,"station_id":"ce4bh0p2rcd13ifvqd80","pricing_plan_id":"free"},{"bike_id":"4b185ab8-4044-4042-86f3-bf2d7d7f7bdb","system_id":"levelo_inurba_marseille","lat":43.302992,"lon":5.392136,"is_reserved":false,"is_disabled":false,"rental_uris":{"android":"levelo://app?vid=4b185ab8-4044-4042-86f3-bf2d7d7f7bdb","ios":"levelo://app?vid=4b185ab8-4044-4042-86f3-bf2d7d7f7bdb"},"vehicle_type_id":"4","last_reported":1690650290,"current_range_meters":4400,"station_id":"ce4bgkh2rcd13ifvqbk0","pricing_plan_id":"free"},{"bike_id":"b954dcef-7cb7-40d4-91c0-bca9495b372c","system_id":"levelo_inurba_marseille","lat":43.30307,"lon":5.39213,"is_reserved":false,"is_disabled":false,"rental_uris":{"android":"levelo://app?vid=b954dcef-7cb7-40d4-91c0-bca9495b372c","ios":"levelo://app?vid=b954dcef-7cb7-40d4-91c0-bca9495b372c"},"vehicle_type_id":"4","last_reported":1690650290,"current_range_meters":16800,"station_id":"ce4bgkh2rcd13ifvqbk0","pricing_plan_id":"free"},{"bike_id":"5781c9be-a41f-40a5-a28d-e722cf52b759","system_id":"levelo_inurba_marseille","lat":43.302992,"lon":5.392136,"is_reserved":false,"is_disabled":false,"rental_uris":{"android":"levelo://app?vid=5781c9be-a41f-40a5-a28d-e722cf52b759","ios":"levelo://app?vid=5781c9be-a41f-40a5-a28d-e722cf52b759"},"vehicle_type_id":"4","last_reported":1690650290,"current_range_meters":1200,"station_id":"ce4bgkh2rcd13ifvqbk0","pricing_plan_id":"free"},{"bike_id":"a111c201-3826-4ea5-a935-e26ebc44a062","system_id":"levelo_inurba_marseille","lat":43.300852,"lon":5.390859,"is_reserved":false,"is_disabled":false,"rental_uris":{"android":"levelo://app?vid=a111c201-3826-4ea5-a935-e26ebc44a062","ios":"levelo://app?vid=a111c201-3826-4ea5-a935-e26ebc44a062"},"vehicle_type_id":"4","last_reported":1690650290,"current_range_meters":19200,"station_id":"ce4bh192rcd13ifvqdb0","pricing_plan_id":"free"},{"bike_id":"4f7d0142-b72d-4eaa-9b3f-2ad9b9364ec1","system_id":"levelo_inurba_marseille","lat":43.30085,"lon":5.390856,"is_reserved":false,"is_disabled":false,"rental_uris":{"android":"levelo://app?vid=4f7d0142-b72d-4eaa-9b3f-2ad9b9364ec1","ios":"levelo://app?vid=4f7d0142-b72d-4eaa-9b3f-2ad9b9364ec1"},"vehicle_type_id":"4","last_reported":1690650290,"current_range_meters":14800,"station_id":"ce4bh192rcd13ifvqdb0","pricing_plan_id":"free"},{"bike_id":"fa01bfd7-4795-4877-9cbb-81aea3103eef","system_id":"levelo_inurba_marseille","lat":43.300852,"lon":5.390859,"is_reserved":false,"is_disabled":false,"rental_uris":{"android":"levelo://app?vid=fa01bfd7-4795-4877-9cbb-81aea3103eef","ios":"levelo://app?vid=fa01bfd7-4795-4877-9cbb-81aea3103eef"},"vehicle_type_id":"4","last_reported":1690650290,"current_range_meters":16800,"station_id":"ce4bh192rcd13ifvqdb0","pricing_plan_id":"free"},{"bike_id":"412a49e4-8bb4-45d4-8847-6250028b3431","system_id":"levelo_inurba_marseille","lat":43.29897,"lon":5.38894,"is_reserved":false,"is_disabled":false,"rental_uris":{"android":"levelo://app?vid=412a49e4-8bb4-45d4-8847-6250028b3431","ios":"levelo://app?vid=412a49e4-8bb4-45d4-8847-6250028b3431"},"vehicle_type_id":"4","last_reported":1690650290,"current_range_meters":22400,"station_id":"ce4bh392rcd13ifvqdl0","pricing_plan_id":"free"},{"bike_id":"0d858c98-1ff1-434a-b99e-cf0625e01997","system_id":"levelo_inurba_marseille","lat":43.29887,"lon":5.38896,"is_reserved":false,"is_disabled":false,"rental_uris":{"android":"levelo://app?vid=0d858c98-1ff1-434a-b99e-cf0625e01997","ios":"levelo://app?vid=0d858c98-1ff1-434a-b99e-cf0625e01997"},"vehicle_type_id":"4","last_reported":1690650290,"current_range_meters":12000,"station_id":"ce4bh392rcd13ifvqdl0","pricing_plan_id":"free"},{"bike_id":"439e04fa-d096-46f6-b10f-9c0abdc7ad8e","system_id":"levelo_inurba_marseille","lat":43.29882,"lon":5.38894,"is_reserved":false,"is_disabled":false,"rental_uris":{"android":"levelo://app?vid=439e04fa-d096-46f6-b10f-9c0abdc7ad8e","ios":"levelo://app?vid=439e04fa-d096-46f6-b10f-9c0abdc7ad8e"},"vehicle_type_id":"4","last_reported":1690650290,"current_range_meters":18800,"station_id":"ce4bh392rcd13ifvqdl0","pricing_plan_id":"free"},{"bike_id":"92d70c1e-a023-4a09-8eef-ba522fa15fde","system_id":"levelo_inurba_marseille","lat":43.298764,"lon":5.388973,"is_reserved":false,"is_disabled":false,"rental_uris":{"android":"levelo://app?vid=92d70c1e-a023-4a09-8eef-ba522fa15fde","ios":"levelo://app?vid=92d70c1e-a023-4a09-8eef-ba522fa15fde"},"vehicle_type_id":"4","last_reported":1690650290,"current_range_meters":25200,"station_id":"ce4bh392rcd13ifvqdl0","pricing_plan_id":"free"},{"bike_id":"8ac2be01-0530-4256-91ad-8bd000bbeaef","system_id":"levelo_inurba_marseille","lat":43.291675,"lon":5.371583,"is_reserved":false,"is_disabled":false,"rental_uris":{"android":"levelo://app?vid=8ac2be01-0530-4256-91ad-8bd000bbeaef","ios":"levelo://app?vid=8ac2be01-0530-4256-91ad-8bd000bbeaef"},"vehicle_type_id":"4","last_reported":1690650290,"current_range_meters":13600,"station_id":"ce4bha92rcd13ifvqeh0","pricing_plan_id":"free"},{"bike_id":"9f109e7d-fffa-4d4a-b3a4-15618977e74f","system_id":"levelo_inurba_marseille","lat":43.298723,"lon":5.389017,"is_reserved":false,"is_disabled":false,"rental_uris":{"android":"levelo://app?vid=9f109e7d-fffa-4d4a-b3a4-15618977e74f","ios":"levelo://app?vid=9f109e7d-fffa-4d4a-b3a4-15618977e74f"},"vehicle_type_id":"4","last_reported":1690650290,"current_range_meters":28800,"station_id":"ce4bh392rcd13ifvqdl0","pricing_plan_id":"free"},{"bike_id":"71b81064-bf16-4fd3-8d59-084fc92347a9","system_id":"levelo_inurba_marseille","lat":43.29877,"lon":5.3891,"is_reserved":false,"is_disabled":false,"rental_uris":{"android":"levelo://app?vid=71b81064-bf16-4fd3-8d59-084fc92347a9","ios":"levelo://app?vid=71b81064-bf16-4fd3-8d59-084fc92347a9"},"vehicle_type_id":"4","last_reported":1690650290,"current_range_meters":27600,"station_id":"ce4bh392rcd13ifvqdl0","pricing_plan_id":"free"},{"bike_id":"3e5a4bb0-41c1-4c7a-879d-b457ce11a955","system_id":"levelo_inurba_marseille","lat":43.291675,"lon":5.371583,"is_reserved":false,"is_disabled":false,"rental_uris":{"android":"levelo://app?vid=3e5a4bb0-41c1-4c7a-879d-b457ce11a955","ios":"levelo://app?vid=3e5a4bb0-41c1-4c7a-879d-b457ce11a955"},"vehicle_type_id":"4","last_reported":1690650290,"current_range_meters":13200,"station_id":"ce4bha92rcd13ifvqeh0","pricing_plan_id":"free"},{"bike_id":"56c17190-187a-4979-90fa-6380453926f6","system_id":"levelo_inurba_marseille","lat":43.291675,"lon":5.371583,"is_reserved":false,"is_disabled":false,"rental_uris":{"android":"levelo://app?vid=56c17190-187a-4979-90fa-6380453926f6","ios":"levelo://app?vid=56c17190-187a-4979-90fa-6380453926f6"},"vehicle_type_id":"4","last_reported":1690650290,"current_range_meters":12400,"station_id":"ce4bha92rcd13ifvqeh0","pricing_plan_id":"free"},{"bike_id":"f95e6f2e-65d1-4493-a357-cf72c9ba5748","system_id":"levelo_inurba_marseille","lat":43.30887,"lon":5.39644,"is_reserved":false,"is_disabled":false,"rental_uris":{"android":"levelo://app?vid=f95e6f2e-65d1-4493-a357-cf72c9ba5748","ios":"levelo://app?vid=f95e6f2e-65d1-4493-a357-cf72c9ba5748"},"vehicle_type_id":"4","last_reported":1690650290,"current_range_meters":26400,"station_id":"ce4bh012rcd13ifvqcv0","pricing_plan_id":"free"},{"bike_id":"23aa5832-7f0c-4888-af9d-955877c8f394","system_id":"levelo_inurba_marseille","lat":43.30889,"lon":5.39645,"is_reserved":false,"is_disabled":false,"rental_uris":{"android":"levelo://app?vid=23aa5832-7f0c-4888-af9d-955877c8f394","ios":"levelo://app?vid=23aa5832-7f0c-4888-af9d-955877c8f394"},"vehicle_type_id":"4","last_reported":1690650290,"current_range_meters":400,"station_id":"ce4bh012rcd13ifvqcv0","pricing_plan_id":"free"},{"bike_id":"65538d67-f560-41e7-9730-700dbc9057f5","system_id":"levelo_inurba_marseille","lat":43.31325,"lon":5.39694,"is_reserved":false,"is_disabled":false,"rental_uris":{"android":"levelo://app?vid=65538d67-f560-41e7-9730-700dbc9057f5","ios":"levelo://app?vid=65538d67-f560-41e7-9730-700dbc9057f5"},"vehicle_type_id":"4","last_reported":1690650290,"current_range_meters":13200,"station_id":"ce4bgvp2rcd13ifvqcu0","pricing_plan_id":"free"},{"bike_id":"8f8b9db4-5e5b-4366-96fd-a07de787048b","system_id":"levelo_inurba_marseille","lat":43.309038,"lon":5.396546,"is_reserved":false,"is_disabled":false,"rental_uris":{"android":"levelo://app?vid=8f8b9db4-5e5b-4366-96fd-a07de787048b","ios":"levelo://app?vid=8f8b9db4-5e5b-4366-96fd-a07de787048b"},"vehicle_type_id":"4","last_reported":1690650290,"current_range_meters":800,"station_id":"ce4bh012rcd13ifvqcv0","pricing_plan_id":"free"},{"bike_id":"f60a6c97-350b-4e13-a557-d199ca91a30e","system_id":"levelo_inurba_marseille","lat":43.30887,"lon":5.39652,"is_reserved":false,"is_disabled":false,"rental_uris":{"android":"levelo://app?vid=f60a6c97-350b-4e13-a557-d199ca91a30e","ios":"levelo://app?vid=f60a6c97-350b-4e13-a557-d199ca91a30e"},"vehicle_type_id":"4","last_reported":1690650290,"current_range_meters":11600,"station_id":"ce4bh012rcd13ifvqcv0","pricing_plan_id":"free"},{"bike_id":"a68df7a3-172a-40f4-81ee-4c4ef753a556","system_id":"levelo_inurba_marseille","lat":43.29529,"lon":5.385581,"is_reserved":false,"is_disabled":false,"rental_uris":{"android":"levelo://app?vid=a68df7a3-172a-40f4-81ee-4c4ef753a556","ios":"levelo://app?vid=a68df7a3-172a-40f4-81ee-4c4ef753a556"},"vehicle_type_id":"4","last_reported":1690650290,"current_range_meters":0,"station_id":"ce4bgih2rcd13ifvqba0","pricing_plan_id":"free"},{"bike_id":"5e9d4d0e-1e58-42ad-9d37-6bca6300c034","system_id":"levelo_inurba_marseille","lat":43.29529,"lon":5.385581,"is_reserved":false,"is_disabled":false,"rental_uris":{"android":"levelo://app?vid=5e9d4d0e-1e58-42ad-9d37-6bca6300c034","ios":"levelo://app?vid=5e9d4d0e-1e58-42ad-9d37-6bca6300c034"},"vehicle_type_id":"4","last_reported":1690650290,"current_range_meters":3600,"station_id":"ce4bgih2rcd13ifvqba0","pricing_plan_id":"free"},{"bike_id":"d0dd45e5-d21c-426a-8a4a-d00bc2d5b2cc","system_id":"levelo_inurba_marseille","lat":43.309001,"lon":5.396751,"is_reserved":false,"is_disabled":false,"rental_uris":{"android":"levelo://app?vid=d0dd45e5-d21c-426a-8a4a-d00bc2d5b2cc","ios":"levelo://app?vid=d0dd45e5-d21c-426a-8a4a-d00bc2d5b2cc"},"vehicle_type_id":"4","last_reported":1690650290,"current_range_meters":20400,"station_id":"ce4bh012rcd13ifvqcv0","pricing_plan_id":"free"},{"bike_id":"cd8e0852-fe89-4648-8cbe-f5b79b39054b","system_id":"levelo_inurba_marseille","lat":43.290779,"lon":5.371482,"is_reserved":false,"is_disabled":false,"rental_uris":{"android":"levelo://app?vid=cd8e0852-fe89-4648-8cbe-f5b79b39054b","ios":"levelo://app?vid=cd8e0852-fe89-4648-8cbe-f5b79b39054b"},"vehicle_type_id":"4","last_reported":1690650290,"current_range_meters":15600,"station_id":"ce4bh5p2rcd13ifvqe4g","pricing_plan_id":"free"},{"bike_id":"f5a0dde1-00ff-45f4-8eb0-7337ac610e7e","system_id":"levelo_inurba_marseille","lat":43.290779,"lon":5.371482,"is_reserved":false,"is_disabled":false,"rental_uris":{"android":"levelo://app?vid=f5a0dde1-00ff-45f4-8eb0-7337ac610e7e","ios":"levelo://app?vid=f5a0dde1-00ff-45f4-8eb0-7337ac610e7e"},"vehicle_type_id":"4","last_reported":1690650290,"current_range_meters":29200,"station_id":"ce4bh5p2rcd13ifvqe4g","pricing_plan_id":"free"},{"bike_id":"17790c12-c2b5-43c0-a0d4-ccb0e7a0aff9","system_id":"levelo_inurba_marseille","lat":43.302008,"lon":5.394694,"is_reserved":false,"is_disabled":false,"rental_uris":{"android":"levelo://app?vid=17790c12-c2b5-43c0-a0d4-ccb0e7a0aff9","ios":"levelo://app?vid=17790c12-c2b5-43c0-a0d4-ccb0e7a0aff9"},"vehicle_type_id":"4","last_reported":1690650290,"current_range_meters":26400,"station_id":"ce4bh0p2rcd13ifvqd70","pricing_plan_id":"free"},{"bike_id":"09c903ca-c619-4f87-8296-c60469513726","system_id":"levelo_inurba_marseille","lat":43.302008,"lon":5.394694,"is_reserved":false,"is_disabled":false,"rental_uris":{"android":"levelo://app?vid=09c903ca-c619-4f87-8296-c60469513726","ios":"levelo://app?vid=09c903ca-c619-4f87-8296-c60469513726"},"vehicle_type_id":"4","last_reported":1690650290,"current_range_meters":0,"station_id":"ce4bh0p2rcd13ifvqd70","pricing_plan_id":"free"},{"bike_id":"da56fc04-5736-4dbb-9286-bf495a9ce0ed","system_id":"levelo_inurba_marseille","lat":43.302008,"lon":5.394694,"is_reserved":false,"is_disabled":false,"rental_uris":{"android":"levelo://app?vid=da56fc04-5736-4dbb-9286-bf495a9ce0ed","ios":"levelo://app?vid=da56fc04-5736-4dbb-9286-bf495a9ce0ed"},"vehicle_type_id":"4","last_reported":1690650290,"current_range_meters":26000,"station_id":"ce4bh0p2rcd13ifvqd70","pricing_plan_id":"free"},{"bike_id":"8e9651e4-9103-4588-8f17-e21a8caa2aca","system_id":"levelo_inurba_marseille","lat":43.290624,"lon":5.359245,"is_reserved":false,"is_disabled":false,"rental_uris":{"android":"levelo://app?vid=8e9651e4-9103-4588-8f17-e21a8caa2aca","ios":"levelo://app?vid=8e9651e4-9103-4588-8f17-e21a8caa2aca"},"vehicle_type_id":"4","last_reported":1690650290,"current_range_meters":19200,"station_id":"ce4bha92rcd13ifvqeg0","pricing_plan_id":"free"},{"bike_id":"86fb3cff-20df-40e4-a5e4-8aa7776dd247","system_id":"levelo_inurba_marseille","lat":43.290631,"lon":5.359244,"is_reserved":false,"is_disabled":false,"rental_uris":{"android":"levelo://app?vid=86fb3cff-20df-40e4-a5e4-8aa7776dd247","ios":"levelo://app?vid=86fb3cff-20df-40e4-a5e4-8aa7776dd247"},"vehicle_type_id":"4","last_reported":1690650290,"current_range_meters":26400,"station_id":"ce4bha92rcd13ifvqeg0","pricing_plan_id":"free"},{"bike_id":"aeb73a3b-0bb6-4112-99a4-a5651ed8612f","system_id":"levelo_inurba_marseille","lat":43.2942,"lon":5.38621,"is_reserved":false,"is_disabled":false,"rental_uris":{"android":"levelo://app?vid=aeb73a3b-0bb6-4112-99a4-a5651ed8612f","ios":"levelo://app?vid=aeb73a3b-0bb6-4112-99a4-a5651ed8612f"},"vehicle_type_id":"4","last_reported":1690650290,"current_range_meters":22400,"station_id":"ce4bh2h2rcd13ifvqdh0","pricing_plan_id":"free"},{"bike_id":"f60dd00c-3ed4-433c-9f22-4c8f725d039b","system_id":"levelo_inurba_marseille","lat":43.294167,"lon":5.38617,"is_reserved":false,"is_disabled":false,"rental_uris":{"android":"levelo://app?vid=f60dd00c-3ed4-433c-9f22-4c8f725d039b","ios":"levelo://app?vid=f60dd00c-3ed4-433c-9f22-4c8f725d039b"},"vehicle_type_id":"4","last_reported":1690650290,"current_range_meters":20000,"station_id":"ce4bh2h2rcd13ifvqdh0","pricing_plan_id":"free"},{"bike_id":"7b490a1e-46ea-4c16-a60c-4642e3eb0e3a","system_id":"levelo_inurba_marseille","lat":43.2942,"lon":5.38626,"is_reserved":false,"is_disabled":false,"rental_uris":{"android":"levelo://app?vid=7b490a1e-46ea-4c16-a60c-4642e3eb0e3a","ios":"levelo://app?vid=7b490a1e-46ea-4c16-a60c-4642e3eb0e3a"},"vehicle_type_id":"4","last_reported":1690650290,"current_range_meters":12800,"station_id":"ce4bh2h2rcd13ifvqdh0","pricing_plan_id":"free"},{"bike_id":"9557f777-a53d-4a10-b0dd-a0fe870653cf","system_id":"levelo_inurba_marseille","lat":43.292644,"lon":5.384257,"is_reserved":false,"is_disabled":false,"rental_uris":{"android":"levelo://app?vid=9557f777-a53d-4a10-b0dd-a0fe870653cf","ios":"levelo://app?vid=9557f777-a53d-4a10-b0dd-a0fe870653cf"},"vehicle_type_id":"4","last_reported":1690650290,"current_range_meters":24000,"station_id":"ce4bh692rcd13ifvqea0","pricing_plan_id":"free"},{"bike_id":"39590c7a-d5fa-4763-b835-63b9f519d8fa","system_id":"levelo_inurba_marseille","lat":43.292644,"lon":5.384257,"is_reserved":false,"is_disabled":false,"rental_uris":{"android":"levelo://app?vid=39590c7a-d5fa-4763-b835-63b9f519d8fa","ios":"levelo://app?vid=39590c7a-d5fa-4763-b835-63b9f519d8fa"},"vehicle_type_id":"4","last_reported":1690650290,"current_range_meters":16000,"station_id":"ce4bh692rcd13ifvqea0","pricing_plan_id":"free"},{"bike_id":"7360c88c-fd01-4da7-9435-21a341dbe76c","system_id":"levelo_inurba_marseille","lat":43.292644,"lon":5.384257,"is_reserved":false,"is_disabled":false,"rental_uris":{"android":"levelo://app?vid=7360c88c-fd01-4da7-9435-21a341dbe76c","ios":"levelo://app?vid=7360c88c-fd01-4da7-9435-21a341dbe76c"},"vehicle_type_id":"4","last_reported":1690650290,"current_range_meters":17200,"station_id":"ce4bh692rcd13ifvqea0","pricing_plan_id":"free"},{"bike_id":"c924c598-c515-4f50-afd4-981651c7deb4","system_id":"levelo_inurba_marseille","lat":43.292644,"lon":5.384257,"is_reserved":false,"is_disabled":false,"rental_uris":{"android":"levelo://app?vid=c924c598-c515-4f50-afd4-981651c7deb4","ios":"levelo://app?vid=c924c598-c515-4f50-afd4-981651c7deb4"},"vehicle_type_id":"4","last_reported":1690650290,"current_range_meters":4000,"station_id":"ce4bh692rcd13ifvqea0","pricing_plan_id":"free"},{"bike_id":"c6605835-f9d6-442c-9ac8-73dd54d720da","system_id":"levelo_inurba_marseille","lat":43.292644,"lon":5.384257,"is_reserved":false,"is_disabled":false,"rental_uris":{"android":"levelo://app?vid=c6605835-f9d6-442c-9ac8-73dd54d720da","ios":"levelo://app?vid=c6605835-f9d6-442c-9ac8-73dd54d720da"},"vehicle_type_id":"4","last_reported":1690650290,"current_range_meters":14800,"station_id":"ce4bh692rcd13ifvqea0","pricing_plan_id":"free"},{"bike_id":"51626a26-b574-43b9-92a4-7b345d3fce3b","system_id":"levelo_inurba_marseille","lat":43.292644,"lon":5.384257,"is_reserved":false,"is_disabled":false,"rental_uris":{"android":"levelo://app?vid=51626a26-b574-43b9-92a4-7b345d3fce3b","ios":"levelo://app?vid=51626a26-b574-43b9-92a4-7b345d3fce3b"},"vehicle_type_id":"4","last_reported":1690650290,"current_range_meters":18800,"station_id":"ce4bh692rcd13ifvqea0","pricing_plan_id":"free"},{"bike_id":"6e450259-0aaf-4a4a-9645-92fdaa0273f5","system_id":"levelo_inurba_marseille","lat":43.292644,"lon":5.384257,"is_reserved":false,"is_disabled":false,"rental_uris":{"android":"levelo://app?vid=6e450259-0aaf-4a4a-9645-92fdaa0273f5","ios":"levelo://app?vid=6e450259-0aaf-4a4a-9645-92fdaa0273f5"},"vehicle_type_id":"4","last_reported":1690650290,"current_range_meters":31200,"station_id":"ce4bh692rcd13ifvqea0","pricing_plan_id":"free"},{"bike_id":"29b7cc61-0571-451b-8223-a2e28816ebb7","system_id":"levelo_inurba_marseille","lat":43.292644,"lon":5.384257,"is_reserved":false,"is_disabled":false,"rental_uris":{"android":"levelo://app?vid=29b7cc61-0571-451b-8223-a2e28816ebb7","ios":"levelo://app?vid=29b7cc61-0571-451b-8223-a2e28816ebb7"},"vehicle_type_id":"4","last_reported":1690650290,"current_range_meters":14800,"station_id":"ce4bh692rcd13ifvqea0","pricing_plan_id":"free"},{"bike_id":"a636eec4-b719-4e6f-b179-4c8cadeba60e","system_id":"levelo_inurba_marseille","lat":43.33043,"lon":5.38911,"is_reserved":false,"is_disabled":false,"rental_uris":{"android":"levelo://app?vid=a636eec4-b719-4e6f-b179-4c8cadeba60e","ios":"levelo://app?vid=a636eec4-b719-4e6f-b179-4c8cadeba60e"},"vehicle_type_id":"4","last_reported":1690650290,"current_range_meters":22000,"station_id":"ce4bhr92rcd13ifvqhrg","pricing_plan_id":"free"},{"bike_id":"4031e07c-3812-4dd4-9840-651d80dc70e1","system_id":"levelo_inurba_marseille","lat":43.33044,"lon":5.38915,"is_reserved":false,"is_disabled":false,"rental_uris":{"android":"levelo://app?vid=4031e07c-3812-4dd4-9840-651d80dc70e1","ios":"levelo://app?vid=4031e07c-3812-4dd4-9840-651d80dc70e1"},"vehicle_type_id":"4","last_reported":1690650290,"current_range_meters":11600,"station_id":"ce4bhr92rcd13ifvqhrg","pricing_plan_id":"free"},{"bike_id":"d8132d11-7d1d-4eb1-907e-a79177a55510","system_id":"levelo_inurba_marseille","lat":43.330464,"lon":5.389125,"is_reserved":false,"is_disabled":false,"rental_uris":{"android":"levelo://app?vid=d8132d11-7d1d-4eb1-907e-a79177a55510","ios":"levelo://app?vid=d8132d11-7d1d-4eb1-907e-a79177a55510"},"vehicle_type_id":"4","last_reported":1690650290,"current_range_meters":15200,"station_id":"ce4bhr92rcd13ifvqhrg","pricing_plan_id":"free"},{"bike_id":"fdb6e749-3542-4b67-ab6d-699bf44eff84","system_id":"levelo_inurba_marseille","lat":43.2901,"lon":5.35607,"is_reserved":false,"is_disabled":false,"rental_uris":{"android":"levelo://app?vid=fdb6e749-3542-4b67-ab6d-699bf44eff84","ios":"levelo://app?vid=fdb6e749-3542-4b67-ab6d-699bf44eff84"},"vehicle_type_id":"4","last_reported":1690650290,"current_range_meters":3600,"station_id":"ce4bhb92rcd13ifvqen0","pricing_plan_id":"free"},{"bike_id":"3e5c159c-ea52-4471-9c86-b4ee6f1541e8","system_id":"levelo_inurba_marseille","lat":43.290103,"lon":5.356114,"is_reserved":false,"is_disabled":false,"rental_uris":{"android":"levelo://app?vid=3e5c159c-ea52-4471-9c86-b4ee6f1541e8","ios":"levelo://app?vid=3e5c159c-ea52-4471-9c86-b4ee6f1541e8"},"vehicle_type_id":"4","last_reported":1690650290,"current_range_meters":1600,"station_id":"ce4bhb92rcd13ifvqen0","pricing_plan_id":"free"},{"bike_id":"95efe035-f1ee-4904-b5d5-88f29d014ea7","system_id":"levelo_inurba_marseille","lat":43.330486,"lon":5.389135,"is_reserved":false,"is_disabled":false,"rental_uris":{"android":"levelo://app?vid=95efe035-f1ee-4904-b5d5-88f29d014ea7","ios":"levelo://app?vid=95efe035-f1ee-4904-b5d5-88f29d014ea7"},"vehicle_type_id":"4","last_reported":1690650290,"current_range_meters":22000,"station_id":"ce4bhr92rcd13ifvqhrg","pricing_plan_id":"free"},{"bike_id":"134ef223-0af9-48f2-bbd1-4d84dd8cb35c","system_id":"levelo_inurba_marseille","lat":43.290104,"lon":5.356111,"is_reserved":false,"is_disabled":false,"rental_uris":{"android":"levelo://app?vid=134ef223-0af9-48f2-bbd1-4d84dd8cb35c","ios":"levelo://app?vid=134ef223-0af9-48f2-bbd1-4d84dd8cb35c"},"vehicle_type_id":"4","last_reported":1690650290,"current_range_meters":31600,"station_id":"ce4bhb92rcd13ifvqen0","pricing_plan_id":"free"},{"bike_id":"a6e9585b-2a4a-48c0-ad68-a83320eed10a","system_id":"levelo_inurba_marseille","lat":43.29004,"lon":5.35611,"is_reserved":false,"is_disabled":false,"rental_uris":{"android":"levelo://app?vid=a6e9585b-2a4a-48c0-ad68-a83320eed10a","ios":"levelo://app?vid=a6e9585b-2a4a-48c0-ad68-a83320eed10a"},"vehicle_type_id":"4","last_reported":1690650290,"current_range_meters":14400,"station_id":"ce4bhb92rcd13ifvqen0","pricing_plan_id":"free"},{"bike_id":"63d18c61-57a0-4f09-9677-05c26636f50b","system_id":"levelo_inurba_marseille","lat":43.290995,"lon":5.381361,"is_reserved":false,"is_disabled":false,"rental_uris":{"android":"levelo://app?vid=63d18c61-57a0-4f09-9677-05c26636f50b","ios":"levelo://app?vid=63d18c61-57a0-4f09-9677-05c26636f50b"},"vehicle_type_id":"4","last_reported":1690650290,"current_range_meters":18000,"station_id":"ce4bh512rcd13ifvqe2g","pricing_plan_id":"free"},{"bike_id":"a22cc939-3034-4993-8391-cac79db1ea62","system_id":"levelo_inurba_marseille","lat":43.290104,"lon":5.356111,"is_reserved":false,"is_disabled":false,"rental_uris":{"android":"levelo://app?vid=a22cc939-3034-4993-8391-cac79db1ea62","ios":"levelo://app?vid=a22cc939-3034-4993-8391-cac79db1ea62"},"vehicle_type_id":"4","last_reported":1690650290,"current_range_meters":19200,"station_id":"ce4bhb92rcd13ifvqen0","pricing_plan_id":"free"},{"bike_id":"dd9f02b5-b809-4004-91fd-8a885ea460e1","system_id":"levelo_inurba_marseille","lat":43.290104,"lon":5.356111,"is_reserved":false,"is_disabled":false,"rental_uris":{"android":"levelo://app?vid=dd9f02b5-b809-4004-91fd-8a885ea460e1","ios":"levelo://app?vid=dd9f02b5-b809-4004-91fd-8a885ea460e1"},"vehicle_type_id":"4","last_reported":1690650290,"current_range_meters":16400,"station_id":"ce4bhb92rcd13ifvqen0","pricing_plan_id":"free"},{"bike_id":"f2d86b2f-b83d-40b9-9874-88e0317155bc","system_id":"levelo_inurba_marseille","lat":43.290995,"lon":5.381361,"is_reserved":false,"is_disabled":false,"rental_uris":{"android":"levelo://app?vid=f2d86b2f-b83d-40b9-9874-88e0317155bc","ios":"levelo://app?vid=f2d86b2f-b83d-40b9-9874-88e0317155bc"},"vehicle_type_id":"4","last_reported":1690650290,"current_range_meters":400,"station_id":"ce4bh512rcd13ifvqe2g","pricing_plan_id":"free"},{"bike_id":"05bf2cc0-c80b-4d3b-9303-5cea93148e89","system_id":"levelo_inurba_marseille","lat":43.290995,"lon":5.381361,"is_reserved":false,"is_disabled":false,"rental_uris":{"android":"levelo://app?vid=05bf2cc0-c80b-4d3b-9303-5cea93148e89","ios":"levelo://app?vid=05bf2cc0-c80b-4d3b-9303-5cea93148e89"},"vehicle_type_id":"4","last_reported":1690650290,"current_range_meters":29200,"station_id":"ce4bh512rcd13ifvqe2g","pricing_plan_id":"free"},{"bike_id":"8ddfa1b1-073d-42d9-9299-39b973baa577","system_id":"levelo_inurba_marseille","lat":43.29028,"lon":5.37945,"is_reserved":false,"is_disabled":false,"rental_uris":{"android":"levelo://app?vid=8ddfa1b1-073d-42d9-9299-39b973baa577","ios":"levelo://app?vid=8ddfa1b1-073d-42d9-9299-39b973baa577"},"vehicle_type_id":"4","last_reported":1690650290,"current_range_meters":6000,"station_id":"","pricing_plan_id":"free"},{"bike_id":"f4228e0b-cd12-4b98-a71f-2d98c6202333","system_id":"levelo_inurba_marseille","lat":43.295169,"lon":5.390426,"is_reserved":false,"is_disabled":false,"rental_uris":{"android":"levelo://app?vid=f4228e0b-cd12-4b98-a71f-2d98c6202333","ios":"levelo://app?vid=f4228e0b-cd12-4b98-a71f-2d98c6202333"},"vehicle_type_id":"4","last_reported":1690650290,"current_range_meters":29600,"station_id":"ce4bh3p2rcd13ifvqdp0","pricing_plan_id":"free"},{"bike_id":"51e4ec13-95ac-4e5e-a402-0745cffe5ce8","system_id":"levelo_inurba_marseille","lat":43.295169,"lon":5.390426,"is_reserved":false,"is_disabled":false,"rental_uris":{"android":"levelo://app?vid=51e4ec13-95ac-4e5e-a402-0745cffe5ce8","ios":"levelo://app?vid=51e4ec13-95ac-4e5e-a402-0745cffe5ce8"},"vehicle_type_id":"4","last_reported":1690650290,"current_range_meters":28800,"station_id":"ce4bh3p2rcd13ifvqdp0","pricing_plan_id":"free"},{"bike_id":"30ee1da5-0202-4782-88c1-8f2f09bf8fbf","system_id":"levelo_inurba_marseille","lat":43.28977,"lon":5.378328,"is_reserved":false,"is_disabled":false,"rental_uris":{"android":"levelo://app?vid=30ee1da5-0202-4782-88c1-8f2f09bf8fbf","ios":"levelo://app?vid=30ee1da5-0202-4782-88c1-8f2f09bf8fbf"},"vehicle_type_id":"4","last_reported":1690650290,"current_range_meters":18000,"station_id":"ce4bh9p2rcd13ifvqed0","pricing_plan_id":"free"},{"bike_id":"1e03a6f5-d87b-48a5-a3d2-3b0500cb8b6e","system_id":"levelo_inurba_marseille","lat":43.33583,"lon":5.35419,"is_reserved":false,"is_disabled":false,"rental_uris":{"android":"levelo://app?vid=1e03a6f5-d87b-48a5-a3d2-3b0500cb8b6e","ios":"levelo://app?vid=1e03a6f5-d87b-48a5-a3d2-3b0500cb8b6e"},"vehicle_type_id":"4","last_reported":1690650290,"current_range_meters":20400,"station_id":"","pricing_plan_id":"free"},{"bike_id":"82fd8ab0-4011-43a7-8e49-94886d21bfac","system_id":"levelo_inurba_marseille","lat":43.28856,"lon":5.358371,"is_reserved":false,"is_disabled":false,"rental_uris":{"android":"levelo://app?vid=82fd8ab0-4011-43a7-8e49-94886d21bfac","ios":"levelo://app?vid=82fd8ab0-4011-43a7-8e49-94886d21bfac"},"vehicle_type_id":"4","last_reported":1690650290,"current_range_meters":25600,"station_id":"ce4bhb12rcd13ifvqem0","pricing_plan_id":"free"},{"bike_id":"f0767b86-84e9-4a1e-8c0f-4e2f53856aad","system_id":"levelo_inurba_marseille","lat":43.28851,"lon":5.35865,"is_reserved":false,"is_disabled":false,"rental_uris":{"android":"levelo://app?vid=f0767b86-84e9-4a1e-8c0f-4e2f53856aad","ios":"levelo://app?vid=f0767b86-84e9-4a1e-8c0f-4e2f53856aad"},"vehicle_type_id":"4","last_reported":1690650290,"current_range_meters":8400,"station_id":"ce4bhb12rcd13ifvqem0","pricing_plan_id":"free"},{"bike_id":"45e08918-61a1-4b91-b592-056a060b1af6","system_id":"levelo_inurba_marseille","lat":43.28856,"lon":5.358371,"is_reserved":false,"is_disabled":false,"rental_uris":{"android":"levelo://app?vid=45e08918-61a1-4b91-b592-056a060b1af6","ios":"levelo://app?vid=45e08918-61a1-4b91-b592-056a060b1af6"},"vehicle_type_id":"4","last_reported":1690650290,"current_range_meters":18000,"station_id":"ce4bhb12rcd13ifvqem0","pricing_plan_id":"free"},{"bike_id":"385d4c65-df36-40e0-87a9-308ba8c35b92","system_id":"levelo_inurba_marseille","lat":43.28856,"lon":5.358371,"is_reserved":false,"is_disabled":false,"rental_uris":{"android":"levelo://app?vid=385d4c65-df36-40e0-87a9-308ba8c35b92","ios":"levelo://app?vid=385d4c65-df36-40e0-87a9-308ba8c35b92"},"vehicle_type_id":"4","last_reported":1690650290,"current_range_meters":21200,"station_id":"ce4bhb12rcd13ifvqem0","pricing_plan_id":"free"},{"bike_id":"1e778a8d-ead9-403b-b66b-a4b41615af4e","system_id":"levelo_inurba_marseille","lat":43.30931,"lon":5.40139,"is_reserved":false,"is_disabled":false,"rental_uris":{"android":"levelo://app?vid=1e778a8d-ead9-403b-b66b-a4b41615af4e","ios":"levelo://app?vid=1e778a8d-ead9-403b-b66b-a4b41615af4e"},"vehicle_type_id":"4","last_reported":1690650290,"current_range_meters":24000,"station_id":"ce4bgvp2rcd13ifvqct0","pricing_plan_id":"free"},{"bike_id":"203c9009-3a4d-4936-b226-bad83c022f88","system_id":"levelo_inurba_marseille","lat":43.30928,"lon":5.40139,"is_reserved":false,"is_disabled":false,"rental_uris":{"android":"levelo://app?vid=203c9009-3a4d-4936-b226-bad83c022f88","ios":"levelo://app?vid=203c9009-3a4d-4936-b226-bad83c022f88"},"vehicle_type_id":"4","last_reported":1690650290,"current_range_meters":20400,"station_id":"ce4bgvp2rcd13ifvqct0","pricing_plan_id":"free"},{"bike_id":"48c789c4-3340-4ea3-9d42-db70adb67a4e","system_id":"levelo_inurba_marseille","lat":43.30932,"lon":5.40143,"is_reserved":false,"is_disabled":false,"rental_uris":{"android":"levelo://app?vid=48c789c4-3340-4ea3-9d42-db70adb67a4e","ios":"levelo://app?vid=48c789c4-3340-4ea3-9d42-db70adb67a4e"},"vehicle_type_id":"4","last_reported":1690650290,"current_range_meters":21200,"station_id":"ce4bgvp2rcd13ifvqct0","pricing_plan_id":"free"},{"bike_id":"7bcb2bf0-7349-408c-a26c-2651f9f07bb5","system_id":"levelo_inurba_marseille","lat":43.33749,"lon":5.37466,"is_reserved":false,"is_disabled":false,"rental_uris":{"android":"levelo://app?vid=7bcb2bf0-7349-408c-a26c-2651f9f07bb5","ios":"levelo://app?vid=7bcb2bf0-7349-408c-a26c-2651f9f07bb5"},"vehicle_type_id":"4","last_reported":1690650290,"current_range_meters":22000,"station_id":"","pricing_plan_id":"free"},{"bike_id":"5339795f-3a20-48f5-aa16-92a6c75a1831","system_id":"levelo_inurba_marseille","lat":43.33753,"lon":5.37445,"is_reserved":false,"is_disabled":false,"rental_uris":{"android":"levelo://app?vid=5339795f-3a20-48f5-aa16-92a6c75a1831","ios":"levelo://app?vid=5339795f-3a20-48f5-aa16-92a6c75a1831"},"vehicle_type_id":"4","last_reported":1690650290,"current_range_meters":22400,"station_id":"","pricing_plan_id":"free"},{"bike_id":"59976df7-227f-4714-9cb2-afaf722434f6","system_id":"levelo_inurba_marseille","lat":43.33749,"lon":5.37485,"is_reserved":false,"is_disabled":false,"rental_uris":{"android":"levelo://app?vid=59976df7-227f-4714-9cb2-afaf722434f6","ios":"levelo://app?vid=59976df7-227f-4714-9cb2-afaf722434f6"},"vehicle_type_id":"4","last_reported":1690650290,"current_range_meters":7600,"station_id":"","pricing_plan_id":"free"},{"bike_id":"abdc95c7-512f-40d0-a7cb-b7dd95637591","system_id":"levelo_inurba_marseille","lat":43.33751,"lon":5.37496,"is_reserved":false,"is_disabled":false,"rental_uris":{"android":"levelo://app?vid=abdc95c7-512f-40d0-a7cb-b7dd95637591","ios":"levelo://app?vid=abdc95c7-512f-40d0-a7cb-b7dd95637591"},"vehicle_type_id":"4","last_reported":1690650290,"current_range_meters":3200,"station_id":"","pricing_plan_id":"free"},{"bike_id":"3e64bf2b-6033-47e2-b446-66918df9f1b2","system_id":"levelo_inurba_marseille","lat":43.33759,"lon":5.37458,"is_reserved":false,"is_disabled":false,"rental_uris":{"android":"levelo://app?vid=3e64bf2b-6033-47e2-b446-66918df9f1b2","ios":"levelo://app?vid=3e64bf2b-6033-47e2-b446-66918df9f1b2"},"vehicle_type_id":"4","last_reported":1690650290,"current_range_meters":31600,"station_id":"","pricing_plan_id":"free"},{"bike_id":"7bd35dfc-701d-4a94-84b9-312701e00f76","system_id":"levelo_inurba_marseille","lat":43.33754,"lon":5.37496,"is_reserved":false,"is_disabled":false,"rental_uris":{"android":"levelo://app?vid=7bd35dfc-701d-4a94-84b9-312701e00f76","ios":"levelo://app?vid=7bd35dfc-701d-4a94-84b9-312701e00f76"},"vehicle_type_id":"4","last_reported":1690650290,"current_range_meters":20000,"station_id":"","pricing_plan_id":"free"},{"bike_id":"7783bfcf-afd0-4281-b6ef-6783658541be","system_id":"levelo_inurba_marseille","lat":43.33758,"lon":5.37491,"is_reserved":false,"is_disabled":false,"rental_uris":{"android":"levelo://app?vid=7783bfcf-afd0-4281-b6ef-6783658541be","ios":"levelo://app?vid=7783bfcf-afd0-4281-b6ef-6783658541be"},"vehicle_type_id":"4","last_reported":1690650290,"current_range_meters":31200,"station_id":"","pricing_plan_id":"free"},{"bike_id":"9aea8acd-6b6d-4dc6-a149-def9f29eb3dc","system_id":"levelo_inurba_marseille","lat":43.301117,"lon":5.398795,"is_reserved":false,"is_disabled":false,"rental_uris":{"android":"levelo://app?vid=9aea8acd-6b6d-4dc6-a149-def9f29eb3dc","ios":"levelo://app?vid=9aea8acd-6b6d-4dc6-a149-def9f29eb3dc"},"vehicle_type_id":"4","last_reported":1690650290,"current_range_meters":2800,"station_id":"ce4bh0h2rcd13ifvqd40","pricing_plan_id":"free"},{"bike_id":"5b7f6711-7808-4af2-aa31-b7a8e8beef84","system_id":"levelo_inurba_marseille","lat":43.301117,"lon":5.398795,"is_reserved":false,"is_disabled":false,"rental_uris":{"android":"levelo://app?vid=5b7f6711-7808-4af2-aa31-b7a8e8beef84","ios":"levelo://app?vid=5b7f6711-7808-4af2-aa31-b7a8e8beef84"},"vehicle_type_id":"4","last_reported":1690650290,"current_range_meters":18400,"station_id":"ce4bh0h2rcd13ifvqd40","pricing_plan_id":"free"},{"bike_id":"6f4c3883-1ded-4dff-96fe-74c59345f29d","system_id":"levelo_inurba_marseille","lat":43.301117,"lon":5.398795,"is_reserved":false,"is_disabled":false,"rental_uris":{"android":"levelo://app?vid=6f4c3883-1ded-4dff-96fe-74c59345f29d","ios":"levelo://app?vid=6f4c3883-1ded-4dff-96fe-74c59345f29d"},"vehicle_type_id":"4","last_reported":1690650290,"current_range_meters":16000,"station_id":"ce4bh0h2rcd13ifvqd40","pricing_plan_id":"free"},{"bike_id":"61a289f8-b19b-48f4-b921-d83066f42b39","system_id":"levelo_inurba_marseille","lat":43.286961,"lon":5.373785,"is_reserved":false,"is_disabled":false,"rental_uris":{"android":"levelo://app?vid=61a289f8-b19b-48f4-b921-d83066f42b39","ios":"levelo://app?vid=61a289f8-b19b-48f4-b921-d83066f42b39"},"vehicle_type_id":"4","last_reported":1690650290,"current_range_meters":0,"station_id":"ce4bh3p2rcd13ifvqdq0","pricing_plan_id":"free"},{"bike_id":"d707b1d5-3308-4263-bd3f-342b78fc684a","system_id":"levelo_inurba_marseille","lat":43.286961,"lon":5.373785,"is_reserved":false,"is_disabled":false,"rental_uris":{"android":"levelo://app?vid=d707b1d5-3308-4263-bd3f-342b78fc684a","ios":"levelo://app?vid=d707b1d5-3308-4263-bd3f-342b78fc684a"},"vehicle_type_id":"4","last_reported":1690650290,"current_range_meters":12000,"station_id":"ce4bh3p2rcd13ifvqdq0","pricing_plan_id":"free"},{"bike_id":"8109ae26-05a1-4126-995f-ba7d8fd369c6","system_id":"levelo_inurba_marseille","lat":43.286591,"lon":5.363346,"is_reserved":false,"is_disabled":false,"rental_uris":{"android":"levelo://app?vid=8109ae26-05a1-4126-995f-ba7d8fd369c6","ios":"levelo://app?vid=8109ae26-05a1-4126-995f-ba7d8fd369c6"},"vehicle_type_id":"4","last_reported":1690650290,"current_range_meters":17200,"station_id":"ce4bhah2rcd13ifvqej0","pricing_plan_id":"free"},{"bike_id":"70213f55-b45b-4402-b8a4-14f5b01cf475","system_id":"levelo_inurba_marseille","lat":43.286961,"lon":5.373785,"is_reserved":false,"is_disabled":false,"rental_uris":{"android":"levelo://app?vid=70213f55-b45b-4402-b8a4-14f5b01cf475","ios":"levelo://app?vid=70213f55-b45b-4402-b8a4-14f5b01cf475"},"vehicle_type_id":"4","last_reported":1690650290,"current_range_meters":20800,"station_id":"ce4bh3p2rcd13ifvqdq0","pricing_plan_id":"free"},{"bike_id":"c8f989ff-befb-4ff0-ac1b-b08a55655f9c","system_id":"levelo_inurba_marseille","lat":43.286961,"lon":5.373785,"is_reserved":false,"is_disabled":false,"rental_uris":{"android":"levelo://app?vid=c8f989ff-befb-4ff0-ac1b-b08a55655f9c","ios":"levelo://app?vid=c8f989ff-befb-4ff0-ac1b-b08a55655f9c"},"vehicle_type_id":"4","last_reported":1690650290,"current_range_meters":25600,"station_id":"ce4bh3p2rcd13ifvqdq0","pricing_plan_id":"free"},{"bike_id":"c079b846-cf28-4365-81d9-5f9ab48248fd","system_id":"levelo_inurba_marseille","lat":43.286591,"lon":5.363346,"is_reserved":false,"is_disabled":false,"rental_uris":{"android":"levelo://app?vid=c079b846-cf28-4365-81d9-5f9ab48248fd","ios":"levelo://app?vid=c079b846-cf28-4365-81d9-5f9ab48248fd"},"vehicle_type_id":"4","last_reported":1690650290,"current_range_meters":31200,"station_id":"ce4bhah2rcd13ifvqej0","pricing_plan_id":"free"},{"bike_id":"8f944295-a343-451e-8213-3461b56345ee","system_id":"levelo_inurba_marseille","lat":43.295196,"lon":5.39397,"is_reserved":false,"is_disabled":false,"rental_uris":{"android":"levelo://app?vid=8f944295-a343-451e-8213-3461b56345ee","ios":"levelo://app?vid=8f944295-a343-451e-8213-3461b56345ee"},"vehicle_type_id":"4","last_reported":1690650290,"current_range_meters":20800,"station_id":"ce4bh292rcd13ifvqdf0","pricing_plan_id":"free"},{"bike_id":"75199276-b705-4ad7-b6a9-49aeaa84628a","system_id":"levelo_inurba_marseille","lat":43.286593,"lon":5.363346,"is_reserved":false,"is_disabled":false,"rental_uris":{"android":"levelo://app?vid=75199276-b705-4ad7-b6a9-49aeaa84628a","ios":"levelo://app?vid=75199276-b705-4ad7-b6a9-49aeaa84628a"},"vehicle_type_id":"4","last_reported":1690650290,"current_range_meters":31200,"station_id":"ce4bhah2rcd13ifvqej0","pricing_plan_id":"free"},{"bike_id":"7da8e4cf-d7c4-44ee-8f52-90bd3e3b6771","system_id":"levelo_inurba_marseille","lat":43.302759,"lon":5.400793,"is_reserved":false,"is_disabled":false,"rental_uris":{"android":"levelo://app?vid=7da8e4cf-d7c4-44ee-8f52-90bd3e3b6771","ios":"levelo://app?vid=7da8e4cf-d7c4-44ee-8f52-90bd3e3b6771"},"vehicle_type_id":"4","last_reported":1690650290,"current_range_meters":18000,"station_id":"ce4bgvh2rcd13ifvqcs0","pricing_plan_id":"free"},{"bike_id":"b5d09001-61b0-42e1-b1d6-8fefd7ec0284","system_id":"levelo_inurba_marseille","lat":43.302759,"lon":5.400793,"is_reserved":false,"is_disabled":false,"rental_uris":{"android":"levelo://app?vid=b5d09001-61b0-42e1-b1d6-8fefd7ec0284","ios":"levelo://app?vid=b5d09001-61b0-42e1-b1d6-8fefd7ec0284"},"vehicle_type_id":"4","last_reported":1690650290,"current_range_meters":20800,"station_id":"ce4bgvh2rcd13ifvqcs0","pricing_plan_id":"free"},{"bike_id":"cefd7682-f20f-4dc4-9473-67435454444f","system_id":"levelo_inurba_marseille","lat":43.302759,"lon":5.400793,"is_reserved":false,"is_disabled":false,"rental_uris":{"android":"levelo://app?vid=cefd7682-f20f-4dc4-9473-67435454444f","ios":"levelo://app?vid=cefd7682-f20f-4dc4-9473-67435454444f"},"vehicle_type_id":"4","last_reported":1690650290,"current_range_meters":6000,"station_id":"ce4bgvh2rcd13ifvqcs0","pricing_plan_id":"free"},{"bike_id":"bc968ef9-54a3-4648-8e48-2def8f46b7ab","system_id":"levelo_inurba_marseille","lat":43.29023,"lon":5.38638,"is_reserved":false,"is_disabled":false,"rental_uris":{"android":"levelo://app?vid=bc968ef9-54a3-4648-8e48-2def8f46b7ab","ios":"levelo://app?vid=bc968ef9-54a3-4648-8e48-2def8f46b7ab"},"vehicle_type_id":"4","last_reported":1690650290,"current_range_meters":29600,"station_id":"ce4bh4p2rcd13ifvqe0g","pricing_plan_id":"free"},{"bike_id":"19158769-ad9e-4c33-ad88-601ba426f2f6","system_id":"levelo_inurba_marseille","lat":43.302759,"lon":5.400793,"is_reserved":false,"is_disabled":false,"rental_uris":{"android":"levelo://app?vid=19158769-ad9e-4c33-ad88-601ba426f2f6","ios":"levelo://app?vid=19158769-ad9e-4c33-ad88-601ba426f2f6"},"vehicle_type_id":"4","last_reported":1690650290,"current_range_meters":3600,"station_id":"ce4bgvh2rcd13ifvqcs0","pricing_plan_id":"free"},{"bike_id":"dc852456-8b47-4db3-9fd5-452ef3eaea67","system_id":"levelo_inurba_marseille","lat":43.287184,"lon":5.37937,"is_reserved":false,"is_disabled":false,"rental_uris":{"android":"levelo://app?vid=dc852456-8b47-4db3-9fd5-452ef3eaea67","ios":"levelo://app?vid=dc852456-8b47-4db3-9fd5-452ef3eaea67"},"vehicle_type_id":"4","last_reported":1690650290,"current_range_meters":15600,"station_id":"ce4bh9p2rcd13ifvqec0","pricing_plan_id":"free"},{"bike_id":"e613416b-c271-4a0b-af3d-d258688f840c","system_id":"levelo_inurba_marseille","lat":43.290336,"lon":5.386425,"is_reserved":false,"is_disabled":false,"rental_uris":{"android":"levelo://app?vid=e613416b-c271-4a0b-af3d-d258688f840c","ios":"levelo://app?vid=e613416b-c271-4a0b-af3d-d258688f840c"},"vehicle_type_id":"4","last_reported":1690650290,"current_range_meters":22400,"station_id":"ce4bh4p2rcd13ifvqe0g","pricing_plan_id":"free"},{"bike_id":"d8c20e44-31f3-44fd-9f6b-2857e569d3ad","system_id":"levelo_inurba_marseille","lat":43.31642,"lon":5.4043,"is_reserved":false,"is_disabled":false,"rental_uris":{"android":"levelo://app?vid=d8c20e44-31f3-44fd-9f6b-2857e569d3ad","ios":"levelo://app?vid=d8c20e44-31f3-44fd-9f6b-2857e569d3ad"},"vehicle_type_id":"4","last_reported":1690650290,"current_range_meters":2800,"station_id":"ce4bh012rcd13ifvqd00","pricing_plan_id":"free"},{"bike_id":"7cc77414-7355-4959-bd30-6a1816f7614c","system_id":"levelo_inurba_marseille","lat":43.316517,"lon":5.404375,"is_reserved":false,"is_disabled":false,"rental_uris":{"android":"levelo://app?vid=7cc77414-7355-4959-bd30-6a1816f7614c","ios":"levelo://app?vid=7cc77414-7355-4959-bd30-6a1816f7614c"},"vehicle_type_id":"4","last_reported":1690650290,"current_range_meters":15600,"station_id":"ce4bh012rcd13ifvqd00","pricing_plan_id":"free"},{"bike_id":"91ab7ff1-0890-4e67-b2d7-3cd987b6ca52","system_id":"levelo_inurba_marseille","lat":43.31647,"lon":5.40433,"is_reserved":false,"is_disabled":false,"rental_uris":{"android":"levelo://app?vid=91ab7ff1-0890-4e67-b2d7-3cd987b6ca52","ios":"levelo://app?vid=91ab7ff1-0890-4e67-b2d7-3cd987b6ca52"},"vehicle_type_id":"4","last_reported":1690650290,"current_range_meters":0,"station_id":"ce4bh012rcd13ifvqd00","pricing_plan_id":"free"},{"bike_id":"f9ac32d9-bfba-4bb8-97d8-4f36f34532d8","system_id":"levelo_inurba_marseille","lat":43.316517,"lon":5.404375,"is_reserved":false,"is_disabled":false,"rental_uris":{"android":"levelo://app?vid=f9ac32d9-bfba-4bb8-97d8-4f36f34532d8","ios":"levelo://app?vid=f9ac32d9-bfba-4bb8-97d8-4f36f34532d8"},"vehicle_type_id":"4","last_reported":1690650290,"current_range_meters":29600,"station_id":"ce4bh012rcd13ifvqd00","pricing_plan_id":"free"},{"bike_id":"e278d465-110d-4fc7-ad61-78c1ebec7d51","system_id":"levelo_inurba_marseille","lat":43.316517,"lon":5.404375,"is_reserved":false,"is_disabled":false,"rental_uris":{"android":"levelo://app?vid=e278d465-110d-4fc7-ad61-78c1ebec7d51","ios":"levelo://app?vid=e278d465-110d-4fc7-ad61-78c1ebec7d51"},"vehicle_type_id":"4","last_reported":1690650290,"current_range_meters":5600,"station_id":"ce4bh012rcd13ifvqd00","pricing_plan_id":"free"},{"bike_id":"c37c6b12-ee28-445a-b34b-a452abf00be4","system_id":"levelo_inurba_marseille","lat":43.31644,"lon":5.40437,"is_reserved":false,"is_disabled":false,"rental_uris":{"android":"levelo://app?vid=c37c6b12-ee28-445a-b34b-a452abf00be4","ios":"levelo://app?vid=c37c6b12-ee28-445a-b34b-a452abf00be4"},"vehicle_type_id":"4","last_reported":1690650290,"current_range_meters":30000,"station_id":"ce4bh012rcd13ifvqd00","pricing_plan_id":"free"},{"bike_id":"543fa06e-6882-4144-9966-ef2388029daf","system_id":"levelo_inurba_marseille","lat":43.316517,"lon":5.404375,"is_reserved":false,"is_disabled":false,"rental_uris":{"android":"levelo://app?vid=543fa06e-6882-4144-9966-ef2388029daf","ios":"levelo://app?vid=543fa06e-6882-4144-9966-ef2388029daf"},"vehicle_type_id":"4","last_reported":1690650290,"current_range_meters":4000,"station_id":"ce4bh012rcd13ifvqd00","pricing_plan_id":"free"},{"bike_id":"9118b72f-4b17-453b-b42d-b800e74d1915","system_id":"levelo_inurba_marseille","lat":43.316517,"lon":5.404375,"is_reserved":false,"is_disabled":false,"rental_uris":{"android":"levelo://app?vid=9118b72f-4b17-453b-b42d-b800e74d1915","ios":"levelo://app?vid=9118b72f-4b17-453b-b42d-b800e74d1915"},"vehicle_type_id":"4","last_reported":1690650290,"current_range_meters":29600,"station_id":"ce4bh012rcd13ifvqd00","pricing_plan_id":"free"},{"bike_id":"38841e0b-a30a-4980-a6bf-2f7a45219423","system_id":"levelo_inurba_marseille","lat":43.284538,"lon":5.358657,"is_reserved":false,"is_disabled":false,"rental_uris":{"android":"levelo://app?vid=38841e0b-a30a-4980-a6bf-2f7a45219423","ios":"levelo://app?vid=38841e0b-a30a-4980-a6bf-2f7a45219423"},"vehicle_type_id":"4","last_reported":1690650290,"current_range_meters":21200,"station_id":"ce4bhah2rcd13ifvqei0","pricing_plan_id":"free"},{"bike_id":"ac2e5ebc-bfe1-477e-b5cf-3be5c39a78f1","system_id":"levelo_inurba_marseille","lat":43.284538,"lon":5.358657,"is_reserved":false,"is_disabled":false,"rental_uris":{"android":"levelo://app?vid=ac2e5ebc-bfe1-477e-b5cf-3be5c39a78f1","ios":"levelo://app?vid=ac2e5ebc-bfe1-477e-b5cf-3be5c39a78f1"},"vehicle_type_id":"4","last_reported":1690650290,"current_range_meters":22800,"station_id":"ce4bhah2rcd13ifvqei0","pricing_plan_id":"free"},{"bike_id":"65eb437a-7e57-4dcc-8c71-48f2441648ba","system_id":"levelo_inurba_marseille","lat":43.284534,"lon":5.358662,"is_reserved":false,"is_disabled":false,"rental_uris":{"android":"levelo://app?vid=65eb437a-7e57-4dcc-8c71-48f2441648ba","ios":"levelo://app?vid=65eb437a-7e57-4dcc-8c71-48f2441648ba"},"vehicle_type_id":"4","last_reported":1690650290,"current_range_meters":22000,"station_id":"ce4bhah2rcd13ifvqei0","pricing_plan_id":"free"},{"bike_id":"428c4440-6fd7-49e9-ada7-d81737d72245","system_id":"levelo_inurba_marseille","lat":43.284538,"lon":5.358657,"is_reserved":false,"is_disabled":false,"rental_uris":{"android":"levelo://app?vid=428c4440-6fd7-49e9-ada7-d81737d72245","ios":"levelo://app?vid=428c4440-6fd7-49e9-ada7-d81737d72245"},"vehicle_type_id":"4","last_reported":1690650290,"current_range_meters":25600,"station_id":"ce4bhah2rcd13ifvqei0","pricing_plan_id":"free"},{"bike_id":"bb6463dc-0f50-4992-a71f-ace1fc61b746","system_id":"levelo_inurba_marseille","lat":43.284534,"lon":5.358662,"is_reserved":false,"is_disabled":false,"rental_uris":{"android":"levelo://app?vid=bb6463dc-0f50-4992-a71f-ace1fc61b746","ios":"levelo://app?vid=bb6463dc-0f50-4992-a71f-ace1fc61b746"},"vehicle_type_id":"4","last_reported":1690650290,"current_range_meters":29200,"station_id":"ce4bhah2rcd13ifvqei0","pricing_plan_id":"free"},{"bike_id":"d5246277-3f8e-43d6-8cef-9d03af5fe5b2","system_id":"levelo_inurba_marseille","lat":43.284538,"lon":5.358657,"is_reserved":false,"is_disabled":false,"rental_uris":{"android":"levelo://app?vid=d5246277-3f8e-43d6-8cef-9d03af5fe5b2","ios":"levelo://app?vid=d5246277-3f8e-43d6-8cef-9d03af5fe5b2"},"vehicle_type_id":"4","last_reported":1690650290,"current_range_meters":12000,"station_id":"ce4bhah2rcd13ifvqei0","pricing_plan_id":"free"},{"bike_id":"26f6f285-d0dc-4187-a12a-92ec04846a93","system_id":"levelo_inurba_marseille","lat":43.284534,"lon":5.358662,"is_reserved":false,"is_disabled":false,"rental_uris":{"android":"levelo://app?vid=26f6f285-d0dc-4187-a12a-92ec04846a93","ios":"levelo://app?vid=26f6f285-d0dc-4187-a12a-92ec04846a93"},"vehicle_type_id":"4","last_reported":1690650290,"current_range_meters":20400,"station_id":"ce4bhah2rcd13ifvqei0","pricing_plan_id":"free"},{"bike_id":"4d987cb1-cc6c-4504-867d-e91a72363c71","system_id":"levelo_inurba_marseille","lat":43.284534,"lon":5.358662,"is_reserved":false,"is_disabled":false,"rental_uris":{"android":"levelo://app?vid=4d987cb1-cc6c-4504-867d-e91a72363c71","ios":"levelo://app?vid=4d987cb1-cc6c-4504-867d-e91a72363c71"},"vehicle_type_id":"4","last_reported":1690650290,"current_range_meters":22800,"station_id":"ce4bhah2rcd13ifvqei0","pricing_plan_id":"free"},{"bike_id":"fb3040b4-89e4-40e0-9105-0bc3579cede1","system_id":"levelo_inurba_marseille","lat":43.31571,"lon":5.40639,"is_reserved":false,"is_disabled":false,"rental_uris":{"android":"levelo://app?vid=fb3040b4-89e4-40e0-9105-0bc3579cede1","ios":"levelo://app?vid=fb3040b4-89e4-40e0-9105-0bc3579cede1"},"vehicle_type_id":"4","last_reported":1690650290,"current_range_meters":12400,"station_id":"","pricing_plan_id":"free"},{"bike_id":"a17f75d4-b3c6-46e4-a9f7-e27796026888","system_id":"levelo_inurba_marseille","lat":43.28618,"lon":5.35108,"is_reserved":false,"is_disabled":false,"rental_uris":{"android":"levelo://app?vid=a17f75d4-b3c6-46e4-a9f7-e27796026888","ios":"levelo://app?vid=a17f75d4-b3c6-46e4-a9f7-e27796026888"},"vehicle_type_id":"4","last_reported":1690650290,"current_range_meters":20400,"station_id":"ce4bhch2rcd13ifvqeug","pricing_plan_id":"free"},{"bike_id":"55907ebf-88a4-4039-98e7-6446bafca174","system_id":"levelo_inurba_marseille","lat":43.286151,"lon":5.351049,"is_reserved":false,"is_disabled":false,"rental_uris":{"android":"levelo://app?vid=55907ebf-88a4-4039-98e7-6446bafca174","ios":"levelo://app?vid=55907ebf-88a4-4039-98e7-6446bafca174"},"vehicle_type_id":"4","last_reported":1690650290,"current_range_meters":20000,"station_id":"ce4bhch2rcd13ifvqeug","pricing_plan_id":"free"},{"bike_id":"aab3adff-8973-47f7-9281-02f5ab340a35","system_id":"levelo_inurba_marseille","lat":43.285856,"lon":5.350771,"is_reserved":false,"is_disabled":false,"rental_uris":{"android":"levelo://app?vid=aab3adff-8973-47f7-9281-02f5ab340a35","ios":"levelo://app?vid=aab3adff-8973-47f7-9281-02f5ab340a35"},"vehicle_type_id":"4","last_reported":1690650290,"current_range_meters":21600,"station_id":"ce4bhch2rcd13ifvqeug","pricing_plan_id":"free"},{"bike_id":"3ad8992f-9918-4f05-94ac-055d20e20a0d","system_id":"levelo_inurba_marseille","lat":43.28615,"lon":5.35104,"is_reserved":false,"is_disabled":false,"rental_uris":{"android":"levelo://app?vid=3ad8992f-9918-4f05-94ac-055d20e20a0d","ios":"levelo://app?vid=3ad8992f-9918-4f05-94ac-055d20e20a0d"},"vehicle_type_id":"4","last_reported":1690650290,"current_range_meters":8400,"station_id":"ce4bhch2rcd13ifvqeug","pricing_plan_id":"free"},{"bike_id":"1a3b71f0-1366-4746-8d80-acaba30c6783","system_id":"levelo_inurba_marseille","lat":43.28617,"lon":5.35092,"is_reserved":false,"is_disabled":false,"rental_uris":{"android":"levelo://app?vid=1a3b71f0-1366-4746-8d80-acaba30c6783","ios":"levelo://app?vid=1a3b71f0-1366-4746-8d80-acaba30c6783"},"vehicle_type_id":"4","last_reported":1690650290,"current_range_meters":17200,"station_id":"ce4bhch2rcd13ifvqeug","pricing_plan_id":"free"},{"bike_id":"5b112069-dd75-4a1c-a0d8-84fb8f414b25","system_id":"levelo_inurba_marseille","lat":43.28616,"lon":5.35095,"is_reserved":false,"is_disabled":false,"rental_uris":{"android":"levelo://app?vid=5b112069-dd75-4a1c-a0d8-84fb8f414b25","ios":"levelo://app?vid=5b112069-dd75-4a1c-a0d8-84fb8f414b25"},"vehicle_type_id":"4","last_reported":1690650290,"current_range_meters":29600,"station_id":"ce4bhch2rcd13ifvqeug","pricing_plan_id":"free"},{"bike_id":"3379a594-4bdb-4d92-a4e1-f47813f93272","system_id":"levelo_inurba_marseille","lat":43.31571,"lon":5.40661,"is_reserved":false,"is_disabled":false,"rental_uris":{"android":"levelo://app?vid=3379a594-4bdb-4d92-a4e1-f47813f93272","ios":"levelo://app?vid=3379a594-4bdb-4d92-a4e1-f47813f93272"},"vehicle_type_id":"4","last_reported":1690650290,"current_range_meters":18400,"station_id":"","pricing_plan_id":"free"},{"bike_id":"6cefd175-d2d9-43bd-8161-21ebaa6c6c7e","system_id":"levelo_inurba_marseille","lat":43.28417,"lon":5.37518,"is_reserved":false,"is_disabled":false,"rental_uris":{"android":"levelo://app?vid=6cefd175-d2d9-43bd-8161-21ebaa6c6c7e","ios":"levelo://app?vid=6cefd175-d2d9-43bd-8161-21ebaa6c6c7e"},"vehicle_type_id":"4","last_reported":1690650290,"current_range_meters":19600,"station_id":"ce4bh412rcd13ifvqds0","pricing_plan_id":"free"},{"bike_id":"499e2476-5790-4fd7-be4b-ce8e1dacae29","system_id":"levelo_inurba_marseille","lat":43.295713,"lon":5.399639,"is_reserved":false,"is_disabled":false,"rental_uris":{"android":"levelo://app?vid=499e2476-5790-4fd7-be4b-ce8e1dacae29","ios":"levelo://app?vid=499e2476-5790-4fd7-be4b-ce8e1dacae29"},"vehicle_type_id":"4","last_reported":1690650290,"current_range_meters":29600,"station_id":"ce4bh312rcd13ifvqdj0","pricing_plan_id":"free"},{"bike_id":"7f02d630-af23-437b-8bee-123e6799dc97","system_id":"levelo_inurba_marseille","lat":43.283998,"lon":5.375062,"is_reserved":false,"is_disabled":false,"rental_uris":{"android":"levelo://app?vid=7f02d630-af23-437b-8bee-123e6799dc97","ios":"levelo://app?vid=7f02d630-af23-437b-8bee-123e6799dc97"},"vehicle_type_id":"4","last_reported":1690650290,"current_range_meters":18000,"station_id":"ce4bh412rcd13ifvqds0","pricing_plan_id":"free"},{"bike_id":"88f2c355-7e03-4b23-804d-48d03770697b","system_id":"levelo_inurba_marseille","lat":43.283998,"lon":5.375062,"is_reserved":false,"is_disabled":false,"rental_uris":{"android":"levelo://app?vid=88f2c355-7e03-4b23-804d-48d03770697b","ios":"levelo://app?vid=88f2c355-7e03-4b23-804d-48d03770697b"},"vehicle_type_id":"4","last_reported":1690650290,"current_range_meters":28400,"station_id":"ce4bh412rcd13ifvqds0","pricing_plan_id":"free"},{"bike_id":"864c18cc-46c1-442b-ba51-ef6689075b62","system_id":"levelo_inurba_marseille","lat":43.283998,"lon":5.375062,"is_reserved":false,"is_disabled":false,"rental_uris":{"android":"levelo://app?vid=864c18cc-46c1-442b-ba51-ef6689075b62","ios":"levelo://app?vid=864c18cc-46c1-442b-ba51-ef6689075b62"},"vehicle_type_id":"4","last_reported":1690650290,"current_range_meters":29600,"station_id":"ce4bh412rcd13ifvqds0","pricing_plan_id":"free"},{"bike_id":"518c7fd9-c703-4230-b9be-0a5af8c7d1eb","system_id":"levelo_inurba_marseille","lat":43.295713,"lon":5.399639,"is_reserved":false,"is_disabled":false,"rental_uris":{"android":"levelo://app?vid=518c7fd9-c703-4230-b9be-0a5af8c7d1eb","ios":"levelo://app?vid=518c7fd9-c703-4230-b9be-0a5af8c7d1eb"},"vehicle_type_id":"4","last_reported":1690650290,"current_range_meters":20800,"station_id":"ce4bh312rcd13ifvqdj0","pricing_plan_id":"free"},{"bike_id":"8ab12ae1-ea06-4258-8d00-e8004e758426","system_id":"levelo_inurba_marseille","lat":43.283998,"lon":5.375062,"is_reserved":false,"is_disabled":false,"rental_uris":{"android":"levelo://app?vid=8ab12ae1-ea06-4258-8d00-e8004e758426","ios":"levelo://app?vid=8ab12ae1-ea06-4258-8d00-e8004e758426"},"vehicle_type_id":"4","last_reported":1690650290,"current_range_meters":18000,"station_id":"ce4bh412rcd13ifvqds0","pricing_plan_id":"free"},{"bike_id":"3c036dce-142d-426a-9d96-a91082199e5b","system_id":"levelo_inurba_marseille","lat":43.295713,"lon":5.399639,"is_reserved":false,"is_disabled":false,"rental_uris":{"android":"levelo://app?vid=3c036dce-142d-426a-9d96-a91082199e5b","ios":"levelo://app?vid=3c036dce-142d-426a-9d96-a91082199e5b"},"vehicle_type_id":"4","last_reported":1690650290,"current_range_meters":4400,"station_id":"ce4bh312rcd13ifvqdj0","pricing_plan_id":"free"},{"bike_id":"dff0ecaa-15f2-4cb5-a07d-b89b7fa73fb3","system_id":"levelo_inurba_marseille","lat":43.295713,"lon":5.399639,"is_reserved":false,"is_disabled":false,"rental_uris":{"android":"levelo://app?vid=dff0ecaa-15f2-4cb5-a07d-b89b7fa73fb3","ios":"levelo://app?vid=dff0ecaa-15f2-4cb5-a07d-b89b7fa73fb3"},"vehicle_type_id":"4","last_reported":1690650290,"current_range_meters":31200,"station_id":"ce4bh312rcd13ifvqdj0","pricing_plan_id":"free"},{"bike_id":"5031b852-7aeb-4797-bbaf-2afb80234999","system_id":"levelo_inurba_marseille","lat":43.319179,"lon":5.407725,"is_reserved":false,"is_disabled":false,"rental_uris":{"android":"levelo://app?vid=5031b852-7aeb-4797-bbaf-2afb80234999","ios":"levelo://app?vid=5031b852-7aeb-4797-bbaf-2afb80234999"},"vehicle_type_id":"4","last_reported":1690650290,"current_range_meters":26400,"station_id":"ce4bhq12rcd13ifvqhig","pricing_plan_id":"free"},{"bike_id":"3e7c8399-35a4-4364-b2a8-fee20588aad7","system_id":"levelo_inurba_marseille","lat":43.319179,"lon":5.407725,"is_reserved":false,"is_disabled":false,"rental_uris":{"android":"levelo://app?vid=3e7c8399-35a4-4364-b2a8-fee20588aad7","ios":"levelo://app?vid=3e7c8399-35a4-4364-b2a8-fee20588aad7"},"vehicle_type_id":"4","last_reported":1690650290,"current_range_meters":3600,"station_id":"ce4bhq12rcd13ifvqhig","pricing_plan_id":"free"},{"bike_id":"eca7608e-22ef-4691-91d4-a8445376b10c","system_id":"levelo_inurba_marseille","lat":43.337139,"lon":5.391786,"is_reserved":false,"is_disabled":false,"rental_uris":{"android":"levelo://app?vid=eca7608e-22ef-4691-91d4-a8445376b10c","ios":"levelo://app?vid=eca7608e-22ef-4691-91d4-a8445376b10c"},"vehicle_type_id":"4","last_reported":1690650290,"current_range_meters":24800,"station_id":"ce4bhr92rcd13ifvqhsg","pricing_plan_id":"free"},{"bike_id":"b3796af3-343c-4a37-b0e3-a70e8c4c758c","system_id":"levelo_inurba_marseille","lat":43.33716,"lon":5.391802,"is_reserved":false,"is_disabled":false,"rental_uris":{"android":"levelo://app?vid=b3796af3-343c-4a37-b0e3-a70e8c4c758c","ios":"levelo://app?vid=b3796af3-343c-4a37-b0e3-a70e8c4c758c"},"vehicle_type_id":"4","last_reported":1690650290,"current_range_meters":30800,"station_id":"ce4bhr92rcd13ifvqhsg","pricing_plan_id":"free"},{"bike_id":"5045addd-6340-48f0-95c6-71164e6f7ae9","system_id":"levelo_inurba_marseille","lat":43.33717,"lon":5.39183,"is_reserved":false,"is_disabled":false,"rental_uris":{"android":"levelo://app?vid=5045addd-6340-48f0-95c6-71164e6f7ae9","ios":"levelo://app?vid=5045addd-6340-48f0-95c6-71164e6f7ae9"},"vehicle_type_id":"4","last_reported":1690650290,"current_range_meters":30400,"station_id":"ce4bhr92rcd13ifvqhsg","pricing_plan_id":"free"},{"bike_id":"eec15f49-8a5c-47ce-a600-9a6d6b28ab85","system_id":"levelo_inurba_marseille","lat":43.33719,"lon":5.39181,"is_reserved":false,"is_disabled":false,"rental_uris":{"android":"levelo://app?vid=eec15f49-8a5c-47ce-a600-9a6d6b28ab85","ios":"levelo://app?vid=eec15f49-8a5c-47ce-a600-9a6d6b28ab85"},"vehicle_type_id":"4","last_reported":1690650290,"current_range_meters":31200,"station_id":"ce4bhr92rcd13ifvqhsg","pricing_plan_id":"free"},{"bike_id":"54fa2b28-6d84-46da-be87-b65611f7095c","system_id":"levelo_inurba_marseille","lat":43.3372,"lon":5.3918,"is_reserved":false,"is_disabled":false,"rental_uris":{"android":"levelo://app?vid=54fa2b28-6d84-46da-be87-b65611f7095c","ios":"levelo://app?vid=54fa2b28-6d84-46da-be87-b65611f7095c"},"vehicle_type_id":"4","last_reported":1690650290,"current_range_meters":31200,"station_id":"ce4bhr92rcd13ifvqhsg","pricing_plan_id":"free"},{"bike_id":"10a70b6a-5a66-4c6f-a06e-655b93dd6e0d","system_id":"levelo_inurba_marseille","lat":43.33722,"lon":5.3918,"is_reserved":false,"is_disabled":false,"rental_uris":{"android":"levelo://app?vid=10a70b6a-5a66-4c6f-a06e-655b93dd6e0d","ios":"levelo://app?vid=10a70b6a-5a66-4c6f-a06e-655b93dd6e0d"},