{"last_updated":1736244600,"ttl":60,"version":"2.2","data":{"bikes":[{"bike_id":"858bd43e-5fdd-4e4e-b8dc-df4e2d53b013","system_id":"levelo_inurba_marseille","lat":43.25831,"lon":5.39433,"is_reserved":false,"is_disabled":false,"rental_uris":{"android":"levelo://app?vid=858bd43e-5fdd-4e4e-b8dc-df4e2d53b013","ios":"levelo://app?vid=858bd43e-5fdd-4e4e-b8dc-df4e2d53b013"},"vehicle_type_id":"4","last_reported":1736244601,"current_range_meters":26800,"station_id":"ce4bhip2rcd13ifvqft0","pricing_plan_id":"cebpf4jnsgd1na2vs0mg"},{"bike_id":"6468ca15-1b81-4ca0-9d51-e5a545b05c54","system_id":"levelo_inurba_marseille","lat":43.27812,"lon":5.40731,"is_reserved":false,"is_disabled":true,"rental_uris":{"android":"levelo://app?vid=6468ca15-1b81-4ca0-9d51-e5a545b05c54","ios":"levelo://app?vid=6468ca15-1b81-4ca0-9d51-e5a545b05c54"},"vehicle_type_id":"4","last_reported":1736244601,"current_range_meters":26000,"station_id":"ce4bhnh2rcd13ifvqgtg","pricing_plan_id":"cebpf4jnsgd1na2vs0mg"},{"bike_id":"353691b9-2d3f-4d73-8ad0-0dbb644ba427","system_id":"levelo_inurba_marseille","lat":43.26944,"lon":5.38642,"is_reserved":false,"is_disabled":false,"rental_uris":{"android":"levelo://app?vid=353691b9-2d3f-4d73-8ad0-0dbb644ba427","ios":"levelo://app?vid=353691b9-2d3f-4d73-8ad0-0dbb644ba427"},"vehicle_type_id":"4","last_reported":1736244601,"current_range_meters":19600,"station_id":"ce4bhh92rcd13ifvqfh0","pricing_plan_id":"cebpf4jnsgd1na2vs0mg"},{"bike_id":"a2ff841f-2409-4b66-b120-361b3d3f8d70","system_id":"levelo_inurba_marseille","lat":43.267779,"lon":5.394177,"is_reserved":false,"is_disabled":false,"rental_uris":{"android":"levelo://app?vid=a2ff841f-2409-4b66-b120-361b3d3f8d70","ios":"levelo://app?vid=a2ff841f-2409-4b66-b120-361b3d3f8d70"},"vehicle_type_id":"4","last_reported":1736244601,"current_range_meters":25200,"station_id":"ce4bhh12rcd13ifvqfg0","pricing_plan_id":"cebpf4jnsgd1na2vs0mg"},{"bike_id":"ae4b71d6-3043-48f8-89da-de27592f2286","system_id":"levelo_inurba_marseille","lat":43.24076,"lon":5.3776,"is_reserved":false,"is_disabled":false,"rental_uris":{"android":"levelo://app?vid=ae4b71d6-3043-48f8-89da-de27592f2286","ios":"levelo://app?vid=ae4b71d6-3043-48f8-89da-de27592f2286"},"vehicle_type_id":"4","last_reported":1736244601,"current_range_meters":25600,"station_id":"ce4bhnp2rcd13ifvqgvg","pricing_plan_id":"cebpf4jnsgd1na2vs0mg"},{"bike_id":"9613f90b-2f37-462c-b77e-fcda65943653","system_id":"levelo_inurba_marseille","lat":43.279893,"lon":5.416643,"is_reserved":false,"is_disabled":false,"rental_uris":{"android":"levelo://app?vid=9613f90b-2f37-462c-b77e-fcda65943653","ios":"levelo://app?vid=9613f90b-2f37-462c-b77e-fcda65943653"},"vehicle_type_id":"4","last_reported":1736244601,"current_range_meters":32800,"station_id":"ce4bho12rcd13ifvqh1g","pricing_plan_id":"cebpf4jnsgd1na2vs0mg"},{"bike_id":"1c2c3464-8b3a-4eab-9fdd-fd6c6e2d5657","system_id":"levelo_inurba_marseille","lat":43.28684,"lon":5.38662,"is_reserved":false,"is_disabled":true,"rental_uris":{"android":"levelo://app?vid=1c2c3464-8b3a-4eab-9fdd-fd6c6e2d5657","ios":"levelo://app?vid=1c2c3464-8b3a-4eab-9fdd-fd6c6e2d5657"},"vehicle_type_id":"4","last_reported":1736244601,"current_range_meters":800,"station_id":"ce4bh492rcd13ifvqdug","pricing_plan_id":"cebpf4jnsgd1na2vs0mg"},{"bike_id":"8b2ac039-e929-4ca7-95ce-c4e861f78536","system_id":"levelo_inurba_marseille","lat":43.3176,"lon":5.39009,"is_reserved":false,"is_disabled":false,"rental_uris":{"android":"levelo://app?vid=8b2ac039-e929-4ca7-95ce-c4e861f78536","ios":"levelo://app?vid=8b2ac039-e929-4ca7-95ce-c4e861f78536"},"vehicle_type_id":"4","last_reported":1736244601,"current_range_meters":32400,"station_id":"ce4bhqp2rcd13ifvqhng","pricing_plan_id":"cebpf4jnsgd1na2vs0mg"},{"bike_id":"2d6928f8-4b5e-4102-9da8-4203b801ad10","system_id":"levelo_inurba_marseille","lat":43.30152,"lon":5.38078,"is_reserved":false,"is_disabled":false,"rental_uris":{"android":"levelo://app?vid=2d6928f8-4b5e-4102-9da8-4203b801ad10","ios":"levelo://app?vid=2d6928f8-4b5e-4102-9da8-4203b801ad10"},"vehicle_type_id":"4","last_reported":1736244601,"current_range_meters":38800,"station_id":"ce4bgjp2rcd13ifvqbh0","pricing_plan_id":"cebpf4jnsgd1na2vs0mg"},{"bike_id":"e8f7458c-cf19-43d7-a972-43547ad9fe30","system_id":"levelo_inurba_marseille","lat":43.27181,"lon":5.40993,"is_reserved":false,"is_disabled":false,"rental_uris":{"android":"levelo://app?vid=e8f7458c-cf19-43d7-a972-43547ad9fe30","ios":"levelo://app?vid=e8f7458c-cf19-43d7-a972-43547ad9fe30"},"vehicle_type_id":"4","last_reported":1736244601,"current_range_meters":4000,"station_id":"ce4bhl12rcd13ifvqgf0","pricing_plan_id":"cebpf4jnsgd1na2vs0mg"},{"bike_id":"05a2c15a-fb68-455c-8082-fdf747a62fe7","system_id":"levelo_inurba_marseille","lat":43.27821,"lon":5.4074,"is_reserved":false,"is_disabled":true,"rental_uris":{"android":"levelo://app?vid=05a2c15a-fb68-455c-8082-fdf747a62fe7","ios":"levelo://app?vid=05a2c15a-fb68-455c-8082-fdf747a62fe7"},"vehicle_type_id":"4","last_reported":1736244601,"current_range_meters":0,"station_id":"ce4bhnh2rcd13ifvqgtg","pricing_plan_id":"cebpf4jnsgd1na2vs0mg"},{"bike_id":"0e1b95fc-b8d5-43d7-88bf-7f7ee38eb74a","system_id":"levelo_inurba_marseille","lat":43.28706,"lon":5.37946,"is_reserved":false,"is_disabled":false,"rental_uris":{"android":"levelo://app?vid=0e1b95fc-b8d5-43d7-88bf-7f7ee38eb74a","ios":"levelo://app?vid=0e1b95fc-b8d5-43d7-88bf-7f7ee38eb74a"},"vehicle_type_id":"4","last_reported":1736244601,"current_range_meters":22800,"station_id":"ce4bh9p2rcd13ifvqec0","pricing_plan_id":"cebpf4jnsgd1na2vs0mg"},{"bike_id":"68ed12ce-19b0-4151-b855-11515b9fdf32","system_id":"levelo_inurba_marseille","lat":43.29297,"lon":5.3716,"is_reserved":false,"is_disabled":false,"rental_uris":{"android":"levelo://app?vid=68ed12ce-19b0-4151-b855-11515b9fdf32","ios":"levelo://app?vid=68ed12ce-19b0-4151-b855-11515b9fdf32"},"vehicle_type_id":"4","last_reported":1736244601,"current_range_meters":38800,"station_id":"ce4bgh92rcd13ifvqb40","pricing_plan_id":"cebpf4jnsgd1na2vs0mg"},{"bike_id":"2e3020fc-739e-484f-aff1-968aa18f2ac1","system_id":"levelo_inurba_marseille","lat":43.27986,"lon":5.41667,"is_reserved":false,"is_disabled":true,"rental_uris":{"android":"levelo://app?vid=2e3020fc-739e-484f-aff1-968aa18f2ac1","ios":"levelo://app?vid=2e3020fc-739e-484f-aff1-968aa18f2ac1"},"vehicle_type_id":"4","last_reported":1736244601,"current_range_meters":36800,"station_id":"ce4bho12rcd13ifvqh1g","pricing_plan_id":"cebpf4jnsgd1na2vs0mg"},{"bike_id":"a425e945-da11-41d8-bb80-d32256760811","system_id":"levelo_inurba_marseille","lat":43.30143,"lon":5.3742,"is_reserved":false,"is_disabled":false,"rental_uris":{"android":"levelo://app?vid=a425e945-da11-41d8-bb80-d32256760811","ios":"levelo://app?vid=a425e945-da11-41d8-bb80-d32256760811"},"vehicle_type_id":"4","last_reported":1736244601,"current_range_meters":39200,"station_id":"ce4bgs92rcd13ifvqcc0","pricing_plan_id":"cebpf4jnsgd1na2vs0mg"},{"bike_id":"25eada10-1de1-4fd2-9f49-86dd4ee2d477","system_id":"levelo_inurba_marseille","lat":43.26662,"lon":5.38262,"is_reserved":false,"is_disabled":false,"rental_uris":{"android":"levelo://app?vid=25eada10-1de1-4fd2-9f49-86dd4ee2d477","ios":"levelo://app?vid=25eada10-1de1-4fd2-9f49-86dd4ee2d477"},"vehicle_type_id":"4","last_reported":1736244601,"current_range_meters":39200,"station_id":"ce4bhg92rcd13ifvqf90","pricing_plan_id":"cebpf4jnsgd1na2vs0mg"},{"bike_id":"9bc564bb-6773-485d-ac7c-33edf80314fe","system_id":"levelo_inurba_marseille","lat":43.25006,"lon":5.38911,"is_reserved":false,"is_disabled":true,"rental_uris":{"android":"levelo://app?vid=9bc564bb-6773-485d-ac7c-33edf80314fe","ios":"levelo://app?vid=9bc564bb-6773-485d-ac7c-33edf80314fe"},"vehicle_type_id":"4","last_reported":1736244601,"current_range_meters":1600,"station_id":"ce4bhgp2rcd13ifvqfd0","pricing_plan_id":"cebpf4jnsgd1na2vs0mg"},{"bike_id":"5108d1d9-0c7d-43c6-8ed5-ca24fad54860","system_id":"levelo_inurba_marseille","lat":43.24059,"lon":5.37752,"is_reserved":false,"is_disabled":false,"rental_uris":{"android":"levelo://app?vid=5108d1d9-0c7d-43c6-8ed5-ca24fad54860","ios":"levelo://app?vid=5108d1d9-0c7d-43c6-8ed5-ca24fad54860"},"vehicle_type_id":"4","last_reported":1736244601,"current_range_meters":26800,"station_id":"ce4bhnp2rcd13ifvqgvg","pricing_plan_id":"cebpf4jnsgd1na2vs0mg"},{"bike_id":"5f21cdc1-e56d-4c94-b8ac-7c72599c490f","system_id":"levelo_inurba_marseille","lat":43.3054,"lon":5.36512,"is_reserved":false,"is_disabled":false,"rental_uris":{"android":"levelo://app?vid=5f21cdc1-e56d-4c94-b8ac-7c72599c490f","ios":"levelo://app?vid=5f21cdc1-e56d-4c94-b8ac-7c72599c490f"},"vehicle_type_id":"4","last_reported":1736244601,"current_range_meters":38800,"station_id":"ce4bgs12rcd13ifvqcag","pricing_plan_id":"cebpf4jnsgd1na2vs0mg"},{"bike_id":"4eeaeffa-480f-4a94-8286-42f1bcb601fc","system_id":"levelo_inurba_marseille","lat":43.2927,"lon":5.40162,"is_reserved":false,"is_disabled":true,"rental_uris":{"android":"levelo://app?vid=4eeaeffa-480f-4a94-8286-42f1bcb601fc","ios":"levelo://app?vid=4eeaeffa-480f-4a94-8286-42f1bcb601fc"},"vehicle_type_id":"4","last_reported":1736244601,"current_range_meters":18000,"station_id":"ce4bh312rcd13ifvqdk0","pricing_plan_id":"cebpf4jnsgd1na2vs0mg"},{"bike_id":"3dcc1c8e-6db9-4000-a7ee-f1b5b658ee7a","system_id":"levelo_inurba_marseille","lat":43.27182,"lon":5.40983,"is_reserved":false,"is_disabled":true,"rental_uris":{"android":"levelo://app?vid=3dcc1c8e-6db9-4000-a7ee-f1b5b658ee7a","ios":"levelo://app?vid=3dcc1c8e-6db9-4000-a7ee-f1b5b658ee7a"},"vehicle_type_id":"4","last_reported":1736244601,"current_range_meters":400,"station_id":"ce4bhl12rcd13ifvqgf0","pricing_plan_id":"cebpf4jnsgd1na2vs0mg"},{"bike_id":"9c546351-1a34-4e0c-b043-749e3ab6f40e","system_id":"levelo_inurba_marseille","lat":43.25086,"lon":5.39509,"is_reserved":false,"is_disabled":false,"rental_uris":{"android":"levelo://app?vid=9c546351-1a34-4e0c-b043-749e3ab6f40e","ios":"levelo://app?vid=9c546351-1a34-4e0c-b043-749e3ab6f40e"},"vehicle_type_id":"4","last_reported":1736244601,"current_range_meters":31200,"station_id":"ce4bhm12rcd13ifvqgkg","pricing_plan_id":"cebpf4jnsgd1na2vs0mg"},{"bike_id":"7785ab47-fc21-464f-82e3-4fad2439c0ee","system_id":"levelo_inurba_marseille","lat":43.29921,"lon":5.38167,"is_reserved":false,"is_disabled":false,"rental_uris":{"android":"levelo://app?vid=7785ab47-fc21-464f-82e3-4fad2439c0ee","ios":"levelo://app?vid=7785ab47-fc21-464f-82e3-4fad2439c0ee"},"vehicle_type_id":"4","last_reported":1736244601,"current_range_meters":15200,"station_id":"ce4bgj12rcd13ifvqbc0","pricing_plan_id":"cebpf4jnsgd1na2vs0mg"},{"bike_id":"791627df-7292-49e5-a18d-ea9baf1b04d0","system_id":"levelo_inurba_marseille","lat":43.23151,"lon":5.43707,"is_reserved":false,"is_disabled":false,"rental_uris":{"android":"levelo://app?vid=791627df-7292-49e5-a18d-ea9baf1b04d0","ios":"levelo://app?vid=791627df-7292-49e5-a18d-ea9baf1b04d0"},"vehicle_type_id":"4","last_reported":1736244601,"current_range_meters":8400,"station_id":"ce4bhmp2rcd13ifvqgog","pricing_plan_id":"cebpf4jnsgd1na2vs0mg"},{"bike_id":"fdb9800d-3c2b-423d-84ef-3f20c68ea843","system_id":"levelo_inurba_marseille","lat":43.30561,"lon":5.36746,"is_reserved":false,"is_disabled":false,"rental_uris":{"android":"levelo://app?vid=fdb9800d-3c2b-423d-84ef-3f20c68ea843","ios":"levelo://app?vid=fdb9800d-3c2b-423d-84ef-3f20c68ea843"},"vehicle_type_id":"4","last_reported":1736244601,"current_range_meters":34800,"station_id":"ce4bgrp2rcd13ifvqc9g","pricing_plan_id":"cebpf4jnsgd1na2vs0mg"},{"bike_id":"7f186891-3624-4a42-9e72-3dd6c7634569","system_id":"levelo_inurba_marseille","lat":43.3112,"lon":5.37777,"is_reserved":false,"is_disabled":false,"rental_uris":{"android":"levelo://app?vid=7f186891-3624-4a42-9e72-3dd6c7634569","ios":"levelo://app?vid=7f186891-3624-4a42-9e72-3dd6c7634569"},"vehicle_type_id":"4","last_reported":1736244601,"current_range_meters":38400,"station_id":"ce4bgt92rcd13ifvqcg0","pricing_plan_id":"cebpf4jnsgd1na2vs0mg"},{"bike_id":"7ed01b9d-e17d-44b7-923c-501cf964c57e","system_id":"levelo_inurba_marseille","lat":43.23181,"lon":5.39988,"is_reserved":false,"is_disabled":false,"rental_uris":{"android":"levelo://app?vid=7ed01b9d-e17d-44b7-923c-501cf964c57e","ios":"levelo://app?vid=7ed01b9d-e17d-44b7-923c-501cf964c57e"},"vehicle_type_id":"4","last_reported":1736244601,"current_range_meters":22400,"station_id":"ce4bhn12rcd13ifvqgqg","pricing_plan_id":"cebpf4jnsgd1na2vs0mg"},{"bike_id":"c023aed8-c4af-47de-bf55-7ec6cfb1c879","system_id":"levelo_inurba_marseille","lat":43.26188,"lon":5.3745,"is_reserved":false,"is_disabled":true,"rental_uris":{"android":"levelo://app?vid=c023aed8-c4af-47de-bf55-7ec6cfb1c879","ios":"levelo://app?vid=c023aed8-c4af-47de-bf55-7ec6cfb1c879"},"vehicle_type_id":"4","last_reported":1736244601,"current_range_meters":27600,"station_id":"ce4bhgp2rcd13ifvqfc0","pricing_plan_id":"cebpf4jnsgd1na2vs0mg"},{"bike_id":"60d95c40-061d-4378-a80c-4613fea8ac3b","system_id":"levelo_inurba_marseille","lat":43.29513,"lon":5.37505,"is_reserved":false,"is_disabled":false,"rental_uris":{"android":"levelo://app?vid=60d95c40-061d-4378-a80c-4613fea8ac3b","ios":"levelo://app?vid=60d95c40-061d-4378-a80c-4613fea8ac3b"},"vehicle_type_id":"4","last_reported":1736244601,"current_range_meters":30000,"station_id":"ce4bgkp2rcd13ifvqbmg","pricing_plan_id":"cebpf4jnsgd1na2vs0mg"},{"bike_id":"9bdd282d-6584-43c5-a2dc-f4c9643edd6e","system_id":"levelo_inurba_marseille","lat":43.24071,"lon":5.37748,"is_reserved":false,"is_disabled":false,"rental_uris":{"android":"levelo://app?vid=9bdd282d-6584-43c5-a2dc-f4c9643edd6e","ios":"levelo://app?vid=9bdd282d-6584-43c5-a2dc-f4c9643edd6e"},"vehicle_type_id":"4","last_reported":1736244601,"current_range_meters":36000,"station_id":"ce4bhnp2rcd13ifvqgvg","pricing_plan_id":"cebpf4jnsgd1na2vs0mg"},{"bike_id":"ad036647-e9f4-4246-953d-37ee6601db50","system_id":"levelo_inurba_marseille","lat":43.24683,"lon":5.38177,"is_reserved":false,"is_disabled":false,"rental_uris":{"android":"levelo://app?vid=ad036647-e9f4-4246-953d-37ee6601db50","ios":"levelo://app?vid=ad036647-e9f4-4246-953d-37ee6601db50"},"vehicle_type_id":"4","last_reported":1736244601,"current_range_meters":16800,"station_id":"ce4bhih2rcd13ifvqfr0","pricing_plan_id":"cebpf4jnsgd1na2vs0mg"},{"bike_id":"149e3021-1368-416e-9e1b-afdb4ad781f2","system_id":"levelo_inurba_marseille","lat":43.24166,"lon":5.36407,"is_reserved":false,"is_disabled":false,"rental_uris":{"android":"levelo://app?vid=149e3021-1368-416e-9e1b-afdb4ad781f2","ios":"levelo://app?vid=149e3021-1368-416e-9e1b-afdb4ad781f2"},"vehicle_type_id":"4","last_reported":1736244601,"current_range_meters":32000,"station_id":"cpo36qri1sfpv3e86is0","pricing_plan_id":"cebpf4jnsgd1na2vs0mg"},{"bike_id":"d3f4dc47-22e3-4b3a-8557-9ec7893c6ec5","system_id":"levelo_inurba_marseille","lat":43.26954,"lon":5.38641,"is_reserved":false,"is_disabled":false,"rental_uris":{"android":"levelo://app?vid=d3f4dc47-22e3-4b3a-8557-9ec7893c6ec5","ios":"levelo://app?vid=d3f4dc47-22e3-4b3a-8557-9ec7893c6ec5"},"vehicle_type_id":"4","last_reported":1736244601,"current_range_meters":28000,"station_id":"ce4bhh92rcd13ifvqfh0","pricing_plan_id":"cebpf4jnsgd1na2vs0mg"},{"bike_id":"ee7f5816-483f-4372-8ce1-bc546e1bdb5f","system_id":"levelo_inurba_marseille","lat":43.25018,"lon":5.38931,"is_reserved":false,"is_disabled":false,"rental_uris":{"android":"levelo://app?vid=ee7f5816-483f-4372-8ce1-bc546e1bdb5f","ios":"levelo://app?vid=ee7f5816-483f-4372-8ce1-bc546e1bdb5f"},"vehicle_type_id":"4","last_reported":1736244601,"current_range_meters":24000,"station_id":"ce4bhgp2rcd13ifvqfd0","pricing_plan_id":"cebpf4jnsgd1na2vs0mg"},{"bike_id":"16202a9f-64a2-4f22-a89d-1571ba28ac2b","system_id":"levelo_inurba_marseille","lat":43.30955,"lon":5.3741,"is_reserved":false,"is_disabled":false,"rental_uris":{"android":"levelo://app?vid=16202a9f-64a2-4f22-a89d-1571ba28ac2b","ios":"levelo://app?vid=16202a9f-64a2-4f22-a89d-1571ba28ac2b"},"vehicle_type_id":"4","last_reported":1736244601,"current_range_meters":20400,"station_id":"","pricing_plan_id":"cebpf4jnsgd1na2vs0mg"},{"bike_id":"1f76657f-2e33-4580-a49f-b4f2d7ec9c56","system_id":"levelo_inurba_marseille","lat":43.29534,"lon":5.38551,"is_reserved":false,"is_disabled":false,"rental_uris":{"android":"levelo://app?vid=1f76657f-2e33-4580-a49f-b4f2d7ec9c56","ios":"levelo://app?vid=1f76657f-2e33-4580-a49f-b4f2d7ec9c56"},"vehicle_type_id":"4","last_reported":1736244601,"current_range_meters":34800,"station_id":"ce4bgih2rcd13ifvqba0","pricing_plan_id":"cebpf4jnsgd1na2vs0mg"},{"bike_id":"b92414fa-f45e-4dc8-ba9a-7a0d49f60619","system_id":"levelo_inurba_marseille","lat":43.27206,"lon":5.39194,"is_reserved":false,"is_disabled":false,"rental_uris":{"android":"levelo://app?vid=b92414fa-f45e-4dc8-ba9a-7a0d49f60619","ios":"levelo://app?vid=b92414fa-f45e-4dc8-ba9a-7a0d49f60619"},"vehicle_type_id":"4","last_reported":1736244601,"current_range_meters":28400,"station_id":"ce4bhhp2rcd13ifvqfm0","pricing_plan_id":"cebpf4jnsgd1na2vs0mg"},{"bike_id":"8ab598b6-74e1-4b0e-8edb-ab2a2e4eb67e","system_id":"levelo_inurba_marseille","lat":43.2843,"lon":5.37525,"is_reserved":false,"is_disabled":true,"rental_uris":{"android":"levelo://app?vid=8ab598b6-74e1-4b0e-8edb-ab2a2e4eb67e","ios":"levelo://app?vid=8ab598b6-74e1-4b0e-8edb-ab2a2e4eb67e"},"vehicle_type_id":"4","last_reported":1736244601,"current_range_meters":36800,"station_id":"","pricing_plan_id":"cebpf4jnsgd1na2vs0mg"},{"bike_id":"6e2b8c69-2107-44ab-a9ca-a4e9d8772e45","system_id":"levelo_inurba_marseille","lat":43.33749,"lon":5.37468,"is_reserved":false,"is_disabled":true,"rental_uris":{"android":"levelo://app?vid=6e2b8c69-2107-44ab-a9ca-a4e9d8772e45","ios":"levelo://app?vid=6e2b8c69-2107-44ab-a9ca-a4e9d8772e45"},"vehicle_type_id":"4","last_reported":1736244601,"current_range_meters":38800,"station_id":"","pricing_plan_id":"cebpf4jnsgd1na2vs0mg"},{"bike_id":"4c40260a-781e-40ef-b217-5da1bae091a4","system_id":"levelo_inurba_marseille","lat":43.29577,"lon":5.37526,"is_reserved":false,"is_disabled":false,"rental_uris":{"android":"levelo://app?vid=4c40260a-781e-40ef-b217-5da1bae091a4","ios":"levelo://app?vid=4c40260a-781e-40ef-b217-5da1bae091a4"},"vehicle_type_id":"4","last_reported":1736244601,"current_range_meters":34800,"station_id":"ce4bgh92rcd13ifvqb50","pricing_plan_id":"cebpf4jnsgd1na2vs0mg"},{"bike_id":"14cb44e8-45c2-4fa5-99fe-228d2e11b237","system_id":"levelo_inurba_marseille","lat":43.28684,"lon":5.38667,"is_reserved":false,"is_disabled":false,"rental_uris":{"android":"levelo://app?vid=14cb44e8-45c2-4fa5-99fe-228d2e11b237","ios":"levelo://app?vid=14cb44e8-45c2-4fa5-99fe-228d2e11b237"},"vehicle_type_id":"4","last_reported":1736244601,"current_range_meters":31200,"station_id":"ce4bh492rcd13ifvqdug","pricing_plan_id":"cebpf4jnsgd1na2vs0mg"},{"bike_id":"5b81f44d-6688-40d5-965f-8cf49074bbc3","system_id":"levelo_inurba_marseille","lat":43.29604,"lon":5.37728,"is_reserved":false,"is_disabled":false,"rental_uris":{"android":"levelo://app?vid=5b81f44d-6688-40d5-965f-8cf49074bbc3","ios":"levelo://app?vid=5b81f44d-6688-40d5-965f-8cf49074bbc3"},"vehicle_type_id":"4","last_reported":1736244601,"current_range_meters":30400,"station_id":"ce4bgi92rcd13ifvqb90","pricing_plan_id":"cebpf4jnsgd1na2vs0mg"},{"bike_id":"e649eee8-9bc7-4af1-8705-8eca6508f8fb","system_id":"levelo_inurba_marseille","lat":43.30803,"lon":5.36821,"is_reserved":false,"is_disabled":false,"rental_uris":{"android":"levelo://app?vid=e649eee8-9bc7-4af1-8705-8eca6508f8fb","ios":"levelo://app?vid=e649eee8-9bc7-4af1-8705-8eca6508f8fb"},"vehicle_type_id":"4","last_reported":1736244601,"current_range_meters":38800,"station_id":"ce4bgn92rcd13ifvqbvg","pricing_plan_id":"cebpf4jnsgd1na2vs0mg"},{"bike_id":"90cc549c-0caa-4120-a382-164d27980f0d","system_id":"levelo_inurba_marseille","lat":43.25877,"lon":5.40888,"is_reserved":false,"is_disabled":false,"rental_uris":{"android":"levelo://app?vid=90cc549c-0caa-4120-a382-164d27980f0d","ios":"levelo://app?vid=90cc549c-0caa-4120-a382-164d27980f0d"},"vehicle_type_id":"4","last_reported":1736244601,"current_range_meters":27200,"station_id":"ce4bhm92rcd13ifvqglg","pricing_plan_id":"cebpf4jnsgd1na2vs0mg"},{"bike_id":"0d869571-702b-474e-9734-e51fa36b8db2","system_id":"levelo_inurba_marseille","lat":43.29207,"lon":5.39317,"is_reserved":false,"is_disabled":true,"rental_uris":{"android":"levelo://app?vid=0d869571-702b-474e-9734-e51fa36b8db2","ios":"levelo://app?vid=0d869571-702b-474e-9734-e51fa36b8db2"},"vehicle_type_id":"4","last_reported":1736244601,"current_range_meters":8400,"station_id":"ce4bh192rcd13ifvqdd0","pricing_plan_id":"cebpf4jnsgd1na2vs0mg"},{"bike_id":"f3744943-ee86-4660-bc5b-2f1e243daeed","system_id":"levelo_inurba_marseille","lat":43.28269,"lon":5.35082,"is_reserved":false,"is_disabled":false,"rental_uris":{"android":"levelo://app?vid=f3744943-ee86-4660-bc5b-2f1e243daeed","ios":"levelo://app?vid=f3744943-ee86-4660-bc5b-2f1e243daeed"},"vehicle_type_id":"4","last_reported":1736244601,"current_range_meters":32000,"station_id":"ce4bhbp2rcd13ifvqerg","pricing_plan_id":"cebpf4jnsgd1na2vs0mg"},{"bike_id":"6df17fb0-2ddd-4e94-9f55-4c7ec4dae7de","system_id":"levelo_inurba_marseille","lat":43.29023,"lon":5.38138,"is_reserved":false,"is_disabled":false,"rental_uris":{"android":"levelo://app?vid=6df17fb0-2ddd-4e94-9f55-4c7ec4dae7de","ios":"levelo://app?vid=6df17fb0-2ddd-4e94-9f55-4c7ec4dae7de"},"vehicle_type_id":"4","last_reported":1736244601,"current_range_meters":27600,"station_id":"ce4bh4p2rcd13ifvqe1g","pricing_plan_id":"cebpf4jnsgd1na2vs0mg"},{"bike_id":"634f6533-1a25-40ca-9a18-12a912b70bc8","system_id":"levelo_inurba_marseille","lat":43.25918,"lon":5.40901,"is_reserved":false,"is_disabled":false,"rental_uris":{"android":"levelo://app?vid=634f6533-1a25-40ca-9a18-12a912b70bc8","ios":"levelo://app?vid=634f6533-1a25-40ca-9a18-12a912b70bc8"},"vehicle_type_id":"4","last_reported":1736244601,"current_range_meters":30400,"station_id":"ce4bhm92rcd13ifvqglg","pricing_plan_id":"cebpf4jnsgd1na2vs0mg"},{"bike_id":"4c58a8a6-dfaa-45fe-b47a-5a02dc616ff5","system_id":"levelo_inurba_marseille","lat":43.27056,"lon":5.42275,"is_reserved":false,"is_disabled":false,"rental_uris":{"android":"levelo://app?vid=4c58a8a6-dfaa-45fe-b47a-5a02dc616ff5","ios":"levelo://app?vid=4c58a8a6-dfaa-45fe-b47a-5a02dc616ff5"},"vehicle_type_id":"4","last_reported":1736244601,"current_range_meters":39200,"station_id":"ce4bhk92rcd13ifvqgb0","pricing_plan_id":"cebpf4jnsgd1na2vs0mg"},{"bike_id":"e0ea2237-0ef2-4154-8a69-ef93b2bdd65b","system_id":"levelo_inurba_marseille","lat":43.25503,"lon":5.37671,"is_reserved":false,"is_disabled":false,"rental_uris":{"android":"levelo://app?vid=e0ea2237-0ef2-4154-8a69-ef93b2bdd65b","ios":"levelo://app?vid=e0ea2237-0ef2-4154-8a69-ef93b2bdd65b"},"vehicle_type_id":"4","last_reported":1736244601,"current_range_meters":38000,"station_id":"ce4bhh12rcd13ifvqff0","pricing_plan_id":"cebpf4jnsgd1na2vs0mg"},{"bike_id":"8d0a5209-eca8-4990-a4f5-66f0ee5c1c9b","system_id":"levelo_inurba_marseille","lat":43.33606,"lon":5.41027,"is_reserved":false,"is_disabled":false,"rental_uris":{"android":"levelo://app?vid=8d0a5209-eca8-4990-a4f5-66f0ee5c1c9b","ios":"levelo://app?vid=8d0a5209-eca8-4990-a4f5-66f0ee5c1c9b"},"vehicle_type_id":"4","last_reported":1736244601,"current_range_meters":23200,"station_id":"ce4bhqh2rcd13ifvqhmg","pricing_plan_id":"cebpf4jnsgd1na2vs0mg"},{"bike_id":"69778250-e48f-4e98-86f5-9664612599ad","system_id":"levelo_inurba_marseille","lat":43.29517,"lon":5.39047,"is_reserved":false,"is_disabled":false,"rental_uris":{"android":"levelo://app?vid=69778250-e48f-4e98-86f5-9664612599ad","ios":"levelo://app?vid=69778250-e48f-4e98-86f5-9664612599ad"},"vehicle_type_id":"4","last_reported":1736244601,"current_range_meters":24000,"station_id":"ce4bh3p2rcd13ifvqdp0","pricing_plan_id":"cebpf4jnsgd1na2vs0mg"},{"bike_id":"3c734b14-0d1c-4c7a-ad42-5a89ff7fd6b5","system_id":"levelo_inurba_marseille","lat":43.24544,"lon":5.39522,"is_reserved":false,"is_disabled":false,"rental_uris":{"android":"levelo://app?vid=3c734b14-0d1c-4c7a-ad42-5a89ff7fd6b5","ios":"levelo://app?vid=3c734b14-0d1c-4c7a-ad42-5a89ff7fd6b5"},"vehicle_type_id":"4","last_reported":1736244601,"current_range_meters":34000,"station_id":"ce4bhlp2rcd13ifvqgjg","pricing_plan_id":"cebpf4jnsgd1na2vs0mg"},{"bike_id":"a23e7dd5-84cc-4eca-9236-90b42c7ed41b","system_id":"levelo_inurba_marseille","lat":43.32343,"lon":5.40625,"is_reserved":false,"is_disabled":true,"rental_uris":{"android":"levelo://app?vid=a23e7dd5-84cc-4eca-9236-90b42c7ed41b","ios":"levelo://app?vid=a23e7dd5-84cc-4eca-9236-90b42c7ed41b"},"vehicle_type_id":"4","last_reported":1736244601,"current_range_meters":13600,"station_id":"ce4bhq92rcd13ifvqhjg","pricing_plan_id":"cebpf4jnsgd1na2vs0mg"},{"bike_id":"bbfcb00c-14e8-4a5b-bdad-4c72d963ad05","system_id":"levelo_inurba_marseille","lat":43.30149,"lon":5.37409,"is_reserved":false,"is_disabled":false,"rental_uris":{"android":"levelo://app?vid=bbfcb00c-14e8-4a5b-bdad-4c72d963ad05","ios":"levelo://app?vid=bbfcb00c-14e8-4a5b-bdad-4c72d963ad05"},"vehicle_type_id":"4","last_reported":1736244601,"current_range_meters":16000,"station_id":"ce4bgs92rcd13ifvqcc0","pricing_plan_id":"cebpf4jnsgd1na2vs0mg"},{"bike_id":"ea0bb747-33d2-4448-90df-4bf6cda84291","system_id":"levelo_inurba_marseille","lat":43.29307,"lon":5.37472,"is_reserved":false,"is_disabled":false,"rental_uris":{"android":"levelo://app?vid=ea0bb747-33d2-4448-90df-4bf6cda84291","ios":"levelo://app?vid=ea0bb747-33d2-4448-90df-4bf6cda84291"},"vehicle_type_id":"4","last_reported":1736244601,"current_range_meters":25600,"station_id":"ce4bgi12rcd13ifvqb70","pricing_plan_id":"cebpf4jnsgd1na2vs0mg"},{"bike_id":"bcfcdd76-be36-45b6-88f2-c3189a920404","system_id":"levelo_inurba_marseille","lat":43.30283,"lon":5.37748,"is_reserved":false,"is_disabled":false,"rental_uris":{"android":"levelo://app?vid=bcfcdd76-be36-45b6-88f2-c3189a920404","ios":"levelo://app?vid=bcfcdd76-be36-45b6-88f2-c3189a920404"},"vehicle_type_id":"4","last_reported":1736244601,"current_range_meters":39200,"station_id":"ce4bguh2rcd13ifvqcj0","pricing_plan_id":"cebpf4jnsgd1na2vs0mg"},{"bike_id":"f11f56c5-47e5-43f6-bbfb-e36c082db081","system_id":"levelo_inurba_marseille","lat":43.31392,"lon":5.36731,"is_reserved":false,"is_disabled":false,"rental_uris":{"android":"levelo://app?vid=f11f56c5-47e5-43f6-bbfb-e36c082db081","ios":"levelo://app?vid=f11f56c5-47e5-43f6-bbfb-e36c082db081"},"vehicle_type_id":"4","last_reported":1736244601,"current_range_meters":38800,"station_id":"ce4bgr92rcd13ifvqc6g","pricing_plan_id":"cebpf4jnsgd1na2vs0mg"},{"bike_id":"210f83f0-8084-4178-b9ec-f82e2b99aa76","system_id":"levelo_inurba_marseille","lat":43.25574,"lon":5.38267,"is_reserved":false,"is_disabled":false,"rental_uris":{"android":"levelo://app?vid=210f83f0-8084-4178-b9ec-f82e2b99aa76","ios":"levelo://app?vid=210f83f0-8084-4178-b9ec-f82e2b99aa76"},"vehicle_type_id":"4","last_reported":1736244601,"current_range_meters":38800,"station_id":"ce4bhih2rcd13ifvqfs0","pricing_plan_id":"cebpf4jnsgd1na2vs0mg"},{"bike_id":"abae2455-16a9-4e5a-a642-8b5cb7264c63","system_id":"levelo_inurba_marseille","lat":43.28711,"lon":5.39996,"is_reserved":false,"is_disabled":false,"rental_uris":{"android":"levelo://app?vid=abae2455-16a9-4e5a-a642-8b5cb7264c63","ios":"levelo://app?vid=abae2455-16a9-4e5a-a642-8b5cb7264c63"},"vehicle_type_id":"4","last_reported":1736244601,"current_range_meters":30800,"station_id":"ce4bho92rcd13ifvqh3g","pricing_plan_id":"cebpf4jnsgd1na2vs0mg"},{"bike_id":"db973fb0-a7a7-419f-905d-9711a91dd280","system_id":"levelo_inurba_marseille","lat":43.25721,"lon":5.41119,"is_reserved":false,"is_disabled":true,"rental_uris":{"android":"levelo://app?vid=db973fb0-a7a7-419f-905d-9711a91dd280","ios":"levelo://app?vid=db973fb0-a7a7-419f-905d-9711a91dd280"},"vehicle_type_id":"4","last_reported":1736244601,"current_range_meters":36400,"station_id":"ce4bhkp2rcd13ifvqgd0","pricing_plan_id":"cebpf4jnsgd1na2vs0mg"},{"bike_id":"a0b57a50-67bc-4d12-bffe-4176748f2bc4","system_id":"levelo_inurba_marseille","lat":43.30322,"lon":5.36899,"is_reserved":false,"is_disabled":false,"rental_uris":{"android":"levelo://app?vid=a0b57a50-67bc-4d12-bffe-4176748f2bc4","ios":"levelo://app?vid=a0b57a50-67bc-4d12-bffe-4176748f2bc4"},"vehicle_type_id":"4","last_reported":1736244601,"current_range_meters":16000,"station_id":"ce4bgqh2rcd13ifvqc5g","pricing_plan_id":"cebpf4jnsgd1na2vs0mg"},{"bike_id":"92468610-4619-4028-811e-242ed2a589b0","system_id":"levelo_inurba_marseille","lat":43.23197,"lon":5.39992,"is_reserved":false,"is_disabled":false,"rental_uris":{"android":"levelo://app?vid=92468610-4619-4028-811e-242ed2a589b0","ios":"levelo://app?vid=92468610-4619-4028-811e-242ed2a589b0"},"vehicle_type_id":"4","last_reported":1736244601,"current_range_meters":14000,"station_id":"ce4bhn12rcd13ifvqgqg","pricing_plan_id":"cebpf4jnsgd1na2vs0mg"},{"bike_id":"fe09f8ca-f67b-4f31-8eb2-63074d94e886","system_id":"levelo_inurba_marseille","lat":43.25101,"lon":5.40329,"is_reserved":false,"is_disabled":false,"rental_uris":{"android":"levelo://app?vid=fe09f8ca-f67b-4f31-8eb2-63074d94e886","ios":"levelo://app?vid=fe09f8ca-f67b-4f31-8eb2-63074d94e886"},"vehicle_type_id":"4","last_reported":1736244601,"current_range_meters":28000,"station_id":"ce4bhlh2rcd13ifvqgig","pricing_plan_id":"cebpf4jnsgd1na2vs0mg"},{"bike_id":"1bf907ea-0717-4d4f-8585-f590c9ecec4d","system_id":"levelo_inurba_marseille","lat":43.24042,"lon":5.37749,"is_reserved":false,"is_disabled":true,"rental_uris":{"android":"levelo://app?vid=1bf907ea-0717-4d4f-8585-f590c9ecec4d","ios":"levelo://app?vid=1bf907ea-0717-4d4f-8585-f590c9ecec4d"},"vehicle_type_id":"4","last_reported":1736244601,"current_range_meters":37600,"station_id":"ce4bhnp2rcd13ifvqgvg","pricing_plan_id":"cebpf4jnsgd1na2vs0mg"},{"bike_id":"20262c15-fd4e-4e8f-a2d8-9b1160b0134a","system_id":"levelo_inurba_marseille","lat":43.337444,"lon":5.374475,"is_reserved":false,"is_disabled":false,"rental_uris":{"android":"levelo://app?vid=20262c15-fd4e-4e8f-a2d8-9b1160b0134a","ios":"levelo://app?vid=20262c15-fd4e-4e8f-a2d8-9b1160b0134a"},"vehicle_type_id":"4","last_reported":1736244601,"current_range_meters":38400,"station_id":"","pricing_plan_id":"cebpf4jnsgd1na2vs0mg"},{"bike_id":"bf3b87f9-dd67-49e8-97eb-076d78f0412d","system_id":"levelo_inurba_marseille","lat":43.26681,"lon":5.38292,"is_reserved":false,"is_disabled":false,"rental_uris":{"android":"levelo://app?vid=bf3b87f9-dd67-49e8-97eb-076d78f0412d","ios":"levelo://app?vid=bf3b87f9-dd67-49e8-97eb-076d78f0412d"},"vehicle_type_id":"4","last_reported":1736244601,"current_range_meters":39200,"station_id":"ce4bhg92rcd13ifvqf90","pricing_plan_id":"cebpf4jnsgd1na2vs0mg"},{"bike_id":"ad92df60-f3d5-495a-8326-c79bafcf1594","system_id":"levelo_inurba_marseille","lat":43.32287,"lon":5.38304,"is_reserved":false,"is_disabled":false,"rental_uris":{"android":"levelo://app?vid=ad92df60-f3d5-495a-8326-c79bafcf1594","ios":"levelo://app?vid=ad92df60-f3d5-495a-8326-c79bafcf1594"},"vehicle_type_id":"4","last_reported":1736244601,"current_range_meters":38800,"station_id":"ce4bhr12rcd13ifvqhqg","pricing_plan_id":"cebpf4jnsgd1na2vs0mg"},{"bike_id":"c0582d81-71b0-4eea-ba50-4da054cc145f","system_id":"levelo_inurba_marseille","lat":43.28153,"lon":5.42647,"is_reserved":false,"is_disabled":false,"rental_uris":{"android":"levelo://app?vid=c0582d81-71b0-4eea-ba50-4da054cc145f","ios":"levelo://app?vid=c0582d81-71b0-4eea-ba50-4da054cc145f"},"vehicle_type_id":"4","last_reported":1736244601,"current_range_meters":6400,"station_id":"ce4bhnh2rcd13ifvqgug","pricing_plan_id":"cebpf4jnsgd1na2vs0mg"},{"bike_id":"0aa10dfe-cc5f-4fc7-90b8-fc6a5ef6e9bf","system_id":"levelo_inurba_marseille","lat":43.25577,"lon":5.38236,"is_reserved":false,"is_disabled":false,"rental_uris":{"android":"levelo://app?vid=0aa10dfe-cc5f-4fc7-90b8-fc6a5ef6e9bf","ios":"levelo://app?vid=0aa10dfe-cc5f-4fc7-90b8-fc6a5ef6e9bf"},"vehicle_type_id":"4","last_reported":1736244601,"current_range_meters":16800,"station_id":"ce4bhih2rcd13ifvqfs0","pricing_plan_id":"cebpf4jnsgd1na2vs0mg"},{"bike_id":"bc9bb4d7-2fdc-4d34-b0a0-ed77a3035abd","system_id":"levelo_inurba_marseille","lat":43.31687,"lon":5.37753,"is_reserved":false,"is_disabled":false,"rental_uris":{"android":"levelo://app?vid=bc9bb4d7-2fdc-4d34-b0a0-ed77a3035abd","ios":"levelo://app?vid=bc9bb4d7-2fdc-4d34-b0a0-ed77a3035abd"},"vehicle_type_id":"4","last_reported":1736244601,"current_range_meters":27200,"station_id":"ce4bgth2rcd13ifvqch0","pricing_plan_id":"cebpf4jnsgd1na2vs0mg"},{"bike_id":"8426cb75-87ab-4635-ad12-c9daf81b2fdc","system_id":"levelo_inurba_marseille","lat":43.28155,"lon":5.42658,"is_reserved":false,"is_disabled":false,"rental_uris":{"android":"levelo://app?vid=8426cb75-87ab-4635-ad12-c9daf81b2fdc","ios":"levelo://app?vid=8426cb75-87ab-4635-ad12-c9daf81b2fdc"},"vehicle_type_id":"4","last_reported":1736244601,"current_range_meters":22800,"station_id":"ce4bhnh2rcd13ifvqgug","pricing_plan_id":"cebpf4jnsgd1na2vs0mg"},{"bike_id":"7b78d5e2-5142-402d-a4f8-0f3037a6c533","system_id":"levelo_inurba_marseille","lat":43.26942,"lon":5.38628,"is_reserved":false,"is_disabled":true,"rental_uris":{"android":"levelo://app?vid=7b78d5e2-5142-402d-a4f8-0f3037a6c533","ios":"levelo://app?vid=7b78d5e2-5142-402d-a4f8-0f3037a6c533"},"vehicle_type_id":"4","last_reported":1736244601,"current_range_meters":33600,"station_id":"ce4bhh92rcd13ifvqfh0","pricing_plan_id":"cebpf4jnsgd1na2vs0mg"},{"bike_id":"f6b49847-7134-4441-8100-28b15567ae18","system_id":"levelo_inurba_marseille","lat":43.23149,"lon":5.43727,"is_reserved":false,"is_disabled":false,"rental_uris":{"android":"levelo://app?vid=f6b49847-7134-4441-8100-28b15567ae18","ios":"levelo://app?vid=f6b49847-7134-4441-8100-28b15567ae18"},"vehicle_type_id":"4","last_reported":1736244601,"current_range_meters":32000,"station_id":"ce4bhmp2rcd13ifvqgog","pricing_plan_id":"cebpf4jnsgd1na2vs0mg"},{"bike_id":"57940789-524a-4c49-8824-fcb1509da1dc","system_id":"levelo_inurba_marseille","lat":43.26939,"lon":5.40254,"is_reserved":false,"is_disabled":false,"rental_uris":{"android":"levelo://app?vid=57940789-524a-4c49-8824-fcb1509da1dc","ios":"levelo://app?vid=57940789-524a-4c49-8824-fcb1509da1dc"},"vehicle_type_id":"4","last_reported":1736244601,"current_range_meters":19600,"station_id":"cjm6bp8fraef2m0cb0m0","pricing_plan_id":"cebpf4jnsgd1na2vs0mg"},{"bike_id":"ccefbdf4-df27-4947-9b01-eba3707af800","system_id":"levelo_inurba_marseille","lat":43.2954,"lon":5.38559,"is_reserved":false,"is_disabled":true,"rental_uris":{"android":"levelo://app?vid=ccefbdf4-df27-4947-9b01-eba3707af800","ios":"levelo://app?vid=ccefbdf4-df27-4947-9b01-eba3707af800"},"vehicle_type_id":"4","last_reported":1736244601,"current_range_meters":22000,"station_id":"ce4bgih2rcd13ifvqba0","pricing_plan_id":"cebpf4jnsgd1na2vs0mg"},{"bike_id":"05efc8db-a5eb-4569-9898-5a3e81ef0286","system_id":"levelo_inurba_marseille","lat":43.26578,"lon":5.39037,"is_reserved":false,"is_disabled":false,"rental_uris":{"android":"levelo://app?vid=05efc8db-a5eb-4569-9898-5a3e81ef0286","ios":"levelo://app?vid=05efc8db-a5eb-4569-9898-5a3e81ef0286"},"vehicle_type_id":"4","last_reported":1736244601,"current_range_meters":33600,"station_id":"ce4bhe12rcd13ifvqf30","pricing_plan_id":"cebpf4jnsgd1na2vs0mg"},{"bike_id":"1a8a4ac6-721e-46c5-9bc1-8786c572105f","system_id":"levelo_inurba_marseille","lat":43.24071,"lon":5.37741,"is_reserved":false,"is_disabled":true,"rental_uris":{"android":"levelo://app?vid=1a8a4ac6-721e-46c5-9bc1-8786c572105f","ios":"levelo://app?vid=1a8a4ac6-721e-46c5-9bc1-8786c572105f"},"vehicle_type_id":"4","last_reported":1736244601,"current_range_meters":1600,"station_id":"ce4bhnp2rcd13ifvqgvg","pricing_plan_id":"cebpf4jnsgd1na2vs0mg"},{"bike_id":"7cf7b25f-d4b6-482e-ab44-d17028d65cd7","system_id":"levelo_inurba_marseille","lat":43.31694,"lon":5.37769,"is_reserved":false,"is_disabled":false,"rental_uris":{"android":"levelo://app?vid=7cf7b25f-d4b6-482e-ab44-d17028d65cd7","ios":"levelo://app?vid=7cf7b25f-d4b6-482e-ab44-d17028d65cd7"},"vehicle_type_id":"4","last_reported":1736244601,"current_range_meters":39200,"station_id":"ce4bgth2rcd13ifvqch0","pricing_plan_id":"cebpf4jnsgd1na2vs0mg"},{"bike_id":"76cd352e-a8d9-42f0-bb47-cbf0cb3d076a","system_id":"levelo_inurba_marseille","lat":43.26689,"lon":5.38286,"is_reserved":false,"is_disabled":false,"rental_uris":{"android":"levelo://app?vid=76cd352e-a8d9-42f0-bb47-cbf0cb3d076a","ios":"levelo://app?vid=76cd352e-a8d9-42f0-bb47-cbf0cb3d076a"},"vehicle_type_id":"4","last_reported":1736244601,"current_range_meters":19200,"station_id":"ce4bhg92rcd13ifvqf90","pricing_plan_id":"cebpf4jnsgd1na2vs0mg"},{"bike_id":"595af76e-9cd9-40a6-be88-7f0bf392cb89","system_id":"levelo_inurba_marseille","lat":43.30872,"lon":5.37208,"is_reserved":false,"is_disabled":false,"rental_uris":{"android":"levelo://app?vid=595af76e-9cd9-40a6-be88-7f0bf392cb89","ios":"levelo://app?vid=595af76e-9cd9-40a6-be88-7f0bf392cb89"},"vehicle_type_id":"4","last_reported":1736244601,"current_range_meters":38000,"station_id":"ce4bguh2rcd13ifvqckg","pricing_plan_id":"cebpf4jnsgd1na2vs0mg"},{"bike_id":"1c481475-c11b-4ecc-bc54-1fc518f12b1f","system_id":"levelo_inurba_marseille","lat":43.31707,"lon":5.37761,"is_reserved":false,"is_disabled":false,"rental_uris":{"android":"levelo://app?vid=1c481475-c11b-4ecc-bc54-1fc518f12b1f","ios":"levelo://app?vid=1c481475-c11b-4ecc-bc54-1fc518f12b1f"},"vehicle_type_id":"4","last_reported":1736244601,"current_range_meters":38800,"station_id":"ce4bgth2rcd13ifvqch0","pricing_plan_id":"cebpf4jnsgd1na2vs0mg"},{"bike_id":"575780d5-a55f-439e-b7aa-e26e28129fb6","system_id":"levelo_inurba_marseille","lat":43.29565,"lon":5.37509,"is_reserved":false,"is_disabled":false,"rental_uris":{"android":"levelo://app?vid=575780d5-a55f-439e-b7aa-e26e28129fb6","ios":"levelo://app?vid=575780d5-a55f-439e-b7aa-e26e28129fb6"},"vehicle_type_id":"4","last_reported":1736244601,"current_range_meters":27600,"station_id":"ce4bgh92rcd13ifvqb50","pricing_plan_id":"cebpf4jnsgd1na2vs0mg"},{"bike_id":"bf21850d-acff-4543-bb38-ded9a3c0e11c","system_id":"levelo_inurba_marseille","lat":43.2668,"lon":5.38276,"is_reserved":false,"is_disabled":false,"rental_uris":{"android":"levelo://app?vid=bf21850d-acff-4543-bb38-ded9a3c0e11c","ios":"levelo://app?vid=bf21850d-acff-4543-bb38-ded9a3c0e11c"},"vehicle_type_id":"4","last_reported":1736244601,"current_range_meters":20800,"station_id":"ce4bhg92rcd13ifvqf90","pricing_plan_id":"cebpf4jnsgd1na2vs0mg"},{"bike_id":"843782ef-43a4-4c51-a9bd-e408024fa00f","system_id":"levelo_inurba_marseille","lat":43.30599,"lon":5.37206,"is_reserved":false,"is_disabled":false,"rental_uris":{"android":"levelo://app?vid=843782ef-43a4-4c51-a9bd-e408024fa00f","ios":"levelo://app?vid=843782ef-43a4-4c51-a9bd-e408024fa00f"},"vehicle_type_id":"4","last_reported":1736244601,"current_range_meters":38000,"station_id":"ce4bgqh2rcd13ifvqc4g","pricing_plan_id":"cebpf4jnsgd1na2vs0mg"},{"bike_id":"637c9e25-6ec5-4d5c-9ec9-ed6c73dcb821","system_id":"levelo_inurba_marseille","lat":43.31706,"lon":5.37778,"is_reserved":false,"is_disabled":false,"rental_uris":{"android":"levelo://app?vid=637c9e25-6ec5-4d5c-9ec9-ed6c73dcb821","ios":"levelo://app?vid=637c9e25-6ec5-4d5c-9ec9-ed6c73dcb821"},"vehicle_type_id":"4","last_reported":1736244601,"current_range_meters":36400,"station_id":"ce4bgth2rcd13ifvqch0","pricing_plan_id":"cebpf4jnsgd1na2vs0mg"},{"bike_id":"c4203568-2920-4a3a-9254-b7dbce893e33","system_id":"levelo_inurba_marseille","lat":43.29096,"lon":5.38133,"is_reserved":false,"is_disabled":false,"rental_uris":{"android":"levelo://app?vid=c4203568-2920-4a3a-9254-b7dbce893e33","ios":"levelo://app?vid=c4203568-2920-4a3a-9254-b7dbce893e33"},"vehicle_type_id":"4","last_reported":1736244601,"current_range_meters":38800,"station_id":"ce4bh512rcd13ifvqe2g","pricing_plan_id":"cebpf4jnsgd1na2vs0mg"},{"bike_id":"177ffa1e-b447-4332-b1a4-7216cfbbfdd7","system_id":"levelo_inurba_marseille","lat":43.2956,"lon":5.37513,"is_reserved":false,"is_disabled":false,"rental_uris":{"android":"levelo://app?vid=177ffa1e-b447-4332-b1a4-7216cfbbfdd7","ios":"levelo://app?vid=177ffa1e-b447-4332-b1a4-7216cfbbfdd7"},"vehicle_type_id":"4","last_reported":1736244601,"current_range_meters":20800,"station_id":"ce4bgh92rcd13ifvqb50","pricing_plan_id":"cebpf4jnsgd1na2vs0mg"},{"bike_id":"96a1ed18-8203-4ff8-8566-cdff57082900","system_id":"levelo_inurba_marseille","lat":43.30325,"lon":5.40436,"is_reserved":false,"is_disabled":false,"rental_uris":{"android":"levelo://app?vid=96a1ed18-8203-4ff8-8566-cdff57082900","ios":"levelo://app?vid=96a1ed18-8203-4ff8-8566-cdff57082900"},"vehicle_type_id":"4","last_reported":1736244601,"current_range_meters":38000,"station_id":"ce4bh012rcd13ifvqd10","pricing_plan_id":"cebpf4jnsgd1na2vs0mg"},{"bike_id":"bdd62aa5-2f74-44b1-8170-3e44d6ed0b87","system_id":"levelo_inurba_marseille","lat":43.30954,"lon":5.39034,"is_reserved":false,"is_disabled":false,"rental_uris":{"android":"levelo://app?vid=bdd62aa5-2f74-44b1-8170-3e44d6ed0b87","ios":"levelo://app?vid=bdd62aa5-2f74-44b1-8170-3e44d6ed0b87"},"vehicle_type_id":"4","last_reported":1736244601,"current_range_meters":38800,"station_id":"ce4bgup2rcd13ifvqco0","pricing_plan_id":"cebpf4jnsgd1na2vs0mg"},{"bike_id":"0c812796-6432-4407-90e3-d880842172aa","system_id":"levelo_inurba_marseille","lat":43.24077,"lon":5.37746,"is_reserved":false,"is_disabled":false,"rental_uris":{"android":"levelo://app?vid=0c812796-6432-4407-90e3-d880842172aa","ios":"levelo://app?vid=0c812796-6432-4407-90e3-d880842172aa"},"vehicle_type_id":"4","last_reported":1736244601,"current_range_meters":23200,"station_id":"ce4bhnp2rcd13ifvqgvg","pricing_plan_id":"cebpf4jnsgd1na2vs0mg"},{"bike_id":"48ea2051-fcf3-46d8-a1d9-b7059b514789","system_id":"levelo_inurba_marseille","lat":43.28262,"lon":5.35074,"is_reserved":false,"is_disabled":false,"rental_uris":{"android":"levelo://app?vid=48ea2051-fcf3-46d8-a1d9-b7059b514789","ios":"levelo://app?vid=48ea2051-fcf3-46d8-a1d9-b7059b514789"},"vehicle_type_id":"4","last_reported":1736244601,"current_range_meters":39200,"station_id":"ce4bhbp2rcd13ifvqerg","pricing_plan_id":"cebpf4jnsgd1na2vs0mg"},{"bike_id":"c0e46edd-b62d-4220-8a57-2dca32b0cc96","system_id":"levelo_inurba_marseille","lat":43.29443,"lon":5.3976,"is_reserved":false,"is_disabled":false,"rental_uris":{"android":"levelo://app?vid=c0e46edd-b62d-4220-8a57-2dca32b0cc96","ios":"levelo://app?vid=c0e46edd-b62d-4220-8a57-2dca32b0cc96"},"vehicle_type_id":"4","last_reported":1736244601,"current_range_meters":26800,"station_id":"ce4bh3h2rcd13ifvqdo0","pricing_plan_id":"cebpf4jnsgd1na2vs0mg"},{"bike_id":"cd364d72-d31a-4414-89fd-aae55a557184","system_id":"levelo_inurba_marseille","lat":43.32329,"lon":5.40639,"is_reserved":false,"is_disabled":false,"rental_uris":{"android":"levelo://app?vid=cd364d72-d31a-4414-89fd-aae55a557184","ios":"levelo://app?vid=cd364d72-d31a-4414-89fd-aae55a557184"},"vehicle_type_id":"4","last_reported":1736244601,"current_range_meters":38800,"station_id":"ce4bhq92rcd13ifvqhjg","pricing_plan_id":"cebpf4jnsgd1na2vs0mg"},{"bike_id":"95e5cb8a-94c1-4734-b68c-d5e982be7034","system_id":"levelo_inurba_marseille","lat":43.25823,"lon":5.39445,"is_reserved":false,"is_disabled":true,"rental_uris":{"android":"levelo://app?vid=95e5cb8a-94c1-4734-b68c-d5e982be7034","ios":"levelo://app?vid=95e5cb8a-94c1-4734-b68c-d5e982be7034"},"vehicle_type_id":"4","last_reported":1736244601,"current_range_meters":35600,"station_id":"ce4bhip2rcd13ifvqft0","pricing_plan_id":"cebpf4jnsgd1na2vs0mg"},{"bike_id":"6a595de3-0911-46a9-bdbf-4cca5437105e","system_id":"levelo_inurba_marseille","lat":43.23198,"lon":5.35564,"is_reserved":false,"is_disabled":false,"rental_uris":{"android":"levelo://app?vid=6a595de3-0911-46a9-bdbf-4cca5437105e","ios":"levelo://app?vid=6a595de3-0911-46a9-bdbf-4cca5437105e"},"vehicle_type_id":"4","last_reported":1736244601,"current_range_meters":16400,"station_id":"ce4bhu92rcd13ifvqi70","pricing_plan_id":"cebpf4jnsgd1na2vs0mg"},{"bike_id":"641d8acc-50b2-4173-ab23-c70f2a11d28e","system_id":"levelo_inurba_marseille","lat":43.28153,"lon":5.42641,"is_reserved":false,"is_disabled":true,"rental_uris":{"android":"levelo://app?vid=641d8acc-50b2-4173-ab23-c70f2a11d28e","ios":"levelo://app?vid=641d8acc-50b2-4173-ab23-c70f2a11d28e"},"vehicle_type_id":"4","last_reported":1736244601,"current_range_meters":24400,"station_id":"ce4bhnh2rcd13ifvqgug","pricing_plan_id":"cebpf4jnsgd1na2vs0mg"},{"bike_id":"e95dd087-2cca-430b-a8b0-f0ecfac24a09","system_id":"levelo_inurba_marseille","lat":43.28615,"lon":5.35103,"is_reserved":false,"is_disabled":false,"rental_uris":{"android":"levelo://app?vid=e95dd087-2cca-430b-a8b0-f0ecfac24a09","ios":"levelo://app?vid=e95dd087-2cca-430b-a8b0-f0ecfac24a09"},"vehicle_type_id":"4","last_reported":1736244601,"current_range_meters":3600,"station_id":"ce4bhch2rcd13ifvqeug","pricing_plan_id":"cebpf4jnsgd1na2vs0mg"},{"bike_id":"15e503f5-1d52-42d6-a98f-33a61fd8b554","system_id":"levelo_inurba_marseille","lat":43.28462,"lon":5.359,"is_reserved":false,"is_disabled":true,"rental_uris":{"android":"levelo://app?vid=15e503f5-1d52-42d6-a98f-33a61fd8b554","ios":"levelo://app?vid=15e503f5-1d52-42d6-a98f-33a61fd8b554"},"vehicle_type_id":"4","last_reported":1736244601,"current_range_meters":16800,"station_id":"ce4bhah2rcd13ifvqei0","pricing_plan_id":"cebpf4jnsgd1na2vs0mg"},{"bike_id":"fc4f4fbe-0b2c-431b-a14f-b432ec7eed3b","system_id":"levelo_inurba_marseille","lat":43.30958,"lon":5.39043,"is_reserved":false,"is_disabled":false,"rental_uris":{"android":"levelo://app?vid=fc4f4fbe-0b2c-431b-a14f-b432ec7eed3b","ios":"levelo://app?vid=fc4f4fbe-0b2c-431b-a14f-b432ec7eed3b"},"vehicle_type_id":"4","last_reported":1736244601,"current_range_meters":6400,"station_id":"ce4bgup2rcd13ifvqco0","pricing_plan_id":"cebpf4jnsgd1na2vs0mg"},{"bike_id":"f60851cf-8079-4194-b5ee-010eac7afe0e","system_id":"levelo_inurba_marseille","lat":43.27063,"lon":5.42288,"is_reserved":false,"is_disabled":false,"rental_uris":{"android":"levelo://app?vid=f60851cf-8079-4194-b5ee-010eac7afe0e","ios":"levelo://app?vid=f60851cf-8079-4194-b5ee-010eac7afe0e"},"vehicle_type_id":"4","last_reported":1736244601,"current_range_meters":39200,"station_id":"ce4bhk92rcd13ifvqgb0","pricing_plan_id":"cebpf4jnsgd1na2vs0mg"},{"bike_id":"2eeaf332-0d9d-4b54-9ab1-76de66e1189c","system_id":"levelo_inurba_marseille","lat":43.26956,"lon":5.38657,"is_reserved":false,"is_disabled":false,"rental_uris":{"android":"levelo://app?vid=2eeaf332-0d9d-4b54-9ab1-76de66e1189c","ios":"levelo://app?vid=2eeaf332-0d9d-4b54-9ab1-76de66e1189c"},"vehicle_type_id":"4","last_reported":1736244601,"current_range_meters":38800,"station_id":"ce4bhh92rcd13ifvqfh0","pricing_plan_id":"cebpf4jnsgd1na2vs0mg"},{"bike_id":"839dddab-f809-4e74-adb2-39c2d55d1a69","system_id":"levelo_inurba_marseille","lat":43.337444,"lon":5.374475,"is_reserved":false,"is_disabled":false,"rental_uris":{"android":"levelo://app?vid=839dddab-f809-4e74-adb2-39c2d55d1a69","ios":"levelo://app?vid=839dddab-f809-4e74-adb2-39c2d55d1a69"},"vehicle_type_id":"4","last_reported":1736244601,"current_range_meters":12400,"station_id":"ce4bhb92rcd13ifvqen0","pricing_plan_id":"cebpf4jnsgd1na2vs0mg"},{"bike_id":"0c4b82b8-4ee9-4dc4-ac7d-6813a20fa47b","system_id":"levelo_inurba_marseille","lat":43.29529,"lon":5.37501,"is_reserved":false,"is_disabled":false,"rental_uris":{"android":"levelo://app?vid=0c4b82b8-4ee9-4dc4-ac7d-6813a20fa47b","ios":"levelo://app?vid=0c4b82b8-4ee9-4dc4-ac7d-6813a20fa47b"},"vehicle_type_id":"4","last_reported":1736244601,"current_range_meters":38800,"station_id":"ce4bgkp2rcd13ifvqbmg","pricing_plan_id":"cebpf4jnsgd1na2vs0mg"},{"bike_id":"e79bc630-e2e9-4018-ae9a-5aaa4afbca11","system_id":"levelo_inurba_marseille","lat":43.29294,"lon":5.37447,"is_reserved":false,"is_disabled":false,"rental_uris":{"android":"levelo://app?vid=e79bc630-e2e9-4018-ae9a-5aaa4afbca11","ios":"levelo://app?vid=e79bc630-e2e9-4018-ae9a-5aaa4afbca11"},"vehicle_type_id":"4","last_reported":1736244601,"current_range_meters":33600,"station_id":"ce4bgi12rcd13ifvqb70","pricing_plan_id":"cebpf4jnsgd1na2vs0mg"},{"bike_id":"97db5fba-863c-4fa0-a4ed-153fce28887a","system_id":"levelo_inurba_marseille","lat":43.29101,"lon":5.37176,"is_reserved":false,"is_disabled":false,"rental_uris":{"android":"levelo://app?vid=97db5fba-863c-4fa0-a4ed-153fce28887a","ios":"levelo://app?vid=97db5fba-863c-4fa0-a4ed-153fce28887a"},"vehicle_type_id":"4","last_reported":1736244601,"current_range_meters":35200,"station_id":"ce4bh5p2rcd13ifvqe4g","pricing_plan_id":"cebpf4jnsgd1na2vs0mg"},{"bike_id":"6d88bbf0-f428-4bd4-ab8a-2ee8d5e7c74e","system_id":"levelo_inurba_marseille","lat":43.23043,"lon":5.35513,"is_reserved":false,"is_disabled":false,"rental_uris":{"android":"levelo://app?vid=6d88bbf0-f428-4bd4-ab8a-2ee8d5e7c74e","ios":"levelo://app?vid=6d88bbf0-f428-4bd4-ab8a-2ee8d5e7c74e"},"vehicle_type_id":"4","last_reported":1736244601,"current_range_meters":38400,"station_id":"cpo3342slgdg3j2ifvpg","pricing_plan_id":"cebpf4jnsgd1na2vs0mg"},{"bike_id":"111d7d6a-43fa-4e21-a451-9e07a8a13e56","system_id":"levelo_inurba_marseille","lat":43.29961,"lon":5.37165,"is_reserved":false,"is_disabled":false,"rental_uris":{"android":"levelo://app?vid=111d7d6a-43fa-4e21-a451-9e07a8a13e56","ios":"levelo://app?vid=111d7d6a-43fa-4e21-a451-9e07a8a13e56"},"vehicle_type_id":"4","last_reported":1736244601,"current_range_meters":38800,"station_id":"ce4bgr92rcd13ifvqc7g","pricing_plan_id":"cebpf4jnsgd1na2vs0mg"},{"bike_id":"fc28be46-23fe-4f09-821c-8a3bd21ca77c","system_id":"levelo_inurba_marseille","lat":43.25571,"lon":5.38239,"is_reserved":false,"is_disabled":true,"rental_uris":{"android":"levelo://app?vid=fc28be46-23fe-4f09-821c-8a3bd21ca77c","ios":"levelo://app?vid=fc28be46-23fe-4f09-821c-8a3bd21ca77c"},"vehicle_type_id":"4","last_reported":1736244601,"current_range_meters":1600,"station_id":"ce4bhih2rcd13ifvqfs0","pricing_plan_id":"cebpf4jnsgd1na2vs0mg"},{"bike_id":"237eb7a7-7331-4631-9377-6cdbdc6e4e98","system_id":"levelo_inurba_marseille","lat":43.26565,"lon":5.39017,"is_reserved":false,"is_disabled":false,"rental_uris":{"android":"levelo://app?vid=237eb7a7-7331-4631-9377-6cdbdc6e4e98","ios":"levelo://app?vid=237eb7a7-7331-4631-9377-6cdbdc6e4e98"},"vehicle_type_id":"4","last_reported":1736244601,"current_range_meters":31200,"station_id":"ce4bhe12rcd13ifvqf30","pricing_plan_id":"cebpf4jnsgd1na2vs0mg"},{"bike_id":"77e9c561-76d3-47c0-bcdd-db58bcf9815b","system_id":"levelo_inurba_marseille","lat":43.29948,"lon":5.4132,"is_reserved":false,"is_disabled":false,"rental_uris":{"android":"levelo://app?vid=77e9c561-76d3-47c0-bcdd-db58bcf9815b","ios":"levelo://app?vid=77e9c561-76d3-47c0-bcdd-db58bcf9815b"},"vehicle_type_id":"4","last_reported":1736244601,"current_range_meters":39200,"station_id":"ce4bhp12rcd13ifvqh9g","pricing_plan_id":"cebpf4jnsgd1na2vs0mg"},{"bike_id":"05bd0f7d-2e1d-4674-8e4e-7a85c8b489af","system_id":"levelo_inurba_marseille","lat":43.2705,"lon":5.40271,"is_reserved":false,"is_disabled":false,"rental_uris":{"android":"levelo://app?vid=05bd0f7d-2e1d-4674-8e4e-7a85c8b489af","ios":"levelo://app?vid=05bd0f7d-2e1d-4674-8e4e-7a85c8b489af"},"vehicle_type_id":"4","last_reported":1736244601,"current_range_meters":20000,"station_id":"ce4bhk92rcd13ifvqgc0","pricing_plan_id":"cebpf4jnsgd1na2vs0mg"},{"bike_id":"228ba626-e003-4cad-b2b7-161dbc218949","system_id":"levelo_inurba_marseille","lat":43.30597,"lon":5.39369,"is_reserved":false,"is_disabled":true,"rental_uris":{"android":"levelo://app?vid=228ba626-e003-4cad-b2b7-161dbc218949","ios":"levelo://app?vid=228ba626-e003-4cad-b2b7-161dbc218949"},"vehicle_type_id":"4","last_reported":1736244601,"current_range_meters":35600,"station_id":"ce4bh0p2rcd13ifvqd80","pricing_plan_id":"cebpf4jnsgd1na2vs0mg"},{"bike_id":"86cfe359-1d07-4226-a8aa-b9731bd056a4","system_id":"levelo_inurba_marseille","lat":43.30116,"lon":5.37436,"is_reserved":false,"is_disabled":false,"rental_uris":{"android":"levelo://app?vid=86cfe359-1d07-4226-a8aa-b9731bd056a4","ios":"levelo://app?vid=86cfe359-1d07-4226-a8aa-b9731bd056a4"},"vehicle_type_id":"4","last_reported":1736244601,"current_range_meters":39200,"station_id":"ce4bgs92rcd13ifvqcc0","pricing_plan_id":"cebpf4jnsgd1na2vs0mg"},{"bike_id":"e0666f4c-dba6-4762-b951-342d9dc779cb","system_id":"levelo_inurba_marseille","lat":43.26694,"lon":5.38293,"is_reserved":false,"is_disabled":false,"rental_uris":{"android":"levelo://app?vid=e0666f4c-dba6-4762-b951-342d9dc779cb","ios":"levelo://app?vid=e0666f4c-dba6-4762-b951-342d9dc779cb"},"vehicle_type_id":"4","last_reported":1736244601,"current_range_meters":17200,"station_id":"ce4bhg92rcd13ifvqf90","pricing_plan_id":"cebpf4jnsgd1na2vs0mg"},{"bike_id":"52e74274-9992-45ef-9ae7-22eff92ca4cd","system_id":"levelo_inurba_marseille","lat":43.29588,"lon":5.37496,"is_reserved":false,"is_disabled":false,"rental_uris":{"android":"levelo://app?vid=52e74274-9992-45ef-9ae7-22eff92ca4cd","ios":"levelo://app?vid=52e74274-9992-45ef-9ae7-22eff92ca4cd"},"vehicle_type_id":"4","last_reported":1736244601,"current_range_meters":34800,"station_id":"ce4bgh92rcd13ifvqb50","pricing_plan_id":"cebpf4jnsgd1na2vs0mg"},{"bike_id":"66598c6d-17b8-4c5c-8a32-40fe324e52f3","system_id":"levelo_inurba_marseille","lat":43.31127,"lon":5.3777,"is_reserved":false,"is_disabled":false,"rental_uris":{"android":"levelo://app?vid=66598c6d-17b8-4c5c-8a32-40fe324e52f3","ios":"levelo://app?vid=66598c6d-17b8-4c5c-8a32-40fe324e52f3"},"vehicle_type_id":"4","last_reported":1736244601,"current_range_meters":28800,"station_id":"ce4bgt92rcd13ifvqcg0","pricing_plan_id":"cebpf4jnsgd1na2vs0mg"},{"bike_id":"cd8a1a3c-3166-4370-8494-c13844d84e45","system_id":"levelo_inurba_marseille","lat":43.28698,"lon":5.39982,"is_reserved":false,"is_disabled":false,"rental_uris":{"android":"levelo://app?vid=cd8a1a3c-3166-4370-8494-c13844d84e45","ios":"levelo://app?vid=cd8a1a3c-3166-4370-8494-c13844d84e45"},"vehicle_type_id":"4","last_reported":1736244601,"current_range_meters":22000,"station_id":"ce4bho92rcd13ifvqh3g","pricing_plan_id":"cebpf4jnsgd1na2vs0mg"},{"bike_id":"4c7353e3-0977-40cf-82d8-dfd1b1b6ec44","system_id":"levelo_inurba_marseille","lat":43.2937,"lon":5.37841,"is_reserved":false,"is_disabled":false,"rental_uris":{"android":"levelo://app?vid=4c7353e3-0977-40cf-82d8-dfd1b1b6ec44","ios":"levelo://app?vid=4c7353e3-0977-40cf-82d8-dfd1b1b6ec44"},"vehicle_type_id":"4","last_reported":1736244601,"current_range_meters":39200,"station_id":"ce4bgjh2rcd13ifvqbf0","pricing_plan_id":"cebpf4jnsgd1na2vs0mg"},{"bike_id":"2287bfb2-bbe5-436a-bfa1-f68b1de88627","system_id":"levelo_inurba_marseille","lat":43.31758,"lon":5.39034,"is_reserved":false,"is_disabled":false,"rental_uris":{"android":"levelo://app?vid=2287bfb2-bbe5-436a-bfa1-f68b1de88627","ios":"levelo://app?vid=2287bfb2-bbe5-436a-bfa1-f68b1de88627"},"vehicle_type_id":"4","last_reported":1736244601,"current_range_meters":38800,"station_id":"ce4bhqp2rcd13ifvqhng","pricing_plan_id":"cebpf4jnsgd1na2vs0mg"},{"bike_id":"8572b3f3-d4bc-477b-9933-943a03b296e5","system_id":"levelo_inurba_marseille","lat":43.30455,"lon":5.38912,"is_reserved":false,"is_disabled":false,"rental_uris":{"android":"levelo://app?vid=8572b3f3-d4bc-477b-9933-943a03b296e5","ios":"levelo://app?vid=8572b3f3-d4bc-477b-9933-943a03b296e5"},"vehicle_type_id":"4","last_reported":1736244601,"current_range_meters":37600,"station_id":"ce4bgk12rcd13ifvqbi0","pricing_plan_id":"cebpf4jnsgd1na2vs0mg"},{"bike_id":"82b84c4a-7a6d-4314-a8be-5ece29c41aa5","system_id":"levelo_inurba_marseille","lat":43.29027,"lon":5.39966,"is_reserved":false,"is_disabled":false,"rental_uris":{"android":"levelo://app?vid=82b84c4a-7a6d-4314-a8be-5ece29c41aa5","ios":"levelo://app?vid=82b84c4a-7a6d-4314-a8be-5ece29c41aa5"},"vehicle_type_id":"4","last_reported":1736244601,"current_range_meters":38800,"station_id":"ce4bh392rcd13ifvqdm0","pricing_plan_id":"cebpf4jnsgd1na2vs0mg"},{"bike_id":"cca2f7c7-45e7-4f8a-80d9-cffca2b70c93","system_id":"levelo_inurba_marseille","lat":43.26683,"lon":5.383,"is_reserved":false,"is_disabled":true,"rental_uris":{"android":"levelo://app?vid=cca2f7c7-45e7-4f8a-80d9-cffca2b70c93","ios":"levelo://app?vid=cca2f7c7-45e7-4f8a-80d9-cffca2b70c93"},"vehicle_type_id":"4","last_reported":1736244601,"current_range_meters":32400,"station_id":"ce4bhg92rcd13ifvqf90","pricing_plan_id":"cebpf4jnsgd1na2vs0mg"},{"bike_id":"c06688ba-3baf-43ca-bd73-f6695e1ed516","system_id":"levelo_inurba_marseille","lat":43.24048,"lon":5.37746,"is_reserved":false,"is_disabled":false,"rental_uris":{"android":"levelo://app?vid=c06688ba-3baf-43ca-bd73-f6695e1ed516","ios":"levelo://app?vid=c06688ba-3baf-43ca-bd73-f6695e1ed516"},"vehicle_type_id":"4","last_reported":1736244601,"current_range_meters":24000,"station_id":"ce4bhnp2rcd13ifvqgvg","pricing_plan_id":"cebpf4jnsgd1na2vs0mg"},{"bike_id":"edf135d7-fe46-453d-a20f-2c11dcbf0da8","system_id":"levelo_inurba_marseille","lat":43.23958,"lon":5.36642,"is_reserved":false,"is_disabled":false,"rental_uris":{"android":"levelo://app?vid=edf135d7-fe46-453d-a20f-2c11dcbf0da8","ios":"levelo://app?vid=edf135d7-fe46-453d-a20f-2c11dcbf0da8"},"vehicle_type_id":"4","last_reported":1736244601,"current_range_meters":32800,"station_id":"ce4bhi12rcd13ifvqfp0","pricing_plan_id":"cebpf4jnsgd1na2vs0mg"},{"bike_id":"15524518-721e-4ccd-8f45-c9f54a8d8b2e","system_id":"levelo_inurba_marseille","lat":43.3046,"lon":5.379,"is_reserved":false,"is_disabled":false,"rental_uris":{"android":"levelo://app?vid=15524518-721e-4ccd-8f45-c9f54a8d8b2e","ios":"levelo://app?vid=15524518-721e-4ccd-8f45-c9f54a8d8b2e"},"vehicle_type_id":"4","last_reported":1736244601,"current_range_meters":27600,"station_id":"ce4bgup2rcd13ifvqcn0","pricing_plan_id":"cebpf4jnsgd1na2vs0mg"},{"bike_id":"0a967f6d-fd0e-4773-80c2-1aa9d073824b","system_id":"levelo_inurba_marseille","lat":43.25088,"lon":5.39517,"is_reserved":false,"is_disabled":false,"rental_uris":{"android":"levelo://app?vid=0a967f6d-fd0e-4773-80c2-1aa9d073824b","ios":"levelo://app?vid=0a967f6d-fd0e-4773-80c2-1aa9d073824b"},"vehicle_type_id":"4","last_reported":1736244601,"current_range_meters":29600,"station_id":"ce4bhm12rcd13ifvqgkg","pricing_plan_id":"cebpf4jnsgd1na2vs0mg"},{"bike_id":"e8fcdecf-26a9-40b3-82d9-1e06a6d4a009","system_id":"levelo_inurba_marseille","lat":43.292236,"lon":5.360593,"is_reserved":false,"is_disabled":false,"rental_uris":{"android":"levelo://app?vid=e8fcdecf-26a9-40b3-82d9-1e06a6d4a009","ios":"levelo://app?vid=e8fcdecf-26a9-40b3-82d9-1e06a6d4a009"},"vehicle_type_id":"4","last_reported":1736244601,"current_range_meters":30800,"station_id":"","pricing_plan_id":"cebpf4jnsgd1na2vs0mg"},{"bike_id":"a7b6a724-b627-427f-a203-c936f30961bc","system_id":"levelo_inurba_marseille","lat":43.29304,"lon":5.37173,"is_reserved":false,"is_disabled":false,"rental_uris":{"android":"levelo://app?vid=a7b6a724-b627-427f-a203-c936f30961bc","ios":"levelo://app?vid=a7b6a724-b627-427f-a203-c936f30961bc"},"vehicle_type_id":"4","last_reported":1736244601,"current_range_meters":28000,"station_id":"ce4bgh92rcd13ifvqb40","pricing_plan_id":"cebpf4jnsgd1na2vs0mg"},{"bike_id":"61fe40d5-db17-4a7f-b226-8114e784ac8e","system_id":"levelo_inurba_marseille","lat":43.31491,"lon":5.37313,"is_reserved":false,"is_disabled":false,"rental_uris":{"android":"levelo://app?vid=61fe40d5-db17-4a7f-b226-8114e784ac8e","ios":"levelo://app?vid=61fe40d5-db17-4a7f-b226-8114e784ac8e"},"vehicle_type_id":"4","last_reported":1736244601,"current_range_meters":23200,"station_id":"ce4bgt12rcd13ifvqcd0","pricing_plan_id":"cebpf4jnsgd1na2vs0mg"},{"bike_id":"56f32ca1-61d2-4c1d-a93f-700e526b9d42","system_id":"levelo_inurba_marseille","lat":43.29842,"lon":5.36269,"is_reserved":false,"is_disabled":false,"rental_uris":{"android":"levelo://app?vid=56f32ca1-61d2-4c1d-a93f-700e526b9d42","ios":"levelo://app?vid=56f32ca1-61d2-4c1d-a93f-700e526b9d42"},"vehicle_type_id":"4","last_reported":1736244601,"current_range_meters":30000,"station_id":"ce4bgpp2rcd13ifvqc3g","pricing_plan_id":"cebpf4jnsgd1na2vs0mg"},{"bike_id":"a0625591-cb45-467d-a069-ebdaaba74ccb","system_id":"levelo_inurba_marseille","lat":43.30281,"lon":5.37702,"is_reserved":false,"is_disabled":false,"rental_uris":{"android":"levelo://app?vid=a0625591-cb45-467d-a069-ebdaaba74ccb","ios":"levelo://app?vid=a0625591-cb45-467d-a069-ebdaaba74ccb"},"vehicle_type_id":"4","last_reported":1736244601,"current_range_meters":33600,"station_id":"ce4bguh2rcd13ifvqcj0","pricing_plan_id":"cebpf4jnsgd1na2vs0mg"},{"bike_id":"6df1f7ea-5bf9-4c29-b47c-6442be347a92","system_id":"levelo_inurba_marseille","lat":43.30417,"lon":5.41281,"is_reserved":false,"is_disabled":false,"rental_uris":{"android":"levelo://app?vid=6df1f7ea-5bf9-4c29-b47c-6442be347a92","ios":"levelo://app?vid=6df1f7ea-5bf9-4c29-b47c-6442be347a92"},"vehicle_type_id":"4","last_reported":1736244601,"current_range_meters":16000,"station_id":"ce4bhop2rcd13ifvqh8g","pricing_plan_id":"cebpf4jnsgd1na2vs0mg"},{"bike_id":"a654bcd9-87ff-4423-9dec-90165872ac51","system_id":"levelo_inurba_marseille","lat":43.25508,"lon":5.3768,"is_reserved":false,"is_disabled":false,"rental_uris":{"android":"levelo://app?vid=a654bcd9-87ff-4423-9dec-90165872ac51","ios":"levelo://app?vid=a654bcd9-87ff-4423-9dec-90165872ac51"},"vehicle_type_id":"4","last_reported":1736244601,"current_range_meters":38400,"station_id":"ce4bhh12rcd13ifvqff0","pricing_plan_id":"cebpf4jnsgd1na2vs0mg"},{"bike_id":"ace40823-65b2-49d2-82ac-88910d2cc9d7","system_id":"levelo_inurba_marseille","lat":43.30543,"lon":5.36561,"is_reserved":false,"is_disabled":false,"rental_uris":{"android":"levelo://app?vid=ace40823-65b2-49d2-82ac-88910d2cc9d7","ios":"levelo://app?vid=ace40823-65b2-49d2-82ac-88910d2cc9d7"},"vehicle_type_id":"4","last_reported":1736244601,"current_range_meters":22800,"station_id":"ce4bgs12rcd13ifvqcag","pricing_plan_id":"cebpf4jnsgd1na2vs0mg"},{"bike_id":"cbc8ef3d-db5b-4e2d-8062-ee6eeb43702e","system_id":"levelo_inurba_marseille","lat":43.3091,"lon":5.36868,"is_reserved":false,"is_disabled":false,"rental_uris":{"android":"levelo://app?vid=cbc8ef3d-db5b-4e2d-8062-ee6eeb43702e","ios":"levelo://app?vid=cbc8ef3d-db5b-4e2d-8062-ee6eeb43702e"},"vehicle_type_id":"4","last_reported":1736244601,"current_range_meters":36800,"station_id":"ce4bgn92rcd13ifvqbvg","pricing_plan_id":"cebpf4jnsgd1na2vs0mg"},{"bike_id":"756c961f-df7e-4151-a9a6-fa46b857fd74","system_id":"levelo_inurba_marseille","lat":43.3096,"lon":5.39157,"is_reserved":false,"is_disabled":false,"rental_uris":{"android":"levelo://app?vid=756c961f-df7e-4151-a9a6-fa46b857fd74","ios":"levelo://app?vid=756c961f-df7e-4151-a9a6-fa46b857fd74"},"vehicle_type_id":"4","last_reported":1736244601,"current_range_meters":7200,"station_id":"ce4bgup2rcd13ifvqco0","pricing_plan_id":"cebpf4jnsgd1na2vs0mg"},{"bike_id":"90b25500-3042-426a-acfe-81ec7682fcb0","system_id":"levelo_inurba_marseille","lat":43.24069,"lon":5.37766,"is_reserved":false,"is_disabled":false,"rental_uris":{"android":"levelo://app?vid=90b25500-3042-426a-acfe-81ec7682fcb0","ios":"levelo://app?vid=90b25500-3042-426a-acfe-81ec7682fcb0"},"vehicle_type_id":"4","last_reported":1736244601,"current_range_meters":11600,"station_id":"ce4bhnp2rcd13ifvqgvg","pricing_plan_id":"cebpf4jnsgd1na2vs0mg"},{"bike_id":"1c91e94a-d32d-4506-b8b8-b791431e401e","system_id":"levelo_inurba_marseille","lat":43.28934,"lon":5.38452,"is_reserved":false,"is_disabled":true,"rental_uris":{"android":"levelo://app?vid=1c91e94a-d32d-4506-b8b8-b791431e401e","ios":"levelo://app?vid=1c91e94a-d32d-4506-b8b8-b791431e401e"},"vehicle_type_id":"4","last_reported":1736244601,"current_range_meters":31200,"station_id":"ce4bh612rcd13ifvqe6g","pricing_plan_id":"cebpf4jnsgd1na2vs0mg"},{"bike_id":"7082a147-72ba-427b-b7d0-01f4c79523c2","system_id":"levelo_inurba_marseille","lat":43.33248,"lon":5.35914,"is_reserved":false,"is_disabled":false,"rental_uris":{"android":"levelo://app?vid=7082a147-72ba-427b-b7d0-01f4c79523c2","ios":"levelo://app?vid=7082a147-72ba-427b-b7d0-01f4c79523c2"},"vehicle_type_id":"4","last_reported":1736244601,"current_range_meters":16400,"station_id":"","pricing_plan_id":"cebpf4jnsgd1na2vs0mg"},{"bike_id":"b354de21-01c7-4a47-964b-4c267c08f725","system_id":"levelo_inurba_marseille","lat":43.309,"lon":5.368463,"is_reserved":false,"is_disabled":false,"rental_uris":{"android":"levelo://app?vid=b354de21-01c7-4a47-964b-4c267c08f725","ios":"levelo://app?vid=b354de21-01c7-4a47-964b-4c267c08f725"},"vehicle_type_id":"4","last_reported":1736244601,"current_range_meters":22000,"station_id":"ce4bgn92rcd13ifvqbvg","pricing_plan_id":"cebpf4jnsgd1na2vs0mg"},{"bike_id":"7ac0b8f4-b144-4a52-bf8d-93e2ea2b1290","system_id":"levelo_inurba_marseille","lat":43.29368,"lon":5.3783,"is_reserved":false,"is_disabled":false,"rental_uris":{"android":"levelo://app?vid=7ac0b8f4-b144-4a52-bf8d-93e2ea2b1290","ios":"levelo://app?vid=7ac0b8f4-b144-4a52-bf8d-93e2ea2b1290"},"vehicle_type_id":"4","last_reported":1736244601,"current_range_meters":39200,"station_id":"ce4bgjh2rcd13ifvqbf0","pricing_plan_id":"cebpf4jnsgd1na2vs0mg"},{"bike_id":"c04fd81e-333c-4d68-9787-59b045fd02b0","system_id":"levelo_inurba_marseille","lat":43.29012,"lon":5.35633,"is_reserved":false,"is_disabled":false,"rental_uris":{"android":"levelo://app?vid=c04fd81e-333c-4d68-9787-59b045fd02b0","ios":"levelo://app?vid=c04fd81e-333c-4d68-9787-59b045fd02b0"},"vehicle_type_id":"4","last_reported":1736244601,"current_range_meters":18800,"station_id":"ce4bhb92rcd13ifvqen0","pricing_plan_id":"cebpf4jnsgd1na2vs0mg"},{"bike_id":"956c311b-9b96-482a-9feb-34268d1c3452","system_id":"levelo_inurba_marseille","lat":43.31305,"lon":5.3676,"is_reserved":false,"is_disabled":false,"rental_uris":{"android":"levelo://app?vid=956c311b-9b96-482a-9feb-34268d1c3452","ios":"levelo://app?vid=956c311b-9b96-482a-9feb-34268d1c3452"},"vehicle_type_id":"4","last_reported":1736244601,"current_range_meters":32400,"station_id":"ce4bgr92rcd13ifvqc6g","pricing_plan_id":"cebpf4jnsgd1na2vs0mg"},{"bike_id":"23c5b06d-980b-45ba-913e-73d87e255569","system_id":"levelo_inurba_marseille","lat":43.25872,"lon":5.39926,"is_reserved":false,"is_disabled":false,"rental_uris":{"android":"levelo://app?vid=23c5b06d-980b-45ba-913e-73d87e255569","ios":"levelo://app?vid=23c5b06d-980b-45ba-913e-73d87e255569"},"vehicle_type_id":"4","last_reported":1736244601,"current_range_meters":14400,"station_id":"ce4bhl92rcd13ifvqghg","pricing_plan_id":"cebpf4jnsgd1na2vs0mg"},{"bike_id":"a95030f4-3784-4a78-af6c-f4505a047751","system_id":"levelo_inurba_marseille","lat":43.29374,"lon":5.37862,"is_reserved":false,"is_disabled":true,"rental_uris":{"android":"levelo://app?vid=a95030f4-3784-4a78-af6c-f4505a047751","ios":"levelo://app?vid=a95030f4-3784-4a78-af6c-f4505a047751"},"vehicle_type_id":"4","last_reported":1736244601,"current_range_meters":2800,"station_id":"ce4bgjh2rcd13ifvqbf0","pricing_plan_id":"cebpf4jnsgd1na2vs0mg"},{"bike_id":"d45d0089-5e8c-41ac-a04c-9866c8dc94cc","system_id":"levelo_inurba_marseille","lat":43.23199,"lon":5.35559,"is_reserved":false,"is_disabled":false,"rental_uris":{"android":"levelo://app?vid=d45d0089-5e8c-41ac-a04c-9866c8dc94cc","ios":"levelo://app?vid=d45d0089-5e8c-41ac-a04c-9866c8dc94cc"},"vehicle_type_id":"4","last_reported":1736244601,"current_range_meters":4800,"station_id":"ce4bhu92rcd13ifvqi70","pricing_plan_id":"cebpf4jnsgd1na2vs0mg"},{"bike_id":"aa33a53e-f806-43a8-ad7e-8e2bd9644426","system_id":"levelo_inurba_marseille","lat":43.32345,"lon":5.40629,"is_reserved":false,"is_disabled":true,"rental_uris":{"android":"levelo://app?vid=aa33a53e-f806-43a8-ad7e-8e2bd9644426","ios":"levelo://app?vid=aa33a53e-f806-43a8-ad7e-8e2bd9644426"},"vehicle_type_id":"4","last_reported":1736244601,"current_range_meters":0,"station_id":"ce4bhq92rcd13ifvqhjg","pricing_plan_id":"cebpf4jnsgd1na2vs0mg"},{"bike_id":"47e4e733-ddae-489d-8488-ea0c12e2344c","system_id":"levelo_inurba_marseille","lat":43.30142,"lon":5.38077,"is_reserved":false,"is_disabled":false,"rental_uris":{"android":"levelo://app?vid=47e4e733-ddae-489d-8488-ea0c12e2344c","ios":"levelo://app?vid=47e4e733-ddae-489d-8488-ea0c12e2344c"},"vehicle_type_id":"4","last_reported":1736244601,"current_range_meters":32800,"station_id":"ce4bgjp2rcd13ifvqbh0","pricing_plan_id":"cebpf4jnsgd1na2vs0mg"},{"bike_id":"ab3ef614-fdb3-4aee-a71b-8b4b61a00d6a","system_id":"levelo_inurba_marseille","lat":43.279,"lon":5.38005,"is_reserved":false,"is_disabled":false,"rental_uris":{"android":"levelo://app?vid=ab3ef614-fdb3-4aee-a71b-8b4b61a00d6a","ios":"levelo://app?vid=ab3ef614-fdb3-4aee-a71b-8b4b61a00d6a"},"vehicle_type_id":"4","last_reported":1736244601,"current_range_meters":38400,"station_id":"ce4bhf92rcd13ifvqf50","pricing_plan_id":"cebpf4jnsgd1na2vs0mg"},{"bike_id":"a36a7a0f-e881-4fa0-98a5-d6031322e74b","system_id":"levelo_inurba_marseille","lat":43.29006,"lon":5.35617,"is_reserved":false,"is_disabled":false,"rental_uris":{"android":"levelo://app?vid=a36a7a0f-e881-4fa0-98a5-d6031322e74b","ios":"levelo://app?vid=a36a7a0f-e881-4fa0-98a5-d6031322e74b"},"vehicle_type_id":"4","last_reported":1736244601,"current_range_meters":24800,"station_id":"ce4bhb92rcd13ifvqen0","pricing_plan_id":"cebpf4jnsgd1na2vs0mg"},{"bike_id":"184ebaba-bf18-489d-8947-aa0b180dec35","system_id":"levelo_inurba_marseille","lat":43.30598,"lon":5.37225,"is_reserved":false,"is_disabled":false,"rental_uris":{"android":"levelo://app?vid=184ebaba-bf18-489d-8947-aa0b180dec35","ios":"levelo://app?vid=184ebaba-bf18-489d-8947-aa0b180dec35"},"vehicle_type_id":"4","last_reported":1736244601,"current_range_meters":34800,"station_id":"ce4bgqh2rcd13ifvqc4g","pricing_plan_id":"cebpf4jnsgd1na2vs0mg"},{"bike_id":"9f067e76-a631-4de3-8b36-6688d4c426e4","system_id":"levelo_inurba_marseille","lat":43.31692,"lon":5.40471,"is_reserved":false,"is_disabled":false,"rental_uris":{"android":"levelo://app?vid=9f067e76-a631-4de3-8b36-6688d4c426e4","ios":"levelo://app?vid=9f067e76-a631-4de3-8b36-6688d4c426e4"},"vehicle_type_id":"4","last_reported":1736244601,"current_range_meters":24800,"station_id":"ce4bh012rcd13ifvqd00","pricing_plan_id":"cebpf4jnsgd1na2vs0mg"},{"bike_id":"a60f5a33-cf0d-4ed2-a9fc-3aa098d1769b","system_id":"levelo_inurba_marseille","lat":43.30293,"lon":5.37731,"is_reserved":false,"is_disabled":false,"rental_uris":{"android":"levelo://app?vid=a60f5a33-cf0d-4ed2-a9fc-3aa098d1769b","ios":"levelo://app?vid=a60f5a33-cf0d-4ed2-a9fc-3aa098d1769b"},"vehicle_type_id":"4","last_reported":1736244601,"current_range_meters":30800,"station_id":"ce4bguh2rcd13ifvqcj0","pricing_plan_id":"cebpf4jnsgd1na2vs0mg"},{"bike_id":"917d223a-fe5d-458f-9265-0b1e04cdf504","system_id":"levelo_inurba_marseille","lat":43.28477,"lon":5.38432,"is_reserved":false,"is_disabled":true,"rental_uris":{"android":"levelo://app?vid=917d223a-fe5d-458f-9265-0b1e04cdf504","ios":"levelo://app?vid=917d223a-fe5d-458f-9265-0b1e04cdf504"},"vehicle_type_id":"4","last_reported":1736244601,"current_range_meters":9200,"station_id":"ce4bh512rcd13ifvqe3g","pricing_plan_id":"cebpf4jnsgd1na2vs0mg"},{"bike_id":"72aa27b6-580e-44c5-9bd2-168553fdc64a","system_id":"levelo_inurba_marseille","lat":43.2903,"lon":5.37584,"is_reserved":false,"is_disabled":true,"rental_uris":{"android":"levelo://app?vid=72aa27b6-580e-44c5-9bd2-168553fdc64a","ios":"levelo://app?vid=72aa27b6-580e-44c5-9bd2-168553fdc64a"},"vehicle_type_id":"4","last_reported":1736244601,"current_range_meters":0,"station_id":"ce4bh692rcd13ifvqe90","pricing_plan_id":"cebpf4jnsgd1na2vs0mg"},{"bike_id":"517fd185-487c-4878-bcca-a4b7aa48bd7a","system_id":"levelo_inurba_marseille","lat":43.32651,"lon":5.41016,"is_reserved":false,"is_disabled":false,"rental_uris":{"android":"levelo://app?vid=517fd185-487c-4878-bcca-a4b7aa48bd7a","ios":"levelo://app?vid=517fd185-487c-4878-bcca-a4b7aa48bd7a"},"vehicle_type_id":"4","last_reported":1736244601,"current_range_meters":36000,"station_id":"ce4bhpp2rcd13ifvqhgg","pricing_plan_id":"cebpf4jnsgd1na2vs0mg"},{"bike_id":"a81f0dac-b594-48b8-b2f2-26e21503c95a","system_id":"levelo_inurba_marseille","lat":43.31675,"lon":5.4374,"is_reserved":false,"is_disabled":false,"rental_uris":{"android":"levelo://app?vid=a81f0dac-b594-48b8-b2f2-26e21503c95a","ios":"levelo://app?vid=a81f0dac-b594-48b8-b2f2-26e21503c95a"},"vehicle_type_id":"4","last_reported":1736244601,"current_range_meters":13600,"station_id":"ce4bhp92rcd13ifvqhcg","pricing_plan_id":"cebpf4jnsgd1na2vs0mg"},{"bike_id":"0ec4f7f9-2f87-466a-9de1-15393cc6eda9","system_id":"levelo_inurba_marseille","lat":43.30536,"lon":5.36545,"is_reserved":false,"is_disabled":false,"rental_uris":{"android":"levelo://app?vid=0ec4f7f9-2f87-466a-9de1-15393cc6eda9","ios":"levelo://app?vid=0ec4f7f9-2f87-466a-9de1-15393cc6eda9"},"vehicle_type_id":"4","last_reported":1736244601,"current_range_meters":36800,"station_id":"ce4bgs12rcd13ifvqcag","pricing_plan_id":"cebpf4jnsgd1na2vs0mg"},{"bike_id":"8bcaeacd-55f2-48aa-840b-5ec48f7447b2","system_id":"levelo_inurba_marseille","lat":43.26565,"lon":5.39006,"is_reserved":false,"is_disabled":false,"rental_uris":{"android":"levelo://app?vid=8bcaeacd-55f2-48aa-840b-5ec48f7447b2","ios":"levelo://app?vid=8bcaeacd-55f2-48aa-840b-5ec48f7447b2"},"vehicle_type_id":"4","last_reported":1736244601,"current_range_meters":32800,"station_id":"ce4bhe12rcd13ifvqf30","pricing_plan_id":"cebpf4jnsgd1na2vs0mg"},{"bike_id":"7a92d907-ce7d-4776-b9fe-0b8ebe9491a1","system_id":"levelo_inurba_marseille","lat":43.27623,"lon":5.36121,"is_reserved":false,"is_disabled":false,"rental_uris":{"android":"levelo://app?vid=7a92d907-ce7d-4776-b9fe-0b8ebe9491a1","ios":"levelo://app?vid=7a92d907-ce7d-4776-b9fe-0b8ebe9491a1"},"vehicle_type_id":"4","last_reported":1736244601,"current_range_meters":39200,"station_id":"ce4bgj92rcd13ifvqbe0","pricing_plan_id":"cebpf4jnsgd1na2vs0mg"},{"bike_id":"6d9211fb-9ada-4014-8126-3f768b1782a7","system_id":"levelo_inurba_marseille","lat":43.2416,"lon":5.36401,"is_reserved":false,"is_disabled":false,"rental_uris":{"android":"levelo://app?vid=6d9211fb-9ada-4014-8126-3f768b1782a7","ios":"levelo://app?vid=6d9211fb-9ada-4014-8126-3f768b1782a7"},"vehicle_type_id":"4","last_reported":1736244601,"current_range_meters":27200,"station_id":"cpo36qri1sfpv3e86is0","pricing_plan_id":"cebpf4jnsgd1na2vs0mg"},{"bike_id":"f809d5a8-1ff6-4a11-9b37-65168fe48fec","system_id":"levelo_inurba_marseille","lat":43.27487,"lon":5.42459,"is_reserved":false,"is_disabled":false,"rental_uris":{"android":"levelo://app?vid=f809d5a8-1ff6-4a11-9b37-65168fe48fec","ios":"levelo://app?vid=f809d5a8-1ff6-4a11-9b37-65168fe48fec"},"vehicle_type_id":"4","last_reported":1736244601,"current_range_meters":32800,"station_id":"ce4bhn92rcd13ifvqgrg","pricing_plan_id":"cebpf4jnsgd1na2vs0mg"},{"bike_id":"8434c30a-2635-4936-bca1-849d3bd3a533","system_id":"levelo_inurba_marseille","lat":43.23957,"lon":5.36641,"is_reserved":false,"is_disabled":false,"rental_uris":{"android":"levelo://app?vid=8434c30a-2635-4936-bca1-849d3bd3a533","ios":"levelo://app?vid=8434c30a-2635-4936-bca1-849d3bd3a533"},"vehicle_type_id":"4","last_reported":1736244601,"current_range_meters":30000,"station_id":"ce4bhi12rcd13ifvqfp0","pricing_plan_id":"cebpf4jnsgd1na2vs0mg"},{"bike_id":"6b7e7b7d-703a-46a9-9632-17988fb8f2dd","system_id":"levelo_inurba_marseille","lat":43.30419,"lon":5.41287,"is_reserved":false,"is_disabled":false,"rental_uris":{"android":"levelo://app?vid=6b7e7b7d-703a-46a9-9632-17988fb8f2dd","ios":"levelo://app?vid=6b7e7b7d-703a-46a9-9632-17988fb8f2dd"},"vehicle_type_id":"4","last_reported":1736244601,"current_range_meters":36400,"station_id":"ce4bhop2rcd13ifvqh8g","pricing_plan_id":"cebpf4jnsgd1na2vs0mg"},{"bike_id":"8a474426-cd46-4cf8-9edc-ef843a0ca02e","system_id":"levelo_inurba_marseille","lat":43.26564,"lon":5.39002,"is_reserved":false,"is_disabled":true,"rental_uris":{"android":"levelo://app?vid=8a474426-cd46-4cf8-9edc-ef843a0ca02e","ios":"levelo://app?vid=8a474426-cd46-4cf8-9edc-ef843a0ca02e"},"vehicle_type_id":"4","last_reported":1736244601,"current_range_meters":36800,"station_id":"ce4bhe12rcd13ifvqf30","pricing_plan_id":"cebpf4jnsgd1na2vs0mg"},{"bike_id":"b8e8befc-076e-4a84-a746-24b09895b81b","system_id":"levelo_inurba_marseille","lat":43.255798,"lon":5.382317,"is_reserved":false,"is_disabled":false,"rental_uris":{"android":"levelo://app?vid=b8e8befc-076e-4a84-a746-24b09895b81b","ios":"levelo://app?vid=b8e8befc-076e-4a84-a746-24b09895b81b"},"vehicle_type_id":"4","last_reported":1736244601,"current_range_meters":34000,"station_id":"ce4bhih2rcd13ifvqfs0","pricing_plan_id":"cebpf4jnsgd1na2vs0mg"},{"bike_id":"bbf998ea-d252-4590-8711-16d78ff4b07c","system_id":"levelo_inurba_marseille","lat":43.24645,"lon":5.38892,"is_reserved":false,"is_disabled":false,"rental_uris":{"android":"levelo://app?vid=bbf998ea-d252-4590-8711-16d78ff4b07c","ios":"levelo://app?vid=bbf998ea-d252-4590-8711-16d78ff4b07c"},"vehicle_type_id":"4","last_reported":1736244601,"current_range_meters":26800,"station_id":"ce4bhg12rcd13ifvqf60","pricing_plan_id":"cebpf4jnsgd1na2vs0mg"},{"bike_id":"e9dcdd34-b189-4d62-a46f-8838f8d5e652","system_id":"levelo_inurba_marseille","lat":43.24666,"lon":5.3816,"is_reserved":false,"is_disabled":false,"rental_uris":{"android":"levelo://app?vid=e9dcdd34-b189-4d62-a46f-8838f8d5e652","ios":"levelo://app?vid=e9dcdd34-b189-4d62-a46f-8838f8d5e652"},"vehicle_type_id":"4","last_reported":1736244601,"current_range_meters":17200,"station_id":"ce4bhih2rcd13ifvqfr0","pricing_plan_id":"cebpf4jnsgd1na2vs0mg"},{"bike_id":"ded1e44c-e4a7-40dd-b713-6c7ef6537058","system_id":"levelo_inurba_marseille","lat":43.249991,"lon":5.389521,"is_reserved":false,"is_disabled":false,"rental_uris":{"android":"levelo://app?vid=ded1e44c-e4a7-40dd-b713-6c7ef6537058","ios":"levelo://app?vid=ded1e44c-e4a7-40dd-b713-6c7ef6537058"},"vehicle_type_id":"4","last_reported":1736244601,"current_range_meters":27200,"station_id":"ce4bhgp2rcd13ifvqfd0","pricing_plan_id":"cebpf4jnsgd1na2vs0mg"},{"bike_id":"bfb2a8c4-a8de-401b-830e-eb9b976adb23","system_id":"levelo_inurba_marseille","lat":43.2706,"lon":5.42256,"is_reserved":false,"is_disabled":false,"rental_uris":{"android":"levelo://app?vid=bfb2a8c4-a8de-401b-830e-eb9b976adb23","ios":"levelo://app?vid=bfb2a8c4-a8de-401b-830e-eb9b976adb23"},"vehicle_type_id":"4","last_reported":1736244601,"current_range_meters":35200,"station_id":"ce4bhk92rcd13ifvqgb0","pricing_plan_id":"cebpf4jnsgd1na2vs0mg"},{"bike_id":"ff78d977-97b2-4f84-bc22-78608d306c04","system_id":"levelo_inurba_marseille","lat":43.31364,"lon":5.36697,"is_reserved":false,"is_disabled":false,"rental_uris":{"android":"levelo://app?vid=ff78d977-97b2-4f84-bc22-78608d306c04","ios":"levelo://app?vid=ff78d977-97b2-4f84-bc22-78608d306c04"},"vehicle_type_id":"4","last_reported":1736244601,"current_range_meters":34800,"station_id":"ce4bgr92rcd13ifvqc6g","pricing_plan_id":"cebpf4jnsgd1na2vs0mg"},{"bike_id":"664044e6-e824-440a-a874-8e818a3a1b1b","system_id":"levelo_inurba_marseille","lat":43.28567,"lon":5.39499,"is_reserved":false,"is_disabled":true,"rental_uris":{"android":"levelo://app?vid=664044e6-e824-440a-a874-8e818a3a1b1b","ios":"levelo://app?vid=664044e6-e824-440a-a874-8e818a3a1b1b"},"vehicle_type_id":"4","last_reported":1736244601,"current_range_meters":35200,"station_id":"ce4bh292rcd13ifvqdg0","pricing_plan_id":"cebpf4jnsgd1na2vs0mg"},{"bike_id":"5230b8f3-adf2-431f-b9b6-5c013e08717a","system_id":"levelo_inurba_marseille","lat":43.30901,"lon":5.36874,"is_reserved":false,"is_disabled":false,"rental_uris":{"android":"levelo://app?vid=5230b8f3-adf2-431f-b9b6-5c013e08717a","ios":"levelo://app?vid=5230b8f3-adf2-431f-b9b6-5c013e08717a"},"vehicle_type_id":"4","last_reported":1736244601,"current_range_meters":28000,"station_id":"ce4bgn92rcd13ifvqbvg","pricing_plan_id":"cebpf4jnsgd1na2vs0mg"},{"bike_id":"a7938283-87a3-49c4-a45c-ee982e077e68","system_id":"levelo_inurba_marseille","lat":43.33606,"lon":5.41015,"is_reserved":false,"is_disabled":false,"rental_uris":{"android":"levelo://app?vid=a7938283-87a3-49c4-a45c-ee982e077e68","ios":"levelo://app?vid=a7938283-87a3-49c4-a45c-ee982e077e68"},"vehicle_type_id":"4","last_reported":1736244601,"current_range_meters":39200,"station_id":"ce4bhqh2rcd13ifvqhmg","pricing_plan_id":"cebpf4jnsgd1na2vs0mg"},{"bike_id":"3d5215c2-1845-4ea9-95c3-66c603d13955","system_id":"levelo_inurba_marseille","lat":43.30542,"lon":5.36531,"is_reserved":false,"is_disabled":false,"rental_uris":{"android":"levelo://app?vid=3d5215c2-1845-4ea9-95c3-66c603d13955","ios":"levelo://app?vid=3d5215c2-1845-4ea9-95c3-66c603d13955"},"vehicle_type_id":"4","last_reported":1736244601,"current_range_meters":28400,"station_id":"ce4bgs12rcd13ifvqcag","pricing_plan_id":"cebpf4jnsgd1na2vs0mg"},{"bike_id":"6e2d590b-13dc-4d39-8257-e699f8ea4c2f","system_id":"levelo_inurba_marseille","lat":43.25926,"lon":5.40902,"is_reserved":false,"is_disabled":false,"rental_uris":{"android":"levelo://app?vid=6e2d590b-13dc-4d39-8257-e699f8ea4c2f","ios":"levelo://app?vid=6e2d590b-13dc-4d39-8257-e699f8ea4c2f"},"vehicle_type_id":"4","last_reported":1736244601,"current_range_meters":19600,"station_id":"ce4bhm92rcd13ifvqglg","pricing_plan_id":"cebpf4jnsgd1na2vs0mg"},{"bike_id":"0bcfea18-61ca-412d-bded-b63f59943884","system_id":"levelo_inurba_marseille","lat":43.28635,"lon":5.3512,"is_reserved":false,"is_disabled":true,"rental_uris":{"android":"levelo://app?vid=0bcfea18-61ca-412d-bded-b63f59943884","ios":"levelo://app?vid=0bcfea18-61ca-412d-bded-b63f59943884"},"vehicle_type_id":"4","last_reported":1736244601,"current_range_meters":28800,"station_id":"ce4bhch2rcd13ifvqeug","pricing_plan_id":"cebpf4jnsgd1na2vs0mg"},{"bike_id":"7e745bb2-a05d-4558-a30d-6520fb31e198","system_id":"levelo_inurba_marseille","lat":43.29908,"lon":5.3814,"is_reserved":false,"is_disabled":false,"rental_uris":{"android":"levelo://app?vid=7e745bb2-a05d-4558-a30d-6520fb31e198","ios":"levelo://app?vid=7e745bb2-a05d-4558-a30d-6520fb31e198"},"vehicle_type_id":"4","last_reported":1736244601,"current_range_meters":28800,"station_id":"ce4bgj12rcd13ifvqbc0","pricing_plan_id":"cebpf4jnsgd1na2vs0mg"},{"bike_id":"9f433d9b-ae4b-4283-8872-934dec5a9645","system_id":"levelo_inurba_marseille","lat":43.32042,"lon":5.41541,"is_reserved":false,"is_disabled":false,"rental_uris":{"android":"levelo://app?vid=9f433d9b-ae4b-4283-8872-934dec5a9645","ios":"levelo://app?vid=9f433d9b-ae4b-4283-8872-934dec5a9645"},"vehicle_type_id":"4","last_reported":1736244601,"current_range_meters":30400,"station_id":"ce4bhq92rcd13ifvqhkg","pricing_plan_id":"cebpf4jnsgd1na2vs0mg"},{"bike_id":"578bd40a-e8e6-42c1-8d5e-731390802e5f","system_id":"levelo_inurba_marseille","lat":43.29199,"lon":5.3581,"is_reserved":false,"is_disabled":false,"rental_uris":{"android":"levelo://app?vid=578bd40a-e8e6-42c1-8d5e-731390802e5f","ios":"levelo://app?vid=578bd40a-e8e6-42c1-8d5e-731390802e5f"},"vehicle_type_id":"4","last_reported":1736244601,"current_range_meters":32000,"station_id":"ce4bhb12rcd13ifvqel0","pricing_plan_id":"cebpf4jnsgd1na2vs0mg"},{"bike_id":"03630410-cff2-41ca-8ab4-df6ebc45a627","system_id":"levelo_inurba_marseille","lat":43.30165,"lon":5.38124,"is_reserved":false,"is_disabled":true,"rental_uris":{"android":"levelo://app?vid=03630410-cff2-41ca-8ab4-df6ebc45a627","ios":"levelo://app?vid=03630410-cff2-41ca-8ab4-df6ebc45a627"},"vehicle_type_id":"4","last_reported":1736244601,"current_range_meters":34000,"station_id":"ce4bgjp2rcd13ifvqbh0","pricing_plan_id":"cebpf4jnsgd1na2vs0mg"},{"bike_id":"f16fafcc-22ff-4365-886c-6a46c4e60984","system_id":"levelo_inurba_marseille","lat":43.24073,"lon":5.37772,"is_reserved":false,"is_disabled":false,"rental_uris":{"android":"levelo://app?vid=f16fafcc-22ff-4365-886c-6a46c4e60984","ios":"levelo://app?vid=f16fafcc-22ff-4365-886c-6a46c4e60984"},"vehicle_type_id":"4","last_reported":1736244601,"current_range_meters":35600,"station_id":"ce4bhnp2rcd13ifvqgvg","pricing_plan_id":"cebpf4jnsgd1na2vs0mg"},{"bike_id":"6b9c481c-5557-4051-a4b9-ddd082853e48","system_id":"levelo_inurba_marseille","lat":43.28968,"lon":5.37833,"is_reserved":false,"is_disabled":false,"rental_uris":{"android":"levelo://app?vid=6b9c481c-5557-4051-a4b9-ddd082853e48","ios":"levelo://app?vid=6b9c481c-5557-4051-a4b9-ddd082853e48"},"vehicle_type_id":"4","last_reported":1736244601,"current_range_meters":37600,"station_id":"ce4bh9p2rcd13ifvqed0","pricing_plan_id":"cebpf4jnsgd1na2vs0mg"},{"bike_id":"be7ba3d3-7869-4990-af93-489a469e05b1","system_id":"levelo_inurba_marseille","lat":43.24089,"lon":5.37776,"is_reserved":false,"is_disabled":false,"rental_uris":{"android":"levelo://app?vid=be7ba3d3-7869-4990-af93-489a469e05b1","ios":"levelo://app?vid=be7ba3d3-7869-4990-af93-489a469e05b1"},"vehicle_type_id":"4","last_reported":1736244601,"current_range_meters":39200,"station_id":"ce4bhnp2rcd13ifvqgvg","pricing_plan_id":"cebpf4jnsgd1na2vs0mg"},{"bike_id":"1b35ed37-39db-4ab4-bc73-e153a4f04030","system_id":"levelo_inurba_marseille","lat":43.24074,"lon":5.3776,"is_reserved":false,"is_disabled":false,"rental_uris":{"android":"levelo://app?vid=1b35ed37-39db-4ab4-bc73-e153a4f04030","ios":"levelo://app?vid=1b35ed37-39db-4ab4-bc73-e153a4f04030"},"vehicle_type_id":"4","last_reported":1736244601,"current_range_meters":32400,"station_id":"ce4bhnp2rcd13ifvqgvg","pricing_plan_id":"cebpf4jnsgd1na2vs0mg"},{"bike_id":"9206d9db-6a1d-4495-9bc2-7d4e1ef0f397","system_id":"levelo_inurba_marseille","lat":43.28904,"lon":5.3842,"is_reserved":false,"is_disabled":true,"rental_uris":{"android":"levelo://app?vid=9206d9db-6a1d-4495-9bc2-7d4e1ef0f397","ios":"levelo://app?vid=9206d9db-6a1d-4495-9bc2-7d4e1ef0f397"},"vehicle_type_id":"4","last_reported":1736244601,"current_range_meters":35600,"station_id":"ce4bh612rcd13ifvqe6g","pricing_plan_id":"cebpf4jnsgd1na2vs0mg"},{"bike_id":"2937c8f0-6f06-4c7f-8240-41ad44bc55fa","system_id":"levelo_inurba_marseille","lat":43.23186,"lon":5.39994,"is_reserved":false,"is_disabled":false,"rental_uris":{"android":"levelo://app?vid=2937c8f0-6f06-4c7f-8240-41ad44bc55fa","ios":"levelo://app?vid=2937c8f0-6f06-4c7f-8240-41ad44bc55fa"},"vehicle_type_id":"4","last_reported":1736244601,"current_range_meters":11600,"station_id":"ce4bhn12rcd13ifvqgqg","pricing_plan_id":"cebpf4jnsgd1na2vs0mg"},{"bike_id":"94926603-94ee-46b9-bd18-87f6280a5f83","system_id":"levelo_inurba_marseille","lat":43.268066,"lon":5.394811,"is_reserved":false,"is_disabled":false,"rental_uris":{"android":"levelo://app?vid=94926603-94ee-46b9-bd18-87f6280a5f83","ios":"levelo://app?vid=94926603-94ee-46b9-bd18-87f6280a5f83"},"vehicle_type_id":"4","last_reported":1736244601,"current_range_meters":27200,"station_id":"ce4bhh12rcd13ifvqfg0","pricing_plan_id":"cebpf4jnsgd1na2vs0mg"},{"bike_id":"a39b17e0-099f-43bc-8c00-65ed2780ed14","system_id":"levelo_inurba_marseille","lat":43.30601,"lon":5.39359,"is_reserved":false,"is_disabled":false,"rental_uris":{"android":"levelo://app?vid=a39b17e0-099f-43bc-8c00-65ed2780ed14","ios":"levelo://app?vid=a39b17e0-099f-43bc-8c00-65ed2780ed14"},"vehicle_type_id":"4","last_reported":1736244601,"current_range_meters":6000,"station_id":"ce4bh0p2rcd13ifvqd80","pricing_plan_id":"cebpf4jnsgd1na2vs0mg"},{"bike_id":"457174c4-39db-4616-8471-ca62bc384bb7","system_id":"levelo_inurba_marseille","lat":43.3048,"lon":5.37911,"is_reserved":false,"is_disabled":true,"rental_uris":{"android":"levelo://app?vid=457174c4-39db-4616-8471-ca62bc384bb7","ios":"levelo://app?vid=457174c4-39db-4616-8471-ca62bc384bb7"},"vehicle_type_id":"4","last_reported":1736244601,"current_range_meters":33200,"station_id":"ce4bgup2rcd13ifvqcn0","pricing_plan_id":"cebpf4jnsgd1na2vs0mg"},{"bike_id":"f49298c6-b208-404d-bb0c-160ccbda2eed","system_id":"levelo_inurba_marseille","lat":43.27996,"lon":5.40013,"is_reserved":false,"is_disabled":true,"rental_uris":{"android":"levelo://app?vid=f49298c6-b208-404d-bb0c-160ccbda2eed","ios":"levelo://app?vid=f49298c6-b208-404d-bb0c-160ccbda2eed"},"vehicle_type_id":"4","last_reported":1736244601,"current_range_meters":30800,"station_id":"ce4bho92rcd13ifvqh4g","pricing_plan_id":"cebpf4jnsgd1na2vs0mg"},{"bike_id":"82e291a4-390a-46b2-9aea-12f3eef82b2f","system_id":"levelo_inurba_marseille","lat":43.29003,"lon":5.3562,"is_reserved":false,"is_disabled":false,"rental_uris":{"android":"levelo://app?vid=82e291a4-390a-46b2-9aea-12f3eef82b2f","ios":"levelo://app?vid=82e291a4-390a-46b2-9aea-12f3eef82b2f"},"vehicle_type_id":"4","last_reported":1736244601,"current_range_meters":38000,"station_id":"ce4bhb92rcd13ifvqen0","pricing_plan_id":"cebpf4jnsgd1na2vs0mg"},{"bike_id":"d014f699-d84d-436b-b3bf-8c059d18ea89","system_id":"levelo_inurba_marseille","lat":43.22922,"lon":5.35392,"is_reserved":false,"is_disabled":false,"rental_uris":{"android":"levelo://app?vid=d014f699-d84d-436b-b3bf-8c059d18ea89","ios":"levelo://app?vid=d014f699-d84d-436b-b3bf-8c059d18ea89"},"vehicle_type_id":"4","last_reported":1736244601,"current_range_meters":8400,"station_id":"cpo3532slgdg3j2ikp40","pricing_plan_id":"cebpf4jnsgd1na2vs0mg"},{"bike_id":"d712c131-758f-4ae4-8caf-687f76e0d587","system_id":"levelo_inurba_marseille","lat":43.27339,"lon":5.39096,"is_reserved":false,"is_disabled":false,"rental_uris":{"android":"levelo://app?vid=d712c131-758f-4ae4-8caf-687f76e0d587","ios":"levelo://app?vid=d712c131-758f-4ae4-8caf-687f76e0d587"},"vehicle_type_id":"4","last_reported":1736244601,"current_range_meters":38800,"station_id":"ce4bhgp2rcd13ifvqfe0","pricing_plan_id":"cebpf4jnsgd1na2vs0mg"},{"bike_id":"c1028ac9-4e10-4a1a-bb52-92e0449f6c3a","system_id":"levelo_inurba_marseille","lat":43.29103,"lon":5.38128,"is_reserved":false,"is_disabled":false,"rental_uris":{"android":"levelo://app?vid=c1028ac9-4e10-4a1a-bb52-92e0449f6c3a","ios":"levelo://app?vid=c1028ac9-4e10-4a1a-bb52-92e0449f6c3a"},"vehicle_type_id":"4","last_reported":1736244601,"current_range_meters":38800,"station_id":"ce4bh512rcd13ifvqe2g","pricing_plan_id":"cebpf4jnsgd1na2vs0mg"},{"bike_id":"d499fccd-e52a-435e-b518-e29218ea6f00","system_id":"levelo_inurba_marseille","lat":43.2842,"lon":5.349724,"is_reserved":false,"is_disabled":true,"rental_uris":{"android":"levelo://app?vid=d499fccd-e52a-435e-b518-e29218ea6f00","ios":"levelo://app?vid=d499fccd-e52a-435e-b518-e29218ea6f00"},"vehicle_type_id":"4","last_reported":1736244601,"current_range_meters":2000,"station_id":"ce4bhbh2rcd13ifvqepg","pricing_plan_id":"cebpf4jnsgd1na2vs0mg"},{"bike_id":"955387a8-4a47-4691-946f-78754c88504b","system_id":"levelo_inurba_marseille","lat":43.23198,"lon":5.35575,"is_reserved":false,"is_disabled":false,"rental_uris":{"android":"levelo://app?vid=955387a8-4a47-4691-946f-78754c88504b","ios":"levelo://app?vid=955387a8-4a47-4691-946f-78754c88504b"},"vehicle_type_id":"4","last_reported":1736244601,"current_range_meters":36800,"station_id":"ce4bhu92rcd13ifvqi70","pricing_plan_id":"cebpf4jnsgd1na2vs0mg"},{"bike_id":"ef72cdb4-465d-4178-b952-49906f159c48","system_id":"levelo_inurba_marseille","lat":43.28131,"lon":5.42635,"is_reserved":false,"is_disabled":false,"rental_uris":{"android":"levelo://app?vid=ef72cdb4-465d-4178-b952-49906f159c48","ios":"levelo://app?vid=ef72cdb4-465d-4178-b952-49906f159c48"},"vehicle_type_id":"4","last_reported":1736244601,"current_range_meters":36800,"station_id":"ce4bhnh2rcd13ifvqgug","pricing_plan_id":"cebpf4jnsgd1na2vs0mg"},{"bike_id":"1526205b-db60-41b9-8970-27dca19f4645","system_id":"levelo_inurba_marseille","lat":43.33602,"lon":5.4103,"is_reserved":false,"is_disabled":false,"rental_uris":{"android":"levelo://app?vid=1526205b-db60-41b9-8970-27dca19f4645","ios":"levelo://app?vid=1526205b-db60-41b9-8970-27dca19f4645"},"vehicle_type_id":"4","last_reported":1736244601,"current_range_meters":9200,"station_id":"ce4bhqh2rcd13ifvqhmg","pricing_plan_id":"cebpf4jnsgd1na2vs0mg"},{"bike_id":"f949af9a-2683-4ec9-b4bf-168b31b3bcb2","system_id":"levelo_inurba_marseille","lat":43.246485,"lon":5.388987,"is_reserved":false,"is_disabled":false,"rental_uris":{"android":"levelo://app?vid=f949af9a-2683-4ec9-b4bf-168b31b3bcb2","ios":"levelo://app?vid=f949af9a-2683-4ec9-b4bf-168b31b3bcb2"},"vehicle_type_id":"4","last_reported":1736244601,"current_range_meters":19200,"station_id":"ce4bhg12rcd13ifvqf60","pricing_plan_id":"cebpf4jnsgd1na2vs0mg"},{"bike_id":"5716fd4e-02bd-4a7d-b0ae-b602c555354f","system_id":"levelo_inurba_marseille","lat":43.29101,"lon":5.38152,"is_reserved":false,"is_disabled":true,"rental_uris":{"android":"levelo://app?vid=5716fd4e-02bd-4a7d-b0ae-b602c555354f","ios":"levelo://app?vid=5716fd4e-02bd-4a7d-b0ae-b602c555354f"},"vehicle_type_id":"4","last_reported":1736244601,"current_range_meters":0,"station_id":"ce4bh512rcd13ifvqe2g","pricing_plan_id":"cebpf4jnsgd1na2vs0mg"},{"bike_id":"35366d3e-9927-4914-80da-37300e9998f0","system_id":"levelo_inurba_marseille","lat":43.28691,"lon":5.37399,"is_reserved":false,"is_disabled":true,"rental_uris":{"android":"levelo://app?vid=35366d3e-9927-4914-80da-37300e9998f0","ios":"levelo://app?vid=35366d3e-9927-4914-80da-37300e9998f0"},"vehicle_type_id":"4","last_reported":1736244601,"current_range_meters":29600,"station_id":"ce4bh3p2rcd13ifvqdq0","pricing_plan_id":"cebpf4jnsgd1na2vs0mg"},{"bike_id":"49a58075-360f-493d-a66e-87bce6e29700","system_id":"levelo_inurba_marseille","lat":43.33021,"lon":5.39064,"is_reserved":false,"is_disabled":false,"rental_uris":{"android":"levelo://app?vid=49a58075-360f-493d-a66e-87bce6e29700","ios":"levelo://app?vid=49a58075-360f-493d-a66e-87bce6e29700"},"vehicle_type_id":"4","last_reported":1736244601,"current_range_meters":27600,"station_id":"ce4bhr92rcd13ifvqhrg","pricing_plan_id":"cebpf4jnsgd1na2vs0mg"},{"bike_id":"79ff8c15-50e6-493a-80e7-16be3ee55efc","system_id":"levelo_inurba_marseille","lat":43.23152,"lon":5.43735,"is_reserved":false,"is_disabled":false,"rental_uris":{"android":"levelo://app?vid=79ff8c15-50e6-493a-80e7-16be3ee55efc","ios":"levelo://app?vid=79ff8c15-50e6-493a-80e7-16be3ee55efc"},"vehicle_type_id":"4","last_reported":1736244601,"current_range_meters":18800,"station_id":"ce4bhmp2rcd13ifvqgog","pricing_plan_id":"cebpf4jnsgd1na2vs0mg"},{"bike_id":"0eaa564a-644a-43f8-ab87-c179b75f38f8","system_id":"levelo_inurba_marseille","lat":43.29169,"lon":5.37166,"is_reserved":false,"is_disabled":false,"rental_uris":{"android":"levelo://app?vid=0eaa564a-644a-43f8-ab87-c179b75f38f8","ios":"levelo://app?vid=0eaa564a-644a-43f8-ab87-c179b75f38f8"},"vehicle_type_id":"4","last_reported":1736244601,"current_range_meters":38400,"station_id":"ce4bha92rcd13ifvqeh0","pricing_plan_id":"cebpf4jnsgd1na2vs0mg"},{"bike_id":"9089cb5e-354c-4126-83cf-d4a2b7fd0b83","system_id":"levelo_inurba_marseille","lat":43.290327,"lon":5.399813,"is_reserved":false,"is_disabled":false,"rental_uris":{"android":"levelo://app?vid=9089cb5e-354c-4126-83cf-d4a2b7fd0b83","ios":"levelo://app?vid=9089cb5e-354c-4126-83cf-d4a2b7fd0b83"},"vehicle_type_id":"4","last_reported":1736244601,"current_range_meters":12800,"station_id":"ce4bh392rcd13ifvqdm0","pricing_plan_id":"cebpf4jnsgd1na2vs0mg"},{"bike_id":"75321dea-10a3-400f-8783-48b2ff90b60c","system_id":"levelo_inurba_marseille","lat":43.24647,"lon":5.38899,"is_reserved":false,"is_disabled":false,"rental_uris":{"android":"levelo://app?vid=75321dea-10a3-400f-8783-48b2ff90b60c","ios":"levelo://app?vid=75321dea-10a3-400f-8783-48b2ff90b60c"},"vehicle_type_id":"4","last_reported":1736244601,"current_range_meters":8400,"station_id":"ce4bhg12rcd13ifvqf60","pricing_plan_id":"cebpf4jnsgd1na2vs0mg"},{"bike_id":"26e93668-3f32-4cdf-873b-a4af8fb4d1e8","system_id":"levelo_inurba_marseille","lat":43.26935,"lon":5.38915,"is_reserved":false,"is_disabled":false,"rental_uris":{"android":"levelo://app?vid=26e93668-3f32-4cdf-873b-a4af8fb4d1e8","ios":"levelo://app?vid=26e93668-3f32-4cdf-873b-a4af8fb4d1e8"},"vehicle_type_id":"4","last_reported":1736244601,"current_range_meters":36400,"station_id":"ce4bhhh2rcd13ifvqfl0","pricing_plan_id":"cebpf4jnsgd1na2vs0mg"},{"bike_id":"d8abaf67-708b-4db2-a73b-fb2a8a1352a9","system_id":"levelo_inurba_marseille","lat":43.33603,"lon":5.41021,"is_reserved":false,"is_disabled":false,"rental_uris":{"android":"levelo://app?vid=d8abaf67-708b-4db2-a73b-fb2a8a1352a9","ios":"levelo://app?vid=d8abaf67-708b-4db2-a73b-fb2a8a1352a9"},"vehicle_type_id":"4","last_reported":1736244601,"current_range_meters":19600,"station_id":"ce4bhqh2rcd13ifvqhmg","pricing_plan_id":"cebpf4jnsgd1na2vs0mg"},{"bike_id":"25b6f245-cadc-4cad-812c-53e062c1ef53","system_id":"levelo_inurba_marseille","lat":43.231453,"lon":5.437155,"is_reserved":false,"is_disabled":false,"rental_uris":{"android":"levelo://app?vid=25b6f245-cadc-4cad-812c-53e062c1ef53","ios":"levelo://app?vid=25b6f245-cadc-4cad-812c-53e062c1ef53"},"vehicle_type_id":"4","last_reported":1736244601,"current_range_meters":31200,"station_id":"ce4bhmp2rcd13ifvqgog","pricing_plan_id":"cebpf4jnsgd1na2vs0mg"},{"bike_id":"71ccad13-b7be-48f9-af73-d619231cd0d0","system_id":"levelo_inurba_marseille","lat":43.29046,"lon":5.39956,"is_reserved":false,"is_disabled":false,"rental_uris":{"android":"levelo://app?vid=71ccad13-b7be-48f9-af73-d619231cd0d0","ios":"levelo://app?vid=71ccad13-b7be-48f9-af73-d619231cd0d0"},"vehicle_type_id":"4","last_reported":1736244601,"current_range_meters":30800,"station_id":"ce4bh392rcd13ifvqdm0","pricing_plan_id":"cebpf4jnsgd1na2vs0mg"},{"bike_id":"d4fc73b7-1de4-4922-aa6e-1da12e10e59e","system_id":"levelo_inurba_marseille","lat":43.29009,"lon":5.35622,"is_reserved":false,"is_disabled":false,"rental_uris":{"android":"levelo://app?vid=d4fc73b7-1de4-4922-aa6e-1da12e10e59e","ios":"levelo://app?vid=d4fc73b7-1de4-4922-aa6e-1da12e10e59e"},"vehicle_type_id":"4","last_reported":1736244601,"current_range_meters":38400,"station_id":"ce4bhb92rcd13ifvqen0","pricing_plan_id":"cebpf4jnsgd1na2vs0mg"},{"bike_id":"3f5282bc-2c22-4e74-ab14-204d1d91c293","system_id":"levelo_inurba_marseille","lat":43.24072,"lon":5.37761,"is_reserved":false,"is_disabled":true,"rental_uris":{"android":"levelo://app?vid=3f5282bc-2c22-4e74-ab14-204d1d91c293","ios":"levelo://app?vid=3f5282bc-2c22-4e74-ab14-204d1d91c293"},"vehicle_type_id":"4","last_reported":1736244601,"current_range_meters":400,"station_id":"ce4bhnp2rcd13ifvqgvg","pricing_plan_id":"cebpf4jnsgd1na2vs0mg"},{"bike_id":"adc35f95-281c-47d2-a685-c45643234239","system_id":"levelo_inurba_marseille","lat":43.29722,"lon":5.37687,"is_reserved":false,"is_disabled":false,"rental_uris":{"android":"levelo://app?vid=adc35f95-281c-47d2-a685-c45643234239","ios":"levelo://app?vid=adc35f95-281c-47d2-a685-c45643234239"},"vehicle_type_id":"4","last_reported":1736244601,"current_range_meters":26800,"station_id":"ce4bgkh2rcd13ifvqbl0","pricing_plan_id":"cebpf4jnsgd1na2vs0mg"},{"bike_id":"e878c0e7-30d8-476a-95c4-b3ed4c6be7fc","system_id":"levelo_inurba_marseille","lat":43.30591,"lon":5.39358,"is_reserved":false,"is_disabled":false,"rental_uris":{"android":"levelo://app?vid=e878c0e7-30d8-476a-95c4-b3ed4c6be7fc","ios":"levelo://app?vid=e878c0e7-30d8-476a-95c4-b3ed4c6be7fc"},"vehicle_type_id":"4","last_reported":1736244601,"current_range_meters":25600,"station_id":"ce4bh0p2rcd13ifvqd80","pricing_plan_id":"cebpf4jnsgd1na2vs0mg"},{"bike_id":"d96a94fa-78c1-4a1b-8963-819e952c0c73","system_id":"levelo_inurba_marseille","lat":43.28149,"lon":5.42639,"is_reserved":false,"is_disabled":false,"rental_uris":{"android":"levelo://app?vid=d96a94fa-78c1-4a1b-8963-819e952c0c73","ios":"levelo://app?vid=d96a94fa-78c1-4a1b-8963-819e952c0c73"},"vehicle_type_id":"4","last_reported":1736244601,"current_range_meters":25200,"station_id":"ce4bhnh2rcd13ifvqgug","pricing_plan_id":"cebpf4jnsgd1na2vs0mg"},{"bike_id":"ea7bebe3-4aff-4a01-b28d-c9b866182ae3","system_id":"levelo_inurba_marseille","lat":43.308,"lon":5.39213,"is_reserved":false,"is_disabled":true,"rental_uris":{"android":"levelo://app?vid=ea7bebe3-4aff-4a01-b28d-c9b866182ae3","ios":"levelo://app?vid=ea7bebe3-4aff-4a01-b28d-c9b866182ae3"},"vehicle_type_id":"4","last_reported":1736244601,"current_range_meters":28400,"station_id":"","pricing_plan_id":"cebpf4jnsgd1na2vs0mg"},{"bike_id":"4349e322-e54f-4a7c-8de9-2ce06a16918d","system_id":"levelo_inurba_marseille","lat":43.27945,"lon":5.41048,"is_reserved":false,"is_disabled":true,"rental_uris":{"android":"levelo://app?vid=4349e322-e54f-4a7c-8de9-2ce06a16918d","ios":"levelo://app?vid=4349e322-e54f-4a7c-8de9-2ce06a16918d"},"vehicle_type_id":"4","last_reported":1736244601,"current_range_meters":0,"station_id":"ce4bhnp2rcd13ifvqh0g","pricing_plan_id":"cebpf4jnsgd1na2vs0mg"},