{"last_updated":1716757633,"ttl":30,"version":"2.2","data":{"bikes":[{"bike_id":"45f69cf0-a561-4985-9918-a74b520c5bee","system_id":"levelo_inurba_marseille","lat":43.31341,"lon":5.367098,"is_reserved":false,"is_disabled":false,"rental_uris":{"android":"levelo://app?vid=45f69cf0-a561-4985-9918-a74b520c5bee","ios":"levelo://app?vid=45f69cf0-a561-4985-9918-a74b520c5bee"},"vehicle_type_id":"4","last_reported":1716757633,"current_range_meters":25200,"station_id":"ce4bgr92rcd13ifvqc6g","pricing_plan_id":"cebpf4jnsgd1na2vs0mg"},{"bike_id":"639b0401-f2b6-491c-b509-c71e78b233c8","system_id":"levelo_inurba_marseille","lat":43.31348,"lon":5.36712,"is_reserved":false,"is_disabled":false,"rental_uris":{"android":"levelo://app?vid=639b0401-f2b6-491c-b509-c71e78b233c8","ios":"levelo://app?vid=639b0401-f2b6-491c-b509-c71e78b233c8"},"vehicle_type_id":"4","last_reported":1716757633,"current_range_meters":7200,"station_id":"ce4bgr92rcd13ifvqc6g","pricing_plan_id":"cebpf4jnsgd1na2vs0mg"},{"bike_id":"a44d0643-0d6f-4eca-b10f-2a3ed2d53ba7","system_id":"levelo_inurba_marseille","lat":43.313391,"lon":5.36706,"is_reserved":false,"is_disabled":false,"rental_uris":{"android":"levelo://app?vid=a44d0643-0d6f-4eca-b10f-2a3ed2d53ba7","ios":"levelo://app?vid=a44d0643-0d6f-4eca-b10f-2a3ed2d53ba7"},"vehicle_type_id":"4","last_reported":1716757633,"current_range_meters":3600,"station_id":"ce4bgr92rcd13ifvqc6g","pricing_plan_id":"cebpf4jnsgd1na2vs0mg"},{"bike_id":"892f1f38-5881-4422-8ae7-a45e5dd3fc37","system_id":"levelo_inurba_marseille","lat":43.312239,"lon":5.368562,"is_reserved":false,"is_disabled":false,"rental_uris":{"android":"levelo://app?vid=892f1f38-5881-4422-8ae7-a45e5dd3fc37","ios":"levelo://app?vid=892f1f38-5881-4422-8ae7-a45e5dd3fc37"},"vehicle_type_id":"4","last_reported":1716757633,"current_range_meters":25200,"station_id":"ce4bgl92rcd13ifvqbq0","pricing_plan_id":"cebpf4jnsgd1na2vs0mg"},{"bike_id":"6781e65c-c64b-4ba2-8ce4-23e4668e90a9","system_id":"levelo_inurba_marseille","lat":43.309076,"lon":5.368465,"is_reserved":false,"is_disabled":false,"rental_uris":{"android":"levelo://app?vid=6781e65c-c64b-4ba2-8ce4-23e4668e90a9","ios":"levelo://app?vid=6781e65c-c64b-4ba2-8ce4-23e4668e90a9"},"vehicle_type_id":"4","last_reported":1716757633,"current_range_meters":24400,"station_id":"ce4bgn92rcd13ifvqbvg","pricing_plan_id":"cebpf4jnsgd1na2vs0mg"},{"bike_id":"c0c807a6-c802-4408-ac2f-34e85cdf2227","system_id":"levelo_inurba_marseille","lat":43.309076,"lon":5.368465,"is_reserved":false,"is_disabled":false,"rental_uris":{"android":"levelo://app?vid=c0c807a6-c802-4408-ac2f-34e85cdf2227","ios":"levelo://app?vid=c0c807a6-c802-4408-ac2f-34e85cdf2227"},"vehicle_type_id":"4","last_reported":1716757633,"current_range_meters":11200,"station_id":"ce4bgn92rcd13ifvqbvg","pricing_plan_id":"cebpf4jnsgd1na2vs0mg"},{"bike_id":"30ed12a8-3f10-4b44-9f10-8d6333b5e8fe","system_id":"levelo_inurba_marseille","lat":43.309076,"lon":5.368465,"is_reserved":false,"is_disabled":false,"rental_uris":{"android":"levelo://app?vid=30ed12a8-3f10-4b44-9f10-8d6333b5e8fe","ios":"levelo://app?vid=30ed12a8-3f10-4b44-9f10-8d6333b5e8fe"},"vehicle_type_id":"4","last_reported":1716757633,"current_range_meters":5200,"station_id":"ce4bgn92rcd13ifvqbvg","pricing_plan_id":"cebpf4jnsgd1na2vs0mg"},{"bike_id":"89fe02c7-9393-4756-bf56-56be773db052","system_id":"levelo_inurba_marseille","lat":43.309076,"lon":5.368465,"is_reserved":false,"is_disabled":false,"rental_uris":{"android":"levelo://app?vid=89fe02c7-9393-4756-bf56-56be773db052","ios":"levelo://app?vid=89fe02c7-9393-4756-bf56-56be773db052"},"vehicle_type_id":"4","last_reported":1716757633,"current_range_meters":3600,"station_id":"ce4bgn92rcd13ifvqbvg","pricing_plan_id":"cebpf4jnsgd1na2vs0mg"},{"bike_id":"5dba78a3-7f57-406b-8635-872bbf3a6adb","system_id":"levelo_inurba_marseille","lat":43.30902,"lon":5.36849,"is_reserved":false,"is_disabled":false,"rental_uris":{"android":"levelo://app?vid=5dba78a3-7f57-406b-8635-872bbf3a6adb","ios":"levelo://app?vid=5dba78a3-7f57-406b-8635-872bbf3a6adb"},"vehicle_type_id":"4","last_reported":1716757633,"current_range_meters":800,"station_id":"ce4bgn92rcd13ifvqbvg","pricing_plan_id":"cebpf4jnsgd1na2vs0mg"},{"bike_id":"e3ccc40e-aff3-46aa-a1be-25feeee5c295","system_id":"levelo_inurba_marseille","lat":43.314811,"lon":5.373103,"is_reserved":false,"is_disabled":false,"rental_uris":{"android":"levelo://app?vid=e3ccc40e-aff3-46aa-a1be-25feeee5c295","ios":"levelo://app?vid=e3ccc40e-aff3-46aa-a1be-25feeee5c295"},"vehicle_type_id":"4","last_reported":1716757633,"current_range_meters":22000,"station_id":"ce4bgt12rcd13ifvqcd0","pricing_plan_id":"cebpf4jnsgd1na2vs0mg"},{"bike_id":"471759e7-8fa4-49df-9618-ee3e3bafbfc0","system_id":"levelo_inurba_marseille","lat":43.314811,"lon":5.373104,"is_reserved":false,"is_disabled":false,"rental_uris":{"android":"levelo://app?vid=471759e7-8fa4-49df-9618-ee3e3bafbfc0","ios":"levelo://app?vid=471759e7-8fa4-49df-9618-ee3e3bafbfc0"},"vehicle_type_id":"4","last_reported":1716757633,"current_range_meters":29200,"station_id":"ce4bgt12rcd13ifvqcd0","pricing_plan_id":"cebpf4jnsgd1na2vs0mg"},{"bike_id":"59a48ce5-a13f-4f16-a548-cd5218b87455","system_id":"levelo_inurba_marseille","lat":43.31494,"lon":5.373085,"is_reserved":false,"is_disabled":false,"rental_uris":{"android":"levelo://app?vid=59a48ce5-a13f-4f16-a548-cd5218b87455","ios":"levelo://app?vid=59a48ce5-a13f-4f16-a548-cd5218b87455"},"vehicle_type_id":"4","last_reported":1716757633,"current_range_meters":0,"station_id":"ce4bgt12rcd13ifvqcd0","pricing_plan_id":"cebpf4jnsgd1na2vs0mg"},{"bike_id":"04edbc01-e5a5-4a0d-ac38-afeb268c69cd","system_id":"levelo_inurba_marseille","lat":43.314811,"lon":5.373104,"is_reserved":false,"is_disabled":false,"rental_uris":{"android":"levelo://app?vid=04edbc01-e5a5-4a0d-ac38-afeb268c69cd","ios":"levelo://app?vid=04edbc01-e5a5-4a0d-ac38-afeb268c69cd"},"vehicle_type_id":"4","last_reported":1716757633,"current_range_meters":17200,"station_id":"ce4bgt12rcd13ifvqcd0","pricing_plan_id":"cebpf4jnsgd1na2vs0mg"},{"bike_id":"e93acf2a-f8ef-4cd6-a9fd-2e19d022808c","system_id":"levelo_inurba_marseille","lat":43.314811,"lon":5.373104,"is_reserved":false,"is_disabled":false,"rental_uris":{"android":"levelo://app?vid=e93acf2a-f8ef-4cd6-a9fd-2e19d022808c","ios":"levelo://app?vid=e93acf2a-f8ef-4cd6-a9fd-2e19d022808c"},"vehicle_type_id":"4","last_reported":1716757633,"current_range_meters":5600,"station_id":"ce4bgt12rcd13ifvqcd0","pricing_plan_id":"cebpf4jnsgd1na2vs0mg"},{"bike_id":"085f8808-1d82-4a31-a42a-8e58df7e3717","system_id":"levelo_inurba_marseille","lat":43.305989,"lon":5.37225,"is_reserved":false,"is_disabled":false,"rental_uris":{"android":"levelo://app?vid=085f8808-1d82-4a31-a42a-8e58df7e3717","ios":"levelo://app?vid=085f8808-1d82-4a31-a42a-8e58df7e3717"},"vehicle_type_id":"4","last_reported":1716757633,"current_range_meters":31200,"station_id":"ce4bgqh2rcd13ifvqc4g","pricing_plan_id":"cebpf4jnsgd1na2vs0mg"},{"bike_id":"378a2935-4b7c-4d5b-921b-1dabc98a2b94","system_id":"levelo_inurba_marseille","lat":43.305989,"lon":5.37225,"is_reserved":false,"is_disabled":false,"rental_uris":{"android":"levelo://app?vid=378a2935-4b7c-4d5b-921b-1dabc98a2b94","ios":"levelo://app?vid=378a2935-4b7c-4d5b-921b-1dabc98a2b94"},"vehicle_type_id":"4","last_reported":1716757633,"current_range_meters":7600,"station_id":"ce4bgqh2rcd13ifvqc4g","pricing_plan_id":"cebpf4jnsgd1na2vs0mg"},{"bike_id":"f38c0305-19a6-455a-8b63-384c66cb89e4","system_id":"levelo_inurba_marseille","lat":43.305989,"lon":5.37225,"is_reserved":false,"is_disabled":false,"rental_uris":{"android":"levelo://app?vid=f38c0305-19a6-455a-8b63-384c66cb89e4","ios":"levelo://app?vid=f38c0305-19a6-455a-8b63-384c66cb89e4"},"vehicle_type_id":"4","last_reported":1716757633,"current_range_meters":13200,"station_id":"ce4bgqh2rcd13ifvqc4g","pricing_plan_id":"cebpf4jnsgd1na2vs0mg"},{"bike_id":"47f176ea-c8bb-448d-86bb-3267dbcf5781","system_id":"levelo_inurba_marseille","lat":43.311125,"lon":5.377624,"is_reserved":false,"is_disabled":false,"rental_uris":{"android":"levelo://app?vid=47f176ea-c8bb-448d-86bb-3267dbcf5781","ios":"levelo://app?vid=47f176ea-c8bb-448d-86bb-3267dbcf5781"},"vehicle_type_id":"4","last_reported":1716757633,"current_range_meters":5600,"station_id":"ce4bgt92rcd13ifvqcg0","pricing_plan_id":"cebpf4jnsgd1na2vs0mg"},{"bike_id":"b88a76a0-86d4-4426-a02f-5f8aae22dce2","system_id":"levelo_inurba_marseille","lat":43.311125,"lon":5.377624,"is_reserved":false,"is_disabled":false,"rental_uris":{"android":"levelo://app?vid=b88a76a0-86d4-4426-a02f-5f8aae22dce2","ios":"levelo://app?vid=b88a76a0-86d4-4426-a02f-5f8aae22dce2"},"vehicle_type_id":"4","last_reported":1716757633,"current_range_meters":400,"station_id":"ce4bgt92rcd13ifvqcg0","pricing_plan_id":"cebpf4jnsgd1na2vs0mg"},{"bike_id":"90b88415-2120-48f9-b500-da294b4b999d","system_id":"levelo_inurba_marseille","lat":43.311125,"lon":5.377624,"is_reserved":false,"is_disabled":false,"rental_uris":{"android":"levelo://app?vid=90b88415-2120-48f9-b500-da294b4b999d","ios":"levelo://app?vid=90b88415-2120-48f9-b500-da294b4b999d"},"vehicle_type_id":"4","last_reported":1716757633,"current_range_meters":26400,"station_id":"ce4bgt92rcd13ifvqcg0","pricing_plan_id":"cebpf4jnsgd1na2vs0mg"},{"bike_id":"cc84d301-96c6-4013-8cad-22b80e016e27","system_id":"levelo_inurba_marseille","lat":43.311125,"lon":5.377624,"is_reserved":false,"is_disabled":false,"rental_uris":{"android":"levelo://app?vid=cc84d301-96c6-4013-8cad-22b80e016e27","ios":"levelo://app?vid=cc84d301-96c6-4013-8cad-22b80e016e27"},"vehicle_type_id":"4","last_reported":1716757633,"current_range_meters":16400,"station_id":"ce4bgt92rcd13ifvqcg0","pricing_plan_id":"cebpf4jnsgd1na2vs0mg"},{"bike_id":"bd319a52-43d2-49d8-b896-2e90959c3083","system_id":"levelo_inurba_marseille","lat":43.311131,"lon":5.377651,"is_reserved":false,"is_disabled":false,"rental_uris":{"android":"levelo://app?vid=bd319a52-43d2-49d8-b896-2e90959c3083","ios":"levelo://app?vid=bd319a52-43d2-49d8-b896-2e90959c3083"},"vehicle_type_id":"4","last_reported":1716757633,"current_range_meters":0,"station_id":"ce4bgt92rcd13ifvqcg0","pricing_plan_id":"cebpf4jnsgd1na2vs0mg"},{"bike_id":"1306bd09-c8a5-4d00-ba60-501ed000b077","system_id":"levelo_inurba_marseille","lat":43.311125,"lon":5.377624,"is_reserved":false,"is_disabled":false,"rental_uris":{"android":"levelo://app?vid=1306bd09-c8a5-4d00-ba60-501ed000b077","ios":"levelo://app?vid=1306bd09-c8a5-4d00-ba60-501ed000b077"},"vehicle_type_id":"4","last_reported":1716757633,"current_range_meters":13200,"station_id":"ce4bgt92rcd13ifvqcg0","pricing_plan_id":"cebpf4jnsgd1na2vs0mg"},{"bike_id":"8c7f3f68-357c-4078-8211-d47c8336b83e","system_id":"levelo_inurba_marseille","lat":43.311131,"lon":5.377651,"is_reserved":false,"is_disabled":false,"rental_uris":{"android":"levelo://app?vid=8c7f3f68-357c-4078-8211-d47c8336b83e","ios":"levelo://app?vid=8c7f3f68-357c-4078-8211-d47c8336b83e"},"vehicle_type_id":"4","last_reported":1716757633,"current_range_meters":0,"station_id":"ce4bgt92rcd13ifvqcg0","pricing_plan_id":"cebpf4jnsgd1na2vs0mg"},{"bike_id":"66332500-eb6a-46f2-83a1-baba70308a15","system_id":"levelo_inurba_marseille","lat":43.311125,"lon":5.377624,"is_reserved":false,"is_disabled":false,"rental_uris":{"android":"levelo://app?vid=66332500-eb6a-46f2-83a1-baba70308a15","ios":"levelo://app?vid=66332500-eb6a-46f2-83a1-baba70308a15"},"vehicle_type_id":"4","last_reported":1716757633,"current_range_meters":16000,"station_id":"ce4bgt92rcd13ifvqcg0","pricing_plan_id":"cebpf4jnsgd1na2vs0mg"},{"bike_id":"eb54ec3e-1fd7-4242-80da-e34dc5cb452e","system_id":"levelo_inurba_marseille","lat":43.310804,"lon":5.38359,"is_reserved":false,"is_disabled":false,"rental_uris":{"android":"levelo://app?vid=eb54ec3e-1fd7-4242-80da-e34dc5cb452e","ios":"levelo://app?vid=eb54ec3e-1fd7-4242-80da-e34dc5cb452e"},"vehicle_type_id":"4","last_reported":1716757633,"current_range_meters":18400,"station_id":"ce4bgv92rcd13ifvqcr0","pricing_plan_id":"cebpf4jnsgd1na2vs0mg"},{"bike_id":"cd557dc9-e81e-4c70-8219-a0200165c4e9","system_id":"levelo_inurba_marseille","lat":43.307945,"lon":5.376487,"is_reserved":false,"is_disabled":false,"rental_uris":{"android":"levelo://app?vid=cd557dc9-e81e-4c70-8219-a0200165c4e9","ios":"levelo://app?vid=cd557dc9-e81e-4c70-8219-a0200165c4e9"},"vehicle_type_id":"4","last_reported":1716757633,"current_range_meters":5600,"station_id":"ce4bgv92rcd13ifvqcq0","pricing_plan_id":"cebpf4jnsgd1na2vs0mg"},{"bike_id":"9c3f90ad-df98-45c2-8a08-0ac9ef179f78","system_id":"levelo_inurba_marseille","lat":43.307945,"lon":5.376487,"is_reserved":false,"is_disabled":false,"rental_uris":{"android":"levelo://app?vid=9c3f90ad-df98-45c2-8a08-0ac9ef179f78","ios":"levelo://app?vid=9c3f90ad-df98-45c2-8a08-0ac9ef179f78"},"vehicle_type_id":"4","last_reported":1716757633,"current_range_meters":6000,"station_id":"ce4bgv92rcd13ifvqcq0","pricing_plan_id":"cebpf4jnsgd1na2vs0mg"},{"bike_id":"a669a5d0-795f-4f76-b398-2b768f2fe67f","system_id":"levelo_inurba_marseille","lat":43.317075,"lon":5.377367,"is_reserved":false,"is_disabled":false,"rental_uris":{"android":"levelo://app?vid=a669a5d0-795f-4f76-b398-2b768f2fe67f","ios":"levelo://app?vid=a669a5d0-795f-4f76-b398-2b768f2fe67f"},"vehicle_type_id":"4","last_reported":1716757633,"current_range_meters":22800,"station_id":"ce4bgth2rcd13ifvqch0","pricing_plan_id":"cebpf4jnsgd1na2vs0mg"},{"bike_id":"ebe57eae-e52a-42f3-865c-57871f12c9ee","system_id":"levelo_inurba_marseille","lat":43.317075,"lon":5.377367,"is_reserved":false,"is_disabled":false,"rental_uris":{"android":"levelo://app?vid=ebe57eae-e52a-42f3-865c-57871f12c9ee","ios":"levelo://app?vid=ebe57eae-e52a-42f3-865c-57871f12c9ee"},"vehicle_type_id":"4","last_reported":1716757633,"current_range_meters":31200,"station_id":"ce4bgth2rcd13ifvqch0","pricing_plan_id":"cebpf4jnsgd1na2vs0mg"},{"bike_id":"f86c175d-c86f-4ed6-bfa2-0bb3a023adda","system_id":"levelo_inurba_marseille","lat":43.317075,"lon":5.377367,"is_reserved":false,"is_disabled":false,"rental_uris":{"android":"levelo://app?vid=f86c175d-c86f-4ed6-bfa2-0bb3a023adda","ios":"levelo://app?vid=f86c175d-c86f-4ed6-bfa2-0bb3a023adda"},"vehicle_type_id":"4","last_reported":1716757633,"current_range_meters":25600,"station_id":"ce4bgth2rcd13ifvqch0","pricing_plan_id":"cebpf4jnsgd1na2vs0mg"},{"bike_id":"47a8d8e9-7c99-4cb0-82b6-5811cf834d5e","system_id":"levelo_inurba_marseille","lat":43.315289,"lon":5.380349,"is_reserved":false,"is_disabled":false,"rental_uris":{"android":"levelo://app?vid=47a8d8e9-7c99-4cb0-82b6-5811cf834d5e","ios":"levelo://app?vid=47a8d8e9-7c99-4cb0-82b6-5811cf834d5e"},"vehicle_type_id":"4","last_reported":1716757633,"current_range_meters":0,"station_id":"ce4bhsp2rcd13ifvqi50","pricing_plan_id":"cebpf4jnsgd1na2vs0mg"},{"bike_id":"46fe6b47-e253-46a4-a770-5f44d93d3009","system_id":"levelo_inurba_marseille","lat":43.315289,"lon":5.380349,"is_reserved":false,"is_disabled":false,"rental_uris":{"android":"levelo://app?vid=46fe6b47-e253-46a4-a770-5f44d93d3009","ios":"levelo://app?vid=46fe6b47-e253-46a4-a770-5f44d93d3009"},"vehicle_type_id":"4","last_reported":1716757633,"current_range_meters":10400,"station_id":"ce4bhsp2rcd13ifvqi50","pricing_plan_id":"cebpf4jnsgd1na2vs0mg"},{"bike_id":"59b4e662-1e40-4394-bd12-169654c737b3","system_id":"levelo_inurba_marseille","lat":43.301939,"lon":5.366286,"is_reserved":false,"is_disabled":false,"rental_uris":{"android":"levelo://app?vid=59b4e662-1e40-4394-bd12-169654c737b3","ios":"levelo://app?vid=59b4e662-1e40-4394-bd12-169654c737b3"},"vehicle_type_id":"4","last_reported":1716757633,"current_range_meters":8000,"station_id":"ce4bgrh2rcd13ifvqc8g","pricing_plan_id":"cebpf4jnsgd1na2vs0mg"},{"bike_id":"c456f866-b3e7-4301-8fc3-90c13219b920","system_id":"levelo_inurba_marseille","lat":43.30264,"lon":5.37298,"is_reserved":false,"is_disabled":false,"rental_uris":{"android":"levelo://app?vid=c456f866-b3e7-4301-8fc3-90c13219b920","ios":"levelo://app?vid=c456f866-b3e7-4301-8fc3-90c13219b920"},"vehicle_type_id":"4","last_reported":1716757633,"current_range_meters":4800,"station_id":"","pricing_plan_id":"cebpf4jnsgd1na2vs0mg"},{"bike_id":"ed38837c-dc88-46db-90f8-799b290a007b","system_id":"levelo_inurba_marseille","lat":43.30817,"lon":5.3815,"is_reserved":false,"is_disabled":false,"rental_uris":{"android":"levelo://app?vid=ed38837c-dc88-46db-90f8-799b290a007b","ios":"levelo://app?vid=ed38837c-dc88-46db-90f8-799b290a007b"},"vehicle_type_id":"4","last_reported":1716757633,"current_range_meters":23200,"station_id":"ce4bgt12rcd13ifvqce0","pricing_plan_id":"cebpf4jnsgd1na2vs0mg"},{"bike_id":"da028dfc-d177-4459-ae29-405d042adac4","system_id":"levelo_inurba_marseille","lat":43.308012,"lon":5.381511,"is_reserved":false,"is_disabled":false,"rental_uris":{"android":"levelo://app?vid=da028dfc-d177-4459-ae29-405d042adac4","ios":"levelo://app?vid=da028dfc-d177-4459-ae29-405d042adac4"},"vehicle_type_id":"4","last_reported":1716757633,"current_range_meters":6000,"station_id":"ce4bgt12rcd13ifvqce0","pricing_plan_id":"cebpf4jnsgd1na2vs0mg"},{"bike_id":"6be212b2-dce1-4558-a8c8-7b788cdde283","system_id":"levelo_inurba_marseille","lat":43.308012,"lon":5.381511,"is_reserved":false,"is_disabled":false,"rental_uris":{"android":"levelo://app?vid=6be212b2-dce1-4558-a8c8-7b788cdde283","ios":"levelo://app?vid=6be212b2-dce1-4558-a8c8-7b788cdde283"},"vehicle_type_id":"4","last_reported":1716757633,"current_range_meters":3600,"station_id":"ce4bgt12rcd13ifvqce0","pricing_plan_id":"cebpf4jnsgd1na2vs0mg"},{"bike_id":"c08040b0-8e7b-4b5e-9583-546c8052e8e6","system_id":"levelo_inurba_marseille","lat":43.308012,"lon":5.381511,"is_reserved":false,"is_disabled":false,"rental_uris":{"android":"levelo://app?vid=c08040b0-8e7b-4b5e-9583-546c8052e8e6","ios":"levelo://app?vid=c08040b0-8e7b-4b5e-9583-546c8052e8e6"},"vehicle_type_id":"4","last_reported":1716757633,"current_range_meters":18400,"station_id":"ce4bgt12rcd13ifvqce0","pricing_plan_id":"cebpf4jnsgd1na2vs0mg"},{"bike_id":"0c0c00d3-9b40-48ab-a3ca-9084d029e301","system_id":"levelo_inurba_marseille","lat":43.308012,"lon":5.381511,"is_reserved":false,"is_disabled":false,"rental_uris":{"android":"levelo://app?vid=0c0c00d3-9b40-48ab-a3ca-9084d029e301","ios":"levelo://app?vid=0c0c00d3-9b40-48ab-a3ca-9084d029e301"},"vehicle_type_id":"4","last_reported":1716757633,"current_range_meters":23600,"station_id":"ce4bgt12rcd13ifvqce0","pricing_plan_id":"cebpf4jnsgd1na2vs0mg"},{"bike_id":"d90236b8-7cdc-4bd2-bfb0-e9791154bb55","system_id":"levelo_inurba_marseille","lat":43.308012,"lon":5.381511,"is_reserved":false,"is_disabled":false,"rental_uris":{"android":"levelo://app?vid=d90236b8-7cdc-4bd2-bfb0-e9791154bb55","ios":"levelo://app?vid=d90236b8-7cdc-4bd2-bfb0-e9791154bb55"},"vehicle_type_id":"4","last_reported":1716757633,"current_range_meters":18000,"station_id":"ce4bgt12rcd13ifvqce0","pricing_plan_id":"cebpf4jnsgd1na2vs0mg"},{"bike_id":"9581c9a5-6560-4d50-8113-3115c54c6118","system_id":"levelo_inurba_marseille","lat":43.308012,"lon":5.381511,"is_reserved":false,"is_disabled":false,"rental_uris":{"android":"levelo://app?vid=9581c9a5-6560-4d50-8113-3115c54c6118","ios":"levelo://app?vid=9581c9a5-6560-4d50-8113-3115c54c6118"},"vehicle_type_id":"4","last_reported":1716757633,"current_range_meters":8800,"station_id":"ce4bgt12rcd13ifvqce0","pricing_plan_id":"cebpf4jnsgd1na2vs0mg"},{"bike_id":"d924f8c8-70fa-4781-9561-ac2e4f72f5d8","system_id":"levelo_inurba_marseille","lat":43.308012,"lon":5.381511,"is_reserved":false,"is_disabled":false,"rental_uris":{"android":"levelo://app?vid=d924f8c8-70fa-4781-9561-ac2e4f72f5d8","ios":"levelo://app?vid=d924f8c8-70fa-4781-9561-ac2e4f72f5d8"},"vehicle_type_id":"4","last_reported":1716757633,"current_range_meters":0,"station_id":"ce4bgt12rcd13ifvqce0","pricing_plan_id":"cebpf4jnsgd1na2vs0mg"},{"bike_id":"1f81c4af-384c-4945-b77d-6b349d7591aa","system_id":"levelo_inurba_marseille","lat":43.308012,"lon":5.381511,"is_reserved":false,"is_disabled":false,"rental_uris":{"android":"levelo://app?vid=1f81c4af-384c-4945-b77d-6b349d7591aa","ios":"levelo://app?vid=1f81c4af-384c-4945-b77d-6b349d7591aa"},"vehicle_type_id":"4","last_reported":1716757633,"current_range_meters":21200,"station_id":"ce4bgt12rcd13ifvqce0","pricing_plan_id":"cebpf4jnsgd1na2vs0mg"},{"bike_id":"03dff596-1e72-4d92-93c0-ed843712b830","system_id":"levelo_inurba_marseille","lat":43.308012,"lon":5.381511,"is_reserved":false,"is_disabled":false,"rental_uris":{"android":"levelo://app?vid=03dff596-1e72-4d92-93c0-ed843712b830","ios":"levelo://app?vid=03dff596-1e72-4d92-93c0-ed843712b830"},"vehicle_type_id":"4","last_reported":1716757633,"current_range_meters":23200,"station_id":"ce4bgt12rcd13ifvqce0","pricing_plan_id":"cebpf4jnsgd1na2vs0mg"},{"bike_id":"8ea299bd-e0a4-45f1-84ca-ee448a991875","system_id":"levelo_inurba_marseille","lat":43.308012,"lon":5.381511,"is_reserved":false,"is_disabled":false,"rental_uris":{"android":"levelo://app?vid=8ea299bd-e0a4-45f1-84ca-ee448a991875","ios":"levelo://app?vid=8ea299bd-e0a4-45f1-84ca-ee448a991875"},"vehicle_type_id":"4","last_reported":1716757633,"current_range_meters":9200,"station_id":"ce4bgt12rcd13ifvqce0","pricing_plan_id":"cebpf4jnsgd1na2vs0mg"},{"bike_id":"bd373224-b205-4564-8f2f-64ec7ea4401d","system_id":"levelo_inurba_marseille","lat":43.308012,"lon":5.381511,"is_reserved":false,"is_disabled":false,"rental_uris":{"android":"levelo://app?vid=bd373224-b205-4564-8f2f-64ec7ea4401d","ios":"levelo://app?vid=bd373224-b205-4564-8f2f-64ec7ea4401d"},"vehicle_type_id":"4","last_reported":1716757633,"current_range_meters":9200,"station_id":"ce4bgt12rcd13ifvqce0","pricing_plan_id":"cebpf4jnsgd1na2vs0mg"},{"bike_id":"d3c1d5ba-ac4c-4832-a929-b13aff3a72bc","system_id":"levelo_inurba_marseille","lat":43.308012,"lon":5.381511,"is_reserved":false,"is_disabled":false,"rental_uris":{"android":"levelo://app?vid=d3c1d5ba-ac4c-4832-a929-b13aff3a72bc","ios":"levelo://app?vid=d3c1d5ba-ac4c-4832-a929-b13aff3a72bc"},"vehicle_type_id":"4","last_reported":1716757633,"current_range_meters":0,"station_id":"ce4bgt12rcd13ifvqce0","pricing_plan_id":"cebpf4jnsgd1na2vs0mg"},{"bike_id":"c3332382-6421-4cc3-ac02-c4c8330a1b2d","system_id":"levelo_inurba_marseille","lat":43.308012,"lon":5.381511,"is_reserved":false,"is_disabled":false,"rental_uris":{"android":"levelo://app?vid=c3332382-6421-4cc3-ac02-c4c8330a1b2d","ios":"levelo://app?vid=c3332382-6421-4cc3-ac02-c4c8330a1b2d"},"vehicle_type_id":"4","last_reported":1716757633,"current_range_meters":6400,"station_id":"ce4bgt12rcd13ifvqce0","pricing_plan_id":"cebpf4jnsgd1na2vs0mg"},{"bike_id":"ee93edac-201a-4676-9c7f-2a4309771279","system_id":"levelo_inurba_marseille","lat":43.304606,"lon":5.379026,"is_reserved":false,"is_disabled":false,"rental_uris":{"android":"levelo://app?vid=ee93edac-201a-4676-9c7f-2a4309771279","ios":"levelo://app?vid=ee93edac-201a-4676-9c7f-2a4309771279"},"vehicle_type_id":"4","last_reported":1716757633,"current_range_meters":18000,"station_id":"ce4bgup2rcd13ifvqcn0","pricing_plan_id":"cebpf4jnsgd1na2vs0mg"},{"bike_id":"fd2f74f3-2a58-47fe-b3f7-a5034c71e7ce","system_id":"levelo_inurba_marseille","lat":43.324771,"lon":5.36557,"is_reserved":false,"is_disabled":false,"rental_uris":{"android":"levelo://app?vid=fd2f74f3-2a58-47fe-b3f7-a5034c71e7ce","ios":"levelo://app?vid=fd2f74f3-2a58-47fe-b3f7-a5034c71e7ce"},"vehicle_type_id":"4","last_reported":1716757633,"current_range_meters":6000,"station_id":"ce4bhs12rcd13ifvqhvg","pricing_plan_id":"cebpf4jnsgd1na2vs0mg"},{"bike_id":"ce8d01f0-a598-451e-9a85-88e95d384297","system_id":"levelo_inurba_marseille","lat":43.3248,"lon":5.3656,"is_reserved":false,"is_disabled":false,"rental_uris":{"android":"levelo://app?vid=ce8d01f0-a598-451e-9a85-88e95d384297","ios":"levelo://app?vid=ce8d01f0-a598-451e-9a85-88e95d384297"},"vehicle_type_id":"4","last_reported":1716757633,"current_range_meters":16000,"station_id":"ce4bhs12rcd13ifvqhvg","pricing_plan_id":"cebpf4jnsgd1na2vs0mg"},{"bike_id":"1dd036a0-faa0-4463-816f-60690e76335a","system_id":"levelo_inurba_marseille","lat":43.324771,"lon":5.36557,"is_reserved":false,"is_disabled":false,"rental_uris":{"android":"levelo://app?vid=1dd036a0-faa0-4463-816f-60690e76335a","ios":"levelo://app?vid=1dd036a0-faa0-4463-816f-60690e76335a"},"vehicle_type_id":"4","last_reported":1716757633,"current_range_meters":6000,"station_id":"ce4bhs12rcd13ifvqhvg","pricing_plan_id":"cebpf4jnsgd1na2vs0mg"},{"bike_id":"50c9a0f7-feb2-46c1-a69a-845036d6b996","system_id":"levelo_inurba_marseille","lat":43.324771,"lon":5.36557,"is_reserved":false,"is_disabled":false,"rental_uris":{"android":"levelo://app?vid=50c9a0f7-feb2-46c1-a69a-845036d6b996","ios":"levelo://app?vid=50c9a0f7-feb2-46c1-a69a-845036d6b996"},"vehicle_type_id":"4","last_reported":1716757633,"current_range_meters":8400,"station_id":"ce4bhs12rcd13ifvqhvg","pricing_plan_id":"cebpf4jnsgd1na2vs0mg"},{"bike_id":"fb5ded77-d4c0-4eba-bb01-7f13c06bb809","system_id":"levelo_inurba_marseille","lat":43.324771,"lon":5.36557,"is_reserved":false,"is_disabled":false,"rental_uris":{"android":"levelo://app?vid=fb5ded77-d4c0-4eba-bb01-7f13c06bb809","ios":"levelo://app?vid=fb5ded77-d4c0-4eba-bb01-7f13c06bb809"},"vehicle_type_id":"4","last_reported":1716757633,"current_range_meters":5600,"station_id":"ce4bhs12rcd13ifvqhvg","pricing_plan_id":"cebpf4jnsgd1na2vs0mg"},{"bike_id":"e8690e4e-9d22-4162-a8f4-77923cffd7f2","system_id":"levelo_inurba_marseille","lat":43.324771,"lon":5.36557,"is_reserved":false,"is_disabled":false,"rental_uris":{"android":"levelo://app?vid=e8690e4e-9d22-4162-a8f4-77923cffd7f2","ios":"levelo://app?vid=e8690e4e-9d22-4162-a8f4-77923cffd7f2"},"vehicle_type_id":"4","last_reported":1716757633,"current_range_meters":13200,"station_id":"ce4bhs12rcd13ifvqhvg","pricing_plan_id":"cebpf4jnsgd1na2vs0mg"},{"bike_id":"72ba4090-3817-4ac9-a00a-506384b53c7f","system_id":"levelo_inurba_marseille","lat":43.324887,"lon":5.365789,"is_reserved":false,"is_disabled":false,"rental_uris":{"android":"levelo://app?vid=72ba4090-3817-4ac9-a00a-506384b53c7f","ios":"levelo://app?vid=72ba4090-3817-4ac9-a00a-506384b53c7f"},"vehicle_type_id":"4","last_reported":1716757633,"current_range_meters":29200,"station_id":"ce4bhs12rcd13ifvqhvg","pricing_plan_id":"cebpf4jnsgd1na2vs0mg"},{"bike_id":"a0a58c07-9831-4ea4-8b5c-f2459e8590e2","system_id":"levelo_inurba_marseille","lat":43.310804,"lon":5.38359,"is_reserved":false,"is_disabled":false,"rental_uris":{"android":"levelo://app?vid=a0a58c07-9831-4ea4-8b5c-f2459e8590e2","ios":"levelo://app?vid=a0a58c07-9831-4ea4-8b5c-f2459e8590e2"},"vehicle_type_id":"4","last_reported":1716757633,"current_range_meters":16400,"station_id":"ce4bgv92rcd13ifvqcr0","pricing_plan_id":"cebpf4jnsgd1na2vs0mg"},{"bike_id":"82edd6dc-da8f-47f3-b893-b53793b0dba4","system_id":"levelo_inurba_marseille","lat":43.310804,"lon":5.38359,"is_reserved":false,"is_disabled":false,"rental_uris":{"android":"levelo://app?vid=82edd6dc-da8f-47f3-b893-b53793b0dba4","ios":"levelo://app?vid=82edd6dc-da8f-47f3-b893-b53793b0dba4"},"vehicle_type_id":"4","last_reported":1716757633,"current_range_meters":20000,"station_id":"ce4bgv92rcd13ifvqcr0","pricing_plan_id":"cebpf4jnsgd1na2vs0mg"},{"bike_id":"da47d804-612d-4a50-a401-f21f7d15ef1d","system_id":"levelo_inurba_marseille","lat":43.302784,"lon":5.377158,"is_reserved":false,"is_disabled":false,"rental_uris":{"android":"levelo://app?vid=da47d804-612d-4a50-a401-f21f7d15ef1d","ios":"levelo://app?vid=da47d804-612d-4a50-a401-f21f7d15ef1d"},"vehicle_type_id":"4","last_reported":1716757633,"current_range_meters":11200,"station_id":"ce4bguh2rcd13ifvqcj0","pricing_plan_id":"cebpf4jnsgd1na2vs0mg"},{"bike_id":"e21cc85d-004b-422d-94e4-05680f97959f","system_id":"levelo_inurba_marseille","lat":43.310804,"lon":5.38359,"is_reserved":false,"is_disabled":false,"rental_uris":{"android":"levelo://app?vid=e21cc85d-004b-422d-94e4-05680f97959f","ios":"levelo://app?vid=e21cc85d-004b-422d-94e4-05680f97959f"},"vehicle_type_id":"4","last_reported":1716757633,"current_range_meters":9600,"station_id":"ce4bgv92rcd13ifvqcr0","pricing_plan_id":"cebpf4jnsgd1na2vs0mg"},{"bike_id":"4950318c-0d95-479d-8a37-76e57fe9c28b","system_id":"levelo_inurba_marseille","lat":43.302784,"lon":5.377158,"is_reserved":false,"is_disabled":false,"rental_uris":{"android":"levelo://app?vid=4950318c-0d95-479d-8a37-76e57fe9c28b","ios":"levelo://app?vid=4950318c-0d95-479d-8a37-76e57fe9c28b"},"vehicle_type_id":"4","last_reported":1716757633,"current_range_meters":11200,"station_id":"ce4bguh2rcd13ifvqcj0","pricing_plan_id":"cebpf4jnsgd1na2vs0mg"},{"bike_id":"c9d4ad47-a68e-4a9d-9f57-e26391939503","system_id":"levelo_inurba_marseille","lat":43.302784,"lon":5.377158,"is_reserved":false,"is_disabled":false,"rental_uris":{"android":"levelo://app?vid=c9d4ad47-a68e-4a9d-9f57-e26391939503","ios":"levelo://app?vid=c9d4ad47-a68e-4a9d-9f57-e26391939503"},"vehicle_type_id":"4","last_reported":1716757633,"current_range_meters":12400,"station_id":"ce4bguh2rcd13ifvqcj0","pricing_plan_id":"cebpf4jnsgd1na2vs0mg"},{"bike_id":"64514a2d-3a5e-4d83-b334-d35229e36325","system_id":"levelo_inurba_marseille","lat":43.319935,"lon":5.381699,"is_reserved":false,"is_disabled":false,"rental_uris":{"android":"levelo://app?vid=64514a2d-3a5e-4d83-b334-d35229e36325","ios":"levelo://app?vid=64514a2d-3a5e-4d83-b334-d35229e36325"},"vehicle_type_id":"4","last_reported":1716757633,"current_range_meters":2400,"station_id":"ce4bhr12rcd13ifvqhpg","pricing_plan_id":"cebpf4jnsgd1na2vs0mg"},{"bike_id":"14f31480-3ab1-4d15-b5bf-25e349ea9b80","system_id":"levelo_inurba_marseille","lat":43.319935,"lon":5.381699,"is_reserved":false,"is_disabled":false,"rental_uris":{"android":"levelo://app?vid=14f31480-3ab1-4d15-b5bf-25e349ea9b80","ios":"levelo://app?vid=14f31480-3ab1-4d15-b5bf-25e349ea9b80"},"vehicle_type_id":"4","last_reported":1716757633,"current_range_meters":1600,"station_id":"ce4bhr12rcd13ifvqhpg","pricing_plan_id":"cebpf4jnsgd1na2vs0mg"},{"bike_id":"6e59b8d2-00dd-4477-957d-02e10232387e","system_id":"levelo_inurba_marseille","lat":43.31997,"lon":5.3816,"is_reserved":false,"is_disabled":false,"rental_uris":{"android":"levelo://app?vid=6e59b8d2-00dd-4477-957d-02e10232387e","ios":"levelo://app?vid=6e59b8d2-00dd-4477-957d-02e10232387e"},"vehicle_type_id":"4","last_reported":1716757633,"current_range_meters":11600,"station_id":"ce4bhr12rcd13ifvqhpg","pricing_plan_id":"cebpf4jnsgd1na2vs0mg"},{"bike_id":"a8de7543-0921-4ddc-905e-73c4b3409e90","system_id":"levelo_inurba_marseille","lat":43.319935,"lon":5.381699,"is_reserved":false,"is_disabled":false,"rental_uris":{"android":"levelo://app?vid=a8de7543-0921-4ddc-905e-73c4b3409e90","ios":"levelo://app?vid=a8de7543-0921-4ddc-905e-73c4b3409e90"},"vehicle_type_id":"4","last_reported":1716757633,"current_range_meters":1600,"station_id":"ce4bhr12rcd13ifvqhpg","pricing_plan_id":"cebpf4jnsgd1na2vs0mg"},{"bike_id":"5dc0831f-fe92-4831-b113-58637974bdbe","system_id":"levelo_inurba_marseille","lat":43.313571,"lon":5.384829,"is_reserved":false,"is_disabled":false,"rental_uris":{"android":"levelo://app?vid=5dc0831f-fe92-4831-b113-58637974bdbe","ios":"levelo://app?vid=5dc0831f-fe92-4831-b113-58637974bdbe"},"vehicle_type_id":"4","last_reported":1716757633,"current_range_meters":20000,"station_id":"ce4bgt92rcd13ifvqcf0","pricing_plan_id":"cebpf4jnsgd1na2vs0mg"},{"bike_id":"83ae8809-d2cc-49a2-94a5-84cdd2b56956","system_id":"levelo_inurba_marseille","lat":43.313571,"lon":5.384829,"is_reserved":false,"is_disabled":false,"rental_uris":{"android":"levelo://app?vid=83ae8809-d2cc-49a2-94a5-84cdd2b56956","ios":"levelo://app?vid=83ae8809-d2cc-49a2-94a5-84cdd2b56956"},"vehicle_type_id":"4","last_reported":1716757633,"current_range_meters":11200,"station_id":"ce4bgt92rcd13ifvqcf0","pricing_plan_id":"cebpf4jnsgd1na2vs0mg"},{"bike_id":"35c76093-8c96-4347-9c65-bbf06b912de2","system_id":"levelo_inurba_marseille","lat":43.313571,"lon":5.384829,"is_reserved":false,"is_disabled":false,"rental_uris":{"android":"levelo://app?vid=35c76093-8c96-4347-9c65-bbf06b912de2","ios":"levelo://app?vid=35c76093-8c96-4347-9c65-bbf06b912de2"},"vehicle_type_id":"4","last_reported":1716757633,"current_range_meters":13600,"station_id":"ce4bgt92rcd13ifvqcf0","pricing_plan_id":"cebpf4jnsgd1na2vs0mg"},{"bike_id":"de26a1f7-2c26-4fc6-b7a3-4f35a4dc53ca","system_id":"levelo_inurba_marseille","lat":43.313571,"lon":5.384829,"is_reserved":false,"is_disabled":false,"rental_uris":{"android":"levelo://app?vid=de26a1f7-2c26-4fc6-b7a3-4f35a4dc53ca","ios":"levelo://app?vid=de26a1f7-2c26-4fc6-b7a3-4f35a4dc53ca"},"vehicle_type_id":"4","last_reported":1716757633,"current_range_meters":25600,"station_id":"ce4bgt92rcd13ifvqcf0","pricing_plan_id":"cebpf4jnsgd1na2vs0mg"},{"bike_id":"6149c101-cc33-434c-a0ed-1c0813aa372e","system_id":"levelo_inurba_marseille","lat":43.299222,"lon":5.365554,"is_reserved":false,"is_disabled":false,"rental_uris":{"android":"levelo://app?vid=6149c101-cc33-434c-a0ed-1c0813aa372e","ios":"levelo://app?vid=6149c101-cc33-434c-a0ed-1c0813aa372e"},"vehicle_type_id":"4","last_reported":1716757633,"current_range_meters":0,"station_id":"ce4bgm92rcd13ifvqbr0","pricing_plan_id":"cebpf4jnsgd1na2vs0mg"},{"bike_id":"05546636-ce21-4a93-84ec-4dbd940289b5","system_id":"levelo_inurba_marseille","lat":43.29936,"lon":5.3655,"is_reserved":false,"is_disabled":false,"rental_uris":{"android":"levelo://app?vid=05546636-ce21-4a93-84ec-4dbd940289b5","ios":"levelo://app?vid=05546636-ce21-4a93-84ec-4dbd940289b5"},"vehicle_type_id":"4","last_reported":1716757633,"current_range_meters":17600,"station_id":"","pricing_plan_id":"cebpf4jnsgd1na2vs0mg"},{"bike_id":"6d5d4b72-ea48-469b-b27c-cc31560c45ea","system_id":"levelo_inurba_marseille","lat":43.299222,"lon":5.365554,"is_reserved":false,"is_disabled":false,"rental_uris":{"android":"levelo://app?vid=6d5d4b72-ea48-469b-b27c-cc31560c45ea","ios":"levelo://app?vid=6d5d4b72-ea48-469b-b27c-cc31560c45ea"},"vehicle_type_id":"4","last_reported":1716757633,"current_range_meters":0,"station_id":"ce4bgm92rcd13ifvqbr0","pricing_plan_id":"cebpf4jnsgd1na2vs0mg"},{"bike_id":"d6ba930a-5cce-4124-9430-84087bb2f563","system_id":"levelo_inurba_marseille","lat":43.29971,"lon":5.37167,"is_reserved":false,"is_disabled":false,"rental_uris":{"android":"levelo://app?vid=d6ba930a-5cce-4124-9430-84087bb2f563","ios":"levelo://app?vid=d6ba930a-5cce-4124-9430-84087bb2f563"},"vehicle_type_id":"4","last_reported":1716757633,"current_range_meters":1600,"station_id":"ce4bgr92rcd13ifvqc7g","pricing_plan_id":"cebpf4jnsgd1na2vs0mg"},{"bike_id":"bedc0dac-c7c9-4fe4-96f1-66107560f4ee","system_id":"levelo_inurba_marseille","lat":43.305364,"lon":5.384119,"is_reserved":false,"is_disabled":false,"rental_uris":{"android":"levelo://app?vid=bedc0dac-c7c9-4fe4-96f1-66107560f4ee","ios":"levelo://app?vid=bedc0dac-c7c9-4fe4-96f1-66107560f4ee"},"vehicle_type_id":"4","last_reported":1716757633,"current_range_meters":30000,"station_id":"ce4bgg92rcd13ifvqb30","pricing_plan_id":"cebpf4jnsgd1na2vs0mg"},{"bike_id":"7c0279c4-785e-41cc-9875-11b1aa5697b0","system_id":"levelo_inurba_marseille","lat":43.298433,"lon":5.362774,"is_reserved":false,"is_disabled":false,"rental_uris":{"android":"levelo://app?vid=7c0279c4-785e-41cc-9875-11b1aa5697b0","ios":"levelo://app?vid=7c0279c4-785e-41cc-9875-11b1aa5697b0"},"vehicle_type_id":"4","last_reported":1716757633,"current_range_meters":31200,"station_id":"ce4bgpp2rcd13ifvqc3g","pricing_plan_id":"cebpf4jnsgd1na2vs0mg"},{"bike_id":"048ee56c-b30c-48db-90df-dce2d2981535","system_id":"levelo_inurba_marseille","lat":43.31173,"lon":5.38704,"is_reserved":false,"is_disabled":false,"rental_uris":{"android":"levelo://app?vid=048ee56c-b30c-48db-90df-dce2d2981535","ios":"levelo://app?vid=048ee56c-b30c-48db-90df-dce2d2981535"},"vehicle_type_id":"4","last_reported":1716757633,"current_range_meters":18800,"station_id":"ce4bgv12rcd13ifvqcp0","pricing_plan_id":"cebpf4jnsgd1na2vs0mg"},{"bike_id":"c70d197d-6f1a-411a-8287-034ce7bb850a","system_id":"levelo_inurba_marseille","lat":43.31175,"lon":5.38709,"is_reserved":false,"is_disabled":false,"rental_uris":{"android":"levelo://app?vid=c70d197d-6f1a-411a-8287-034ce7bb850a","ios":"levelo://app?vid=c70d197d-6f1a-411a-8287-034ce7bb850a"},"vehicle_type_id":"4","last_reported":1716757633,"current_range_meters":0,"station_id":"ce4bgv12rcd13ifvqcp0","pricing_plan_id":"cebpf4jnsgd1na2vs0mg"},{"bike_id":"18cf2b7a-6c4d-430e-9001-aaca527077db","system_id":"levelo_inurba_marseille","lat":43.299243,"lon":5.374807,"is_reserved":false,"is_disabled":false,"rental_uris":{"android":"levelo://app?vid=18cf2b7a-6c4d-430e-9001-aaca527077db","ios":"levelo://app?vid=18cf2b7a-6c4d-430e-9001-aaca527077db"},"vehicle_type_id":"4","last_reported":1716757633,"current_range_meters":26400,"station_id":"ce4bgjh2rcd13ifvqbg0","pricing_plan_id":"cebpf4jnsgd1na2vs0mg"},{"bike_id":"23577ba4-bf15-4629-881c-a925aaa00eb7","system_id":"levelo_inurba_marseille","lat":43.311722,"lon":5.387247,"is_reserved":false,"is_disabled":false,"rental_uris":{"android":"levelo://app?vid=23577ba4-bf15-4629-881c-a925aaa00eb7","ios":"levelo://app?vid=23577ba4-bf15-4629-881c-a925aaa00eb7"},"vehicle_type_id":"4","last_reported":1716757633,"current_range_meters":16000,"station_id":"ce4bgv12rcd13ifvqcp0","pricing_plan_id":"cebpf4jnsgd1na2vs0mg"},{"bike_id":"bf890831-a359-42a8-9f21-d81e964440b2","system_id":"levelo_inurba_marseille","lat":43.31174,"lon":5.38717,"is_reserved":false,"is_disabled":false,"rental_uris":{"android":"levelo://app?vid=bf890831-a359-42a8-9f21-d81e964440b2","ios":"levelo://app?vid=bf890831-a359-42a8-9f21-d81e964440b2"},"vehicle_type_id":"4","last_reported":1716757633,"current_range_meters":20400,"station_id":"ce4bgv12rcd13ifvqcp0","pricing_plan_id":"cebpf4jnsgd1na2vs0mg"},{"bike_id":"89d27253-6e34-4f88-8685-8e6c5a4b6afb","system_id":"levelo_inurba_marseille","lat":43.31173,"lon":5.38718,"is_reserved":false,"is_disabled":false,"rental_uris":{"android":"levelo://app?vid=89d27253-6e34-4f88-8685-8e6c5a4b6afb","ios":"levelo://app?vid=89d27253-6e34-4f88-8685-8e6c5a4b6afb"},"vehicle_type_id":"4","last_reported":1716757633,"current_range_meters":800,"station_id":"ce4bgv12rcd13ifvqcp0","pricing_plan_id":"cebpf4jnsgd1na2vs0mg"},{"bike_id":"2023c8c5-360c-44fe-af80-751c2b72565a","system_id":"levelo_inurba_marseille","lat":43.311722,"lon":5.387247,"is_reserved":false,"is_disabled":false,"rental_uris":{"android":"levelo://app?vid=2023c8c5-360c-44fe-af80-751c2b72565a","ios":"levelo://app?vid=2023c8c5-360c-44fe-af80-751c2b72565a"},"vehicle_type_id":"4","last_reported":1716757633,"current_range_meters":1600,"station_id":"ce4bgv12rcd13ifvqcp0","pricing_plan_id":"cebpf4jnsgd1na2vs0mg"},{"bike_id":"86dfcea5-5bca-4e7a-8453-ff6d42b3476f","system_id":"levelo_inurba_marseille","lat":43.29905,"lon":5.37468,"is_reserved":false,"is_disabled":false,"rental_uris":{"android":"levelo://app?vid=86dfcea5-5bca-4e7a-8453-ff6d42b3476f","ios":"levelo://app?vid=86dfcea5-5bca-4e7a-8453-ff6d42b3476f"},"vehicle_type_id":"4","last_reported":1716757633,"current_range_meters":5200,"station_id":"ce4bgjh2rcd13ifvqbg0","pricing_plan_id":"cebpf4jnsgd1na2vs0mg"},{"bike_id":"b4698fe0-1f47-40b4-9c0c-99a346b2c261","system_id":"levelo_inurba_marseille","lat":43.29907,"lon":5.37475,"is_reserved":false,"is_disabled":false,"rental_uris":{"android":"levelo://app?vid=b4698fe0-1f47-40b4-9c0c-99a346b2c261","ios":"levelo://app?vid=b4698fe0-1f47-40b4-9c0c-99a346b2c261"},"vehicle_type_id":"4","last_reported":1716757633,"current_range_meters":25200,"station_id":"ce4bgjh2rcd13ifvqbg0","pricing_plan_id":"cebpf4jnsgd1na2vs0mg"},{"bike_id":"7589a0bc-3a41-43bc-9009-10b75ed9bcf8","system_id":"levelo_inurba_marseille","lat":43.31542,"lon":5.38732,"is_reserved":false,"is_disabled":false,"rental_uris":{"android":"levelo://app?vid=7589a0bc-3a41-43bc-9009-10b75ed9bcf8","ios":"levelo://app?vid=7589a0bc-3a41-43bc-9009-10b75ed9bcf8"},"vehicle_type_id":"4","last_reported":1716757633,"current_range_meters":15600,"station_id":"","pricing_plan_id":"cebpf4jnsgd1na2vs0mg"},{"bike_id":"ed492a4e-944e-43b3-bd26-4581a8e6f7a8","system_id":"levelo_inurba_marseille","lat":43.297774,"lon":5.370875,"is_reserved":false,"is_disabled":false,"rental_uris":{"android":"levelo://app?vid=ed492a4e-944e-43b3-bd26-4581a8e6f7a8","ios":"levelo://app?vid=ed492a4e-944e-43b3-bd26-4581a8e6f7a8"},"vehicle_type_id":"4","last_reported":1716757633,"current_range_meters":28800,"station_id":"ce4bgop2rcd13ifvqc1g","pricing_plan_id":"cebpf4jnsgd1na2vs0mg"},{"bike_id":"80cd4cbb-e337-4a97-992d-42ead01b5788","system_id":"levelo_inurba_marseille","lat":43.30051,"lon":5.37938,"is_reserved":false,"is_disabled":false,"rental_uris":{"android":"levelo://app?vid=80cd4cbb-e337-4a97-992d-42ead01b5788","ios":"levelo://app?vid=80cd4cbb-e337-4a97-992d-42ead01b5788"},"vehicle_type_id":"4","last_reported":1716757633,"current_range_meters":10800,"station_id":"","pricing_plan_id":"cebpf4jnsgd1na2vs0mg"},{"bike_id":"e11a89a3-21f8-4c8d-a114-63841efb44aa","system_id":"levelo_inurba_marseille","lat":43.322872,"lon":5.382756,"is_reserved":false,"is_disabled":false,"rental_uris":{"android":"levelo://app?vid=e11a89a3-21f8-4c8d-a114-63841efb44aa","ios":"levelo://app?vid=e11a89a3-21f8-4c8d-a114-63841efb44aa"},"vehicle_type_id":"4","last_reported":1716757633,"current_range_meters":26800,"station_id":"ce4bhr12rcd13ifvqhqg","pricing_plan_id":"cebpf4jnsgd1na2vs0mg"},{"bike_id":"5894a7f3-2728-4073-b841-3793211dd860","system_id":"levelo_inurba_marseille","lat":43.322872,"lon":5.382756,"is_reserved":false,"is_disabled":false,"rental_uris":{"android":"levelo://app?vid=5894a7f3-2728-4073-b841-3793211dd860","ios":"levelo://app?vid=5894a7f3-2728-4073-b841-3793211dd860"},"vehicle_type_id":"4","last_reported":1716757633,"current_range_meters":9600,"station_id":"ce4bhr12rcd13ifvqhqg","pricing_plan_id":"cebpf4jnsgd1na2vs0mg"},{"bike_id":"c0aad146-9ed3-4a6e-826f-afdb900f41e2","system_id":"levelo_inurba_marseille","lat":43.322872,"lon":5.382756,"is_reserved":false,"is_disabled":false,"rental_uris":{"android":"levelo://app?vid=c0aad146-9ed3-4a6e-826f-afdb900f41e2","ios":"levelo://app?vid=c0aad146-9ed3-4a6e-826f-afdb900f41e2"},"vehicle_type_id":"4","last_reported":1716757633,"current_range_meters":21600,"station_id":"ce4bhr12rcd13ifvqhqg","pricing_plan_id":"cebpf4jnsgd1na2vs0mg"},{"bike_id":"65a435a0-70ac-4359-9a1a-d8ba16d9711b","system_id":"levelo_inurba_marseille","lat":43.3021,"lon":5.383427,"is_reserved":false,"is_disabled":false,"rental_uris":{"android":"levelo://app?vid=65a435a0-70ac-4359-9a1a-d8ba16d9711b","ios":"levelo://app?vid=65a435a0-70ac-4359-9a1a-d8ba16d9711b"},"vehicle_type_id":"4","last_reported":1716757633,"current_range_meters":0,"station_id":"","pricing_plan_id":"cebpf4jnsgd1na2vs0mg"},{"bike_id":"e828cc1b-28ad-405b-9506-7b85da784278","system_id":"levelo_inurba_marseille","lat":43.2968,"lon":5.37291,"is_reserved":false,"is_disabled":false,"rental_uris":{"android":"levelo://app?vid=e828cc1b-28ad-405b-9506-7b85da784278","ios":"levelo://app?vid=e828cc1b-28ad-405b-9506-7b85da784278"},"vehicle_type_id":"4","last_reported":1716757633,"current_range_meters":24400,"station_id":"ce4bgk12rcd13ifvqbj0","pricing_plan_id":"cebpf4jnsgd1na2vs0mg"},{"bike_id":"b0181dbd-d16d-4347-9382-b450da867146","system_id":"levelo_inurba_marseille","lat":43.29657,"lon":5.36162,"is_reserved":false,"is_disabled":false,"rental_uris":{"android":"levelo://app?vid=b0181dbd-d16d-4347-9382-b450da867146","ios":"levelo://app?vid=b0181dbd-d16d-4347-9382-b450da867146"},"vehicle_type_id":"4","last_reported":1716757633,"current_range_meters":3600,"station_id":"","pricing_plan_id":"cebpf4jnsgd1na2vs0mg"},{"bike_id":"7f960107-f211-4eb8-9385-c7ea4fd7ffe4","system_id":"levelo_inurba_marseille","lat":43.321411,"lon":5.38655,"is_reserved":false,"is_disabled":false,"rental_uris":{"android":"levelo://app?vid=7f960107-f211-4eb8-9385-c7ea4fd7ffe4","ios":"levelo://app?vid=7f960107-f211-4eb8-9385-c7ea4fd7ffe4"},"vehicle_type_id":"4","last_reported":1716757633,"current_range_meters":0,"station_id":"","pricing_plan_id":"cebpf4jnsgd1na2vs0mg"},{"bike_id":"06e3d25c-e3d4-46fb-ae26-29057f8c168b","system_id":"levelo_inurba_marseille","lat":43.305368,"lon":5.367343,"is_reserved":false,"is_disabled":false,"rental_uris":{"android":"levelo://app?vid=06e3d25c-e3d4-46fb-ae26-29057f8c168b","ios":"levelo://app?vid=06e3d25c-e3d4-46fb-ae26-29057f8c168b"},"vehicle_type_id":"4","last_reported":1716757633,"current_range_meters":9200,"station_id":"ce4bgrp2rcd13ifvqc9g","pricing_plan_id":"cebpf4jnsgd1na2vs0mg"},{"bike_id":"31a7ebd2-c0e1-4a49-920c-91aaefa181fb","system_id":"levelo_inurba_marseille","lat":43.309589,"lon":5.390258,"is_reserved":false,"is_disabled":false,"rental_uris":{"android":"levelo://app?vid=31a7ebd2-c0e1-4a49-920c-91aaefa181fb","ios":"levelo://app?vid=31a7ebd2-c0e1-4a49-920c-91aaefa181fb"},"vehicle_type_id":"4","last_reported":1716757633,"current_range_meters":0,"station_id":"ce4bgup2rcd13ifvqco0","pricing_plan_id":"cebpf4jnsgd1na2vs0mg"},{"bike_id":"8fd77632-d3c3-4e91-bd5f-fd61769580c6","system_id":"levelo_inurba_marseille","lat":43.299028,"lon":5.381509,"is_reserved":false,"is_disabled":false,"rental_uris":{"android":"levelo://app?vid=8fd77632-d3c3-4e91-bd5f-fd61769580c6","ios":"levelo://app?vid=8fd77632-d3c3-4e91-bd5f-fd61769580c6"},"vehicle_type_id":"4","last_reported":1716757633,"current_range_meters":12400,"station_id":"ce4bgj12rcd13ifvqbc0","pricing_plan_id":"cebpf4jnsgd1na2vs0mg"},{"bike_id":"8ac80cc6-a432-48c9-a866-4930ec7e4f50","system_id":"levelo_inurba_marseille","lat":43.296921,"lon":5.376579,"is_reserved":false,"is_disabled":false,"rental_uris":{"android":"levelo://app?vid=8ac80cc6-a432-48c9-a866-4930ec7e4f50","ios":"levelo://app?vid=8ac80cc6-a432-48c9-a866-4930ec7e4f50"},"vehicle_type_id":"4","last_reported":1716757633,"current_range_meters":16000,"station_id":"ce4bgkh2rcd13ifvqbl0","pricing_plan_id":"cebpf4jnsgd1na2vs0mg"},{"bike_id":"56577985-8f15-45d1-b765-f1ee599030dd","system_id":"levelo_inurba_marseille","lat":43.317557,"lon":5.390173,"is_reserved":false,"is_disabled":false,"rental_uris":{"android":"levelo://app?vid=56577985-8f15-45d1-b765-f1ee599030dd","ios":"levelo://app?vid=56577985-8f15-45d1-b765-f1ee599030dd"},"vehicle_type_id":"4","last_reported":1716757633,"current_range_meters":31200,"station_id":"ce4bhqp2rcd13ifvqhng","pricing_plan_id":"cebpf4jnsgd1na2vs0mg"},{"bike_id":"bf9e8a62-e5d3-40df-b614-25650935ec1f","system_id":"levelo_inurba_marseille","lat":43.317557,"lon":5.390173,"is_reserved":false,"is_disabled":false,"rental_uris":{"android":"levelo://app?vid=bf9e8a62-e5d3-40df-b614-25650935ec1f","ios":"levelo://app?vid=bf9e8a62-e5d3-40df-b614-25650935ec1f"},"vehicle_type_id":"4","last_reported":1716757633,"current_range_meters":24400,"station_id":"ce4bhqp2rcd13ifvqhng","pricing_plan_id":"cebpf4jnsgd1na2vs0mg"},{"bike_id":"2271687f-b917-411c-a10f-0c27e2f628cb","system_id":"levelo_inurba_marseille","lat":43.317557,"lon":5.390173,"is_reserved":false,"is_disabled":false,"rental_uris":{"android":"levelo://app?vid=2271687f-b917-411c-a10f-0c27e2f628cb","ios":"levelo://app?vid=2271687f-b917-411c-a10f-0c27e2f628cb"},"vehicle_type_id":"4","last_reported":1716757633,"current_range_meters":28800,"station_id":"ce4bhqp2rcd13ifvqhng","pricing_plan_id":"cebpf4jnsgd1na2vs0mg"},{"bike_id":"24096b41-ec44-4180-84ea-eedfe7b01590","system_id":"levelo_inurba_marseille","lat":43.317557,"lon":5.390173,"is_reserved":false,"is_disabled":false,"rental_uris":{"android":"levelo://app?vid=24096b41-ec44-4180-84ea-eedfe7b01590","ios":"levelo://app?vid=24096b41-ec44-4180-84ea-eedfe7b01590"},"vehicle_type_id":"4","last_reported":1716757633,"current_range_meters":31200,"station_id":"ce4bhqp2rcd13ifvqhng","pricing_plan_id":"cebpf4jnsgd1na2vs0mg"},{"bike_id":"5af684a5-224f-4914-85bb-cc9e58de3f03","system_id":"levelo_inurba_marseille","lat":43.298037,"lon":5.381066,"is_reserved":false,"is_disabled":false,"rental_uris":{"android":"levelo://app?vid=5af684a5-224f-4914-85bb-cc9e58de3f03","ios":"levelo://app?vid=5af684a5-224f-4914-85bb-cc9e58de3f03"},"vehicle_type_id":"4","last_reported":1716757633,"current_range_meters":12400,"station_id":"ce4bgip2rcd13ifvqbb0","pricing_plan_id":"cebpf4jnsgd1na2vs0mg"},{"bike_id":"cd59a7f4-873e-4809-a951-bf2c1d4cf95a","system_id":"levelo_inurba_marseille","lat":43.30438,"lon":5.38883,"is_reserved":false,"is_disabled":false,"rental_uris":{"android":"levelo://app?vid=cd59a7f4-873e-4809-a951-bf2c1d4cf95a","ios":"levelo://app?vid=cd59a7f4-873e-4809-a951-bf2c1d4cf95a"},"vehicle_type_id":"4","last_reported":1716757633,"current_range_meters":1200,"station_id":"ce4bgk12rcd13ifvqbi0","pricing_plan_id":"cebpf4jnsgd1na2vs0mg"},{"bike_id":"a8f23a58-69a4-4d79-84fa-4b072bae9924","system_id":"levelo_inurba_marseille","lat":43.295748,"lon":5.37522,"is_reserved":false,"is_disabled":false,"rental_uris":{"android":"levelo://app?vid=a8f23a58-69a4-4d79-84fa-4b072bae9924","ios":"levelo://app?vid=a8f23a58-69a4-4d79-84fa-4b072bae9924"},"vehicle_type_id":"4","last_reported":1716757633,"current_range_meters":2000,"station_id":"ce4bgh92rcd13ifvqb50","pricing_plan_id":"cebpf4jnsgd1na2vs0mg"},{"bike_id":"c2217242-f99a-49c1-8293-4cc68d2482af","system_id":"levelo_inurba_marseille","lat":43.30437,"lon":5.38885,"is_reserved":false,"is_disabled":false,"rental_uris":{"android":"levelo://app?vid=c2217242-f99a-49c1-8293-4cc68d2482af","ios":"levelo://app?vid=c2217242-f99a-49c1-8293-4cc68d2482af"},"vehicle_type_id":"4","last_reported":1716757633,"current_range_meters":20000,"station_id":"ce4bgk12rcd13ifvqbi0","pricing_plan_id":"cebpf4jnsgd1na2vs0mg"},{"bike_id":"eed96165-c7b0-47bf-a40a-30aac3c097f1","system_id":"levelo_inurba_marseille","lat":43.3043,"lon":5.38881,"is_reserved":false,"is_disabled":false,"rental_uris":{"android":"levelo://app?vid=eed96165-c7b0-47bf-a40a-30aac3c097f1","ios":"levelo://app?vid=eed96165-c7b0-47bf-a40a-30aac3c097f1"},"vehicle_type_id":"4","last_reported":1716757633,"current_range_meters":0,"station_id":"ce4bgk12rcd13ifvqbi0","pricing_plan_id":"cebpf4jnsgd1na2vs0mg"},{"bike_id":"52948c83-3286-4103-aa9d-e8dc5357a071","system_id":"levelo_inurba_marseille","lat":43.3044,"lon":5.38891,"is_reserved":false,"is_disabled":false,"rental_uris":{"android":"levelo://app?vid=52948c83-3286-4103-aa9d-e8dc5357a071","ios":"levelo://app?vid=52948c83-3286-4103-aa9d-e8dc5357a071"},"vehicle_type_id":"4","last_reported":1716757633,"current_range_meters":14000,"station_id":"ce4bgk12rcd13ifvqbi0","pricing_plan_id":"cebpf4jnsgd1na2vs0mg"},{"bike_id":"ff44051c-d3b8-417a-b9ed-a0b45dc18a1d","system_id":"levelo_inurba_marseille","lat":43.297943,"lon":5.381127,"is_reserved":false,"is_disabled":false,"rental_uris":{"android":"levelo://app?vid=ff44051c-d3b8-417a-b9ed-a0b45dc18a1d","ios":"levelo://app?vid=ff44051c-d3b8-417a-b9ed-a0b45dc18a1d"},"vehicle_type_id":"4","last_reported":1716757633,"current_range_meters":0,"station_id":"ce4bgip2rcd13ifvqbb0","pricing_plan_id":"cebpf4jnsgd1na2vs0mg"},{"bike_id":"8754fe41-23ed-40c3-87de-5f3ddbb0c20a","system_id":"levelo_inurba_marseille","lat":43.304274,"lon":5.388873,"is_reserved":false,"is_disabled":false,"rental_uris":{"android":"levelo://app?vid=8754fe41-23ed-40c3-87de-5f3ddbb0c20a","ios":"levelo://app?vid=8754fe41-23ed-40c3-87de-5f3ddbb0c20a"},"vehicle_type_id":"4","last_reported":1716757633,"current_range_meters":12800,"station_id":"ce4bgk12rcd13ifvqbi0","pricing_plan_id":"cebpf4jnsgd1na2vs0mg"},{"bike_id":"c92fa501-fd6f-4d72-920d-2f6aacb58cd9","system_id":"levelo_inurba_marseille","lat":43.30434,"lon":5.38892,"is_reserved":false,"is_disabled":false,"rental_uris":{"android":"levelo://app?vid=c92fa501-fd6f-4d72-920d-2f6aacb58cd9","ios":"levelo://app?vid=c92fa501-fd6f-4d72-920d-2f6aacb58cd9"},"vehicle_type_id":"4","last_reported":1716757633,"current_range_meters":400,"station_id":"ce4bgk12rcd13ifvqbi0","pricing_plan_id":"cebpf4jnsgd1na2vs0mg"},{"bike_id":"854c88aa-f9e5-4410-a46a-f96d349d38db","system_id":"levelo_inurba_marseille","lat":43.296267,"lon":5.377174,"is_reserved":false,"is_disabled":false,"rental_uris":{"android":"levelo://app?vid=854c88aa-f9e5-4410-a46a-f96d349d38db","ios":"levelo://app?vid=854c88aa-f9e5-4410-a46a-f96d349d38db"},"vehicle_type_id":"4","last_reported":1716757633,"current_range_meters":28400,"station_id":"ce4bgi92rcd13ifvqb90","pricing_plan_id":"cebpf4jnsgd1na2vs0mg"},{"bike_id":"2cb19249-aad9-465e-9dec-107f3e9ae121","system_id":"levelo_inurba_marseille","lat":43.30426,"lon":5.38888,"is_reserved":false,"is_disabled":false,"rental_uris":{"android":"levelo://app?vid=2cb19249-aad9-465e-9dec-107f3e9ae121","ios":"levelo://app?vid=2cb19249-aad9-465e-9dec-107f3e9ae121"},"vehicle_type_id":"4","last_reported":1716757633,"current_range_meters":13600,"station_id":"ce4bgk12rcd13ifvqbi0","pricing_plan_id":"cebpf4jnsgd1na2vs0mg"},{"bike_id":"2ee6ebb9-bb5d-4bf0-a6e1-19c23c7a365c","system_id":"levelo_inurba_marseille","lat":43.304274,"lon":5.388873,"is_reserved":false,"is_disabled":false,"rental_uris":{"android":"levelo://app?vid=2ee6ebb9-bb5d-4bf0-a6e1-19c23c7a365c","ios":"levelo://app?vid=2ee6ebb9-bb5d-4bf0-a6e1-19c23c7a365c"},"vehicle_type_id":"4","last_reported":1716757633,"current_range_meters":23200,"station_id":"ce4bgk12rcd13ifvqbi0","pricing_plan_id":"cebpf4jnsgd1na2vs0mg"},{"bike_id":"e2cb44ac-3b06-403d-bc72-eb991afd5d8c","system_id":"levelo_inurba_marseille","lat":43.30434,"lon":5.38895,"is_reserved":false,"is_disabled":false,"rental_uris":{"android":"levelo://app?vid=e2cb44ac-3b06-403d-bc72-eb991afd5d8c","ios":"levelo://app?vid=e2cb44ac-3b06-403d-bc72-eb991afd5d8c"},"vehicle_type_id":"4","last_reported":1716757633,"current_range_meters":3200,"station_id":"ce4bgk12rcd13ifvqbi0","pricing_plan_id":"cebpf4jnsgd1na2vs0mg"},{"bike_id":"aef9d254-2674-4ddd-9492-6dd1aade4790","system_id":"levelo_inurba_marseille","lat":43.304274,"lon":5.388873,"is_reserved":false,"is_disabled":false,"rental_uris":{"android":"levelo://app?vid=aef9d254-2674-4ddd-9492-6dd1aade4790","ios":"levelo://app?vid=aef9d254-2674-4ddd-9492-6dd1aade4790"},"vehicle_type_id":"4","last_reported":1716757633,"current_range_meters":8800,"station_id":"ce4bgk12rcd13ifvqbi0","pricing_plan_id":"cebpf4jnsgd1na2vs0mg"},{"bike_id":"72a7dac7-d442-47cb-a066-cf73c97f406b","system_id":"levelo_inurba_marseille","lat":43.30429,"lon":5.38899,"is_reserved":false,"is_disabled":false,"rental_uris":{"android":"levelo://app?vid=72a7dac7-d442-47cb-a066-cf73c97f406b","ios":"levelo://app?vid=72a7dac7-d442-47cb-a066-cf73c97f406b"},"vehicle_type_id":"4","last_reported":1716757633,"current_range_meters":2000,"station_id":"ce4bgk12rcd13ifvqbi0","pricing_plan_id":"cebpf4jnsgd1na2vs0mg"},{"bike_id":"377dc84d-9765-4983-9fbe-367d284c07c6","system_id":"levelo_inurba_marseille","lat":43.29972,"lon":5.384908,"is_reserved":false,"is_disabled":false,"rental_uris":{"android":"levelo://app?vid=377dc84d-9765-4983-9fbe-367d284c07c6","ios":"levelo://app?vid=377dc84d-9765-4983-9fbe-367d284c07c6"},"vehicle_type_id":"4","last_reported":1716757633,"current_range_meters":0,"station_id":"ce4bgj92rcd13ifvqbd0","pricing_plan_id":"cebpf4jnsgd1na2vs0mg"},{"bike_id":"ea5c8d42-c861-4802-a2ac-9f57d3bd183f","system_id":"levelo_inurba_marseille","lat":43.299717,"lon":5.384845,"is_reserved":false,"is_disabled":false,"rental_uris":{"android":"levelo://app?vid=ea5c8d42-c861-4802-a2ac-9f57d3bd183f","ios":"levelo://app?vid=ea5c8d42-c861-4802-a2ac-9f57d3bd183f"},"vehicle_type_id":"4","last_reported":1716757633,"current_range_meters":31200,"station_id":"ce4bgj92rcd13ifvqbd0","pricing_plan_id":"cebpf4jnsgd1na2vs0mg"},{"bike_id":"d014cf3e-048b-41f0-8f75-4b7171a47831","system_id":"levelo_inurba_marseille","lat":43.299724,"lon":5.384848,"is_reserved":false,"is_disabled":false,"rental_uris":{"android":"levelo://app?vid=d014cf3e-048b-41f0-8f75-4b7171a47831","ios":"levelo://app?vid=d014cf3e-048b-41f0-8f75-4b7171a47831"},"vehicle_type_id":"4","last_reported":1716757633,"current_range_meters":31200,"station_id":"ce4bgj92rcd13ifvqbd0","pricing_plan_id":"cebpf4jnsgd1na2vs0mg"},{"bike_id":"ac2138f0-7d6b-44b6-bbe7-037e29f9dafe","system_id":"levelo_inurba_marseille","lat":43.29901,"lon":5.38483,"is_reserved":false,"is_disabled":false,"rental_uris":{"android":"levelo://app?vid=ac2138f0-7d6b-44b6-bbe7-037e29f9dafe","ios":"levelo://app?vid=ac2138f0-7d6b-44b6-bbe7-037e29f9dafe"},"vehicle_type_id":"4","last_reported":1716757633,"current_range_meters":17200,"station_id":"","pricing_plan_id":"cebpf4jnsgd1na2vs0mg"},{"bike_id":"54416ace-bb96-4920-9901-02453e9339b6","system_id":"levelo_inurba_marseille","lat":43.32367,"lon":5.3888,"is_reserved":false,"is_disabled":false,"rental_uris":{"android":"levelo://app?vid=54416ace-bb96-4920-9901-02453e9339b6","ios":"levelo://app?vid=54416ace-bb96-4920-9901-02453e9339b6"},"vehicle_type_id":"4","last_reported":1716757633,"current_range_meters":6800,"station_id":"ce4bhqp2rcd13ifvqhog","pricing_plan_id":"cebpf4jnsgd1na2vs0mg"},{"bike_id":"bedd564d-3b8f-44ca-a7f5-a9364fb5af10","system_id":"levelo_inurba_marseille","lat":43.32367,"lon":5.388836,"is_reserved":false,"is_disabled":false,"rental_uris":{"android":"levelo://app?vid=bedd564d-3b8f-44ca-a7f5-a9364fb5af10","ios":"levelo://app?vid=bedd564d-3b8f-44ca-a7f5-a9364fb5af10"},"vehicle_type_id":"4","last_reported":1716757633,"current_range_meters":11600,"station_id":"ce4bhqp2rcd13ifvqhog","pricing_plan_id":"cebpf4jnsgd1na2vs0mg"},{"bike_id":"24f51b1d-9137-4275-818a-e5e0e462705f","system_id":"levelo_inurba_marseille","lat":43.32367,"lon":5.388836,"is_reserved":false,"is_disabled":false,"rental_uris":{"android":"levelo://app?vid=24f51b1d-9137-4275-818a-e5e0e462705f","ios":"levelo://app?vid=24f51b1d-9137-4275-818a-e5e0e462705f"},"vehicle_type_id":"4","last_reported":1716757633,"current_range_meters":10400,"station_id":"ce4bhqp2rcd13ifvqhog","pricing_plan_id":"cebpf4jnsgd1na2vs0mg"},{"bike_id":"d4b7fb86-33d3-420c-baed-7d98f27d20bd","system_id":"levelo_inurba_marseille","lat":43.311157,"lon":5.393393,"is_reserved":false,"is_disabled":false,"rental_uris":{"android":"levelo://app?vid=d4b7fb86-33d3-420c-baed-7d98f27d20bd","ios":"levelo://app?vid=d4b7fb86-33d3-420c-baed-7d98f27d20bd"},"vehicle_type_id":"4","last_reported":1716757633,"current_range_meters":8800,"station_id":"","pricing_plan_id":"cebpf4jnsgd1na2vs0mg"},{"bike_id":"8731fc23-92d1-4ffd-9491-1de09a3329f3","system_id":"levelo_inurba_marseille","lat":43.32367,"lon":5.388836,"is_reserved":false,"is_disabled":false,"rental_uris":{"android":"levelo://app?vid=8731fc23-92d1-4ffd-9491-1de09a3329f3","ios":"levelo://app?vid=8731fc23-92d1-4ffd-9491-1de09a3329f3"},"vehicle_type_id":"4","last_reported":1716757633,"current_range_meters":0,"station_id":"ce4bhqp2rcd13ifvqhog","pricing_plan_id":"cebpf4jnsgd1na2vs0mg"},{"bike_id":"a66260c0-e0f0-4d29-8d41-ad889bd7903b","system_id":"levelo_inurba_marseille","lat":43.305994,"lon":5.393687,"is_reserved":false,"is_disabled":false,"rental_uris":{"android":"levelo://app?vid=a66260c0-e0f0-4d29-8d41-ad889bd7903b","ios":"levelo://app?vid=a66260c0-e0f0-4d29-8d41-ad889bd7903b"},"vehicle_type_id":"4","last_reported":1716757633,"current_range_meters":18000,"station_id":"ce4bh0p2rcd13ifvqd80","pricing_plan_id":"cebpf4jnsgd1na2vs0mg"},{"bike_id":"cac9f194-73c6-4eff-961a-1e3da4248141","system_id":"levelo_inurba_marseille","lat":43.293009,"lon":5.374584,"is_reserved":false,"is_disabled":false,"rental_uris":{"android":"levelo://app?vid=cac9f194-73c6-4eff-961a-1e3da4248141","ios":"levelo://app?vid=cac9f194-73c6-4eff-961a-1e3da4248141"},"vehicle_type_id":"4","last_reported":1716757633,"current_range_meters":28800,"station_id":"ce4bgi12rcd13ifvqb70","pricing_plan_id":"cebpf4jnsgd1na2vs0mg"},{"bike_id":"bb511848-edc7-441f-b8b6-2e78803795e6","system_id":"levelo_inurba_marseille","lat":43.305994,"lon":5.393687,"is_reserved":false,"is_disabled":false,"rental_uris":{"android":"levelo://app?vid=bb511848-edc7-441f-b8b6-2e78803795e6","ios":"levelo://app?vid=bb511848-edc7-441f-b8b6-2e78803795e6"},"vehicle_type_id":"4","last_reported":1716757633,"current_range_meters":10800,"station_id":"ce4bh0p2rcd13ifvqd80","pricing_plan_id":"cebpf4jnsgd1na2vs0mg"},{"bike_id":"b4f2c6f8-cebf-4b85-8d68-7f569e798e48","system_id":"levelo_inurba_marseille","lat":43.303002,"lon":5.392142,"is_reserved":false,"is_disabled":false,"rental_uris":{"android":"levelo://app?vid=b4f2c6f8-cebf-4b85-8d68-7f569e798e48","ios":"levelo://app?vid=b4f2c6f8-cebf-4b85-8d68-7f569e798e48"},"vehicle_type_id":"4","last_reported":1716757633,"current_range_meters":24400,"station_id":"ce4bgkh2rcd13ifvqbk0","pricing_plan_id":"cebpf4jnsgd1na2vs0mg"},{"bike_id":"ba0581f4-c585-473c-a310-67a6aea6c84e","system_id":"levelo_inurba_marseille","lat":43.302992,"lon":5.392136,"is_reserved":false,"is_disabled":false,"rental_uris":{"android":"levelo://app?vid=ba0581f4-c585-473c-a310-67a6aea6c84e","ios":"levelo://app?vid=ba0581f4-c585-473c-a310-67a6aea6c84e"},"vehicle_type_id":"4","last_reported":1716757633,"current_range_meters":21600,"station_id":"ce4bgkh2rcd13ifvqbk0","pricing_plan_id":"cebpf4jnsgd1na2vs0mg"},{"bike_id":"8f0b6636-63db-48fb-aa29-6d09557a42c2","system_id":"levelo_inurba_marseille","lat":43.302992,"lon":5.392136,"is_reserved":false,"is_disabled":false,"rental_uris":{"android":"levelo://app?vid=8f0b6636-63db-48fb-aa29-6d09557a42c2","ios":"levelo://app?vid=8f0b6636-63db-48fb-aa29-6d09557a42c2"},"vehicle_type_id":"4","last_reported":1716757633,"current_range_meters":18400,"station_id":"ce4bgkh2rcd13ifvqbk0","pricing_plan_id":"cebpf4jnsgd1na2vs0mg"},{"bike_id":"4eabeb0c-8fb7-49a0-8127-60aff034052a","system_id":"levelo_inurba_marseille","lat":43.2936,"lon":5.37835,"is_reserved":false,"is_disabled":false,"rental_uris":{"android":"levelo://app?vid=4eabeb0c-8fb7-49a0-8127-60aff034052a","ios":"levelo://app?vid=4eabeb0c-8fb7-49a0-8127-60aff034052a"},"vehicle_type_id":"4","last_reported":1716757633,"current_range_meters":17200,"station_id":"ce4bgjh2rcd13ifvqbf0","pricing_plan_id":"cebpf4jnsgd1na2vs0mg"},{"bike_id":"d42e9a51-0976-4b2f-9d58-dba5bc42ce95","system_id":"levelo_inurba_marseille","lat":43.29222,"lon":5.36073,"is_reserved":false,"is_disabled":false,"rental_uris":{"android":"levelo://app?vid=d42e9a51-0976-4b2f-9d58-dba5bc42ce95","ios":"levelo://app?vid=d42e9a51-0976-4b2f-9d58-dba5bc42ce95"},"vehicle_type_id":"4","last_reported":1716757633,"current_range_meters":12000,"station_id":"ce4bhbh2rcd13ifvqeqg","pricing_plan_id":"cebpf4jnsgd1na2vs0mg"},{"bike_id":"4e822c66-d799-418b-af6b-05b88db76ee9","system_id":"levelo_inurba_marseille","lat":43.3008,"lon":5.39097,"is_reserved":false,"is_disabled":false,"rental_uris":{"android":"levelo://app?vid=4e822c66-d799-418b-af6b-05b88db76ee9","ios":"levelo://app?vid=4e822c66-d799-418b-af6b-05b88db76ee9"},"vehicle_type_id":"4","last_reported":1716757633,"current_range_meters":9600,"station_id":"ce4bh192rcd13ifvqdb0","pricing_plan_id":"cebpf4jnsgd1na2vs0mg"},{"bike_id":"a55a39c0-22b7-4907-95ea-973f2255df9f","system_id":"levelo_inurba_marseille","lat":43.29264,"lon":5.37627,"is_reserved":false,"is_disabled":false,"rental_uris":{"android":"levelo://app?vid=a55a39c0-22b7-4907-95ea-973f2255df9f","ios":"levelo://app?vid=a55a39c0-22b7-4907-95ea-973f2255df9f"},"vehicle_type_id":"4","last_reported":1716757633,"current_range_meters":0,"station_id":"","pricing_plan_id":"cebpf4jnsgd1na2vs0mg"},{"bike_id":"503466df-0863-40ef-b185-a08f9717baff","system_id":"levelo_inurba_marseille","lat":43.292632,"lon":5.37624,"is_reserved":false,"is_disabled":false,"rental_uris":{"android":"levelo://app?vid=503466df-0863-40ef-b185-a08f9717baff","ios":"levelo://app?vid=503466df-0863-40ef-b185-a08f9717baff"},"vehicle_type_id":"4","last_reported":1716757633,"current_range_meters":11200,"station_id":"","pricing_plan_id":"cebpf4jnsgd1na2vs0mg"},{"bike_id":"e52fe38b-2a89-4f60-80d1-bf146056989b","system_id":"levelo_inurba_marseille","lat":43.29882,"lon":5.38902,"is_reserved":false,"is_disabled":false,"rental_uris":{"android":"levelo://app?vid=e52fe38b-2a89-4f60-80d1-bf146056989b","ios":"levelo://app?vid=e52fe38b-2a89-4f60-80d1-bf146056989b"},"vehicle_type_id":"4","last_reported":1716757633,"current_range_meters":5600,"station_id":"ce4bh392rcd13ifvqdl0","pricing_plan_id":"cebpf4jnsgd1na2vs0mg"},{"bike_id":"3cbb0760-6b84-4f4e-b70e-4f32578740a3","system_id":"levelo_inurba_marseille","lat":43.291675,"lon":5.371583,"is_reserved":false,"is_disabled":false,"rental_uris":{"android":"levelo://app?vid=3cbb0760-6b84-4f4e-b70e-4f32578740a3","ios":"levelo://app?vid=3cbb0760-6b84-4f4e-b70e-4f32578740a3"},"vehicle_type_id":"4","last_reported":1716757633,"current_range_meters":16400,"station_id":"ce4bha92rcd13ifvqeh0","pricing_plan_id":"cebpf4jnsgd1na2vs0mg"},{"bike_id":"833b6ebe-4cee-4899-bc2f-596933bb5c86","system_id":"levelo_inurba_marseille","lat":43.291675,"lon":5.371583,"is_reserved":false,"is_disabled":false,"rental_uris":{"android":"levelo://app?vid=833b6ebe-4cee-4899-bc2f-596933bb5c86","ios":"levelo://app?vid=833b6ebe-4cee-4899-bc2f-596933bb5c86"},"vehicle_type_id":"4","last_reported":1716757633,"current_range_meters":0,"station_id":"ce4bha92rcd13ifvqeh0","pricing_plan_id":"cebpf4jnsgd1na2vs0mg"},{"bike_id":"261215c0-3d87-468a-b283-c21856756075","system_id":"levelo_inurba_marseille","lat":43.29878,"lon":5.389113,"is_reserved":false,"is_disabled":false,"rental_uris":{"android":"levelo://app?vid=261215c0-3d87-468a-b283-c21856756075","ios":"levelo://app?vid=261215c0-3d87-468a-b283-c21856756075"},"vehicle_type_id":"4","last_reported":1716757633,"current_range_meters":14000,"station_id":"ce4bh392rcd13ifvqdl0","pricing_plan_id":"cebpf4jnsgd1na2vs0mg"},{"bike_id":"f2fef318-190c-44ee-a520-58e1c2b12d92","system_id":"levelo_inurba_marseille","lat":43.29879,"lon":5.389126,"is_reserved":false,"is_disabled":false,"rental_uris":{"android":"levelo://app?vid=f2fef318-190c-44ee-a520-58e1c2b12d92","ios":"levelo://app?vid=f2fef318-190c-44ee-a520-58e1c2b12d92"},"vehicle_type_id":"4","last_reported":1716757633,"current_range_meters":6000,"station_id":"ce4bh392rcd13ifvqdl0","pricing_plan_id":"cebpf4jnsgd1na2vs0mg"},{"bike_id":"1fa893ff-0e15-405b-9eba-e25e102b25b4","system_id":"levelo_inurba_marseille","lat":43.298764,"lon":5.388973,"is_reserved":false,"is_disabled":false,"rental_uris":{"android":"levelo://app?vid=1fa893ff-0e15-405b-9eba-e25e102b25b4","ios":"levelo://app?vid=1fa893ff-0e15-405b-9eba-e25e102b25b4"},"vehicle_type_id":"4","last_reported":1716757633,"current_range_meters":6400,"station_id":"ce4bh392rcd13ifvqdl0","pricing_plan_id":"cebpf4jnsgd1na2vs0mg"},{"bike_id":"23f2911a-1e16-4a55-9562-0b2266b7c0e4","system_id":"levelo_inurba_marseille","lat":43.30888,"lon":5.39629,"is_reserved":false,"is_disabled":false,"rental_uris":{"android":"levelo://app?vid=23f2911a-1e16-4a55-9562-0b2266b7c0e4","ios":"levelo://app?vid=23f2911a-1e16-4a55-9562-0b2266b7c0e4"},"vehicle_type_id":"4","last_reported":1716757633,"current_range_meters":1600,"station_id":"ce4bh012rcd13ifvqcv0","pricing_plan_id":"cebpf4jnsgd1na2vs0mg"},{"bike_id":"3438b89e-606b-49e9-a236-27062d5a5a5c","system_id":"levelo_inurba_marseille","lat":43.30891,"lon":5.39633,"is_reserved":false,"is_disabled":false,"rental_uris":{"android":"levelo://app?vid=3438b89e-606b-49e9-a236-27062d5a5a5c","ios":"levelo://app?vid=3438b89e-606b-49e9-a236-27062d5a5a5c"},"vehicle_type_id":"4","last_reported":1716757633,"current_range_meters":28800,"station_id":"ce4bh012rcd13ifvqcv0","pricing_plan_id":"cebpf4jnsgd1na2vs0mg"},{"bike_id":"39b23b27-0fb6-429d-95a4-3cf189f1c59f","system_id":"levelo_inurba_marseille","lat":43.309047,"lon":5.396551,"is_reserved":false,"is_disabled":false,"rental_uris":{"android":"levelo://app?vid=39b23b27-0fb6-429d-95a4-3cf189f1c59f","ios":"levelo://app?vid=39b23b27-0fb6-429d-95a4-3cf189f1c59f"},"vehicle_type_id":"4","last_reported":1716757633,"current_range_meters":16000,"station_id":"ce4bh012rcd13ifvqcv0","pricing_plan_id":"cebpf4jnsgd1na2vs0mg"},{"bike_id":"7b654985-fa4f-4201-92d3-6e4c89b68971","system_id":"levelo_inurba_marseille","lat":43.313291,"lon":5.396838,"is_reserved":false,"is_disabled":false,"rental_uris":{"android":"levelo://app?vid=7b654985-fa4f-4201-92d3-6e4c89b68971","ios":"levelo://app?vid=7b654985-fa4f-4201-92d3-6e4c89b68971"},"vehicle_type_id":"4","last_reported":1716757633,"current_range_meters":30400,"station_id":"ce4bgvp2rcd13ifvqcu0","pricing_plan_id":"cebpf4jnsgd1na2vs0mg"},{"bike_id":"4fab4330-b099-4186-b089-187627a692bc","system_id":"levelo_inurba_marseille","lat":43.309047,"lon":5.396551,"is_reserved":false,"is_disabled":false,"rental_uris":{"android":"levelo://app?vid=4fab4330-b099-4186-b089-187627a692bc","ios":"levelo://app?vid=4fab4330-b099-4186-b089-187627a692bc"},"vehicle_type_id":"4","last_reported":1716757633,"current_range_meters":31200,"station_id":"ce4bh012rcd13ifvqcv0","pricing_plan_id":"cebpf4jnsgd1na2vs0mg"},{"bike_id":"1fc2e95d-a03d-4379-a713-38d1a55cfd90","system_id":"levelo_inurba_marseille","lat":43.313291,"lon":5.396838,"is_reserved":false,"is_disabled":false,"rental_uris":{"android":"levelo://app?vid=1fc2e95d-a03d-4379-a713-38d1a55cfd90","ios":"levelo://app?vid=1fc2e95d-a03d-4379-a713-38d1a55cfd90"},"vehicle_type_id":"4","last_reported":1716757633,"current_range_meters":10800,"station_id":"ce4bgvp2rcd13ifvqcu0","pricing_plan_id":"cebpf4jnsgd1na2vs0mg"},{"bike_id":"410af055-7edb-44f2-98d3-0604b8a95e88","system_id":"levelo_inurba_marseille","lat":43.30887,"lon":5.396409,"is_reserved":false,"is_disabled":false,"rental_uris":{"android":"levelo://app?vid=410af055-7edb-44f2-98d3-0604b8a95e88","ios":"levelo://app?vid=410af055-7edb-44f2-98d3-0604b8a95e88"},"vehicle_type_id":"4","last_reported":1716757633,"current_range_meters":12000,"station_id":"ce4bh012rcd13ifvqcv0","pricing_plan_id":"cebpf4jnsgd1na2vs0mg"},{"bike_id":"9462c5a1-60e2-4666-a7cc-ef25871fc041","system_id":"levelo_inurba_marseille","lat":43.309038,"lon":5.396546,"is_reserved":false,"is_disabled":false,"rental_uris":{"android":"levelo://app?vid=9462c5a1-60e2-4666-a7cc-ef25871fc041","ios":"levelo://app?vid=9462c5a1-60e2-4666-a7cc-ef25871fc041"},"vehicle_type_id":"4","last_reported":1716757633,"current_range_meters":6400,"station_id":"ce4bh012rcd13ifvqcv0","pricing_plan_id":"cebpf4jnsgd1na2vs0mg"},{"bike_id":"367daf47-2752-44bf-9b5e-674aba351854","system_id":"levelo_inurba_marseille","lat":43.30885,"lon":5.39642,"is_reserved":false,"is_disabled":false,"rental_uris":{"android":"levelo://app?vid=367daf47-2752-44bf-9b5e-674aba351854","ios":"levelo://app?vid=367daf47-2752-44bf-9b5e-674aba351854"},"vehicle_type_id":"4","last_reported":1716757633,"current_range_meters":28400,"station_id":"ce4bh012rcd13ifvqcv0","pricing_plan_id":"cebpf4jnsgd1na2vs0mg"},{"bike_id":"228c35e4-2c7c-4c2a-86ca-95d1792d9856","system_id":"levelo_inurba_marseille","lat":43.292005,"lon":5.357875,"is_reserved":false,"is_disabled":false,"rental_uris":{"android":"levelo://app?vid=228c35e4-2c7c-4c2a-86ca-95d1792d9856","ios":"levelo://app?vid=228c35e4-2c7c-4c2a-86ca-95d1792d9856"},"vehicle_type_id":"4","last_reported":1716757633,"current_range_meters":26000,"station_id":"ce4bhb12rcd13ifvqel0","pricing_plan_id":"cebpf4jnsgd1na2vs0mg"},{"bike_id":"e668a658-70a8-4480-bafa-ff16631ee4da","system_id":"levelo_inurba_marseille","lat":43.313291,"lon":5.396838,"is_reserved":false,"is_disabled":false,"rental_uris":{"android":"levelo://app?vid=e668a658-70a8-4480-bafa-ff16631ee4da","ios":"levelo://app?vid=e668a658-70a8-4480-bafa-ff16631ee4da"},"vehicle_type_id":"4","last_reported":1716757633,"current_range_meters":400,"station_id":"ce4bgvp2rcd13ifvqcu0","pricing_plan_id":"cebpf4jnsgd1na2vs0mg"},{"bike_id":"43556283-2c36-4082-bde8-0371cd381d36","system_id":"levelo_inurba_marseille","lat":43.3089,"lon":5.39646,"is_reserved":false,"is_disabled":false,"rental_uris":{"android":"levelo://app?vid=43556283-2c36-4082-bde8-0371cd381d36","ios":"levelo://app?vid=43556283-2c36-4082-bde8-0371cd381d36"},"vehicle_type_id":"4","last_reported":1716757633,"current_range_meters":13600,"station_id":"ce4bh012rcd13ifvqcv0","pricing_plan_id":"cebpf4jnsgd1na2vs0mg"},{"bike_id":"5cacdf27-ebfc-4820-abd2-4f2744984613","system_id":"levelo_inurba_marseille","lat":43.308854,"lon":5.39645,"is_reserved":false,"is_disabled":false,"rental_uris":{"android":"levelo://app?vid=5cacdf27-ebfc-4820-abd2-4f2744984613","ios":"levelo://app?vid=5cacdf27-ebfc-4820-abd2-4f2744984613"},"vehicle_type_id":"4","last_reported":1716757633,"current_range_meters":31200,"station_id":"ce4bh012rcd13ifvqcv0","pricing_plan_id":"cebpf4jnsgd1na2vs0mg"},{"bike_id":"dea08725-19fd-40e7-90c9-cb54f95a1349","system_id":"levelo_inurba_marseille","lat":43.2919,"lon":5.35797,"is_reserved":false,"is_disabled":false,"rental_uris":{"android":"levelo://app?vid=dea08725-19fd-40e7-90c9-cb54f95a1349","ios":"levelo://app?vid=dea08725-19fd-40e7-90c9-cb54f95a1349"},"vehicle_type_id":"4","last_reported":1716757633,"current_range_meters":22000,"station_id":"ce4bhb12rcd13ifvqel0","pricing_plan_id":"cebpf4jnsgd1na2vs0mg"},{"bike_id":"fe6af52f-96a1-41f8-a544-9ade9a681d7e","system_id":"levelo_inurba_marseille","lat":43.313291,"lon":5.396838,"is_reserved":false,"is_disabled":false,"rental_uris":{"android":"levelo://app?vid=fe6af52f-96a1-41f8-a544-9ade9a681d7e","ios":"levelo://app?vid=fe6af52f-96a1-41f8-a544-9ade9a681d7e"},"vehicle_type_id":"4","last_reported":1716757633,"current_range_meters":28800,"station_id":"ce4bgvp2rcd13ifvqcu0","pricing_plan_id":"cebpf4jnsgd1na2vs0mg"},{"bike_id":"62b27a84-dddc-42c1-92bd-658631ce523a","system_id":"levelo_inurba_marseille","lat":43.313291,"lon":5.396838,"is_reserved":false,"is_disabled":false,"rental_uris":{"android":"levelo://app?vid=62b27a84-dddc-42c1-92bd-658631ce523a","ios":"levelo://app?vid=62b27a84-dddc-42c1-92bd-658631ce523a"},"vehicle_type_id":"4","last_reported":1716757633,"current_range_meters":30400,"station_id":"ce4bgvp2rcd13ifvqcu0","pricing_plan_id":"cebpf4jnsgd1na2vs0mg"},{"bike_id":"1c0e551e-89cd-47fe-90d2-bb1ce5c2542b","system_id":"levelo_inurba_marseille","lat":43.30889,"lon":5.39651,"is_reserved":false,"is_disabled":false,"rental_uris":{"android":"levelo://app?vid=1c0e551e-89cd-47fe-90d2-bb1ce5c2542b","ios":"levelo://app?vid=1c0e551e-89cd-47fe-90d2-bb1ce5c2542b"},"vehicle_type_id":"4","last_reported":1716757633,"current_range_meters":5600,"station_id":"ce4bh012rcd13ifvqcv0","pricing_plan_id":"cebpf4jnsgd1na2vs0mg"},{"bike_id":"6705277c-0088-4d0c-bbb0-f4e21f38627f","system_id":"levelo_inurba_marseille","lat":43.30887,"lon":5.39651,"is_reserved":false,"is_disabled":false,"rental_uris":{"android":"levelo://app?vid=6705277c-0088-4d0c-bbb0-f4e21f38627f","ios":"levelo://app?vid=6705277c-0088-4d0c-bbb0-f4e21f38627f"},"vehicle_type_id":"4","last_reported":1716757633,"current_range_meters":6800,"station_id":"ce4bh012rcd13ifvqcv0","pricing_plan_id":"cebpf4jnsgd1na2vs0mg"},{"bike_id":"ab72d1c9-c555-4dd8-8375-8f8e5b70f0bf","system_id":"levelo_inurba_marseille","lat":43.313291,"lon":5.396838,"is_reserved":false,"is_disabled":false,"rental_uris":{"android":"levelo://app?vid=ab72d1c9-c555-4dd8-8375-8f8e5b70f0bf","ios":"levelo://app?vid=ab72d1c9-c555-4dd8-8375-8f8e5b70f0bf"},"vehicle_type_id":"4","last_reported":1716757633,"current_range_meters":31200,"station_id":"ce4bgvp2rcd13ifvqcu0","pricing_plan_id":"cebpf4jnsgd1na2vs0mg"},{"bike_id":"744e3040-a61e-4ab4-b95b-9b0806e3f74e","system_id":"levelo_inurba_marseille","lat":43.313291,"lon":5.396838,"is_reserved":false,"is_disabled":false,"rental_uris":{"android":"levelo://app?vid=744e3040-a61e-4ab4-b95b-9b0806e3f74e","ios":"levelo://app?vid=744e3040-a61e-4ab4-b95b-9b0806e3f74e"},"vehicle_type_id":"4","last_reported":1716757633,"current_range_meters":0,"station_id":"ce4bgvp2rcd13ifvqcu0","pricing_plan_id":"cebpf4jnsgd1na2vs0mg"},{"bike_id":"98fc1215-a0a3-4626-94aa-3edd58a8a1b0","system_id":"levelo_inurba_marseille","lat":43.313291,"lon":5.396838,"is_reserved":false,"is_disabled":false,"rental_uris":{"android":"levelo://app?vid=98fc1215-a0a3-4626-94aa-3edd58a8a1b0","ios":"levelo://app?vid=98fc1215-a0a3-4626-94aa-3edd58a8a1b0"},"vehicle_type_id":"4","last_reported":1716757633,"current_range_meters":21600,"station_id":"ce4bgvp2rcd13ifvqcu0","pricing_plan_id":"cebpf4jnsgd1na2vs0mg"},{"bike_id":"bd9d91c5-52f3-4e3e-ad9c-d105c63c7858","system_id":"levelo_inurba_marseille","lat":43.29529,"lon":5.385581,"is_reserved":false,"is_disabled":false,"rental_uris":{"android":"levelo://app?vid=bd9d91c5-52f3-4e3e-ad9c-d105c63c7858","ios":"levelo://app?vid=bd9d91c5-52f3-4e3e-ad9c-d105c63c7858"},"vehicle_type_id":"4","last_reported":1716757633,"current_range_meters":800,"station_id":"ce4bgih2rcd13ifvqba0","pricing_plan_id":"cebpf4jnsgd1na2vs0mg"},{"bike_id":"a3564ad9-9159-4bad-a3cb-ce580050f7e1","system_id":"levelo_inurba_marseille","lat":43.29529,"lon":5.385581,"is_reserved":false,"is_disabled":false,"rental_uris":{"android":"levelo://app?vid=a3564ad9-9159-4bad-a3cb-ce580050f7e1","ios":"levelo://app?vid=a3564ad9-9159-4bad-a3cb-ce580050f7e1"},"vehicle_type_id":"4","last_reported":1716757633,"current_range_meters":400,"station_id":"ce4bgih2rcd13ifvqba0","pricing_plan_id":"cebpf4jnsgd1na2vs0mg"},{"bike_id":"f5696f22-a9b4-4502-a201-d3b67c30350f","system_id":"levelo_inurba_marseille","lat":43.290779,"lon":5.371482,"is_reserved":false,"is_disabled":false,"rental_uris":{"android":"levelo://app?vid=f5696f22-a9b4-4502-a201-d3b67c30350f","ios":"levelo://app?vid=f5696f22-a9b4-4502-a201-d3b67c30350f"},"vehicle_type_id":"4","last_reported":1716757633,"current_range_meters":6400,"station_id":"ce4bh5p2rcd13ifvqe4g","pricing_plan_id":"cebpf4jnsgd1na2vs0mg"},{"bike_id":"80f456dc-c89e-4023-90f9-a4a0568a91bc","system_id":"levelo_inurba_marseille","lat":43.302008,"lon":5.394694,"is_reserved":false,"is_disabled":false,"rental_uris":{"android":"levelo://app?vid=80f456dc-c89e-4023-90f9-a4a0568a91bc","ios":"levelo://app?vid=80f456dc-c89e-4023-90f9-a4a0568a91bc"},"vehicle_type_id":"4","last_reported":1716757633,"current_range_meters":27200,"station_id":"ce4bh0p2rcd13ifvqd70","pricing_plan_id":"cebpf4jnsgd1na2vs0mg"},{"bike_id":"e9adba9d-d391-4853-877d-959d73133874","system_id":"levelo_inurba_marseille","lat":43.290624,"lon":5.359245,"is_reserved":false,"is_disabled":false,"rental_uris":{"android":"levelo://app?vid=e9adba9d-d391-4853-877d-959d73133874","ios":"levelo://app?vid=e9adba9d-d391-4853-877d-959d73133874"},"vehicle_type_id":"4","last_reported":1716757633,"current_range_meters":26000,"station_id":"ce4bha92rcd13ifvqeg0","pricing_plan_id":"cebpf4jnsgd1na2vs0mg"},{"bike_id":"612434e1-d982-49b7-9d29-9ecd8d835a95","system_id":"levelo_inurba_marseille","lat":43.28948,"lon":5.36621,"is_reserved":false,"is_disabled":false,"rental_uris":{"android":"levelo://app?vid=612434e1-d982-49b7-9d29-9ecd8d835a95","ios":"levelo://app?vid=612434e1-d982-49b7-9d29-9ecd8d835a95"},"vehicle_type_id":"4","last_reported":1716757633,"current_range_meters":31200,"station_id":"ce4bhap2rcd13ifvqek0","pricing_plan_id":"cebpf4jnsgd1na2vs0mg"},{"bike_id":"5cbd3cca-1458-4dd2-9ab7-ea6551c1000e","system_id":"levelo_inurba_marseille","lat":43.29033,"lon":5.37556,"is_reserved":false,"is_disabled":false,"rental_uris":{"android":"levelo://app?vid=5cbd3cca-1458-4dd2-9ab7-ea6551c1000e","ios":"levelo://app?vid=5cbd3cca-1458-4dd2-9ab7-ea6551c1000e"},"vehicle_type_id":"4","last_reported":1716757633,"current_range_meters":31200,"station_id":"ce4bh692rcd13ifvqe90","pricing_plan_id":"cebpf4jnsgd1na2vs0mg"},{"bike_id":"d7bf1b5f-8955-4008-9e71-dc69b2e38e25","system_id":"levelo_inurba_marseille","lat":43.289471,"lon":5.366255,"is_reserved":false,"is_disabled":false,"rental_uris":{"android":"levelo://app?vid=d7bf1b5f-8955-4008-9e71-dc69b2e38e25","ios":"levelo://app?vid=d7bf1b5f-8955-4008-9e71-dc69b2e38e25"},"vehicle_type_id":"4","last_reported":1716757633,"current_range_meters":31200,"station_id":"ce4bhap2rcd13ifvqek0","pricing_plan_id":"cebpf4jnsgd1na2vs0mg"},{"bike_id":"96fd7219-0375-4f7a-aed4-862acb82fc0f","system_id":"levelo_inurba_marseille","lat":43.289432,"lon":5.366237,"is_reserved":false,"is_disabled":false,"rental_uris":{"android":"levelo://app?vid=96fd7219-0375-4f7a-aed4-862acb82fc0f","ios":"levelo://app?vid=96fd7219-0375-4f7a-aed4-862acb82fc0f"},"vehicle_type_id":"4","last_reported":1716757633,"current_range_meters":25200,"station_id":"ce4bhap2rcd13ifvqek0","pricing_plan_id":"cebpf4jnsgd1na2vs0mg"},{"bike_id":"1e8250a7-c00d-4b88-bfa8-97d265496f0c","system_id":"levelo_inurba_marseille","lat":43.29415,"lon":5.38626,"is_reserved":false,"is_disabled":false,"rental_uris":{"android":"levelo://app?vid=1e8250a7-c00d-4b88-bfa8-97d265496f0c","ios":"levelo://app?vid=1e8250a7-c00d-4b88-bfa8-97d265496f0c"},"vehicle_type_id":"4","last_reported":1716757633,"current_range_meters":0,"station_id":"ce4bh2h2rcd13ifvqdh0","pricing_plan_id":"cebpf4jnsgd1na2vs0mg"},{"bike_id":"08e3b1a0-6b0d-4245-bc2b-8d31f5998050","system_id":"levelo_inurba_marseille","lat":43.289184,"lon":5.366408,"is_reserved":false,"is_disabled":false,"rental_uris":{"android":"levelo://app?vid=08e3b1a0-6b0d-4245-bc2b-8d31f5998050","ios":"levelo://app?vid=08e3b1a0-6b0d-4245-bc2b-8d31f5998050"},"vehicle_type_id":"4","last_reported":1716757633,"current_range_meters":3600,"station_id":"ce4bhap2rcd13ifvqek0","pricing_plan_id":"cebpf4jnsgd1na2vs0mg"},{"bike_id":"119f4f29-89d6-4cac-85fc-de592dc0c769","system_id":"levelo_inurba_marseille","lat":43.28938,"lon":5.36629,"is_reserved":false,"is_disabled":false,"rental_uris":{"android":"levelo://app?vid=119f4f29-89d6-4cac-85fc-de592dc0c769","ios":"levelo://app?vid=119f4f29-89d6-4cac-85fc-de592dc0c769"},"vehicle_type_id":"4","last_reported":1716757633,"current_range_meters":31200,"station_id":"ce4bhap2rcd13ifvqek0","pricing_plan_id":"cebpf4jnsgd1na2vs0mg"},{"bike_id":"547e35a7-c9a6-4c4c-9901-dc6a23924c5c","system_id":"levelo_inurba_marseille","lat":43.289468,"lon":5.363719,"is_reserved":false,"is_disabled":false,"rental_uris":{"android":"levelo://app?vid=547e35a7-c9a6-4c4c-9901-dc6a23924c5c","ios":"levelo://app?vid=547e35a7-c9a6-4c4c-9901-dc6a23924c5c"},"vehicle_type_id":"4","last_reported":1716757633,"current_range_meters":16400,"station_id":"ce4bhc92rcd13ifvqetg","pricing_plan_id":"cebpf4jnsgd1na2vs0mg"},{"bike_id":"a8150445-c6cf-4478-945c-8546041f9dfb","system_id":"levelo_inurba_marseille","lat":43.292642,"lon":5.384254,"is_reserved":false,"is_disabled":false,"rental_uris":{"android":"levelo://app?vid=a8150445-c6cf-4478-945c-8546041f9dfb","ios":"levelo://app?vid=a8150445-c6cf-4478-945c-8546041f9dfb"},"vehicle_type_id":"4","last_reported":1716757633,"current_range_meters":2800,"station_id":"ce4bh692rcd13ifvqea0","pricing_plan_id":"cebpf4jnsgd1na2vs0mg"},{"bike_id":"acf8c613-9313-45d4-86a5-c98ed9494c9e","system_id":"levelo_inurba_marseille","lat":43.29262,"lon":5.38447,"is_reserved":false,"is_disabled":false,"rental_uris":{"android":"levelo://app?vid=acf8c613-9313-45d4-86a5-c98ed9494c9e","ios":"levelo://app?vid=acf8c613-9313-45d4-86a5-c98ed9494c9e"},"vehicle_type_id":"4","last_reported":1716757633,"current_range_meters":0,"station_id":"ce4bh692rcd13ifvqea0","pricing_plan_id":"cebpf4jnsgd1na2vs0mg"},{"bike_id":"907912aa-dd4c-4043-842f-a393574ac8bc","system_id":"levelo_inurba_marseille","lat":43.301117,"lon":5.398795,"is_reserved":false,"is_disabled":false,"rental_uris":{"android":"levelo://app?vid=907912aa-dd4c-4043-842f-a393574ac8bc","ios":"levelo://app?vid=907912aa-dd4c-4043-842f-a393574ac8bc"},"vehicle_type_id":"4","last_reported":1716757633,"current_range_meters":21600,"station_id":"ce4bh0h2rcd13ifvqd40","pricing_plan_id":"cebpf4jnsgd1na2vs0mg"},{"bike_id":"05029b3d-dc19-4004-a8c5-5a544536aa01","system_id":"levelo_inurba_marseille","lat":43.290103,"lon":5.356114,"is_reserved":false,"is_disabled":false,"rental_uris":{"android":"levelo://app?vid=05029b3d-dc19-4004-a8c5-5a544536aa01","ios":"levelo://app?vid=05029b3d-dc19-4004-a8c5-5a544536aa01"},"vehicle_type_id":"4","last_reported":1716757633,"current_range_meters":21600,"station_id":"ce4bhb92rcd13ifvqen0","pricing_plan_id":"cebpf4jnsgd1na2vs0mg"},{"bike_id":"5dd088d0-0ada-49cf-be93-853c156b8822","system_id":"levelo_inurba_marseille","lat":43.290995,"lon":5.381361,"is_reserved":false,"is_disabled":false,"rental_uris":{"android":"levelo://app?vid=5dd088d0-0ada-49cf-be93-853c156b8822","ios":"levelo://app?vid=5dd088d0-0ada-49cf-be93-853c156b8822"},"vehicle_type_id":"4","last_reported":1716757633,"current_range_meters":6000,"station_id":"ce4bh512rcd13ifvqe2g","pricing_plan_id":"cebpf4jnsgd1na2vs0mg"},{"bike_id":"10612cc5-b797-423a-9219-c57b2ad2b1b5","system_id":"levelo_inurba_marseille","lat":43.29783,"lon":5.3933,"is_reserved":false,"is_disabled":false,"rental_uris":{"android":"levelo://app?vid=10612cc5-b797-423a-9219-c57b2ad2b1b5","ios":"levelo://app?vid=10612cc5-b797-423a-9219-c57b2ad2b1b5"},"vehicle_type_id":"4","last_reported":1716757633,"current_range_meters":15600,"station_id":"chh1huq6cuj3fo74tm60","pricing_plan_id":"cebpf4jnsgd1na2vs0mg"},{"bike_id":"c3e150f9-a285-4695-87e6-d4605ad0ab90","system_id":"levelo_inurba_marseille","lat":43.297815,"lon":5.393548,"is_reserved":false,"is_disabled":false,"rental_uris":{"android":"levelo://app?vid=c3e150f9-a285-4695-87e6-d4605ad0ab90","ios":"levelo://app?vid=c3e150f9-a285-4695-87e6-d4605ad0ab90"},"vehicle_type_id":"4","last_reported":1716757633,"current_range_meters":22000,"station_id":"chh1huq6cuj3fo74tm60","pricing_plan_id":"cebpf4jnsgd1na2vs0mg"},{"bike_id":"d19dacf6-6efb-431c-b922-b01c7c3cdd8d","system_id":"levelo_inurba_marseille","lat":43.297815,"lon":5.393548,"is_reserved":false,"is_disabled":false,"rental_uris":{"android":"levelo://app?vid=d19dacf6-6efb-431c-b922-b01c7c3cdd8d","ios":"levelo://app?vid=d19dacf6-6efb-431c-b922-b01c7c3cdd8d"},"vehicle_type_id":"4","last_reported":1716757633,"current_range_meters":2400,"station_id":"chh1huq6cuj3fo74tm60","pricing_plan_id":"cebpf4jnsgd1na2vs0mg"},{"bike_id":"a0ba2deb-1757-427f-aadb-38d7e250f32f","system_id":"levelo_inurba_marseille","lat":43.289743,"lon":5.378304,"is_reserved":false,"is_disabled":false,"rental_uris":{"android":"levelo://app?vid=a0ba2deb-1757-427f-aadb-38d7e250f32f","ios":"levelo://app?vid=a0ba2deb-1757-427f-aadb-38d7e250f32f"},"vehicle_type_id":"4","last_reported":1716757633,"current_range_meters":27200,"station_id":"ce4bh9p2rcd13ifvqed0","pricing_plan_id":"cebpf4jnsgd1na2vs0mg"},{"bike_id":"568da741-632b-4d2d-8ee1-69810b401455","system_id":"levelo_inurba_marseille","lat":43.297815,"lon":5.393548,"is_reserved":false,"is_disabled":false,"rental_uris":{"android":"levelo://app?vid=568da741-632b-4d2d-8ee1-69810b401455","ios":"levelo://app?vid=568da741-632b-4d2d-8ee1-69810b401455"},"vehicle_type_id":"4","last_reported":1716757633,"current_range_meters":31200,"station_id":"chh1huq6cuj3fo74tm60","pricing_plan_id":"cebpf4jnsgd1na2vs0mg"},{"bike_id":"cae3293c-0db7-4a53-a3cc-329742049831","system_id":"levelo_inurba_marseille","lat":43.289741,"lon":5.378306,"is_reserved":false,"is_disabled":false,"rental_uris":{"android":"levelo://app?vid=cae3293c-0db7-4a53-a3cc-329742049831","ios":"levelo://app?vid=cae3293c-0db7-4a53-a3cc-329742049831"},"vehicle_type_id":"4","last_reported":1716757633,"current_range_meters":14800,"station_id":"ce4bh9p2rcd13ifvqed0","pricing_plan_id":"cebpf4jnsgd1na2vs0mg"},{"bike_id":"6fb055cc-b404-4919-9ec2-131135e5728e","system_id":"levelo_inurba_marseille","lat":43.289775,"lon":5.378387,"is_reserved":false,"is_disabled":false,"rental_uris":{"android":"levelo://app?vid=6fb055cc-b404-4919-9ec2-131135e5728e","ios":"levelo://app?vid=6fb055cc-b404-4919-9ec2-131135e5728e"},"vehicle_type_id":"4","last_reported":1716757633,"current_range_meters":0,"station_id":"ce4bh9p2rcd13ifvqed0","pricing_plan_id":"cebpf4jnsgd1na2vs0mg"},{"bike_id":"a66d6072-0e00-400f-9569-e30baec499a0","system_id":"levelo_inurba_marseille","lat":43.330442,"lon":5.389148,"is_reserved":false,"is_disabled":false,"rental_uris":{"android":"levelo://app?vid=a66d6072-0e00-400f-9569-e30baec499a0","ios":"levelo://app?vid=a66d6072-0e00-400f-9569-e30baec499a0"},"vehicle_type_id":"4","last_reported":1716757633,"current_range_meters":0,"station_id":"ce4bhr92rcd13ifvqhrg","pricing_plan_id":"cebpf4jnsgd1na2vs0mg"},{"bike_id":"b74e07d6-d4f3-4ca0-88d1-4bdf82087df2","system_id":"levelo_inurba_marseille","lat":43.330442,"lon":5.389148,"is_reserved":false,"is_disabled":false,"rental_uris":{"android":"levelo://app?vid=b74e07d6-d4f3-4ca0-88d1-4bdf82087df2","ios":"levelo://app?vid=b74e07d6-d4f3-4ca0-88d1-4bdf82087df2"},"vehicle_type_id":"4","last_reported":1716757633,"current_range_meters":21200,"station_id":"ce4bhr92rcd13ifvqhrg","pricing_plan_id":"cebpf4jnsgd1na2vs0mg"},{"bike_id":"6046e4b6-31a0-4941-bb82-4f3df1644e11","system_id":"levelo_inurba_marseille","lat":43.289741,"lon":5.378306,"is_reserved":false,"is_disabled":false,"rental_uris":{"android":"levelo://app?vid=6046e4b6-31a0-4941-bb82-4f3df1644e11","ios":"levelo://app?vid=6046e4b6-31a0-4941-bb82-4f3df1644e11"},"vehicle_type_id":"4","last_reported":1716757633,"current_range_meters":6000,"station_id":"ce4bh9p2rcd13ifvqed0","pricing_plan_id":"cebpf4jnsgd1na2vs0mg"},{"bike_id":"b89ac3d7-bd25-4c6e-a068-b3a3ac90536f","system_id":"levelo_inurba_marseille","lat":43.28727,"lon":5.36078,"is_reserved":false,"is_disabled":false,"rental_uris":{"android":"levelo://app?vid=b89ac3d7-bd25-4c6e-a068-b3a3ac90536f","ios":"levelo://app?vid=b89ac3d7-bd25-4c6e-a068-b3a3ac90536f"},"vehicle_type_id":"4","last_reported":1716757633,"current_range_meters":16000,"station_id":"cki0cbj6b192h4jlfktg","pricing_plan_id":"cebpf4jnsgd1na2vs0mg"},{"bike_id":"ba7bba16-c57b-44f6-9f9c-c9839289854f","system_id":"levelo_inurba_marseille","lat":43.31065,"lon":5.40081,"is_reserved":false,"is_disabled":false,"rental_uris":{"android":"levelo://app?vid=ba7bba16-c57b-44f6-9f9c-c9839289854f","ios":"levelo://app?vid=ba7bba16-c57b-44f6-9f9c-c9839289854f"},"vehicle_type_id":"4","last_reported":1716757633,"current_range_meters":8800,"station_id":"","pricing_plan_id":"cebpf4jnsgd1na2vs0mg"},{"bike_id":"e2052a73-412c-4edf-8177-1c3d943d9157","system_id":"levelo_inurba_marseille","lat":43.290094,"lon":5.381264,"is_reserved":false,"is_disabled":false,"rental_uris":{"android":"levelo://app?vid=e2052a73-412c-4edf-8177-1c3d943d9157","ios":"levelo://app?vid=e2052a73-412c-4edf-8177-1c3d943d9157"},"vehicle_type_id":"4","last_reported":1716757633,"current_range_meters":7200,"station_id":"ce4bh4p2rcd13ifvqe1g","pricing_plan_id":"cebpf4jnsgd1na2vs0mg"},{"bike_id":"1a1505af-a805-4e97-b6c5-ef86c8ad33ae","system_id":"levelo_inurba_marseille","lat":43.310723,"lon":5.401007,"is_reserved":false,"is_disabled":false,"rental_uris":{"android":"levelo://app?vid=1a1505af-a805-4e97-b6c5-ef86c8ad33ae","ios":"levelo://app?vid=1a1505af-a805-4e97-b6c5-ef86c8ad33ae"},"vehicle_type_id":"4","last_reported":1716757633,"current_range_meters":0,"station_id":"","pricing_plan_id":"cebpf4jnsgd1na2vs0mg"},{"bike_id":"51371fad-1825-4ce6-a6f7-a9e985de1a56","system_id":"levelo_inurba_marseille","lat":43.290094,"lon":5.381264,"is_reserved":false,"is_disabled":false,"rental_uris":{"android":"levelo://app?vid=51371fad-1825-4ce6-a6f7-a9e985de1a56","ios":"levelo://app?vid=51371fad-1825-4ce6-a6f7-a9e985de1a56"},"vehicle_type_id":"4","last_reported":1716757633,"current_range_meters":4800,"station_id":"ce4bh4p2rcd13ifvqe1g","pricing_plan_id":"cebpf4jnsgd1na2vs0mg"},{"bike_id":"437b8e59-6e37-45dc-87a8-e6cc96f083b4","system_id":"levelo_inurba_marseille","lat":43.28856,"lon":5.358371,"is_reserved":false,"is_disabled":false,"rental_uris":{"android":"levelo://app?vid=437b8e59-6e37-45dc-87a8-e6cc96f083b4","ios":"levelo://app?vid=437b8e59-6e37-45dc-87a8-e6cc96f083b4"},"vehicle_type_id":"4","last_reported":1716757633,"current_range_meters":2800,"station_id":"ce4bhb12rcd13ifvqem0","pricing_plan_id":"cebpf4jnsgd1na2vs0mg"},{"bike_id":"597c9eb6-6625-49c0-94a1-6d58bf7d0123","system_id":"levelo_inurba_marseille","lat":43.312609,"lon":5.401662,"is_reserved":false,"is_disabled":false,"rental_uris":{"android":"levelo://app?vid=597c9eb6-6625-49c0-94a1-6d58bf7d0123","ios":"levelo://app?vid=597c9eb6-6625-49c0-94a1-6d58bf7d0123"},"vehicle_type_id":"4","last_reported":1716757633,"current_range_meters":24800,"station_id":"ce4bh092rcd13ifvqd30","pricing_plan_id":"cebpf4jnsgd1na2vs0mg"},{"bike_id":"7a32acb0-b2fd-481c-b194-35b59e369ec2","system_id":"levelo_inurba_marseille","lat":43.312609,"lon":5.401662,"is_reserved":false,"is_disabled":false,"rental_uris":{"android":"levelo://app?vid=7a32acb0-b2fd-481c-b194-35b59e369ec2","ios":"levelo://app?vid=7a32acb0-b2fd-481c-b194-35b59e369ec2"},"vehicle_type_id":"4","last_reported":1716757633,"current_range_meters":16800,"station_id":"ce4bh092rcd13ifvqd30","pricing_plan_id":"cebpf4jnsgd1na2vs0mg"},{"bike_id":"dfb63646-d587-49a7-956e-00f90b939365","system_id":"levelo_inurba_marseille","lat":43.31267,"lon":5.40159,"is_reserved":false,"is_disabled":false,"rental_uris":{"android":"levelo://app?vid=dfb63646-d587-49a7-956e-00f90b939365","ios":"levelo://app?vid=dfb63646-d587-49a7-956e-00f90b939365"},"vehicle_type_id":"4","last_reported":1716757633,"current_range_meters":0,"station_id":"ce4bh092rcd13ifvqd30","pricing_plan_id":"cebpf4jnsgd1na2vs0mg"},{"bike_id":"a00ba39d-72d6-4f21-abe3-0ee756176302","system_id":"levelo_inurba_marseille","lat":43.312609,"lon":5.401662,"is_reserved":false,"is_disabled":false,"rental_uris":{"android":"levelo://app?vid=a00ba39d-72d6-4f21-abe3-0ee756176302","ios":"levelo://app?vid=a00ba39d-72d6-4f21-abe3-0ee756176302"},"vehicle_type_id":"4","last_reported":1716757633,"current_range_meters":2000,"station_id":"ce4bh092rcd13ifvqd30","pricing_plan_id":"cebpf4jnsgd1na2vs0mg"},{"bike_id":"c817be8a-4d3f-428e-9e83-fb97be659edc","system_id":"levelo_inurba_marseille","lat":43.33739,"lon":5.37443,"is_reserved":false,"is_disabled":false,"rental_uris":{"android":"levelo://app?vid=c817be8a-4d3f-428e-9e83-fb97be659edc","ios":"levelo://app?vid=c817be8a-4d3f-428e-9e83-fb97be659edc"},"vehicle_type_id":"4","last_reported":1716757633,"current_range_meters":19600,"station_id":"","pricing_plan_id":"cebpf4jnsgd1na2vs0mg"},{"bike_id":"be0dbaea-432d-4b7e-bf80-de556ad1f451","system_id":"levelo_inurba_marseille","lat":43.312773,"lon":5.401661,"is_reserved":false,"is_disabled":false,"rental_uris":{"android":"levelo://app?vid=be0dbaea-432d-4b7e-bf80-de556ad1f451","ios":"levelo://app?vid=be0dbaea-432d-4b7e-bf80-de556ad1f451"},"vehicle_type_id":"4","last_reported":1716757633,"current_range_meters":31200,"station_id":"ce4bh092rcd13ifvqd30","pricing_plan_id":"cebpf4jnsgd1na2vs0mg"},{"bike_id":"7449a4d8-d035-4b25-91b1-c0a54c98e73f","system_id":"levelo_inurba_marseille","lat":43.312609,"lon":5.401662,"is_reserved":false,"is_disabled":false,"rental_uris":{"android":"levelo://app?vid=7449a4d8-d035-4b25-91b1-c0a54c98e73f","ios":"levelo://app?vid=7449a4d8-d035-4b25-91b1-c0a54c98e73f"},"vehicle_type_id":"4","last_reported":1716757633,"current_range_meters":10000,"station_id":"ce4bh092rcd13ifvqd30","pricing_plan_id":"cebpf4jnsgd1na2vs0mg"},{"bike_id":"663e4f65-fc83-4d0f-8086-697d72477062","system_id":"levelo_inurba_marseille","lat":43.312609,"lon":5.401662,"is_reserved":false,"is_disabled":false,"rental_uris":{"android":"levelo://app?vid=663e4f65-fc83-4d0f-8086-697d72477062","ios":"levelo://app?vid=663e4f65-fc83-4d0f-8086-697d72477062"},"vehicle_type_id":"4","last_reported":1716757633,"current_range_meters":26800,"station_id":"ce4bh092rcd13ifvqd30","pricing_plan_id":"cebpf4jnsgd1na2vs0mg"},{"bike_id":"1664a611-314b-4ba9-8d9a-68dc908065b7","system_id":"levelo_inurba_marseille","lat":43.312609,"lon":5.401662,"is_reserved":false,"is_disabled":false,"rental_uris":{"android":"levelo://app?vid=1664a611-314b-4ba9-8d9a-68dc908065b7","ios":"levelo://app?vid=1664a611-314b-4ba9-8d9a-68dc908065b7"},"vehicle_type_id":"4","last_reported":1716757633,"current_range_meters":31200,"station_id":"ce4bh092rcd13ifvqd30","pricing_plan_id":"cebpf4jnsgd1na2vs0mg"},{"bike_id":"b7304dea-03d3-40dd-b4de-82002f702aac","system_id":"levelo_inurba_marseille","lat":43.312609,"lon":5.401662,"is_reserved":false,"is_disabled":false,"rental_uris":{"android":"levelo://app?vid=b7304dea-03d3-40dd-b4de-82002f702aac","ios":"levelo://app?vid=b7304dea-03d3-40dd-b4de-82002f702aac"},"vehicle_type_id":"4","last_reported":1716757633,"current_range_meters":5600,"station_id":"ce4bh092rcd13ifvqd30","pricing_plan_id":"cebpf4jnsgd1na2vs0mg"},{"bike_id":"6080ad0c-005f-4214-98b8-969e3b701ab3","system_id":"levelo_inurba_marseille","lat":43.312609,"lon":5.401662,"is_reserved":false,"is_disabled":false,"rental_uris":{"android":"levelo://app?vid=6080ad0c-005f-4214-98b8-969e3b701ab3","ios":"levelo://app?vid=6080ad0c-005f-4214-98b8-969e3b701ab3"},"vehicle_type_id":"4","last_reported":1716757633,"current_range_meters":26000,"station_id":"ce4bh092rcd13ifvqd30","pricing_plan_id":"cebpf4jnsgd1na2vs0mg"},{"bike_id":"82d5a059-f0d6-4d88-bfd3-72591044fdd0","system_id":"levelo_inurba_marseille","lat":43.30941,"lon":5.40139,"is_reserved":false,"is_disabled":false,"rental_uris":{"android":"levelo://app?vid=82d5a059-f0d6-4d88-bfd3-72591044fdd0","ios":"levelo://app?vid=82d5a059-f0d6-4d88-bfd3-72591044fdd0"},"vehicle_type_id":"4","last_reported":1716757633,"current_range_meters":0,"station_id":"ce4bgvp2rcd13ifvqct0","pricing_plan_id":"cebpf4jnsgd1na2vs0mg"},{"bike_id":"0c8a9ce6-d786-408d-ac1f-c8361fde3727","system_id":"levelo_inurba_marseille","lat":43.31273,"lon":5.4017,"is_reserved":false,"is_disabled":false,"rental_uris":{"android":"levelo://app?vid=0c8a9ce6-d786-408d-ac1f-c8361fde3727","ios":"levelo://app?vid=0c8a9ce6-d786-408d-ac1f-c8361fde3727"},"vehicle_type_id":"4","last_reported":1716757633,"current_range_meters":31200,"station_id":"ce4bh092rcd13ifvqd30","pricing_plan_id":"cebpf4jnsgd1na2vs0mg"},{"bike_id":"195ed7ba-1134-43be-898e-3cf1ca11991b","system_id":"levelo_inurba_marseille","lat":43.30917,"lon":5.40137,"is_reserved":false,"is_disabled":false,"rental_uris":{"android":"levelo://app?vid=195ed7ba-1134-43be-898e-3cf1ca11991b","ios":"levelo://app?vid=195ed7ba-1134-43be-898e-3cf1ca11991b"},"vehicle_type_id":"4","last_reported":1716757633,"current_range_meters":8000,"station_id":"ce4bgvp2rcd13ifvqct0","pricing_plan_id":"cebpf4jnsgd1na2vs0mg"},{"bike_id":"4e630300-0db7-4aa4-b051-9baeed88ca8f","system_id":"levelo_inurba_marseille","lat":43.312609,"lon":5.401662,"is_reserved":false,"is_disabled":false,"rental_uris":{"android":"levelo://app?vid=4e630300-0db7-4aa4-b051-9baeed88ca8f","ios":"levelo://app?vid=4e630300-0db7-4aa4-b051-9baeed88ca8f"},"vehicle_type_id":"4","last_reported":1716757633,"current_range_meters":9600,"station_id":"ce4bh092rcd13ifvqd30","pricing_plan_id":"cebpf4jnsgd1na2vs0mg"},{"bike_id":"d2585be0-2952-4087-96b7-a09779f32f42","system_id":"levelo_inurba_marseille","lat":43.312609,"lon":5.401662,"is_reserved":false,"is_disabled":false,"rental_uris":{"android":"levelo://app?vid=d2585be0-2952-4087-96b7-a09779f32f42","ios":"levelo://app?vid=d2585be0-2952-4087-96b7-a09779f32f42"},"vehicle_type_id":"4","last_reported":1716757633,"current_range_meters":0,"station_id":"ce4bh092rcd13ifvqd30","pricing_plan_id":"cebpf4jnsgd1na2vs0mg"},{"bike_id":"ff5ebbf6-4a30-4669-80df-7fdce98fa9a5","system_id":"levelo_inurba_marseille","lat":43.312609,"lon":5.401662,"is_reserved":false,"is_disabled":false,"rental_uris":{"android":"levelo://app?vid=ff5ebbf6-4a30-4669-80df-7fdce98fa9a5","ios":"levelo://app?vid=ff5ebbf6-4a30-4669-80df-7fdce98fa9a5"},"vehicle_type_id":"4","last_reported":1716757633,"current_range_meters":31200,"station_id":"ce4bh092rcd13ifvqd30","pricing_plan_id":"cebpf4jnsgd1na2vs0mg"},{"bike_id":"601bc00c-e621-43da-bdd8-a8ed12d647c4","system_id":"levelo_inurba_marseille","lat":43.312609,"lon":5.401662,"is_reserved":false,"is_disabled":false,"rental_uris":{"android":"levelo://app?vid=601bc00c-e621-43da-bdd8-a8ed12d647c4","ios":"levelo://app?vid=601bc00c-e621-43da-bdd8-a8ed12d647c4"},"vehicle_type_id":"4","last_reported":1716757633,"current_range_meters":4000,"station_id":"ce4bh092rcd13ifvqd30","pricing_plan_id":"cebpf4jnsgd1na2vs0mg"},{"bike_id":"5e08015a-b315-49d5-b067-121fc243166b","system_id":"levelo_inurba_marseille","lat":43.33752,"lon":5.37436,"is_reserved":false,"is_disabled":false,"rental_uris":{"android":"levelo://app?vid=5e08015a-b315-49d5-b067-121fc243166b","ios":"levelo://app?vid=5e08015a-b315-49d5-b067-121fc243166b"},"vehicle_type_id":"4","last_reported":1716757633,"current_range_meters":14400,"station_id":"","pricing_plan_id":"cebpf4jnsgd1na2vs0mg"},