{"last_updated":1753017812,"ttl":60,"version":"2.2","data":{"bikes":[{"bike_id":"53b742a7-31ae-4272-9bba-7740339e2a2f","system_id":"levelo_inurba_marseille","lat":43.33747,"lon":5.37463,"is_reserved":false,"is_disabled":false,"rental_uris":{"android":"levelo://app?vid=53b742a7-31ae-4272-9bba-7740339e2a2f","ios":"levelo://app?vid=53b742a7-31ae-4272-9bba-7740339e2a2f"},"vehicle_type_id":"1","last_reported":1753017812,"current_range_meters":10800,"station_id":"","pricing_plan_id":"cebpf4jnsgd1na2vs0mg"},{"bike_id":"2a5a4953-8be4-48a7-ba82-69987f97e58d","system_id":"levelo_inurba_marseille","lat":43.29612,"lon":5.37724,"is_reserved":false,"is_disabled":false,"rental_uris":{"android":"levelo://app?vid=2a5a4953-8be4-48a7-ba82-69987f97e58d","ios":"levelo://app?vid=2a5a4953-8be4-48a7-ba82-69987f97e58d"},"vehicle_type_id":"4","last_reported":1753017812,"current_range_meters":2800,"station_id":"ce4bgi92rcd13ifvqb90","pricing_plan_id":"cebpf4jnsgd1na2vs0mg"},{"bike_id":"31b5aeb1-cb4d-4e04-a667-58080f70a32f","system_id":"levelo_inurba_marseille","lat":43.23158,"lon":5.43714,"is_reserved":false,"is_disabled":false,"rental_uris":{"android":"levelo://app?vid=31b5aeb1-cb4d-4e04-a667-58080f70a32f","ios":"levelo://app?vid=31b5aeb1-cb4d-4e04-a667-58080f70a32f"},"vehicle_type_id":"4","last_reported":1753017812,"current_range_meters":2800,"station_id":"ce4bhmp2rcd13ifvqgog","pricing_plan_id":"cebpf4jnsgd1na2vs0mg"},{"bike_id":"724bee1c-b995-451c-b4e6-4e3ea62d2a78","system_id":"levelo_inurba_marseille","lat":43.28095,"lon":5.35185,"is_reserved":false,"is_disabled":false,"rental_uris":{"android":"levelo://app?vid=724bee1c-b995-451c-b4e6-4e3ea62d2a78","ios":"levelo://app?vid=724bee1c-b995-451c-b4e6-4e3ea62d2a78"},"vehicle_type_id":"4","last_reported":1753017812,"current_range_meters":2800,"station_id":"","pricing_plan_id":"cebpf4jnsgd1na2vs0mg"},{"bike_id":"47d8d209-e0bc-489a-a37c-f1fc76c12609","system_id":"levelo_inurba_marseille","lat":43.225038,"lon":5.347803,"is_reserved":false,"is_disabled":false,"rental_uris":{"android":"levelo://app?vid=47d8d209-e0bc-489a-a37c-f1fc76c12609","ios":"levelo://app?vid=47d8d209-e0bc-489a-a37c-f1fc76c12609"},"vehicle_type_id":"4","last_reported":1753017812,"current_range_meters":2800,"station_id":"st_cvj5dfep6f1abm77gieg","pricing_plan_id":"cebpf4jnsgd1na2vs0mg"},{"bike_id":"47ae4e62-5b00-414e-b57a-8d51921a0c7f","system_id":"levelo_inurba_marseille","lat":43.32534,"lon":5.41433,"is_reserved":false,"is_disabled":false,"rental_uris":{"android":"levelo://app?vid=47ae4e62-5b00-414e-b57a-8d51921a0c7f","ios":"levelo://app?vid=47ae4e62-5b00-414e-b57a-8d51921a0c7f"},"vehicle_type_id":"4","last_reported":1753017812,"current_range_meters":1600,"station_id":"ce4bhq12rcd13ifvqhhg","pricing_plan_id":"cebpf4jnsgd1na2vs0mg"},{"bike_id":"ce7bd25b-5213-4881-a28b-f582e6a1d712","system_id":"levelo_inurba_marseille","lat":43.31384,"lon":5.36702,"is_reserved":false,"is_disabled":true,"rental_uris":{"android":"levelo://app?vid=ce7bd25b-5213-4881-a28b-f582e6a1d712","ios":"levelo://app?vid=ce7bd25b-5213-4881-a28b-f582e6a1d712"},"vehicle_type_id":"4","last_reported":1753017812,"current_range_meters":3200,"station_id":"","pricing_plan_id":"cebpf4jnsgd1na2vs0mg"},{"bike_id":"8a8de0eb-d172-4378-9552-544c6cc04c48","system_id":"levelo_inurba_marseille","lat":43.24519,"lon":5.36938,"is_reserved":false,"is_disabled":false,"rental_uris":{"android":"levelo://app?vid=8a8de0eb-d172-4378-9552-544c6cc04c48","ios":"levelo://app?vid=8a8de0eb-d172-4378-9552-544c6cc04c48"},"vehicle_type_id":"4","last_reported":1753017812,"current_range_meters":3200,"station_id":"","pricing_plan_id":"cebpf4jnsgd1na2vs0mg"},{"bike_id":"06ec3f94-a759-47ce-9ae6-58ca81d42622","system_id":"levelo_inurba_marseille","lat":43.26224,"lon":5.40453,"is_reserved":false,"is_disabled":false,"rental_uris":{"android":"levelo://app?vid=06ec3f94-a759-47ce-9ae6-58ca81d42622","ios":"levelo://app?vid=06ec3f94-a759-47ce-9ae6-58ca81d42622"},"vehicle_type_id":"4","last_reported":1753017812,"current_range_meters":3600,"station_id":"ce4bhmh2rcd13ifvqgmg","pricing_plan_id":"cebpf4jnsgd1na2vs0mg"},{"bike_id":"8b13ba0a-442c-4cdf-84d5-3a8a586dcfa9","system_id":"levelo_inurba_marseille","lat":43.2803,"lon":5.36957,"is_reserved":false,"is_disabled":false,"rental_uris":{"android":"levelo://app?vid=8b13ba0a-442c-4cdf-84d5-3a8a586dcfa9","ios":"levelo://app?vid=8b13ba0a-442c-4cdf-84d5-3a8a586dcfa9"},"vehicle_type_id":"4","last_reported":1753017812,"current_range_meters":3600,"station_id":"ce4bha12rcd13ifvqef0","pricing_plan_id":"cebpf4jnsgd1na2vs0mg"},{"bike_id":"2e5af82c-b7ab-465d-aba3-1e4befb17b75","system_id":"levelo_inurba_marseille","lat":43.28004,"lon":5.40011,"is_reserved":false,"is_disabled":false,"rental_uris":{"android":"levelo://app?vid=2e5af82c-b7ab-465d-aba3-1e4befb17b75","ios":"levelo://app?vid=2e5af82c-b7ab-465d-aba3-1e4befb17b75"},"vehicle_type_id":"4","last_reported":1753017812,"current_range_meters":4000,"station_id":"ce4bho92rcd13ifvqh4g","pricing_plan_id":"cebpf4jnsgd1na2vs0mg"},{"bike_id":"dc367b73-836a-48ad-b63b-79b661871934","system_id":"levelo_inurba_marseille","lat":43.29058,"lon":5.37177,"is_reserved":false,"is_disabled":false,"rental_uris":{"android":"levelo://app?vid=dc367b73-836a-48ad-b63b-79b661871934","ios":"levelo://app?vid=dc367b73-836a-48ad-b63b-79b661871934"},"vehicle_type_id":"4","last_reported":1753017812,"current_range_meters":3600,"station_id":"ce4bh5p2rcd13ifvqe4g","pricing_plan_id":"cebpf4jnsgd1na2vs0mg"},{"bike_id":"c6db0f6a-96fe-4e1d-8ded-c2ef38c9bab4","system_id":"levelo_inurba_marseille","lat":43.305688,"lon":5.418387,"is_reserved":false,"is_disabled":true,"rental_uris":{"android":"levelo://app?vid=c6db0f6a-96fe-4e1d-8ded-c2ef38c9bab4","ios":"levelo://app?vid=c6db0f6a-96fe-4e1d-8ded-c2ef38c9bab4"},"vehicle_type_id":"4","last_reported":1753017812,"current_range_meters":4800,"station_id":"ce4bht12rcd13ifvqi60","pricing_plan_id":"cebpf4jnsgd1na2vs0mg"},{"bike_id":"2e532954-91d6-45d0-820d-bd93ef877e83","system_id":"levelo_inurba_marseille","lat":43.303243,"lon":5.394574,"is_reserved":false,"is_disabled":true,"rental_uris":{"android":"levelo://app?vid=2e532954-91d6-45d0-820d-bd93ef877e83","ios":"levelo://app?vid=2e532954-91d6-45d0-820d-bd93ef877e83"},"vehicle_type_id":"4","last_reported":1753017812,"current_range_meters":4800,"station_id":"","pricing_plan_id":"cebpf4jnsgd1na2vs0mg"},{"bike_id":"f7048d73-883b-43ca-9bca-39b9d71b6096","system_id":"levelo_inurba_marseille","lat":43.23056,"lon":5.35489,"is_reserved":false,"is_disabled":false,"rental_uris":{"android":"levelo://app?vid=f7048d73-883b-43ca-9bca-39b9d71b6096","ios":"levelo://app?vid=f7048d73-883b-43ca-9bca-39b9d71b6096"},"vehicle_type_id":"4","last_reported":1753017812,"current_range_meters":4800,"station_id":"cpo3342slgdg3j2ifvpg","pricing_plan_id":"cebpf4jnsgd1na2vs0mg"},{"bike_id":"5bd48eb5-cae9-453d-93b7-4c75c0735268","system_id":"levelo_inurba_marseille","lat":43.262024,"lon":5.379265,"is_reserved":false,"is_disabled":false,"rental_uris":{"android":"levelo://app?vid=5bd48eb5-cae9-453d-93b7-4c75c0735268","ios":"levelo://app?vid=5bd48eb5-cae9-453d-93b7-4c75c0735268"},"vehicle_type_id":"4","last_reported":1753017812,"current_range_meters":6000,"station_id":"ce4bhjp2rcd13ifvqg90","pricing_plan_id":"cebpf4jnsgd1na2vs0mg"},{"bike_id":"793037d8-aa88-4b76-a718-cd1ada0599ae","system_id":"levelo_inurba_marseille","lat":43.3042,"lon":5.38885,"is_reserved":false,"is_disabled":false,"rental_uris":{"android":"levelo://app?vid=793037d8-aa88-4b76-a718-cd1ada0599ae","ios":"levelo://app?vid=793037d8-aa88-4b76-a718-cd1ada0599ae"},"vehicle_type_id":"4","last_reported":1753017812,"current_range_meters":6400,"station_id":"ce4bgk12rcd13ifvqbi0","pricing_plan_id":"cebpf4jnsgd1na2vs0mg"},{"bike_id":"d37eb0e8-3ac9-4f9c-a4e6-6abbbd281df6","system_id":"levelo_inurba_marseille","lat":43.27912,"lon":5.39581,"is_reserved":false,"is_disabled":false,"rental_uris":{"android":"levelo://app?vid=d37eb0e8-3ac9-4f9c-a4e6-6abbbd281df6","ios":"levelo://app?vid=d37eb0e8-3ac9-4f9c-a4e6-6abbbd281df6"},"vehicle_type_id":"4","last_reported":1753017812,"current_range_meters":6800,"station_id":"ce4bhf92rcd13ifvqf40","pricing_plan_id":"cebpf4jnsgd1na2vs0mg"},{"bike_id":"2d5426b7-c5ef-4761-9a4a-28e19dac621a","system_id":"levelo_inurba_marseille","lat":43.304198,"lon":5.412785,"is_reserved":false,"is_disabled":true,"rental_uris":{"android":"levelo://app?vid=2d5426b7-c5ef-4761-9a4a-28e19dac621a","ios":"levelo://app?vid=2d5426b7-c5ef-4761-9a4a-28e19dac621a"},"vehicle_type_id":"4","last_reported":1753017812,"current_range_meters":6800,"station_id":"ce4bhop2rcd13ifvqh8g","pricing_plan_id":"cebpf4jnsgd1na2vs0mg"},{"bike_id":"6f18ab1b-0c74-47b1-bed8-837677176207","system_id":"levelo_inurba_marseille","lat":43.32033,"lon":5.40937,"is_reserved":false,"is_disabled":true,"rental_uris":{"android":"levelo://app?vid=6f18ab1b-0c74-47b1-bed8-837677176207","ios":"levelo://app?vid=6f18ab1b-0c74-47b1-bed8-837677176207"},"vehicle_type_id":"4","last_reported":1753017812,"current_range_meters":6800,"station_id":"","pricing_plan_id":"cebpf4jnsgd1na2vs0mg"},{"bike_id":"cee1bdf2-c0fc-42fd-8449-3b7f09085b05","system_id":"levelo_inurba_marseille","lat":43.28697,"lon":5.39979,"is_reserved":false,"is_disabled":false,"rental_uris":{"android":"levelo://app?vid=cee1bdf2-c0fc-42fd-8449-3b7f09085b05","ios":"levelo://app?vid=cee1bdf2-c0fc-42fd-8449-3b7f09085b05"},"vehicle_type_id":"4","last_reported":1753017812,"current_range_meters":4400,"station_id":"ce4bho92rcd13ifvqh3g","pricing_plan_id":"cebpf4jnsgd1na2vs0mg"},{"bike_id":"11a43a3e-2d75-4df3-ba59-43e1875d5f3e","system_id":"levelo_inurba_marseille","lat":43.24152,"lon":5.36397,"is_reserved":false,"is_disabled":true,"rental_uris":{"android":"levelo://app?vid=11a43a3e-2d75-4df3-ba59-43e1875d5f3e","ios":"levelo://app?vid=11a43a3e-2d75-4df3-ba59-43e1875d5f3e"},"vehicle_type_id":"4","last_reported":1753017812,"current_range_meters":7200,"station_id":"cpo36qri1sfpv3e86is0","pricing_plan_id":"cebpf4jnsgd1na2vs0mg"},{"bike_id":"475b9799-8c28-49d7-a2bd-b989a871d401","system_id":"levelo_inurba_marseille","lat":43.240742,"lon":5.377536,"is_reserved":false,"is_disabled":true,"rental_uris":{"android":"levelo://app?vid=475b9799-8c28-49d7-a2bd-b989a871d401","ios":"levelo://app?vid=475b9799-8c28-49d7-a2bd-b989a871d401"},"vehicle_type_id":"4","last_reported":1753017812,"current_range_meters":8000,"station_id":"ce4bhnp2rcd13ifvqgvg","pricing_plan_id":"cebpf4jnsgd1na2vs0mg"},{"bike_id":"8d590dba-9871-4ea4-bf5c-7a0545a88075","system_id":"levelo_inurba_marseille","lat":43.25919,"lon":5.40896,"is_reserved":false,"is_disabled":false,"rental_uris":{"android":"levelo://app?vid=8d590dba-9871-4ea4-bf5c-7a0545a88075","ios":"levelo://app?vid=8d590dba-9871-4ea4-bf5c-7a0545a88075"},"vehicle_type_id":"4","last_reported":1753017812,"current_range_meters":8000,"station_id":"ce4bhm92rcd13ifvqglg","pricing_plan_id":"cebpf4jnsgd1na2vs0mg"},{"bike_id":"34ac88ba-bea0-4d56-89d2-8355a240c4c6","system_id":"levelo_inurba_marseille","lat":43.28455,"lon":5.35889,"is_reserved":false,"is_disabled":false,"rental_uris":{"android":"levelo://app?vid=34ac88ba-bea0-4d56-89d2-8355a240c4c6","ios":"levelo://app?vid=34ac88ba-bea0-4d56-89d2-8355a240c4c6"},"vehicle_type_id":"4","last_reported":1753017812,"current_range_meters":6000,"station_id":"ce4bhah2rcd13ifvqei0","pricing_plan_id":"cebpf4jnsgd1na2vs0mg"},{"bike_id":"4b0ce299-727c-48ce-b95a-b67cdf638733","system_id":"levelo_inurba_marseille","lat":43.22936,"lon":5.35369,"is_reserved":false,"is_disabled":false,"rental_uris":{"android":"levelo://app?vid=4b0ce299-727c-48ce-b95a-b67cdf638733","ios":"levelo://app?vid=4b0ce299-727c-48ce-b95a-b67cdf638733"},"vehicle_type_id":"4","last_reported":1753017812,"current_range_meters":8400,"station_id":"cpo3532slgdg3j2ikp40","pricing_plan_id":"cebpf4jnsgd1na2vs0mg"},{"bike_id":"1cd3edb0-7784-459e-8e7c-5eb4828a981b","system_id":"levelo_inurba_marseille","lat":43.25099,"lon":5.40348,"is_reserved":false,"is_disabled":false,"rental_uris":{"android":"levelo://app?vid=1cd3edb0-7784-459e-8e7c-5eb4828a981b","ios":"levelo://app?vid=1cd3edb0-7784-459e-8e7c-5eb4828a981b"},"vehicle_type_id":"4","last_reported":1753017812,"current_range_meters":8400,"station_id":"ce4bhlh2rcd13ifvqgig","pricing_plan_id":"cebpf4jnsgd1na2vs0mg"},{"bike_id":"d9be5359-7b85-4bf3-b5e0-4aeb1baec441","system_id":"levelo_inurba_marseille","lat":43.259335,"lon":5.409121,"is_reserved":false,"is_disabled":false,"rental_uris":{"android":"levelo://app?vid=d9be5359-7b85-4bf3-b5e0-4aeb1baec441","ios":"levelo://app?vid=d9be5359-7b85-4bf3-b5e0-4aeb1baec441"},"vehicle_type_id":"4","last_reported":1753017812,"current_range_meters":8400,"station_id":"ce4bhm92rcd13ifvqglg","pricing_plan_id":"cebpf4jnsgd1na2vs0mg"},{"bike_id":"2e72e733-3294-4ed1-8d5f-50ac0532b0a4","system_id":"levelo_inurba_marseille","lat":43.2418,"lon":5.39722,"is_reserved":false,"is_disabled":false,"rental_uris":{"android":"levelo://app?vid=2e72e733-3294-4ed1-8d5f-50ac0532b0a4","ios":"levelo://app?vid=2e72e733-3294-4ed1-8d5f-50ac0532b0a4"},"vehicle_type_id":"4","last_reported":1753017812,"current_range_meters":8400,"station_id":"ce4bhn12rcd13ifvqgpg","pricing_plan_id":"cebpf4jnsgd1na2vs0mg"},{"bike_id":"73b40126-87bf-4b32-b785-077a6cc43f78","system_id":"levelo_inurba_marseille","lat":43.24805,"lon":5.37455,"is_reserved":false,"is_disabled":false,"rental_uris":{"android":"levelo://app?vid=73b40126-87bf-4b32-b785-077a6cc43f78","ios":"levelo://app?vid=73b40126-87bf-4b32-b785-077a6cc43f78"},"vehicle_type_id":"4","last_reported":1753017812,"current_range_meters":8400,"station_id":"ce4bhgh2rcd13ifvqfb0","pricing_plan_id":"cebpf4jnsgd1na2vs0mg"},{"bike_id":"87f042d1-1991-4c37-8b74-bfd2e74a8cd9","system_id":"levelo_inurba_marseille","lat":43.3073,"lon":5.42453,"is_reserved":false,"is_disabled":false,"rental_uris":{"android":"levelo://app?vid=87f042d1-1991-4c37-8b74-bfd2e74a8cd9","ios":"levelo://app?vid=87f042d1-1991-4c37-8b74-bfd2e74a8cd9"},"vehicle_type_id":"4","last_reported":1753017812,"current_range_meters":8800,"station_id":"st_cvj6ca6bvosntc0bfgr0","pricing_plan_id":"cebpf4jnsgd1na2vs0mg"},{"bike_id":"921e1075-b74e-448d-871b-3114e0248b84","system_id":"levelo_inurba_marseille","lat":43.24391,"lon":5.37058,"is_reserved":false,"is_disabled":false,"rental_uris":{"android":"levelo://app?vid=921e1075-b74e-448d-871b-3114e0248b84","ios":"levelo://app?vid=921e1075-b74e-448d-871b-3114e0248b84"},"vehicle_type_id":"4","last_reported":1753017812,"current_range_meters":8800,"station_id":"ce4bhhh2rcd13ifvqfk0","pricing_plan_id":"cebpf4jnsgd1na2vs0mg"},{"bike_id":"3ac58e00-a732-4e73-9c6d-06898292b15d","system_id":"levelo_inurba_marseille","lat":43.22932,"lon":5.35384,"is_reserved":false,"is_disabled":false,"rental_uris":{"android":"levelo://app?vid=3ac58e00-a732-4e73-9c6d-06898292b15d","ios":"levelo://app?vid=3ac58e00-a732-4e73-9c6d-06898292b15d"},"vehicle_type_id":"4","last_reported":1753017812,"current_range_meters":8800,"station_id":"cpo3532slgdg3j2ikp40","pricing_plan_id":"cebpf4jnsgd1na2vs0mg"},{"bike_id":"94c07cb2-0943-4d24-99f2-97bdab47aa3f","system_id":"levelo_inurba_marseille","lat":43.337444,"lon":5.374475,"is_reserved":false,"is_disabled":false,"rental_uris":{"android":"levelo://app?vid=94c07cb2-0943-4d24-99f2-97bdab47aa3f","ios":"levelo://app?vid=94c07cb2-0943-4d24-99f2-97bdab47aa3f"},"vehicle_type_id":"4","last_reported":1753017812,"current_range_meters":8800,"station_id":"","pricing_plan_id":"cebpf4jnsgd1na2vs0mg"},{"bike_id":"e1da819b-9d02-4cda-816c-2eed98a6ce76","system_id":"levelo_inurba_marseille","lat":43.30146,"lon":5.38087,"is_reserved":false,"is_disabled":false,"rental_uris":{"android":"levelo://app?vid=e1da819b-9d02-4cda-816c-2eed98a6ce76","ios":"levelo://app?vid=e1da819b-9d02-4cda-816c-2eed98a6ce76"},"vehicle_type_id":"4","last_reported":1753017812,"current_range_meters":9200,"station_id":"ce4bgjp2rcd13ifvqbh0","pricing_plan_id":"cebpf4jnsgd1na2vs0mg"},{"bike_id":"a46637e6-4efa-4953-86db-e63632523bfd","system_id":"levelo_inurba_marseille","lat":43.29868,"lon":5.39734,"is_reserved":false,"is_disabled":false,"rental_uris":{"android":"levelo://app?vid=a46637e6-4efa-4953-86db-e63632523bfd","ios":"levelo://app?vid=a46637e6-4efa-4953-86db-e63632523bfd"},"vehicle_type_id":"4","last_reported":1753017812,"current_range_meters":9200,"station_id":"","pricing_plan_id":"cebpf4jnsgd1na2vs0mg"},{"bike_id":"6b7d5abe-36dc-4925-b2e1-2676544cb7a8","system_id":"levelo_inurba_marseille","lat":43.31227,"lon":5.36865,"is_reserved":false,"is_disabled":false,"rental_uris":{"android":"levelo://app?vid=6b7d5abe-36dc-4925-b2e1-2676544cb7a8","ios":"levelo://app?vid=6b7d5abe-36dc-4925-b2e1-2676544cb7a8"},"vehicle_type_id":"4","last_reported":1753017812,"current_range_meters":9200,"station_id":"ce4bgl92rcd13ifvqbq0","pricing_plan_id":"cebpf4jnsgd1na2vs0mg"},{"bike_id":"d1e9c72e-7489-4052-b944-813b64bc55b4","system_id":"levelo_inurba_marseille","lat":43.31585,"lon":5.38951,"is_reserved":false,"is_disabled":false,"rental_uris":{"android":"levelo://app?vid=d1e9c72e-7489-4052-b944-813b64bc55b4","ios":"levelo://app?vid=d1e9c72e-7489-4052-b944-813b64bc55b4"},"vehicle_type_id":"4","last_reported":1753017812,"current_range_meters":9200,"station_id":"","pricing_plan_id":"cebpf4jnsgd1na2vs0mg"},{"bike_id":"cb3df2f2-7c3c-405a-a192-8ef2942aa90c","system_id":"levelo_inurba_marseille","lat":43.31353,"lon":5.3849,"is_reserved":false,"is_disabled":false,"rental_uris":{"android":"levelo://app?vid=cb3df2f2-7c3c-405a-a192-8ef2942aa90c","ios":"levelo://app?vid=cb3df2f2-7c3c-405a-a192-8ef2942aa90c"},"vehicle_type_id":"4","last_reported":1753017812,"current_range_meters":11600,"station_id":"ce4bgt92rcd13ifvqcf0","pricing_plan_id":"cebpf4jnsgd1na2vs0mg"},{"bike_id":"d6b5d1aa-9d74-4eed-bc94-d485b908f7a5","system_id":"levelo_inurba_marseille","lat":43.231983,"lon":5.355655,"is_reserved":false,"is_disabled":false,"rental_uris":{"android":"levelo://app?vid=d6b5d1aa-9d74-4eed-bc94-d485b908f7a5","ios":"levelo://app?vid=d6b5d1aa-9d74-4eed-bc94-d485b908f7a5"},"vehicle_type_id":"4","last_reported":1753017812,"current_range_meters":9200,"station_id":"ce4bhu92rcd13ifvqi70","pricing_plan_id":"cebpf4jnsgd1na2vs0mg"},{"bike_id":"1424b53b-d247-4206-b7f3-5bade5476e4e","system_id":"levelo_inurba_marseille","lat":43.23062,"lon":5.35488,"is_reserved":false,"is_disabled":false,"rental_uris":{"android":"levelo://app?vid=1424b53b-d247-4206-b7f3-5bade5476e4e","ios":"levelo://app?vid=1424b53b-d247-4206-b7f3-5bade5476e4e"},"vehicle_type_id":"4","last_reported":1753017812,"current_range_meters":9600,"station_id":"cpo3342slgdg3j2ifvpg","pricing_plan_id":"cebpf4jnsgd1na2vs0mg"},{"bike_id":"3cd6121c-89f7-43ba-b6f3-7e272103adbf","system_id":"levelo_inurba_marseille","lat":43.30418,"lon":5.39743,"is_reserved":false,"is_disabled":false,"rental_uris":{"android":"levelo://app?vid=3cd6121c-89f7-43ba-b6f3-7e272103adbf","ios":"levelo://app?vid=3cd6121c-89f7-43ba-b6f3-7e272103adbf"},"vehicle_type_id":"4","last_reported":1753017812,"current_range_meters":9200,"station_id":"ce4bh092rcd13ifvqd20","pricing_plan_id":"cebpf4jnsgd1na2vs0mg"},{"bike_id":"dbe3f53f-5cf1-428e-b135-1e976ecdd9e1","system_id":"levelo_inurba_marseille","lat":43.229295,"lon":5.353761,"is_reserved":false,"is_disabled":true,"rental_uris":{"android":"levelo://app?vid=dbe3f53f-5cf1-428e-b135-1e976ecdd9e1","ios":"levelo://app?vid=dbe3f53f-5cf1-428e-b135-1e976ecdd9e1"},"vehicle_type_id":"4","last_reported":1753017812,"current_range_meters":9600,"station_id":"","pricing_plan_id":"cebpf4jnsgd1na2vs0mg"},{"bike_id":"d1da6ee0-eaa4-40b2-9038-22f49793cc09","system_id":"levelo_inurba_marseille","lat":43.2841,"lon":5.34991,"is_reserved":false,"is_disabled":false,"rental_uris":{"android":"levelo://app?vid=d1da6ee0-eaa4-40b2-9038-22f49793cc09","ios":"levelo://app?vid=d1da6ee0-eaa4-40b2-9038-22f49793cc09"},"vehicle_type_id":"4","last_reported":1753017812,"current_range_meters":9600,"station_id":"ce4bhbh2rcd13ifvqepg","pricing_plan_id":"cebpf4jnsgd1na2vs0mg"},{"bike_id":"0a57ef71-9bd0-42a8-b744-57c4fa7ab41a","system_id":"levelo_inurba_marseille","lat":43.2826,"lon":5.35083,"is_reserved":false,"is_disabled":false,"rental_uris":{"android":"levelo://app?vid=0a57ef71-9bd0-42a8-b744-57c4fa7ab41a","ios":"levelo://app?vid=0a57ef71-9bd0-42a8-b744-57c4fa7ab41a"},"vehicle_type_id":"4","last_reported":1753017812,"current_range_meters":10000,"station_id":"ce4bhbp2rcd13ifvqerg","pricing_plan_id":"cebpf4jnsgd1na2vs0mg"},{"bike_id":"3b582b35-a7ec-4a52-8bc1-78a891ffeb27","system_id":"levelo_inurba_marseille","lat":43.23964,"lon":5.3663,"is_reserved":false,"is_disabled":false,"rental_uris":{"android":"levelo://app?vid=3b582b35-a7ec-4a52-8bc1-78a891ffeb27","ios":"levelo://app?vid=3b582b35-a7ec-4a52-8bc1-78a891ffeb27"},"vehicle_type_id":"4","last_reported":1753017812,"current_range_meters":10000,"station_id":"ce4bhi12rcd13ifvqfp0","pricing_plan_id":"cebpf4jnsgd1na2vs0mg"},{"bike_id":"0fd02cf6-67fb-4589-807f-241dd50b7e1a","system_id":"levelo_inurba_marseille","lat":43.29925,"lon":5.43666,"is_reserved":false,"is_disabled":true,"rental_uris":{"android":"levelo://app?vid=0fd02cf6-67fb-4589-807f-241dd50b7e1a","ios":"levelo://app?vid=0fd02cf6-67fb-4589-807f-241dd50b7e1a"},"vehicle_type_id":"4","last_reported":1753017812,"current_range_meters":10000,"station_id":"ce4bhpp2rcd13ifvqhfg","pricing_plan_id":"cebpf4jnsgd1na2vs0mg"},{"bike_id":"83003d7a-2b93-48dd-9191-4b707452642e","system_id":"levelo_inurba_marseille","lat":43.21794,"lon":5.34583,"is_reserved":false,"is_disabled":false,"rental_uris":{"android":"levelo://app?vid=83003d7a-2b93-48dd-9191-4b707452642e","ios":"levelo://app?vid=83003d7a-2b93-48dd-9191-4b707452642e"},"vehicle_type_id":"4","last_reported":1753017812,"current_range_meters":10000,"station_id":"","pricing_plan_id":"cebpf4jnsgd1na2vs0mg"},{"bike_id":"6e128726-6a44-4c4a-a231-35d03c82a2d3","system_id":"levelo_inurba_marseille","lat":43.28242,"lon":5.35094,"is_reserved":false,"is_disabled":false,"rental_uris":{"android":"levelo://app?vid=6e128726-6a44-4c4a-a231-35d03c82a2d3","ios":"levelo://app?vid=6e128726-6a44-4c4a-a231-35d03c82a2d3"},"vehicle_type_id":"4","last_reported":1753017812,"current_range_meters":10000,"station_id":"ce4bhbp2rcd13ifvqerg","pricing_plan_id":"cebpf4jnsgd1na2vs0mg"},{"bike_id":"93301aca-c2c0-493e-a567-7195bb3fc61b","system_id":"levelo_inurba_marseille","lat":43.28268,"lon":5.35071,"is_reserved":false,"is_disabled":true,"rental_uris":{"android":"levelo://app?vid=93301aca-c2c0-493e-a567-7195bb3fc61b","ios":"levelo://app?vid=93301aca-c2c0-493e-a567-7195bb3fc61b"},"vehicle_type_id":"4","last_reported":1753017812,"current_range_meters":10000,"station_id":"ce4bhbp2rcd13ifvqerg","pricing_plan_id":"cebpf4jnsgd1na2vs0mg"},{"bike_id":"dc661d1a-9167-481b-b3f7-d5336e2b83e4","system_id":"levelo_inurba_marseille","lat":43.30529,"lon":5.36557,"is_reserved":false,"is_disabled":false,"rental_uris":{"android":"levelo://app?vid=dc661d1a-9167-481b-b3f7-d5336e2b83e4","ios":"levelo://app?vid=dc661d1a-9167-481b-b3f7-d5336e2b83e4"},"vehicle_type_id":"4","last_reported":1753017812,"current_range_meters":10000,"station_id":"ce4bgs12rcd13ifvqcag","pricing_plan_id":"cebpf4jnsgd1na2vs0mg"},{"bike_id":"e1a27484-d933-49a5-adb5-ce1233dc02e0","system_id":"levelo_inurba_marseille","lat":43.24173,"lon":5.39715,"is_reserved":false,"is_disabled":false,"rental_uris":{"android":"levelo://app?vid=e1a27484-d933-49a5-adb5-ce1233dc02e0","ios":"levelo://app?vid=e1a27484-d933-49a5-adb5-ce1233dc02e0"},"vehicle_type_id":"4","last_reported":1753017812,"current_range_meters":10800,"station_id":"ce4bhn12rcd13ifvqgpg","pricing_plan_id":"cebpf4jnsgd1na2vs0mg"},{"bike_id":"c74bdcb0-da50-4bb0-aecd-cea4f190258e","system_id":"levelo_inurba_marseille","lat":43.28257,"lon":5.35064,"is_reserved":false,"is_disabled":false,"rental_uris":{"android":"levelo://app?vid=c74bdcb0-da50-4bb0-aecd-cea4f190258e","ios":"levelo://app?vid=c74bdcb0-da50-4bb0-aecd-cea4f190258e"},"vehicle_type_id":"4","last_reported":1753017812,"current_range_meters":10800,"station_id":"ce4bhbp2rcd13ifvqerg","pricing_plan_id":"cebpf4jnsgd1na2vs0mg"},{"bike_id":"cf9f7b6f-b252-45aa-bd41-e7b8a5947e88","system_id":"levelo_inurba_marseille","lat":43.26954,"lon":5.4025,"is_reserved":false,"is_disabled":true,"rental_uris":{"android":"levelo://app?vid=cf9f7b6f-b252-45aa-bd41-e7b8a5947e88","ios":"levelo://app?vid=cf9f7b6f-b252-45aa-bd41-e7b8a5947e88"},"vehicle_type_id":"4","last_reported":1753017812,"current_range_meters":10800,"station_id":"cjm6bp8fraef2m0cb0m0","pricing_plan_id":"cebpf4jnsgd1na2vs0mg"},{"bike_id":"cbd7089c-9d2d-42db-a268-faaaa69d7343","system_id":"levelo_inurba_marseille","lat":43.26225,"lon":5.37433,"is_reserved":false,"is_disabled":true,"rental_uris":{"android":"levelo://app?vid=cbd7089c-9d2d-42db-a268-faaaa69d7343","ios":"levelo://app?vid=cbd7089c-9d2d-42db-a268-faaaa69d7343"},"vehicle_type_id":"4","last_reported":1753017812,"current_range_meters":10800,"station_id":"","pricing_plan_id":"cebpf4jnsgd1na2vs0mg"},{"bike_id":"61c8be54-6763-4d9a-9877-2d08452b2464","system_id":"levelo_inurba_marseille","lat":43.28265,"lon":5.35096,"is_reserved":false,"is_disabled":false,"rental_uris":{"android":"levelo://app?vid=61c8be54-6763-4d9a-9877-2d08452b2464","ios":"levelo://app?vid=61c8be54-6763-4d9a-9877-2d08452b2464"},"vehicle_type_id":"4","last_reported":1753017812,"current_range_meters":10800,"station_id":"ce4bhbp2rcd13ifvqerg","pricing_plan_id":"cebpf4jnsgd1na2vs0mg"},{"bike_id":"7788b570-1d1f-4c23-99e1-6133a60efa40","system_id":"levelo_inurba_marseille","lat":43.301576,"lon":5.38084,"is_reserved":false,"is_disabled":false,"rental_uris":{"android":"levelo://app?vid=7788b570-1d1f-4c23-99e1-6133a60efa40","ios":"levelo://app?vid=7788b570-1d1f-4c23-99e1-6133a60efa40"},"vehicle_type_id":"4","last_reported":1753017812,"current_range_meters":10800,"station_id":"ce4bgjp2rcd13ifvqbh0","pricing_plan_id":"cebpf4jnsgd1na2vs0mg"},{"bike_id":"07e2cbc0-d915-4ae4-a318-5ca2c9fa2545","system_id":"levelo_inurba_marseille","lat":43.28346,"lon":5.38101,"is_reserved":false,"is_disabled":false,"rental_uris":{"android":"levelo://app?vid=07e2cbc0-d915-4ae4-a318-5ca2c9fa2545","ios":"levelo://app?vid=07e2cbc0-d915-4ae4-a318-5ca2c9fa2545"},"vehicle_type_id":"4","last_reported":1753017812,"current_range_meters":10800,"station_id":"ce4bh412rcd13ifvqdr0","pricing_plan_id":"cebpf4jnsgd1na2vs0mg"},{"bike_id":"7c415753-2975-4098-9db8-7849dee173b3","system_id":"levelo_inurba_marseille","lat":43.26245,"lon":5.40381,"is_reserved":false,"is_disabled":false,"rental_uris":{"android":"levelo://app?vid=7c415753-2975-4098-9db8-7849dee173b3","ios":"levelo://app?vid=7c415753-2975-4098-9db8-7849dee173b3"},"vehicle_type_id":"4","last_reported":1753017812,"current_range_meters":10800,"station_id":"ce4bhmh2rcd13ifvqgmg","pricing_plan_id":"cebpf4jnsgd1na2vs0mg"},{"bike_id":"ccb8420d-8ae1-4c0f-a843-8b6ee398916d","system_id":"levelo_inurba_marseille","lat":43.28264,"lon":5.35082,"is_reserved":false,"is_disabled":false,"rental_uris":{"android":"levelo://app?vid=ccb8420d-8ae1-4c0f-a843-8b6ee398916d","ios":"levelo://app?vid=ccb8420d-8ae1-4c0f-a843-8b6ee398916d"},"vehicle_type_id":"4","last_reported":1753017812,"current_range_meters":10800,"station_id":"ce4bhbp2rcd13ifvqerg","pricing_plan_id":"cebpf4jnsgd1na2vs0mg"},{"bike_id":"3f18260c-5a6d-433b-b4ae-fc0eb020cdb1","system_id":"levelo_inurba_marseille","lat":43.28612,"lon":5.35116,"is_reserved":false,"is_disabled":false,"rental_uris":{"android":"levelo://app?vid=3f18260c-5a6d-433b-b4ae-fc0eb020cdb1","ios":"levelo://app?vid=3f18260c-5a6d-433b-b4ae-fc0eb020cdb1"},"vehicle_type_id":"4","last_reported":1753017812,"current_range_meters":11200,"station_id":"ce4bhch2rcd13ifvqeug","pricing_plan_id":"cebpf4jnsgd1na2vs0mg"},{"bike_id":"c7c9d953-d784-4d42-9cb0-4d5e17d9e103","system_id":"levelo_inurba_marseille","lat":43.3015,"lon":5.38082,"is_reserved":false,"is_disabled":false,"rental_uris":{"android":"levelo://app?vid=c7c9d953-d784-4d42-9cb0-4d5e17d9e103","ios":"levelo://app?vid=c7c9d953-d784-4d42-9cb0-4d5e17d9e103"},"vehicle_type_id":"4","last_reported":1753017812,"current_range_meters":11200,"station_id":"ce4bgjp2rcd13ifvqbh0","pricing_plan_id":"cebpf4jnsgd1na2vs0mg"},{"bike_id":"9abd6de6-6763-4016-9556-d8e78d0ad41f","system_id":"levelo_inurba_marseille","lat":43.26205,"lon":5.37443,"is_reserved":false,"is_disabled":false,"rental_uris":{"android":"levelo://app?vid=9abd6de6-6763-4016-9556-d8e78d0ad41f","ios":"levelo://app?vid=9abd6de6-6763-4016-9556-d8e78d0ad41f"},"vehicle_type_id":"4","last_reported":1753017812,"current_range_meters":11600,"station_id":"ce4bhgp2rcd13ifvqfc0","pricing_plan_id":"cebpf4jnsgd1na2vs0mg"},{"bike_id":"7da69f3d-17ea-45bd-8065-f715d544d5a5","system_id":"levelo_inurba_marseille","lat":43.27065,"lon":5.42262,"is_reserved":false,"is_disabled":false,"rental_uris":{"android":"levelo://app?vid=7da69f3d-17ea-45bd-8065-f715d544d5a5","ios":"levelo://app?vid=7da69f3d-17ea-45bd-8065-f715d544d5a5"},"vehicle_type_id":"4","last_reported":1753017812,"current_range_meters":11600,"station_id":"ce4bhk92rcd13ifvqgb0","pricing_plan_id":"cebpf4jnsgd1na2vs0mg"},{"bike_id":"ac141403-2eff-454e-8bd1-3d400d40ed2b","system_id":"levelo_inurba_marseille","lat":43.33114,"lon":5.40031,"is_reserved":false,"is_disabled":false,"rental_uris":{"android":"levelo://app?vid=ac141403-2eff-454e-8bd1-3d400d40ed2b","ios":"levelo://app?vid=ac141403-2eff-454e-8bd1-3d400d40ed2b"},"vehicle_type_id":"4","last_reported":1753017812,"current_range_meters":11600,"station_id":"","pricing_plan_id":"cebpf4jnsgd1na2vs0mg"},{"bike_id":"a6de290b-5c15-427b-bc37-8301607e1735","system_id":"levelo_inurba_marseille","lat":43.337444,"lon":5.374475,"is_reserved":false,"is_disabled":false,"rental_uris":{"android":"levelo://app?vid=a6de290b-5c15-427b-bc37-8301607e1735","ios":"levelo://app?vid=a6de290b-5c15-427b-bc37-8301607e1735"},"vehicle_type_id":"4","last_reported":1753017812,"current_range_meters":11600,"station_id":"","pricing_plan_id":"cebpf4jnsgd1na2vs0mg"},{"bike_id":"3581e735-186c-4f7c-a905-f7969175be88","system_id":"levelo_inurba_marseille","lat":43.32276,"lon":5.38293,"is_reserved":false,"is_disabled":false,"rental_uris":{"android":"levelo://app?vid=3581e735-186c-4f7c-a905-f7969175be88","ios":"levelo://app?vid=3581e735-186c-4f7c-a905-f7969175be88"},"vehicle_type_id":"4","last_reported":1753017812,"current_range_meters":11600,"station_id":"ce4bhr12rcd13ifvqhqg","pricing_plan_id":"cebpf4jnsgd1na2vs0mg"},{"bike_id":"892e06aa-05f6-415f-96f6-13455b0802de","system_id":"levelo_inurba_marseille","lat":43.29582,"lon":5.37527,"is_reserved":false,"is_disabled":true,"rental_uris":{"android":"levelo://app?vid=892e06aa-05f6-415f-96f6-13455b0802de","ios":"levelo://app?vid=892e06aa-05f6-415f-96f6-13455b0802de"},"vehicle_type_id":"4","last_reported":1753017812,"current_range_meters":11600,"station_id":"ce4bgh92rcd13ifvqb50","pricing_plan_id":"cebpf4jnsgd1na2vs0mg"},{"bike_id":"a212ef5d-ae2b-4488-9a0a-4f0b2067e14b","system_id":"levelo_inurba_marseille","lat":43.26204,"lon":5.37443,"is_reserved":false,"is_disabled":false,"rental_uris":{"android":"levelo://app?vid=a212ef5d-ae2b-4488-9a0a-4f0b2067e14b","ios":"levelo://app?vid=a212ef5d-ae2b-4488-9a0a-4f0b2067e14b"},"vehicle_type_id":"4","last_reported":1753017812,"current_range_meters":11600,"station_id":"ce4bhgp2rcd13ifvqfc0","pricing_plan_id":"cebpf4jnsgd1na2vs0mg"},{"bike_id":"318be727-d621-419c-b364-0467cc431094","system_id":"levelo_inurba_marseille","lat":43.26201,"lon":5.37482,"is_reserved":false,"is_disabled":false,"rental_uris":{"android":"levelo://app?vid=318be727-d621-419c-b364-0467cc431094","ios":"levelo://app?vid=318be727-d621-419c-b364-0467cc431094"},"vehicle_type_id":"4","last_reported":1753017812,"current_range_meters":11600,"station_id":"ce4bhgp2rcd13ifvqfc0","pricing_plan_id":"cebpf4jnsgd1na2vs0mg"},{"bike_id":"cce52197-3b64-41da-a9e9-d658a67d6b48","system_id":"levelo_inurba_marseille","lat":43.30791,"lon":5.43522,"is_reserved":false,"is_disabled":false,"rental_uris":{"android":"levelo://app?vid=cce52197-3b64-41da-a9e9-d658a67d6b48","ios":"levelo://app?vid=cce52197-3b64-41da-a9e9-d658a67d6b48"},"vehicle_type_id":"4","last_reported":1753017812,"current_range_meters":12000,"station_id":"ce4bhph2rcd13ifvqheg","pricing_plan_id":"cebpf4jnsgd1na2vs0mg"},{"bike_id":"b9246e48-e9f8-4924-bbb9-8c633997abe7","system_id":"levelo_inurba_marseille","lat":43.22931,"lon":5.35367,"is_reserved":false,"is_disabled":false,"rental_uris":{"android":"levelo://app?vid=b9246e48-e9f8-4924-bbb9-8c633997abe7","ios":"levelo://app?vid=b9246e48-e9f8-4924-bbb9-8c633997abe7"},"vehicle_type_id":"4","last_reported":1753017812,"current_range_meters":12000,"station_id":"cpo3532slgdg3j2ikp40","pricing_plan_id":"cebpf4jnsgd1na2vs0mg"},{"bike_id":"e307f4bf-a8af-4b77-8ebc-94bd83c9eba9","system_id":"levelo_inurba_marseille","lat":43.22923,"lon":5.35378,"is_reserved":false,"is_disabled":false,"rental_uris":{"android":"levelo://app?vid=e307f4bf-a8af-4b77-8ebc-94bd83c9eba9","ios":"levelo://app?vid=e307f4bf-a8af-4b77-8ebc-94bd83c9eba9"},"vehicle_type_id":"4","last_reported":1753017812,"current_range_meters":12000,"station_id":"cpo3532slgdg3j2ikp40","pricing_plan_id":"cebpf4jnsgd1na2vs0mg"},{"bike_id":"7a2e1cf8-de90-4b24-ade1-9d8b3a17f052","system_id":"levelo_inurba_marseille","lat":43.25183,"lon":5.37587,"is_reserved":false,"is_disabled":false,"rental_uris":{"android":"levelo://app?vid=7a2e1cf8-de90-4b24-ade1-9d8b3a17f052","ios":"levelo://app?vid=7a2e1cf8-de90-4b24-ade1-9d8b3a17f052"},"vehicle_type_id":"4","last_reported":1753017812,"current_range_meters":12000,"station_id":"","pricing_plan_id":"cebpf4jnsgd1na2vs0mg"},{"bike_id":"d916997f-1b3d-4d99-bec2-f22f10a49844","system_id":"levelo_inurba_marseille","lat":43.25112,"lon":5.40351,"is_reserved":false,"is_disabled":false,"rental_uris":{"android":"levelo://app?vid=d916997f-1b3d-4d99-bec2-f22f10a49844","ios":"levelo://app?vid=d916997f-1b3d-4d99-bec2-f22f10a49844"},"vehicle_type_id":"4","last_reported":1753017812,"current_range_meters":12000,"station_id":"ce4bhlh2rcd13ifvqgig","pricing_plan_id":"cebpf4jnsgd1na2vs0mg"},{"bike_id":"f11d5853-771f-43df-bd89-c14a78847538","system_id":"levelo_inurba_marseille","lat":43.31121,"lon":5.377699,"is_reserved":false,"is_disabled":false,"rental_uris":{"android":"levelo://app?vid=f11d5853-771f-43df-bd89-c14a78847538","ios":"levelo://app?vid=f11d5853-771f-43df-bd89-c14a78847538"},"vehicle_type_id":"4","last_reported":1753017812,"current_range_meters":12000,"station_id":"ce4bgt92rcd13ifvqcg0","pricing_plan_id":"cebpf4jnsgd1na2vs0mg"},{"bike_id":"7fa33eba-3e36-44a8-8d82-959e06b96508","system_id":"levelo_inurba_marseille","lat":43.23184,"lon":5.39982,"is_reserved":false,"is_disabled":false,"rental_uris":{"android":"levelo://app?vid=7fa33eba-3e36-44a8-8d82-959e06b96508","ios":"levelo://app?vid=7fa33eba-3e36-44a8-8d82-959e06b96508"},"vehicle_type_id":"4","last_reported":1753017812,"current_range_meters":12400,"station_id":"ce4bhn12rcd13ifvqgqg","pricing_plan_id":"cebpf4jnsgd1na2vs0mg"},{"bike_id":"dd12eefc-9090-488f-8382-d877f7eeafe4","system_id":"levelo_inurba_marseille","lat":43.254049,"lon":5.419145,"is_reserved":false,"is_disabled":false,"rental_uris":{"android":"levelo://app?vid=dd12eefc-9090-488f-8382-d877f7eeafe4","ios":"levelo://app?vid=dd12eefc-9090-488f-8382-d877f7eeafe4"},"vehicle_type_id":"4","last_reported":1753017812,"current_range_meters":12400,"station_id":"","pricing_plan_id":"cebpf4jnsgd1na2vs0mg"},{"bike_id":"e4c89c5d-526b-4575-a9c8-1237dab7d7b8","system_id":"levelo_inurba_marseille","lat":43.22932,"lon":5.35374,"is_reserved":false,"is_disabled":false,"rental_uris":{"android":"levelo://app?vid=e4c89c5d-526b-4575-a9c8-1237dab7d7b8","ios":"levelo://app?vid=e4c89c5d-526b-4575-a9c8-1237dab7d7b8"},"vehicle_type_id":"4","last_reported":1753017812,"current_range_meters":12400,"station_id":"cpo3532slgdg3j2ikp40","pricing_plan_id":"cebpf4jnsgd1na2vs0mg"},{"bike_id":"4268961c-8e3c-4bac-891f-a8846cba533f","system_id":"levelo_inurba_marseille","lat":43.324836,"lon":5.365644,"is_reserved":false,"is_disabled":false,"rental_uris":{"android":"levelo://app?vid=4268961c-8e3c-4bac-891f-a8846cba533f","ios":"levelo://app?vid=4268961c-8e3c-4bac-891f-a8846cba533f"},"vehicle_type_id":"4","last_reported":1753017812,"current_range_meters":12400,"station_id":"ce4bhs12rcd13ifvqhvg","pricing_plan_id":"cebpf4jnsgd1na2vs0mg"},{"bike_id":"7545b5d5-9059-40aa-b8a5-88e8bad6672e","system_id":"levelo_inurba_marseille","lat":43.23957,"lon":5.3664,"is_reserved":false,"is_disabled":false,"rental_uris":{"android":"levelo://app?vid=7545b5d5-9059-40aa-b8a5-88e8bad6672e","ios":"levelo://app?vid=7545b5d5-9059-40aa-b8a5-88e8bad6672e"},"vehicle_type_id":"4","last_reported":1753017812,"current_range_meters":12400,"station_id":"ce4bhi12rcd13ifvqfp0","pricing_plan_id":"cebpf4jnsgd1na2vs0mg"},{"bike_id":"7e898305-d0d4-4965-b7f0-624209d578ff","system_id":"levelo_inurba_marseille","lat":43.26214,"lon":5.37444,"is_reserved":false,"is_disabled":false,"rental_uris":{"android":"levelo://app?vid=7e898305-d0d4-4965-b7f0-624209d578ff","ios":"levelo://app?vid=7e898305-d0d4-4965-b7f0-624209d578ff"},"vehicle_type_id":"4","last_reported":1753017812,"current_range_meters":12400,"station_id":"ce4bhgp2rcd13ifvqfc0","pricing_plan_id":"cebpf4jnsgd1na2vs0mg"},{"bike_id":"d25b3b74-1eb0-48d4-998a-10d14228da57","system_id":"levelo_inurba_marseille","lat":43.296944,"lon":5.368118,"is_reserved":false,"is_disabled":false,"rental_uris":{"android":"levelo://app?vid=d25b3b74-1eb0-48d4-998a-10d14228da57","ios":"levelo://app?vid=d25b3b74-1eb0-48d4-998a-10d14228da57"},"vehicle_type_id":"4","last_reported":1753017812,"current_range_meters":12800,"station_id":"","pricing_plan_id":"cebpf4jnsgd1na2vs0mg"},{"bike_id":"91b1d065-a660-4061-aebd-acceb469e466","system_id":"levelo_inurba_marseille","lat":43.21745,"lon":5.346,"is_reserved":false,"is_disabled":false,"rental_uris":{"android":"levelo://app?vid=91b1d065-a660-4061-aebd-acceb469e466","ios":"levelo://app?vid=91b1d065-a660-4061-aebd-acceb469e466"},"vehicle_type_id":"4","last_reported":1753017812,"current_range_meters":12800,"station_id":"st_cvj6r9ubvosntc0bgbag","pricing_plan_id":"cebpf4jnsgd1na2vs0mg"},{"bike_id":"6789b762-f196-445e-bb29-e123221133e7","system_id":"levelo_inurba_marseille","lat":43.32331,"lon":5.40619,"is_reserved":false,"is_disabled":false,"rental_uris":{"android":"levelo://app?vid=6789b762-f196-445e-bb29-e123221133e7","ios":"levelo://app?vid=6789b762-f196-445e-bb29-e123221133e7"},"vehicle_type_id":"4","last_reported":1753017812,"current_range_meters":12800,"station_id":"ce4bhq92rcd13ifvqhjg","pricing_plan_id":"cebpf4jnsgd1na2vs0mg"},{"bike_id":"79625d6a-792a-4bbc-a4fd-8036f4310197","system_id":"levelo_inurba_marseille","lat":43.30422,"lon":5.39748,"is_reserved":false,"is_disabled":false,"rental_uris":{"android":"levelo://app?vid=79625d6a-792a-4bbc-a4fd-8036f4310197","ios":"levelo://app?vid=79625d6a-792a-4bbc-a4fd-8036f4310197"},"vehicle_type_id":"4","last_reported":1753017812,"current_range_meters":13600,"station_id":"ce4bh092rcd13ifvqd20","pricing_plan_id":"cebpf4jnsgd1na2vs0mg"},{"bike_id":"218a227e-c64f-4f98-8a22-59cb1cdfd846","system_id":"levelo_inurba_marseille","lat":43.24065,"lon":5.37714,"is_reserved":false,"is_disabled":true,"rental_uris":{"android":"levelo://app?vid=218a227e-c64f-4f98-8a22-59cb1cdfd846","ios":"levelo://app?vid=218a227e-c64f-4f98-8a22-59cb1cdfd846"},"vehicle_type_id":"4","last_reported":1753017812,"current_range_meters":13600,"station_id":"ce4bhnp2rcd13ifvqgvg","pricing_plan_id":"cebpf4jnsgd1na2vs0mg"},{"bike_id":"7eaefe95-a918-4dff-a447-29114f8d3c22","system_id":"levelo_inurba_marseille","lat":43.28693,"lon":5.39988,"is_reserved":false,"is_disabled":true,"rental_uris":{"android":"levelo://app?vid=7eaefe95-a918-4dff-a447-29114f8d3c22","ios":"levelo://app?vid=7eaefe95-a918-4dff-a447-29114f8d3c22"},"vehicle_type_id":"4","last_reported":1753017812,"current_range_meters":13600,"station_id":"ce4bho92rcd13ifvqh3g","pricing_plan_id":"cebpf4jnsgd1na2vs0mg"},{"bike_id":"beb14892-a851-4f8e-b873-cbd3d15ad0a9","system_id":"levelo_inurba_marseille","lat":43.2375,"lon":5.362,"is_reserved":false,"is_disabled":false,"rental_uris":{"android":"levelo://app?vid=beb14892-a851-4f8e-b873-cbd3d15ad0a9","ios":"levelo://app?vid=beb14892-a851-4f8e-b873-cbd3d15ad0a9"},"vehicle_type_id":"4","last_reported":1753017812,"current_range_meters":13600,"station_id":"","pricing_plan_id":"cebpf4jnsgd1na2vs0mg"},{"bike_id":"f1c1069d-eb74-4f28-9bd4-0e9071ad97cc","system_id":"levelo_inurba_marseille","lat":43.23056,"lon":5.35495,"is_reserved":false,"is_disabled":false,"rental_uris":{"android":"levelo://app?vid=f1c1069d-eb74-4f28-9bd4-0e9071ad97cc","ios":"levelo://app?vid=f1c1069d-eb74-4f28-9bd4-0e9071ad97cc"},"vehicle_type_id":"4","last_reported":1753017812,"current_range_meters":13600,"station_id":"cpo3342slgdg3j2ifvpg","pricing_plan_id":"cebpf4jnsgd1na2vs0mg"},{"bike_id":"95b5bcfa-54af-48c0-bd18-8f73f959ce2b","system_id":"levelo_inurba_marseille","lat":43.31935,"lon":5.37313,"is_reserved":false,"is_disabled":false,"rental_uris":{"android":"levelo://app?vid=95b5bcfa-54af-48c0-bd18-8f73f959ce2b","ios":"levelo://app?vid=95b5bcfa-54af-48c0-bd18-8f73f959ce2b"},"vehicle_type_id":"4","last_reported":1753017812,"current_range_meters":13600,"station_id":"","pricing_plan_id":"cebpf4jnsgd1na2vs0mg"},{"bike_id":"7f98c65c-6593-4352-858e-be8fe24c31fc","system_id":"levelo_inurba_marseille","lat":43.225059,"lon":5.347816,"is_reserved":false,"is_disabled":false,"rental_uris":{"android":"levelo://app?vid=7f98c65c-6593-4352-858e-be8fe24c31fc","ios":"levelo://app?vid=7f98c65c-6593-4352-858e-be8fe24c31fc"},"vehicle_type_id":"4","last_reported":1753017812,"current_range_meters":14400,"station_id":"st_cvj5dfep6f1abm77gieg","pricing_plan_id":"cebpf4jnsgd1na2vs0mg"},{"bike_id":"88dfe917-66a3-4e72-9f06-c2ae61eb7175","system_id":"levelo_inurba_marseille","lat":43.25734,"lon":5.41108,"is_reserved":false,"is_disabled":false,"rental_uris":{"android":"levelo://app?vid=88dfe917-66a3-4e72-9f06-c2ae61eb7175","ios":"levelo://app?vid=88dfe917-66a3-4e72-9f06-c2ae61eb7175"},"vehicle_type_id":"4","last_reported":1753017812,"current_range_meters":14000,"station_id":"ce4bhkp2rcd13ifvqgd0","pricing_plan_id":"cebpf4jnsgd1na2vs0mg"},{"bike_id":"20597f8e-6c1b-4a51-9e3f-8ecf88381375","system_id":"levelo_inurba_marseille","lat":43.303111,"lon":5.392047,"is_reserved":false,"is_disabled":true,"rental_uris":{"android":"levelo://app?vid=20597f8e-6c1b-4a51-9e3f-8ecf88381375","ios":"levelo://app?vid=20597f8e-6c1b-4a51-9e3f-8ecf88381375"},"vehicle_type_id":"4","last_reported":1753017812,"current_range_meters":14000,"station_id":"ce4bgkh2rcd13ifvqbk0","pricing_plan_id":"cebpf4jnsgd1na2vs0mg"},{"bike_id":"c4361f0b-e5af-485a-8a3b-8b7235ad12ba","system_id":"levelo_inurba_marseille","lat":43.27376,"lon":5.36258,"is_reserved":false,"is_disabled":false,"rental_uris":{"android":"levelo://app?vid=c4361f0b-e5af-485a-8a3b-8b7235ad12ba","ios":"levelo://app?vid=c4361f0b-e5af-485a-8a3b-8b7235ad12ba"},"vehicle_type_id":"4","last_reported":1753017812,"current_range_meters":14000,"station_id":"ce4bhbh2rcd13ifvqeo0","pricing_plan_id":"cebpf4jnsgd1na2vs0mg"},{"bike_id":"8c0a8638-dd7e-4142-bda1-9aa14a99f2b4","system_id":"levelo_inurba_marseille","lat":43.28252,"lon":5.350723,"is_reserved":false,"is_disabled":false,"rental_uris":{"android":"levelo://app?vid=8c0a8638-dd7e-4142-bda1-9aa14a99f2b4","ios":"levelo://app?vid=8c0a8638-dd7e-4142-bda1-9aa14a99f2b4"},"vehicle_type_id":"4","last_reported":1753017812,"current_range_meters":14400,"station_id":"ce4bhbp2rcd13ifvqerg","pricing_plan_id":"cebpf4jnsgd1na2vs0mg"},{"bike_id":"299ec8a6-d5a7-41ea-8121-1c7f792257d2","system_id":"levelo_inurba_marseille","lat":43.27372,"lon":5.36262,"is_reserved":false,"is_disabled":true,"rental_uris":{"android":"levelo://app?vid=299ec8a6-d5a7-41ea-8121-1c7f792257d2","ios":"levelo://app?vid=299ec8a6-d5a7-41ea-8121-1c7f792257d2"},"vehicle_type_id":"4","last_reported":1753017812,"current_range_meters":14400,"station_id":"ce4bhbh2rcd13ifvqeo0","pricing_plan_id":"cebpf4jnsgd1na2vs0mg"},{"bike_id":"12a8e77a-9e72-427b-869b-021436e3293f","system_id":"levelo_inurba_marseille","lat":43.25501,"lon":5.37647,"is_reserved":false,"is_disabled":false,"rental_uris":{"android":"levelo://app?vid=12a8e77a-9e72-427b-869b-021436e3293f","ios":"levelo://app?vid=12a8e77a-9e72-427b-869b-021436e3293f"},"vehicle_type_id":"4","last_reported":1753017812,"current_range_meters":14400,"station_id":"ce4bhh12rcd13ifvqff0","pricing_plan_id":"cebpf4jnsgd1na2vs0mg"},{"bike_id":"cd3b22a1-e561-4cf5-aa00-3d5853ac47ae","system_id":"levelo_inurba_marseille","lat":43.28419,"lon":5.34993,"is_reserved":false,"is_disabled":false,"rental_uris":{"android":"levelo://app?vid=cd3b22a1-e561-4cf5-aa00-3d5853ac47ae","ios":"levelo://app?vid=cd3b22a1-e561-4cf5-aa00-3d5853ac47ae"},"vehicle_type_id":"4","last_reported":1753017812,"current_range_meters":14400,"station_id":"ce4bhbh2rcd13ifvqepg","pricing_plan_id":"cebpf4jnsgd1na2vs0mg"},{"bike_id":"662946af-3709-43bd-b01d-05e915749c81","system_id":"levelo_inurba_marseille","lat":43.28254,"lon":5.35077,"is_reserved":false,"is_disabled":false,"rental_uris":{"android":"levelo://app?vid=662946af-3709-43bd-b01d-05e915749c81","ios":"levelo://app?vid=662946af-3709-43bd-b01d-05e915749c81"},"vehicle_type_id":"4","last_reported":1753017812,"current_range_meters":14400,"station_id":"ce4bhbp2rcd13ifvqerg","pricing_plan_id":"cebpf4jnsgd1na2vs0mg"},{"bike_id":"c9695da4-3048-4cfc-83f0-62c3fac1ccbe","system_id":"levelo_inurba_marseille","lat":43.23057,"lon":5.355018,"is_reserved":false,"is_disabled":true,"rental_uris":{"android":"levelo://app?vid=c9695da4-3048-4cfc-83f0-62c3fac1ccbe","ios":"levelo://app?vid=c9695da4-3048-4cfc-83f0-62c3fac1ccbe"},"vehicle_type_id":"4","last_reported":1753017812,"current_range_meters":14800,"station_id":"cpo3342slgdg3j2ifvpg","pricing_plan_id":"cebpf4jnsgd1na2vs0mg"},{"bike_id":"731ee012-9e59-40d0-b8bd-7ac3d298a98d","system_id":"levelo_inurba_marseille","lat":43.2737,"lon":5.36265,"is_reserved":false,"is_disabled":false,"rental_uris":{"android":"levelo://app?vid=731ee012-9e59-40d0-b8bd-7ac3d298a98d","ios":"levelo://app?vid=731ee012-9e59-40d0-b8bd-7ac3d298a98d"},"vehicle_type_id":"4","last_reported":1753017812,"current_range_meters":14800,"station_id":"ce4bhbh2rcd13ifvqeo0","pricing_plan_id":"cebpf4jnsgd1na2vs0mg"},{"bike_id":"d3aca52a-4e64-461a-8fd1-e9a035bafbdf","system_id":"levelo_inurba_marseille","lat":43.257213,"lon":5.411019,"is_reserved":false,"is_disabled":false,"rental_uris":{"android":"levelo://app?vid=d3aca52a-4e64-461a-8fd1-e9a035bafbdf","ios":"levelo://app?vid=d3aca52a-4e64-461a-8fd1-e9a035bafbdf"},"vehicle_type_id":"4","last_reported":1753017812,"current_range_meters":14800,"station_id":"","pricing_plan_id":"cebpf4jnsgd1na2vs0mg"},{"bike_id":"d9cccfbe-c519-4201-9415-590a98af8518","system_id":"levelo_inurba_marseille","lat":43.26208,"lon":5.37445,"is_reserved":false,"is_disabled":false,"rental_uris":{"android":"levelo://app?vid=d9cccfbe-c519-4201-9415-590a98af8518","ios":"levelo://app?vid=d9cccfbe-c519-4201-9415-590a98af8518"},"vehicle_type_id":"4","last_reported":1753017812,"current_range_meters":15200,"station_id":"ce4bhgp2rcd13ifvqfc0","pricing_plan_id":"cebpf4jnsgd1na2vs0mg"},{"bike_id":"7988183c-a382-4df8-bfe0-44c34ab63148","system_id":"levelo_inurba_marseille","lat":43.24663,"lon":5.38144,"is_reserved":false,"is_disabled":false,"rental_uris":{"android":"levelo://app?vid=7988183c-a382-4df8-bfe0-44c34ab63148","ios":"levelo://app?vid=7988183c-a382-4df8-bfe0-44c34ab63148"},"vehicle_type_id":"4","last_reported":1753017812,"current_range_meters":14800,"station_id":"ce4bhih2rcd13ifvqfr0","pricing_plan_id":"cebpf4jnsgd1na2vs0mg"},{"bike_id":"b3176209-c9b0-4949-926f-6c63990cfd9f","system_id":"levelo_inurba_marseille","lat":43.33606,"lon":5.4103,"is_reserved":false,"is_disabled":false,"rental_uris":{"android":"levelo://app?vid=b3176209-c9b0-4949-926f-6c63990cfd9f","ios":"levelo://app?vid=b3176209-c9b0-4949-926f-6c63990cfd9f"},"vehicle_type_id":"4","last_reported":1753017812,"current_range_meters":14800,"station_id":"ce4bhqh2rcd13ifvqhmg","pricing_plan_id":"cebpf4jnsgd1na2vs0mg"},{"bike_id":"24dcc630-ee82-420f-b614-7a854a8916a7","system_id":"levelo_inurba_marseille","lat":43.23578,"lon":5.36136,"is_reserved":false,"is_disabled":false,"rental_uris":{"android":"levelo://app?vid=24dcc630-ee82-420f-b614-7a854a8916a7","ios":"levelo://app?vid=24dcc630-ee82-420f-b614-7a854a8916a7"},"vehicle_type_id":"4","last_reported":1753017812,"current_range_meters":15200,"station_id":"","pricing_plan_id":"cebpf4jnsgd1na2vs0mg"},{"bike_id":"96793585-b370-4499-97b5-55297e845c8f","system_id":"levelo_inurba_marseille","lat":43.21787,"lon":5.3462,"is_reserved":false,"is_disabled":true,"rental_uris":{"android":"levelo://app?vid=96793585-b370-4499-97b5-55297e845c8f","ios":"levelo://app?vid=96793585-b370-4499-97b5-55297e845c8f"},"vehicle_type_id":"4","last_reported":1753017812,"current_range_meters":15200,"station_id":"st_cvj6r9ubvosntc0bgbag","pricing_plan_id":"cebpf4jnsgd1na2vs0mg"},{"bike_id":"f335eb8b-f2b0-48df-963c-2425602f9038","system_id":"levelo_inurba_marseille","lat":43.270056,"lon":5.401231,"is_reserved":false,"is_disabled":true,"rental_uris":{"android":"levelo://app?vid=f335eb8b-f2b0-48df-963c-2425602f9038","ios":"levelo://app?vid=f335eb8b-f2b0-48df-963c-2425602f9038"},"vehicle_type_id":"4","last_reported":1753017812,"current_range_meters":16000,"station_id":"","pricing_plan_id":"cebpf4jnsgd1na2vs0mg"},{"bike_id":"9cc8cabb-938b-4c8e-843e-9cd97a95f280","system_id":"levelo_inurba_marseille","lat":43.28419,"lon":5.35002,"is_reserved":false,"is_disabled":false,"rental_uris":{"android":"levelo://app?vid=9cc8cabb-938b-4c8e-843e-9cd97a95f280","ios":"levelo://app?vid=9cc8cabb-938b-4c8e-843e-9cd97a95f280"},"vehicle_type_id":"4","last_reported":1753017812,"current_range_meters":16000,"station_id":"ce4bhbh2rcd13ifvqepg","pricing_plan_id":"cebpf4jnsgd1na2vs0mg"},{"bike_id":"0f9728a3-d616-4764-981b-ad0d3bfeb31a","system_id":"levelo_inurba_marseille","lat":43.2175,"lon":5.34595,"is_reserved":false,"is_disabled":false,"rental_uris":{"android":"levelo://app?vid=0f9728a3-d616-4764-981b-ad0d3bfeb31a","ios":"levelo://app?vid=0f9728a3-d616-4764-981b-ad0d3bfeb31a"},"vehicle_type_id":"4","last_reported":1753017812,"current_range_meters":16000,"station_id":"st_cvj6r9ubvosntc0bgbag","pricing_plan_id":"cebpf4jnsgd1na2vs0mg"},{"bike_id":"b02f3694-c76b-4a2c-8395-65f09b78c0a1","system_id":"levelo_inurba_marseille","lat":43.217495,"lon":5.346001,"is_reserved":false,"is_disabled":false,"rental_uris":{"android":"levelo://app?vid=b02f3694-c76b-4a2c-8395-65f09b78c0a1","ios":"levelo://app?vid=b02f3694-c76b-4a2c-8395-65f09b78c0a1"},"vehicle_type_id":"4","last_reported":1753017812,"current_range_meters":16000,"station_id":"","pricing_plan_id":"cebpf4jnsgd1na2vs0mg"},{"bike_id":"27db1ad3-2947-41e8-8ab4-a42a02cc25df","system_id":"levelo_inurba_marseille","lat":43.2827,"lon":5.35077,"is_reserved":false,"is_disabled":false,"rental_uris":{"android":"levelo://app?vid=27db1ad3-2947-41e8-8ab4-a42a02cc25df","ios":"levelo://app?vid=27db1ad3-2947-41e8-8ab4-a42a02cc25df"},"vehicle_type_id":"4","last_reported":1753017812,"current_range_meters":16000,"station_id":"ce4bhbp2rcd13ifvqerg","pricing_plan_id":"cebpf4jnsgd1na2vs0mg"},{"bike_id":"4eaddabb-0dc2-4a46-9691-55c808840481","system_id":"levelo_inurba_marseille","lat":43.28407,"lon":5.35001,"is_reserved":false,"is_disabled":false,"rental_uris":{"android":"levelo://app?vid=4eaddabb-0dc2-4a46-9691-55c808840481","ios":"levelo://app?vid=4eaddabb-0dc2-4a46-9691-55c808840481"},"vehicle_type_id":"4","last_reported":1753017812,"current_range_meters":16000,"station_id":"ce4bhbh2rcd13ifvqepg","pricing_plan_id":"cebpf4jnsgd1na2vs0mg"},{"bike_id":"a9d955e1-2b35-4293-88ac-530ba195bae1","system_id":"levelo_inurba_marseille","lat":43.23062,"lon":5.35486,"is_reserved":false,"is_disabled":false,"rental_uris":{"android":"levelo://app?vid=a9d955e1-2b35-4293-88ac-530ba195bae1","ios":"levelo://app?vid=a9d955e1-2b35-4293-88ac-530ba195bae1"},"vehicle_type_id":"4","last_reported":1753017812,"current_range_meters":14800,"station_id":"cpo3342slgdg3j2ifvpg","pricing_plan_id":"cebpf4jnsgd1na2vs0mg"},{"bike_id":"978c4ad2-185f-4ba1-afe3-e802926ac073","system_id":"levelo_inurba_marseille","lat":43.258839,"lon":5.383387,"is_reserved":false,"is_disabled":false,"rental_uris":{"android":"levelo://app?vid=978c4ad2-185f-4ba1-afe3-e802926ac073","ios":"levelo://app?vid=978c4ad2-185f-4ba1-afe3-e802926ac073"},"vehicle_type_id":"4","last_reported":1753017812,"current_range_meters":16000,"station_id":"ce4bhi12rcd13ifvqfp0","pricing_plan_id":"cebpf4jnsgd1na2vs0mg"},{"bike_id":"053762ef-2967-4c03-83aa-9c21c06b9aed","system_id":"levelo_inurba_marseille","lat":43.24071,"lon":5.37736,"is_reserved":false,"is_disabled":false,"rental_uris":{"android":"levelo://app?vid=053762ef-2967-4c03-83aa-9c21c06b9aed","ios":"levelo://app?vid=053762ef-2967-4c03-83aa-9c21c06b9aed"},"vehicle_type_id":"4","last_reported":1753017812,"current_range_meters":16000,"station_id":"ce4bhnp2rcd13ifvqgvg","pricing_plan_id":"cebpf4jnsgd1na2vs0mg"},{"bike_id":"ff2c165e-5b5b-40b7-9ef9-0c664fd09a94","system_id":"levelo_inurba_marseille","lat":43.290276,"lon":5.38651,"is_reserved":false,"is_disabled":true,"rental_uris":{"android":"levelo://app?vid=ff2c165e-5b5b-40b7-9ef9-0c664fd09a94","ios":"levelo://app?vid=ff2c165e-5b5b-40b7-9ef9-0c664fd09a94"},"vehicle_type_id":"4","last_reported":1753017812,"current_range_meters":16000,"station_id":"ce4bh4p2rcd13ifvqe0g","pricing_plan_id":"cebpf4jnsgd1na2vs0mg"},{"bike_id":"ff304561-c8ce-4ac1-9008-9c7fa7a2d85b","system_id":"levelo_inurba_marseille","lat":43.29271,"lon":5.38408,"is_reserved":false,"is_disabled":true,"rental_uris":{"android":"levelo://app?vid=ff304561-c8ce-4ac1-9008-9c7fa7a2d85b","ios":"levelo://app?vid=ff304561-c8ce-4ac1-9008-9c7fa7a2d85b"},"vehicle_type_id":"4","last_reported":1753017812,"current_range_meters":16400,"station_id":"ce4bh692rcd13ifvqea0","pricing_plan_id":"cebpf4jnsgd1na2vs0mg"},{"bike_id":"c1e6057c-ff5a-4477-a9f1-93444a633642","system_id":"levelo_inurba_marseille","lat":43.27103,"lon":5.39098,"is_reserved":false,"is_disabled":false,"rental_uris":{"android":"levelo://app?vid=c1e6057c-ff5a-4477-a9f1-93444a633642","ios":"levelo://app?vid=c1e6057c-ff5a-4477-a9f1-93444a633642"},"vehicle_type_id":"4","last_reported":1753017812,"current_range_meters":16400,"station_id":"","pricing_plan_id":"cebpf4jnsgd1na2vs0mg"},{"bike_id":"cb331a89-56a6-4651-9865-7241cd4ca587","system_id":"levelo_inurba_marseille","lat":43.324851,"lon":5.365779,"is_reserved":false,"is_disabled":false,"rental_uris":{"android":"levelo://app?vid=cb331a89-56a6-4651-9865-7241cd4ca587","ios":"levelo://app?vid=cb331a89-56a6-4651-9865-7241cd4ca587"},"vehicle_type_id":"4","last_reported":1753017812,"current_range_meters":16400,"station_id":"ce4bhs12rcd13ifvqhvg","pricing_plan_id":"cebpf4jnsgd1na2vs0mg"},{"bike_id":"ace48f5e-3699-45a3-bafa-d39f0186d12e","system_id":"levelo_inurba_marseille","lat":43.21734,"lon":5.346,"is_reserved":false,"is_disabled":false,"rental_uris":{"android":"levelo://app?vid=ace48f5e-3699-45a3-bafa-d39f0186d12e","ios":"levelo://app?vid=ace48f5e-3699-45a3-bafa-d39f0186d12e"},"vehicle_type_id":"4","last_reported":1753017812,"current_range_meters":16400,"station_id":"st_cvj6r9ubvosntc0bgbag","pricing_plan_id":"cebpf4jnsgd1na2vs0mg"},{"bike_id":"59bab757-bf2f-4ea7-9dcd-a0fe6f380601","system_id":"levelo_inurba_marseille","lat":43.28398,"lon":5.34997,"is_reserved":false,"is_disabled":false,"rental_uris":{"android":"levelo://app?vid=59bab757-bf2f-4ea7-9dcd-a0fe6f380601","ios":"levelo://app?vid=59bab757-bf2f-4ea7-9dcd-a0fe6f380601"},"vehicle_type_id":"4","last_reported":1753017812,"current_range_meters":16400,"station_id":"ce4bhbh2rcd13ifvqepg","pricing_plan_id":"cebpf4jnsgd1na2vs0mg"},{"bike_id":"7085621d-a23f-496f-ace9-bf9583698e3e","system_id":"levelo_inurba_marseille","lat":43.29938,"lon":5.36562,"is_reserved":false,"is_disabled":false,"rental_uris":{"android":"levelo://app?vid=7085621d-a23f-496f-ace9-bf9583698e3e","ios":"levelo://app?vid=7085621d-a23f-496f-ace9-bf9583698e3e"},"vehicle_type_id":"4","last_reported":1753017812,"current_range_meters":15200,"station_id":"ce4bgm92rcd13ifvqbr0","pricing_plan_id":"cebpf4jnsgd1na2vs0mg"},{"bike_id":"284cf330-577a-4932-8f14-cf3cdaa65655","system_id":"levelo_inurba_marseille","lat":43.30795,"lon":5.43541,"is_reserved":false,"is_disabled":false,"rental_uris":{"android":"levelo://app?vid=284cf330-577a-4932-8f14-cf3cdaa65655","ios":"levelo://app?vid=284cf330-577a-4932-8f14-cf3cdaa65655"},"vehicle_type_id":"4","last_reported":1753017812,"current_range_meters":16400,"station_id":"ce4bhph2rcd13ifvqheg","pricing_plan_id":"cebpf4jnsgd1na2vs0mg"},{"bike_id":"0e12b2b2-d3f2-49ab-adf9-62f565868244","system_id":"levelo_inurba_marseille","lat":43.31993,"lon":5.38135,"is_reserved":false,"is_disabled":false,"rental_uris":{"android":"levelo://app?vid=0e12b2b2-d3f2-49ab-adf9-62f565868244","ios":"levelo://app?vid=0e12b2b2-d3f2-49ab-adf9-62f565868244"},"vehicle_type_id":"4","last_reported":1753017812,"current_range_meters":16400,"station_id":"ce4bhr12rcd13ifvqhpg","pricing_plan_id":"cebpf4jnsgd1na2vs0mg"},{"bike_id":"c0891025-8c5b-4eaa-a169-f1586fcfd554","system_id":"levelo_inurba_marseille","lat":43.27816,"lon":5.4072,"is_reserved":false,"is_disabled":false,"rental_uris":{"android":"levelo://app?vid=c0891025-8c5b-4eaa-a169-f1586fcfd554","ios":"levelo://app?vid=c0891025-8c5b-4eaa-a169-f1586fcfd554"},"vehicle_type_id":"4","last_reported":1753017812,"current_range_meters":16400,"station_id":"ce4bhnh2rcd13ifvqgtg","pricing_plan_id":"cebpf4jnsgd1na2vs0mg"},{"bike_id":"991080c6-f716-4814-957a-957645a20cb5","system_id":"levelo_inurba_marseille","lat":43.28388,"lon":5.34997,"is_reserved":false,"is_disabled":false,"rental_uris":{"android":"levelo://app?vid=991080c6-f716-4814-957a-957645a20cb5","ios":"levelo://app?vid=991080c6-f716-4814-957a-957645a20cb5"},"vehicle_type_id":"4","last_reported":1753017812,"current_range_meters":16400,"station_id":"ce4bhbh2rcd13ifvqepg","pricing_plan_id":"cebpf4jnsgd1na2vs0mg"},{"bike_id":"18253714-4864-4bf8-9d15-d5019944a5b0","system_id":"levelo_inurba_marseille","lat":43.23057,"lon":5.3549,"is_reserved":false,"is_disabled":false,"rental_uris":{"android":"levelo://app?vid=18253714-4864-4bf8-9d15-d5019944a5b0","ios":"levelo://app?vid=18253714-4864-4bf8-9d15-d5019944a5b0"},"vehicle_type_id":"4","last_reported":1753017812,"current_range_meters":16800,"station_id":"cpo3342slgdg3j2ifvpg","pricing_plan_id":"cebpf4jnsgd1na2vs0mg"},{"bike_id":"341eec4e-ddcf-4f75-95c6-ecd84ef432ec","system_id":"levelo_inurba_marseille","lat":43.22923,"lon":5.35393,"is_reserved":false,"is_disabled":false,"rental_uris":{"android":"levelo://app?vid=341eec4e-ddcf-4f75-95c6-ecd84ef432ec","ios":"levelo://app?vid=341eec4e-ddcf-4f75-95c6-ecd84ef432ec"},"vehicle_type_id":"4","last_reported":1753017812,"current_range_meters":16800,"station_id":"cpo3532slgdg3j2ikp40","pricing_plan_id":"cebpf4jnsgd1na2vs0mg"},{"bike_id":"b862303e-1b88-4ff6-923a-6de878d2c4e1","system_id":"levelo_inurba_marseille","lat":43.27078,"lon":5.42262,"is_reserved":false,"is_disabled":false,"rental_uris":{"android":"levelo://app?vid=b862303e-1b88-4ff6-923a-6de878d2c4e1","ios":"levelo://app?vid=b862303e-1b88-4ff6-923a-6de878d2c4e1"},"vehicle_type_id":"4","last_reported":1753017812,"current_range_meters":16800,"station_id":"ce4bhk92rcd13ifvqgb0","pricing_plan_id":"cebpf4jnsgd1na2vs0mg"},{"bike_id":"aa7039ed-31a0-4747-a640-e94f3558d15e","system_id":"levelo_inurba_marseille","lat":43.225048,"lon":5.347773,"is_reserved":false,"is_disabled":true,"rental_uris":{"android":"levelo://app?vid=aa7039ed-31a0-4747-a640-e94f3558d15e","ios":"levelo://app?vid=aa7039ed-31a0-4747-a640-e94f3558d15e"},"vehicle_type_id":"4","last_reported":1753017812,"current_range_meters":16800,"station_id":"","pricing_plan_id":"cebpf4jnsgd1na2vs0mg"},{"bike_id":"ec8812ca-3a8f-4edc-b61d-8c1fd72183cc","system_id":"levelo_inurba_marseille","lat":43.25935,"lon":5.40896,"is_reserved":false,"is_disabled":false,"rental_uris":{"android":"levelo://app?vid=ec8812ca-3a8f-4edc-b61d-8c1fd72183cc","ios":"levelo://app?vid=ec8812ca-3a8f-4edc-b61d-8c1fd72183cc"},"vehicle_type_id":"4","last_reported":1753017812,"current_range_meters":16800,"station_id":"ce4bhm92rcd13ifvqglg","pricing_plan_id":"cebpf4jnsgd1na2vs0mg"},{"bike_id":"0ef30196-7a59-481f-80d1-4bfa310ddec0","system_id":"levelo_inurba_marseille","lat":43.286116,"lon":5.351003,"is_reserved":false,"is_disabled":false,"rental_uris":{"android":"levelo://app?vid=0ef30196-7a59-481f-80d1-4bfa310ddec0","ios":"levelo://app?vid=0ef30196-7a59-481f-80d1-4bfa310ddec0"},"vehicle_type_id":"4","last_reported":1753017812,"current_range_meters":16800,"station_id":"ce4bhch2rcd13ifvqeug","pricing_plan_id":"cebpf4jnsgd1na2vs0mg"},{"bike_id":"fd7fa9d4-a065-4538-8f86-7c06b17047b5","system_id":"levelo_inurba_marseille","lat":43.23176,"lon":5.39991,"is_reserved":false,"is_disabled":false,"rental_uris":{"android":"levelo://app?vid=fd7fa9d4-a065-4538-8f86-7c06b17047b5","ios":"levelo://app?vid=fd7fa9d4-a065-4538-8f86-7c06b17047b5"},"vehicle_type_id":"4","last_reported":1753017812,"current_range_meters":16400,"station_id":"ce4bhn12rcd13ifvqgqg","pricing_plan_id":"cebpf4jnsgd1na2vs0mg"},{"bike_id":"d3970ebc-5e45-4f2c-857e-92af7e599cff","system_id":"levelo_inurba_marseille","lat":43.2795,"lon":5.41049,"is_reserved":false,"is_disabled":false,"rental_uris":{"android":"levelo://app?vid=d3970ebc-5e45-4f2c-857e-92af7e599cff","ios":"levelo://app?vid=d3970ebc-5e45-4f2c-857e-92af7e599cff"},"vehicle_type_id":"4","last_reported":1753017812,"current_range_meters":16800,"station_id":"ce4bhnp2rcd13ifvqh0g","pricing_plan_id":"cebpf4jnsgd1na2vs0mg"},{"bike_id":"d8c3854a-c85f-475e-bec3-ba4546a9fbff","system_id":"levelo_inurba_marseille","lat":43.30535,"lon":5.36527,"is_reserved":false,"is_disabled":false,"rental_uris":{"android":"levelo://app?vid=d8c3854a-c85f-475e-bec3-ba4546a9fbff","ios":"levelo://app?vid=d8c3854a-c85f-475e-bec3-ba4546a9fbff"},"vehicle_type_id":"4","last_reported":1753017812,"current_range_meters":16800,"station_id":"ce4bgs12rcd13ifvqcag","pricing_plan_id":"cebpf4jnsgd1na2vs0mg"},{"bike_id":"53cb4f43-b1af-4efe-9f40-e0338804f4d4","system_id":"levelo_inurba_marseille","lat":43.31267,"lon":5.3902,"is_reserved":false,"is_disabled":false,"rental_uris":{"android":"levelo://app?vid=53cb4f43-b1af-4efe-9f40-e0338804f4d4","ios":"levelo://app?vid=53cb4f43-b1af-4efe-9f40-e0338804f4d4"},"vehicle_type_id":"4","last_reported":1753017812,"current_range_meters":16800,"station_id":"","pricing_plan_id":"cebpf4jnsgd1na2vs0mg"},{"bike_id":"5ccf6fcb-646f-4acf-9fbc-c7f16de7c973","system_id":"levelo_inurba_marseille","lat":43.32649,"lon":5.42348,"is_reserved":false,"is_disabled":false,"rental_uris":{"android":"levelo://app?vid=5ccf6fcb-646f-4acf-9fbc-c7f16de7c973","ios":"levelo://app?vid=5ccf6fcb-646f-4acf-9fbc-c7f16de7c973"},"vehicle_type_id":"4","last_reported":1753017812,"current_range_meters":16800,"station_id":"","pricing_plan_id":"cebpf4jnsgd1na2vs0mg"},{"bike_id":"4aebe5d6-0f33-4e6d-a782-ecf442abdeb3","system_id":"levelo_inurba_marseille","lat":43.24069,"lon":5.37756,"is_reserved":false,"is_disabled":false,"rental_uris":{"android":"levelo://app?vid=4aebe5d6-0f33-4e6d-a782-ecf442abdeb3","ios":"levelo://app?vid=4aebe5d6-0f33-4e6d-a782-ecf442abdeb3"},"vehicle_type_id":"4","last_reported":1753017812,"current_range_meters":16800,"station_id":"ce4bhnp2rcd13ifvqgvg","pricing_plan_id":"cebpf4jnsgd1na2vs0mg"},{"bike_id":"6cfcf428-0ede-4c91-a5f6-8e11f1e8ae87","system_id":"levelo_inurba_marseille","lat":43.299028,"lon":5.436822,"is_reserved":false,"is_disabled":false,"rental_uris":{"android":"levelo://app?vid=6cfcf428-0ede-4c91-a5f6-8e11f1e8ae87","ios":"levelo://app?vid=6cfcf428-0ede-4c91-a5f6-8e11f1e8ae87"},"vehicle_type_id":"4","last_reported":1753017812,"current_range_meters":16800,"station_id":"ce4bhpp2rcd13ifvqhfg","pricing_plan_id":"cebpf4jnsgd1na2vs0mg"},{"bike_id":"7a42e8f5-874a-4fdb-a6db-a3efe5b4ea7f","system_id":"levelo_inurba_marseille","lat":43.28255,"lon":5.35065,"is_reserved":false,"is_disabled":false,"rental_uris":{"android":"levelo://app?vid=7a42e8f5-874a-4fdb-a6db-a3efe5b4ea7f","ios":"levelo://app?vid=7a42e8f5-874a-4fdb-a6db-a3efe5b4ea7f"},"vehicle_type_id":"4","last_reported":1753017812,"current_range_meters":16800,"station_id":"ce4bhbp2rcd13ifvqerg","pricing_plan_id":"cebpf4jnsgd1na2vs0mg"},{"bike_id":"47c42873-a005-478e-953d-7fdb4918ff42","system_id":"levelo_inurba_marseille","lat":43.27978,"lon":5.41662,"is_reserved":false,"is_disabled":false,"rental_uris":{"android":"levelo://app?vid=47c42873-a005-478e-953d-7fdb4918ff42","ios":"levelo://app?vid=47c42873-a005-478e-953d-7fdb4918ff42"},"vehicle_type_id":"4","last_reported":1753017812,"current_range_meters":16800,"station_id":"ce4bho12rcd13ifvqh1g","pricing_plan_id":"cebpf4jnsgd1na2vs0mg"},{"bike_id":"da7a4d6d-f75c-49d0-986c-8ccea8df1900","system_id":"levelo_inurba_marseille","lat":43.28422,"lon":5.34999,"is_reserved":false,"is_disabled":false,"rental_uris":{"android":"levelo://app?vid=da7a4d6d-f75c-49d0-986c-8ccea8df1900","ios":"levelo://app?vid=da7a4d6d-f75c-49d0-986c-8ccea8df1900"},"vehicle_type_id":"4","last_reported":1753017812,"current_range_meters":16800,"station_id":"ce4bhbh2rcd13ifvqepg","pricing_plan_id":"cebpf4jnsgd1na2vs0mg"},{"bike_id":"45f484f7-f884-4bb2-b999-0e689bd9e672","system_id":"levelo_inurba_marseille","lat":43.273767,"lon":5.362542,"is_reserved":false,"is_disabled":false,"rental_uris":{"android":"levelo://app?vid=45f484f7-f884-4bb2-b999-0e689bd9e672","ios":"levelo://app?vid=45f484f7-f884-4bb2-b999-0e689bd9e672"},"vehicle_type_id":"4","last_reported":1753017812,"current_range_meters":16800,"station_id":"ce4bhbh2rcd13ifvqeo0","pricing_plan_id":"cebpf4jnsgd1na2vs0mg"},{"bike_id":"ada6932b-7420-4c84-a0fa-b886dae5ac2d","system_id":"levelo_inurba_marseille","lat":43.28477,"lon":5.38428,"is_reserved":false,"is_disabled":true,"rental_uris":{"android":"levelo://app?vid=ada6932b-7420-4c84-a0fa-b886dae5ac2d","ios":"levelo://app?vid=ada6932b-7420-4c84-a0fa-b886dae5ac2d"},"vehicle_type_id":"4","last_reported":1753017812,"current_range_meters":16800,"station_id":"ce4bh512rcd13ifvqe3g","pricing_plan_id":"cebpf4jnsgd1na2vs0mg"},{"bike_id":"50f8d88d-d50c-4811-b545-597a88c8b60d","system_id":"levelo_inurba_marseille","lat":43.293052,"lon":5.369646,"is_reserved":false,"is_disabled":false,"rental_uris":{"android":"levelo://app?vid=50f8d88d-d50c-4811-b545-597a88c8b60d","ios":"levelo://app?vid=50f8d88d-d50c-4811-b545-597a88c8b60d"},"vehicle_type_id":"4","last_reported":1753017812,"current_range_meters":16800,"station_id":"","pricing_plan_id":"cebpf4jnsgd1na2vs0mg"},{"bike_id":"ddd091a1-0047-42e2-af45-0487ebf73bd3","system_id":"levelo_inurba_marseille","lat":43.28423,"lon":5.37546,"is_reserved":false,"is_disabled":false,"rental_uris":{"android":"levelo://app?vid=ddd091a1-0047-42e2-af45-0487ebf73bd3","ios":"levelo://app?vid=ddd091a1-0047-42e2-af45-0487ebf73bd3"},"vehicle_type_id":"4","last_reported":1753017812,"current_range_meters":16800,"station_id":"ce4bh412rcd13ifvqds0","pricing_plan_id":"cebpf4jnsgd1na2vs0mg"},{"bike_id":"4355836e-ae99-4039-b85f-c4e239c9dca5","system_id":"levelo_inurba_marseille","lat":43.29898,"lon":5.43664,"is_reserved":false,"is_disabled":false,"rental_uris":{"android":"levelo://app?vid=4355836e-ae99-4039-b85f-c4e239c9dca5","ios":"levelo://app?vid=4355836e-ae99-4039-b85f-c4e239c9dca5"},"vehicle_type_id":"4","last_reported":1753017812,"current_range_meters":17200,"station_id":"ce4bhpp2rcd13ifvqhfg","pricing_plan_id":"cebpf4jnsgd1na2vs0mg"},{"bike_id":"301a8741-347c-488a-8b0d-35d7ab91e8aa","system_id":"levelo_inurba_marseille","lat":43.25501,"lon":5.37649,"is_reserved":false,"is_disabled":false,"rental_uris":{"android":"levelo://app?vid=301a8741-347c-488a-8b0d-35d7ab91e8aa","ios":"levelo://app?vid=301a8741-347c-488a-8b0d-35d7ab91e8aa"},"vehicle_type_id":"4","last_reported":1753017812,"current_range_meters":16800,"station_id":"ce4bhh12rcd13ifvqff0","pricing_plan_id":"cebpf4jnsgd1na2vs0mg"},{"bike_id":"4c8283f7-9214-4f90-b93f-b371d5ff3abb","system_id":"levelo_inurba_marseille","lat":43.2119,"lon":5.35075,"is_reserved":false,"is_disabled":false,"rental_uris":{"android":"levelo://app?vid=4c8283f7-9214-4f90-b93f-b371d5ff3abb","ios":"levelo://app?vid=4c8283f7-9214-4f90-b93f-b371d5ff3abb"},"vehicle_type_id":"4","last_reported":1753017812,"current_range_meters":17200,"station_id":"st_cvj6sg6p6f1abm77japg","pricing_plan_id":"cebpf4jnsgd1na2vs0mg"},{"bike_id":"f3f581c3-7fd6-46b6-b25c-df950de01306","system_id":"levelo_inurba_marseille","lat":43.28724,"lon":5.39964,"is_reserved":false,"is_disabled":true,"rental_uris":{"android":"levelo://app?vid=f3f581c3-7fd6-46b6-b25c-df950de01306","ios":"levelo://app?vid=f3f581c3-7fd6-46b6-b25c-df950de01306"},"vehicle_type_id":"4","last_reported":1753017812,"current_range_meters":17200,"station_id":"ce4bho92rcd13ifvqh3g","pricing_plan_id":"cebpf4jnsgd1na2vs0mg"},{"bike_id":"6da7ca7d-6633-429b-9803-313dc5de4c11","system_id":"levelo_inurba_marseille","lat":43.22497,"lon":5.34762,"is_reserved":false,"is_disabled":false,"rental_uris":{"android":"levelo://app?vid=6da7ca7d-6633-429b-9803-313dc5de4c11","ios":"levelo://app?vid=6da7ca7d-6633-429b-9803-313dc5de4c11"},"vehicle_type_id":"4","last_reported":1753017812,"current_range_meters":17200,"station_id":"st_cvj5dfep6f1abm77gieg","pricing_plan_id":"cebpf4jnsgd1na2vs0mg"},{"bike_id":"8979afbb-d831-492b-8bd1-2b5d774796f7","system_id":"levelo_inurba_marseille","lat":43.27066,"lon":5.42274,"is_reserved":false,"is_disabled":false,"rental_uris":{"android":"levelo://app?vid=8979afbb-d831-492b-8bd1-2b5d774796f7","ios":"levelo://app?vid=8979afbb-d831-492b-8bd1-2b5d774796f7"},"vehicle_type_id":"4","last_reported":1753017812,"current_range_meters":17200,"station_id":"ce4bhk92rcd13ifvqgb0","pricing_plan_id":"cebpf4jnsgd1na2vs0mg"},{"bike_id":"29d30603-a706-483a-a12e-d959c10147d5","system_id":"levelo_inurba_marseille","lat":43.21195,"lon":5.3507,"is_reserved":false,"is_disabled":false,"rental_uris":{"android":"levelo://app?vid=29d30603-a706-483a-a12e-d959c10147d5","ios":"levelo://app?vid=29d30603-a706-483a-a12e-d959c10147d5"},"vehicle_type_id":"4","last_reported":1753017812,"current_range_meters":17200,"station_id":"st_cvj6sg6p6f1abm77japg","pricing_plan_id":"cebpf4jnsgd1na2vs0mg"},{"bike_id":"55f2f42f-2c77-4f2c-a615-346aaedeeebd","system_id":"levelo_inurba_marseille","lat":43.30501,"lon":5.36537,"is_reserved":false,"is_disabled":false,"rental_uris":{"android":"levelo://app?vid=55f2f42f-2c77-4f2c-a615-346aaedeeebd","ios":"levelo://app?vid=55f2f42f-2c77-4f2c-a615-346aaedeeebd"},"vehicle_type_id":"4","last_reported":1753017812,"current_range_meters":17200,"station_id":"","pricing_plan_id":"cebpf4jnsgd1na2vs0mg"},{"bike_id":"e491260c-0931-41e0-8ec2-c00cead8dfe0","system_id":"levelo_inurba_marseille","lat":43.28395,"lon":5.34994,"is_reserved":false,"is_disabled":false,"rental_uris":{"android":"levelo://app?vid=e491260c-0931-41e0-8ec2-c00cead8dfe0","ios":"levelo://app?vid=e491260c-0931-41e0-8ec2-c00cead8dfe0"},"vehicle_type_id":"4","last_reported":1753017812,"current_range_meters":17200,"station_id":"ce4bhbh2rcd13ifvqepg","pricing_plan_id":"cebpf4jnsgd1na2vs0mg"},{"bike_id":"42752829-3ee2-4e84-849d-429017304915","system_id":"levelo_inurba_marseille","lat":43.284561,"lon":5.359291,"is_reserved":false,"is_disabled":true,"rental_uris":{"android":"levelo://app?vid=42752829-3ee2-4e84-849d-429017304915","ios":"levelo://app?vid=42752829-3ee2-4e84-849d-429017304915"},"vehicle_type_id":"4","last_reported":1753017812,"current_range_meters":17200,"station_id":"ce4bhah2rcd13ifvqei0","pricing_plan_id":"cebpf4jnsgd1na2vs0mg"},{"bike_id":"3a0ad0b3-730c-4b6f-afc8-d25401cb7d69","system_id":"levelo_inurba_marseille","lat":43.24675,"lon":5.38169,"is_reserved":false,"is_disabled":false,"rental_uris":{"android":"levelo://app?vid=3a0ad0b3-730c-4b6f-afc8-d25401cb7d69","ios":"levelo://app?vid=3a0ad0b3-730c-4b6f-afc8-d25401cb7d69"},"vehicle_type_id":"4","last_reported":1753017812,"current_range_meters":17200,"station_id":"ce4bhih2rcd13ifvqfr0","pricing_plan_id":"cebpf4jnsgd1na2vs0mg"},{"bike_id":"d007a63b-662c-4b54-b17f-51fadf0cd81e","system_id":"levelo_inurba_marseille","lat":43.22928,"lon":5.353798,"is_reserved":false,"is_disabled":false,"rental_uris":{"android":"levelo://app?vid=d007a63b-662c-4b54-b17f-51fadf0cd81e","ios":"levelo://app?vid=d007a63b-662c-4b54-b17f-51fadf0cd81e"},"vehicle_type_id":"4","last_reported":1753017812,"current_range_meters":17600,"station_id":"","pricing_plan_id":"cebpf4jnsgd1na2vs0mg"},{"bike_id":"45591a76-f4c5-4495-8ca9-f3b297743511","system_id":"levelo_inurba_marseille","lat":43.26683,"lon":5.3827,"is_reserved":false,"is_disabled":false,"rental_uris":{"android":"levelo://app?vid=45591a76-f4c5-4495-8ca9-f3b297743511","ios":"levelo://app?vid=45591a76-f4c5-4495-8ca9-f3b297743511"},"vehicle_type_id":"4","last_reported":1753017812,"current_range_meters":17200,"station_id":"ce4bhg92rcd13ifvqf90","pricing_plan_id":"cebpf4jnsgd1na2vs0mg"},{"bike_id":"5a8d73ca-dc2e-4e30-b74b-2a86aedd50c9","system_id":"levelo_inurba_marseille","lat":43.29703,"lon":5.36614,"is_reserved":false,"is_disabled":false,"rental_uris":{"android":"levelo://app?vid=5a8d73ca-dc2e-4e30-b74b-2a86aedd50c9","ios":"levelo://app?vid=5a8d73ca-dc2e-4e30-b74b-2a86aedd50c9"},"vehicle_type_id":"4","last_reported":1753017812,"current_range_meters":17200,"station_id":"ce4bgn12rcd13ifvqbt0","pricing_plan_id":"cebpf4jnsgd1na2vs0mg"},{"bike_id":"79591f97-85c6-4478-a01f-5d444fe3efd8","system_id":"levelo_inurba_marseille","lat":43.26701,"lon":5.38252,"is_reserved":false,"is_disabled":false,"rental_uris":{"android":"levelo://app?vid=79591f97-85c6-4478-a01f-5d444fe3efd8","ios":"levelo://app?vid=79591f97-85c6-4478-a01f-5d444fe3efd8"},"vehicle_type_id":"4","last_reported":1753017812,"current_range_meters":17600,"station_id":"ce4bhg92rcd13ifvqf90","pricing_plan_id":"cebpf4jnsgd1na2vs0mg"},{"bike_id":"01ef6f38-0cb9-4831-9c9a-0f76f326e484","system_id":"levelo_inurba_marseille","lat":43.29002,"lon":5.35631,"is_reserved":false,"is_disabled":true,"rental_uris":{"android":"levelo://app?vid=01ef6f38-0cb9-4831-9c9a-0f76f326e484","ios":"levelo://app?vid=01ef6f38-0cb9-4831-9c9a-0f76f326e484"},"vehicle_type_id":"4","last_reported":1753017812,"current_range_meters":17600,"station_id":"ce4bhb92rcd13ifvqen0","pricing_plan_id":"cebpf4jnsgd1na2vs0mg"},{"bike_id":"3d36c590-bfb3-4f3d-a821-3b0275041fa7","system_id":"levelo_inurba_marseille","lat":43.30422,"lon":5.41308,"is_reserved":false,"is_disabled":false,"rental_uris":{"android":"levelo://app?vid=3d36c590-bfb3-4f3d-a821-3b0275041fa7","ios":"levelo://app?vid=3d36c590-bfb3-4f3d-a821-3b0275041fa7"},"vehicle_type_id":"4","last_reported":1753017812,"current_range_meters":17600,"station_id":"ce4bhop2rcd13ifvqh8g","pricing_plan_id":"cebpf4jnsgd1na2vs0mg"},{"bike_id":"b1634df7-f02c-4fc2-b195-6b1306c61596","system_id":"levelo_inurba_marseille","lat":43.28426,"lon":5.34986,"is_reserved":false,"is_disabled":false,"rental_uris":{"android":"levelo://app?vid=b1634df7-f02c-4fc2-b195-6b1306c61596","ios":"levelo://app?vid=b1634df7-f02c-4fc2-b195-6b1306c61596"},"vehicle_type_id":"4","last_reported":1753017812,"current_range_meters":17600,"station_id":"ce4bhbh2rcd13ifvqepg","pricing_plan_id":"cebpf4jnsgd1na2vs0mg"},{"bike_id":"0955e11f-8299-4f47-9beb-0583b9c4800c","system_id":"levelo_inurba_marseille","lat":43.26201,"lon":5.37927,"is_reserved":false,"is_disabled":false,"rental_uris":{"android":"levelo://app?vid=0955e11f-8299-4f47-9beb-0583b9c4800c","ios":"levelo://app?vid=0955e11f-8299-4f47-9beb-0583b9c4800c"},"vehicle_type_id":"4","last_reported":1753017812,"current_range_meters":17600,"station_id":"ce4bhjp2rcd13ifvqg90","pricing_plan_id":"cebpf4jnsgd1na2vs0mg"},{"bike_id":"ae2679a0-b2a2-4165-87f5-73851922f36f","system_id":"levelo_inurba_marseille","lat":43.24962,"lon":5.41646,"is_reserved":false,"is_disabled":false,"rental_uris":{"android":"levelo://app?vid=ae2679a0-b2a2-4165-87f5-73851922f36f","ios":"levelo://app?vid=ae2679a0-b2a2-4165-87f5-73851922f36f"},"vehicle_type_id":"4","last_reported":1753017812,"current_range_meters":17600,"station_id":"","pricing_plan_id":"cebpf4jnsgd1na2vs0mg"},{"bike_id":"86034328-b502-49e8-be1c-6931ad90e79c","system_id":"levelo_inurba_marseille","lat":43.28393,"lon":5.34993,"is_reserved":false,"is_disabled":false,"rental_uris":{"android":"levelo://app?vid=86034328-b502-49e8-be1c-6931ad90e79c","ios":"levelo://app?vid=86034328-b502-49e8-be1c-6931ad90e79c"},"vehicle_type_id":"4","last_reported":1753017812,"current_range_meters":17600,"station_id":"ce4bhbh2rcd13ifvqepg","pricing_plan_id":"cebpf4jnsgd1na2vs0mg"},{"bike_id":"de9a47b5-edea-465f-9387-34f73bc29d46","system_id":"levelo_inurba_marseille","lat":43.22962,"lon":5.35354,"is_reserved":false,"is_disabled":false,"rental_uris":{"android":"levelo://app?vid=de9a47b5-edea-465f-9387-34f73bc29d46","ios":"levelo://app?vid=de9a47b5-edea-465f-9387-34f73bc29d46"},"vehicle_type_id":"4","last_reported":1753017812,"current_range_meters":17600,"station_id":"cpo3532slgdg3j2ikp40","pricing_plan_id":"cebpf4jnsgd1na2vs0mg"},{"bike_id":"65a20e37-52d8-438d-8beb-a2ad18bb95e3","system_id":"levelo_inurba_marseille","lat":43.262,"lon":5.37453,"is_reserved":false,"is_disabled":false,"rental_uris":{"android":"levelo://app?vid=65a20e37-52d8-438d-8beb-a2ad18bb95e3","ios":"levelo://app?vid=65a20e37-52d8-438d-8beb-a2ad18bb95e3"},"vehicle_type_id":"4","last_reported":1753017812,"current_range_meters":17600,"station_id":"ce4bhgp2rcd13ifvqfc0","pricing_plan_id":"cebpf4jnsgd1na2vs0mg"},{"bike_id":"24b0b4d6-0420-4eec-a162-93efd4877bfd","system_id":"levelo_inurba_marseille","lat":43.2417,"lon":5.36397,"is_reserved":false,"is_disabled":false,"rental_uris":{"android":"levelo://app?vid=24b0b4d6-0420-4eec-a162-93efd4877bfd","ios":"levelo://app?vid=24b0b4d6-0420-4eec-a162-93efd4877bfd"},"vehicle_type_id":"4","last_reported":1753017812,"current_range_meters":18000,"station_id":"cpo36qri1sfpv3e86is0","pricing_plan_id":"cebpf4jnsgd1na2vs0mg"},{"bike_id":"d44080ba-782b-4bf5-a574-52eb72fb76d6","system_id":"levelo_inurba_marseille","lat":43.23059,"lon":5.3549,"is_reserved":false,"is_disabled":false,"rental_uris":{"android":"levelo://app?vid=d44080ba-782b-4bf5-a574-52eb72fb76d6","ios":"levelo://app?vid=d44080ba-782b-4bf5-a574-52eb72fb76d6"},"vehicle_type_id":"4","last_reported":1753017812,"current_range_meters":18000,"station_id":"cpo3342slgdg3j2ifvpg","pricing_plan_id":"cebpf4jnsgd1na2vs0mg"},{"bike_id":"dba8e4de-630e-4960-90be-b7671148909e","system_id":"levelo_inurba_marseille","lat":43.24388,"lon":5.37063,"is_reserved":false,"is_disabled":false,"rental_uris":{"android":"levelo://app?vid=dba8e4de-630e-4960-90be-b7671148909e","ios":"levelo://app?vid=dba8e4de-630e-4960-90be-b7671148909e"},"vehicle_type_id":"4","last_reported":1753017812,"current_range_meters":18000,"station_id":"ce4bhhh2rcd13ifvqfk0","pricing_plan_id":"cebpf4jnsgd1na2vs0mg"},{"bike_id":"af85a754-e1d2-4377-b7c7-b4fa05f1118c","system_id":"levelo_inurba_marseille","lat":43.23188,"lon":5.39985,"is_reserved":false,"is_disabled":false,"rental_uris":{"android":"levelo://app?vid=af85a754-e1d2-4377-b7c7-b4fa05f1118c","ios":"levelo://app?vid=af85a754-e1d2-4377-b7c7-b4fa05f1118c"},"vehicle_type_id":"4","last_reported":1753017812,"current_range_meters":18000,"station_id":"ce4bhn12rcd13ifvqgqg","pricing_plan_id":"cebpf4jnsgd1na2vs0mg"},{"bike_id":"f7531689-bf44-478f-a135-a6edf24bff99","system_id":"levelo_inurba_marseille","lat":43.28025,"lon":5.36968,"is_reserved":false,"is_disabled":false,"rental_uris":{"android":"levelo://app?vid=f7531689-bf44-478f-a135-a6edf24bff99","ios":"levelo://app?vid=f7531689-bf44-478f-a135-a6edf24bff99"},"vehicle_type_id":"4","last_reported":1753017812,"current_range_meters":18000,"station_id":"ce4bha12rcd13ifvqef0","pricing_plan_id":"cebpf4jnsgd1na2vs0mg"},{"bike_id":"8f7adead-f100-4066-9aea-32606b93a10c","system_id":"levelo_inurba_marseille","lat":43.284,"lon":5.34996,"is_reserved":false,"is_disabled":false,"rental_uris":{"android":"levelo://app?vid=8f7adead-f100-4066-9aea-32606b93a10c","ios":"levelo://app?vid=8f7adead-f100-4066-9aea-32606b93a10c"},"vehicle_type_id":"4","last_reported":1753017812,"current_range_meters":18000,"station_id":"ce4bhbh2rcd13ifvqepg","pricing_plan_id":"cebpf4jnsgd1na2vs0mg"},{"bike_id":"d2a9ef2a-3ecf-454e-ac8d-c81b3a196753","system_id":"levelo_inurba_marseille","lat":43.28623,"lon":5.3822,"is_reserved":false,"is_disabled":false,"rental_uris":{"android":"levelo://app?vid=d2a9ef2a-3ecf-454e-ac8d-c81b3a196753","ios":"levelo://app?vid=d2a9ef2a-3ecf-454e-ac8d-c81b3a196753"},"vehicle_type_id":"4","last_reported":1753017812,"current_range_meters":18000,"station_id":"","pricing_plan_id":"cebpf4jnsgd1na2vs0mg"},{"bike_id":"054459cc-5be1-4b82-9260-a4f74104380f","system_id":"levelo_inurba_marseille","lat":43.29552,"lon":5.42298,"is_reserved":false,"is_disabled":false,"rental_uris":{"android":"levelo://app?vid=054459cc-5be1-4b82-9260-a4f74104380f","ios":"levelo://app?vid=054459cc-5be1-4b82-9260-a4f74104380f"},"vehicle_type_id":"4","last_reported":1753017812,"current_range_meters":18000,"station_id":"ce4bhph2rcd13ifvqhdg","pricing_plan_id":"cebpf4jnsgd1na2vs0mg"},{"bike_id":"63b0b856-af33-4970-b22e-c07117f2395e","system_id":"levelo_inurba_marseille","lat":43.211958,"lon":5.350748,"is_reserved":false,"is_disabled":false,"rental_uris":{"android":"levelo://app?vid=63b0b856-af33-4970-b22e-c07117f2395e","ios":"levelo://app?vid=63b0b856-af33-4970-b22e-c07117f2395e"},"vehicle_type_id":"4","last_reported":1753017812,"current_range_meters":18000,"station_id":"st_cvj6sg6p6f1abm77japg","pricing_plan_id":"cebpf4jnsgd1na2vs0mg"},{"bike_id":"c47c4612-aa9a-40e0-9a78-5da247b20688","system_id":"levelo_inurba_marseille","lat":43.2252,"lon":5.34777,"is_reserved":false,"is_disabled":false,"rental_uris":{"android":"levelo://app?vid=c47c4612-aa9a-40e0-9a78-5da247b20688","ios":"levelo://app?vid=c47c4612-aa9a-40e0-9a78-5da247b20688"},"vehicle_type_id":"4","last_reported":1753017812,"current_range_meters":18000,"station_id":"st_cvj5dfep6f1abm77gieg","pricing_plan_id":"cebpf4jnsgd1na2vs0mg"},{"bike_id":"fd3361a7-6d78-4789-b01c-9d2672f8b120","system_id":"levelo_inurba_marseille","lat":43.28268,"lon":5.35061,"is_reserved":false,"is_disabled":false,"rental_uris":{"android":"levelo://app?vid=fd3361a7-6d78-4789-b01c-9d2672f8b120","ios":"levelo://app?vid=fd3361a7-6d78-4789-b01c-9d2672f8b120"},"vehicle_type_id":"4","last_reported":1753017812,"current_range_meters":18000,"station_id":"ce4bhbp2rcd13ifvqerg","pricing_plan_id":"cebpf4jnsgd1na2vs0mg"},{"bike_id":"e31bd909-7c26-4233-baa8-f6b06a8e2289","system_id":"levelo_inurba_marseille","lat":43.28617,"lon":5.35093,"is_reserved":false,"is_disabled":false,"rental_uris":{"android":"levelo://app?vid=e31bd909-7c26-4233-baa8-f6b06a8e2289","ios":"levelo://app?vid=e31bd909-7c26-4233-baa8-f6b06a8e2289"},"vehicle_type_id":"4","last_reported":1753017812,"current_range_meters":18000,"station_id":"ce4bhch2rcd13ifvqeug","pricing_plan_id":"cebpf4jnsgd1na2vs0mg"},{"bike_id":"d38c1d91-51eb-4002-91e2-00f8911f8e7e","system_id":"levelo_inurba_marseille","lat":43.21754,"lon":5.34575,"is_reserved":false,"is_disabled":false,"rental_uris":{"android":"levelo://app?vid=d38c1d91-51eb-4002-91e2-00f8911f8e7e","ios":"levelo://app?vid=d38c1d91-51eb-4002-91e2-00f8911f8e7e"},"vehicle_type_id":"4","last_reported":1753017812,"current_range_meters":18800,"station_id":"st_cvj6r9ubvosntc0bgbag","pricing_plan_id":"cebpf4jnsgd1na2vs0mg"},{"bike_id":"c6f13c59-2793-4a1e-87aa-6f0d71252623","system_id":"levelo_inurba_marseille","lat":43.29895,"lon":5.43664,"is_reserved":false,"is_disabled":false,"rental_uris":{"android":"levelo://app?vid=c6f13c59-2793-4a1e-87aa-6f0d71252623","ios":"levelo://app?vid=c6f13c59-2793-4a1e-87aa-6f0d71252623"},"vehicle_type_id":"4","last_reported":1753017812,"current_range_meters":18800,"station_id":"ce4bhpp2rcd13ifvqhfg","pricing_plan_id":"cebpf4jnsgd1na2vs0mg"},{"bike_id":"fb68d8b5-66f2-4ded-8d97-dd44c4723c5c","system_id":"levelo_inurba_marseille","lat":43.24389,"lon":5.37055,"is_reserved":false,"is_disabled":false,"rental_uris":{"android":"levelo://app?vid=fb68d8b5-66f2-4ded-8d97-dd44c4723c5c","ios":"levelo://app?vid=fb68d8b5-66f2-4ded-8d97-dd44c4723c5c"},"vehicle_type_id":"4","last_reported":1753017812,"current_range_meters":18800,"station_id":"ce4bhhh2rcd13ifvqfk0","pricing_plan_id":"cebpf4jnsgd1na2vs0mg"},{"bike_id":"89b2ec7a-c97b-45ff-9608-2e0541a00928","system_id":"levelo_inurba_marseille","lat":43.21187,"lon":5.3507,"is_reserved":false,"is_disabled":false,"rental_uris":{"android":"levelo://app?vid=89b2ec7a-c97b-45ff-9608-2e0541a00928","ios":"levelo://app?vid=89b2ec7a-c97b-45ff-9608-2e0541a00928"},"vehicle_type_id":"4","last_reported":1753017812,"current_range_meters":18800,"station_id":"st_cvj6sg6p6f1abm77japg","pricing_plan_id":"cebpf4jnsgd1na2vs0mg"},{"bike_id":"1474f2f0-3dcf-447e-a08e-9a50bee485bf","system_id":"levelo_inurba_marseille","lat":43.27904,"lon":5.35331,"is_reserved":false,"is_disabled":false,"rental_uris":{"android":"levelo://app?vid=1474f2f0-3dcf-447e-a08e-9a50bee485bf","ios":"levelo://app?vid=1474f2f0-3dcf-447e-a08e-9a50bee485bf"},"vehicle_type_id":"4","last_reported":1753017812,"current_range_meters":18800,"station_id":"","pricing_plan_id":"cebpf4jnsgd1na2vs0mg"},{"bike_id":"f3ad1c2e-6c42-486f-92cc-44937a6700cd","system_id":"levelo_inurba_marseille","lat":43.23961,"lon":5.36627,"is_reserved":false,"is_disabled":false,"rental_uris":{"android":"levelo://app?vid=f3ad1c2e-6c42-486f-92cc-44937a6700cd","ios":"levelo://app?vid=f3ad1c2e-6c42-486f-92cc-44937a6700cd"},"vehicle_type_id":"4","last_reported":1753017812,"current_range_meters":18800,"station_id":"ce4bhi12rcd13ifvqfp0","pricing_plan_id":"cebpf4jnsgd1na2vs0mg"},{"bike_id":"d100812f-9e77-4b3a-a11b-18211b570584","system_id":"levelo_inurba_marseille","lat":43.32498,"lon":5.3656,"is_reserved":false,"is_disabled":false,"rental_uris":{"android":"levelo://app?vid=d100812f-9e77-4b3a-a11b-18211b570584","ios":"levelo://app?vid=d100812f-9e77-4b3a-a11b-18211b570584"},"vehicle_type_id":"4","last_reported":1753017812,"current_range_meters":18800,"station_id":"ce4bhs12rcd13ifvqhvg","pricing_plan_id":"cebpf4jnsgd1na2vs0mg"},{"bike_id":"22291762-a456-4893-9651-61a760232c34","system_id":"levelo_inurba_marseille","lat":43.229426,"lon":5.353966,"is_reserved":false,"is_disabled":false,"rental_uris":{"android":"levelo://app?vid=22291762-a456-4893-9651-61a760232c34","ios":"levelo://app?vid=22291762-a456-4893-9651-61a760232c34"},"vehicle_type_id":"4","last_reported":1753017812,"current_range_meters":18800,"station_id":"cpo3532slgdg3j2ikp40","pricing_plan_id":"cebpf4jnsgd1na2vs0mg"},{"bike_id":"3527e5ec-8e88-4544-ab6a-55654224d928","system_id":"levelo_inurba_marseille","lat":43.23061,"lon":5.35493,"is_reserved":false,"is_disabled":false,"rental_uris":{"android":"levelo://app?vid=3527e5ec-8e88-4544-ab6a-55654224d928","ios":"levelo://app?vid=3527e5ec-8e88-4544-ab6a-55654224d928"},"vehicle_type_id":"4","last_reported":1753017812,"current_range_meters":18800,"station_id":"cpo3342slgdg3j2ifvpg","pricing_plan_id":"cebpf4jnsgd1na2vs0mg"},{"bike_id":"aacc1604-b351-47a4-8a14-228f69963db9","system_id":"levelo_inurba_marseille","lat":43.24701,"lon":5.38134,"is_reserved":false,"is_disabled":false,"rental_uris":{"android":"levelo://app?vid=aacc1604-b351-47a4-8a14-228f69963db9","ios":"levelo://app?vid=aacc1604-b351-47a4-8a14-228f69963db9"},"vehicle_type_id":"4","last_reported":1753017812,"current_range_meters":18800,"station_id":"ce4bhih2rcd13ifvqfr0","pricing_plan_id":"cebpf4jnsgd1na2vs0mg"},{"bike_id":"289cf340-bdcb-42ec-991d-8a6e305d7642","system_id":"levelo_inurba_marseille","lat":43.24392,"lon":5.3705,"is_reserved":false,"is_disabled":false,"rental_uris":{"android":"levelo://app?vid=289cf340-bdcb-42ec-991d-8a6e305d7642","ios":"levelo://app?vid=289cf340-bdcb-42ec-991d-8a6e305d7642"},"vehicle_type_id":"4","last_reported":1753017812,"current_range_meters":18800,"station_id":"ce4bhhh2rcd13ifvqfk0","pricing_plan_id":"cebpf4jnsgd1na2vs0mg"},{"bike_id":"3ab7162b-9344-4f46-814c-eccdc18f91c2","system_id":"levelo_inurba_marseille","lat":43.22506,"lon":5.34784,"is_reserved":false,"is_disabled":false,"rental_uris":{"android":"levelo://app?vid=3ab7162b-9344-4f46-814c-eccdc18f91c2","ios":"levelo://app?vid=3ab7162b-9344-4f46-814c-eccdc18f91c2"},"vehicle_type_id":"4","last_reported":1753017812,"current_range_meters":19200,"station_id":"st_cvj5dfep6f1abm77gieg","pricing_plan_id":"cebpf4jnsgd1na2vs0mg"},{"bike_id":"2372b3c1-7889-4481-b575-1e7041cbe4c6","system_id":"levelo_inurba_marseille","lat":43.24083,"lon":5.37764,"is_reserved":false,"is_disabled":false,"rental_uris":{"android":"levelo://app?vid=2372b3c1-7889-4481-b575-1e7041cbe4c6","ios":"levelo://app?vid=2372b3c1-7889-4481-b575-1e7041cbe4c6"},"vehicle_type_id":"4","last_reported":1753017812,"current_range_meters":19200,"station_id":"ce4bhnp2rcd13ifvqgvg","pricing_plan_id":"cebpf4jnsgd1na2vs0mg"},{"bike_id":"9730fae3-5668-4fa8-aa98-3189373117fb","system_id":"levelo_inurba_marseille","lat":43.229336,"lon":5.353759,"is_reserved":false,"is_disabled":false,"rental_uris":{"android":"levelo://app?vid=9730fae3-5668-4fa8-aa98-3189373117fb","ios":"levelo://app?vid=9730fae3-5668-4fa8-aa98-3189373117fb"},"vehicle_type_id":"4","last_reported":1753017812,"current_range_meters":19200,"station_id":"cpo3532slgdg3j2ikp40","pricing_plan_id":"cebpf4jnsgd1na2vs0mg"},{"bike_id":"161aeac3-4d5a-4661-9bae-ad1814bc1661","system_id":"levelo_inurba_marseille","lat":43.22524,"lon":5.34789,"is_reserved":false,"is_disabled":false,"rental_uris":{"android":"levelo://app?vid=161aeac3-4d5a-4661-9bae-ad1814bc1661","ios":"levelo://app?vid=161aeac3-4d5a-4661-9bae-ad1814bc1661"},"vehicle_type_id":"4","last_reported":1753017812,"current_range_meters":19200,"station_id":"","pricing_plan_id":"cebpf4jnsgd1na2vs0mg"},{"bike_id":"de035642-eed1-42aa-b7d6-f006663c350b","system_id":"levelo_inurba_marseille","lat":43.27818,"lon":5.35462,"is_reserved":false,"is_disabled":false,"rental_uris":{"android":"levelo://app?vid=de035642-eed1-42aa-b7d6-f006663c350b","ios":"levelo://app?vid=de035642-eed1-42aa-b7d6-f006663c350b"},"vehicle_type_id":"4","last_reported":1753017812,"current_range_meters":19200,"station_id":"","pricing_plan_id":"cebpf4jnsgd1na2vs0mg"},{"bike_id":"78bcd778-8088-4038-a043-6c07672a1f85","system_id":"levelo_inurba_marseille","lat":43.24185,"lon":5.39732,"is_reserved":false,"is_disabled":false,"rental_uris":{"android":"levelo://app?vid=78bcd778-8088-4038-a043-6c07672a1f85","ios":"levelo://app?vid=78bcd778-8088-4038-a043-6c07672a1f85"},"vehicle_type_id":"4","last_reported":1753017812,"current_range_meters":19200,"station_id":"ce4bhn12rcd13ifvqgpg","pricing_plan_id":"cebpf4jnsgd1na2vs0mg"},{"bike_id":"56291702-3d72-43c1-9d58-448fd0c112da","system_id":"levelo_inurba_marseille","lat":43.30797,"lon":5.4353,"is_reserved":false,"is_disabled":false,"rental_uris":{"android":"levelo://app?vid=56291702-3d72-43c1-9d58-448fd0c112da","ios":"levelo://app?vid=56291702-3d72-43c1-9d58-448fd0c112da"},"vehicle_type_id":"4","last_reported":1753017812,"current_range_meters":19200,"station_id":"ce4bhph2rcd13ifvqheg","pricing_plan_id":"cebpf4jnsgd1na2vs0mg"},{"bike_id":"ac49738a-4d4f-43d3-9c67-46980e61ae95","system_id":"levelo_inurba_marseille","lat":43.31728,"lon":5.37653,"is_reserved":false,"is_disabled":false,"rental_uris":{"android":"levelo://app?vid=ac49738a-4d4f-43d3-9c67-46980e61ae95","ios":"levelo://app?vid=ac49738a-4d4f-43d3-9c67-46980e61ae95"},"vehicle_type_id":"4","last_reported":1753017812,"current_range_meters":19200,"station_id":"","pricing_plan_id":"cebpf4jnsgd1na2vs0mg"},{"bike_id":"f005e9aa-09c0-40f2-941a-4cd9f816dc5d","system_id":"levelo_inurba_marseille","lat":43.21607,"lon":5.343951,"is_reserved":false,"is_disabled":false,"rental_uris":{"android":"levelo://app?vid=f005e9aa-09c0-40f2-941a-4cd9f816dc5d","ios":"levelo://app?vid=f005e9aa-09c0-40f2-941a-4cd9f816dc5d"},"vehicle_type_id":"4","last_reported":1753017812,"current_range_meters":19200,"station_id":"st_cvj6r9ubvosntc0bgbag","pricing_plan_id":"cebpf4jnsgd1na2vs0mg"},{"bike_id":"3b033fc4-210f-4d44-b732-51686e0c28a7","system_id":"levelo_inurba_marseille","lat":43.2295,"lon":5.35387,"is_reserved":false,"is_disabled":false,"rental_uris":{"android":"levelo://app?vid=3b033fc4-210f-4d44-b732-51686e0c28a7","ios":"levelo://app?vid=3b033fc4-210f-4d44-b732-51686e0c28a7"},"vehicle_type_id":"4","last_reported":1753017812,"current_range_meters":19200,"station_id":"cpo3532slgdg3j2ikp40","pricing_plan_id":"cebpf4jnsgd1na2vs0mg"},{"bike_id":"0ab5edff-8724-4c93-922c-a841549140d2","system_id":"levelo_inurba_marseille","lat":43.22497,"lon":5.34784,"is_reserved":false,"is_disabled":false,"rental_uris":{"android":"levelo://app?vid=0ab5edff-8724-4c93-922c-a841549140d2","ios":"levelo://app?vid=0ab5edff-8724-4c93-922c-a841549140d2"},"vehicle_type_id":"4","last_reported":1753017812,"current_range_meters":19200,"station_id":"st_cvj5dfep6f1abm77gieg","pricing_plan_id":"cebpf4jnsgd1na2vs0mg"},{"bike_id":"9e110f9c-c4c0-40b9-bea6-7601542f9cd7","system_id":"levelo_inurba_marseille","lat":43.23211,"lon":5.3548,"is_reserved":false,"is_disabled":false,"rental_uris":{"android":"levelo://app?vid=9e110f9c-c4c0-40b9-bea6-7601542f9cd7","ios":"levelo://app?vid=9e110f9c-c4c0-40b9-bea6-7601542f9cd7"},"vehicle_type_id":"4","last_reported":1753017812,"current_range_meters":19200,"station_id":"","pricing_plan_id":"cebpf4jnsgd1na2vs0mg"},{"bike_id":"b649b339-1977-42cc-86a8-4235021ba156","system_id":"levelo_inurba_marseille","lat":43.2119,"lon":5.35076,"is_reserved":false,"is_disabled":false,"rental_uris":{"android":"levelo://app?vid=b649b339-1977-42cc-86a8-4235021ba156","ios":"levelo://app?vid=b649b339-1977-42cc-86a8-4235021ba156"},"vehicle_type_id":"4","last_reported":1753017812,"current_range_meters":19600,"station_id":"st_cvj6sg6p6f1abm77japg","pricing_plan_id":"cebpf4jnsgd1na2vs0mg"},{"bike_id":"1607fcd4-2949-4cba-b6c1-0b2d63362688","system_id":"levelo_inurba_marseille","lat":43.270726,"lon":5.402869,"is_reserved":false,"is_disabled":true,"rental_uris":{"android":"levelo://app?vid=1607fcd4-2949-4cba-b6c1-0b2d63362688","ios":"levelo://app?vid=1607fcd4-2949-4cba-b6c1-0b2d63362688"},"vehicle_type_id":"4","last_reported":1753017812,"current_range_meters":19600,"station_id":"ce4bhk92rcd13ifvqgc0","pricing_plan_id":"cebpf4jnsgd1na2vs0mg"},{"bike_id":"19665075-1169-45a7-af41-9f1c346d2c17","system_id":"levelo_inurba_marseille","lat":43.23944,"lon":5.36638,"is_reserved":false,"is_disabled":true,"rental_uris":{"android":"levelo://app?vid=19665075-1169-45a7-af41-9f1c346d2c17","ios":"levelo://app?vid=19665075-1169-45a7-af41-9f1c346d2c17"},"vehicle_type_id":"4","last_reported":1753017812,"current_range_meters":19600,"station_id":"ce4bhi12rcd13ifvqfp0","pricing_plan_id":"cebpf4jnsgd1na2vs0mg"},{"bike_id":"43add815-67fe-488a-87b5-2050e87c98f9","system_id":"levelo_inurba_marseille","lat":43.22909,"lon":5.35387,"is_reserved":false,"is_disabled":false,"rental_uris":{"android":"levelo://app?vid=43add815-67fe-488a-87b5-2050e87c98f9","ios":"levelo://app?vid=43add815-67fe-488a-87b5-2050e87c98f9"},"vehicle_type_id":"4","last_reported":1753017812,"current_range_meters":19600,"station_id":"cpo3532slgdg3j2ikp40","pricing_plan_id":"cebpf4jnsgd1na2vs0mg"},{"bike_id":"5c7cfd38-807b-4bef-9c5d-c2f0c95ce8df","system_id":"levelo_inurba_marseille","lat":43.230645,"lon":5.35494,"is_reserved":false,"is_disabled":false,"rental_uris":{"android":"levelo://app?vid=5c7cfd38-807b-4bef-9c5d-c2f0c95ce8df","ios":"levelo://app?vid=5c7cfd38-807b-4bef-9c5d-c2f0c95ce8df"},"vehicle_type_id":"4","last_reported":1753017812,"current_range_meters":19600,"station_id":"cpo3342slgdg3j2ifvpg","pricing_plan_id":"cebpf4jnsgd1na2vs0mg"},{"bike_id":"0c1abe6b-d980-405f-a710-1dae35510659","system_id":"levelo_inurba_marseille","lat":43.247435,"lon":5.411746,"is_reserved":false,"is_disabled":false,"rental_uris":{"android":"levelo://app?vid=0c1abe6b-d980-405f-a710-1dae35510659","ios":"levelo://app?vid=0c1abe6b-d980-405f-a710-1dae35510659"},"vehicle_type_id":"4","last_reported":1753017812,"current_range_meters":19600,"station_id":"","pricing_plan_id":"cebpf4jnsgd1na2vs0mg"},{"bike_id":"2202d4e1-43b2-495b-89e8-e4d9f8d5cf6b","system_id":"levelo_inurba_marseille","lat":43.21196,"lon":5.35078,"is_reserved":false,"is_disabled":false,"rental_uris":{"android":"levelo://app?vid=2202d4e1-43b2-495b-89e8-e4d9f8d5cf6b","ios":"levelo://app?vid=2202d4e1-43b2-495b-89e8-e4d9f8d5cf6b"},"vehicle_type_id":"4","last_reported":1753017812,"current_range_meters":19600,"station_id":"st_cvj6sg6p6f1abm77japg","pricing_plan_id":"cebpf4jnsgd1na2vs0mg"},{"bike_id":"cf00868c-691d-4ef2-90d6-7c211f7372ff","system_id":"levelo_inurba_marseille","lat":43.316893,"lon":5.404771,"is_reserved":false,"is_disabled":false,"rental_uris":{"android":"levelo://app?vid=cf00868c-691d-4ef2-90d6-7c211f7372ff","ios":"levelo://app?vid=cf00868c-691d-4ef2-90d6-7c211f7372ff"},"vehicle_type_id":"4","last_reported":1753017812,"current_range_meters":19600,"station_id":"ce4bh012rcd13ifvqd00","pricing_plan_id":"cebpf4jnsgd1na2vs0mg"},{"bike_id":"e973e17e-6f49-4719-85f4-d681a7df9ff8","system_id":"levelo_inurba_marseille","lat":43.21754,"lon":5.34598,"is_reserved":false,"is_disabled":false,"rental_uris":{"android":"levelo://app?vid=e973e17e-6f49-4719-85f4-d681a7df9ff8","ios":"levelo://app?vid=e973e17e-6f49-4719-85f4-d681a7df9ff8"},"vehicle_type_id":"4","last_reported":1753017812,"current_range_meters":19600,"station_id":"st_cvj6r9ubvosntc0bgbag","pricing_plan_id":"cebpf4jnsgd1na2vs0mg"},{"bike_id":"5eb2cbbd-cd8c-4f4a-b4f7-ef3abf8882b3","system_id":"levelo_inurba_marseille","lat":43.25817,"lon":5.3944,"is_reserved":false,"is_disabled":false,"rental_uris":{"android":"levelo://app?vid=5eb2cbbd-cd8c-4f4a-b4f7-ef3abf8882b3","ios":"levelo://app?vid=5eb2cbbd-cd8c-4f4a-b4f7-ef3abf8882b3"},"vehicle_type_id":"4","last_reported":1753017812,"current_range_meters":20800,"station_id":"ce4bhip2rcd13ifvqft0","pricing_plan_id":"cebpf4jnsgd1na2vs0mg"},{"bike_id":"50d16da1-39af-48c8-9080-8fc1a2184959","system_id":"levelo_inurba_marseille","lat":43.21188,"lon":5.35072,"is_reserved":false,"is_disabled":false,"rental_uris":{"android":"levelo://app?vid=50d16da1-39af-48c8-9080-8fc1a2184959","ios":"levelo://app?vid=50d16da1-39af-48c8-9080-8fc1a2184959"},"vehicle_type_id":"4","last_reported":1753017812,"current_range_meters":19600,"station_id":"st_cvj6sg6p6f1abm77japg","pricing_plan_id":"cebpf4jnsgd1na2vs0mg"},{"bike_id":"2b47b056-c5ec-47ea-84d4-c5e4a02de71f","system_id":"levelo_inurba_marseille","lat":43.29481,"lon":5.42725,"is_reserved":false,"is_disabled":false,"rental_uris":{"android":"levelo://app?vid=2b47b056-c5ec-47ea-84d4-c5e4a02de71f","ios":"levelo://app?vid=2b47b056-c5ec-47ea-84d4-c5e4a02de71f"},"vehicle_type_id":"4","last_reported":1753017812,"current_range_meters":19600,"station_id":"","pricing_plan_id":"cebpf4jnsgd1na2vs0mg"},{"bike_id":"37813bc1-747b-4de1-96d1-588c6f70bb3c","system_id":"levelo_inurba_marseille","lat":43.2251,"lon":5.34777,"is_reserved":false,"is_disabled":false,"rental_uris":{"android":"levelo://app?vid=37813bc1-747b-4de1-96d1-588c6f70bb3c","ios":"levelo://app?vid=37813bc1-747b-4de1-96d1-588c6f70bb3c"},"vehicle_type_id":"4","last_reported":1753017812,"current_range_meters":20000,"station_id":"st_cvj5dfep6f1abm77gieg","pricing_plan_id":"cebpf4jnsgd1na2vs0mg"},{"bike_id":"08d4ad49-391c-4b05-8d78-b6cae019cd5c","system_id":"levelo_inurba_marseille","lat":43.27385,"lon":5.36249,"is_reserved":false,"is_disabled":false,"rental_uris":{"android":"levelo://app?vid=08d4ad49-391c-4b05-8d78-b6cae019cd5c","ios":"levelo://app?vid=08d4ad49-391c-4b05-8d78-b6cae019cd5c"},"vehicle_type_id":"4","last_reported":1753017812,"current_range_meters":20000,"station_id":"ce4bhbh2rcd13ifvqeo0","pricing_plan_id":"cebpf4jnsgd1na2vs0mg"},