{"last_updated":1770183581,"ttl":60,"version":"2.2","data":{"bikes":[{"bike_id":"02b06200-6f0c-4fbe-a288-f34e85c983a1","system_id":"levelo_inurba_marseille","lat":43.23781,"lon":5.36642,"is_reserved":false,"is_disabled":false,"rental_uris":{"android":"levelo://app?vid=02b06200-6f0c-4fbe-a288-f34e85c983a1","ios":"levelo://app?vid=02b06200-6f0c-4fbe-a288-f34e85c983a1"},"vehicle_type_id":"4","last_reported":1770183581,"current_range_meters":2800,"station_id":"st_d3nk18o9ro0c73en2l3g","pricing_plan_id":"cebpf4jnsgd1na2vs0mg"},{"bike_id":"c15cd4e0-6228-4ec0-8abb-497f27aecdb2","system_id":"levelo_inurba_marseille","lat":43.31265,"lon":5.37766,"is_reserved":false,"is_disabled":false,"rental_uris":{"android":"levelo://app?vid=c15cd4e0-6228-4ec0-8abb-497f27aecdb2","ios":"levelo://app?vid=c15cd4e0-6228-4ec0-8abb-497f27aecdb2"},"vehicle_type_id":"4","last_reported":1770183581,"current_range_meters":2800,"station_id":"","pricing_plan_id":"cebpf4jnsgd1na2vs0mg"},{"bike_id":"f2b5a338-20c1-418a-ae0a-e38804805aac","system_id":"levelo_inurba_marseille","lat":43.309,"lon":5.39617,"is_reserved":false,"is_disabled":false,"rental_uris":{"android":"levelo://app?vid=f2b5a338-20c1-418a-ae0a-e38804805aac","ios":"levelo://app?vid=f2b5a338-20c1-418a-ae0a-e38804805aac"},"vehicle_type_id":"4","last_reported":1770183581,"current_range_meters":2800,"station_id":"ce4bh012rcd13ifvqcv0","pricing_plan_id":"cebpf4jnsgd1na2vs0mg"},{"bike_id":"5d2a7df9-4ddf-4885-8075-b7755ef05fb8","system_id":"levelo_inurba_marseille","lat":43.2303,"lon":5.40289,"is_reserved":false,"is_disabled":false,"rental_uris":{"android":"levelo://app?vid=5d2a7df9-4ddf-4885-8075-b7755ef05fb8","ios":"levelo://app?vid=5d2a7df9-4ddf-4885-8075-b7755ef05fb8"},"vehicle_type_id":"4","last_reported":1770183581,"current_range_meters":2800,"station_id":"","pricing_plan_id":"cebpf4jnsgd1na2vs0mg"},{"bike_id":"1ace3530-22d0-4297-bad9-e89cc4040fc7","system_id":"levelo_inurba_marseille","lat":43.3013,"lon":5.38118,"is_reserved":false,"is_disabled":false,"rental_uris":{"android":"levelo://app?vid=1ace3530-22d0-4297-bad9-e89cc4040fc7","ios":"levelo://app?vid=1ace3530-22d0-4297-bad9-e89cc4040fc7"},"vehicle_type_id":"4","last_reported":1770183581,"current_range_meters":2800,"station_id":"ce4bgjp2rcd13ifvqbh0","pricing_plan_id":"cebpf4jnsgd1na2vs0mg"},{"bike_id":"141bd124-c814-48f9-b2f7-d0b84fea7cf1","system_id":"levelo_inurba_marseille","lat":43.24821,"lon":5.37452,"is_reserved":false,"is_disabled":false,"rental_uris":{"android":"levelo://app?vid=141bd124-c814-48f9-b2f7-d0b84fea7cf1","ios":"levelo://app?vid=141bd124-c814-48f9-b2f7-d0b84fea7cf1"},"vehicle_type_id":"4","last_reported":1770183581,"current_range_meters":2800,"station_id":"ce4bhgh2rcd13ifvqfb0","pricing_plan_id":"cebpf4jnsgd1na2vs0mg"},{"bike_id":"e38f544f-f996-477c-b7d2-6313026ffb89","system_id":"levelo_inurba_marseille","lat":43.24796,"lon":5.37469,"is_reserved":false,"is_disabled":false,"rental_uris":{"android":"levelo://app?vid=e38f544f-f996-477c-b7d2-6313026ffb89","ios":"levelo://app?vid=e38f544f-f996-477c-b7d2-6313026ffb89"},"vehicle_type_id":"4","last_reported":1770183581,"current_range_meters":2800,"station_id":"ce4bhgh2rcd13ifvqfb0","pricing_plan_id":"cebpf4jnsgd1na2vs0mg"},{"bike_id":"a3d3a949-e6a8-49ab-9f8a-4cfb992af1b3","system_id":"levelo_inurba_marseille","lat":43.21197,"lon":5.35056,"is_reserved":false,"is_disabled":false,"rental_uris":{"android":"levelo://app?vid=a3d3a949-e6a8-49ab-9f8a-4cfb992af1b3","ios":"levelo://app?vid=a3d3a949-e6a8-49ab-9f8a-4cfb992af1b3"},"vehicle_type_id":"4","last_reported":1770183581,"current_range_meters":2800,"station_id":"st_cvj6sg6p6f1abm77japg","pricing_plan_id":"cebpf4jnsgd1na2vs0mg"},{"bike_id":"d0db6cbd-a31d-41fe-9f27-70ac8c367b5d","system_id":"levelo_inurba_marseille","lat":43.29085,"lon":5.36552,"is_reserved":false,"is_disabled":false,"rental_uris":{"android":"levelo://app?vid=d0db6cbd-a31d-41fe-9f27-70ac8c367b5d","ios":"levelo://app?vid=d0db6cbd-a31d-41fe-9f27-70ac8c367b5d"},"vehicle_type_id":"4","last_reported":1770183581,"current_range_meters":3200,"station_id":"","pricing_plan_id":"cebpf4jnsgd1na2vs0mg"},{"bike_id":"365c6bee-57a4-4138-b3c4-2eb637f2990f","system_id":"levelo_inurba_marseille","lat":43.296178,"lon":5.377197,"is_reserved":false,"is_disabled":false,"rental_uris":{"android":"levelo://app?vid=365c6bee-57a4-4138-b3c4-2eb637f2990f","ios":"levelo://app?vid=365c6bee-57a4-4138-b3c4-2eb637f2990f"},"vehicle_type_id":"4","last_reported":1770183581,"current_range_meters":3200,"station_id":"ce4bgi92rcd13ifvqb90","pricing_plan_id":"cebpf4jnsgd1na2vs0mg"},{"bike_id":"aaf22886-8931-43f5-890d-fc99243945fc","system_id":"levelo_inurba_marseille","lat":43.24111,"lon":5.39702,"is_reserved":false,"is_disabled":false,"rental_uris":{"android":"levelo://app?vid=aaf22886-8931-43f5-890d-fc99243945fc","ios":"levelo://app?vid=aaf22886-8931-43f5-890d-fc99243945fc"},"vehicle_type_id":"4","last_reported":1770183581,"current_range_meters":3200,"station_id":"ce4bhn12rcd13ifvqgpg","pricing_plan_id":"cebpf4jnsgd1na2vs0mg"},{"bike_id":"413ca1e5-515a-4601-b78b-8729f8f0fbfd","system_id":"levelo_inurba_marseille","lat":43.301219,"lon":5.431162,"is_reserved":false,"is_disabled":false,"rental_uris":{"android":"levelo://app?vid=413ca1e5-515a-4601-b78b-8729f8f0fbfd","ios":"levelo://app?vid=413ca1e5-515a-4601-b78b-8729f8f0fbfd"},"vehicle_type_id":"4","last_reported":1770183581,"current_range_meters":3200,"station_id":"st_d3js3co5814s73ftftug","pricing_plan_id":"cebpf4jnsgd1na2vs0mg"},{"bike_id":"088b1b0f-daac-437a-8ad0-736437c0b93b","system_id":"levelo_inurba_marseille","lat":43.30398,"lon":5.4055,"is_reserved":false,"is_disabled":false,"rental_uris":{"android":"levelo://app?vid=088b1b0f-daac-437a-8ad0-736437c0b93b","ios":"levelo://app?vid=088b1b0f-daac-437a-8ad0-736437c0b93b"},"vehicle_type_id":"4","last_reported":1770183581,"current_range_meters":3200,"station_id":"","pricing_plan_id":"cebpf4jnsgd1na2vs0mg"},{"bike_id":"03cfe8ff-bad7-4324-a169-164f68b4c260","system_id":"levelo_inurba_marseille","lat":43.337444,"lon":5.374475,"is_reserved":false,"is_disabled":false,"rental_uris":{"android":"levelo://app?vid=03cfe8ff-bad7-4324-a169-164f68b4c260","ios":"levelo://app?vid=03cfe8ff-bad7-4324-a169-164f68b4c260"},"vehicle_type_id":"4","last_reported":1770183581,"current_range_meters":3200,"station_id":"","pricing_plan_id":"cebpf4jnsgd1na2vs0mg"},{"bike_id":"d96b5276-ddb9-4dda-bf61-4ae90512437d","system_id":"levelo_inurba_marseille","lat":43.241739,"lon":5.363935,"is_reserved":false,"is_disabled":false,"rental_uris":{"android":"levelo://app?vid=d96b5276-ddb9-4dda-bf61-4ae90512437d","ios":"levelo://app?vid=d96b5276-ddb9-4dda-bf61-4ae90512437d"},"vehicle_type_id":"4","last_reported":1770183581,"current_range_meters":3200,"station_id":"cpo36qri1sfpv3e86is0","pricing_plan_id":"cebpf4jnsgd1na2vs0mg"},{"bike_id":"2360117f-e14f-4f9c-b273-a3b0a85bbecc","system_id":"levelo_inurba_marseille","lat":43.31173,"lon":5.38709,"is_reserved":false,"is_disabled":false,"rental_uris":{"android":"levelo://app?vid=2360117f-e14f-4f9c-b273-a3b0a85bbecc","ios":"levelo://app?vid=2360117f-e14f-4f9c-b273-a3b0a85bbecc"},"vehicle_type_id":"4","last_reported":1770183581,"current_range_meters":3200,"station_id":"ce4bgv12rcd13ifvqcp0","pricing_plan_id":"cebpf4jnsgd1na2vs0mg"},{"bike_id":"77ee2386-41ea-476e-b76b-f435873f6247","system_id":"levelo_inurba_marseille","lat":43.243876,"lon":5.370565,"is_reserved":false,"is_disabled":false,"rental_uris":{"android":"levelo://app?vid=77ee2386-41ea-476e-b76b-f435873f6247","ios":"levelo://app?vid=77ee2386-41ea-476e-b76b-f435873f6247"},"vehicle_type_id":"4","last_reported":1770183581,"current_range_meters":3200,"station_id":"ce4bhhh2rcd13ifvqfk0","pricing_plan_id":"cebpf4jnsgd1na2vs0mg"},{"bike_id":"34e4497e-004e-4d33-b563-df43c3f1dff0","system_id":"levelo_inurba_marseille","lat":43.29153,"lon":5.38809,"is_reserved":false,"is_disabled":false,"rental_uris":{"android":"levelo://app?vid=34e4497e-004e-4d33-b563-df43c3f1dff0","ios":"levelo://app?vid=34e4497e-004e-4d33-b563-df43c3f1dff0"},"vehicle_type_id":"4","last_reported":1770183581,"current_range_meters":3200,"station_id":"ce4bh4p2rcd13ifvqe0g","pricing_plan_id":"cebpf4jnsgd1na2vs0mg"},{"bike_id":"b9e3fc66-fb1e-4c7e-9acb-b26163b020c4","system_id":"levelo_inurba_marseille","lat":43.30646,"lon":5.40079,"is_reserved":false,"is_disabled":false,"rental_uris":{"android":"levelo://app?vid=b9e3fc66-fb1e-4c7e-9acb-b26163b020c4","ios":"levelo://app?vid=b9e3fc66-fb1e-4c7e-9acb-b26163b020c4"},"vehicle_type_id":"4","last_reported":1770183581,"current_range_meters":3200,"station_id":"ce4bh112rcd13ifvqda0","pricing_plan_id":"cebpf4jnsgd1na2vs0mg"},{"bike_id":"fdb878e6-ff79-4674-9a93-540ade0a2317","system_id":"levelo_inurba_marseille","lat":43.31071,"lon":5.38342,"is_reserved":false,"is_disabled":false,"rental_uris":{"android":"levelo://app?vid=fdb878e6-ff79-4674-9a93-540ade0a2317","ios":"levelo://app?vid=fdb878e6-ff79-4674-9a93-540ade0a2317"},"vehicle_type_id":"4","last_reported":1770183581,"current_range_meters":3200,"station_id":"ce4bgv92rcd13ifvqcr0","pricing_plan_id":"cebpf4jnsgd1na2vs0mg"},{"bike_id":"eb1b2124-84d2-467d-b1f5-56516dcfd958","system_id":"levelo_inurba_marseille","lat":43.21171,"lon":5.35064,"is_reserved":false,"is_disabled":false,"rental_uris":{"android":"levelo://app?vid=eb1b2124-84d2-467d-b1f5-56516dcfd958","ios":"levelo://app?vid=eb1b2124-84d2-467d-b1f5-56516dcfd958"},"vehicle_type_id":"4","last_reported":1770183581,"current_range_meters":3600,"station_id":"st_cvj6sg6p6f1abm77japg","pricing_plan_id":"cebpf4jnsgd1na2vs0mg"},{"bike_id":"7de714e1-e1e3-4cef-a665-bf94e4caea8c","system_id":"levelo_inurba_marseille","lat":43.22575,"lon":5.41643,"is_reserved":false,"is_disabled":false,"rental_uris":{"android":"levelo://app?vid=7de714e1-e1e3-4cef-a665-bf94e4caea8c","ios":"levelo://app?vid=7de714e1-e1e3-4cef-a665-bf94e4caea8c"},"vehicle_type_id":"4","last_reported":1770183581,"current_range_meters":3600,"station_id":"st_d2o4gvlbi1j2169b742g","pricing_plan_id":"cebpf4jnsgd1na2vs0mg"},{"bike_id":"ce24aee7-35fa-4a11-bc8f-4e8ab67f92b4","system_id":"levelo_inurba_marseille","lat":43.31561,"lon":5.3727,"is_reserved":false,"is_disabled":false,"rental_uris":{"android":"levelo://app?vid=ce24aee7-35fa-4a11-bc8f-4e8ab67f92b4","ios":"levelo://app?vid=ce24aee7-35fa-4a11-bc8f-4e8ab67f92b4"},"vehicle_type_id":"4","last_reported":1770183581,"current_range_meters":3600,"station_id":"ce4bgt12rcd13ifvqcd0","pricing_plan_id":"cebpf4jnsgd1na2vs0mg"},{"bike_id":"530b3fec-7af4-45eb-bf12-cc02b58eae44","system_id":"levelo_inurba_marseille","lat":43.28005,"lon":5.40009,"is_reserved":false,"is_disabled":false,"rental_uris":{"android":"levelo://app?vid=530b3fec-7af4-45eb-bf12-cc02b58eae44","ios":"levelo://app?vid=530b3fec-7af4-45eb-bf12-cc02b58eae44"},"vehicle_type_id":"4","last_reported":1770183581,"current_range_meters":3600,"station_id":"ce4bho92rcd13ifvqh4g","pricing_plan_id":"cebpf4jnsgd1na2vs0mg"},{"bike_id":"549d637b-91c5-48ec-83fa-865a463b6a4b","system_id":"levelo_inurba_marseille","lat":43.23191,"lon":5.35544,"is_reserved":false,"is_disabled":false,"rental_uris":{"android":"levelo://app?vid=549d637b-91c5-48ec-83fa-865a463b6a4b","ios":"levelo://app?vid=549d637b-91c5-48ec-83fa-865a463b6a4b"},"vehicle_type_id":"4","last_reported":1770183581,"current_range_meters":3600,"station_id":"ce4bhu92rcd13ifvqi70","pricing_plan_id":"cebpf4jnsgd1na2vs0mg"},{"bike_id":"fd4003f9-ae57-43d9-af54-09e855d38b22","system_id":"levelo_inurba_marseille","lat":43.2852,"lon":5.44107,"is_reserved":false,"is_disabled":false,"rental_uris":{"android":"levelo://app?vid=fd4003f9-ae57-43d9-af54-09e855d38b22","ios":"levelo://app?vid=fd4003f9-ae57-43d9-af54-09e855d38b22"},"vehicle_type_id":"4","last_reported":1770183581,"current_range_meters":4000,"station_id":"st_d3j3df2ikq2c7380ej80","pricing_plan_id":"cebpf4jnsgd1na2vs0mg"},{"bike_id":"e5e09432-51e2-4e4c-90db-5548743d89de","system_id":"levelo_inurba_marseille","lat":43.290285,"lon":5.375505,"is_reserved":false,"is_disabled":false,"rental_uris":{"android":"levelo://app?vid=e5e09432-51e2-4e4c-90db-5548743d89de","ios":"levelo://app?vid=e5e09432-51e2-4e4c-90db-5548743d89de"},"vehicle_type_id":"4","last_reported":1770183581,"current_range_meters":4000,"station_id":"ce4bh692rcd13ifvqe90","pricing_plan_id":"cebpf4jnsgd1na2vs0mg"},{"bike_id":"d46ff533-0eee-4665-b81c-0e20854ee49c","system_id":"levelo_inurba_marseille","lat":43.29942,"lon":5.36558,"is_reserved":false,"is_disabled":false,"rental_uris":{"android":"levelo://app?vid=d46ff533-0eee-4665-b81c-0e20854ee49c","ios":"levelo://app?vid=d46ff533-0eee-4665-b81c-0e20854ee49c"},"vehicle_type_id":"4","last_reported":1770183581,"current_range_meters":4000,"station_id":"ce4bgm92rcd13ifvqbr0","pricing_plan_id":"cebpf4jnsgd1na2vs0mg"},{"bike_id":"edcb87a3-89fd-4c81-b16f-a9efdb1bc6b7","system_id":"levelo_inurba_marseille","lat":43.27253,"lon":5.38277,"is_reserved":false,"is_disabled":true,"rental_uris":{"android":"levelo://app?vid=edcb87a3-89fd-4c81-b16f-a9efdb1bc6b7","ios":"levelo://app?vid=edcb87a3-89fd-4c81-b16f-a9efdb1bc6b7"},"vehicle_type_id":"4","last_reported":1770183581,"current_range_meters":4000,"station_id":"","pricing_plan_id":"cebpf4jnsgd1na2vs0mg"},{"bike_id":"34d60330-3f7e-4aeb-acc6-eff17043fba2","system_id":"levelo_inurba_marseille","lat":43.29634,"lon":5.38759,"is_reserved":false,"is_disabled":false,"rental_uris":{"android":"levelo://app?vid=34d60330-3f7e-4aeb-acc6-eff17043fba2","ios":"levelo://app?vid=34d60330-3f7e-4aeb-acc6-eff17043fba2"},"vehicle_type_id":"4","last_reported":1770183581,"current_range_meters":4000,"station_id":"","pricing_plan_id":"cebpf4jnsgd1na2vs0mg"},{"bike_id":"deb9e4eb-a481-4dbd-9838-7e21c4114a77","system_id":"levelo_inurba_marseille","lat":43.246376,"lon":5.388802,"is_reserved":false,"is_disabled":false,"rental_uris":{"android":"levelo://app?vid=deb9e4eb-a481-4dbd-9838-7e21c4114a77","ios":"levelo://app?vid=deb9e4eb-a481-4dbd-9838-7e21c4114a77"},"vehicle_type_id":"4","last_reported":1770183581,"current_range_meters":4000,"station_id":"ce4bhg12rcd13ifvqf60","pricing_plan_id":"cebpf4jnsgd1na2vs0mg"},{"bike_id":"811dab78-1623-4fb0-b2a5-b9e02c438a16","system_id":"levelo_inurba_marseille","lat":43.28996,"lon":5.37555,"is_reserved":false,"is_disabled":false,"rental_uris":{"android":"levelo://app?vid=811dab78-1623-4fb0-b2a5-b9e02c438a16","ios":"levelo://app?vid=811dab78-1623-4fb0-b2a5-b9e02c438a16"},"vehicle_type_id":"4","last_reported":1770183581,"current_range_meters":4000,"station_id":"ce4bh692rcd13ifvqe90","pricing_plan_id":"cebpf4jnsgd1na2vs0mg"},{"bike_id":"046cbdeb-0034-4bf7-a8f7-6f44c90a617b","system_id":"levelo_inurba_marseille","lat":43.29345,"lon":5.38314,"is_reserved":false,"is_disabled":false,"rental_uris":{"android":"levelo://app?vid=046cbdeb-0034-4bf7-a8f7-6f44c90a617b","ios":"levelo://app?vid=046cbdeb-0034-4bf7-a8f7-6f44c90a617b"},"vehicle_type_id":"4","last_reported":1770183581,"current_range_meters":4000,"station_id":"","pricing_plan_id":"cebpf4jnsgd1na2vs0mg"},{"bike_id":"151047fe-b117-41cf-9416-4f91d0d3c1a9","system_id":"levelo_inurba_marseille","lat":43.31856,"lon":5.36908,"is_reserved":false,"is_disabled":false,"rental_uris":{"android":"levelo://app?vid=151047fe-b117-41cf-9416-4f91d0d3c1a9","ios":"levelo://app?vid=151047fe-b117-41cf-9416-4f91d0d3c1a9"},"vehicle_type_id":"4","last_reported":1770183581,"current_range_meters":4400,"station_id":"","pricing_plan_id":"cebpf4jnsgd1na2vs0mg"},{"bike_id":"dcaa4a8f-eeeb-4a65-b90b-db85565e00da","system_id":"levelo_inurba_marseille","lat":43.24176,"lon":5.36354,"is_reserved":false,"is_disabled":false,"rental_uris":{"android":"levelo://app?vid=dcaa4a8f-eeeb-4a65-b90b-db85565e00da","ios":"levelo://app?vid=dcaa4a8f-eeeb-4a65-b90b-db85565e00da"},"vehicle_type_id":"4","last_reported":1770183581,"current_range_meters":4400,"station_id":"cpo36qri1sfpv3e86is0","pricing_plan_id":"cebpf4jnsgd1na2vs0mg"},{"bike_id":"67949cb0-ad73-42aa-8494-c2a7d6735f87","system_id":"levelo_inurba_marseille","lat":43.31257,"lon":5.3683,"is_reserved":false,"is_disabled":false,"rental_uris":{"android":"levelo://app?vid=67949cb0-ad73-42aa-8494-c2a7d6735f87","ios":"levelo://app?vid=67949cb0-ad73-42aa-8494-c2a7d6735f87"},"vehicle_type_id":"4","last_reported":1770183581,"current_range_meters":4400,"station_id":"ce4bgl92rcd13ifvqbq0","pricing_plan_id":"cebpf4jnsgd1na2vs0mg"},{"bike_id":"c3ba0fed-3d29-4191-b8a3-c899b1e9e5ad","system_id":"levelo_inurba_marseille","lat":43.25588,"lon":5.38212,"is_reserved":false,"is_disabled":false,"rental_uris":{"android":"levelo://app?vid=c3ba0fed-3d29-4191-b8a3-c899b1e9e5ad","ios":"levelo://app?vid=c3ba0fed-3d29-4191-b8a3-c899b1e9e5ad"},"vehicle_type_id":"4","last_reported":1770183581,"current_range_meters":4400,"station_id":"ce4bhih2rcd13ifvqfs0","pricing_plan_id":"cebpf4jnsgd1na2vs0mg"},{"bike_id":"172d2cec-1955-407b-b653-dc2f5150b5a3","system_id":"levelo_inurba_marseille","lat":43.28432,"lon":5.39186,"is_reserved":false,"is_disabled":false,"rental_uris":{"android":"levelo://app?vid=172d2cec-1955-407b-b653-dc2f5150b5a3","ios":"levelo://app?vid=172d2cec-1955-407b-b653-dc2f5150b5a3"},"vehicle_type_id":"4","last_reported":1770183581,"current_range_meters":4400,"station_id":"ce4bhoh2rcd13ifvqh5g","pricing_plan_id":"cebpf4jnsgd1na2vs0mg"},{"bike_id":"e0dbfbca-ec96-436a-aa53-81521e31b965","system_id":"levelo_inurba_marseille","lat":43.2871,"lon":5.37377,"is_reserved":false,"is_disabled":false,"rental_uris":{"android":"levelo://app?vid=e0dbfbca-ec96-436a-aa53-81521e31b965","ios":"levelo://app?vid=e0dbfbca-ec96-436a-aa53-81521e31b965"},"vehicle_type_id":"4","last_reported":1770183581,"current_range_meters":4400,"station_id":"ce4bh3p2rcd13ifvqdq0","pricing_plan_id":"cebpf4jnsgd1na2vs0mg"},{"bike_id":"0132a3cf-69fe-4c36-a3f5-853ddb5ead41","system_id":"levelo_inurba_marseille","lat":43.24808,"lon":5.37438,"is_reserved":false,"is_disabled":false,"rental_uris":{"android":"levelo://app?vid=0132a3cf-69fe-4c36-a3f5-853ddb5ead41","ios":"levelo://app?vid=0132a3cf-69fe-4c36-a3f5-853ddb5ead41"},"vehicle_type_id":"4","last_reported":1770183581,"current_range_meters":4400,"station_id":"ce4bhgh2rcd13ifvqfb0","pricing_plan_id":"cebpf4jnsgd1na2vs0mg"},{"bike_id":"ef30bb24-f45f-400c-9967-a2a3b2da1488","system_id":"levelo_inurba_marseille","lat":43.28287,"lon":5.39436,"is_reserved":false,"is_disabled":false,"rental_uris":{"android":"levelo://app?vid=ef30bb24-f45f-400c-9967-a2a3b2da1488","ios":"levelo://app?vid=ef30bb24-f45f-400c-9967-a2a3b2da1488"},"vehicle_type_id":"4","last_reported":1770183581,"current_range_meters":4400,"station_id":"","pricing_plan_id":"cebpf4jnsgd1na2vs0mg"},{"bike_id":"a9162fc7-d36d-479b-ba04-63d5511f4da0","system_id":"levelo_inurba_marseille","lat":43.2927,"lon":5.40141,"is_reserved":false,"is_disabled":false,"rental_uris":{"android":"levelo://app?vid=a9162fc7-d36d-479b-ba04-63d5511f4da0","ios":"levelo://app?vid=a9162fc7-d36d-479b-ba04-63d5511f4da0"},"vehicle_type_id":"4","last_reported":1770183581,"current_range_meters":4400,"station_id":"ce4bh312rcd13ifvqdk0","pricing_plan_id":"cebpf4jnsgd1na2vs0mg"},{"bike_id":"f8e7e4d9-f87a-42a2-9144-b6886b943f25","system_id":"levelo_inurba_marseille","lat":43.24982,"lon":5.38948,"is_reserved":false,"is_disabled":false,"rental_uris":{"android":"levelo://app?vid=f8e7e4d9-f87a-42a2-9144-b6886b943f25","ios":"levelo://app?vid=f8e7e4d9-f87a-42a2-9144-b6886b943f25"},"vehicle_type_id":"4","last_reported":1770183581,"current_range_meters":4800,"station_id":"ce4bhgp2rcd13ifvqfd0","pricing_plan_id":"cebpf4jnsgd1na2vs0mg"},{"bike_id":"3496e3d5-ade9-4ef3-89c7-6224a9796381","system_id":"levelo_inurba_marseille","lat":43.23197,"lon":5.35544,"is_reserved":false,"is_disabled":false,"rental_uris":{"android":"levelo://app?vid=3496e3d5-ade9-4ef3-89c7-6224a9796381","ios":"levelo://app?vid=3496e3d5-ade9-4ef3-89c7-6224a9796381"},"vehicle_type_id":"4","last_reported":1770183581,"current_range_meters":4800,"station_id":"ce4bhu92rcd13ifvqi70","pricing_plan_id":"cebpf4jnsgd1na2vs0mg"},{"bike_id":"2bf19671-0061-46e9-83e3-55d71bb70148","system_id":"levelo_inurba_marseille","lat":43.22931,"lon":5.35388,"is_reserved":false,"is_disabled":false,"rental_uris":{"android":"levelo://app?vid=2bf19671-0061-46e9-83e3-55d71bb70148","ios":"levelo://app?vid=2bf19671-0061-46e9-83e3-55d71bb70148"},"vehicle_type_id":"4","last_reported":1770183581,"current_range_meters":4800,"station_id":"cpo3532slgdg3j2ikp40","pricing_plan_id":"cebpf4jnsgd1na2vs0mg"},{"bike_id":"9e057795-08d0-428c-a4d6-14e223435515","system_id":"levelo_inurba_marseille","lat":43.24587,"lon":5.373659,"is_reserved":false,"is_disabled":false,"rental_uris":{"android":"levelo://app?vid=9e057795-08d0-428c-a4d6-14e223435515","ios":"levelo://app?vid=9e057795-08d0-428c-a4d6-14e223435515"},"vehicle_type_id":"4","last_reported":1770183581,"current_range_meters":4800,"station_id":"","pricing_plan_id":"cebpf4jnsgd1na2vs0mg"},{"bike_id":"33b4983b-12f9-44d8-b800-0a8b8c975eef","system_id":"levelo_inurba_marseille","lat":43.28151,"lon":5.42656,"is_reserved":false,"is_disabled":false,"rental_uris":{"android":"levelo://app?vid=33b4983b-12f9-44d8-b800-0a8b8c975eef","ios":"levelo://app?vid=33b4983b-12f9-44d8-b800-0a8b8c975eef"},"vehicle_type_id":"4","last_reported":1770183581,"current_range_meters":4800,"station_id":"ce4bhnh2rcd13ifvqgug","pricing_plan_id":"cebpf4jnsgd1na2vs0mg"},{"bike_id":"7d77e81f-db60-4a2b-9ea3-f632f0f24e98","system_id":"levelo_inurba_marseille","lat":43.30153,"lon":5.38087,"is_reserved":false,"is_disabled":false,"rental_uris":{"android":"levelo://app?vid=7d77e81f-db60-4a2b-9ea3-f632f0f24e98","ios":"levelo://app?vid=7d77e81f-db60-4a2b-9ea3-f632f0f24e98"},"vehicle_type_id":"4","last_reported":1770183581,"current_range_meters":4800,"station_id":"ce4bgjp2rcd13ifvqbh0","pricing_plan_id":"cebpf4jnsgd1na2vs0mg"},{"bike_id":"40954e61-dd73-4b29-8cc4-cc138532c8aa","system_id":"levelo_inurba_marseille","lat":43.29228,"lon":5.42519,"is_reserved":false,"is_disabled":false,"rental_uris":{"android":"levelo://app?vid=40954e61-dd73-4b29-8cc4-cc138532c8aa","ios":"levelo://app?vid=40954e61-dd73-4b29-8cc4-cc138532c8aa"},"vehicle_type_id":"4","last_reported":1770183581,"current_range_meters":4800,"station_id":"","pricing_plan_id":"cebpf4jnsgd1na2vs0mg"},{"bike_id":"bfec0d79-485a-4bd0-9d67-db1ad8521994","system_id":"levelo_inurba_marseille","lat":43.24808,"lon":5.37471,"is_reserved":false,"is_disabled":false,"rental_uris":{"android":"levelo://app?vid=bfec0d79-485a-4bd0-9d67-db1ad8521994","ios":"levelo://app?vid=bfec0d79-485a-4bd0-9d67-db1ad8521994"},"vehicle_type_id":"4","last_reported":1770183581,"current_range_meters":4800,"station_id":"ce4bhgh2rcd13ifvqfb0","pricing_plan_id":"cebpf4jnsgd1na2vs0mg"},{"bike_id":"84792cf2-bdb6-4e7e-ac29-812e27781f7c","system_id":"levelo_inurba_marseille","lat":43.306,"lon":5.37208,"is_reserved":false,"is_disabled":false,"rental_uris":{"android":"levelo://app?vid=84792cf2-bdb6-4e7e-ac29-812e27781f7c","ios":"levelo://app?vid=84792cf2-bdb6-4e7e-ac29-812e27781f7c"},"vehicle_type_id":"4","last_reported":1770183581,"current_range_meters":4800,"station_id":"ce4bgqh2rcd13ifvqc4g","pricing_plan_id":"cebpf4jnsgd1na2vs0mg"},{"bike_id":"3f65ac82-07e9-43d7-ad5b-47792d8a4550","system_id":"levelo_inurba_marseille","lat":43.265071,"lon":5.395509,"is_reserved":false,"is_disabled":false,"rental_uris":{"android":"levelo://app?vid=3f65ac82-07e9-43d7-ad5b-47792d8a4550","ios":"levelo://app?vid=3f65ac82-07e9-43d7-ad5b-47792d8a4550"},"vehicle_type_id":"4","last_reported":1770183581,"current_range_meters":4800,"station_id":"ce4bhi12rcd13ifvqfq0","pricing_plan_id":"cebpf4jnsgd1na2vs0mg"},{"bike_id":"5396fda1-c3a0-4d51-8ba0-cfe497a166d7","system_id":"levelo_inurba_marseille","lat":43.26557,"lon":5.38986,"is_reserved":false,"is_disabled":false,"rental_uris":{"android":"levelo://app?vid=5396fda1-c3a0-4d51-8ba0-cfe497a166d7","ios":"levelo://app?vid=5396fda1-c3a0-4d51-8ba0-cfe497a166d7"},"vehicle_type_id":"4","last_reported":1770183581,"current_range_meters":4800,"station_id":"ce4bhe12rcd13ifvqf30","pricing_plan_id":"cebpf4jnsgd1na2vs0mg"},{"bike_id":"7e69799f-0973-498b-87f5-a1d6b6535a6c","system_id":"levelo_inurba_marseille","lat":43.29908,"lon":5.38147,"is_reserved":false,"is_disabled":false,"rental_uris":{"android":"levelo://app?vid=7e69799f-0973-498b-87f5-a1d6b6535a6c","ios":"levelo://app?vid=7e69799f-0973-498b-87f5-a1d6b6535a6c"},"vehicle_type_id":"4","last_reported":1770183581,"current_range_meters":4800,"station_id":"ce4bgj12rcd13ifvqbc0","pricing_plan_id":"cebpf4jnsgd1na2vs0mg"},{"bike_id":"a3187843-b85c-41a1-aa14-9274fed66704","system_id":"levelo_inurba_marseille","lat":43.2903,"lon":5.37556,"is_reserved":false,"is_disabled":true,"rental_uris":{"android":"levelo://app?vid=a3187843-b85c-41a1-aa14-9274fed66704","ios":"levelo://app?vid=a3187843-b85c-41a1-aa14-9274fed66704"},"vehicle_type_id":"4","last_reported":1770183581,"current_range_meters":4800,"station_id":"ce4bh692rcd13ifvqe90","pricing_plan_id":"cebpf4jnsgd1na2vs0mg"},{"bike_id":"0c8206d1-2ad7-40ea-8d9c-69711689446d","system_id":"levelo_inurba_marseille","lat":43.30939,"lon":5.4018,"is_reserved":false,"is_disabled":false,"rental_uris":{"android":"levelo://app?vid=0c8206d1-2ad7-40ea-8d9c-69711689446d","ios":"levelo://app?vid=0c8206d1-2ad7-40ea-8d9c-69711689446d"},"vehicle_type_id":"4","last_reported":1770183581,"current_range_meters":5600,"station_id":"ce4bgvp2rcd13ifvqct0","pricing_plan_id":"cebpf4jnsgd1na2vs0mg"},{"bike_id":"31d6b64e-48b2-4cc2-af49-c56a6b394847","system_id":"levelo_inurba_marseille","lat":43.27951,"lon":5.37983,"is_reserved":false,"is_disabled":true,"rental_uris":{"android":"levelo://app?vid=31d6b64e-48b2-4cc2-af49-c56a6b394847","ios":"levelo://app?vid=31d6b64e-48b2-4cc2-af49-c56a6b394847"},"vehicle_type_id":"4","last_reported":1770183581,"current_range_meters":5600,"station_id":"ce4bhf92rcd13ifvqf50","pricing_plan_id":"cebpf4jnsgd1na2vs0mg"},{"bike_id":"e1b3cad6-dccc-4f80-892b-59b83fe43b75","system_id":"levelo_inurba_marseille","lat":43.29572,"lon":5.36721,"is_reserved":false,"is_disabled":false,"rental_uris":{"android":"levelo://app?vid=e1b3cad6-dccc-4f80-892b-59b83fe43b75","ios":"levelo://app?vid=e1b3cad6-dccc-4f80-892b-59b83fe43b75"},"vehicle_type_id":"4","last_reported":1770183581,"current_range_meters":5600,"station_id":"ce4bgph2rcd13ifvqc2g","pricing_plan_id":"cebpf4jnsgd1na2vs0mg"},{"bike_id":"3492d7e4-2dea-4cd5-b457-298b87f5c159","system_id":"levelo_inurba_marseille","lat":43.24467,"lon":5.42546,"is_reserved":false,"is_disabled":false,"rental_uris":{"android":"levelo://app?vid=3492d7e4-2dea-4cd5-b457-298b87f5c159","ios":"levelo://app?vid=3492d7e4-2dea-4cd5-b457-298b87f5c159"},"vehicle_type_id":"4","last_reported":1770183581,"current_range_meters":5600,"station_id":"st_d4a3vfp97mjs738cd8kg","pricing_plan_id":"cebpf4jnsgd1na2vs0mg"},{"bike_id":"bcbaa8a6-886f-4091-ae26-8ec7b68ef274","system_id":"levelo_inurba_marseille","lat":43.23786,"lon":5.36635,"is_reserved":false,"is_disabled":false,"rental_uris":{"android":"levelo://app?vid=bcbaa8a6-886f-4091-ae26-8ec7b68ef274","ios":"levelo://app?vid=bcbaa8a6-886f-4091-ae26-8ec7b68ef274"},"vehicle_type_id":"4","last_reported":1770183581,"current_range_meters":5600,"station_id":"st_d3nk18o9ro0c73en2l3g","pricing_plan_id":"cebpf4jnsgd1na2vs0mg"},{"bike_id":"d6fcfbb6-741a-47e6-b08d-f5036f90a3ce","system_id":"levelo_inurba_marseille","lat":43.244721,"lon":5.425411,"is_reserved":false,"is_disabled":false,"rental_uris":{"android":"levelo://app?vid=d6fcfbb6-741a-47e6-b08d-f5036f90a3ce","ios":"levelo://app?vid=d6fcfbb6-741a-47e6-b08d-f5036f90a3ce"},"vehicle_type_id":"4","last_reported":1770183581,"current_range_meters":5600,"station_id":"st_d4a3vfp97mjs738cd8kg","pricing_plan_id":"cebpf4jnsgd1na2vs0mg"},{"bike_id":"4651bd72-2cc4-46af-9f28-98a50310723a","system_id":"levelo_inurba_marseille","lat":43.31616,"lon":5.39431,"is_reserved":false,"is_disabled":false,"rental_uris":{"android":"levelo://app?vid=4651bd72-2cc4-46af-9f28-98a50310723a","ios":"levelo://app?vid=4651bd72-2cc4-46af-9f28-98a50310723a"},"vehicle_type_id":"4","last_reported":1770183581,"current_range_meters":5600,"station_id":"","pricing_plan_id":"cebpf4jnsgd1na2vs0mg"},{"bike_id":"10f7a738-c950-4147-bce6-61a9962a70b5","system_id":"levelo_inurba_marseille","lat":43.25096,"lon":5.39521,"is_reserved":false,"is_disabled":false,"rental_uris":{"android":"levelo://app?vid=10f7a738-c950-4147-bce6-61a9962a70b5","ios":"levelo://app?vid=10f7a738-c950-4147-bce6-61a9962a70b5"},"vehicle_type_id":"4","last_reported":1770183581,"current_range_meters":5600,"station_id":"ce4bhm12rcd13ifvqgkg","pricing_plan_id":"cebpf4jnsgd1na2vs0mg"},{"bike_id":"1564de53-27c0-4f8d-afd8-5839a0935eea","system_id":"levelo_inurba_marseille","lat":43.29764,"lon":5.37078,"is_reserved":false,"is_disabled":false,"rental_uris":{"android":"levelo://app?vid=1564de53-27c0-4f8d-afd8-5839a0935eea","ios":"levelo://app?vid=1564de53-27c0-4f8d-afd8-5839a0935eea"},"vehicle_type_id":"4","last_reported":1770183581,"current_range_meters":5600,"station_id":"ce4bgop2rcd13ifvqc1g","pricing_plan_id":"cebpf4jnsgd1na2vs0mg"},{"bike_id":"ec12566a-9d48-438d-80ed-97edb63a2c03","system_id":"levelo_inurba_marseille","lat":43.24469,"lon":5.42531,"is_reserved":false,"is_disabled":false,"rental_uris":{"android":"levelo://app?vid=ec12566a-9d48-438d-80ed-97edb63a2c03","ios":"levelo://app?vid=ec12566a-9d48-438d-80ed-97edb63a2c03"},"vehicle_type_id":"4","last_reported":1770183581,"current_range_meters":6000,"station_id":"st_d4a3vfp97mjs738cd8kg","pricing_plan_id":"cebpf4jnsgd1na2vs0mg"},{"bike_id":"7f77f6a6-911c-44cf-97f5-71224b3633e0","system_id":"levelo_inurba_marseille","lat":43.25205,"lon":5.38028,"is_reserved":false,"is_disabled":false,"rental_uris":{"android":"levelo://app?vid=7f77f6a6-911c-44cf-97f5-71224b3633e0","ios":"levelo://app?vid=7f77f6a6-911c-44cf-97f5-71224b3633e0"},"vehicle_type_id":"4","last_reported":1770183581,"current_range_meters":6000,"station_id":"","pricing_plan_id":"cebpf4jnsgd1na2vs0mg"},{"bike_id":"5268a57b-c5c9-446a-87ff-ede823dc6bfa","system_id":"levelo_inurba_marseille","lat":43.28565,"lon":5.39492,"is_reserved":false,"is_disabled":false,"rental_uris":{"android":"levelo://app?vid=5268a57b-c5c9-446a-87ff-ede823dc6bfa","ios":"levelo://app?vid=5268a57b-c5c9-446a-87ff-ede823dc6bfa"},"vehicle_type_id":"4","last_reported":1770183581,"current_range_meters":6000,"station_id":"ce4bh292rcd13ifvqdg0","pricing_plan_id":"cebpf4jnsgd1na2vs0mg"},{"bike_id":"30b0a66c-3c65-486d-80e4-7dd9acfc4ef3","system_id":"levelo_inurba_marseille","lat":43.2655,"lon":5.37269,"is_reserved":false,"is_disabled":false,"rental_uris":{"android":"levelo://app?vid=30b0a66c-3c65-486d-80e4-7dd9acfc4ef3","ios":"levelo://app?vid=30b0a66c-3c65-486d-80e4-7dd9acfc4ef3"},"vehicle_type_id":"4","last_reported":1770183581,"current_range_meters":6000,"station_id":"ce4bhg12rcd13ifvqf70","pricing_plan_id":"cebpf4jnsgd1na2vs0mg"},{"bike_id":"5b3811ef-5681-4c18-aac4-a62920f9a85c","system_id":"levelo_inurba_marseille","lat":43.28471,"lon":5.51495,"is_reserved":false,"is_disabled":false,"rental_uris":{"android":"levelo://app?vid=5b3811ef-5681-4c18-aac4-a62920f9a85c","ios":"levelo://app?vid=5b3811ef-5681-4c18-aac4-a62920f9a85c"},"vehicle_type_id":"4","last_reported":1770183581,"current_range_meters":6000,"station_id":"","pricing_plan_id":"cebpf4jnsgd1na2vs0mg"},{"bike_id":"0311d9b7-b04a-4a40-82b0-0ccc400ecadf","system_id":"levelo_inurba_marseille","lat":43.31145,"lon":5.38712,"is_reserved":false,"is_disabled":false,"rental_uris":{"android":"levelo://app?vid=0311d9b7-b04a-4a40-82b0-0ccc400ecadf","ios":"levelo://app?vid=0311d9b7-b04a-4a40-82b0-0ccc400ecadf"},"vehicle_type_id":"4","last_reported":1770183581,"current_range_meters":6000,"station_id":"ce4bgv12rcd13ifvqcp0","pricing_plan_id":"cebpf4jnsgd1na2vs0mg"},{"bike_id":"062e5f79-a769-4716-87f4-fb80879f3848","system_id":"levelo_inurba_marseille","lat":43.296981,"lon":5.372979,"is_reserved":false,"is_disabled":false,"rental_uris":{"android":"levelo://app?vid=062e5f79-a769-4716-87f4-fb80879f3848","ios":"levelo://app?vid=062e5f79-a769-4716-87f4-fb80879f3848"},"vehicle_type_id":"4","last_reported":1770183581,"current_range_meters":6000,"station_id":"ce4bgk12rcd13ifvqbj0","pricing_plan_id":"cebpf4jnsgd1na2vs0mg"},{"bike_id":"a94d9717-9684-448a-a4f3-6cd6c0871bfe","system_id":"levelo_inurba_marseille","lat":43.31319,"lon":5.39676,"is_reserved":false,"is_disabled":false,"rental_uris":{"android":"levelo://app?vid=a94d9717-9684-448a-a4f3-6cd6c0871bfe","ios":"levelo://app?vid=a94d9717-9684-448a-a4f3-6cd6c0871bfe"},"vehicle_type_id":"4","last_reported":1770183581,"current_range_meters":6400,"station_id":"ce4bgvp2rcd13ifvqcu0","pricing_plan_id":"cebpf4jnsgd1na2vs0mg"},{"bike_id":"3d5a03fb-e4b9-4149-beb1-0649d28789b9","system_id":"levelo_inurba_marseille","lat":43.28934,"lon":5.39624,"is_reserved":false,"is_disabled":false,"rental_uris":{"android":"levelo://app?vid=3d5a03fb-e4b9-4149-beb1-0649d28789b9","ios":"levelo://app?vid=3d5a03fb-e4b9-4149-beb1-0649d28789b9"},"vehicle_type_id":"4","last_reported":1770183581,"current_range_meters":6400,"station_id":"ce4bh3h2rcd13ifvqdn0","pricing_plan_id":"cebpf4jnsgd1na2vs0mg"},{"bike_id":"7cd320a3-00b3-42ae-b48c-dad481c2b7e8","system_id":"levelo_inurba_marseille","lat":43.31171,"lon":5.3863,"is_reserved":false,"is_disabled":false,"rental_uris":{"android":"levelo://app?vid=7cd320a3-00b3-42ae-b48c-dad481c2b7e8","ios":"levelo://app?vid=7cd320a3-00b3-42ae-b48c-dad481c2b7e8"},"vehicle_type_id":"4","last_reported":1770183581,"current_range_meters":6400,"station_id":"","pricing_plan_id":"cebpf4jnsgd1na2vs0mg"},{"bike_id":"6cb31d75-fbf5-40d5-9135-5af58485e729","system_id":"levelo_inurba_marseille","lat":43.29904,"lon":5.37481,"is_reserved":false,"is_disabled":false,"rental_uris":{"android":"levelo://app?vid=6cb31d75-fbf5-40d5-9135-5af58485e729","ios":"levelo://app?vid=6cb31d75-fbf5-40d5-9135-5af58485e729"},"vehicle_type_id":"4","last_reported":1770183581,"current_range_meters":6400,"station_id":"ce4bgjh2rcd13ifvqbg0","pricing_plan_id":"cebpf4jnsgd1na2vs0mg"},{"bike_id":"06efda88-b77e-46c3-96a2-10877feaaf19","system_id":"levelo_inurba_marseille","lat":43.30636,"lon":5.40074,"is_reserved":false,"is_disabled":false,"rental_uris":{"android":"levelo://app?vid=06efda88-b77e-46c3-96a2-10877feaaf19","ios":"levelo://app?vid=06efda88-b77e-46c3-96a2-10877feaaf19"},"vehicle_type_id":"4","last_reported":1770183581,"current_range_meters":6400,"station_id":"ce4bh112rcd13ifvqda0","pricing_plan_id":"cebpf4jnsgd1na2vs0mg"},{"bike_id":"33c78623-f97f-4d22-b7a6-b4d27d9b3115","system_id":"levelo_inurba_marseille","lat":43.290508,"lon":5.359178,"is_reserved":false,"is_disabled":false,"rental_uris":{"android":"levelo://app?vid=33c78623-f97f-4d22-b7a6-b4d27d9b3115","ios":"levelo://app?vid=33c78623-f97f-4d22-b7a6-b4d27d9b3115"},"vehicle_type_id":"4","last_reported":1770183581,"current_range_meters":6400,"station_id":"ce4bha92rcd13ifvqeg0","pricing_plan_id":"cebpf4jnsgd1na2vs0mg"},{"bike_id":"73d7fb99-d853-42ce-a7a8-f1ef6eca6976","system_id":"levelo_inurba_marseille","lat":43.30888,"lon":5.39627,"is_reserved":false,"is_disabled":false,"rental_uris":{"android":"levelo://app?vid=73d7fb99-d853-42ce-a7a8-f1ef6eca6976","ios":"levelo://app?vid=73d7fb99-d853-42ce-a7a8-f1ef6eca6976"},"vehicle_type_id":"4","last_reported":1770183581,"current_range_meters":6400,"station_id":"ce4bh012rcd13ifvqcv0","pricing_plan_id":"cebpf4jnsgd1na2vs0mg"},{"bike_id":"6911c53c-b00c-45fb-be18-12fed0f35fcb","system_id":"levelo_inurba_marseille","lat":43.29037,"lon":5.39958,"is_reserved":false,"is_disabled":false,"rental_uris":{"android":"levelo://app?vid=6911c53c-b00c-45fb-be18-12fed0f35fcb","ios":"levelo://app?vid=6911c53c-b00c-45fb-be18-12fed0f35fcb"},"vehicle_type_id":"4","last_reported":1770183581,"current_range_meters":6400,"station_id":"ce4bh392rcd13ifvqdm0","pricing_plan_id":"cebpf4jnsgd1na2vs0mg"},{"bike_id":"191a99ed-49ff-4737-8f82-7264bf56cc6c","system_id":"levelo_inurba_marseille","lat":43.2499,"lon":5.38945,"is_reserved":false,"is_disabled":false,"rental_uris":{"android":"levelo://app?vid=191a99ed-49ff-4737-8f82-7264bf56cc6c","ios":"levelo://app?vid=191a99ed-49ff-4737-8f82-7264bf56cc6c"},"vehicle_type_id":"4","last_reported":1770183581,"current_range_meters":6400,"station_id":"ce4bhgp2rcd13ifvqfd0","pricing_plan_id":"cebpf4jnsgd1na2vs0mg"},{"bike_id":"5de5e604-6504-4a1a-966a-dc6c49a789b3","system_id":"levelo_inurba_marseille","lat":43.29583,"lon":5.36741,"is_reserved":false,"is_disabled":false,"rental_uris":{"android":"levelo://app?vid=5de5e604-6504-4a1a-966a-dc6c49a789b3","ios":"levelo://app?vid=5de5e604-6504-4a1a-966a-dc6c49a789b3"},"vehicle_type_id":"4","last_reported":1770183581,"current_range_meters":6400,"station_id":"ce4bgph2rcd13ifvqc2g","pricing_plan_id":"cebpf4jnsgd1na2vs0mg"},{"bike_id":"4f17a483-36fe-499f-8941-095013509c22","system_id":"levelo_inurba_marseille","lat":43.246548,"lon":5.38173,"is_reserved":false,"is_disabled":false,"rental_uris":{"android":"levelo://app?vid=4f17a483-36fe-499f-8941-095013509c22","ios":"levelo://app?vid=4f17a483-36fe-499f-8941-095013509c22"},"vehicle_type_id":"4","last_reported":1770183581,"current_range_meters":6400,"station_id":"ce4bhih2rcd13ifvqfr0","pricing_plan_id":"cebpf4jnsgd1na2vs0mg"},{"bike_id":"a239aec5-b1d0-4fa0-baf3-82bbdaaacd0d","system_id":"levelo_inurba_marseille","lat":43.28485,"lon":5.3842,"is_reserved":false,"is_disabled":false,"rental_uris":{"android":"levelo://app?vid=a239aec5-b1d0-4fa0-baf3-82bbdaaacd0d","ios":"levelo://app?vid=a239aec5-b1d0-4fa0-baf3-82bbdaaacd0d"},"vehicle_type_id":"4","last_reported":1770183581,"current_range_meters":6400,"station_id":"ce4bh512rcd13ifvqe3g","pricing_plan_id":"cebpf4jnsgd1na2vs0mg"},{"bike_id":"729385c5-9448-45a4-8ff7-3929ed5511db","system_id":"levelo_inurba_marseille","lat":43.27465,"lon":5.41584,"is_reserved":false,"is_disabled":false,"rental_uris":{"android":"levelo://app?vid=729385c5-9448-45a4-8ff7-3929ed5511db","ios":"levelo://app?vid=729385c5-9448-45a4-8ff7-3929ed5511db"},"vehicle_type_id":"4","last_reported":1770183581,"current_range_meters":6400,"station_id":"","pricing_plan_id":"cebpf4jnsgd1na2vs0mg"},{"bike_id":"1b5a9ce0-a712-4e6e-83a1-5b3d08083ec7","system_id":"levelo_inurba_marseille","lat":43.2315,"lon":5.35541,"is_reserved":false,"is_disabled":false,"rental_uris":{"android":"levelo://app?vid=1b5a9ce0-a712-4e6e-83a1-5b3d08083ec7","ios":"levelo://app?vid=1b5a9ce0-a712-4e6e-83a1-5b3d08083ec7"},"vehicle_type_id":"4","last_reported":1770183581,"current_range_meters":6400,"station_id":"ce4bhu92rcd13ifvqi70","pricing_plan_id":"cebpf4jnsgd1na2vs0mg"},{"bike_id":"ccad5bb8-727e-4e27-b0cc-7b2f496ea109","system_id":"levelo_inurba_marseille","lat":43.295553,"lon":5.422856,"is_reserved":false,"is_disabled":false,"rental_uris":{"android":"levelo://app?vid=ccad5bb8-727e-4e27-b0cc-7b2f496ea109","ios":"levelo://app?vid=ccad5bb8-727e-4e27-b0cc-7b2f496ea109"},"vehicle_type_id":"4","last_reported":1770183581,"current_range_meters":6400,"station_id":"ce4bhph2rcd13ifvqhdg","pricing_plan_id":"cebpf4jnsgd1na2vs0mg"},{"bike_id":"b76b0812-c1ce-4144-9b78-716e1fd3e796","system_id":"levelo_inurba_marseille","lat":43.28632,"lon":5.35108,"is_reserved":false,"is_disabled":false,"rental_uris":{"android":"levelo://app?vid=b76b0812-c1ce-4144-9b78-716e1fd3e796","ios":"levelo://app?vid=b76b0812-c1ce-4144-9b78-716e1fd3e796"},"vehicle_type_id":"4","last_reported":1770183581,"current_range_meters":6400,"station_id":"ce4bhch2rcd13ifvqeug","pricing_plan_id":"cebpf4jnsgd1na2vs0mg"},{"bike_id":"3ff3f2ab-8685-4afa-87a3-8c4a7e12bc12","system_id":"levelo_inurba_marseille","lat":43.281145,"lon":5.378468,"is_reserved":false,"is_disabled":false,"rental_uris":{"android":"levelo://app?vid=3ff3f2ab-8685-4afa-87a3-8c4a7e12bc12","ios":"levelo://app?vid=3ff3f2ab-8685-4afa-87a3-8c4a7e12bc12"},"vehicle_type_id":"4","last_reported":1770183581,"current_range_meters":6400,"station_id":"ce4bha12rcd13ifvqee0","pricing_plan_id":"cebpf4jnsgd1na2vs0mg"},{"bike_id":"8e312380-e745-433d-90b9-ff07a309073d","system_id":"levelo_inurba_marseille","lat":43.248111,"lon":5.374482,"is_reserved":false,"is_disabled":false,"rental_uris":{"android":"levelo://app?vid=8e312380-e745-433d-90b9-ff07a309073d","ios":"levelo://app?vid=8e312380-e745-433d-90b9-ff07a309073d"},"vehicle_type_id":"4","last_reported":1770183581,"current_range_meters":6800,"station_id":"ce4bhgh2rcd13ifvqfb0","pricing_plan_id":"cebpf4jnsgd1na2vs0mg"},{"bike_id":"c056efdd-bfd4-4d90-a2c4-30f136ba140c","system_id":"levelo_inurba_marseille","lat":43.335089,"lon":5.374774,"is_reserved":false,"is_disabled":false,"rental_uris":{"android":"levelo://app?vid=c056efdd-bfd4-4d90-a2c4-30f136ba140c","ios":"levelo://app?vid=c056efdd-bfd4-4d90-a2c4-30f136ba140c"},"vehicle_type_id":"4","last_reported":1770183581,"current_range_meters":6800,"station_id":"st_d46tts09ee8s73dlu43g","pricing_plan_id":"cebpf4jnsgd1na2vs0mg"},{"bike_id":"25ed47fc-271f-4de7-a2a6-6e589391bb92","system_id":"levelo_inurba_marseille","lat":43.28409,"lon":5.34975,"is_reserved":false,"is_disabled":false,"rental_uris":{"android":"levelo://app?vid=25ed47fc-271f-4de7-a2a6-6e589391bb92","ios":"levelo://app?vid=25ed47fc-271f-4de7-a2a6-6e589391bb92"},"vehicle_type_id":"4","last_reported":1770183581,"current_range_meters":6800,"station_id":"ce4bhbh2rcd13ifvqepg","pricing_plan_id":"cebpf4jnsgd1na2vs0mg"},{"bike_id":"c7b717b4-df4f-4bb4-9862-2a130f4d753d","system_id":"levelo_inurba_marseille","lat":43.30144,"lon":5.38091,"is_reserved":false,"is_disabled":false,"rental_uris":{"android":"levelo://app?vid=c7b717b4-df4f-4bb4-9862-2a130f4d753d","ios":"levelo://app?vid=c7b717b4-df4f-4bb4-9862-2a130f4d753d"},"vehicle_type_id":"4","last_reported":1770183581,"current_range_meters":6800,"station_id":"ce4bgjp2rcd13ifvqbh0","pricing_plan_id":"cebpf4jnsgd1na2vs0mg"},{"bike_id":"574b46f0-3f1e-4de0-961b-a840353bfcf3","system_id":"levelo_inurba_marseille","lat":43.23765,"lon":5.36628,"is_reserved":false,"is_disabled":false,"rental_uris":{"android":"levelo://app?vid=574b46f0-3f1e-4de0-961b-a840353bfcf3","ios":"levelo://app?vid=574b46f0-3f1e-4de0-961b-a840353bfcf3"},"vehicle_type_id":"4","last_reported":1770183581,"current_range_meters":6800,"station_id":"st_d3nk18o9ro0c73en2l3g","pricing_plan_id":"cebpf4jnsgd1na2vs0mg"},{"bike_id":"659b2fe8-8a06-4a27-93de-c9d7bd01e359","system_id":"levelo_inurba_marseille","lat":43.29677,"lon":5.37643,"is_reserved":false,"is_disabled":false,"rental_uris":{"android":"levelo://app?vid=659b2fe8-8a06-4a27-93de-c9d7bd01e359","ios":"levelo://app?vid=659b2fe8-8a06-4a27-93de-c9d7bd01e359"},"vehicle_type_id":"4","last_reported":1770183581,"current_range_meters":6800,"station_id":"ce4bgkh2rcd13ifvqbl0","pricing_plan_id":"cebpf4jnsgd1na2vs0mg"},{"bike_id":"ba3390f5-14ed-4160-abcf-8bea19885613","system_id":"levelo_inurba_marseille","lat":43.28452,"lon":5.48437,"is_reserved":false,"is_disabled":false,"rental_uris":{"android":"levelo://app?vid=ba3390f5-14ed-4160-abcf-8bea19885613","ios":"levelo://app?vid=ba3390f5-14ed-4160-abcf-8bea19885613"},"vehicle_type_id":"4","last_reported":1770183581,"current_range_meters":6800,"station_id":"st_d3svhcjqgbts73a3dn0g","pricing_plan_id":"cebpf4jnsgd1na2vs0mg"},{"bike_id":"8a572f97-bd4f-41ad-aafc-4182500530a4","system_id":"levelo_inurba_marseille","lat":43.29949,"lon":5.37753,"is_reserved":false,"is_disabled":false,"rental_uris":{"android":"levelo://app?vid=8a572f97-bd4f-41ad-aafc-4182500530a4","ios":"levelo://app?vid=8a572f97-bd4f-41ad-aafc-4182500530a4"},"vehicle_type_id":"4","last_reported":1770183581,"current_range_meters":6800,"station_id":"","pricing_plan_id":"cebpf4jnsgd1na2vs0mg"},{"bike_id":"852a0598-2717-496d-a13e-313bd41e7f62","system_id":"levelo_inurba_marseille","lat":43.28167,"lon":5.42624,"is_reserved":false,"is_disabled":false,"rental_uris":{"android":"levelo://app?vid=852a0598-2717-496d-a13e-313bd41e7f62","ios":"levelo://app?vid=852a0598-2717-496d-a13e-313bd41e7f62"},"vehicle_type_id":"4","last_reported":1770183581,"current_range_meters":6800,"station_id":"ce4bhnh2rcd13ifvqgug","pricing_plan_id":"cebpf4jnsgd1na2vs0mg"},{"bike_id":"2d514056-ce15-41f8-9bd5-1a31494e49a6","system_id":"levelo_inurba_marseille","lat":43.251,"lon":5.40347,"is_reserved":false,"is_disabled":false,"rental_uris":{"android":"levelo://app?vid=2d514056-ce15-41f8-9bd5-1a31494e49a6","ios":"levelo://app?vid=2d514056-ce15-41f8-9bd5-1a31494e49a6"},"vehicle_type_id":"4","last_reported":1770183581,"current_range_meters":6800,"station_id":"ce4bhlh2rcd13ifvqgig","pricing_plan_id":"cebpf4jnsgd1na2vs0mg"},{"bike_id":"b807f1bd-ab05-430b-b8dc-e60f45ad1eb6","system_id":"levelo_inurba_marseille","lat":43.25104,"lon":5.40357,"is_reserved":false,"is_disabled":false,"rental_uris":{"android":"levelo://app?vid=b807f1bd-ab05-430b-b8dc-e60f45ad1eb6","ios":"levelo://app?vid=b807f1bd-ab05-430b-b8dc-e60f45ad1eb6"},"vehicle_type_id":"4","last_reported":1770183581,"current_range_meters":6800,"station_id":"ce4bhlh2rcd13ifvqgig","pricing_plan_id":"cebpf4jnsgd1na2vs0mg"},{"bike_id":"215f9ed1-feb7-42e4-86fc-1e0b8283e1ac","system_id":"levelo_inurba_marseille","lat":43.28479,"lon":5.38425,"is_reserved":false,"is_disabled":false,"rental_uris":{"android":"levelo://app?vid=215f9ed1-feb7-42e4-86fc-1e0b8283e1ac","ios":"levelo://app?vid=215f9ed1-feb7-42e4-86fc-1e0b8283e1ac"},"vehicle_type_id":"4","last_reported":1770183581,"current_range_meters":6800,"station_id":"ce4bh512rcd13ifvqe3g","pricing_plan_id":"cebpf4jnsgd1na2vs0mg"},{"bike_id":"965fe77e-2880-48ae-9b04-83329f901992","system_id":"levelo_inurba_marseille","lat":43.25869,"lon":5.39887,"is_reserved":false,"is_disabled":false,"rental_uris":{"android":"levelo://app?vid=965fe77e-2880-48ae-9b04-83329f901992","ios":"levelo://app?vid=965fe77e-2880-48ae-9b04-83329f901992"},"vehicle_type_id":"4","last_reported":1770183581,"current_range_meters":6800,"station_id":"ce4bhl92rcd13ifvqghg","pricing_plan_id":"cebpf4jnsgd1na2vs0mg"},{"bike_id":"fba83296-cf08-4ba9-8267-d1dc13133a44","system_id":"levelo_inurba_marseille","lat":43.26213,"lon":5.40456,"is_reserved":false,"is_disabled":false,"rental_uris":{"android":"levelo://app?vid=fba83296-cf08-4ba9-8267-d1dc13133a44","ios":"levelo://app?vid=fba83296-cf08-4ba9-8267-d1dc13133a44"},"vehicle_type_id":"4","last_reported":1770183581,"current_range_meters":6800,"station_id":"ce4bhmh2rcd13ifvqgmg","pricing_plan_id":"cebpf4jnsgd1na2vs0mg"},{"bike_id":"fdc74734-8708-4513-9519-5478f60a2254","system_id":"levelo_inurba_marseille","lat":43.248154,"lon":5.374561,"is_reserved":false,"is_disabled":false,"rental_uris":{"android":"levelo://app?vid=fdc74734-8708-4513-9519-5478f60a2254","ios":"levelo://app?vid=fdc74734-8708-4513-9519-5478f60a2254"},"vehicle_type_id":"4","last_reported":1770183581,"current_range_meters":6800,"station_id":"ce4bhgh2rcd13ifvqfb0","pricing_plan_id":"cebpf4jnsgd1na2vs0mg"},{"bike_id":"068098b6-2917-46c3-bbcd-2f4568f90c7b","system_id":"levelo_inurba_marseille","lat":43.28615,"lon":5.351012,"is_reserved":false,"is_disabled":true,"rental_uris":{"android":"levelo://app?vid=068098b6-2917-46c3-bbcd-2f4568f90c7b","ios":"levelo://app?vid=068098b6-2917-46c3-bbcd-2f4568f90c7b"},"vehicle_type_id":"4","last_reported":1770183581,"current_range_meters":6800,"station_id":"","pricing_plan_id":"cebpf4jnsgd1na2vs0mg"},{"bike_id":"03957cd6-ee2d-47d1-948d-c3da3284d226","system_id":"levelo_inurba_marseille","lat":43.289336,"lon":5.363987,"is_reserved":false,"is_disabled":true,"rental_uris":{"android":"levelo://app?vid=03957cd6-ee2d-47d1-948d-c3da3284d226","ios":"levelo://app?vid=03957cd6-ee2d-47d1-948d-c3da3284d226"},"vehicle_type_id":"4","last_reported":1770183581,"current_range_meters":6800,"station_id":"ce4bhc92rcd13ifvqetg","pricing_plan_id":"cebpf4jnsgd1na2vs0mg"},{"bike_id":"9c7711da-5dad-44a8-8560-b03a82c64417","system_id":"levelo_inurba_marseille","lat":43.25333,"lon":5.42154,"is_reserved":false,"is_disabled":false,"rental_uris":{"android":"levelo://app?vid=9c7711da-5dad-44a8-8560-b03a82c64417","ios":"levelo://app?vid=9c7711da-5dad-44a8-8560-b03a82c64417"},"vehicle_type_id":"4","last_reported":1770183581,"current_range_meters":6800,"station_id":"st_d2m65c5bi1j21697t3ng","pricing_plan_id":"cebpf4jnsgd1na2vs0mg"},{"bike_id":"a1d40264-31fa-4368-a92c-3f50c8a64b96","system_id":"levelo_inurba_marseille","lat":43.231526,"lon":5.437079,"is_reserved":false,"is_disabled":false,"rental_uris":{"android":"levelo://app?vid=a1d40264-31fa-4368-a92c-3f50c8a64b96","ios":"levelo://app?vid=a1d40264-31fa-4368-a92c-3f50c8a64b96"},"vehicle_type_id":"4","last_reported":1770183581,"current_range_meters":6800,"station_id":"ce4bhmp2rcd13ifvqgog","pricing_plan_id":"cebpf4jnsgd1na2vs0mg"},{"bike_id":"003a19d5-9083-46f1-954b-8756c99a38b5","system_id":"levelo_inurba_marseille","lat":43.31996,"lon":5.38163,"is_reserved":false,"is_disabled":false,"rental_uris":{"android":"levelo://app?vid=003a19d5-9083-46f1-954b-8756c99a38b5","ios":"levelo://app?vid=003a19d5-9083-46f1-954b-8756c99a38b5"},"vehicle_type_id":"4","last_reported":1770183581,"current_range_meters":6800,"station_id":"ce4bhr12rcd13ifvqhpg","pricing_plan_id":"cebpf4jnsgd1na2vs0mg"},{"bike_id":"b0de10e1-c8dd-4794-bb07-685c2b13619b","system_id":"levelo_inurba_marseille","lat":43.24946,"lon":5.40519,"is_reserved":false,"is_disabled":false,"rental_uris":{"android":"levelo://app?vid=b0de10e1-c8dd-4794-bb07-685c2b13619b","ios":"levelo://app?vid=b0de10e1-c8dd-4794-bb07-685c2b13619b"},"vehicle_type_id":"4","last_reported":1770183581,"current_range_meters":6800,"station_id":"st_d2ngiaodas8pm72gd1h0","pricing_plan_id":"cebpf4jnsgd1na2vs0mg"},{"bike_id":"c269eff6-7414-4fb8-b35a-8132e5c63b79","system_id":"levelo_inurba_marseille","lat":43.25,"lon":5.38913,"is_reserved":false,"is_disabled":false,"rental_uris":{"android":"levelo://app?vid=c269eff6-7414-4fb8-b35a-8132e5c63b79","ios":"levelo://app?vid=c269eff6-7414-4fb8-b35a-8132e5c63b79"},"vehicle_type_id":"4","last_reported":1770183581,"current_range_meters":6800,"station_id":"ce4bhgp2rcd13ifvqfd0","pricing_plan_id":"cebpf4jnsgd1na2vs0mg"},{"bike_id":"b3a54eab-b946-460c-8d1b-dbc0ce5bc3c5","system_id":"levelo_inurba_marseille","lat":43.28159,"lon":5.42617,"is_reserved":false,"is_disabled":false,"rental_uris":{"android":"levelo://app?vid=b3a54eab-b946-460c-8d1b-dbc0ce5bc3c5","ios":"levelo://app?vid=b3a54eab-b946-460c-8d1b-dbc0ce5bc3c5"},"vehicle_type_id":"4","last_reported":1770183581,"current_range_meters":6800,"station_id":"ce4bhnh2rcd13ifvqgug","pricing_plan_id":"cebpf4jnsgd1na2vs0mg"},{"bike_id":"03b9bf6a-0f76-4194-8ca3-e97967a681ed","system_id":"levelo_inurba_marseille","lat":43.29264,"lon":5.40907,"is_reserved":false,"is_disabled":false,"rental_uris":{"android":"levelo://app?vid=03b9bf6a-0f76-4194-8ca3-e97967a681ed","ios":"levelo://app?vid=03b9bf6a-0f76-4194-8ca3-e97967a681ed"},"vehicle_type_id":"4","last_reported":1770183581,"current_range_meters":6800,"station_id":"ce4bh192rcd13ifvqdc0","pricing_plan_id":"cebpf4jnsgd1na2vs0mg"},{"bike_id":"af1b3be9-6374-4e49-8eca-93e65c780fd9","system_id":"levelo_inurba_marseille","lat":43.29527,"lon":5.37492,"is_reserved":false,"is_disabled":false,"rental_uris":{"android":"levelo://app?vid=af1b3be9-6374-4e49-8eca-93e65c780fd9","ios":"levelo://app?vid=af1b3be9-6374-4e49-8eca-93e65c780fd9"},"vehicle_type_id":"4","last_reported":1770183581,"current_range_meters":7200,"station_id":"ce4bgkp2rcd13ifvqbmg","pricing_plan_id":"cebpf4jnsgd1na2vs0mg"},{"bike_id":"de14d46e-f5b1-470f-9398-73f70931d4fe","system_id":"levelo_inurba_marseille","lat":43.28283,"lon":5.35067,"is_reserved":false,"is_disabled":false,"rental_uris":{"android":"levelo://app?vid=de14d46e-f5b1-470f-9398-73f70931d4fe","ios":"levelo://app?vid=de14d46e-f5b1-470f-9398-73f70931d4fe"},"vehicle_type_id":"4","last_reported":1770183581,"current_range_meters":7200,"station_id":"ce4bhbp2rcd13ifvqerg","pricing_plan_id":"cebpf4jnsgd1na2vs0mg"},{"bike_id":"b6500fa4-05e6-4d91-8745-08ebeef34def","system_id":"levelo_inurba_marseille","lat":43.25073,"lon":5.39514,"is_reserved":false,"is_disabled":false,"rental_uris":{"android":"levelo://app?vid=b6500fa4-05e6-4d91-8745-08ebeef34def","ios":"levelo://app?vid=b6500fa4-05e6-4d91-8745-08ebeef34def"},"vehicle_type_id":"4","last_reported":1770183581,"current_range_meters":7200,"station_id":"ce4bhm12rcd13ifvqgkg","pricing_plan_id":"cebpf4jnsgd1na2vs0mg"},{"bike_id":"30a564fc-cc84-4416-a8a0-217a2d812352","system_id":"levelo_inurba_marseille","lat":43.31688,"lon":5.40458,"is_reserved":false,"is_disabled":false,"rental_uris":{"android":"levelo://app?vid=30a564fc-cc84-4416-a8a0-217a2d812352","ios":"levelo://app?vid=30a564fc-cc84-4416-a8a0-217a2d812352"},"vehicle_type_id":"4","last_reported":1770183581,"current_range_meters":7200,"station_id":"ce4bh012rcd13ifvqd00","pricing_plan_id":"cebpf4jnsgd1na2vs0mg"},{"bike_id":"242256f5-f0bd-4204-9565-2087ceacdda5","system_id":"levelo_inurba_marseille","lat":43.2256,"lon":5.41625,"is_reserved":false,"is_disabled":false,"rental_uris":{"android":"levelo://app?vid=242256f5-f0bd-4204-9565-2087ceacdda5","ios":"levelo://app?vid=242256f5-f0bd-4204-9565-2087ceacdda5"},"vehicle_type_id":"4","last_reported":1770183581,"current_range_meters":7200,"station_id":"st_d2o4gvlbi1j2169b742g","pricing_plan_id":"cebpf4jnsgd1na2vs0mg"},{"bike_id":"9d79ec10-3ed1-4035-8609-ff591e4f54d3","system_id":"levelo_inurba_marseille","lat":43.25574,"lon":5.38223,"is_reserved":false,"is_disabled":false,"rental_uris":{"android":"levelo://app?vid=9d79ec10-3ed1-4035-8609-ff591e4f54d3","ios":"levelo://app?vid=9d79ec10-3ed1-4035-8609-ff591e4f54d3"},"vehicle_type_id":"4","last_reported":1770183581,"current_range_meters":7200,"station_id":"ce4bhih2rcd13ifvqfs0","pricing_plan_id":"cebpf4jnsgd1na2vs0mg"},{"bike_id":"30018880-defb-4e1d-b4b9-524f673acfb8","system_id":"levelo_inurba_marseille","lat":43.297608,"lon":5.427795,"is_reserved":false,"is_disabled":false,"rental_uris":{"android":"levelo://app?vid=30018880-defb-4e1d-b4b9-524f673acfb8","ios":"levelo://app?vid=30018880-defb-4e1d-b4b9-524f673acfb8"},"vehicle_type_id":"4","last_reported":1770183581,"current_range_meters":7200,"station_id":"st_d3md5207bmas73dh9klg","pricing_plan_id":"cebpf4jnsgd1na2vs0mg"},{"bike_id":"c214f81c-e58b-4475-ad7c-a9d63d7d79c5","system_id":"levelo_inurba_marseille","lat":43.29552,"lon":5.42295,"is_reserved":false,"is_disabled":false,"rental_uris":{"android":"levelo://app?vid=c214f81c-e58b-4475-ad7c-a9d63d7d79c5","ios":"levelo://app?vid=c214f81c-e58b-4475-ad7c-a9d63d7d79c5"},"vehicle_type_id":"4","last_reported":1770183581,"current_range_meters":7200,"station_id":"ce4bhph2rcd13ifvqhdg","pricing_plan_id":"cebpf4jnsgd1na2vs0mg"},{"bike_id":"a8c22487-8662-4b4c-ad3e-edccba99e631","system_id":"levelo_inurba_marseille","lat":43.313611,"lon":5.385017,"is_reserved":false,"is_disabled":false,"rental_uris":{"android":"levelo://app?vid=a8c22487-8662-4b4c-ad3e-edccba99e631","ios":"levelo://app?vid=a8c22487-8662-4b4c-ad3e-edccba99e631"},"vehicle_type_id":"4","last_reported":1770183581,"current_range_meters":7200,"station_id":"ce4bgt92rcd13ifvqcf0","pricing_plan_id":"cebpf4jnsgd1na2vs0mg"},{"bike_id":"6af9c093-c8f8-4e82-9b76-84ead01f4f13","system_id":"levelo_inurba_marseille","lat":43.26558,"lon":5.40317,"is_reserved":false,"is_disabled":false,"rental_uris":{"android":"levelo://app?vid=6af9c093-c8f8-4e82-9b76-84ead01f4f13","ios":"levelo://app?vid=6af9c093-c8f8-4e82-9b76-84ead01f4f13"},"vehicle_type_id":"4","last_reported":1770183581,"current_range_meters":7200,"station_id":"ce4bhmp2rcd13ifvqgng","pricing_plan_id":"cebpf4jnsgd1na2vs0mg"},{"bike_id":"8fb4838b-c5bd-4cb2-8c92-fceeea48a889","system_id":"levelo_inurba_marseille","lat":43.29552,"lon":5.42341,"is_reserved":false,"is_disabled":false,"rental_uris":{"android":"levelo://app?vid=8fb4838b-c5bd-4cb2-8c92-fceeea48a889","ios":"levelo://app?vid=8fb4838b-c5bd-4cb2-8c92-fceeea48a889"},"vehicle_type_id":"4","last_reported":1770183581,"current_range_meters":7200,"station_id":"ce4bhph2rcd13ifvqhdg","pricing_plan_id":"cebpf4jnsgd1na2vs0mg"},{"bike_id":"efea85db-b1c8-46f7-b3e0-9fa246910aa6","system_id":"levelo_inurba_marseille","lat":43.23208,"lon":5.40015,"is_reserved":false,"is_disabled":false,"rental_uris":{"android":"levelo://app?vid=efea85db-b1c8-46f7-b3e0-9fa246910aa6","ios":"levelo://app?vid=efea85db-b1c8-46f7-b3e0-9fa246910aa6"},"vehicle_type_id":"4","last_reported":1770183581,"current_range_meters":7200,"station_id":"ce4bhn12rcd13ifvqgqg","pricing_plan_id":"cebpf4jnsgd1na2vs0mg"},{"bike_id":"ef4aafd7-31d8-4f9b-97f1-b8af2e53c15d","system_id":"levelo_inurba_marseille","lat":43.29891,"lon":5.43652,"is_reserved":false,"is_disabled":false,"rental_uris":{"android":"levelo://app?vid=ef4aafd7-31d8-4f9b-97f1-b8af2e53c15d","ios":"levelo://app?vid=ef4aafd7-31d8-4f9b-97f1-b8af2e53c15d"},"vehicle_type_id":"4","last_reported":1770183581,"current_range_meters":7200,"station_id":"ce4bhpp2rcd13ifvqhfg","pricing_plan_id":"cebpf4jnsgd1na2vs0mg"},{"bike_id":"d4d04fe6-644e-4e9e-b6d2-1aad5cffa50d","system_id":"levelo_inurba_marseille","lat":43.30706,"lon":5.42441,"is_reserved":false,"is_disabled":false,"rental_uris":{"android":"levelo://app?vid=d4d04fe6-644e-4e9e-b6d2-1aad5cffa50d","ios":"levelo://app?vid=d4d04fe6-644e-4e9e-b6d2-1aad5cffa50d"},"vehicle_type_id":"4","last_reported":1770183581,"current_range_meters":7200,"station_id":"st_cvj6ca6bvosntc0bfgr0","pricing_plan_id":"cebpf4jnsgd1na2vs0mg"},{"bike_id":"d5d98457-3377-411c-bbd5-111f6add1380","system_id":"levelo_inurba_marseille","lat":43.25914,"lon":5.39409,"is_reserved":false,"is_disabled":false,"rental_uris":{"android":"levelo://app?vid=d5d98457-3377-411c-bbd5-111f6add1380","ios":"levelo://app?vid=d5d98457-3377-411c-bbd5-111f6add1380"},"vehicle_type_id":"4","last_reported":1770183581,"current_range_meters":7200,"station_id":"","pricing_plan_id":"cebpf4jnsgd1na2vs0mg"},{"bike_id":"988afa8e-d306-4003-baf9-728102144f56","system_id":"levelo_inurba_marseille","lat":43.26763,"lon":5.38296,"is_reserved":false,"is_disabled":false,"rental_uris":{"android":"levelo://app?vid=988afa8e-d306-4003-baf9-728102144f56","ios":"levelo://app?vid=988afa8e-d306-4003-baf9-728102144f56"},"vehicle_type_id":"4","last_reported":1770183581,"current_range_meters":8000,"station_id":"","pricing_plan_id":"cebpf4jnsgd1na2vs0mg"},{"bike_id":"e306f84e-f4a5-4da5-b221-959aa771268b","system_id":"levelo_inurba_marseille","lat":43.24071,"lon":5.37753,"is_reserved":false,"is_disabled":false,"rental_uris":{"android":"levelo://app?vid=e306f84e-f4a5-4da5-b221-959aa771268b","ios":"levelo://app?vid=e306f84e-f4a5-4da5-b221-959aa771268b"},"vehicle_type_id":"4","last_reported":1770183581,"current_range_meters":8000,"station_id":"ce4bhnp2rcd13ifvqgvg","pricing_plan_id":"cebpf4jnsgd1na2vs0mg"},{"bike_id":"38e3e07b-adce-40ab-bc41-3d9f50c90e39","system_id":"levelo_inurba_marseille","lat":43.31279,"lon":5.40165,"is_reserved":false,"is_disabled":false,"rental_uris":{"android":"levelo://app?vid=38e3e07b-adce-40ab-bc41-3d9f50c90e39","ios":"levelo://app?vid=38e3e07b-adce-40ab-bc41-3d9f50c90e39"},"vehicle_type_id":"4","last_reported":1770183581,"current_range_meters":8000,"station_id":"ce4bh092rcd13ifvqd30","pricing_plan_id":"cebpf4jnsgd1na2vs0mg"},{"bike_id":"1a0c4790-88aa-43f7-ad73-1d79fcd05302","system_id":"levelo_inurba_marseille","lat":43.26405,"lon":5.39016,"is_reserved":false,"is_disabled":false,"rental_uris":{"android":"levelo://app?vid=1a0c4790-88aa-43f7-ad73-1d79fcd05302","ios":"levelo://app?vid=1a0c4790-88aa-43f7-ad73-1d79fcd05302"},"vehicle_type_id":"4","last_reported":1770183581,"current_range_meters":8000,"station_id":"","pricing_plan_id":"cebpf4jnsgd1na2vs0mg"},{"bike_id":"ae4a16ba-5fc2-4e6e-86f1-52b891522f3b","system_id":"levelo_inurba_marseille","lat":43.297861,"lon":5.393504,"is_reserved":false,"is_disabled":false,"rental_uris":{"android":"levelo://app?vid=ae4a16ba-5fc2-4e6e-86f1-52b891522f3b","ios":"levelo://app?vid=ae4a16ba-5fc2-4e6e-86f1-52b891522f3b"},"vehicle_type_id":"4","last_reported":1770183581,"current_range_meters":8000,"station_id":"chh1huq6cuj3fo74tm60","pricing_plan_id":"cebpf4jnsgd1na2vs0mg"},{"bike_id":"c7f54c04-a218-42d0-8644-fc599814cfde","system_id":"levelo_inurba_marseille","lat":43.28267,"lon":5.35048,"is_reserved":false,"is_disabled":false,"rental_uris":{"android":"levelo://app?vid=c7f54c04-a218-42d0-8644-fc599814cfde","ios":"levelo://app?vid=c7f54c04-a218-42d0-8644-fc599814cfde"},"vehicle_type_id":"4","last_reported":1770183581,"current_range_meters":8000,"station_id":"ce4bhbp2rcd13ifvqerg","pricing_plan_id":"cebpf4jnsgd1na2vs0mg"},{"bike_id":"30c7e6ec-0b5d-4edb-a574-95f0a1808f3c","system_id":"levelo_inurba_marseille","lat":43.28631,"lon":5.35044,"is_reserved":false,"is_disabled":false,"rental_uris":{"android":"levelo://app?vid=30c7e6ec-0b5d-4edb-a574-95f0a1808f3c","ios":"levelo://app?vid=30c7e6ec-0b5d-4edb-a574-95f0a1808f3c"},"vehicle_type_id":"4","last_reported":1770183581,"current_range_meters":8000,"station_id":"ce4bhch2rcd13ifvqeug","pricing_plan_id":"cebpf4jnsgd1na2vs0mg"},{"bike_id":"9a41c992-8ec6-4c5f-9787-da9fbb815a48","system_id":"levelo_inurba_marseille","lat":43.2558,"lon":5.38233,"is_reserved":false,"is_disabled":false,"rental_uris":{"android":"levelo://app?vid=9a41c992-8ec6-4c5f-9787-da9fbb815a48","ios":"levelo://app?vid=9a41c992-8ec6-4c5f-9787-da9fbb815a48"},"vehicle_type_id":"4","last_reported":1770183581,"current_range_meters":8000,"station_id":"ce4bhih2rcd13ifvqfs0","pricing_plan_id":"cebpf4jnsgd1na2vs0mg"},{"bike_id":"9b56e182-4134-4f9f-b48f-caf7dd28724d","system_id":"levelo_inurba_marseille","lat":43.28523,"lon":5.44112,"is_reserved":false,"is_disabled":false,"rental_uris":{"android":"levelo://app?vid=9b56e182-4134-4f9f-b48f-caf7dd28724d","ios":"levelo://app?vid=9b56e182-4134-4f9f-b48f-caf7dd28724d"},"vehicle_type_id":"4","last_reported":1770183581,"current_range_meters":8000,"station_id":"st_d3j3df2ikq2c7380ej80","pricing_plan_id":"cebpf4jnsgd1na2vs0mg"},{"bike_id":"7b2df10f-d97d-4068-9983-8f53d0a78517","system_id":"levelo_inurba_marseille","lat":43.28867,"lon":5.42528,"is_reserved":false,"is_disabled":false,"rental_uris":{"android":"levelo://app?vid=7b2df10f-d97d-4068-9983-8f53d0a78517","ios":"levelo://app?vid=7b2df10f-d97d-4068-9983-8f53d0a78517"},"vehicle_type_id":"4","last_reported":1770183581,"current_range_meters":8000,"station_id":"st_d3b462108ojc7389ooeg","pricing_plan_id":"cebpf4jnsgd1na2vs0mg"},{"bike_id":"b4959117-dde4-4349-ae80-78726090a6a9","system_id":"levelo_inurba_marseille","lat":43.288527,"lon":5.358344,"is_reserved":false,"is_disabled":false,"rental_uris":{"android":"levelo://app?vid=b4959117-dde4-4349-ae80-78726090a6a9","ios":"levelo://app?vid=b4959117-dde4-4349-ae80-78726090a6a9"},"vehicle_type_id":"4","last_reported":1770183581,"current_range_meters":8000,"station_id":"ce4bhb12rcd13ifvqem0","pricing_plan_id":"cebpf4jnsgd1na2vs0mg"},{"bike_id":"dbeef5c7-4028-4d99-a76c-21cebff9483e","system_id":"levelo_inurba_marseille","lat":43.335439,"lon":5.374503,"is_reserved":false,"is_disabled":false,"rental_uris":{"android":"levelo://app?vid=dbeef5c7-4028-4d99-a76c-21cebff9483e","ios":"levelo://app?vid=dbeef5c7-4028-4d99-a76c-21cebff9483e"},"vehicle_type_id":"4","last_reported":1770183581,"current_range_meters":8000,"station_id":"","pricing_plan_id":"cebpf4jnsgd1na2vs0mg"},{"bike_id":"fe335e0e-dff4-4de5-a4d7-3003ebcaccb1","system_id":"levelo_inurba_marseille","lat":43.31281,"lon":5.40157,"is_reserved":false,"is_disabled":false,"rental_uris":{"android":"levelo://app?vid=fe335e0e-dff4-4de5-a4d7-3003ebcaccb1","ios":"levelo://app?vid=fe335e0e-dff4-4de5-a4d7-3003ebcaccb1"},"vehicle_type_id":"4","last_reported":1770183581,"current_range_meters":8000,"station_id":"ce4bh092rcd13ifvqd30","pricing_plan_id":"cebpf4jnsgd1na2vs0mg"},{"bike_id":"b420895b-0efa-4e27-b05b-8564aace2dfd","system_id":"levelo_inurba_marseille","lat":43.28589,"lon":5.35136,"is_reserved":false,"is_disabled":false,"rental_uris":{"android":"levelo://app?vid=b420895b-0efa-4e27-b05b-8564aace2dfd","ios":"levelo://app?vid=b420895b-0efa-4e27-b05b-8564aace2dfd"},"vehicle_type_id":"4","last_reported":1770183581,"current_range_meters":8000,"station_id":"ce4bhch2rcd13ifvqeug","pricing_plan_id":"cebpf4jnsgd1na2vs0mg"},{"bike_id":"04ab4868-a773-4da8-b9a9-f5fedd6e47ae","system_id":"levelo_inurba_marseille","lat":43.257309,"lon":5.411001,"is_reserved":false,"is_disabled":false,"rental_uris":{"android":"levelo://app?vid=04ab4868-a773-4da8-b9a9-f5fedd6e47ae","ios":"levelo://app?vid=04ab4868-a773-4da8-b9a9-f5fedd6e47ae"},"vehicle_type_id":"4","last_reported":1770183581,"current_range_meters":8000,"station_id":"ce4bhkp2rcd13ifvqgd0","pricing_plan_id":"cebpf4jnsgd1na2vs0mg"},{"bike_id":"50dcc070-8f2c-4d4b-93b5-fe9f1aa3a8b9","system_id":"levelo_inurba_marseille","lat":43.29252,"lon":5.40902,"is_reserved":false,"is_disabled":false,"rental_uris":{"android":"levelo://app?vid=50dcc070-8f2c-4d4b-93b5-fe9f1aa3a8b9","ios":"levelo://app?vid=50dcc070-8f2c-4d4b-93b5-fe9f1aa3a8b9"},"vehicle_type_id":"4","last_reported":1770183581,"current_range_meters":8000,"station_id":"ce4bh192rcd13ifvqdc0","pricing_plan_id":"cebpf4jnsgd1na2vs0mg"},{"bike_id":"4daf1054-661c-425e-a4e3-5ed6abb02b01","system_id":"levelo_inurba_marseille","lat":43.31269,"lon":5.40177,"is_reserved":false,"is_disabled":false,"rental_uris":{"android":"levelo://app?vid=4daf1054-661c-425e-a4e3-5ed6abb02b01","ios":"levelo://app?vid=4daf1054-661c-425e-a4e3-5ed6abb02b01"},"vehicle_type_id":"4","last_reported":1770183581,"current_range_meters":8000,"station_id":"ce4bh092rcd13ifvqd30","pricing_plan_id":"cebpf4jnsgd1na2vs0mg"},{"bike_id":"0020ff85-02f4-4576-ab79-cb9c15460d7c","system_id":"levelo_inurba_marseille","lat":43.25861,"lon":5.39889,"is_reserved":false,"is_disabled":false,"rental_uris":{"android":"levelo://app?vid=0020ff85-02f4-4576-ab79-cb9c15460d7c","ios":"levelo://app?vid=0020ff85-02f4-4576-ab79-cb9c15460d7c"},"vehicle_type_id":"4","last_reported":1770183581,"current_range_meters":8000,"station_id":"ce4bhl92rcd13ifvqghg","pricing_plan_id":"cebpf4jnsgd1na2vs0mg"},{"bike_id":"5ffc162c-3876-4a49-af02-3661f44effbb","system_id":"levelo_inurba_marseille","lat":43.284735,"lon":5.483951,"is_reserved":false,"is_disabled":false,"rental_uris":{"android":"levelo://app?vid=5ffc162c-3876-4a49-af02-3661f44effbb","ios":"levelo://app?vid=5ffc162c-3876-4a49-af02-3661f44effbb"},"vehicle_type_id":"4","last_reported":1770183581,"current_range_meters":8000,"station_id":"st_d3svhcjqgbts73a3dn0g","pricing_plan_id":"cebpf4jnsgd1na2vs0mg"},{"bike_id":"6be43c1f-db2c-43c9-a648-234cc72c5193","system_id":"levelo_inurba_marseille","lat":43.315649,"lon":5.406544,"is_reserved":false,"is_disabled":false,"rental_uris":{"android":"levelo://app?vid=6be43c1f-db2c-43c9-a648-234cc72c5193","ios":"levelo://app?vid=6be43c1f-db2c-43c9-a648-234cc72c5193"},"vehicle_type_id":"4","last_reported":1770183581,"current_range_meters":8000,"station_id":"","pricing_plan_id":"cebpf4jnsgd1na2vs0mg"},{"bike_id":"f57600aa-3553-4c5b-8eb9-2131032f6811","system_id":"levelo_inurba_marseille","lat":43.28193,"lon":5.39083,"is_reserved":false,"is_disabled":true,"rental_uris":{"android":"levelo://app?vid=f57600aa-3553-4c5b-8eb9-2131032f6811","ios":"levelo://app?vid=f57600aa-3553-4c5b-8eb9-2131032f6811"},"vehicle_type_id":"4","last_reported":1770183581,"current_range_meters":8000,"station_id":"ce4bhn92rcd13ifvqgsg","pricing_plan_id":"cebpf4jnsgd1na2vs0mg"},{"bike_id":"5db40262-c973-4b13-b2a9-ee1639ccf6b3","system_id":"levelo_inurba_marseille","lat":43.24804,"lon":5.3746,"is_reserved":false,"is_disabled":false,"rental_uris":{"android":"levelo://app?vid=5db40262-c973-4b13-b2a9-ee1639ccf6b3","ios":"levelo://app?vid=5db40262-c973-4b13-b2a9-ee1639ccf6b3"},"vehicle_type_id":"4","last_reported":1770183581,"current_range_meters":8400,"station_id":"ce4bhgh2rcd13ifvqfb0","pricing_plan_id":"cebpf4jnsgd1na2vs0mg"},{"bike_id":"9438ade5-ce17-4668-a146-5805485616f4","system_id":"levelo_inurba_marseille","lat":43.317206,"lon":5.423929,"is_reserved":false,"is_disabled":false,"rental_uris":{"android":"levelo://app?vid=9438ade5-ce17-4668-a146-5805485616f4","ios":"levelo://app?vid=9438ade5-ce17-4668-a146-5805485616f4"},"vehicle_type_id":"4","last_reported":1770183581,"current_range_meters":8400,"station_id":"ce4bhp92rcd13ifvqhbg","pricing_plan_id":"cebpf4jnsgd1na2vs0mg"},{"bike_id":"73b6626a-125d-4b63-8d66-3e6a9851d390","system_id":"levelo_inurba_marseille","lat":43.22572,"lon":5.4161,"is_reserved":false,"is_disabled":false,"rental_uris":{"android":"levelo://app?vid=73b6626a-125d-4b63-8d66-3e6a9851d390","ios":"levelo://app?vid=73b6626a-125d-4b63-8d66-3e6a9851d390"},"vehicle_type_id":"4","last_reported":1770183581,"current_range_meters":8400,"station_id":"st_d2o4gvlbi1j2169b742g","pricing_plan_id":"cebpf4jnsgd1na2vs0mg"},{"bike_id":"3c99789b-6c82-4ce6-99da-375aef3d9931","system_id":"levelo_inurba_marseille","lat":43.32623,"lon":5.41,"is_reserved":false,"is_disabled":false,"rental_uris":{"android":"levelo://app?vid=3c99789b-6c82-4ce6-99da-375aef3d9931","ios":"levelo://app?vid=3c99789b-6c82-4ce6-99da-375aef3d9931"},"vehicle_type_id":"4","last_reported":1770183581,"current_range_meters":8400,"station_id":"ce4bhpp2rcd13ifvqhgg","pricing_plan_id":"cebpf4jnsgd1na2vs0mg"},{"bike_id":"8c593ccb-9e44-419c-912b-9f1b0b88075a","system_id":"levelo_inurba_marseille","lat":43.26365,"lon":5.41081,"is_reserved":false,"is_disabled":false,"rental_uris":{"android":"levelo://app?vid=8c593ccb-9e44-419c-912b-9f1b0b88075a","ios":"levelo://app?vid=8c593ccb-9e44-419c-912b-9f1b0b88075a"},"vehicle_type_id":"4","last_reported":1770183581,"current_range_meters":8400,"station_id":"st_d4e5ca6na9uc73bfl5fg","pricing_plan_id":"cebpf4jnsgd1na2vs0mg"},{"bike_id":"1b876b25-6b22-4962-82d4-862e433d9f63","system_id":"levelo_inurba_marseille","lat":43.286797,"lon":5.386731,"is_reserved":false,"is_disabled":true,"rental_uris":{"android":"levelo://app?vid=1b876b25-6b22-4962-82d4-862e433d9f63","ios":"levelo://app?vid=1b876b25-6b22-4962-82d4-862e433d9f63"},"vehicle_type_id":"4","last_reported":1770183581,"current_range_meters":8400,"station_id":"ce4bh492rcd13ifvqdug","pricing_plan_id":"cebpf4jnsgd1na2vs0mg"},{"bike_id":"8e2f4441-d4a9-421a-863a-8c4e85979fa3","system_id":"levelo_inurba_marseille","lat":43.28637,"lon":5.35069,"is_reserved":false,"is_disabled":false,"rental_uris":{"android":"levelo://app?vid=8e2f4441-d4a9-421a-863a-8c4e85979fa3","ios":"levelo://app?vid=8e2f4441-d4a9-421a-863a-8c4e85979fa3"},"vehicle_type_id":"4","last_reported":1770183581,"current_range_meters":8400,"station_id":"ce4bhch2rcd13ifvqeug","pricing_plan_id":"cebpf4jnsgd1na2vs0mg"},{"bike_id":"68b12eb7-cbac-4d21-9d68-9311fe198434","system_id":"levelo_inurba_marseille","lat":43.29025,"lon":5.38652,"is_reserved":false,"is_disabled":true,"rental_uris":{"android":"levelo://app?vid=68b12eb7-cbac-4d21-9d68-9311fe198434","ios":"levelo://app?vid=68b12eb7-cbac-4d21-9d68-9311fe198434"},"vehicle_type_id":"4","last_reported":1770183581,"current_range_meters":8400,"station_id":"ce4bh4p2rcd13ifvqe0g","pricing_plan_id":"cebpf4jnsgd1na2vs0mg"},{"bike_id":"708d8107-a502-4715-8ee8-97e259938ef7","system_id":"levelo_inurba_marseille","lat":43.24134,"lon":5.36413,"is_reserved":false,"is_disabled":false,"rental_uris":{"android":"levelo://app?vid=708d8107-a502-4715-8ee8-97e259938ef7","ios":"levelo://app?vid=708d8107-a502-4715-8ee8-97e259938ef7"},"vehicle_type_id":"4","last_reported":1770183581,"current_range_meters":8400,"station_id":"cpo36qri1sfpv3e86is0","pricing_plan_id":"cebpf4jnsgd1na2vs0mg"},{"bike_id":"7c65d8a4-3bb8-4534-9506-49fc01052868","system_id":"levelo_inurba_marseille","lat":43.29645,"lon":5.37967,"is_reserved":false,"is_disabled":false,"rental_uris":{"android":"levelo://app?vid=7c65d8a4-3bb8-4534-9506-49fc01052868","ios":"levelo://app?vid=7c65d8a4-3bb8-4534-9506-49fc01052868"},"vehicle_type_id":"4","last_reported":1770183581,"current_range_meters":8400,"station_id":"ce4bgl12rcd13ifvqbo0","pricing_plan_id":"cebpf4jnsgd1na2vs0mg"},{"bike_id":"425b6705-005a-49d5-9d47-e6a239d20f8c","system_id":"levelo_inurba_marseille","lat":43.26554,"lon":5.372907,"is_reserved":false,"is_disabled":false,"rental_uris":{"android":"levelo://app?vid=425b6705-005a-49d5-9d47-e6a239d20f8c","ios":"levelo://app?vid=425b6705-005a-49d5-9d47-e6a239d20f8c"},"vehicle_type_id":"4","last_reported":1770183581,"current_range_meters":8400,"station_id":"ce4bhg12rcd13ifvqf70","pricing_plan_id":"cebpf4jnsgd1na2vs0mg"},{"bike_id":"97259061-f08f-497c-ad93-5a24dc67386d","system_id":"levelo_inurba_marseille","lat":43.299413,"lon":5.365298,"is_reserved":false,"is_disabled":false,"rental_uris":{"android":"levelo://app?vid=97259061-f08f-497c-ad93-5a24dc67386d","ios":"levelo://app?vid=97259061-f08f-497c-ad93-5a24dc67386d"},"vehicle_type_id":"4","last_reported":1770183581,"current_range_meters":8400,"station_id":"ce4bgm92rcd13ifvqbr0","pricing_plan_id":"cebpf4jnsgd1na2vs0mg"},{"bike_id":"896abb6d-730f-4936-89dd-69c91d64aca6","system_id":"levelo_inurba_marseille","lat":43.295691,"lon":5.375013,"is_reserved":false,"is_disabled":false,"rental_uris":{"android":"levelo://app?vid=896abb6d-730f-4936-89dd-69c91d64aca6","ios":"levelo://app?vid=896abb6d-730f-4936-89dd-69c91d64aca6"},"vehicle_type_id":"4","last_reported":1770183581,"current_range_meters":8400,"station_id":"ce4bgh92rcd13ifvqb50","pricing_plan_id":"cebpf4jnsgd1na2vs0mg"},{"bike_id":"f1510834-4f72-4738-aa6c-02f6ddaa6ac3","system_id":"levelo_inurba_marseille","lat":43.248316,"lon":5.374761,"is_reserved":false,"is_disabled":false,"rental_uris":{"android":"levelo://app?vid=f1510834-4f72-4738-aa6c-02f6ddaa6ac3","ios":"levelo://app?vid=f1510834-4f72-4738-aa6c-02f6ddaa6ac3"},"vehicle_type_id":"4","last_reported":1770183581,"current_range_meters":8400,"station_id":"ce4bhgh2rcd13ifvqfb0","pricing_plan_id":"cebpf4jnsgd1na2vs0mg"},{"bike_id":"da4d19a5-63fa-471e-bc87-bb23db14643b","system_id":"levelo_inurba_marseille","lat":43.295473,"lon":5.425064,"is_reserved":false,"is_disabled":false,"rental_uris":{"android":"levelo://app?vid=da4d19a5-63fa-471e-bc87-bb23db14643b","ios":"levelo://app?vid=da4d19a5-63fa-471e-bc87-bb23db14643b"},"vehicle_type_id":"4","last_reported":1770183581,"current_range_meters":8400,"station_id":"","pricing_plan_id":"cebpf4jnsgd1na2vs0mg"},{"bike_id":"0b7778b9-6c79-42c5-9598-93186c10094a","system_id":"levelo_inurba_marseille","lat":43.31333,"lon":5.39672,"is_reserved":false,"is_disabled":false,"rental_uris":{"android":"levelo://app?vid=0b7778b9-6c79-42c5-9598-93186c10094a","ios":"levelo://app?vid=0b7778b9-6c79-42c5-9598-93186c10094a"},"vehicle_type_id":"4","last_reported":1770183581,"current_range_meters":8400,"station_id":"ce4bgvp2rcd13ifvqcu0","pricing_plan_id":"cebpf4jnsgd1na2vs0mg"},{"bike_id":"3e5887c0-fa1d-4fbc-90fe-a5d260d18a33","system_id":"levelo_inurba_marseille","lat":43.23398,"lon":5.41277,"is_reserved":false,"is_disabled":false,"rental_uris":{"android":"levelo://app?vid=3e5887c0-fa1d-4fbc-90fe-a5d260d18a33","ios":"levelo://app?vid=3e5887c0-fa1d-4fbc-90fe-a5d260d18a33"},"vehicle_type_id":"4","last_reported":1770183581,"current_range_meters":8400,"station_id":"","pricing_plan_id":"cebpf4jnsgd1na2vs0mg"},{"bike_id":"11358eb5-b9b2-485b-a17b-c1783a7d03fb","system_id":"levelo_inurba_marseille","lat":43.32165,"lon":5.41008,"is_reserved":false,"is_disabled":false,"rental_uris":{"android":"levelo://app?vid=11358eb5-b9b2-485b-a17b-c1783a7d03fb","ios":"levelo://app?vid=11358eb5-b9b2-485b-a17b-c1783a7d03fb"},"vehicle_type_id":"4","last_reported":1770183581,"current_range_meters":8400,"station_id":"","pricing_plan_id":"cebpf4jnsgd1na2vs0mg"},{"bike_id":"9b6e396c-31d2-4f7b-a485-6fe05d2df667","system_id":"levelo_inurba_marseille","lat":43.25071,"lon":5.39531,"is_reserved":false,"is_disabled":false,"rental_uris":{"android":"levelo://app?vid=9b6e396c-31d2-4f7b-a485-6fe05d2df667","ios":"levelo://app?vid=9b6e396c-31d2-4f7b-a485-6fe05d2df667"},"vehicle_type_id":"4","last_reported":1770183581,"current_range_meters":8800,"station_id":"ce4bhm12rcd13ifvqgkg","pricing_plan_id":"cebpf4jnsgd1na2vs0mg"},{"bike_id":"626974d3-ace9-41dd-9dbe-f4621ca953aa","system_id":"levelo_inurba_marseille","lat":43.29468,"lon":5.41003,"is_reserved":false,"is_disabled":false,"rental_uris":{"android":"levelo://app?vid=626974d3-ace9-41dd-9dbe-f4621ca953aa","ios":"levelo://app?vid=626974d3-ace9-41dd-9dbe-f4621ca953aa"},"vehicle_type_id":"4","last_reported":1770183581,"current_range_meters":8800,"station_id":"","pricing_plan_id":"cebpf4jnsgd1na2vs0mg"},{"bike_id":"37953ff4-455d-4659-81c0-53069a7e79d7","system_id":"levelo_inurba_marseille","lat":43.30599,"lon":5.39376,"is_reserved":false,"is_disabled":false,"rental_uris":{"android":"levelo://app?vid=37953ff4-455d-4659-81c0-53069a7e79d7","ios":"levelo://app?vid=37953ff4-455d-4659-81c0-53069a7e79d7"},"vehicle_type_id":"4","last_reported":1770183581,"current_range_meters":8800,"station_id":"ce4bh0p2rcd13ifvqd80","pricing_plan_id":"cebpf4jnsgd1na2vs0mg"},{"bike_id":"f9bbbfc0-eeba-4ee2-ab6e-6f008a29f360","system_id":"levelo_inurba_marseille","lat":43.31061,"lon":5.38357,"is_reserved":false,"is_disabled":false,"rental_uris":{"android":"levelo://app?vid=f9bbbfc0-eeba-4ee2-ab6e-6f008a29f360","ios":"levelo://app?vid=f9bbbfc0-eeba-4ee2-ab6e-6f008a29f360"},"vehicle_type_id":"4","last_reported":1770183581,"current_range_meters":8800,"station_id":"ce4bgv92rcd13ifvqcr0","pricing_plan_id":"cebpf4jnsgd1na2vs0mg"},{"bike_id":"31a22661-eea5-4387-90b0-8b86565c6826","system_id":"levelo_inurba_marseille","lat":43.2972,"lon":5.36623,"is_reserved":false,"is_disabled":false,"rental_uris":{"android":"levelo://app?vid=31a22661-eea5-4387-90b0-8b86565c6826","ios":"levelo://app?vid=31a22661-eea5-4387-90b0-8b86565c6826"},"vehicle_type_id":"4","last_reported":1770183581,"current_range_meters":8800,"station_id":"ce4bgn12rcd13ifvqbt0","pricing_plan_id":"cebpf4jnsgd1na2vs0mg"},{"bike_id":"91c21601-5efe-4644-9a24-675b91c6816e","system_id":"levelo_inurba_marseille","lat":43.24646,"lon":5.3889,"is_reserved":false,"is_disabled":false,"rental_uris":{"android":"levelo://app?vid=91c21601-5efe-4644-9a24-675b91c6816e","ios":"levelo://app?vid=91c21601-5efe-4644-9a24-675b91c6816e"},"vehicle_type_id":"4","last_reported":1770183581,"current_range_meters":8800,"station_id":"ce4bhg12rcd13ifvqf60","pricing_plan_id":"cebpf4jnsgd1na2vs0mg"},{"bike_id":"7ab80b7e-a203-442c-b352-62055b06df4d","system_id":"levelo_inurba_marseille","lat":43.31032,"lon":5.37182,"is_reserved":false,"is_disabled":false,"rental_uris":{"android":"levelo://app?vid=7ab80b7e-a203-442c-b352-62055b06df4d","ios":"levelo://app?vid=7ab80b7e-a203-442c-b352-62055b06df4d"},"vehicle_type_id":"4","last_reported":1770183581,"current_range_meters":8800,"station_id":"st_d4kl2rp97mjs73e7tdfg","pricing_plan_id":"cebpf4jnsgd1na2vs0mg"},{"bike_id":"61c4cbe2-eed4-41e6-a6ff-be907a5d72ed","system_id":"levelo_inurba_marseille","lat":43.25001,"lon":5.38937,"is_reserved":false,"is_disabled":false,"rental_uris":{"android":"levelo://app?vid=61c4cbe2-eed4-41e6-a6ff-be907a5d72ed","ios":"levelo://app?vid=61c4cbe2-eed4-41e6-a6ff-be907a5d72ed"},"vehicle_type_id":"4","last_reported":1770183581,"current_range_meters":8800,"station_id":"ce4bhgp2rcd13ifvqfd0","pricing_plan_id":"cebpf4jnsgd1na2vs0mg"},{"bike_id":"6db922d0-a066-49c9-8c98-476035aaa96d","system_id":"levelo_inurba_marseille","lat":43.2928,"lon":5.37998,"is_reserved":false,"is_disabled":false,"rental_uris":{"android":"levelo://app?vid=6db922d0-a066-49c9-8c98-476035aaa96d","ios":"levelo://app?vid=6db922d0-a066-49c9-8c98-476035aaa96d"},"vehicle_type_id":"4","last_reported":1770183581,"current_range_meters":8800,"station_id":"","pricing_plan_id":"cebpf4jnsgd1na2vs0mg"},{"bike_id":"d72c8d0b-6864-4eb2-b074-4484e5b3c2c1","system_id":"levelo_inurba_marseille","lat":43.2845,"lon":5.48411,"is_reserved":false,"is_disabled":false,"rental_uris":{"android":"levelo://app?vid=d72c8d0b-6864-4eb2-b074-4484e5b3c2c1","ios":"levelo://app?vid=d72c8d0b-6864-4eb2-b074-4484e5b3c2c1"},"vehicle_type_id":"4","last_reported":1770183581,"current_range_meters":8800,"station_id":"st_d3svhcjqgbts73a3dn0g","pricing_plan_id":"cebpf4jnsgd1na2vs0mg"},{"bike_id":"5161d449-7be3-43a5-9b1a-278ec962ecdc","system_id":"levelo_inurba_marseille","lat":43.24667,"lon":5.38164,"is_reserved":false,"is_disabled":false,"rental_uris":{"android":"levelo://app?vid=5161d449-7be3-43a5-9b1a-278ec962ecdc","ios":"levelo://app?vid=5161d449-7be3-43a5-9b1a-278ec962ecdc"},"vehicle_type_id":"4","last_reported":1770183581,"current_range_meters":8800,"station_id":"ce4bhih2rcd13ifvqfr0","pricing_plan_id":"cebpf4jnsgd1na2vs0mg"},{"bike_id":"605a645e-761d-4a85-acd6-fe955761eefa","system_id":"levelo_inurba_marseille","lat":43.29612,"lon":5.38313,"is_reserved":false,"is_disabled":false,"rental_uris":{"android":"levelo://app?vid=605a645e-761d-4a85-acd6-fe955761eefa","ios":"levelo://app?vid=605a645e-761d-4a85-acd6-fe955761eefa"},"vehicle_type_id":"4","last_reported":1770183581,"current_range_meters":8800,"station_id":"","pricing_plan_id":"cebpf4jnsgd1na2vs0mg"},{"bike_id":"2dd8cab3-19da-46fd-8cda-b2a3e690cfba","system_id":"levelo_inurba_marseille","lat":43.229373,"lon":5.353783,"is_reserved":false,"is_disabled":false,"rental_uris":{"android":"levelo://app?vid=2dd8cab3-19da-46fd-8cda-b2a3e690cfba","ios":"levelo://app?vid=2dd8cab3-19da-46fd-8cda-b2a3e690cfba"},"vehicle_type_id":"4","last_reported":1770183581,"current_range_meters":8800,"station_id":"cpo3532slgdg3j2ikp40","pricing_plan_id":"cebpf4jnsgd1na2vs0mg"},{"bike_id":"b9c740eb-7ca2-43b1-bf73-68998091cb5d","system_id":"levelo_inurba_marseille","lat":43.29263,"lon":5.36852,"is_reserved":false,"is_disabled":false,"rental_uris":{"android":"levelo://app?vid=b9c740eb-7ca2-43b1-bf73-68998091cb5d","ios":"levelo://app?vid=b9c740eb-7ca2-43b1-bf73-68998091cb5d"},"vehicle_type_id":"4","last_reported":1770183581,"current_range_meters":8800,"station_id":"ce4bhbp2rcd13ifvqesg","pricing_plan_id":"cebpf4jnsgd1na2vs0mg"},{"bike_id":"adcc87ce-9ad2-4063-aa38-a69bbc8ba9d4","system_id":"levelo_inurba_marseille","lat":43.247,"lon":5.38133,"is_reserved":false,"is_disabled":false,"rental_uris":{"android":"levelo://app?vid=adcc87ce-9ad2-4063-aa38-a69bbc8ba9d4","ios":"levelo://app?vid=adcc87ce-9ad2-4063-aa38-a69bbc8ba9d4"},"vehicle_type_id":"4","last_reported":1770183581,"current_range_meters":8800,"station_id":"","pricing_plan_id":"cebpf4jnsgd1na2vs0mg"},{"bike_id":"ae31df1c-c3f6-4879-abd7-99d899c9ca05","system_id":"levelo_inurba_marseille","lat":43.31105,"lon":5.38446,"is_reserved":false,"is_disabled":false,"rental_uris":{"android":"levelo://app?vid=ae31df1c-c3f6-4879-abd7-99d899c9ca05","ios":"levelo://app?vid=ae31df1c-c3f6-4879-abd7-99d899c9ca05"},"vehicle_type_id":"4","last_reported":1770183581,"current_range_meters":8800,"station_id":"","pricing_plan_id":"cebpf4jnsgd1na2vs0mg"},{"bike_id":"809dfd22-afa1-4754-8327-1cac66519aa2","system_id":"levelo_inurba_marseille","lat":43.28289,"lon":5.35058,"is_reserved":false,"is_disabled":true,"rental_uris":{"android":"levelo://app?vid=809dfd22-afa1-4754-8327-1cac66519aa2","ios":"levelo://app?vid=809dfd22-afa1-4754-8327-1cac66519aa2"},"vehicle_type_id":"4","last_reported":1770183581,"current_range_meters":8800,"station_id":"ce4bhbp2rcd13ifvqerg","pricing_plan_id":"cebpf4jnsgd1na2vs0mg"},{"bike_id":"a5c1703c-0b2d-4e6b-b820-25e716f1e211","system_id":"levelo_inurba_marseille","lat":43.28477,"lon":5.48397,"is_reserved":false,"is_disabled":false,"rental_uris":{"android":"levelo://app?vid=a5c1703c-0b2d-4e6b-b820-25e716f1e211","ios":"levelo://app?vid=a5c1703c-0b2d-4e6b-b820-25e716f1e211"},"vehicle_type_id":"4","last_reported":1770183581,"current_range_meters":8800,"station_id":"st_d3svhcjqgbts73a3dn0g","pricing_plan_id":"cebpf4jnsgd1na2vs0mg"},{"bike_id":"e55375b7-3afd-47f8-a340-f83f485617be","system_id":"levelo_inurba_marseille","lat":43.299333,"lon":5.365382,"is_reserved":false,"is_disabled":false,"rental_uris":{"android":"levelo://app?vid=e55375b7-3afd-47f8-a340-f83f485617be","ios":"levelo://app?vid=e55375b7-3afd-47f8-a340-f83f485617be"},"vehicle_type_id":"4","last_reported":1770183581,"current_range_meters":8800,"station_id":"ce4bgm92rcd13ifvqbr0","pricing_plan_id":"cebpf4jnsgd1na2vs0mg"},{"bike_id":"a2d20eba-b11c-4a10-8201-1f672b69f4a3","system_id":"levelo_inurba_marseille","lat":43.31072,"lon":5.38341,"is_reserved":false,"is_disabled":false,"rental_uris":{"android":"levelo://app?vid=a2d20eba-b11c-4a10-8201-1f672b69f4a3","ios":"levelo://app?vid=a2d20eba-b11c-4a10-8201-1f672b69f4a3"},"vehicle_type_id":"4","last_reported":1770183581,"current_range_meters":9200,"station_id":"ce4bgv92rcd13ifvqcr0","pricing_plan_id":"cebpf4jnsgd1na2vs0mg"},{"bike_id":"c792842a-7b0f-4b1e-b3b1-03c063f1666e","system_id":"levelo_inurba_marseille","lat":43.30957,"lon":5.39027,"is_reserved":false,"is_disabled":true,"rental_uris":{"android":"levelo://app?vid=c792842a-7b0f-4b1e-b3b1-03c063f1666e","ios":"levelo://app?vid=c792842a-7b0f-4b1e-b3b1-03c063f1666e"},"vehicle_type_id":"4","last_reported":1770183581,"current_range_meters":9200,"station_id":"ce4bgup2rcd13ifvqco0","pricing_plan_id":"cebpf4jnsgd1na2vs0mg"},{"bike_id":"1794fc4b-f1e9-4439-acd6-7a3c137a2b38","system_id":"levelo_inurba_marseille","lat":43.23767,"lon":5.36589,"is_reserved":false,"is_disabled":false,"rental_uris":{"android":"levelo://app?vid=1794fc4b-f1e9-4439-acd6-7a3c137a2b38","ios":"levelo://app?vid=1794fc4b-f1e9-4439-acd6-7a3c137a2b38"},"vehicle_type_id":"4","last_reported":1770183581,"current_range_meters":9200,"station_id":"st_d3nk18o9ro0c73en2l3g","pricing_plan_id":"cebpf4jnsgd1na2vs0mg"},{"bike_id":"2591904e-06ba-41fc-9be8-a05710181037","system_id":"levelo_inurba_marseille","lat":43.29884,"lon":5.38885,"is_reserved":false,"is_disabled":false,"rental_uris":{"android":"levelo://app?vid=2591904e-06ba-41fc-9be8-a05710181037","ios":"levelo://app?vid=2591904e-06ba-41fc-9be8-a05710181037"},"vehicle_type_id":"4","last_reported":1770183581,"current_range_meters":9200,"station_id":"ce4bh392rcd13ifvqdl0","pricing_plan_id":"cebpf4jnsgd1na2vs0mg"},{"bike_id":"85f809a7-4937-473c-b5d3-364e2bce9de9","system_id":"levelo_inurba_marseille","lat":43.29898,"lon":5.43671,"is_reserved":false,"is_disabled":false,"rental_uris":{"android":"levelo://app?vid=85f809a7-4937-473c-b5d3-364e2bce9de9","ios":"levelo://app?vid=85f809a7-4937-473c-b5d3-364e2bce9de9"},"vehicle_type_id":"4","last_reported":1770183581,"current_range_meters":9200,"station_id":"ce4bhpp2rcd13ifvqhfg","pricing_plan_id":"cebpf4jnsgd1na2vs0mg"},{"bike_id":"6ea1d326-6eb6-428c-98d2-fdd14ece0720","system_id":"levelo_inurba_marseille","lat":43.24675,"lon":5.38134,"is_reserved":false,"is_disabled":false,"rental_uris":{"android":"levelo://app?vid=6ea1d326-6eb6-428c-98d2-fdd14ece0720","ios":"levelo://app?vid=6ea1d326-6eb6-428c-98d2-fdd14ece0720"},"vehicle_type_id":"4","last_reported":1770183581,"current_range_meters":9200,"station_id":"ce4bhih2rcd13ifvqfr0","pricing_plan_id":"cebpf4jnsgd1na2vs0mg"},{"bike_id":"8e7f7dcc-7fc1-4fa3-8f7a-9b4596de5459","system_id":"levelo_inurba_marseille","lat":43.28456,"lon":5.358991,"is_reserved":false,"is_disabled":true,"rental_uris":{"android":"levelo://app?vid=8e7f7dcc-7fc1-4fa3-8f7a-9b4596de5459","ios":"levelo://app?vid=8e7f7dcc-7fc1-4fa3-8f7a-9b4596de5459"},"vehicle_type_id":"4","last_reported":1770183581,"current_range_meters":9200,"station_id":"ce4bhah2rcd13ifvqei0","pricing_plan_id":"cebpf4jnsgd1na2vs0mg"},{"bike_id":"38b03880-e66b-4b95-b637-939655c58052","system_id":"levelo_inurba_marseille","lat":43.255373,"lon":5.416848,"is_reserved":false,"is_disabled":false,"rental_uris":{"android":"levelo://app?vid=38b03880-e66b-4b95-b637-939655c58052","ios":"levelo://app?vid=38b03880-e66b-4b95-b637-939655c58052"},"vehicle_type_id":"4","last_reported":1770183581,"current_range_meters":9200,"station_id":"","pricing_plan_id":"cebpf4jnsgd1na2vs0mg"},{"bike_id":"5dc8f276-4141-443d-b076-5f52326ca5f3","system_id":"levelo_inurba_marseille","lat":43.29456,"lon":5.39728,"is_reserved":false,"is_disabled":false,"rental_uris":{"android":"levelo://app?vid=5dc8f276-4141-443d-b076-5f52326ca5f3","ios":"levelo://app?vid=5dc8f276-4141-443d-b076-5f52326ca5f3"},"vehicle_type_id":"4","last_reported":1770183581,"current_range_meters":9200,"station_id":"ce4bh3h2rcd13ifvqdo0","pricing_plan_id":"cebpf4jnsgd1na2vs0mg"},{"bike_id":"0e834074-a264-4771-9012-2dbbbdaa43fb","system_id":"levelo_inurba_marseille","lat":43.28101,"lon":5.37833,"is_reserved":false,"is_disabled":false,"rental_uris":{"android":"levelo://app?vid=0e834074-a264-4771-9012-2dbbbdaa43fb","ios":"levelo://app?vid=0e834074-a264-4771-9012-2dbbbdaa43fb"},"vehicle_type_id":"4","last_reported":1770183581,"current_range_meters":9200,"station_id":"ce4bha12rcd13ifvqee0","pricing_plan_id":"cebpf4jnsgd1na2vs0mg"},{"bike_id":"6182b4eb-3589-4688-8de4-25645134578f","system_id":"levelo_inurba_marseille","lat":43.29589,"lon":5.37521,"is_reserved":false,"is_disabled":false,"rental_uris":{"android":"levelo://app?vid=6182b4eb-3589-4688-8de4-25645134578f","ios":"levelo://app?vid=6182b4eb-3589-4688-8de4-25645134578f"},"vehicle_type_id":"4","last_reported":1770183581,"current_range_meters":9200,"station_id":"ce4bgh92rcd13ifvqb50","pricing_plan_id":"cebpf4jnsgd1na2vs0mg"},{"bike_id":"3cc1aabc-a9cc-4581-8270-941be9d523ef","system_id":"levelo_inurba_marseille","lat":43.28678,"lon":5.38665,"is_reserved":false,"is_disabled":false,"rental_uris":{"android":"levelo://app?vid=3cc1aabc-a9cc-4581-8270-941be9d523ef","ios":"levelo://app?vid=3cc1aabc-a9cc-4581-8270-941be9d523ef"},"vehicle_type_id":"4","last_reported":1770183581,"current_range_meters":9200,"station_id":"ce4bh492rcd13ifvqdug","pricing_plan_id":"cebpf4jnsgd1na2vs0mg"},{"bike_id":"0753ef66-4b67-4d38-846b-63a28cc9793a","system_id":"levelo_inurba_marseille","lat":43.25091,"lon":5.39512,"is_reserved":false,"is_disabled":false,"rental_uris":{"android":"levelo://app?vid=0753ef66-4b67-4d38-846b-63a28cc9793a","ios":"levelo://app?vid=0753ef66-4b67-4d38-846b-63a28cc9793a"},"vehicle_type_id":"4","last_reported":1770183581,"current_range_meters":9200,"station_id":"ce4bhm12rcd13ifvqgkg","pricing_plan_id":"cebpf4jnsgd1na2vs0mg"},{"bike_id":"35b4e402-0648-4364-9a32-c5f4a5ffd6eb","system_id":"levelo_inurba_marseille","lat":43.31378,"lon":5.38463,"is_reserved":false,"is_disabled":false,"rental_uris":{"android":"levelo://app?vid=35b4e402-0648-4364-9a32-c5f4a5ffd6eb","ios":"levelo://app?vid=35b4e402-0648-4364-9a32-c5f4a5ffd6eb"},"vehicle_type_id":"4","last_reported":1770183581,"current_range_meters":9200,"station_id":"ce4bgt92rcd13ifvqcf0","pricing_plan_id":"cebpf4jnsgd1na2vs0mg"},{"bike_id":"1b883095-4017-4ad4-96d0-072deef979db","system_id":"levelo_inurba_marseille","lat":43.28221,"lon":5.40588,"is_reserved":false,"is_disabled":false,"rental_uris":{"android":"levelo://app?vid=1b883095-4017-4ad4-96d0-072deef979db","ios":"levelo://app?vid=1b883095-4017-4ad4-96d0-072deef979db"},"vehicle_type_id":"4","last_reported":1770183581,"current_range_meters":9200,"station_id":"","pricing_plan_id":"cebpf4jnsgd1na2vs0mg"},{"bike_id":"1643c16f-732f-480d-bbd4-9ce2438a469f","system_id":"levelo_inurba_marseille","lat":43.30559,"lon":5.38418,"is_reserved":false,"is_disabled":true,"rental_uris":{"android":"levelo://app?vid=1643c16f-732f-480d-bbd4-9ce2438a469f","ios":"levelo://app?vid=1643c16f-732f-480d-bbd4-9ce2438a469f"},"vehicle_type_id":"4","last_reported":1770183581,"current_range_meters":9200,"station_id":"ce4bgg92rcd13ifvqb30","pricing_plan_id":"cebpf4jnsgd1na2vs0mg"},{"bike_id":"f64844b7-2d65-4e29-9f8c-ab35b85fa35a","system_id":"levelo_inurba_marseille","lat":43.29555,"lon":5.39988,"is_reserved":false,"is_disabled":false,"rental_uris":{"android":"levelo://app?vid=f64844b7-2d65-4e29-9f8c-ab35b85fa35a","ios":"levelo://app?vid=f64844b7-2d65-4e29-9f8c-ab35b85fa35a"},"vehicle_type_id":"4","last_reported":1770183581,"current_range_meters":9200,"station_id":"ce4bh312rcd13ifvqdj0","pricing_plan_id":"cebpf4jnsgd1na2vs0mg"},{"bike_id":"61fe132a-c400-4057-a464-19c0c9207090","system_id":"levelo_inurba_marseille","lat":43.27315,"lon":5.39075,"is_reserved":false,"is_disabled":false,"rental_uris":{"android":"levelo://app?vid=61fe132a-c400-4057-a464-19c0c9207090","ios":"levelo://app?vid=61fe132a-c400-4057-a464-19c0c9207090"},"vehicle_type_id":"4","last_reported":1770183581,"current_range_meters":9200,"station_id":"ce4bhgp2rcd13ifvqfe0","pricing_plan_id":"cebpf4jnsgd1na2vs0mg"},{"bike_id":"ef64cb18-c8a8-4251-87f8-703e259c4330","system_id":"levelo_inurba_marseille","lat":43.47654,"lon":5.48969,"is_reserved":false,"is_disabled":false,"rental_uris":{"android":"levelo://app?vid=ef64cb18-c8a8-4251-87f8-703e259c4330","ios":"levelo://app?vid=ef64cb18-c8a8-4251-87f8-703e259c4330"},"vehicle_type_id":"4","last_reported":1770183581,"current_range_meters":9200,"station_id":"","pricing_plan_id":"cebpf4jnsgd1na2vs0mg"},{"bike_id":"09d74b0b-cd35-4fd6-9405-fb06659832f6","system_id":"levelo_inurba_marseille","lat":43.292494,"lon":5.408954,"is_reserved":false,"is_disabled":false,"rental_uris":{"android":"levelo://app?vid=09d74b0b-cd35-4fd6-9405-fb06659832f6","ios":"levelo://app?vid=09d74b0b-cd35-4fd6-9405-fb06659832f6"},"vehicle_type_id":"4","last_reported":1770183581,"current_range_meters":9200,"station_id":"ce4bh192rcd13ifvqdc0","pricing_plan_id":"cebpf4jnsgd1na2vs0mg"},{"bike_id":"c5bcd69a-7525-40fe-aaa4-4ac7645ff3f0","system_id":"levelo_inurba_marseille","lat":43.27972,"lon":5.41667,"is_reserved":false,"is_disabled":false,"rental_uris":{"android":"levelo://app?vid=c5bcd69a-7525-40fe-aaa4-4ac7645ff3f0","ios":"levelo://app?vid=c5bcd69a-7525-40fe-aaa4-4ac7645ff3f0"},"vehicle_type_id":"4","last_reported":1770183581,"current_range_meters":9600,"station_id":"ce4bho12rcd13ifvqh1g","pricing_plan_id":"cebpf4jnsgd1na2vs0mg"},{"bike_id":"35b85e13-b656-4d5f-8d99-0eb657e1727a","system_id":"levelo_inurba_marseille","lat":43.24546,"lon":5.39536,"is_reserved":false,"is_disabled":false,"rental_uris":{"android":"levelo://app?vid=35b85e13-b656-4d5f-8d99-0eb657e1727a","ios":"levelo://app?vid=35b85e13-b656-4d5f-8d99-0eb657e1727a"},"vehicle_type_id":"4","last_reported":1770183581,"current_range_meters":9600,"station_id":"ce4bhlp2rcd13ifvqgjg","pricing_plan_id":"cebpf4jnsgd1na2vs0mg"},{"bike_id":"2dbd75cf-8d6a-4b1e-8a51-8d38e5843da1","system_id":"levelo_inurba_marseille","lat":43.310552,"lon":5.371864,"is_reserved":false,"is_disabled":true,"rental_uris":{"android":"levelo://app?vid=2dbd75cf-8d6a-4b1e-8a51-8d38e5843da1","ios":"levelo://app?vid=2dbd75cf-8d6a-4b1e-8a51-8d38e5843da1"},"vehicle_type_id":"4","last_reported":1770183581,"current_range_meters":9600,"station_id":"st_d4kl2rp97mjs73e7tdfg","pricing_plan_id":"cebpf4jnsgd1na2vs0mg"},{"bike_id":"2d53d832-b41f-4607-b59b-a6a36888108c","system_id":"levelo_inurba_marseille","lat":43.24946,"lon":5.40496,"is_reserved":false,"is_disabled":false,"rental_uris":{"android":"levelo://app?vid=2d53d832-b41f-4607-b59b-a6a36888108c","ios":"levelo://app?vid=2d53d832-b41f-4607-b59b-a6a36888108c"},"vehicle_type_id":"4","last_reported":1770183581,"current_range_meters":9600,"station_id":"st_d2ngiaodas8pm72gd1h0","pricing_plan_id":"cebpf4jnsgd1na2vs0mg"},{"bike_id":"941d0b03-9ae1-4106-9296-775ca1406222","system_id":"levelo_inurba_marseille","lat":43.282936,"lon":5.424045,"is_reserved":false,"is_disabled":false,"rental_uris":{"android":"levelo://app?vid=941d0b03-9ae1-4106-9296-775ca1406222","ios":"levelo://app?vid=941d0b03-9ae1-4106-9296-775ca1406222"},"vehicle_type_id":"4","last_reported":1770183581,"current_range_meters":9600,"station_id":"","pricing_plan_id":"cebpf4jnsgd1na2vs0mg"},{"bike_id":"8565b715-b328-42ac-a521-214aed9a02f1","system_id":"levelo_inurba_marseille","lat":43.24064,"lon":5.37783,"is_reserved":false,"is_disabled":false,"rental_uris":{"android":"levelo://app?vid=8565b715-b328-42ac-a521-214aed9a02f1","ios":"levelo://app?vid=8565b715-b328-42ac-a521-214aed9a02f1"},"vehicle_type_id":"4","last_reported":1770183581,"current_range_meters":9600,"station_id":"ce4bhnp2rcd13ifvqgvg","pricing_plan_id":"cebpf4jnsgd1na2vs0mg"},{"bike_id":"eb47f48d-6c09-41c8-ae6e-8a7103314f13","system_id":"levelo_inurba_marseille","lat":43.29919,"lon":5.42834,"is_reserved":false,"is_disabled":false,"rental_uris":{"android":"levelo://app?vid=eb47f48d-6c09-41c8-ae6e-8a7103314f13","ios":"levelo://app?vid=eb47f48d-6c09-41c8-ae6e-8a7103314f13"},"vehicle_type_id":"4","last_reported":1770183581,"current_range_meters":9600,"station_id":"","pricing_plan_id":"cebpf4jnsgd1na2vs0mg"},{"bike_id":"c9cf1bda-a378-4513-8aed-b2dba30c86f7","system_id":"levelo_inurba_marseille","lat":43.29555,"lon":5.422788,"is_reserved":false,"is_disabled":false,"rental_uris":{"android":"levelo://app?vid=c9cf1bda-a378-4513-8aed-b2dba30c86f7","ios":"levelo://app?vid=c9cf1bda-a378-4513-8aed-b2dba30c86f7"},"vehicle_type_id":"4","last_reported":1770183581,"current_range_meters":9600,"station_id":"ce4bhph2rcd13ifvqhdg","pricing_plan_id":"cebpf4jnsgd1na2vs0mg"},{"bike_id":"38712b4b-754b-41b9-9f4d-8f2f4069c5f1","system_id":"levelo_inurba_marseille","lat":43.29909,"lon":5.37479,"is_reserved":false,"is_disabled":false,"rental_uris":{"android":"levelo://app?vid=38712b4b-754b-41b9-9f4d-8f2f4069c5f1","ios":"levelo://app?vid=38712b4b-754b-41b9-9f4d-8f2f4069c5f1"},"vehicle_type_id":"4","last_reported":1770183581,"current_range_meters":9600,"station_id":"ce4bgjh2rcd13ifvqbg0","pricing_plan_id":"cebpf4jnsgd1na2vs0mg"},{"bike_id":"832d15b0-a48e-43f9-bfaa-3490c24a8eb2","system_id":"levelo_inurba_marseille","lat":43.28102,"lon":5.37836,"is_reserved":false,"is_disabled":false,"rental_uris":{"android":"levelo://app?vid=832d15b0-a48e-43f9-bfaa-3490c24a8eb2","ios":"levelo://app?vid=832d15b0-a48e-43f9-bfaa-3490c24a8eb2"},"vehicle_type_id":"4","last_reported":1770183581,"current_range_meters":9600,"station_id":"ce4bha12rcd13ifvqee0","pricing_plan_id":"cebpf4jnsgd1na2vs0mg"},{"bike_id":"b43f880a-9701-4b51-9be5-fc98ff85321b","system_id":"levelo_inurba_marseille","lat":43.25112,"lon":5.40316,"is_reserved":false,"is_disabled":false,"rental_uris":{"android":"levelo://app?vid=b43f880a-9701-4b51-9be5-fc98ff85321b","ios":"levelo://app?vid=b43f880a-9701-4b51-9be5-fc98ff85321b"},"vehicle_type_id":"4","last_reported":1770183581,"current_range_meters":9600,"station_id":"ce4bhlh2rcd13ifvqgig","pricing_plan_id":"cebpf4jnsgd1na2vs0mg"},{"bike_id":"b345239a-a582-4f1b-9c78-faf62467a464","system_id":"levelo_inurba_marseille","lat":43.29718,"lon":5.36642,"is_reserved":false,"is_disabled":true,"rental_uris":{"android":"levelo://app?vid=b345239a-a582-4f1b-9c78-faf62467a464","ios":"levelo://app?vid=b345239a-a582-4f1b-9c78-faf62467a464"},"vehicle_type_id":"4","last_reported":1770183581,"current_range_meters":9600,"station_id":"ce4bgn12rcd13ifvqbt0","pricing_plan_id":"cebpf4jnsgd1na2vs0mg"},{"bike_id":"c1e71f14-e91f-49b0-9bb2-6c712963da21","system_id":"levelo_inurba_marseille","lat":43.29897,"lon":5.43668,"is_reserved":false,"is_disabled":false,"rental_uris":{"android":"levelo://app?vid=c1e71f14-e91f-49b0-9bb2-6c712963da21","ios":"levelo://app?vid=c1e71f14-e91f-49b0-9bb2-6c712963da21"},"vehicle_type_id":"4","last_reported":1770183581,"current_range_meters":9600,"station_id":"ce4bhpp2rcd13ifvqhfg","pricing_plan_id":"cebpf4jnsgd1na2vs0mg"},{"bike_id":"9c97ed08-c8de-49a9-b037-9c50c2f5044c","system_id":"levelo_inurba_marseille","lat":43.29429,"lon":5.41325,"is_reserved":false,"is_disabled":false,"rental_uris":{"android":"levelo://app?vid=9c97ed08-c8de-49a9-b037-9c50c2f5044c","ios":"levelo://app?vid=9c97ed08-c8de-49a9-b037-9c50c2f5044c"},"vehicle_type_id":"4","last_reported":1770183581,"current_range_meters":9600,"station_id":"","pricing_plan_id":"cebpf4jnsgd1na2vs0mg"},{"bike_id":"06a611b0-c181-457c-8aff-e8888bc2dc2e","system_id":"levelo_inurba_marseille","lat":43.31313,"lon":5.3968,"is_reserved":false,"is_disabled":false,"rental_uris":{"android":"levelo://app?vid=06a611b0-c181-457c-8aff-e8888bc2dc2e","ios":"levelo://app?vid=06a611b0-c181-457c-8aff-e8888bc2dc2e"},"vehicle_type_id":"4","last_reported":1770183581,"current_range_meters":9600,"station_id":"ce4bgvp2rcd13ifvqcu0","pricing_plan_id":"cebpf4jnsgd1na2vs0mg"},