{"last_updated":1693883250,"ttl":30,"version":"2.2","data":{"bikes":[{"bike_id":"efeb0d5e-5fcf-447f-afb9-20213d667216","system_id":"levelo_inurba_marseille","lat":43.31357,"lon":5.36707,"is_reserved":false,"is_disabled":false,"rental_uris":{"android":"levelo://app?vid=efeb0d5e-5fcf-447f-afb9-20213d667216","ios":"levelo://app?vid=efeb0d5e-5fcf-447f-afb9-20213d667216"},"vehicle_type_id":"4","last_reported":1693883250,"current_range_meters":9200,"station_id":"ce4bgr92rcd13ifvqc6g","pricing_plan_id":"free"},{"bike_id":"4a14c39b-4be2-47a6-aa46-86f73ddba2cf","system_id":"levelo_inurba_marseille","lat":43.30956,"lon":5.37137,"is_reserved":false,"is_disabled":false,"rental_uris":{"android":"levelo://app?vid=4a14c39b-4be2-47a6-aa46-86f73ddba2cf","ios":"levelo://app?vid=4a14c39b-4be2-47a6-aa46-86f73ddba2cf"},"vehicle_type_id":"4","last_reported":1693883250,"current_range_meters":14400,"station_id":"","pricing_plan_id":"free"},{"bike_id":"08637853-1ffb-4576-a6f1-d39ba1b4c940","system_id":"levelo_inurba_marseille","lat":43.314811,"lon":5.373104,"is_reserved":false,"is_disabled":false,"rental_uris":{"android":"levelo://app?vid=08637853-1ffb-4576-a6f1-d39ba1b4c940","ios":"levelo://app?vid=08637853-1ffb-4576-a6f1-d39ba1b4c940"},"vehicle_type_id":"4","last_reported":1693883250,"current_range_meters":20400,"station_id":"ce4bgt12rcd13ifvqcd0","pricing_plan_id":"free"},{"bike_id":"e49e2078-9de6-421f-a60d-09a36cb59a75","system_id":"levelo_inurba_marseille","lat":43.314811,"lon":5.373103,"is_reserved":false,"is_disabled":false,"rental_uris":{"android":"levelo://app?vid=e49e2078-9de6-421f-a60d-09a36cb59a75","ios":"levelo://app?vid=e49e2078-9de6-421f-a60d-09a36cb59a75"},"vehicle_type_id":"4","last_reported":1693883250,"current_range_meters":26400,"station_id":"ce4bgt12rcd13ifvqcd0","pricing_plan_id":"free"},{"bike_id":"3aee01d5-94de-4ab9-9635-01b07ba81b82","system_id":"levelo_inurba_marseille","lat":43.31487,"lon":5.37309,"is_reserved":false,"is_disabled":false,"rental_uris":{"android":"levelo://app?vid=3aee01d5-94de-4ab9-9635-01b07ba81b82","ios":"levelo://app?vid=3aee01d5-94de-4ab9-9635-01b07ba81b82"},"vehicle_type_id":"4","last_reported":1693883250,"current_range_meters":0,"station_id":"ce4bgt12rcd13ifvqcd0","pricing_plan_id":"free"},{"bike_id":"d2be997d-44d2-40a5-bb20-02aeaaf65fa5","system_id":"levelo_inurba_marseille","lat":43.31491,"lon":5.37307,"is_reserved":false,"is_disabled":false,"rental_uris":{"android":"levelo://app?vid=d2be997d-44d2-40a5-bb20-02aeaaf65fa5","ios":"levelo://app?vid=d2be997d-44d2-40a5-bb20-02aeaaf65fa5"},"vehicle_type_id":"4","last_reported":1693883250,"current_range_meters":28400,"station_id":"ce4bgt12rcd13ifvqcd0","pricing_plan_id":"free"},{"bike_id":"2682af1b-25ab-41fe-b7d6-96fd2a8629e0","system_id":"levelo_inurba_marseille","lat":43.314811,"lon":5.373103,"is_reserved":false,"is_disabled":false,"rental_uris":{"android":"levelo://app?vid=2682af1b-25ab-41fe-b7d6-96fd2a8629e0","ios":"levelo://app?vid=2682af1b-25ab-41fe-b7d6-96fd2a8629e0"},"vehicle_type_id":"4","last_reported":1693883250,"current_range_meters":30000,"station_id":"ce4bgt12rcd13ifvqcd0","pricing_plan_id":"free"},{"bike_id":"91c2cde3-3c8a-4ac4-91e0-0dd564a4642f","system_id":"levelo_inurba_marseille","lat":43.314811,"lon":5.373103,"is_reserved":false,"is_disabled":false,"rental_uris":{"android":"levelo://app?vid=91c2cde3-3c8a-4ac4-91e0-0dd564a4642f","ios":"levelo://app?vid=91c2cde3-3c8a-4ac4-91e0-0dd564a4642f"},"vehicle_type_id":"4","last_reported":1693883250,"current_range_meters":23200,"station_id":"ce4bgt12rcd13ifvqcd0","pricing_plan_id":"free"},{"bike_id":"0c0553ec-011f-4cec-a926-d6f1e0d41e53","system_id":"levelo_inurba_marseille","lat":43.314811,"lon":5.373103,"is_reserved":false,"is_disabled":false,"rental_uris":{"android":"levelo://app?vid=0c0553ec-011f-4cec-a926-d6f1e0d41e53","ios":"levelo://app?vid=0c0553ec-011f-4cec-a926-d6f1e0d41e53"},"vehicle_type_id":"4","last_reported":1693883250,"current_range_meters":30000,"station_id":"ce4bgt12rcd13ifvqcd0","pricing_plan_id":"free"},{"bike_id":"f15d5631-a840-4306-b40d-c44fc43a71ed","system_id":"levelo_inurba_marseille","lat":43.309039,"lon":5.371797,"is_reserved":false,"is_disabled":false,"rental_uris":{"android":"levelo://app?vid=f15d5631-a840-4306-b40d-c44fc43a71ed","ios":"levelo://app?vid=f15d5631-a840-4306-b40d-c44fc43a71ed"},"vehicle_type_id":"4","last_reported":1693883250,"current_range_meters":28800,"station_id":"ce4bguh2rcd13ifvqckg","pricing_plan_id":"free"},{"bike_id":"7a47b21c-b32c-4ffb-9911-64cc6a60e48d","system_id":"levelo_inurba_marseille","lat":43.309039,"lon":5.371797,"is_reserved":false,"is_disabled":false,"rental_uris":{"android":"levelo://app?vid=7a47b21c-b32c-4ffb-9911-64cc6a60e48d","ios":"levelo://app?vid=7a47b21c-b32c-4ffb-9911-64cc6a60e48d"},"vehicle_type_id":"4","last_reported":1693883250,"current_range_meters":16400,"station_id":"ce4bguh2rcd13ifvqckg","pricing_plan_id":"free"},{"bike_id":"b2a495ff-87ad-4ba7-9bb6-8a498bdf8538","system_id":"levelo_inurba_marseille","lat":43.309039,"lon":5.371797,"is_reserved":false,"is_disabled":false,"rental_uris":{"android":"levelo://app?vid=b2a495ff-87ad-4ba7-9bb6-8a498bdf8538","ios":"levelo://app?vid=b2a495ff-87ad-4ba7-9bb6-8a498bdf8538"},"vehicle_type_id":"4","last_reported":1693883250,"current_range_meters":6400,"station_id":"ce4bguh2rcd13ifvqckg","pricing_plan_id":"free"},{"bike_id":"dbdfb9f1-27ea-41a9-8aaa-8528b50c591b","system_id":"levelo_inurba_marseille","lat":43.309039,"lon":5.371797,"is_reserved":false,"is_disabled":false,"rental_uris":{"android":"levelo://app?vid=dbdfb9f1-27ea-41a9-8aaa-8528b50c591b","ios":"levelo://app?vid=dbdfb9f1-27ea-41a9-8aaa-8528b50c591b"},"vehicle_type_id":"4","last_reported":1693883250,"current_range_meters":31200,"station_id":"ce4bguh2rcd13ifvqckg","pricing_plan_id":"free"},{"bike_id":"8122550e-3342-45ac-b704-c751250f1106","system_id":"levelo_inurba_marseille","lat":43.309039,"lon":5.371797,"is_reserved":false,"is_disabled":false,"rental_uris":{"android":"levelo://app?vid=8122550e-3342-45ac-b704-c751250f1106","ios":"levelo://app?vid=8122550e-3342-45ac-b704-c751250f1106"},"vehicle_type_id":"4","last_reported":1693883250,"current_range_meters":15200,"station_id":"ce4bguh2rcd13ifvqckg","pricing_plan_id":"free"},{"bike_id":"0450de15-1184-4b4b-8a38-6a2c94896611","system_id":"levelo_inurba_marseille","lat":43.309039,"lon":5.371797,"is_reserved":false,"is_disabled":false,"rental_uris":{"android":"levelo://app?vid=0450de15-1184-4b4b-8a38-6a2c94896611","ios":"levelo://app?vid=0450de15-1184-4b4b-8a38-6a2c94896611"},"vehicle_type_id":"4","last_reported":1693883250,"current_range_meters":23600,"station_id":"ce4bguh2rcd13ifvqckg","pricing_plan_id":"free"},{"bike_id":"3ded9e38-7110-4102-afa4-30bd3bb1d02b","system_id":"levelo_inurba_marseille","lat":43.30562,"lon":5.36621,"is_reserved":false,"is_disabled":false,"rental_uris":{"android":"levelo://app?vid=3ded9e38-7110-4102-afa4-30bd3bb1d02b","ios":"levelo://app?vid=3ded9e38-7110-4102-afa4-30bd3bb1d02b"},"vehicle_type_id":"4","last_reported":1693883250,"current_range_meters":28000,"station_id":"","pricing_plan_id":"free"},{"bike_id":"d4b407ff-082a-4720-9cc5-669a69616f76","system_id":"levelo_inurba_marseille","lat":43.305706,"lon":5.365654,"is_reserved":false,"is_disabled":false,"rental_uris":{"android":"levelo://app?vid=d4b407ff-082a-4720-9cc5-669a69616f76","ios":"levelo://app?vid=d4b407ff-082a-4720-9cc5-669a69616f76"},"vehicle_type_id":"4","last_reported":1693883250,"current_range_meters":29200,"station_id":"ce4bgs12rcd13ifvqcag","pricing_plan_id":"free"},{"bike_id":"24e24213-14f8-4b74-bfd4-cadedb9503c4","system_id":"levelo_inurba_marseille","lat":43.305706,"lon":5.365654,"is_reserved":false,"is_disabled":false,"rental_uris":{"android":"levelo://app?vid=24e24213-14f8-4b74-bfd4-cadedb9503c4","ios":"levelo://app?vid=24e24213-14f8-4b74-bfd4-cadedb9503c4"},"vehicle_type_id":"4","last_reported":1693883250,"current_range_meters":30800,"station_id":"ce4bgs12rcd13ifvqcag","pricing_plan_id":"free"},{"bike_id":"cb33be8a-258b-426e-bfc2-623781ed8578","system_id":"levelo_inurba_marseille","lat":43.305989,"lon":5.37225,"is_reserved":false,"is_disabled":false,"rental_uris":{"android":"levelo://app?vid=cb33be8a-258b-426e-bfc2-623781ed8578","ios":"levelo://app?vid=cb33be8a-258b-426e-bfc2-623781ed8578"},"vehicle_type_id":"4","last_reported":1693883250,"current_range_meters":26400,"station_id":"ce4bgqh2rcd13ifvqc4g","pricing_plan_id":"free"},{"bike_id":"500e2161-50a1-4c3e-a884-6b0152acdb2a","system_id":"levelo_inurba_marseille","lat":43.305989,"lon":5.37225,"is_reserved":false,"is_disabled":false,"rental_uris":{"android":"levelo://app?vid=500e2161-50a1-4c3e-a884-6b0152acdb2a","ios":"levelo://app?vid=500e2161-50a1-4c3e-a884-6b0152acdb2a"},"vehicle_type_id":"4","last_reported":1693883250,"current_range_meters":31200,"station_id":"ce4bgqh2rcd13ifvqc4g","pricing_plan_id":"free"},{"bike_id":"7f7ba083-1dd1-4fc5-a77f-17ae1d132166","system_id":"levelo_inurba_marseille","lat":43.305989,"lon":5.37225,"is_reserved":false,"is_disabled":false,"rental_uris":{"android":"levelo://app?vid=7f7ba083-1dd1-4fc5-a77f-17ae1d132166","ios":"levelo://app?vid=7f7ba083-1dd1-4fc5-a77f-17ae1d132166"},"vehicle_type_id":"4","last_reported":1693883250,"current_range_meters":20800,"station_id":"ce4bgqh2rcd13ifvqc4g","pricing_plan_id":"free"},{"bike_id":"3b0fce0a-fd7f-49b6-b2c8-6f80e89e6c23","system_id":"levelo_inurba_marseille","lat":43.311125,"lon":5.377624,"is_reserved":false,"is_disabled":false,"rental_uris":{"android":"levelo://app?vid=3b0fce0a-fd7f-49b6-b2c8-6f80e89e6c23","ios":"levelo://app?vid=3b0fce0a-fd7f-49b6-b2c8-6f80e89e6c23"},"vehicle_type_id":"4","last_reported":1693883250,"current_range_meters":28000,"station_id":"ce4bgt92rcd13ifvqcg0","pricing_plan_id":"free"},{"bike_id":"a12e765c-b842-40c7-9ea2-bb1ed21775ea","system_id":"levelo_inurba_marseille","lat":43.305989,"lon":5.37225,"is_reserved":false,"is_disabled":false,"rental_uris":{"android":"levelo://app?vid=a12e765c-b842-40c7-9ea2-bb1ed21775ea","ios":"levelo://app?vid=a12e765c-b842-40c7-9ea2-bb1ed21775ea"},"vehicle_type_id":"4","last_reported":1693883250,"current_range_meters":31600,"station_id":"ce4bgqh2rcd13ifvqc4g","pricing_plan_id":"free"},{"bike_id":"a0235321-20d8-4e0d-9a68-ff5402c5faec","system_id":"levelo_inurba_marseille","lat":43.305989,"lon":5.37225,"is_reserved":false,"is_disabled":false,"rental_uris":{"android":"levelo://app?vid=a0235321-20d8-4e0d-9a68-ff5402c5faec","ios":"levelo://app?vid=a0235321-20d8-4e0d-9a68-ff5402c5faec"},"vehicle_type_id":"4","last_reported":1693883250,"current_range_meters":26800,"station_id":"ce4bgqh2rcd13ifvqc4g","pricing_plan_id":"free"},{"bike_id":"d0f05f4b-caa4-4797-92b6-dc44d68c6b0c","system_id":"levelo_inurba_marseille","lat":43.311131,"lon":5.377651,"is_reserved":false,"is_disabled":false,"rental_uris":{"android":"levelo://app?vid=d0f05f4b-caa4-4797-92b6-dc44d68c6b0c","ios":"levelo://app?vid=d0f05f4b-caa4-4797-92b6-dc44d68c6b0c"},"vehicle_type_id":"4","last_reported":1693883250,"current_range_meters":31200,"station_id":"ce4bgt92rcd13ifvqcg0","pricing_plan_id":"free"},{"bike_id":"300f37c9-7ecc-4bdd-b634-3543ae8fae41","system_id":"levelo_inurba_marseille","lat":43.311131,"lon":5.377651,"is_reserved":false,"is_disabled":false,"rental_uris":{"android":"levelo://app?vid=300f37c9-7ecc-4bdd-b634-3543ae8fae41","ios":"levelo://app?vid=300f37c9-7ecc-4bdd-b634-3543ae8fae41"},"vehicle_type_id":"4","last_reported":1693883250,"current_range_meters":28800,"station_id":"ce4bgt92rcd13ifvqcg0","pricing_plan_id":"free"},{"bike_id":"57a3039c-9b55-4b3b-9307-69742983b9ce","system_id":"levelo_inurba_marseille","lat":43.311131,"lon":5.377651,"is_reserved":false,"is_disabled":false,"rental_uris":{"android":"levelo://app?vid=57a3039c-9b55-4b3b-9307-69742983b9ce","ios":"levelo://app?vid=57a3039c-9b55-4b3b-9307-69742983b9ce"},"vehicle_type_id":"4","last_reported":1693883250,"current_range_meters":31200,"station_id":"ce4bgt92rcd13ifvqcg0","pricing_plan_id":"free"},{"bike_id":"f0d999b4-de66-437c-bfc7-94e8b73ef670","system_id":"levelo_inurba_marseille","lat":43.311125,"lon":5.377624,"is_reserved":false,"is_disabled":false,"rental_uris":{"android":"levelo://app?vid=f0d999b4-de66-437c-bfc7-94e8b73ef670","ios":"levelo://app?vid=f0d999b4-de66-437c-bfc7-94e8b73ef670"},"vehicle_type_id":"4","last_reported":1693883250,"current_range_meters":9600,"station_id":"ce4bgt92rcd13ifvqcg0","pricing_plan_id":"free"},{"bike_id":"34929906-44da-4307-a457-8ec67f803676","system_id":"levelo_inurba_marseille","lat":43.311125,"lon":5.377624,"is_reserved":false,"is_disabled":false,"rental_uris":{"android":"levelo://app?vid=34929906-44da-4307-a457-8ec67f803676","ios":"levelo://app?vid=34929906-44da-4307-a457-8ec67f803676"},"vehicle_type_id":"4","last_reported":1693883250,"current_range_meters":29600,"station_id":"ce4bgt92rcd13ifvqcg0","pricing_plan_id":"free"},{"bike_id":"6be29485-4696-416a-82b3-2de6a85a648e","system_id":"levelo_inurba_marseille","lat":43.307945,"lon":5.376487,"is_reserved":false,"is_disabled":false,"rental_uris":{"android":"levelo://app?vid=6be29485-4696-416a-82b3-2de6a85a648e","ios":"levelo://app?vid=6be29485-4696-416a-82b3-2de6a85a648e"},"vehicle_type_id":"4","last_reported":1693883250,"current_range_meters":18000,"station_id":"ce4bgv92rcd13ifvqcq0","pricing_plan_id":"free"},{"bike_id":"26513f4b-ae76-49a4-b5ef-6e7993e5b37e","system_id":"levelo_inurba_marseille","lat":43.30784,"lon":5.37651,"is_reserved":false,"is_disabled":false,"rental_uris":{"android":"levelo://app?vid=26513f4b-ae76-49a4-b5ef-6e7993e5b37e","ios":"levelo://app?vid=26513f4b-ae76-49a4-b5ef-6e7993e5b37e"},"vehicle_type_id":"4","last_reported":1693883250,"current_range_meters":22000,"station_id":"ce4bgv92rcd13ifvqcq0","pricing_plan_id":"free"},{"bike_id":"d7b6b424-353e-4931-ad69-775f10985f7c","system_id":"levelo_inurba_marseille","lat":43.307945,"lon":5.376487,"is_reserved":false,"is_disabled":false,"rental_uris":{"android":"levelo://app?vid=d7b6b424-353e-4931-ad69-775f10985f7c","ios":"levelo://app?vid=d7b6b424-353e-4931-ad69-775f10985f7c"},"vehicle_type_id":"4","last_reported":1693883250,"current_range_meters":30000,"station_id":"ce4bgv92rcd13ifvqcq0","pricing_plan_id":"free"},{"bike_id":"4737fafd-c258-4351-87fa-308a0c03a109","system_id":"levelo_inurba_marseille","lat":43.307945,"lon":5.376487,"is_reserved":false,"is_disabled":false,"rental_uris":{"android":"levelo://app?vid=4737fafd-c258-4351-87fa-308a0c03a109","ios":"levelo://app?vid=4737fafd-c258-4351-87fa-308a0c03a109"},"vehicle_type_id":"4","last_reported":1693883250,"current_range_meters":0,"station_id":"ce4bgv92rcd13ifvqcq0","pricing_plan_id":"free"},{"bike_id":"9d38abff-d812-4c66-9b76-cf48e47bb2d1","system_id":"levelo_inurba_marseille","lat":43.317075,"lon":5.377367,"is_reserved":false,"is_disabled":false,"rental_uris":{"android":"levelo://app?vid=9d38abff-d812-4c66-9b76-cf48e47bb2d1","ios":"levelo://app?vid=9d38abff-d812-4c66-9b76-cf48e47bb2d1"},"vehicle_type_id":"4","last_reported":1693883250,"current_range_meters":27200,"station_id":"ce4bgth2rcd13ifvqch0","pricing_plan_id":"free"},{"bike_id":"ca184e14-34cb-460c-bb61-eeeb5fc4416d","system_id":"levelo_inurba_marseille","lat":43.30311,"lon":5.36868,"is_reserved":false,"is_disabled":false,"rental_uris":{"android":"levelo://app?vid=ca184e14-34cb-460c-bb61-eeeb5fc4416d","ios":"levelo://app?vid=ca184e14-34cb-460c-bb61-eeeb5fc4416d"},"vehicle_type_id":"4","last_reported":1693883250,"current_range_meters":26000,"station_id":"ce4bgqh2rcd13ifvqc5g","pricing_plan_id":"free"},{"bike_id":"e9d096ad-5095-4415-b3c5-40878deb3e50","system_id":"levelo_inurba_marseille","lat":43.30312,"lon":5.369,"is_reserved":false,"is_disabled":false,"rental_uris":{"android":"levelo://app?vid=e9d096ad-5095-4415-b3c5-40878deb3e50","ios":"levelo://app?vid=e9d096ad-5095-4415-b3c5-40878deb3e50"},"vehicle_type_id":"4","last_reported":1693883250,"current_range_meters":27600,"station_id":"ce4bgqh2rcd13ifvqc5g","pricing_plan_id":"free"},{"bike_id":"fd2b2d8e-a123-44e6-9eb8-2fe15741385e","system_id":"levelo_inurba_marseille","lat":43.31536,"lon":5.38027,"is_reserved":false,"is_disabled":false,"rental_uris":{"android":"levelo://app?vid=fd2b2d8e-a123-44e6-9eb8-2fe15741385e","ios":"levelo://app?vid=fd2b2d8e-a123-44e6-9eb8-2fe15741385e"},"vehicle_type_id":"4","last_reported":1693883250,"current_range_meters":0,"station_id":"ce4bhsp2rcd13ifvqi50","pricing_plan_id":"free"},{"bike_id":"e34bee6b-1f4c-48f4-a16b-a051c61c0059","system_id":"levelo_inurba_marseille","lat":43.301939,"lon":5.366286,"is_reserved":false,"is_disabled":false,"rental_uris":{"android":"levelo://app?vid=e34bee6b-1f4c-48f4-a16b-a051c61c0059","ios":"levelo://app?vid=e34bee6b-1f4c-48f4-a16b-a051c61c0059"},"vehicle_type_id":"4","last_reported":1693883250,"current_range_meters":30000,"station_id":"ce4bgrh2rcd13ifvqc8g","pricing_plan_id":"free"},{"bike_id":"4117d1f7-ead3-4852-8df4-6e3b2e83c66c","system_id":"levelo_inurba_marseille","lat":43.301939,"lon":5.366286,"is_reserved":false,"is_disabled":false,"rental_uris":{"android":"levelo://app?vid=4117d1f7-ead3-4852-8df4-6e3b2e83c66c","ios":"levelo://app?vid=4117d1f7-ead3-4852-8df4-6e3b2e83c66c"},"vehicle_type_id":"4","last_reported":1693883250,"current_range_meters":31200,"station_id":"ce4bgrh2rcd13ifvqc8g","pricing_plan_id":"free"},{"bike_id":"7e54ddab-1198-4de8-b406-5f635a906193","system_id":"levelo_inurba_marseille","lat":43.301939,"lon":5.366286,"is_reserved":false,"is_disabled":false,"rental_uris":{"android":"levelo://app?vid=7e54ddab-1198-4de8-b406-5f635a906193","ios":"levelo://app?vid=7e54ddab-1198-4de8-b406-5f635a906193"},"vehicle_type_id":"4","last_reported":1693883250,"current_range_meters":27600,"station_id":"ce4bgrh2rcd13ifvqc8g","pricing_plan_id":"free"},{"bike_id":"cf98ba5c-ccd0-4d21-aa56-b7395d01ab31","system_id":"levelo_inurba_marseille","lat":43.31562,"lon":5.38212,"is_reserved":false,"is_disabled":false,"rental_uris":{"android":"levelo://app?vid=cf98ba5c-ccd0-4d21-aa56-b7395d01ab31","ios":"levelo://app?vid=cf98ba5c-ccd0-4d21-aa56-b7395d01ab31"},"vehicle_type_id":"4","last_reported":1693883250,"current_range_meters":21600,"station_id":"","pricing_plan_id":"free"},{"bike_id":"2d3060d6-2e8d-488f-a61a-68537cc9a7fa","system_id":"levelo_inurba_marseille","lat":43.30803,"lon":5.38149,"is_reserved":false,"is_disabled":false,"rental_uris":{"android":"levelo://app?vid=2d3060d6-2e8d-488f-a61a-68537cc9a7fa","ios":"levelo://app?vid=2d3060d6-2e8d-488f-a61a-68537cc9a7fa"},"vehicle_type_id":"4","last_reported":1693883250,"current_range_meters":14800,"station_id":"ce4bgt12rcd13ifvqce0","pricing_plan_id":"free"},{"bike_id":"136ea368-b950-4768-8e80-807932479266","system_id":"levelo_inurba_marseille","lat":43.30797,"lon":5.38146,"is_reserved":false,"is_disabled":false,"rental_uris":{"android":"levelo://app?vid=136ea368-b950-4768-8e80-807932479266","ios":"levelo://app?vid=136ea368-b950-4768-8e80-807932479266"},"vehicle_type_id":"4","last_reported":1693883250,"current_range_meters":8800,"station_id":"ce4bgt12rcd13ifvqce0","pricing_plan_id":"free"},{"bike_id":"397261dd-68c2-431f-9aa5-c9acd76a5632","system_id":"levelo_inurba_marseille","lat":43.30805,"lon":5.38154,"is_reserved":false,"is_disabled":false,"rental_uris":{"android":"levelo://app?vid=397261dd-68c2-431f-9aa5-c9acd76a5632","ios":"levelo://app?vid=397261dd-68c2-431f-9aa5-c9acd76a5632"},"vehicle_type_id":"4","last_reported":1693883250,"current_range_meters":8400,"station_id":"ce4bgt12rcd13ifvqce0","pricing_plan_id":"free"},{"bike_id":"b91ffe7c-6165-42bd-979f-a75b661259bb","system_id":"levelo_inurba_marseille","lat":43.30798,"lon":5.38152,"is_reserved":false,"is_disabled":false,"rental_uris":{"android":"levelo://app?vid=b91ffe7c-6165-42bd-979f-a75b661259bb","ios":"levelo://app?vid=b91ffe7c-6165-42bd-979f-a75b661259bb"},"vehicle_type_id":"4","last_reported":1693883250,"current_range_meters":27200,"station_id":"ce4bgt12rcd13ifvqce0","pricing_plan_id":"free"},{"bike_id":"df7c93a4-3520-4873-85cd-3ab0fde97f75","system_id":"levelo_inurba_marseille","lat":43.304606,"lon":5.379026,"is_reserved":false,"is_disabled":false,"rental_uris":{"android":"levelo://app?vid=df7c93a4-3520-4873-85cd-3ab0fde97f75","ios":"levelo://app?vid=df7c93a4-3520-4873-85cd-3ab0fde97f75"},"vehicle_type_id":"4","last_reported":1693883250,"current_range_meters":22000,"station_id":"ce4bgup2rcd13ifvqcn0","pricing_plan_id":"free"},{"bike_id":"9443bbfc-5ef3-4e13-a981-d223ccbb48a4","system_id":"levelo_inurba_marseille","lat":43.304606,"lon":5.379026,"is_reserved":false,"is_disabled":false,"rental_uris":{"android":"levelo://app?vid=9443bbfc-5ef3-4e13-a981-d223ccbb48a4","ios":"levelo://app?vid=9443bbfc-5ef3-4e13-a981-d223ccbb48a4"},"vehicle_type_id":"4","last_reported":1693883250,"current_range_meters":31200,"station_id":"ce4bgup2rcd13ifvqcn0","pricing_plan_id":"free"},{"bike_id":"ef3fa544-e3dd-4af2-a2f5-798eb4b3674e","system_id":"levelo_inurba_marseille","lat":43.304606,"lon":5.379026,"is_reserved":false,"is_disabled":false,"rental_uris":{"android":"levelo://app?vid=ef3fa544-e3dd-4af2-a2f5-798eb4b3674e","ios":"levelo://app?vid=ef3fa544-e3dd-4af2-a2f5-798eb4b3674e"},"vehicle_type_id":"4","last_reported":1693883250,"current_range_meters":30800,"station_id":"ce4bgup2rcd13ifvqcn0","pricing_plan_id":"free"},{"bike_id":"43e1f008-c219-4bdd-98fb-e4524d1cc786","system_id":"levelo_inurba_marseille","lat":43.304606,"lon":5.379026,"is_reserved":false,"is_disabled":false,"rental_uris":{"android":"levelo://app?vid=43e1f008-c219-4bdd-98fb-e4524d1cc786","ios":"levelo://app?vid=43e1f008-c219-4bdd-98fb-e4524d1cc786"},"vehicle_type_id":"4","last_reported":1693883250,"current_range_meters":400,"station_id":"ce4bgup2rcd13ifvqcn0","pricing_plan_id":"free"},{"bike_id":"527daf4d-ed5f-4d53-b51a-cc8af0c69034","system_id":"levelo_inurba_marseille","lat":43.304606,"lon":5.379026,"is_reserved":false,"is_disabled":false,"rental_uris":{"android":"levelo://app?vid=527daf4d-ed5f-4d53-b51a-cc8af0c69034","ios":"levelo://app?vid=527daf4d-ed5f-4d53-b51a-cc8af0c69034"},"vehicle_type_id":"4","last_reported":1693883250,"current_range_meters":31600,"station_id":"ce4bgup2rcd13ifvqcn0","pricing_plan_id":"free"},{"bike_id":"9e886ad7-3c6c-4964-97db-eb947c0c5513","system_id":"levelo_inurba_marseille","lat":43.304606,"lon":5.379026,"is_reserved":false,"is_disabled":false,"rental_uris":{"android":"levelo://app?vid=9e886ad7-3c6c-4964-97db-eb947c0c5513","ios":"levelo://app?vid=9e886ad7-3c6c-4964-97db-eb947c0c5513"},"vehicle_type_id":"4","last_reported":1693883250,"current_range_meters":4800,"station_id":"ce4bgup2rcd13ifvqcn0","pricing_plan_id":"free"},{"bike_id":"b03e4d0a-d55b-40d1-b8f0-4178b3130441","system_id":"levelo_inurba_marseille","lat":43.304606,"lon":5.379026,"is_reserved":false,"is_disabled":false,"rental_uris":{"android":"levelo://app?vid=b03e4d0a-d55b-40d1-b8f0-4178b3130441","ios":"levelo://app?vid=b03e4d0a-d55b-40d1-b8f0-4178b3130441"},"vehicle_type_id":"4","last_reported":1693883250,"current_range_meters":7600,"station_id":"ce4bgup2rcd13ifvqcn0","pricing_plan_id":"free"},{"bike_id":"7148b536-877a-49c5-9566-feee64c3f172","system_id":"levelo_inurba_marseille","lat":43.304606,"lon":5.379026,"is_reserved":false,"is_disabled":false,"rental_uris":{"android":"levelo://app?vid=7148b536-877a-49c5-9566-feee64c3f172","ios":"levelo://app?vid=7148b536-877a-49c5-9566-feee64c3f172"},"vehicle_type_id":"4","last_reported":1693883250,"current_range_meters":28400,"station_id":"ce4bgup2rcd13ifvqcn0","pricing_plan_id":"free"},{"bike_id":"d4fc0ab7-7f7b-4d73-99f2-6531844c787e","system_id":"levelo_inurba_marseille","lat":43.304606,"lon":5.379026,"is_reserved":false,"is_disabled":false,"rental_uris":{"android":"levelo://app?vid=d4fc0ab7-7f7b-4d73-99f2-6531844c787e","ios":"levelo://app?vid=d4fc0ab7-7f7b-4d73-99f2-6531844c787e"},"vehicle_type_id":"4","last_reported":1693883250,"current_range_meters":31200,"station_id":"ce4bgup2rcd13ifvqcn0","pricing_plan_id":"free"},{"bike_id":"0b229bd8-24c5-4bf6-9fdb-7574928bb01b","system_id":"levelo_inurba_marseille","lat":43.304606,"lon":5.379026,"is_reserved":false,"is_disabled":false,"rental_uris":{"android":"levelo://app?vid=0b229bd8-24c5-4bf6-9fdb-7574928bb01b","ios":"levelo://app?vid=0b229bd8-24c5-4bf6-9fdb-7574928bb01b"},"vehicle_type_id":"4","last_reported":1693883250,"current_range_meters":24800,"station_id":"ce4bgup2rcd13ifvqcn0","pricing_plan_id":"free"},{"bike_id":"5439aaa5-707a-4fbb-b496-6db9898ae451","system_id":"levelo_inurba_marseille","lat":43.304606,"lon":5.379026,"is_reserved":false,"is_disabled":false,"rental_uris":{"android":"levelo://app?vid=5439aaa5-707a-4fbb-b496-6db9898ae451","ios":"levelo://app?vid=5439aaa5-707a-4fbb-b496-6db9898ae451"},"vehicle_type_id":"4","last_reported":1693883250,"current_range_meters":21200,"station_id":"ce4bgup2rcd13ifvqcn0","pricing_plan_id":"free"},{"bike_id":"278b9353-6743-4ef0-9651-ef6a39fc05f2","system_id":"levelo_inurba_marseille","lat":43.304606,"lon":5.379026,"is_reserved":false,"is_disabled":false,"rental_uris":{"android":"levelo://app?vid=278b9353-6743-4ef0-9651-ef6a39fc05f2","ios":"levelo://app?vid=278b9353-6743-4ef0-9651-ef6a39fc05f2"},"vehicle_type_id":"4","last_reported":1693883250,"current_range_meters":14000,"station_id":"ce4bgup2rcd13ifvqcn0","pricing_plan_id":"free"},{"bike_id":"43e0e2db-8188-4146-b3af-2bf18c57c3b7","system_id":"levelo_inurba_marseille","lat":43.304606,"lon":5.379026,"is_reserved":false,"is_disabled":false,"rental_uris":{"android":"levelo://app?vid=43e0e2db-8188-4146-b3af-2bf18c57c3b7","ios":"levelo://app?vid=43e0e2db-8188-4146-b3af-2bf18c57c3b7"},"vehicle_type_id":"4","last_reported":1693883250,"current_range_meters":29600,"station_id":"ce4bgup2rcd13ifvqcn0","pricing_plan_id":"free"},{"bike_id":"7d5867d4-30bd-4438-b7ee-87fef165bb36","system_id":"levelo_inurba_marseille","lat":43.304606,"lon":5.379026,"is_reserved":false,"is_disabled":false,"rental_uris":{"android":"levelo://app?vid=7d5867d4-30bd-4438-b7ee-87fef165bb36","ios":"levelo://app?vid=7d5867d4-30bd-4438-b7ee-87fef165bb36"},"vehicle_type_id":"4","last_reported":1693883250,"current_range_meters":30000,"station_id":"ce4bgup2rcd13ifvqcn0","pricing_plan_id":"free"},{"bike_id":"e8ce6267-1c04-45ab-ad77-5912bf720c8f","system_id":"levelo_inurba_marseille","lat":43.302784,"lon":5.377158,"is_reserved":false,"is_disabled":false,"rental_uris":{"android":"levelo://app?vid=e8ce6267-1c04-45ab-ad77-5912bf720c8f","ios":"levelo://app?vid=e8ce6267-1c04-45ab-ad77-5912bf720c8f"},"vehicle_type_id":"4","last_reported":1693883250,"current_range_meters":30400,"station_id":"ce4bguh2rcd13ifvqcj0","pricing_plan_id":"free"},{"bike_id":"187ace81-dedd-4aef-8dd6-455a0c089a41","system_id":"levelo_inurba_marseille","lat":43.30136,"lon":5.37422,"is_reserved":false,"is_disabled":false,"rental_uris":{"android":"levelo://app?vid=187ace81-dedd-4aef-8dd6-455a0c089a41","ios":"levelo://app?vid=187ace81-dedd-4aef-8dd6-455a0c089a41"},"vehicle_type_id":"4","last_reported":1693883250,"current_range_meters":24400,"station_id":"ce4bgs92rcd13ifvqcc0","pricing_plan_id":"free"},{"bike_id":"72c48b69-f749-4616-829f-25746936cbf2","system_id":"levelo_inurba_marseille","lat":43.30138,"lon":5.37431,"is_reserved":false,"is_disabled":false,"rental_uris":{"android":"levelo://app?vid=72c48b69-f749-4616-829f-25746936cbf2","ios":"levelo://app?vid=72c48b69-f749-4616-829f-25746936cbf2"},"vehicle_type_id":"4","last_reported":1693883250,"current_range_meters":8800,"station_id":"ce4bgs92rcd13ifvqcc0","pricing_plan_id":"free"},{"bike_id":"0bb60586-0ad3-480b-99ca-eca9cf4c1663","system_id":"levelo_inurba_marseille","lat":43.31984,"lon":5.38135,"is_reserved":false,"is_disabled":false,"rental_uris":{"android":"levelo://app?vid=0bb60586-0ad3-480b-99ca-eca9cf4c1663","ios":"levelo://app?vid=0bb60586-0ad3-480b-99ca-eca9cf4c1663"},"vehicle_type_id":"4","last_reported":1693883250,"current_range_meters":11600,"station_id":"ce4bhr12rcd13ifvqhpg","pricing_plan_id":"free"},{"bike_id":"22a4d196-e313-4beb-9a62-f12143a190ac","system_id":"levelo_inurba_marseille","lat":43.31999,"lon":5.38141,"is_reserved":false,"is_disabled":false,"rental_uris":{"android":"levelo://app?vid=22a4d196-e313-4beb-9a62-f12143a190ac","ios":"levelo://app?vid=22a4d196-e313-4beb-9a62-f12143a190ac"},"vehicle_type_id":"4","last_reported":1693883250,"current_range_meters":0,"station_id":"ce4bhr12rcd13ifvqhpg","pricing_plan_id":"free"},{"bike_id":"9310fafb-6c97-45dc-82b9-7c9ced073b12","system_id":"levelo_inurba_marseille","lat":43.31996,"lon":5.38145,"is_reserved":false,"is_disabled":false,"rental_uris":{"android":"levelo://app?vid=9310fafb-6c97-45dc-82b9-7c9ced073b12","ios":"levelo://app?vid=9310fafb-6c97-45dc-82b9-7c9ced073b12"},"vehicle_type_id":"4","last_reported":1693883250,"current_range_meters":7600,"station_id":"ce4bhr12rcd13ifvqhpg","pricing_plan_id":"free"},{"bike_id":"1d77c121-1838-48d3-bfb8-1962a07c11f4","system_id":"levelo_inurba_marseille","lat":43.31996,"lon":5.38152,"is_reserved":false,"is_disabled":false,"rental_uris":{"android":"levelo://app?vid=1d77c121-1838-48d3-bfb8-1962a07c11f4","ios":"levelo://app?vid=1d77c121-1838-48d3-bfb8-1962a07c11f4"},"vehicle_type_id":"4","last_reported":1693883250,"current_range_meters":11200,"station_id":"ce4bhr12rcd13ifvqhpg","pricing_plan_id":"free"},{"bike_id":"ebed3dc0-6bb4-4a83-ba7d-246345538842","system_id":"levelo_inurba_marseille","lat":43.313571,"lon":5.384829,"is_reserved":false,"is_disabled":false,"rental_uris":{"android":"levelo://app?vid=ebed3dc0-6bb4-4a83-ba7d-246345538842","ios":"levelo://app?vid=ebed3dc0-6bb4-4a83-ba7d-246345538842"},"vehicle_type_id":"4","last_reported":1693883250,"current_range_meters":2800,"station_id":"ce4bgt92rcd13ifvqcf0","pricing_plan_id":"free"},{"bike_id":"c25c8fbd-db9f-447f-a044-1be3af353cbf","system_id":"levelo_inurba_marseille","lat":43.313571,"lon":5.384829,"is_reserved":false,"is_disabled":false,"rental_uris":{"android":"levelo://app?vid=c25c8fbd-db9f-447f-a044-1be3af353cbf","ios":"levelo://app?vid=c25c8fbd-db9f-447f-a044-1be3af353cbf"},"vehicle_type_id":"4","last_reported":1693883250,"current_range_meters":5200,"station_id":"ce4bgt92rcd13ifvqcf0","pricing_plan_id":"free"},{"bike_id":"09cde896-4fa0-4154-9a65-520cb4ecff0c","system_id":"levelo_inurba_marseille","lat":43.313571,"lon":5.384829,"is_reserved":false,"is_disabled":false,"rental_uris":{"android":"levelo://app?vid=09cde896-4fa0-4154-9a65-520cb4ecff0c","ios":"levelo://app?vid=09cde896-4fa0-4154-9a65-520cb4ecff0c"},"vehicle_type_id":"4","last_reported":1693883250,"current_range_meters":5200,"station_id":"ce4bgt92rcd13ifvqcf0","pricing_plan_id":"free"},{"bike_id":"3545c13f-4a8c-4a6a-bdd7-85b56f20fcf9","system_id":"levelo_inurba_marseille","lat":43.313571,"lon":5.384829,"is_reserved":false,"is_disabled":false,"rental_uris":{"android":"levelo://app?vid=3545c13f-4a8c-4a6a-bdd7-85b56f20fcf9","ios":"levelo://app?vid=3545c13f-4a8c-4a6a-bdd7-85b56f20fcf9"},"vehicle_type_id":"4","last_reported":1693883250,"current_range_meters":26800,"station_id":"ce4bgt92rcd13ifvqcf0","pricing_plan_id":"free"},{"bike_id":"d7da2cf2-ebe6-499e-adf9-82cd4dab8d14","system_id":"levelo_inurba_marseille","lat":43.313571,"lon":5.384829,"is_reserved":false,"is_disabled":false,"rental_uris":{"android":"levelo://app?vid=d7da2cf2-ebe6-499e-adf9-82cd4dab8d14","ios":"levelo://app?vid=d7da2cf2-ebe6-499e-adf9-82cd4dab8d14"},"vehicle_type_id":"4","last_reported":1693883250,"current_range_meters":21600,"station_id":"ce4bgt92rcd13ifvqcf0","pricing_plan_id":"free"},{"bike_id":"46f8c91f-faa6-4986-8367-c5b2fb28dbba","system_id":"levelo_inurba_marseille","lat":43.31365,"lon":5.38497,"is_reserved":false,"is_disabled":false,"rental_uris":{"android":"levelo://app?vid=46f8c91f-faa6-4986-8367-c5b2fb28dbba","ios":"levelo://app?vid=46f8c91f-faa6-4986-8367-c5b2fb28dbba"},"vehicle_type_id":"4","last_reported":1693883250,"current_range_meters":22800,"station_id":"ce4bgt92rcd13ifvqcf0","pricing_plan_id":"free"},{"bike_id":"cff5531b-031d-4ab0-bdb4-212a9e04d70f","system_id":"levelo_inurba_marseille","lat":43.31366,"lon":5.38497,"is_reserved":false,"is_disabled":false,"rental_uris":{"android":"levelo://app?vid=cff5531b-031d-4ab0-bdb4-212a9e04d70f","ios":"levelo://app?vid=cff5531b-031d-4ab0-bdb4-212a9e04d70f"},"vehicle_type_id":"4","last_reported":1693883250,"current_range_meters":2800,"station_id":"ce4bgt92rcd13ifvqcf0","pricing_plan_id":"free"},{"bike_id":"703c3e0c-8258-4cbe-b3e9-4997b79c3620","system_id":"levelo_inurba_marseille","lat":43.313571,"lon":5.384829,"is_reserved":false,"is_disabled":false,"rental_uris":{"android":"levelo://app?vid=703c3e0c-8258-4cbe-b3e9-4997b79c3620","ios":"levelo://app?vid=703c3e0c-8258-4cbe-b3e9-4997b79c3620"},"vehicle_type_id":"4","last_reported":1693883250,"current_range_meters":25200,"station_id":"ce4bgt92rcd13ifvqcf0","pricing_plan_id":"free"},{"bike_id":"f82351c0-4555-4f6a-9724-a404c99069c2","system_id":"levelo_inurba_marseille","lat":43.298433,"lon":5.362774,"is_reserved":false,"is_disabled":false,"rental_uris":{"android":"levelo://app?vid=f82351c0-4555-4f6a-9724-a404c99069c2","ios":"levelo://app?vid=f82351c0-4555-4f6a-9724-a404c99069c2"},"vehicle_type_id":"4","last_reported":1693883250,"current_range_meters":30000,"station_id":"ce4bgpp2rcd13ifvqc3g","pricing_plan_id":"free"},{"bike_id":"1b44c897-6991-4932-a1e8-5093fe90da3c","system_id":"levelo_inurba_marseille","lat":43.298433,"lon":5.362774,"is_reserved":false,"is_disabled":false,"rental_uris":{"android":"levelo://app?vid=1b44c897-6991-4932-a1e8-5093fe90da3c","ios":"levelo://app?vid=1b44c897-6991-4932-a1e8-5093fe90da3c"},"vehicle_type_id":"4","last_reported":1693883250,"current_range_meters":29600,"station_id":"ce4bgpp2rcd13ifvqc3g","pricing_plan_id":"free"},{"bike_id":"f06e5614-9c17-47f9-9fb3-9cf95c9462de","system_id":"levelo_inurba_marseille","lat":43.298433,"lon":5.362774,"is_reserved":false,"is_disabled":false,"rental_uris":{"android":"levelo://app?vid=f06e5614-9c17-47f9-9fb3-9cf95c9462de","ios":"levelo://app?vid=f06e5614-9c17-47f9-9fb3-9cf95c9462de"},"vehicle_type_id":"4","last_reported":1693883250,"current_range_meters":28000,"station_id":"ce4bgpp2rcd13ifvqc3g","pricing_plan_id":"free"},{"bike_id":"3d32a5b7-ed3b-4f11-9570-ddce5a07ed61","system_id":"levelo_inurba_marseille","lat":43.305364,"lon":5.384119,"is_reserved":false,"is_disabled":false,"rental_uris":{"android":"levelo://app?vid=3d32a5b7-ed3b-4f11-9570-ddce5a07ed61","ios":"levelo://app?vid=3d32a5b7-ed3b-4f11-9570-ddce5a07ed61"},"vehicle_type_id":"4","last_reported":1693883250,"current_range_meters":0,"station_id":"ce4bgg92rcd13ifvqb30","pricing_plan_id":"free"},{"bike_id":"28fbbeca-667b-4a38-a3ae-30af03b7ef3c","system_id":"levelo_inurba_marseille","lat":43.30533,"lon":5.38417,"is_reserved":false,"is_disabled":false,"rental_uris":{"android":"levelo://app?vid=28fbbeca-667b-4a38-a3ae-30af03b7ef3c","ios":"levelo://app?vid=28fbbeca-667b-4a38-a3ae-30af03b7ef3c"},"vehicle_type_id":"4","last_reported":1693883250,"current_range_meters":12800,"station_id":"ce4bgg92rcd13ifvqb30","pricing_plan_id":"free"},{"bike_id":"f1867d79-a514-4a1d-bb5f-8604053d0a32","system_id":"levelo_inurba_marseille","lat":43.298433,"lon":5.362774,"is_reserved":false,"is_disabled":false,"rental_uris":{"android":"levelo://app?vid=f1867d79-a514-4a1d-bb5f-8604053d0a32","ios":"levelo://app?vid=f1867d79-a514-4a1d-bb5f-8604053d0a32"},"vehicle_type_id":"4","last_reported":1693883250,"current_range_meters":31200,"station_id":"ce4bgpp2rcd13ifvqc3g","pricing_plan_id":"free"},{"bike_id":"2a9680a5-d4b8-4efc-8679-c7c1931a5d57","system_id":"levelo_inurba_marseille","lat":43.30542,"lon":5.38426,"is_reserved":false,"is_disabled":false,"rental_uris":{"android":"levelo://app?vid=2a9680a5-d4b8-4efc-8679-c7c1931a5d57","ios":"levelo://app?vid=2a9680a5-d4b8-4efc-8679-c7c1931a5d57"},"vehicle_type_id":"4","last_reported":1693883250,"current_range_meters":18400,"station_id":"ce4bgg92rcd13ifvqb30","pricing_plan_id":"free"},{"bike_id":"5846b079-e585-45be-baf3-3d359b29bd3b","system_id":"levelo_inurba_marseille","lat":43.30542,"lon":5.38431,"is_reserved":false,"is_disabled":false,"rental_uris":{"android":"levelo://app?vid=5846b079-e585-45be-baf3-3d359b29bd3b","ios":"levelo://app?vid=5846b079-e585-45be-baf3-3d359b29bd3b"},"vehicle_type_id":"4","last_reported":1693883250,"current_range_meters":6800,"station_id":"ce4bgg92rcd13ifvqb30","pricing_plan_id":"free"},{"bike_id":"f0468e44-2482-4c34-b15a-c5e9912d2452","system_id":"levelo_inurba_marseille","lat":43.311722,"lon":5.387247,"is_reserved":false,"is_disabled":false,"rental_uris":{"android":"levelo://app?vid=f0468e44-2482-4c34-b15a-c5e9912d2452","ios":"levelo://app?vid=f0468e44-2482-4c34-b15a-c5e9912d2452"},"vehicle_type_id":"4","last_reported":1693883250,"current_range_meters":27200,"station_id":"ce4bgv12rcd13ifvqcp0","pricing_plan_id":"free"},{"bike_id":"ada7a937-66ee-4971-8691-52114d34676e","system_id":"levelo_inurba_marseille","lat":43.311722,"lon":5.387247,"is_reserved":false,"is_disabled":false,"rental_uris":{"android":"levelo://app?vid=ada7a937-66ee-4971-8691-52114d34676e","ios":"levelo://app?vid=ada7a937-66ee-4971-8691-52114d34676e"},"vehicle_type_id":"4","last_reported":1693883250,"current_range_meters":31200,"station_id":"ce4bgv12rcd13ifvqcp0","pricing_plan_id":"free"},{"bike_id":"20d1e00f-63c3-4464-9f36-3b34b0f8a618","system_id":"levelo_inurba_marseille","lat":43.311722,"lon":5.387247,"is_reserved":false,"is_disabled":false,"rental_uris":{"android":"levelo://app?vid=20d1e00f-63c3-4464-9f36-3b34b0f8a618","ios":"levelo://app?vid=20d1e00f-63c3-4464-9f36-3b34b0f8a618"},"vehicle_type_id":"4","last_reported":1693883250,"current_range_meters":31200,"station_id":"ce4bgv12rcd13ifvqcp0","pricing_plan_id":"free"},{"bike_id":"ba8542c3-2d27-45eb-b4db-3753e50962e6","system_id":"levelo_inurba_marseille","lat":43.311722,"lon":5.387247,"is_reserved":false,"is_disabled":false,"rental_uris":{"android":"levelo://app?vid=ba8542c3-2d27-45eb-b4db-3753e50962e6","ios":"levelo://app?vid=ba8542c3-2d27-45eb-b4db-3753e50962e6"},"vehicle_type_id":"4","last_reported":1693883250,"current_range_meters":31200,"station_id":"ce4bgv12rcd13ifvqcp0","pricing_plan_id":"free"},{"bike_id":"b5472f3b-71e2-4fc7-8423-38d2230615f5","system_id":"levelo_inurba_marseille","lat":43.311722,"lon":5.387247,"is_reserved":false,"is_disabled":false,"rental_uris":{"android":"levelo://app?vid=b5472f3b-71e2-4fc7-8423-38d2230615f5","ios":"levelo://app?vid=b5472f3b-71e2-4fc7-8423-38d2230615f5"},"vehicle_type_id":"4","last_reported":1693883250,"current_range_meters":31200,"station_id":"ce4bgv12rcd13ifvqcp0","pricing_plan_id":"free"},{"bike_id":"52519880-ea9d-428a-984f-b223fc0835b7","system_id":"levelo_inurba_marseille","lat":43.29907,"lon":5.37471,"is_reserved":false,"is_disabled":false,"rental_uris":{"android":"levelo://app?vid=52519880-ea9d-428a-984f-b223fc0835b7","ios":"levelo://app?vid=52519880-ea9d-428a-984f-b223fc0835b7"},"vehicle_type_id":"4","last_reported":1693883250,"current_range_meters":26400,"station_id":"ce4bgjh2rcd13ifvqbg0","pricing_plan_id":"free"},{"bike_id":"b0ec039f-4da1-469b-b753-1202be3fe1f1","system_id":"levelo_inurba_marseille","lat":43.311722,"lon":5.387247,"is_reserved":false,"is_disabled":false,"rental_uris":{"android":"levelo://app?vid=b0ec039f-4da1-469b-b753-1202be3fe1f1","ios":"levelo://app?vid=b0ec039f-4da1-469b-b753-1202be3fe1f1"},"vehicle_type_id":"4","last_reported":1693883250,"current_range_meters":23200,"station_id":"ce4bgv12rcd13ifvqcp0","pricing_plan_id":"free"},{"bike_id":"0dd5ca09-aade-48a6-9717-3ce26cbf2a63","system_id":"levelo_inurba_marseille","lat":43.297794,"lon":5.370888,"is_reserved":false,"is_disabled":false,"rental_uris":{"android":"levelo://app?vid=0dd5ca09-aade-48a6-9717-3ce26cbf2a63","ios":"levelo://app?vid=0dd5ca09-aade-48a6-9717-3ce26cbf2a63"},"vehicle_type_id":"4","last_reported":1693883250,"current_range_meters":29200,"station_id":"ce4bgop2rcd13ifvqc1g","pricing_plan_id":"free"},{"bike_id":"8143ebd5-c5c5-467f-a353-1c0066f90341","system_id":"levelo_inurba_marseille","lat":43.297794,"lon":5.370888,"is_reserved":false,"is_disabled":false,"rental_uris":{"android":"levelo://app?vid=8143ebd5-c5c5-467f-a353-1c0066f90341","ios":"levelo://app?vid=8143ebd5-c5c5-467f-a353-1c0066f90341"},"vehicle_type_id":"4","last_reported":1693883250,"current_range_meters":31200,"station_id":"ce4bgop2rcd13ifvqc1g","pricing_plan_id":"free"},{"bike_id":"924d6452-f7f7-4baa-af9a-49926af70474","system_id":"levelo_inurba_marseille","lat":43.297774,"lon":5.370875,"is_reserved":false,"is_disabled":false,"rental_uris":{"android":"levelo://app?vid=924d6452-f7f7-4baa-af9a-49926af70474","ios":"levelo://app?vid=924d6452-f7f7-4baa-af9a-49926af70474"},"vehicle_type_id":"4","last_reported":1693883250,"current_range_meters":25600,"station_id":"ce4bgop2rcd13ifvqc1g","pricing_plan_id":"free"},{"bike_id":"f28a3082-cd37-4458-b30f-e810aae428dc","system_id":"levelo_inurba_marseille","lat":43.32286,"lon":5.38271,"is_reserved":false,"is_disabled":false,"rental_uris":{"android":"levelo://app?vid=f28a3082-cd37-4458-b30f-e810aae428dc","ios":"levelo://app?vid=f28a3082-cd37-4458-b30f-e810aae428dc"},"vehicle_type_id":"4","last_reported":1693883250,"current_range_meters":0,"station_id":"ce4bhr12rcd13ifvqhqg","pricing_plan_id":"free"},{"bike_id":"f886016f-4a6e-4182-9f19-1c29bddcb63d","system_id":"levelo_inurba_marseille","lat":43.32356,"lon":5.38184,"is_reserved":false,"is_disabled":false,"rental_uris":{"android":"levelo://app?vid=f886016f-4a6e-4182-9f19-1c29bddcb63d","ios":"levelo://app?vid=f886016f-4a6e-4182-9f19-1c29bddcb63d"},"vehicle_type_id":"4","last_reported":1693883250,"current_range_meters":29200,"station_id":"","pricing_plan_id":"free"},{"bike_id":"91ea9428-3786-4b7f-8e6f-d1949c9cdb30","system_id":"levelo_inurba_marseille","lat":43.32815,"lon":5.36681,"is_reserved":false,"is_disabled":false,"rental_uris":{"android":"levelo://app?vid=91ea9428-3786-4b7f-8e6f-d1949c9cdb30","ios":"levelo://app?vid=91ea9428-3786-4b7f-8e6f-d1949c9cdb30"},"vehicle_type_id":"4","last_reported":1693883250,"current_range_meters":16400,"station_id":"ce4bhs92rcd13ifvqi0g","pricing_plan_id":"free"},{"bike_id":"4edea5eb-d93a-472e-94e0-474262eec603","system_id":"levelo_inurba_marseille","lat":43.32822,"lon":5.36682,"is_reserved":false,"is_disabled":false,"rental_uris":{"android":"levelo://app?vid=4edea5eb-d93a-472e-94e0-474262eec603","ios":"levelo://app?vid=4edea5eb-d93a-472e-94e0-474262eec603"},"vehicle_type_id":"4","last_reported":1693883250,"current_range_meters":22800,"station_id":"ce4bhs92rcd13ifvqi0g","pricing_plan_id":"free"},{"bike_id":"4389cb7c-879a-4ba0-8c5d-b530ea545266","system_id":"levelo_inurba_marseille","lat":43.328371,"lon":5.366909,"is_reserved":false,"is_disabled":false,"rental_uris":{"android":"levelo://app?vid=4389cb7c-879a-4ba0-8c5d-b530ea545266","ios":"levelo://app?vid=4389cb7c-879a-4ba0-8c5d-b530ea545266"},"vehicle_type_id":"4","last_reported":1693883250,"current_range_meters":25600,"station_id":"ce4bhs92rcd13ifvqi0g","pricing_plan_id":"free"},{"bike_id":"9d476c06-318d-48a5-814e-254dbe92cd00","system_id":"levelo_inurba_marseille","lat":43.32824,"lon":5.36667,"is_reserved":false,"is_disabled":false,"rental_uris":{"android":"levelo://app?vid=9d476c06-318d-48a5-814e-254dbe92cd00","ios":"levelo://app?vid=9d476c06-318d-48a5-814e-254dbe92cd00"},"vehicle_type_id":"4","last_reported":1693883250,"current_range_meters":18400,"station_id":"ce4bhs92rcd13ifvqi0g","pricing_plan_id":"free"},{"bike_id":"b98bd76f-aa55-4de0-ab24-ceefb64eab64","system_id":"levelo_inurba_marseille","lat":43.328371,"lon":5.366909,"is_reserved":false,"is_disabled":false,"rental_uris":{"android":"levelo://app?vid=b98bd76f-aa55-4de0-ab24-ceefb64eab64","ios":"levelo://app?vid=b98bd76f-aa55-4de0-ab24-ceefb64eab64"},"vehicle_type_id":"4","last_reported":1693883250,"current_range_meters":21200,"station_id":"ce4bhs92rcd13ifvqi0g","pricing_plan_id":"free"},{"bike_id":"f44599d1-39b0-4f24-bfd2-bb4b6a18c570","system_id":"levelo_inurba_marseille","lat":43.32826,"lon":5.36679,"is_reserved":false,"is_disabled":false,"rental_uris":{"android":"levelo://app?vid=f44599d1-39b0-4f24-bfd2-bb4b6a18c570","ios":"levelo://app?vid=f44599d1-39b0-4f24-bfd2-bb4b6a18c570"},"vehicle_type_id":"4","last_reported":1693883250,"current_range_meters":6400,"station_id":"ce4bhs92rcd13ifvqi0g","pricing_plan_id":"free"},{"bike_id":"0edcdf43-c756-4369-a87c-c0e4e4f3357c","system_id":"levelo_inurba_marseille","lat":43.32829,"lon":5.36678,"is_reserved":false,"is_disabled":false,"rental_uris":{"android":"levelo://app?vid=0edcdf43-c756-4369-a87c-c0e4e4f3357c","ios":"levelo://app?vid=0edcdf43-c756-4369-a87c-c0e4e4f3357c"},"vehicle_type_id":"4","last_reported":1693883250,"current_range_meters":19200,"station_id":"ce4bhs92rcd13ifvqi0g","pricing_plan_id":"free"},{"bike_id":"1a78fd1d-f270-41c6-bd69-bfb0dd6a5460","system_id":"levelo_inurba_marseille","lat":43.328371,"lon":5.366909,"is_reserved":false,"is_disabled":false,"rental_uris":{"android":"levelo://app?vid=1a78fd1d-f270-41c6-bd69-bfb0dd6a5460","ios":"levelo://app?vid=1a78fd1d-f270-41c6-bd69-bfb0dd6a5460"},"vehicle_type_id":"4","last_reported":1693883250,"current_range_meters":20000,"station_id":"ce4bhs92rcd13ifvqi0g","pricing_plan_id":"free"},{"bike_id":"7f26636b-1301-408d-9c23-cac35be6c071","system_id":"levelo_inurba_marseille","lat":43.297163,"lon":5.365866,"is_reserved":false,"is_disabled":false,"rental_uris":{"android":"levelo://app?vid=7f26636b-1301-408d-9c23-cac35be6c071","ios":"levelo://app?vid=7f26636b-1301-408d-9c23-cac35be6c071"},"vehicle_type_id":"4","last_reported":1693883250,"current_range_meters":27600,"station_id":"ce4bgn12rcd13ifvqbt0","pricing_plan_id":"free"},{"bike_id":"ffbb1df4-ae72-4a20-8e30-a3e51b49c5c0","system_id":"levelo_inurba_marseille","lat":43.32838,"lon":5.36691,"is_reserved":false,"is_disabled":false,"rental_uris":{"android":"levelo://app?vid=ffbb1df4-ae72-4a20-8e30-a3e51b49c5c0","ios":"levelo://app?vid=ffbb1df4-ae72-4a20-8e30-a3e51b49c5c0"},"vehicle_type_id":"4","last_reported":1693883250,"current_range_meters":0,"station_id":"ce4bhs92rcd13ifvqi0g","pricing_plan_id":"free"},{"bike_id":"bd0bd295-6ecc-40c4-a4d0-89f645593756","system_id":"levelo_inurba_marseille","lat":43.297163,"lon":5.365866,"is_reserved":false,"is_disabled":false,"rental_uris":{"android":"levelo://app?vid=bd0bd295-6ecc-40c4-a4d0-89f645593756","ios":"levelo://app?vid=bd0bd295-6ecc-40c4-a4d0-89f645593756"},"vehicle_type_id":"4","last_reported":1693883250,"current_range_meters":20400,"station_id":"ce4bgn12rcd13ifvqbt0","pricing_plan_id":"free"},{"bike_id":"dd789220-e7b5-42c1-b9dc-dc4243148021","system_id":"levelo_inurba_marseille","lat":43.29698,"lon":5.3661,"is_reserved":false,"is_disabled":false,"rental_uris":{"android":"levelo://app?vid=dd789220-e7b5-42c1-b9dc-dc4243148021","ios":"levelo://app?vid=dd789220-e7b5-42c1-b9dc-dc4243148021"},"vehicle_type_id":"4","last_reported":1693883250,"current_range_meters":22400,"station_id":"ce4bgn12rcd13ifvqbt0","pricing_plan_id":"free"},{"bike_id":"dbbf0e8c-40a1-42c7-a794-9369364932a2","system_id":"levelo_inurba_marseille","lat":43.2968,"lon":5.37291,"is_reserved":false,"is_disabled":false,"rental_uris":{"android":"levelo://app?vid=dbbf0e8c-40a1-42c7-a794-9369364932a2","ios":"levelo://app?vid=dbbf0e8c-40a1-42c7-a794-9369364932a2"},"vehicle_type_id":"4","last_reported":1693883250,"current_range_meters":30400,"station_id":"ce4bgk12rcd13ifvqbj0","pricing_plan_id":"free"},{"bike_id":"92aab65f-6c91-4671-a97e-560f3b2e5c17","system_id":"levelo_inurba_marseille","lat":43.2968,"lon":5.37291,"is_reserved":false,"is_disabled":false,"rental_uris":{"android":"levelo://app?vid=92aab65f-6c91-4671-a97e-560f3b2e5c17","ios":"levelo://app?vid=92aab65f-6c91-4671-a97e-560f3b2e5c17"},"vehicle_type_id":"4","last_reported":1693883250,"current_range_meters":27200,"station_id":"ce4bgk12rcd13ifvqbj0","pricing_plan_id":"free"},{"bike_id":"c4461625-72f8-4a7e-8209-07469ef533ad","system_id":"levelo_inurba_marseille","lat":43.296131,"lon":5.370791,"is_reserved":false,"is_disabled":false,"rental_uris":{"android":"levelo://app?vid=c4461625-72f8-4a7e-8209-07469ef533ad","ios":"levelo://app?vid=c4461625-72f8-4a7e-8209-07469ef533ad"},"vehicle_type_id":"4","last_reported":1693883250,"current_range_meters":17600,"station_id":"ce4bgnh2rcd13ifvqc0g","pricing_plan_id":"free"},{"bike_id":"d3139180-8ba9-4c91-b6e4-8baae3c22113","system_id":"levelo_inurba_marseille","lat":43.296131,"lon":5.370773,"is_reserved":false,"is_disabled":false,"rental_uris":{"android":"levelo://app?vid=d3139180-8ba9-4c91-b6e4-8baae3c22113","ios":"levelo://app?vid=d3139180-8ba9-4c91-b6e4-8baae3c22113"},"vehicle_type_id":"4","last_reported":1693883250,"current_range_meters":31200,"station_id":"ce4bgnh2rcd13ifvqc0g","pricing_plan_id":"free"},{"bike_id":"58a62ac3-928e-4e54-9677-ee93f747a816","system_id":"levelo_inurba_marseille","lat":43.29573,"lon":5.367355,"is_reserved":false,"is_disabled":false,"rental_uris":{"android":"levelo://app?vid=58a62ac3-928e-4e54-9677-ee93f747a816","ios":"levelo://app?vid=58a62ac3-928e-4e54-9677-ee93f747a816"},"vehicle_type_id":"4","last_reported":1693883250,"current_range_meters":28000,"station_id":"ce4bgph2rcd13ifvqc2g","pricing_plan_id":"free"},{"bike_id":"fc42ed91-c50d-4695-ad8c-0331512a57a5","system_id":"levelo_inurba_marseille","lat":43.296921,"lon":5.376579,"is_reserved":false,"is_disabled":false,"rental_uris":{"android":"levelo://app?vid=fc42ed91-c50d-4695-ad8c-0331512a57a5","ios":"levelo://app?vid=fc42ed91-c50d-4695-ad8c-0331512a57a5"},"vehicle_type_id":"4","last_reported":1693883250,"current_range_meters":30000,"station_id":"ce4bgkh2rcd13ifvqbl0","pricing_plan_id":"free"},{"bike_id":"9bd32893-81e2-4cc8-a0c2-9029c6ac5ac9","system_id":"levelo_inurba_marseille","lat":43.32118,"lon":5.38744,"is_reserved":false,"is_disabled":false,"rental_uris":{"android":"levelo://app?vid=9bd32893-81e2-4cc8-a0c2-9029c6ac5ac9","ios":"levelo://app?vid=9bd32893-81e2-4cc8-a0c2-9029c6ac5ac9"},"vehicle_type_id":"4","last_reported":1693883250,"current_range_meters":0,"station_id":"","pricing_plan_id":"free"},{"bike_id":"e2f5156e-1ac9-4cbc-98c6-4363b5a12206","system_id":"levelo_inurba_marseille","lat":43.299028,"lon":5.381509,"is_reserved":false,"is_disabled":false,"rental_uris":{"android":"levelo://app?vid=e2f5156e-1ac9-4cbc-98c6-4363b5a12206","ios":"levelo://app?vid=e2f5156e-1ac9-4cbc-98c6-4363b5a12206"},"vehicle_type_id":"4","last_reported":1693883250,"current_range_meters":27200,"station_id":"ce4bgj12rcd13ifvqbc0","pricing_plan_id":"free"},{"bike_id":"6532681e-44cf-44b1-806b-3d95924be0c1","system_id":"levelo_inurba_marseille","lat":43.299028,"lon":5.381509,"is_reserved":false,"is_disabled":false,"rental_uris":{"android":"levelo://app?vid=6532681e-44cf-44b1-806b-3d95924be0c1","ios":"levelo://app?vid=6532681e-44cf-44b1-806b-3d95924be0c1"},"vehicle_type_id":"4","last_reported":1693883250,"current_range_meters":28800,"station_id":"ce4bgj12rcd13ifvqbc0","pricing_plan_id":"free"},{"bike_id":"a68b6883-3197-45d5-aa89-7774a42ebdf0","system_id":"levelo_inurba_marseille","lat":43.30956,"lon":5.39036,"is_reserved":false,"is_disabled":false,"rental_uris":{"android":"levelo://app?vid=a68b6883-3197-45d5-aa89-7774a42ebdf0","ios":"levelo://app?vid=a68b6883-3197-45d5-aa89-7774a42ebdf0"},"vehicle_type_id":"4","last_reported":1693883250,"current_range_meters":17200,"station_id":"ce4bgup2rcd13ifvqco0","pricing_plan_id":"free"},{"bike_id":"3bf7e77b-b9c6-4463-99bb-432ec71fbb78","system_id":"levelo_inurba_marseille","lat":43.309589,"lon":5.390258,"is_reserved":false,"is_disabled":false,"rental_uris":{"android":"levelo://app?vid=3bf7e77b-b9c6-4463-99bb-432ec71fbb78","ios":"levelo://app?vid=3bf7e77b-b9c6-4463-99bb-432ec71fbb78"},"vehicle_type_id":"4","last_reported":1693883250,"current_range_meters":31200,"station_id":"ce4bgup2rcd13ifvqco0","pricing_plan_id":"free"},{"bike_id":"6e7b8265-4fe0-45b2-b67a-80e04fe6b010","system_id":"levelo_inurba_marseille","lat":43.30961,"lon":5.39043,"is_reserved":false,"is_disabled":false,"rental_uris":{"android":"levelo://app?vid=6e7b8265-4fe0-45b2-b67a-80e04fe6b010","ios":"levelo://app?vid=6e7b8265-4fe0-45b2-b67a-80e04fe6b010"},"vehicle_type_id":"4","last_reported":1693883250,"current_range_meters":30400,"station_id":"ce4bgup2rcd13ifvqco0","pricing_plan_id":"free"},{"bike_id":"332d9f93-ca2d-40ce-b6fe-723d910635d7","system_id":"levelo_inurba_marseille","lat":43.30946,"lon":5.39041,"is_reserved":false,"is_disabled":false,"rental_uris":{"android":"levelo://app?vid=332d9f93-ca2d-40ce-b6fe-723d910635d7","ios":"levelo://app?vid=332d9f93-ca2d-40ce-b6fe-723d910635d7"},"vehicle_type_id":"4","last_reported":1693883250,"current_range_meters":12400,"station_id":"ce4bgup2rcd13ifvqco0","pricing_plan_id":"free"},{"bike_id":"89a17659-3339-42b4-984b-32d1c2fd3cbf","system_id":"levelo_inurba_marseille","lat":43.30955,"lon":5.39044,"is_reserved":false,"is_disabled":false,"rental_uris":{"android":"levelo://app?vid=89a17659-3339-42b4-984b-32d1c2fd3cbf","ios":"levelo://app?vid=89a17659-3339-42b4-984b-32d1c2fd3cbf"},"vehicle_type_id":"4","last_reported":1693883250,"current_range_meters":31200,"station_id":"ce4bgup2rcd13ifvqco0","pricing_plan_id":"free"},{"bike_id":"10531b86-7567-41ed-842a-d89de8bf7d70","system_id":"levelo_inurba_marseille","lat":43.309589,"lon":5.390258,"is_reserved":false,"is_disabled":false,"rental_uris":{"android":"levelo://app?vid=10531b86-7567-41ed-842a-d89de8bf7d70","ios":"levelo://app?vid=10531b86-7567-41ed-842a-d89de8bf7d70"},"vehicle_type_id":"4","last_reported":1693883250,"current_range_meters":31200,"station_id":"ce4bgup2rcd13ifvqco0","pricing_plan_id":"free"},{"bike_id":"de0bc86f-af70-4d40-801c-fce3a55086a1","system_id":"levelo_inurba_marseille","lat":43.30958,"lon":5.39049,"is_reserved":false,"is_disabled":false,"rental_uris":{"android":"levelo://app?vid=de0bc86f-af70-4d40-801c-fce3a55086a1","ios":"levelo://app?vid=de0bc86f-af70-4d40-801c-fce3a55086a1"},"vehicle_type_id":"4","last_reported":1693883250,"current_range_meters":0,"station_id":"ce4bgup2rcd13ifvqco0","pricing_plan_id":"free"},{"bike_id":"54cfea95-ab9c-436c-b4ab-5aa531693507","system_id":"levelo_inurba_marseille","lat":43.309589,"lon":5.390258,"is_reserved":false,"is_disabled":false,"rental_uris":{"android":"levelo://app?vid=54cfea95-ab9c-436c-b4ab-5aa531693507","ios":"levelo://app?vid=54cfea95-ab9c-436c-b4ab-5aa531693507"},"vehicle_type_id":"4","last_reported":1693883250,"current_range_meters":31200,"station_id":"ce4bgup2rcd13ifvqco0","pricing_plan_id":"free"},{"bike_id":"69513c0f-f378-4dd3-961e-3a7cdada4d39","system_id":"levelo_inurba_marseille","lat":43.309589,"lon":5.390258,"is_reserved":false,"is_disabled":false,"rental_uris":{"android":"levelo://app?vid=69513c0f-f378-4dd3-961e-3a7cdada4d39","ios":"levelo://app?vid=69513c0f-f378-4dd3-961e-3a7cdada4d39"},"vehicle_type_id":"4","last_reported":1693883250,"current_range_meters":31200,"station_id":"ce4bgup2rcd13ifvqco0","pricing_plan_id":"free"},{"bike_id":"d55a21a1-b14c-4055-b6d7-885b83f3cac2","system_id":"levelo_inurba_marseille","lat":43.30955,"lon":5.39057,"is_reserved":false,"is_disabled":false,"rental_uris":{"android":"levelo://app?vid=d55a21a1-b14c-4055-b6d7-885b83f3cac2","ios":"levelo://app?vid=d55a21a1-b14c-4055-b6d7-885b83f3cac2"},"vehicle_type_id":"4","last_reported":1693883250,"current_range_meters":30000,"station_id":"ce4bgup2rcd13ifvqco0","pricing_plan_id":"free"},{"bike_id":"2c93ce6f-c5e1-4ec9-9941-ebb7469bb8f2","system_id":"levelo_inurba_marseille","lat":43.31763,"lon":5.39005,"is_reserved":false,"is_disabled":false,"rental_uris":{"android":"levelo://app?vid=2c93ce6f-c5e1-4ec9-9941-ebb7469bb8f2","ios":"levelo://app?vid=2c93ce6f-c5e1-4ec9-9941-ebb7469bb8f2"},"vehicle_type_id":"4","last_reported":1693883250,"current_range_meters":6400,"station_id":"ce4bhqp2rcd13ifvqhng","pricing_plan_id":"free"},{"bike_id":"197d08e6-8e4a-4bfe-a556-8bc674f6286f","system_id":"levelo_inurba_marseille","lat":43.31742,"lon":5.39022,"is_reserved":false,"is_disabled":false,"rental_uris":{"android":"levelo://app?vid=197d08e6-8e4a-4bfe-a556-8bc674f6286f","ios":"levelo://app?vid=197d08e6-8e4a-4bfe-a556-8bc674f6286f"},"vehicle_type_id":"4","last_reported":1693883250,"current_range_meters":26000,"station_id":"ce4bhqp2rcd13ifvqhng","pricing_plan_id":"free"},{"bike_id":"2ec01f87-99aa-497c-bbfe-3898107b3335","system_id":"levelo_inurba_marseille","lat":43.317557,"lon":5.390173,"is_reserved":false,"is_disabled":false,"rental_uris":{"android":"levelo://app?vid=2ec01f87-99aa-497c-bbfe-3898107b3335","ios":"levelo://app?vid=2ec01f87-99aa-497c-bbfe-3898107b3335"},"vehicle_type_id":"4","last_reported":1693883250,"current_range_meters":30400,"station_id":"ce4bhqp2rcd13ifvqhng","pricing_plan_id":"free"},{"bike_id":"0b936710-6166-4381-9415-800daf222908","system_id":"levelo_inurba_marseille","lat":43.31757,"lon":5.39021,"is_reserved":false,"is_disabled":false,"rental_uris":{"android":"levelo://app?vid=0b936710-6166-4381-9415-800daf222908","ios":"levelo://app?vid=0b936710-6166-4381-9415-800daf222908"},"vehicle_type_id":"4","last_reported":1693883250,"current_range_meters":25600,"station_id":"ce4bhqp2rcd13ifvqhng","pricing_plan_id":"free"},{"bike_id":"ff479914-554d-4da3-aa9c-1c27d4393910","system_id":"levelo_inurba_marseille","lat":43.32336,"lon":5.38644,"is_reserved":false,"is_disabled":false,"rental_uris":{"android":"levelo://app?vid=ff479914-554d-4da3-aa9c-1c27d4393910","ios":"levelo://app?vid=ff479914-554d-4da3-aa9c-1c27d4393910"},"vehicle_type_id":"4","last_reported":1693883250,"current_range_meters":28800,"station_id":"","pricing_plan_id":"free"},{"bike_id":"4ed6ed66-d63b-4295-82c7-558b386ba223","system_id":"levelo_inurba_marseille","lat":43.298037,"lon":5.381066,"is_reserved":false,"is_disabled":false,"rental_uris":{"android":"levelo://app?vid=4ed6ed66-d63b-4295-82c7-558b386ba223","ios":"levelo://app?vid=4ed6ed66-d63b-4295-82c7-558b386ba223"},"vehicle_type_id":"4","last_reported":1693883250,"current_range_meters":0,"station_id":"ce4bgip2rcd13ifvqbb0","pricing_plan_id":"free"},{"bike_id":"f1c7fd94-31b7-4d7b-829f-bb3e3b6e289b","system_id":"levelo_inurba_marseille","lat":43.29791,"lon":5.38092,"is_reserved":false,"is_disabled":false,"rental_uris":{"android":"levelo://app?vid=f1c7fd94-31b7-4d7b-829f-bb3e3b6e289b","ios":"levelo://app?vid=f1c7fd94-31b7-4d7b-829f-bb3e3b6e289b"},"vehicle_type_id":"4","last_reported":1693883250,"current_range_meters":31200,"station_id":"ce4bgip2rcd13ifvqbb0","pricing_plan_id":"free"},{"bike_id":"59cfe946-c282-4c22-9838-1afa47ac1e33","system_id":"levelo_inurba_marseille","lat":43.30429,"lon":5.3888,"is_reserved":false,"is_disabled":false,"rental_uris":{"android":"levelo://app?vid=59cfe946-c282-4c22-9838-1afa47ac1e33","ios":"levelo://app?vid=59cfe946-c282-4c22-9838-1afa47ac1e33"},"vehicle_type_id":"4","last_reported":1693883250,"current_range_meters":6800,"station_id":"ce4bgk12rcd13ifvqbi0","pricing_plan_id":"free"},{"bike_id":"6de9dc32-29cd-42fb-acfe-97dd6dd1f079","system_id":"levelo_inurba_marseille","lat":43.295748,"lon":5.37522,"is_reserved":false,"is_disabled":false,"rental_uris":{"android":"levelo://app?vid=6de9dc32-29cd-42fb-acfe-97dd6dd1f079","ios":"levelo://app?vid=6de9dc32-29cd-42fb-acfe-97dd6dd1f079"},"vehicle_type_id":"4","last_reported":1693883250,"current_range_meters":27600,"station_id":"ce4bgh92rcd13ifvqb50","pricing_plan_id":"free"},{"bike_id":"0ff30e55-dd6d-4917-a931-f896697bd3f3","system_id":"levelo_inurba_marseille","lat":43.30432,"lon":5.38889,"is_reserved":false,"is_disabled":false,"rental_uris":{"android":"levelo://app?vid=0ff30e55-dd6d-4917-a931-f896697bd3f3","ios":"levelo://app?vid=0ff30e55-dd6d-4917-a931-f896697bd3f3"},"vehicle_type_id":"4","last_reported":1693883250,"current_range_meters":14000,"station_id":"ce4bgk12rcd13ifvqbi0","pricing_plan_id":"free"},{"bike_id":"65d2be8c-66cd-4620-ac29-e8dbd81e3608","system_id":"levelo_inurba_marseille","lat":43.30434,"lon":5.38891,"is_reserved":false,"is_disabled":false,"rental_uris":{"android":"levelo://app?vid=65d2be8c-66cd-4620-ac29-e8dbd81e3608","ios":"levelo://app?vid=65d2be8c-66cd-4620-ac29-e8dbd81e3608"},"vehicle_type_id":"4","last_reported":1693883250,"current_range_meters":9200,"station_id":"ce4bgk12rcd13ifvqbi0","pricing_plan_id":"free"},{"bike_id":"c8153671-8629-43a0-b78c-e97d88ed9619","system_id":"levelo_inurba_marseille","lat":43.30435,"lon":5.38896,"is_reserved":false,"is_disabled":false,"rental_uris":{"android":"levelo://app?vid=c8153671-8629-43a0-b78c-e97d88ed9619","ios":"levelo://app?vid=c8153671-8629-43a0-b78c-e97d88ed9619"},"vehicle_type_id":"4","last_reported":1693883250,"current_range_meters":0,"station_id":"ce4bgk12rcd13ifvqbi0","pricing_plan_id":"free"},{"bike_id":"92c6c698-8c38-4c1f-9f0f-1d32a984b0d3","system_id":"levelo_inurba_marseille","lat":43.30431,"lon":5.38894,"is_reserved":false,"is_disabled":false,"rental_uris":{"android":"levelo://app?vid=92c6c698-8c38-4c1f-9f0f-1d32a984b0d3","ios":"levelo://app?vid=92c6c698-8c38-4c1f-9f0f-1d32a984b0d3"},"vehicle_type_id":"4","last_reported":1693883250,"current_range_meters":25200,"station_id":"ce4bgk12rcd13ifvqbi0","pricing_plan_id":"free"},{"bike_id":"4f2f68b7-f9d7-4150-b02d-8d9e36cabfec","system_id":"levelo_inurba_marseille","lat":43.30433,"lon":5.38896,"is_reserved":false,"is_disabled":false,"rental_uris":{"android":"levelo://app?vid=4f2f68b7-f9d7-4150-b02d-8d9e36cabfec","ios":"levelo://app?vid=4f2f68b7-f9d7-4150-b02d-8d9e36cabfec"},"vehicle_type_id":"4","last_reported":1693883250,"current_range_meters":1200,"station_id":"ce4bgk12rcd13ifvqbi0","pricing_plan_id":"free"},{"bike_id":"4085e8cf-de80-44b6-a2ab-0a39f2d53c27","system_id":"levelo_inurba_marseille","lat":43.296277,"lon":5.377108,"is_reserved":false,"is_disabled":false,"rental_uris":{"android":"levelo://app?vid=4085e8cf-de80-44b6-a2ab-0a39f2d53c27","ios":"levelo://app?vid=4085e8cf-de80-44b6-a2ab-0a39f2d53c27"},"vehicle_type_id":"4","last_reported":1693883250,"current_range_meters":27600,"station_id":"ce4bgi92rcd13ifvqb90","pricing_plan_id":"free"},{"bike_id":"c63d6607-6570-44f4-92d0-33213082004d","system_id":"levelo_inurba_marseille","lat":43.296263,"lon":5.377094,"is_reserved":false,"is_disabled":false,"rental_uris":{"android":"levelo://app?vid=c63d6607-6570-44f4-92d0-33213082004d","ios":"levelo://app?vid=c63d6607-6570-44f4-92d0-33213082004d"},"vehicle_type_id":"4","last_reported":1693883250,"current_range_meters":27200,"station_id":"ce4bgi92rcd13ifvqb90","pricing_plan_id":"free"},{"bike_id":"47d487a4-d09d-4f3f-9e52-0b9ad0906f7a","system_id":"levelo_inurba_marseille","lat":43.29555,"lon":5.37531,"is_reserved":false,"is_disabled":false,"rental_uris":{"android":"levelo://app?vid=47d487a4-d09d-4f3f-9e52-0b9ad0906f7a","ios":"levelo://app?vid=47d487a4-d09d-4f3f-9e52-0b9ad0906f7a"},"vehicle_type_id":"4","last_reported":1693883250,"current_range_meters":12400,"station_id":"ce4bgh92rcd13ifvqb50","pricing_plan_id":"free"},{"bike_id":"2c0e3235-9d47-400c-96c8-21d2f240b45c","system_id":"levelo_inurba_marseille","lat":43.299707,"lon":5.384859,"is_reserved":false,"is_disabled":false,"rental_uris":{"android":"levelo://app?vid=2c0e3235-9d47-400c-96c8-21d2f240b45c","ios":"levelo://app?vid=2c0e3235-9d47-400c-96c8-21d2f240b45c"},"vehicle_type_id":"4","last_reported":1693883250,"current_range_meters":31200,"station_id":"ce4bgj92rcd13ifvqbd0","pricing_plan_id":"free"},{"bike_id":"58e7cef4-5099-4135-ad41-27847613d478","system_id":"levelo_inurba_marseille","lat":43.299707,"lon":5.384859,"is_reserved":false,"is_disabled":false,"rental_uris":{"android":"levelo://app?vid=58e7cef4-5099-4135-ad41-27847613d478","ios":"levelo://app?vid=58e7cef4-5099-4135-ad41-27847613d478"},"vehicle_type_id":"4","last_reported":1693883250,"current_range_meters":14400,"station_id":"ce4bgj92rcd13ifvqbd0","pricing_plan_id":"free"},{"bike_id":"134b14c2-7ec8-499b-8ab8-d0fcbafbeb6c","system_id":"levelo_inurba_marseille","lat":43.299707,"lon":5.384859,"is_reserved":false,"is_disabled":false,"rental_uris":{"android":"levelo://app?vid=134b14c2-7ec8-499b-8ab8-d0fcbafbeb6c","ios":"levelo://app?vid=134b14c2-7ec8-499b-8ab8-d0fcbafbeb6c"},"vehicle_type_id":"4","last_reported":1693883250,"current_range_meters":19200,"station_id":"ce4bgj92rcd13ifvqbd0","pricing_plan_id":"free"},{"bike_id":"407402a4-17ea-4202-bd0d-0cd157184b3d","system_id":"levelo_inurba_marseille","lat":43.299707,"lon":5.384859,"is_reserved":false,"is_disabled":false,"rental_uris":{"android":"levelo://app?vid=407402a4-17ea-4202-bd0d-0cd157184b3d","ios":"levelo://app?vid=407402a4-17ea-4202-bd0d-0cd157184b3d"},"vehicle_type_id":"4","last_reported":1693883250,"current_range_meters":31200,"station_id":"ce4bgj92rcd13ifvqbd0","pricing_plan_id":"free"},{"bike_id":"15d1ae16-c042-4c2a-bf3f-c672df04bbc8","system_id":"levelo_inurba_marseille","lat":43.29976,"lon":5.38488,"is_reserved":false,"is_disabled":false,"rental_uris":{"android":"levelo://app?vid=15d1ae16-c042-4c2a-bf3f-c672df04bbc8","ios":"levelo://app?vid=15d1ae16-c042-4c2a-bf3f-c672df04bbc8"},"vehicle_type_id":"4","last_reported":1693883250,"current_range_meters":31200,"station_id":"ce4bgj92rcd13ifvqbd0","pricing_plan_id":"free"},{"bike_id":"261b6af7-211e-4e39-a34a-c34df6576005","system_id":"levelo_inurba_marseille","lat":43.29972,"lon":5.3849,"is_reserved":false,"is_disabled":false,"rental_uris":{"android":"levelo://app?vid=261b6af7-211e-4e39-a34a-c34df6576005","ios":"levelo://app?vid=261b6af7-211e-4e39-a34a-c34df6576005"},"vehicle_type_id":"4","last_reported":1693883250,"current_range_meters":30800,"station_id":"ce4bgj92rcd13ifvqbd0","pricing_plan_id":"free"},{"bike_id":"8bef68f7-23c8-4a1b-b4e6-7a78964612ea","system_id":"levelo_inurba_marseille","lat":43.33091,"lon":5.36234,"is_reserved":false,"is_disabled":false,"rental_uris":{"android":"levelo://app?vid=8bef68f7-23c8-4a1b-b4e6-7a78964612ea","ios":"levelo://app?vid=8bef68f7-23c8-4a1b-b4e6-7a78964612ea"},"vehicle_type_id":"4","last_reported":1693883250,"current_range_meters":0,"station_id":"","pricing_plan_id":"free"},{"bike_id":"b8b27496-eece-4445-bc84-cf20a3ea6690","system_id":"levelo_inurba_marseille","lat":43.29972,"lon":5.38496,"is_reserved":false,"is_disabled":false,"rental_uris":{"android":"levelo://app?vid=b8b27496-eece-4445-bc84-cf20a3ea6690","ios":"levelo://app?vid=b8b27496-eece-4445-bc84-cf20a3ea6690"},"vehicle_type_id":"4","last_reported":1693883250,"current_range_meters":31200,"station_id":"ce4bgj92rcd13ifvqbd0","pricing_plan_id":"free"},{"bike_id":"e07be0da-9c1c-404d-9555-9f35cf549621","system_id":"levelo_inurba_marseille","lat":43.299724,"lon":5.384848,"is_reserved":false,"is_disabled":false,"rental_uris":{"android":"levelo://app?vid=e07be0da-9c1c-404d-9555-9f35cf549621","ios":"levelo://app?vid=e07be0da-9c1c-404d-9555-9f35cf549621"},"vehicle_type_id":"4","last_reported":1693883250,"current_range_meters":31200,"station_id":"ce4bgj92rcd13ifvqbd0","pricing_plan_id":"free"},{"bike_id":"358f07ac-3a87-4705-8aae-abe66a3a31cb","system_id":"levelo_inurba_marseille","lat":43.299724,"lon":5.384848,"is_reserved":false,"is_disabled":false,"rental_uris":{"android":"levelo://app?vid=358f07ac-3a87-4705-8aae-abe66a3a31cb","ios":"levelo://app?vid=358f07ac-3a87-4705-8aae-abe66a3a31cb"},"vehicle_type_id":"4","last_reported":1693883250,"current_range_meters":27600,"station_id":"ce4bgj92rcd13ifvqbd0","pricing_plan_id":"free"},{"bike_id":"8edf8747-b807-4931-be46-bca7d181989c","system_id":"levelo_inurba_marseille","lat":43.299707,"lon":5.384859,"is_reserved":false,"is_disabled":false,"rental_uris":{"android":"levelo://app?vid=8edf8747-b807-4931-be46-bca7d181989c","ios":"levelo://app?vid=8edf8747-b807-4931-be46-bca7d181989c"},"vehicle_type_id":"4","last_reported":1693883250,"current_range_meters":31200,"station_id":"ce4bgj92rcd13ifvqbd0","pricing_plan_id":"free"},{"bike_id":"bb2268d8-b350-42c4-ab6b-f85710fbcdf1","system_id":"levelo_inurba_marseille","lat":43.29967,"lon":5.38501,"is_reserved":false,"is_disabled":false,"rental_uris":{"android":"levelo://app?vid=bb2268d8-b350-42c4-ab6b-f85710fbcdf1","ios":"levelo://app?vid=bb2268d8-b350-42c4-ab6b-f85710fbcdf1"},"vehicle_type_id":"4","last_reported":1693883250,"current_range_meters":16800,"station_id":"ce4bgj92rcd13ifvqbd0","pricing_plan_id":"free"},{"bike_id":"ac46162e-b126-40ea-b8fe-8013ce1ece45","system_id":"levelo_inurba_marseille","lat":43.32367,"lon":5.38872,"is_reserved":false,"is_disabled":false,"rental_uris":{"android":"levelo://app?vid=ac46162e-b126-40ea-b8fe-8013ce1ece45","ios":"levelo://app?vid=ac46162e-b126-40ea-b8fe-8013ce1ece45"},"vehicle_type_id":"4","last_reported":1693883250,"current_range_meters":11200,"station_id":"ce4bhqp2rcd13ifvqhog","pricing_plan_id":"free"},{"bike_id":"da2185e2-db26-40e7-9af2-5ca632b7687e","system_id":"levelo_inurba_marseille","lat":43.32361,"lon":5.3888,"is_reserved":false,"is_disabled":false,"rental_uris":{"android":"levelo://app?vid=da2185e2-db26-40e7-9af2-5ca632b7687e","ios":"levelo://app?vid=da2185e2-db26-40e7-9af2-5ca632b7687e"},"vehicle_type_id":"4","last_reported":1693883250,"current_range_meters":12800,"station_id":"ce4bhqp2rcd13ifvqhog","pricing_plan_id":"free"},{"bike_id":"55f76ffa-fe5d-48cc-9155-f2d304beaad8","system_id":"levelo_inurba_marseille","lat":43.3236,"lon":5.38881,"is_reserved":false,"is_disabled":false,"rental_uris":{"android":"levelo://app?vid=55f76ffa-fe5d-48cc-9155-f2d304beaad8","ios":"levelo://app?vid=55f76ffa-fe5d-48cc-9155-f2d304beaad8"},"vehicle_type_id":"4","last_reported":1693883250,"current_range_meters":13200,"station_id":"ce4bhqp2rcd13ifvqhog","pricing_plan_id":"free"},{"bike_id":"d35693d6-bb49-460f-9dc8-39d996743a2a","system_id":"levelo_inurba_marseille","lat":43.32368,"lon":5.38875,"is_reserved":false,"is_disabled":false,"rental_uris":{"android":"levelo://app?vid=d35693d6-bb49-460f-9dc8-39d996743a2a","ios":"levelo://app?vid=d35693d6-bb49-460f-9dc8-39d996743a2a"},"vehicle_type_id":"4","last_reported":1693883250,"current_range_meters":14400,"station_id":"ce4bhqp2rcd13ifvqhog","pricing_plan_id":"free"},{"bike_id":"e62af6f3-6627-4c06-bceb-9d0bda349f6f","system_id":"levelo_inurba_marseille","lat":43.32367,"lon":5.388836,"is_reserved":false,"is_disabled":false,"rental_uris":{"android":"levelo://app?vid=e62af6f3-6627-4c06-bceb-9d0bda349f6f","ios":"levelo://app?vid=e62af6f3-6627-4c06-bceb-9d0bda349f6f"},"vehicle_type_id":"4","last_reported":1693883250,"current_range_meters":22800,"station_id":"ce4bhqp2rcd13ifvqhog","pricing_plan_id":"free"},{"bike_id":"ee930611-407b-4a6b-b38d-2fd706d304e1","system_id":"levelo_inurba_marseille","lat":43.3236,"lon":5.38885,"is_reserved":false,"is_disabled":false,"rental_uris":{"android":"levelo://app?vid=ee930611-407b-4a6b-b38d-2fd706d304e1","ios":"levelo://app?vid=ee930611-407b-4a6b-b38d-2fd706d304e1"},"vehicle_type_id":"4","last_reported":1693883250,"current_range_meters":5200,"station_id":"ce4bhqp2rcd13ifvqhog","pricing_plan_id":"free"},{"bike_id":"def307d5-7907-476e-9b02-aa95093f3ff4","system_id":"levelo_inurba_marseille","lat":43.32367,"lon":5.38887,"is_reserved":false,"is_disabled":false,"rental_uris":{"android":"levelo://app?vid=def307d5-7907-476e-9b02-aa95093f3ff4","ios":"levelo://app?vid=def307d5-7907-476e-9b02-aa95093f3ff4"},"vehicle_type_id":"4","last_reported":1693883250,"current_range_meters":14000,"station_id":"ce4bhqp2rcd13ifvqhog","pricing_plan_id":"free"},{"bike_id":"2b2caade-a4b8-4411-81e4-8fac02d1e59b","system_id":"levelo_inurba_marseille","lat":43.32367,"lon":5.388836,"is_reserved":false,"is_disabled":false,"rental_uris":{"android":"levelo://app?vid=2b2caade-a4b8-4411-81e4-8fac02d1e59b","ios":"levelo://app?vid=2b2caade-a4b8-4411-81e4-8fac02d1e59b"},"vehicle_type_id":"4","last_reported":1693883250,"current_range_meters":15600,"station_id":"ce4bhqp2rcd13ifvqhog","pricing_plan_id":"free"},{"bike_id":"d34d3c39-1de7-40da-9996-a119f67bc926","system_id":"levelo_inurba_marseille","lat":43.29601,"lon":5.381084,"is_reserved":false,"is_disabled":false,"rental_uris":{"android":"levelo://app?vid=d34d3c39-1de7-40da-9996-a119f67bc926","ios":"levelo://app?vid=d34d3c39-1de7-40da-9996-a119f67bc926"},"vehicle_type_id":"4","last_reported":1693883250,"current_range_meters":20800,"station_id":"ce4bgl12rcd13ifvqbo0","pricing_plan_id":"free"},{"bike_id":"d8b4bc8c-de07-4c6e-a3f7-fb014d1c59ef","system_id":"levelo_inurba_marseille","lat":43.29299,"lon":5.37158,"is_reserved":false,"is_disabled":false,"rental_uris":{"android":"levelo://app?vid=d8b4bc8c-de07-4c6e-a3f7-fb014d1c59ef","ios":"levelo://app?vid=d8b4bc8c-de07-4c6e-a3f7-fb014d1c59ef"},"vehicle_type_id":"4","last_reported":1693883250,"current_range_meters":0,"station_id":"ce4bgh92rcd13ifvqb40","pricing_plan_id":"free"},{"bike_id":"e8526ccf-bbfb-4d1a-b182-70218276494d","system_id":"levelo_inurba_marseille","lat":43.29297,"lon":5.37167,"is_reserved":false,"is_disabled":false,"rental_uris":{"android":"levelo://app?vid=e8526ccf-bbfb-4d1a-b182-70218276494d","ios":"levelo://app?vid=e8526ccf-bbfb-4d1a-b182-70218276494d"},"vehicle_type_id":"4","last_reported":1693883250,"current_range_meters":0,"station_id":"ce4bgh92rcd13ifvqb40","pricing_plan_id":"free"},{"bike_id":"4d4e99ed-726f-4888-8c7f-cbeecc11800c","system_id":"levelo_inurba_marseille","lat":43.292749,"lon":5.368402,"is_reserved":false,"is_disabled":false,"rental_uris":{"android":"levelo://app?vid=4d4e99ed-726f-4888-8c7f-cbeecc11800c","ios":"levelo://app?vid=4d4e99ed-726f-4888-8c7f-cbeecc11800c"},"vehicle_type_id":"4","last_reported":1693883250,"current_range_meters":0,"station_id":"ce4bhbp2rcd13ifvqesg","pricing_plan_id":"free"},{"bike_id":"c23d8252-9a38-4f1c-9aad-73956c6d9af7","system_id":"levelo_inurba_marseille","lat":43.3183,"lon":5.39349,"is_reserved":false,"is_disabled":false,"rental_uris":{"android":"levelo://app?vid=c23d8252-9a38-4f1c-9aad-73956c6d9af7","ios":"levelo://app?vid=c23d8252-9a38-4f1c-9aad-73956c6d9af7"},"vehicle_type_id":"4","last_reported":1693883250,"current_range_meters":24000,"station_id":"","pricing_plan_id":"free"},{"bike_id":"d338d47e-214b-47ae-934e-8c2bbf4a875f","system_id":"levelo_inurba_marseille","lat":43.305994,"lon":5.393687,"is_reserved":false,"is_disabled":false,"rental_uris":{"android":"levelo://app?vid=d338d47e-214b-47ae-934e-8c2bbf4a875f","ios":"levelo://app?vid=d338d47e-214b-47ae-934e-8c2bbf4a875f"},"vehicle_type_id":"4","last_reported":1693883250,"current_range_meters":28800,"station_id":"ce4bh0p2rcd13ifvqd80","pricing_plan_id":"free"},{"bike_id":"45ae386b-24f0-443e-ac9c-ded0d25c9f44","system_id":"levelo_inurba_marseille","lat":43.305994,"lon":5.393687,"is_reserved":false,"is_disabled":false,"rental_uris":{"android":"levelo://app?vid=45ae386b-24f0-443e-ac9c-ded0d25c9f44","ios":"levelo://app?vid=45ae386b-24f0-443e-ac9c-ded0d25c9f44"},"vehicle_type_id":"4","last_reported":1693883250,"current_range_meters":31200,"station_id":"ce4bh0p2rcd13ifvqd80","pricing_plan_id":"free"},{"bike_id":"4032fdc9-e822-4f29-83fa-71c8d078c13a","system_id":"levelo_inurba_marseille","lat":43.30306,"lon":5.39194,"is_reserved":false,"is_disabled":false,"rental_uris":{"android":"levelo://app?vid=4032fdc9-e822-4f29-83fa-71c8d078c13a","ios":"levelo://app?vid=4032fdc9-e822-4f29-83fa-71c8d078c13a"},"vehicle_type_id":"4","last_reported":1693883250,"current_range_meters":31200,"station_id":"ce4bgkh2rcd13ifvqbk0","pricing_plan_id":"free"},{"bike_id":"92a85b8f-003f-475b-85f3-d08d9c6fc7ca","system_id":"levelo_inurba_marseille","lat":43.30299,"lon":5.39195,"is_reserved":false,"is_disabled":false,"rental_uris":{"android":"levelo://app?vid=92a85b8f-003f-475b-85f3-d08d9c6fc7ca","ios":"levelo://app?vid=92a85b8f-003f-475b-85f3-d08d9c6fc7ca"},"vehicle_type_id":"4","last_reported":1693883250,"current_range_meters":31200,"station_id":"ce4bgkh2rcd13ifvqbk0","pricing_plan_id":"free"},{"bike_id":"be7911c4-9608-4c76-aaed-721f28238a9a","system_id":"levelo_inurba_marseille","lat":43.30299,"lon":5.392,"is_reserved":false,"is_disabled":false,"rental_uris":{"android":"levelo://app?vid=be7911c4-9608-4c76-aaed-721f28238a9a","ios":"levelo://app?vid=be7911c4-9608-4c76-aaed-721f28238a9a"},"vehicle_type_id":"4","last_reported":1693883250,"current_range_meters":28800,"station_id":"ce4bgkh2rcd13ifvqbk0","pricing_plan_id":"free"},{"bike_id":"38fef587-7cc5-4800-b069-87b8f296a10a","system_id":"levelo_inurba_marseille","lat":43.303002,"lon":5.392142,"is_reserved":false,"is_disabled":false,"rental_uris":{"android":"levelo://app?vid=38fef587-7cc5-4800-b069-87b8f296a10a","ios":"levelo://app?vid=38fef587-7cc5-4800-b069-87b8f296a10a"},"vehicle_type_id":"4","last_reported":1693883250,"current_range_meters":30800,"station_id":"ce4bgkh2rcd13ifvqbk0","pricing_plan_id":"free"},{"bike_id":"efcc1630-a18d-4df9-bcda-d30e3aaf1d72","system_id":"levelo_inurba_marseille","lat":43.30307,"lon":5.39211,"is_reserved":false,"is_disabled":false,"rental_uris":{"android":"levelo://app?vid=efcc1630-a18d-4df9-bcda-d30e3aaf1d72","ios":"levelo://app?vid=efcc1630-a18d-4df9-bcda-d30e3aaf1d72"},"vehicle_type_id":"4","last_reported":1693883250,"current_range_meters":8000,"station_id":"ce4bgkh2rcd13ifvqbk0","pricing_plan_id":"free"},{"bike_id":"4b569fc6-b320-4ef6-8228-0ce49763334f","system_id":"levelo_inurba_marseille","lat":43.30306,"lon":5.39211,"is_reserved":false,"is_disabled":false,"rental_uris":{"android":"levelo://app?vid=4b569fc6-b320-4ef6-8228-0ce49763334f","ios":"levelo://app?vid=4b569fc6-b320-4ef6-8228-0ce49763334f"},"vehicle_type_id":"4","last_reported":1693883250,"current_range_meters":23600,"station_id":"ce4bgkh2rcd13ifvqbk0","pricing_plan_id":"free"},{"bike_id":"2c2ecfe2-9431-4699-8e05-b165b4cfcc90","system_id":"levelo_inurba_marseille","lat":43.30308,"lon":5.39216,"is_reserved":false,"is_disabled":false,"rental_uris":{"android":"levelo://app?vid=2c2ecfe2-9431-4699-8e05-b165b4cfcc90","ios":"levelo://app?vid=2c2ecfe2-9431-4699-8e05-b165b4cfcc90"},"vehicle_type_id":"4","last_reported":1693883250,"current_range_meters":31200,"station_id":"ce4bgkh2rcd13ifvqbk0","pricing_plan_id":"free"},{"bike_id":"7f0b1ca7-4502-47fd-865d-4a04ecb06f93","system_id":"levelo_inurba_marseille","lat":43.30308,"lon":5.39216,"is_reserved":false,"is_disabled":false,"rental_uris":{"android":"levelo://app?vid=7f0b1ca7-4502-47fd-865d-4a04ecb06f93","ios":"levelo://app?vid=7f0b1ca7-4502-47fd-865d-4a04ecb06f93"},"vehicle_type_id":"4","last_reported":1693883250,"current_range_meters":31200,"station_id":"ce4bgkh2rcd13ifvqbk0","pricing_plan_id":"free"},{"bike_id":"0724f352-a262-45b7-9b71-9a09ff17d945","system_id":"levelo_inurba_marseille","lat":43.303002,"lon":5.392142,"is_reserved":false,"is_disabled":false,"rental_uris":{"android":"levelo://app?vid=0724f352-a262-45b7-9b71-9a09ff17d945","ios":"levelo://app?vid=0724f352-a262-45b7-9b71-9a09ff17d945"},"vehicle_type_id":"4","last_reported":1693883250,"current_range_meters":30000,"station_id":"ce4bgkh2rcd13ifvqbk0","pricing_plan_id":"free"},{"bike_id":"7f3a53f0-7d99-4cd2-ab21-f96472951c92","system_id":"levelo_inurba_marseille","lat":43.303002,"lon":5.392142,"is_reserved":false,"is_disabled":false,"rental_uris":{"android":"levelo://app?vid=7f3a53f0-7d99-4cd2-ab21-f96472951c92","ios":"levelo://app?vid=7f3a53f0-7d99-4cd2-ab21-f96472951c92"},"vehicle_type_id":"4","last_reported":1693883250,"current_range_meters":22800,"station_id":"ce4bgkh2rcd13ifvqbk0","pricing_plan_id":"free"},{"bike_id":"69bd53cf-db02-4e09-af05-a607de204199","system_id":"levelo_inurba_marseille","lat":43.30309,"lon":5.39221,"is_reserved":false,"is_disabled":false,"rental_uris":{"android":"levelo://app?vid=69bd53cf-db02-4e09-af05-a607de204199","ios":"levelo://app?vid=69bd53cf-db02-4e09-af05-a607de204199"},"vehicle_type_id":"4","last_reported":1693883250,"current_range_meters":31200,"station_id":"ce4bgkh2rcd13ifvqbk0","pricing_plan_id":"free"},{"bike_id":"e5b9ca96-a0b8-4d00-bff3-79cf6d9c6eba","system_id":"levelo_inurba_marseille","lat":43.30309,"lon":5.39224,"is_reserved":false,"is_disabled":false,"rental_uris":{"android":"levelo://app?vid=e5b9ca96-a0b8-4d00-bff3-79cf6d9c6eba","ios":"levelo://app?vid=e5b9ca96-a0b8-4d00-bff3-79cf6d9c6eba"},"vehicle_type_id":"4","last_reported":1693883250,"current_range_meters":29600,"station_id":"ce4bgkh2rcd13ifvqbk0","pricing_plan_id":"free"},{"bike_id":"cc84ed3b-6975-40bd-9c7c-1dcf576f1f3c","system_id":"levelo_inurba_marseille","lat":43.303084,"lon":5.392239,"is_reserved":false,"is_disabled":false,"rental_uris":{"android":"levelo://app?vid=cc84ed3b-6975-40bd-9c7c-1dcf576f1f3c","ios":"levelo://app?vid=cc84ed3b-6975-40bd-9c7c-1dcf576f1f3c"},"vehicle_type_id":"4","last_reported":1693883250,"current_range_meters":6000,"station_id":"","pricing_plan_id":"free"},{"bike_id":"183047ec-590c-4bb3-82de-3c843797edd9","system_id":"levelo_inurba_marseille","lat":43.303002,"lon":5.392142,"is_reserved":false,"is_disabled":false,"rental_uris":{"android":"levelo://app?vid=183047ec-590c-4bb3-82de-3c843797edd9","ios":"levelo://app?vid=183047ec-590c-4bb3-82de-3c843797edd9"},"vehicle_type_id":"4","last_reported":1693883250,"current_range_meters":31200,"station_id":"ce4bgkh2rcd13ifvqbk0","pricing_plan_id":"free"},{"bike_id":"5346e23f-5100-4d30-975d-22084ffa64df","system_id":"levelo_inurba_marseille","lat":43.30312,"lon":5.39228,"is_reserved":false,"is_disabled":false,"rental_uris":{"android":"levelo://app?vid=5346e23f-5100-4d30-975d-22084ffa64df","ios":"levelo://app?vid=5346e23f-5100-4d30-975d-22084ffa64df"},"vehicle_type_id":"4","last_reported":1693883250,"current_range_meters":31200,"station_id":"ce4bgkh2rcd13ifvqbk0","pricing_plan_id":"free"},{"bike_id":"2484f638-0103-46c7-9576-562b2aee7630","system_id":"levelo_inurba_marseille","lat":43.303002,"lon":5.392142,"is_reserved":false,"is_disabled":false,"rental_uris":{"android":"levelo://app?vid=2484f638-0103-46c7-9576-562b2aee7630","ios":"levelo://app?vid=2484f638-0103-46c7-9576-562b2aee7630"},"vehicle_type_id":"4","last_reported":1693883250,"current_range_meters":31200,"station_id":"ce4bgkh2rcd13ifvqbk0","pricing_plan_id":"free"},{"bike_id":"59d4a7cc-c4d8-47e1-a63f-2e26b5d209c3","system_id":"levelo_inurba_marseille","lat":43.2936,"lon":5.37835,"is_reserved":false,"is_disabled":false,"rental_uris":{"android":"levelo://app?vid=59d4a7cc-c4d8-47e1-a63f-2e26b5d209c3","ios":"levelo://app?vid=59d4a7cc-c4d8-47e1-a63f-2e26b5d209c3"},"vehicle_type_id":"4","last_reported":1693883250,"current_range_meters":31200,"station_id":"ce4bgjh2rcd13ifvqbf0","pricing_plan_id":"free"},{"bike_id":"e6421d04-fa56-456b-9e33-899afab1a330","system_id":"levelo_inurba_marseille","lat":43.32501,"lon":5.39006,"is_reserved":false,"is_disabled":false,"rental_uris":{"android":"levelo://app?vid=e6421d04-fa56-456b-9e33-899afab1a330","ios":"levelo://app?vid=e6421d04-fa56-456b-9e33-899afab1a330"},"vehicle_type_id":"4","last_reported":1693883250,"current_range_meters":26000,"station_id":"","pricing_plan_id":"free"},{"bike_id":"ffb38c32-e229-43d6-bdf1-8ed6356ad7f5","system_id":"levelo_inurba_marseille","lat":43.303002,"lon":5.392142,"is_reserved":false,"is_disabled":false,"rental_uris":{"android":"levelo://app?vid=ffb38c32-e229-43d6-bdf1-8ed6356ad7f5","ios":"levelo://app?vid=ffb38c32-e229-43d6-bdf1-8ed6356ad7f5"},"vehicle_type_id":"4","last_reported":1693883250,"current_range_meters":31200,"station_id":"ce4bgkh2rcd13ifvqbk0","pricing_plan_id":"free"},{"bike_id":"4a6cb025-a0fb-45b5-b01a-295c129ef2a7","system_id":"levelo_inurba_marseille","lat":43.3032,"lon":5.39245,"is_reserved":false,"is_disabled":false,"rental_uris":{"android":"levelo://app?vid=4a6cb025-a0fb-45b5-b01a-295c129ef2a7","ios":"levelo://app?vid=4a6cb025-a0fb-45b5-b01a-295c129ef2a7"},"vehicle_type_id":"4","last_reported":1693883250,"current_range_meters":30800,"station_id":"ce4bgkh2rcd13ifvqbk0","pricing_plan_id":"free"},{"bike_id":"b245fab9-e1bb-45ae-b356-1bede2109dd6","system_id":"levelo_inurba_marseille","lat":43.30102,"lon":5.3907,"is_reserved":false,"is_disabled":false,"rental_uris":{"android":"levelo://app?vid=b245fab9-e1bb-45ae-b356-1bede2109dd6","ios":"levelo://app?vid=b245fab9-e1bb-45ae-b356-1bede2109dd6"},"vehicle_type_id":"4","last_reported":1693883250,"current_range_meters":5600,"station_id":"ce4bh192rcd13ifvqdb0","pricing_plan_id":"free"},{"bike_id":"65ea30d4-f946-4664-a83a-fa812e84038f","system_id":"levelo_inurba_marseille","lat":43.30083,"lon":5.39077,"is_reserved":false,"is_disabled":false,"rental_uris":{"android":"levelo://app?vid=65ea30d4-f946-4664-a83a-fa812e84038f","ios":"levelo://app?vid=65ea30d4-f946-4664-a83a-fa812e84038f"},"vehicle_type_id":"4","last_reported":1693883250,"current_range_meters":26400,"station_id":"ce4bh192rcd13ifvqdb0","pricing_plan_id":"free"},{"bike_id":"a86c49cb-bba8-4c49-a267-b45e7cc46ce3","system_id":"levelo_inurba_marseille","lat":43.30092,"lon":5.39087,"is_reserved":false,"is_disabled":false,"rental_uris":{"android":"levelo://app?vid=a86c49cb-bba8-4c49-a267-b45e7cc46ce3","ios":"levelo://app?vid=a86c49cb-bba8-4c49-a267-b45e7cc46ce3"},"vehicle_type_id":"4","last_reported":1693883250,"current_range_meters":0,"station_id":"ce4bh192rcd13ifvqdb0","pricing_plan_id":"free"},{"bike_id":"4b58e4ae-a2a2-4d00-8e38-1f1fc0859212","system_id":"levelo_inurba_marseille","lat":43.29883,"lon":5.38911,"is_reserved":false,"is_disabled":false,"rental_uris":{"android":"levelo://app?vid=4b58e4ae-a2a2-4d00-8e38-1f1fc0859212","ios":"levelo://app?vid=4b58e4ae-a2a2-4d00-8e38-1f1fc0859212"},"vehicle_type_id":"4","last_reported":1693883250,"current_range_meters":18800,"station_id":"ce4bh392rcd13ifvqdl0","pricing_plan_id":"free"},{"bike_id":"fcf2aabf-13d8-4d0c-be83-94886a42e0c9","system_id":"levelo_inurba_marseille","lat":43.29874,"lon":5.38909,"is_reserved":false,"is_disabled":false,"rental_uris":{"android":"levelo://app?vid=fcf2aabf-13d8-4d0c-be83-94886a42e0c9","ios":"levelo://app?vid=fcf2aabf-13d8-4d0c-be83-94886a42e0c9"},"vehicle_type_id":"4","last_reported":1693883250,"current_range_meters":28800,"station_id":"ce4bh392rcd13ifvqdl0","pricing_plan_id":"free"},{"bike_id":"d621e51b-d347-4748-87f2-d4157ee52d5e","system_id":"levelo_inurba_marseille","lat":43.30878,"lon":5.39622,"is_reserved":false,"is_disabled":false,"rental_uris":{"android":"levelo://app?vid=d621e51b-d347-4748-87f2-d4157ee52d5e","ios":"levelo://app?vid=d621e51b-d347-4748-87f2-d4157ee52d5e"},"vehicle_type_id":"4","last_reported":1693883250,"current_range_meters":25200,"station_id":"ce4bh012rcd13ifvqcv0","pricing_plan_id":"free"},{"bike_id":"f445bd93-ddb9-4b19-a33a-ecfdbbd0a9c1","system_id":"levelo_inurba_marseille","lat":43.309038,"lon":5.396546,"is_reserved":false,"is_disabled":false,"rental_uris":{"android":"levelo://app?vid=f445bd93-ddb9-4b19-a33a-ecfdbbd0a9c1","ios":"levelo://app?vid=f445bd93-ddb9-4b19-a33a-ecfdbbd0a9c1"},"vehicle_type_id":"4","last_reported":1693883250,"current_range_meters":5200,"station_id":"ce4bh012rcd13ifvqcv0","pricing_plan_id":"free"},{"bike_id":"bddd4dce-45d6-40cc-aff5-c884ffc8f356","system_id":"levelo_inurba_marseille","lat":43.313291,"lon":5.396838,"is_reserved":false,"is_disabled":false,"rental_uris":{"android":"levelo://app?vid=bddd4dce-45d6-40cc-aff5-c884ffc8f356","ios":"levelo://app?vid=bddd4dce-45d6-40cc-aff5-c884ffc8f356"},"vehicle_type_id":"4","last_reported":1693883250,"current_range_meters":14800,"station_id":"ce4bgvp2rcd13ifvqcu0","pricing_plan_id":"free"},{"bike_id":"d62aedfc-e8dd-4cab-9032-64514dfa3740","system_id":"levelo_inurba_marseille","lat":43.30883,"lon":5.39638,"is_reserved":false,"is_disabled":false,"rental_uris":{"android":"levelo://app?vid=d62aedfc-e8dd-4cab-9032-64514dfa3740","ios":"levelo://app?vid=d62aedfc-e8dd-4cab-9032-64514dfa3740"},"vehicle_type_id":"4","last_reported":1693883250,"current_range_meters":0,"station_id":"ce4bh012rcd13ifvqcv0","pricing_plan_id":"free"},{"bike_id":"718457de-c2bd-4e05-9feb-223c26d48dd2","system_id":"levelo_inurba_marseille","lat":43.30877,"lon":5.39639,"is_reserved":false,"is_disabled":false,"rental_uris":{"android":"levelo://app?vid=718457de-c2bd-4e05-9feb-223c26d48dd2","ios":"levelo://app?vid=718457de-c2bd-4e05-9feb-223c26d48dd2"},"vehicle_type_id":"4","last_reported":1693883250,"current_range_meters":20400,"station_id":"ce4bh012rcd13ifvqcv0","pricing_plan_id":"free"},{"bike_id":"e7f97411-f775-4de8-8cc0-29e02c3c2542","system_id":"levelo_inurba_marseille","lat":43.31321,"lon":5.39689,"is_reserved":false,"is_disabled":false,"rental_uris":{"android":"levelo://app?vid=e7f97411-f775-4de8-8cc0-29e02c3c2542","ios":"levelo://app?vid=e7f97411-f775-4de8-8cc0-29e02c3c2542"},"vehicle_type_id":"4","last_reported":1693883250,"current_range_meters":3200,"station_id":"ce4bgvp2rcd13ifvqcu0","pricing_plan_id":"free"},{"bike_id":"69ee12d9-3b97-44ef-bac9-2333fb9727d9","system_id":"levelo_inurba_marseille","lat":43.313291,"lon":5.396838,"is_reserved":false,"is_disabled":false,"rental_uris":{"android":"levelo://app?vid=69ee12d9-3b97-44ef-bac9-2333fb9727d9","ios":"levelo://app?vid=69ee12d9-3b97-44ef-bac9-2333fb9727d9"},"vehicle_type_id":"4","last_reported":1693883250,"current_range_meters":1600,"station_id":"ce4bgvp2rcd13ifvqcu0","pricing_plan_id":"free"},{"bike_id":"f593e290-bf1a-4ea6-8070-220a617a3c5b","system_id":"levelo_inurba_marseille","lat":43.31333,"lon":5.3969,"is_reserved":false,"is_disabled":false,"rental_uris":{"android":"levelo://app?vid=f593e290-bf1a-4ea6-8070-220a617a3c5b","ios":"levelo://app?vid=f593e290-bf1a-4ea6-8070-220a617a3c5b"},"vehicle_type_id":"4","last_reported":1693883250,"current_range_meters":1600,"station_id":"ce4bgvp2rcd13ifvqcu0","pricing_plan_id":"free"},{"bike_id":"57c083a2-6556-4e20-b75d-7c915079cb74","system_id":"levelo_inurba_marseille","lat":43.31329,"lon":5.39691,"is_reserved":false,"is_disabled":false,"rental_uris":{"android":"levelo://app?vid=57c083a2-6556-4e20-b75d-7c915079cb74","ios":"levelo://app?vid=57c083a2-6556-4e20-b75d-7c915079cb74"},"vehicle_type_id":"4","last_reported":1693883250,"current_range_meters":2400,"station_id":"ce4bgvp2rcd13ifvqcu0","pricing_plan_id":"free"},{"bike_id":"2153c6a2-f6da-4f71-8a49-50e37a6c5f68","system_id":"levelo_inurba_marseille","lat":43.31327,"lon":5.39692,"is_reserved":false,"is_disabled":false,"rental_uris":{"android":"levelo://app?vid=2153c6a2-f6da-4f71-8a49-50e37a6c5f68","ios":"levelo://app?vid=2153c6a2-f6da-4f71-8a49-50e37a6c5f68"},"vehicle_type_id":"4","last_reported":1693883250,"current_range_meters":2000,"station_id":"ce4bgvp2rcd13ifvqcu0","pricing_plan_id":"free"},{"bike_id":"2084902a-42d8-4686-95df-50363131a276","system_id":"levelo_inurba_marseille","lat":43.3133,"lon":5.39692,"is_reserved":false,"is_disabled":false,"rental_uris":{"android":"levelo://app?vid=2084902a-42d8-4686-95df-50363131a276","ios":"levelo://app?vid=2084902a-42d8-4686-95df-50363131a276"},"vehicle_type_id":"4","last_reported":1693883250,"current_range_meters":18000,"station_id":"ce4bgvp2rcd13ifvqcu0","pricing_plan_id":"free"},{"bike_id":"31342dbe-5058-46ba-99b6-f6faa5630e31","system_id":"levelo_inurba_marseille","lat":43.31331,"lon":5.39693,"is_reserved":false,"is_disabled":false,"rental_uris":{"android":"levelo://app?vid=31342dbe-5058-46ba-99b6-f6faa5630e31","ios":"levelo://app?vid=31342dbe-5058-46ba-99b6-f6faa5630e31"},"vehicle_type_id":"4","last_reported":1693883250,"current_range_meters":1600,"station_id":"ce4bgvp2rcd13ifvqcu0","pricing_plan_id":"free"},{"bike_id":"6fa472f2-8865-46a4-90b1-cd62a6c97a46","system_id":"levelo_inurba_marseille","lat":43.30885,"lon":5.39646,"is_reserved":false,"is_disabled":false,"rental_uris":{"android":"levelo://app?vid=6fa472f2-8865-46a4-90b1-cd62a6c97a46","ios":"levelo://app?vid=6fa472f2-8865-46a4-90b1-cd62a6c97a46"},"vehicle_type_id":"4","last_reported":1693883250,"current_range_meters":20800,"station_id":"ce4bh012rcd13ifvqcv0","pricing_plan_id":"free"},{"bike_id":"28d7c76c-cd08-4719-82f3-40367965c63a","system_id":"levelo_inurba_marseille","lat":43.313291,"lon":5.396838,"is_reserved":false,"is_disabled":false,"rental_uris":{"android":"levelo://app?vid=28d7c76c-cd08-4719-82f3-40367965c63a","ios":"levelo://app?vid=28d7c76c-cd08-4719-82f3-40367965c63a"},"vehicle_type_id":"4","last_reported":1693883250,"current_range_meters":12400,"station_id":"ce4bgvp2rcd13ifvqcu0","pricing_plan_id":"free"},{"bike_id":"72206f02-3c1b-4fab-b679-8882d73d1f65","system_id":"levelo_inurba_marseille","lat":43.309038,"lon":5.396546,"is_reserved":false,"is_disabled":false,"rental_uris":{"android":"levelo://app?vid=72206f02-3c1b-4fab-b679-8882d73d1f65","ios":"levelo://app?vid=72206f02-3c1b-4fab-b679-8882d73d1f65"},"vehicle_type_id":"4","last_reported":1693883250,"current_range_meters":0,"station_id":"ce4bh012rcd13ifvqcv0","pricing_plan_id":"free"},{"bike_id":"5ea02d8c-3af9-45c3-ba30-d72fd8b8e885","system_id":"levelo_inurba_marseille","lat":43.309038,"lon":5.396546,"is_reserved":false,"is_disabled":false,"rental_uris":{"android":"levelo://app?vid=5ea02d8c-3af9-45c3-ba30-d72fd8b8e885","ios":"levelo://app?vid=5ea02d8c-3af9-45c3-ba30-d72fd8b8e885"},"vehicle_type_id":"4","last_reported":1693883250,"current_range_meters":8800,"station_id":"ce4bh012rcd13ifvqcv0","pricing_plan_id":"free"},{"bike_id":"1ce121d3-6337-4642-9156-a351521c79a3","system_id":"levelo_inurba_marseille","lat":43.290624,"lon":5.359245,"is_reserved":false,"is_disabled":false,"rental_uris":{"android":"levelo://app?vid=1ce121d3-6337-4642-9156-a351521c79a3","ios":"levelo://app?vid=1ce121d3-6337-4642-9156-a351521c79a3"},"vehicle_type_id":"4","last_reported":1693883250,"current_range_meters":26000,"station_id":"ce4bha92rcd13ifvqeg0","pricing_plan_id":"free"},{"bike_id":"22e677d7-954c-40f3-8b21-fba993c0f998","system_id":"levelo_inurba_marseille","lat":43.29042,"lon":5.35908,"is_reserved":false,"is_disabled":false,"rental_uris":{"android":"levelo://app?vid=22e677d7-954c-40f3-8b21-fba993c0f998","ios":"levelo://app?vid=22e677d7-954c-40f3-8b21-fba993c0f998"},"vehicle_type_id":"4","last_reported":1693883250,"current_range_meters":0,"station_id":"ce4bha92rcd13ifvqeg0","pricing_plan_id":"free"},{"bike_id":"3f3cf4c5-9d16-4d13-8c54-dd11e645ef70","system_id":"levelo_inurba_marseille","lat":43.290631,"lon":5.359244,"is_reserved":false,"is_disabled":false,"rental_uris":{"android":"levelo://app?vid=3f3cf4c5-9d16-4d13-8c54-dd11e645ef70","ios":"levelo://app?vid=3f3cf4c5-9d16-4d13-8c54-dd11e645ef70"},"vehicle_type_id":"4","last_reported":1693883250,"current_range_meters":22800,"station_id":"ce4bha92rcd13ifvqeg0","pricing_plan_id":"free"},{"bike_id":"5061374f-d131-4cf7-890c-b1d3ae2b91ae","system_id":"levelo_inurba_marseille","lat":43.289184,"lon":5.366408,"is_reserved":false,"is_disabled":false,"rental_uris":{"android":"levelo://app?vid=5061374f-d131-4cf7-890c-b1d3ae2b91ae","ios":"levelo://app?vid=5061374f-d131-4cf7-890c-b1d3ae2b91ae"},"vehicle_type_id":"4","last_reported":1693883250,"current_range_meters":30400,"station_id":"ce4bhap2rcd13ifvqek0","pricing_plan_id":"free"},{"bike_id":"2f93318d-a393-4e93-88c9-60d3ec241b0e","system_id":"levelo_inurba_marseille","lat":43.28934,"lon":5.36627,"is_reserved":false,"is_disabled":false,"rental_uris":{"android":"levelo://app?vid=2f93318d-a393-4e93-88c9-60d3ec241b0e","ios":"levelo://app?vid=2f93318d-a393-4e93-88c9-60d3ec241b0e"},"vehicle_type_id":"4","last_reported":1693883250,"current_range_meters":29200,"station_id":"ce4bhap2rcd13ifvqek0","pricing_plan_id":"free"},{"bike_id":"2758801a-3fc0-49d2-8751-cf345a38eb6c","system_id":"levelo_inurba_marseille","lat":43.289184,"lon":5.366408,"is_reserved":false,"is_disabled":false,"rental_uris":{"android":"levelo://app?vid=2758801a-3fc0-49d2-8751-cf345a38eb6c","ios":"levelo://app?vid=2758801a-3fc0-49d2-8751-cf345a38eb6c"},"vehicle_type_id":"4","last_reported":1693883250,"current_range_meters":12400,"station_id":"ce4bhap2rcd13ifvqek0","pricing_plan_id":"free"},{"bike_id":"7d1dc40f-7742-4b2f-b063-168007129674","system_id":"levelo_inurba_marseille","lat":43.289468,"lon":5.363719,"is_reserved":false,"is_disabled":false,"rental_uris":{"android":"levelo://app?vid=7d1dc40f-7742-4b2f-b063-168007129674","ios":"levelo://app?vid=7d1dc40f-7742-4b2f-b063-168007129674"},"vehicle_type_id":"4","last_reported":1693883250,"current_range_meters":12000,"station_id":"ce4bhc92rcd13ifvqetg","pricing_plan_id":"free"},{"bike_id":"f36279f2-3e39-49f9-a91d-7c460c2e603a","system_id":"levelo_inurba_marseille","lat":43.289184,"lon":5.366408,"is_reserved":false,"is_disabled":false,"rental_uris":{"android":"levelo://app?vid=f36279f2-3e39-49f9-a91d-7c460c2e603a","ios":"levelo://app?vid=f36279f2-3e39-49f9-a91d-7c460c2e603a"},"vehicle_type_id":"4","last_reported":1693883250,"current_range_meters":6400,"station_id":"ce4bhap2rcd13ifvqek0","pricing_plan_id":"free"},{"bike_id":"2cf2129d-74d0-4802-ad36-6a5678db4d82","system_id":"levelo_inurba_marseille","lat":43.28934,"lon":5.36399,"is_reserved":false,"is_disabled":false,"rental_uris":{"android":"levelo://app?vid=2cf2129d-74d0-4802-ad36-6a5678db4d82","ios":"levelo://app?vid=2cf2129d-74d0-4802-ad36-6a5678db4d82"},"vehicle_type_id":"4","last_reported":1693883250,"current_range_meters":2800,"station_id":"ce4bhc92rcd13ifvqetg","pricing_plan_id":"free"},{"bike_id":"54c15c0a-a69b-42a5-b321-ae73a45841e1","system_id":"levelo_inurba_marseille","lat":43.289468,"lon":5.363719,"is_reserved":false,"is_disabled":false,"rental_uris":{"android":"levelo://app?vid=54c15c0a-a69b-42a5-b321-ae73a45841e1","ios":"levelo://app?vid=54c15c0a-a69b-42a5-b321-ae73a45841e1"},"vehicle_type_id":"4","last_reported":1693883250,"current_range_meters":28800,"station_id":"ce4bhc92rcd13ifvqetg","pricing_plan_id":"free"},{"bike_id":"cb07e190-cf68-423c-8b2e-73b17b3e5b20","system_id":"levelo_inurba_marseille","lat":43.304296,"lon":5.397513,"is_reserved":false,"is_disabled":false,"rental_uris":{"android":"levelo://app?vid=cb07e190-cf68-423c-8b2e-73b17b3e5b20","ios":"levelo://app?vid=cb07e190-cf68-423c-8b2e-73b17b3e5b20"},"vehicle_type_id":"4","last_reported":1693883250,"current_range_meters":26000,"station_id":"ce4bh092rcd13ifvqd20","pricing_plan_id":"free"},{"bike_id":"8b71eba0-658d-434a-9e7b-364b732549b4","system_id":"levelo_inurba_marseille","lat":43.30415,"lon":5.39753,"is_reserved":false,"is_disabled":false,"rental_uris":{"android":"levelo://app?vid=8b71eba0-658d-434a-9e7b-364b732549b4","ios":"levelo://app?vid=8b71eba0-658d-434a-9e7b-364b732549b4"},"vehicle_type_id":"4","last_reported":1693883250,"current_range_meters":0,"station_id":"ce4bh092rcd13ifvqd20","pricing_plan_id":"free"},{"bike_id":"8e70f64a-d853-4228-81d1-e759bbe9d6d2","system_id":"levelo_inurba_marseille","lat":43.33038,"lon":5.38915,"is_reserved":false,"is_disabled":false,"rental_uris":{"android":"levelo://app?vid=8e70f64a-d853-4228-81d1-e759bbe9d6d2","ios":"levelo://app?vid=8e70f64a-d853-4228-81d1-e759bbe9d6d2"},"vehicle_type_id":"4","last_reported":1693883250,"current_range_meters":27600,"station_id":"ce4bhr92rcd13ifvqhrg","pricing_plan_id":"free"},{"bike_id":"e388441b-1b7c-46fd-b954-7cf88bb9855d","system_id":"levelo_inurba_marseille","lat":43.3304,"lon":5.38914,"is_reserved":false,"is_disabled":false,"rental_uris":{"android":"levelo://app?vid=e388441b-1b7c-46fd-b954-7cf88bb9855d","ios":"levelo://app?vid=e388441b-1b7c-46fd-b954-7cf88bb9855d"},"vehicle_type_id":"4","last_reported":1693883250,"current_range_meters":29600,"station_id":"ce4bhr92rcd13ifvqhrg","pricing_plan_id":"free"},{"bike_id":"1e96bb12-3994-4351-9055-37f714946f86","system_id":"levelo_inurba_marseille","lat":43.33039,"lon":5.38916,"is_reserved":false,"is_disabled":false,"rental_uris":{"android":"levelo://app?vid=1e96bb12-3994-4351-9055-37f714946f86","ios":"levelo://app?vid=1e96bb12-3994-4351-9055-37f714946f86"},"vehicle_type_id":"4","last_reported":1693883250,"current_range_meters":29600,"station_id":"ce4bhr92rcd13ifvqhrg","pricing_plan_id":"free"},{"bike_id":"5561a30a-9265-4933-afbc-e995a88a5d80","system_id":"levelo_inurba_marseille","lat":43.33041,"lon":5.38914,"is_reserved":false,"is_disabled":false,"rental_uris":{"android":"levelo://app?vid=5561a30a-9265-4933-afbc-e995a88a5d80","ios":"levelo://app?vid=5561a30a-9265-4933-afbc-e995a88a5d80"},"vehicle_type_id":"4","last_reported":1693883250,"current_range_meters":12800,"station_id":"ce4bhr92rcd13ifvqhrg","pricing_plan_id":"free"},{"bike_id":"aa92ed5e-d1a7-46e2-a479-4054a53b966e","system_id":"levelo_inurba_marseille","lat":43.33039,"lon":5.3892,"is_reserved":false,"is_disabled":false,"rental_uris":{"android":"levelo://app?vid=aa92ed5e-d1a7-46e2-a479-4054a53b966e","ios":"levelo://app?vid=aa92ed5e-d1a7-46e2-a479-4054a53b966e"},