{"last_updated":1741803224,"ttl":60,"version":"2.2","data":{"bikes":[{"bike_id":"61968e1d-3834-49c2-be4e-a0386f592f6a","system_id":"levelo_inurba_marseille","lat":43.30428,"lon":5.3974,"is_reserved":false,"is_disabled":false,"rental_uris":{"android":"levelo://app?vid=61968e1d-3834-49c2-be4e-a0386f592f6a","ios":"levelo://app?vid=61968e1d-3834-49c2-be4e-a0386f592f6a"},"vehicle_type_id":"4","last_reported":1741803224,"current_range_meters":2800,"station_id":"ce4bh092rcd13ifvqd20","pricing_plan_id":"cebpf4jnsgd1na2vs0mg"},{"bike_id":"68859161-3569-4d90-b3b7-2804aae35b93","system_id":"levelo_inurba_marseille","lat":43.29427,"lon":5.38611,"is_reserved":false,"is_disabled":false,"rental_uris":{"android":"levelo://app?vid=68859161-3569-4d90-b3b7-2804aae35b93","ios":"levelo://app?vid=68859161-3569-4d90-b3b7-2804aae35b93"},"vehicle_type_id":"4","last_reported":1741803224,"current_range_meters":2800,"station_id":"ce4bh2h2rcd13ifvqdh0","pricing_plan_id":"cebpf4jnsgd1na2vs0mg"},{"bike_id":"0092153e-6f76-4089-970e-487bb544df59","system_id":"levelo_inurba_marseille","lat":43.26684,"lon":5.382635,"is_reserved":false,"is_disabled":false,"rental_uris":{"android":"levelo://app?vid=0092153e-6f76-4089-970e-487bb544df59","ios":"levelo://app?vid=0092153e-6f76-4089-970e-487bb544df59"},"vehicle_type_id":"4","last_reported":1741803224,"current_range_meters":2800,"station_id":"ce4bhg92rcd13ifvqf90","pricing_plan_id":"cebpf4jnsgd1na2vs0mg"},{"bike_id":"c10a83c6-dc80-4751-85f3-444271103fbd","system_id":"levelo_inurba_marseille","lat":43.30444,"lon":5.38904,"is_reserved":false,"is_disabled":false,"rental_uris":{"android":"levelo://app?vid=c10a83c6-dc80-4751-85f3-444271103fbd","ios":"levelo://app?vid=c10a83c6-dc80-4751-85f3-444271103fbd"},"vehicle_type_id":"4","last_reported":1741803224,"current_range_meters":2800,"station_id":"ce4bgk12rcd13ifvqbi0","pricing_plan_id":"cebpf4jnsgd1na2vs0mg"},{"bike_id":"bf4e1181-2766-43b2-b067-602b1b4c5598","system_id":"levelo_inurba_marseille","lat":43.28001,"lon":5.41677,"is_reserved":false,"is_disabled":false,"rental_uris":{"android":"levelo://app?vid=bf4e1181-2766-43b2-b067-602b1b4c5598","ios":"levelo://app?vid=bf4e1181-2766-43b2-b067-602b1b4c5598"},"vehicle_type_id":"4","last_reported":1741803224,"current_range_meters":2800,"station_id":"ce4bho12rcd13ifvqh1g","pricing_plan_id":"cebpf4jnsgd1na2vs0mg"},{"bike_id":"f92fc3e3-b71c-4831-8a27-a79b4b4b8065","system_id":"levelo_inurba_marseille","lat":43.27997,"lon":5.40007,"is_reserved":false,"is_disabled":false,"rental_uris":{"android":"levelo://app?vid=f92fc3e3-b71c-4831-8a27-a79b4b4b8065","ios":"levelo://app?vid=f92fc3e3-b71c-4831-8a27-a79b4b4b8065"},"vehicle_type_id":"4","last_reported":1741803224,"current_range_meters":2800,"station_id":"ce4bho92rcd13ifvqh4g","pricing_plan_id":"cebpf4jnsgd1na2vs0mg"},{"bike_id":"321e9c01-ac40-4864-bfab-5a786736a3dd","system_id":"levelo_inurba_marseille","lat":43.30589,"lon":5.3935,"is_reserved":false,"is_disabled":false,"rental_uris":{"android":"levelo://app?vid=321e9c01-ac40-4864-bfab-5a786736a3dd","ios":"levelo://app?vid=321e9c01-ac40-4864-bfab-5a786736a3dd"},"vehicle_type_id":"4","last_reported":1741803224,"current_range_meters":3200,"station_id":"ce4bh0p2rcd13ifvqd80","pricing_plan_id":"cebpf4jnsgd1na2vs0mg"},{"bike_id":"77e58164-3c05-466a-9ec0-b213bba1a604","system_id":"levelo_inurba_marseille","lat":43.29605,"lon":5.38089,"is_reserved":false,"is_disabled":false,"rental_uris":{"android":"levelo://app?vid=77e58164-3c05-466a-9ec0-b213bba1a604","ios":"levelo://app?vid=77e58164-3c05-466a-9ec0-b213bba1a604"},"vehicle_type_id":"4","last_reported":1741803224,"current_range_meters":3200,"station_id":"ce4bgl12rcd13ifvqbo0","pricing_plan_id":"cebpf4jnsgd1na2vs0mg"},{"bike_id":"a8efd706-3235-439d-966d-ae5fab23158f","system_id":"levelo_inurba_marseille","lat":43.23155,"lon":5.43709,"is_reserved":false,"is_disabled":false,"rental_uris":{"android":"levelo://app?vid=a8efd706-3235-439d-966d-ae5fab23158f","ios":"levelo://app?vid=a8efd706-3235-439d-966d-ae5fab23158f"},"vehicle_type_id":"4","last_reported":1741803224,"current_range_meters":3200,"station_id":"ce4bhmp2rcd13ifvqgog","pricing_plan_id":"cebpf4jnsgd1na2vs0mg"},{"bike_id":"cd71df48-b14f-4913-a732-9e131f32cbc0","system_id":"levelo_inurba_marseille","lat":43.27813,"lon":5.40714,"is_reserved":false,"is_disabled":false,"rental_uris":{"android":"levelo://app?vid=cd71df48-b14f-4913-a732-9e131f32cbc0","ios":"levelo://app?vid=cd71df48-b14f-4913-a732-9e131f32cbc0"},"vehicle_type_id":"4","last_reported":1741803224,"current_range_meters":3200,"station_id":"ce4bhnh2rcd13ifvqgtg","pricing_plan_id":"cebpf4jnsgd1na2vs0mg"},{"bike_id":"00afd6f3-d744-4853-9368-fbeaa4c8fd09","system_id":"levelo_inurba_marseille","lat":43.31336,"lon":5.39679,"is_reserved":false,"is_disabled":false,"rental_uris":{"android":"levelo://app?vid=00afd6f3-d744-4853-9368-fbeaa4c8fd09","ios":"levelo://app?vid=00afd6f3-d744-4853-9368-fbeaa4c8fd09"},"vehicle_type_id":"4","last_reported":1741803224,"current_range_meters":3200,"station_id":"ce4bgvp2rcd13ifvqcu0","pricing_plan_id":"cebpf4jnsgd1na2vs0mg"},{"bike_id":"6a33e1fa-b9b4-449a-9f45-921a95bb6e00","system_id":"levelo_inurba_marseille","lat":43.28675,"lon":5.3868,"is_reserved":false,"is_disabled":false,"rental_uris":{"android":"levelo://app?vid=6a33e1fa-b9b4-449a-9f45-921a95bb6e00","ios":"levelo://app?vid=6a33e1fa-b9b4-449a-9f45-921a95bb6e00"},"vehicle_type_id":"4","last_reported":1741803224,"current_range_meters":3200,"station_id":"ce4bh492rcd13ifvqdug","pricing_plan_id":"cebpf4jnsgd1na2vs0mg"},{"bike_id":"b14f01ff-c400-4b19-9d6b-077f2556bc30","system_id":"levelo_inurba_marseille","lat":43.29262,"lon":5.38457,"is_reserved":false,"is_disabled":false,"rental_uris":{"android":"levelo://app?vid=b14f01ff-c400-4b19-9d6b-077f2556bc30","ios":"levelo://app?vid=b14f01ff-c400-4b19-9d6b-077f2556bc30"},"vehicle_type_id":"4","last_reported":1741803224,"current_range_meters":3600,"station_id":"ce4bh692rcd13ifvqea0","pricing_plan_id":"cebpf4jnsgd1na2vs0mg"},{"bike_id":"8f3cb69b-13aa-488b-a7c7-c4db87e816d2","system_id":"levelo_inurba_marseille","lat":43.29175,"lon":5.37168,"is_reserved":false,"is_disabled":false,"rental_uris":{"android":"levelo://app?vid=8f3cb69b-13aa-488b-a7c7-c4db87e816d2","ios":"levelo://app?vid=8f3cb69b-13aa-488b-a7c7-c4db87e816d2"},"vehicle_type_id":"4","last_reported":1741803224,"current_range_meters":3600,"station_id":"ce4bha92rcd13ifvqeh0","pricing_plan_id":"cebpf4jnsgd1na2vs0mg"},{"bike_id":"c94b017a-6916-4338-91d3-7082600d6002","system_id":"levelo_inurba_marseille","lat":43.29533,"lon":5.38555,"is_reserved":false,"is_disabled":false,"rental_uris":{"android":"levelo://app?vid=c94b017a-6916-4338-91d3-7082600d6002","ios":"levelo://app?vid=c94b017a-6916-4338-91d3-7082600d6002"},"vehicle_type_id":"4","last_reported":1741803224,"current_range_meters":3600,"station_id":"ce4bgih2rcd13ifvqba0","pricing_plan_id":"cebpf4jnsgd1na2vs0mg"},{"bike_id":"bf2feb02-4272-4476-92f9-9420844c4078","system_id":"levelo_inurba_marseille","lat":43.312061,"lon":5.376636,"is_reserved":false,"is_disabled":false,"rental_uris":{"android":"levelo://app?vid=bf2feb02-4272-4476-92f9-9420844c4078","ios":"levelo://app?vid=bf2feb02-4272-4476-92f9-9420844c4078"},"vehicle_type_id":"4","last_reported":1741803224,"current_range_meters":3600,"station_id":"","pricing_plan_id":"cebpf4jnsgd1na2vs0mg"},{"bike_id":"8d148f9c-d435-4123-bd0e-8d7ebd73846f","system_id":"levelo_inurba_marseille","lat":43.27048,"lon":5.402663,"is_reserved":false,"is_disabled":true,"rental_uris":{"android":"levelo://app?vid=8d148f9c-d435-4123-bd0e-8d7ebd73846f","ios":"levelo://app?vid=8d148f9c-d435-4123-bd0e-8d7ebd73846f"},"vehicle_type_id":"4","last_reported":1741803224,"current_range_meters":3600,"station_id":"ce4bhk92rcd13ifvqgc0","pricing_plan_id":"cebpf4jnsgd1na2vs0mg"},{"bike_id":"23dc0a7a-ba20-46d2-a451-961ef46474f1","system_id":"levelo_inurba_marseille","lat":43.31755,"lon":5.39009,"is_reserved":false,"is_disabled":false,"rental_uris":{"android":"levelo://app?vid=23dc0a7a-ba20-46d2-a451-961ef46474f1","ios":"levelo://app?vid=23dc0a7a-ba20-46d2-a451-961ef46474f1"},"vehicle_type_id":"4","last_reported":1741803224,"current_range_meters":3600,"station_id":"ce4bhqp2rcd13ifvqhng","pricing_plan_id":"cebpf4jnsgd1na2vs0mg"},{"bike_id":"8d4bf0a4-cd38-4e92-8c90-69533c6f2a5d","system_id":"levelo_inurba_marseille","lat":43.23965,"lon":5.36627,"is_reserved":false,"is_disabled":false,"rental_uris":{"android":"levelo://app?vid=8d4bf0a4-cd38-4e92-8c90-69533c6f2a5d","ios":"levelo://app?vid=8d4bf0a4-cd38-4e92-8c90-69533c6f2a5d"},"vehicle_type_id":"4","last_reported":1741803224,"current_range_meters":3600,"station_id":"ce4bhi12rcd13ifvqfp0","pricing_plan_id":"cebpf4jnsgd1na2vs0mg"},{"bike_id":"ed23e01d-5469-4fb4-a908-367c871decd4","system_id":"levelo_inurba_marseille","lat":43.28423,"lon":5.37505,"is_reserved":false,"is_disabled":false,"rental_uris":{"android":"levelo://app?vid=ed23e01d-5469-4fb4-a908-367c871decd4","ios":"levelo://app?vid=ed23e01d-5469-4fb4-a908-367c871decd4"},"vehicle_type_id":"4","last_reported":1741803224,"current_range_meters":3600,"station_id":"ce4bh412rcd13ifvqds0","pricing_plan_id":"cebpf4jnsgd1na2vs0mg"},{"bike_id":"e755411f-37e6-476a-98cd-5d2f49b8bcc3","system_id":"levelo_inurba_marseille","lat":43.30138,"lon":5.38784,"is_reserved":false,"is_disabled":false,"rental_uris":{"android":"levelo://app?vid=e755411f-37e6-476a-98cd-5d2f49b8bcc3","ios":"levelo://app?vid=e755411f-37e6-476a-98cd-5d2f49b8bcc3"},"vehicle_type_id":"4","last_reported":1741803224,"current_range_meters":3600,"station_id":"ce4bghh2rcd13ifvqb60","pricing_plan_id":"cebpf4jnsgd1na2vs0mg"},{"bike_id":"73ec5b48-643f-485f-a254-9a90befd3a79","system_id":"levelo_inurba_marseille","lat":43.26566,"lon":5.39017,"is_reserved":false,"is_disabled":true,"rental_uris":{"android":"levelo://app?vid=73ec5b48-643f-485f-a254-9a90befd3a79","ios":"levelo://app?vid=73ec5b48-643f-485f-a254-9a90befd3a79"},"vehicle_type_id":"4","last_reported":1741803224,"current_range_meters":4000,"station_id":"ce4bh2h2rcd13ifvqdh0","pricing_plan_id":"cebpf4jnsgd1na2vs0mg"},{"bike_id":"13c7c049-1194-4e15-a2b7-6e8daad624e5","system_id":"levelo_inurba_marseille","lat":43.2844,"lon":5.39182,"is_reserved":false,"is_disabled":false,"rental_uris":{"android":"levelo://app?vid=13c7c049-1194-4e15-a2b7-6e8daad624e5","ios":"levelo://app?vid=13c7c049-1194-4e15-a2b7-6e8daad624e5"},"vehicle_type_id":"4","last_reported":1741803224,"current_range_meters":4000,"station_id":"ce4bhoh2rcd13ifvqh5g","pricing_plan_id":"cebpf4jnsgd1na2vs0mg"},{"bike_id":"1aa3f743-1f31-44f1-880c-d146d0c09711","system_id":"levelo_inurba_marseille","lat":43.29789,"lon":5.38101,"is_reserved":false,"is_disabled":false,"rental_uris":{"android":"levelo://app?vid=1aa3f743-1f31-44f1-880c-d146d0c09711","ios":"levelo://app?vid=1aa3f743-1f31-44f1-880c-d146d0c09711"},"vehicle_type_id":"4","last_reported":1741803224,"current_range_meters":4000,"station_id":"ce4bgip2rcd13ifvqbb0","pricing_plan_id":"cebpf4jnsgd1na2vs0mg"},{"bike_id":"5be62f5c-b4d5-490f-97d7-7d11c616d8af","system_id":"levelo_inurba_marseille","lat":43.23063,"lon":5.35496,"is_reserved":false,"is_disabled":false,"rental_uris":{"android":"levelo://app?vid=5be62f5c-b4d5-490f-97d7-7d11c616d8af","ios":"levelo://app?vid=5be62f5c-b4d5-490f-97d7-7d11c616d8af"},"vehicle_type_id":"4","last_reported":1741803224,"current_range_meters":4000,"station_id":"cpo3342slgdg3j2ifvpg","pricing_plan_id":"cebpf4jnsgd1na2vs0mg"},{"bike_id":"ee03fcf9-0509-462c-b001-3783ad845ca0","system_id":"levelo_inurba_marseille","lat":43.28705,"lon":5.37414,"is_reserved":false,"is_disabled":false,"rental_uris":{"android":"levelo://app?vid=ee03fcf9-0509-462c-b001-3783ad845ca0","ios":"levelo://app?vid=ee03fcf9-0509-462c-b001-3783ad845ca0"},"vehicle_type_id":"4","last_reported":1741803224,"current_range_meters":4400,"station_id":"ce4bh3p2rcd13ifvqdq0","pricing_plan_id":"cebpf4jnsgd1na2vs0mg"},{"bike_id":"5eb1cdd1-c355-40ee-8e7e-b98f1d9774c8","system_id":"levelo_inurba_marseille","lat":43.31328,"lon":5.3969,"is_reserved":false,"is_disabled":false,"rental_uris":{"android":"levelo://app?vid=5eb1cdd1-c355-40ee-8e7e-b98f1d9774c8","ios":"levelo://app?vid=5eb1cdd1-c355-40ee-8e7e-b98f1d9774c8"},"vehicle_type_id":"4","last_reported":1741803224,"current_range_meters":4400,"station_id":"ce4bgvp2rcd13ifvqcu0","pricing_plan_id":"cebpf4jnsgd1na2vs0mg"},{"bike_id":"b672e48d-601b-4ae5-beca-823cfeea41ff","system_id":"levelo_inurba_marseille","lat":43.3089,"lon":5.39652,"is_reserved":false,"is_disabled":false,"rental_uris":{"android":"levelo://app?vid=b672e48d-601b-4ae5-beca-823cfeea41ff","ios":"levelo://app?vid=b672e48d-601b-4ae5-beca-823cfeea41ff"},"vehicle_type_id":"4","last_reported":1741803224,"current_range_meters":4400,"station_id":"ce4bh012rcd13ifvqcv0","pricing_plan_id":"cebpf4jnsgd1na2vs0mg"},{"bike_id":"32d05981-1502-4811-abce-a59de7535186","system_id":"levelo_inurba_marseille","lat":43.29605,"lon":5.38081,"is_reserved":false,"is_disabled":false,"rental_uris":{"android":"levelo://app?vid=32d05981-1502-4811-abce-a59de7535186","ios":"levelo://app?vid=32d05981-1502-4811-abce-a59de7535186"},"vehicle_type_id":"4","last_reported":1741803224,"current_range_meters":4400,"station_id":"ce4bgl12rcd13ifvqbo0","pricing_plan_id":"cebpf4jnsgd1na2vs0mg"},{"bike_id":"1ce604d3-dbf4-4345-a70d-0adc1dbbac1a","system_id":"levelo_inurba_marseille","lat":43.2857,"lon":5.39496,"is_reserved":false,"is_disabled":false,"rental_uris":{"android":"levelo://app?vid=1ce604d3-dbf4-4345-a70d-0adc1dbbac1a","ios":"levelo://app?vid=1ce604d3-dbf4-4345-a70d-0adc1dbbac1a"},"vehicle_type_id":"4","last_reported":1741803224,"current_range_meters":4400,"station_id":"ce4bh292rcd13ifvqdg0","pricing_plan_id":"cebpf4jnsgd1na2vs0mg"},{"bike_id":"45d8d7b0-29eb-4eaf-9ec9-00efd0738f1e","system_id":"levelo_inurba_marseille","lat":43.31221,"lon":5.37492,"is_reserved":false,"is_disabled":false,"rental_uris":{"android":"levelo://app?vid=45d8d7b0-29eb-4eaf-9ec9-00efd0738f1e","ios":"levelo://app?vid=45d8d7b0-29eb-4eaf-9ec9-00efd0738f1e"},"vehicle_type_id":"4","last_reported":1741803224,"current_range_meters":4400,"station_id":"","pricing_plan_id":"cebpf4jnsgd1na2vs0mg"},{"bike_id":"80771939-f406-42f7-81c5-33180fd8a338","system_id":"levelo_inurba_marseille","lat":43.23191,"lon":5.3558,"is_reserved":false,"is_disabled":false,"rental_uris":{"android":"levelo://app?vid=80771939-f406-42f7-81c5-33180fd8a338","ios":"levelo://app?vid=80771939-f406-42f7-81c5-33180fd8a338"},"vehicle_type_id":"4","last_reported":1741803224,"current_range_meters":4400,"station_id":"ce4bhu92rcd13ifvqi70","pricing_plan_id":"cebpf4jnsgd1na2vs0mg"},{"bike_id":"741c9e3b-b8de-46b7-8e0f-8e02b9df7c59","system_id":"levelo_inurba_marseille","lat":43.2893,"lon":5.38399,"is_reserved":false,"is_disabled":false,"rental_uris":{"android":"levelo://app?vid=741c9e3b-b8de-46b7-8e0f-8e02b9df7c59","ios":"levelo://app?vid=741c9e3b-b8de-46b7-8e0f-8e02b9df7c59"},"vehicle_type_id":"4","last_reported":1741803224,"current_range_meters":4400,"station_id":"ce4bh612rcd13ifvqe6g","pricing_plan_id":"cebpf4jnsgd1na2vs0mg"},{"bike_id":"8feb6f80-4cb6-40bd-a313-9982d2386889","system_id":"levelo_inurba_marseille","lat":43.29038,"lon":5.38147,"is_reserved":false,"is_disabled":false,"rental_uris":{"android":"levelo://app?vid=8feb6f80-4cb6-40bd-a313-9982d2386889","ios":"levelo://app?vid=8feb6f80-4cb6-40bd-a313-9982d2386889"},"vehicle_type_id":"4","last_reported":1741803224,"current_range_meters":4800,"station_id":"ce4bh4p2rcd13ifvqe1g","pricing_plan_id":"cebpf4jnsgd1na2vs0mg"},{"bike_id":"35aebcac-4d78-4c2f-ac1b-fb9f8bf428d9","system_id":"levelo_inurba_marseille","lat":43.29525,"lon":5.39039,"is_reserved":false,"is_disabled":false,"rental_uris":{"android":"levelo://app?vid=35aebcac-4d78-4c2f-ac1b-fb9f8bf428d9","ios":"levelo://app?vid=35aebcac-4d78-4c2f-ac1b-fb9f8bf428d9"},"vehicle_type_id":"4","last_reported":1741803224,"current_range_meters":4800,"station_id":"ce4bh3p2rcd13ifvqdp0","pricing_plan_id":"cebpf4jnsgd1na2vs0mg"},{"bike_id":"8d988277-6b91-4d69-bae6-bf72893868e1","system_id":"levelo_inurba_marseille","lat":43.30303,"lon":5.39207,"is_reserved":false,"is_disabled":false,"rental_uris":{"android":"levelo://app?vid=8d988277-6b91-4d69-bae6-bf72893868e1","ios":"levelo://app?vid=8d988277-6b91-4d69-bae6-bf72893868e1"},"vehicle_type_id":"4","last_reported":1741803224,"current_range_meters":4800,"station_id":"ce4bgkh2rcd13ifvqbk0","pricing_plan_id":"cebpf4jnsgd1na2vs0mg"},{"bike_id":"0e13eaa4-9218-468c-aab4-9d42b806daeb","system_id":"levelo_inurba_marseille","lat":43.30817,"lon":5.38156,"is_reserved":false,"is_disabled":false,"rental_uris":{"android":"levelo://app?vid=0e13eaa4-9218-468c-aab4-9d42b806daeb","ios":"levelo://app?vid=0e13eaa4-9218-468c-aab4-9d42b806daeb"},"vehicle_type_id":"4","last_reported":1741803224,"current_range_meters":4800,"station_id":"ce4bgt12rcd13ifvqce0","pricing_plan_id":"cebpf4jnsgd1na2vs0mg"},{"bike_id":"2714d703-0653-4f83-9f2f-5d24f5ce775b","system_id":"levelo_inurba_marseille","lat":43.2975,"lon":5.39388,"is_reserved":false,"is_disabled":false,"rental_uris":{"android":"levelo://app?vid=2714d703-0653-4f83-9f2f-5d24f5ce775b","ios":"levelo://app?vid=2714d703-0653-4f83-9f2f-5d24f5ce775b"},"vehicle_type_id":"4","last_reported":1741803224,"current_range_meters":4800,"station_id":"chh1huq6cuj3fo74tm60","pricing_plan_id":"cebpf4jnsgd1na2vs0mg"},{"bike_id":"2a39b02c-4f6a-4f35-af2e-e9fb7ada9487","system_id":"levelo_inurba_marseille","lat":43.27947,"lon":5.41047,"is_reserved":false,"is_disabled":false,"rental_uris":{"android":"levelo://app?vid=2a39b02c-4f6a-4f35-af2e-e9fb7ada9487","ios":"levelo://app?vid=2a39b02c-4f6a-4f35-af2e-e9fb7ada9487"},"vehicle_type_id":"4","last_reported":1741803224,"current_range_meters":4800,"station_id":"ce4bhnp2rcd13ifvqh0g","pricing_plan_id":"cebpf4jnsgd1na2vs0mg"},{"bike_id":"523a3762-bc8f-465d-8e64-b7a01ef6a625","system_id":"levelo_inurba_marseille","lat":43.29191,"lon":5.35796,"is_reserved":false,"is_disabled":false,"rental_uris":{"android":"levelo://app?vid=523a3762-bc8f-465d-8e64-b7a01ef6a625","ios":"levelo://app?vid=523a3762-bc8f-465d-8e64-b7a01ef6a625"},"vehicle_type_id":"4","last_reported":1741803224,"current_range_meters":4800,"station_id":"ce4bhb12rcd13ifvqel0","pricing_plan_id":"cebpf4jnsgd1na2vs0mg"},{"bike_id":"e7e9663e-9874-419f-b148-32e275b808f7","system_id":"levelo_inurba_marseille","lat":43.28369,"lon":5.38632,"is_reserved":false,"is_disabled":false,"rental_uris":{"android":"levelo://app?vid=e7e9663e-9874-419f-b148-32e275b808f7","ios":"levelo://app?vid=e7e9663e-9874-419f-b148-32e275b808f7"},"vehicle_type_id":"4","last_reported":1741803224,"current_range_meters":5600,"station_id":"ce4bh492rcd13ifvqdvg","pricing_plan_id":"cebpf4jnsgd1na2vs0mg"},{"bike_id":"a01bb465-601b-45ea-a57f-991eeaa334fb","system_id":"levelo_inurba_marseille","lat":43.28673,"lon":5.38676,"is_reserved":false,"is_disabled":false,"rental_uris":{"android":"levelo://app?vid=a01bb465-601b-45ea-a57f-991eeaa334fb","ios":"levelo://app?vid=a01bb465-601b-45ea-a57f-991eeaa334fb"},"vehicle_type_id":"4","last_reported":1741803224,"current_range_meters":5600,"station_id":"ce4bh492rcd13ifvqdug","pricing_plan_id":"cebpf4jnsgd1na2vs0mg"},{"bike_id":"89f5252d-ca6b-4c4a-8924-1e95cb6ec267","system_id":"levelo_inurba_marseille","lat":43.23962,"lon":5.36628,"is_reserved":false,"is_disabled":false,"rental_uris":{"android":"levelo://app?vid=89f5252d-ca6b-4c4a-8924-1e95cb6ec267","ios":"levelo://app?vid=89f5252d-ca6b-4c4a-8924-1e95cb6ec267"},"vehicle_type_id":"4","last_reported":1741803224,"current_range_meters":5600,"station_id":"ce4bhi12rcd13ifvqfp0","pricing_plan_id":"cebpf4jnsgd1na2vs0mg"},{"bike_id":"1c4e152f-d5ad-4017-ac6b-7c89b754e984","system_id":"levelo_inurba_marseille","lat":43.310089,"lon":5.375514,"is_reserved":false,"is_disabled":false,"rental_uris":{"android":"levelo://app?vid=1c4e152f-d5ad-4017-ac6b-7c89b754e984","ios":"levelo://app?vid=1c4e152f-d5ad-4017-ac6b-7c89b754e984"},"vehicle_type_id":"4","last_reported":1741803224,"current_range_meters":5600,"station_id":"ce4bgl92rcd13ifvqbq0","pricing_plan_id":"cebpf4jnsgd1na2vs0mg"},{"bike_id":"58d1b5b3-d322-4418-97d0-3066ec3d9afc","system_id":"levelo_inurba_marseille","lat":43.23187,"lon":5.35541,"is_reserved":false,"is_disabled":false,"rental_uris":{"android":"levelo://app?vid=58d1b5b3-d322-4418-97d0-3066ec3d9afc","ios":"levelo://app?vid=58d1b5b3-d322-4418-97d0-3066ec3d9afc"},"vehicle_type_id":"4","last_reported":1741803224,"current_range_meters":5600,"station_id":"ce4bhu92rcd13ifvqi70","pricing_plan_id":"cebpf4jnsgd1na2vs0mg"},{"bike_id":"65de6d38-a874-4d40-8b22-88a31e8ef7ea","system_id":"levelo_inurba_marseille","lat":43.28103,"lon":5.37834,"is_reserved":false,"is_disabled":false,"rental_uris":{"android":"levelo://app?vid=65de6d38-a874-4d40-8b22-88a31e8ef7ea","ios":"levelo://app?vid=65de6d38-a874-4d40-8b22-88a31e8ef7ea"},"vehicle_type_id":"4","last_reported":1741803224,"current_range_meters":5600,"station_id":"ce4bha12rcd13ifvqee0","pricing_plan_id":"cebpf4jnsgd1na2vs0mg"},{"bike_id":"4db736b9-68d3-4f2a-9431-002ce7a44183","system_id":"levelo_inurba_marseille","lat":43.23147,"lon":5.43684,"is_reserved":false,"is_disabled":false,"rental_uris":{"android":"levelo://app?vid=4db736b9-68d3-4f2a-9431-002ce7a44183","ios":"levelo://app?vid=4db736b9-68d3-4f2a-9431-002ce7a44183"},"vehicle_type_id":"4","last_reported":1741803224,"current_range_meters":5600,"station_id":"ce4bhmp2rcd13ifvqgog","pricing_plan_id":"cebpf4jnsgd1na2vs0mg"},{"bike_id":"bd25b6cc-fbcd-491d-90a6-31652511b181","system_id":"levelo_inurba_marseille","lat":43.2903,"lon":5.38652,"is_reserved":false,"is_disabled":false,"rental_uris":{"android":"levelo://app?vid=bd25b6cc-fbcd-491d-90a6-31652511b181","ios":"levelo://app?vid=bd25b6cc-fbcd-491d-90a6-31652511b181"},"vehicle_type_id":"4","last_reported":1741803224,"current_range_meters":6000,"station_id":"ce4bh4p2rcd13ifvqe0g","pricing_plan_id":"cebpf4jnsgd1na2vs0mg"},{"bike_id":"7897ed63-4f21-4db4-b932-6ec1073d9ede","system_id":"levelo_inurba_marseille","lat":43.25002,"lon":5.38932,"is_reserved":false,"is_disabled":false,"rental_uris":{"android":"levelo://app?vid=7897ed63-4f21-4db4-b932-6ec1073d9ede","ios":"levelo://app?vid=7897ed63-4f21-4db4-b932-6ec1073d9ede"},"vehicle_type_id":"4","last_reported":1741803224,"current_range_meters":6000,"station_id":"ce4bhgp2rcd13ifvqfd0","pricing_plan_id":"cebpf4jnsgd1na2vs0mg"},{"bike_id":"6d00e3ad-461d-46dc-a418-2daa9b3fc079","system_id":"levelo_inurba_marseille","lat":43.24075,"lon":5.3776,"is_reserved":false,"is_disabled":false,"rental_uris":{"android":"levelo://app?vid=6d00e3ad-461d-46dc-a418-2daa9b3fc079","ios":"levelo://app?vid=6d00e3ad-461d-46dc-a418-2daa9b3fc079"},"vehicle_type_id":"4","last_reported":1741803224,"current_range_meters":6000,"station_id":"ce4bhnp2rcd13ifvqgvg","pricing_plan_id":"cebpf4jnsgd1na2vs0mg"},{"bike_id":"21c763d3-ed9d-428d-8a01-ae3af6de39fb","system_id":"levelo_inurba_marseille","lat":43.33025,"lon":5.39045,"is_reserved":false,"is_disabled":false,"rental_uris":{"android":"levelo://app?vid=21c763d3-ed9d-428d-8a01-ae3af6de39fb","ios":"levelo://app?vid=21c763d3-ed9d-428d-8a01-ae3af6de39fb"},"vehicle_type_id":"4","last_reported":1741803224,"current_range_meters":6000,"station_id":"ce4bhr92rcd13ifvqhrg","pricing_plan_id":"cebpf4jnsgd1na2vs0mg"},{"bike_id":"03198267-b21a-4894-99e1-b55fb461ec23","system_id":"levelo_inurba_marseille","lat":43.28345,"lon":5.38107,"is_reserved":false,"is_disabled":false,"rental_uris":{"android":"levelo://app?vid=03198267-b21a-4894-99e1-b55fb461ec23","ios":"levelo://app?vid=03198267-b21a-4894-99e1-b55fb461ec23"},"vehicle_type_id":"4","last_reported":1741803224,"current_range_meters":6000,"station_id":"ce4bh412rcd13ifvqdr0","pricing_plan_id":"cebpf4jnsgd1na2vs0mg"},{"bike_id":"a335b06a-4f48-49b3-b412-1374a4af24b8","system_id":"levelo_inurba_marseille","lat":43.3026,"lon":5.40084,"is_reserved":false,"is_disabled":false,"rental_uris":{"android":"levelo://app?vid=a335b06a-4f48-49b3-b412-1374a4af24b8","ios":"levelo://app?vid=a335b06a-4f48-49b3-b412-1374a4af24b8"},"vehicle_type_id":"4","last_reported":1741803224,"current_range_meters":6000,"station_id":"ce4bgvh2rcd13ifvqcs0","pricing_plan_id":"cebpf4jnsgd1na2vs0mg"},{"bike_id":"83ce6271-ffa3-4e21-8aee-eef24c3cb1c8","system_id":"levelo_inurba_marseille","lat":43.258653,"lon":5.39898,"is_reserved":false,"is_disabled":false,"rental_uris":{"android":"levelo://app?vid=83ce6271-ffa3-4e21-8aee-eef24c3cb1c8","ios":"levelo://app?vid=83ce6271-ffa3-4e21-8aee-eef24c3cb1c8"},"vehicle_type_id":"4","last_reported":1741803224,"current_range_meters":6000,"station_id":"","pricing_plan_id":"cebpf4jnsgd1na2vs0mg"},{"bike_id":"fab5d3a8-c10a-4e69-8360-d850cc9f0881","system_id":"levelo_inurba_marseille","lat":43.33175,"lon":5.39451,"is_reserved":false,"is_disabled":false,"rental_uris":{"android":"levelo://app?vid=fab5d3a8-c10a-4e69-8360-d850cc9f0881","ios":"levelo://app?vid=fab5d3a8-c10a-4e69-8360-d850cc9f0881"},"vehicle_type_id":"4","last_reported":1741803224,"current_range_meters":6000,"station_id":"","pricing_plan_id":"cebpf4jnsgd1na2vs0mg"},{"bike_id":"6de44c16-6cbb-4784-ab94-38798c58f939","system_id":"levelo_inurba_marseille","lat":43.29537,"lon":5.38547,"is_reserved":false,"is_disabled":false,"rental_uris":{"android":"levelo://app?vid=6de44c16-6cbb-4784-ab94-38798c58f939","ios":"levelo://app?vid=6de44c16-6cbb-4784-ab94-38798c58f939"},"vehicle_type_id":"4","last_reported":1741803224,"current_range_meters":6000,"station_id":"ce4bgih2rcd13ifvqba0","pricing_plan_id":"cebpf4jnsgd1na2vs0mg"},{"bike_id":"b9680ac6-d12e-4a12-9dd8-1396db5e067b","system_id":"levelo_inurba_marseille","lat":43.23157,"lon":5.43708,"is_reserved":false,"is_disabled":false,"rental_uris":{"android":"levelo://app?vid=b9680ac6-d12e-4a12-9dd8-1396db5e067b","ios":"levelo://app?vid=b9680ac6-d12e-4a12-9dd8-1396db5e067b"},"vehicle_type_id":"4","last_reported":1741803224,"current_range_meters":6400,"station_id":"ce4bhmp2rcd13ifvqgog","pricing_plan_id":"cebpf4jnsgd1na2vs0mg"},{"bike_id":"53bbc677-f662-4a74-ab20-889cce9f6bff","system_id":"levelo_inurba_marseille","lat":43.23188,"lon":5.39987,"is_reserved":false,"is_disabled":false,"rental_uris":{"android":"levelo://app?vid=53bbc677-f662-4a74-ab20-889cce9f6bff","ios":"levelo://app?vid=53bbc677-f662-4a74-ab20-889cce9f6bff"},"vehicle_type_id":"4","last_reported":1741803224,"current_range_meters":6400,"station_id":"ce4bhn12rcd13ifvqgqg","pricing_plan_id":"cebpf4jnsgd1na2vs0mg"},{"bike_id":"b7a74957-7a13-40db-b494-dc9ff407135c","system_id":"levelo_inurba_marseille","lat":43.29678,"lon":5.36681,"is_reserved":false,"is_disabled":false,"rental_uris":{"android":"levelo://app?vid=b7a74957-7a13-40db-b494-dc9ff407135c","ios":"levelo://app?vid=b7a74957-7a13-40db-b494-dc9ff407135c"},"vehicle_type_id":"4","last_reported":1741803224,"current_range_meters":6400,"station_id":"ce4bgn12rcd13ifvqbt0","pricing_plan_id":"cebpf4jnsgd1na2vs0mg"},{"bike_id":"cbf61503-3e24-49ed-b991-02e3da09176e","system_id":"levelo_inurba_marseille","lat":43.29045,"lon":5.37569,"is_reserved":false,"is_disabled":false,"rental_uris":{"android":"levelo://app?vid=cbf61503-3e24-49ed-b991-02e3da09176e","ios":"levelo://app?vid=cbf61503-3e24-49ed-b991-02e3da09176e"},"vehicle_type_id":"4","last_reported":1741803224,"current_range_meters":6400,"station_id":"ce4bh692rcd13ifvqe90","pricing_plan_id":"cebpf4jnsgd1na2vs0mg"},{"bike_id":"289147aa-1971-45b6-b569-0f78487e45e3","system_id":"levelo_inurba_marseille","lat":43.28155,"lon":5.42649,"is_reserved":false,"is_disabled":false,"rental_uris":{"android":"levelo://app?vid=289147aa-1971-45b6-b569-0f78487e45e3","ios":"levelo://app?vid=289147aa-1971-45b6-b569-0f78487e45e3"},"vehicle_type_id":"4","last_reported":1741803224,"current_range_meters":6400,"station_id":"ce4bhnh2rcd13ifvqgug","pricing_plan_id":"cebpf4jnsgd1na2vs0mg"},{"bike_id":"7c25226e-9ca8-4a5f-af3f-246f6b1df853","system_id":"levelo_inurba_marseille","lat":43.23062,"lon":5.35505,"is_reserved":false,"is_disabled":false,"rental_uris":{"android":"levelo://app?vid=7c25226e-9ca8-4a5f-af3f-246f6b1df853","ios":"levelo://app?vid=7c25226e-9ca8-4a5f-af3f-246f6b1df853"},"vehicle_type_id":"4","last_reported":1741803224,"current_range_meters":6400,"station_id":"cpo3342slgdg3j2ifvpg","pricing_plan_id":"cebpf4jnsgd1na2vs0mg"},{"bike_id":"b8785a4d-9125-4dcf-9521-8aa540b40cb4","system_id":"levelo_inurba_marseille","lat":43.24809,"lon":5.37451,"is_reserved":false,"is_disabled":false,"rental_uris":{"android":"levelo://app?vid=b8785a4d-9125-4dcf-9521-8aa540b40cb4","ios":"levelo://app?vid=b8785a4d-9125-4dcf-9521-8aa540b40cb4"},"vehicle_type_id":"4","last_reported":1741803224,"current_range_meters":6400,"station_id":"ce4bhgh2rcd13ifvqfb0","pricing_plan_id":"cebpf4jnsgd1na2vs0mg"},{"bike_id":"b5cc8f39-c01a-433b-9f81-444b0cc2df68","system_id":"levelo_inurba_marseille","lat":43.26571,"lon":5.39006,"is_reserved":false,"is_disabled":false,"rental_uris":{"android":"levelo://app?vid=b5cc8f39-c01a-433b-9f81-444b0cc2df68","ios":"levelo://app?vid=b5cc8f39-c01a-433b-9f81-444b0cc2df68"},"vehicle_type_id":"4","last_reported":1741803224,"current_range_meters":6400,"station_id":"ce4bhe12rcd13ifvqf30","pricing_plan_id":"cebpf4jnsgd1na2vs0mg"},{"bike_id":"f640465e-8c9e-425a-8e36-08d8d5201bf6","system_id":"levelo_inurba_marseille","lat":43.23199,"lon":5.35545,"is_reserved":false,"is_disabled":false,"rental_uris":{"android":"levelo://app?vid=f640465e-8c9e-425a-8e36-08d8d5201bf6","ios":"levelo://app?vid=f640465e-8c9e-425a-8e36-08d8d5201bf6"},"vehicle_type_id":"4","last_reported":1741803224,"current_range_meters":6400,"station_id":"ce4bhu92rcd13ifvqi70","pricing_plan_id":"cebpf4jnsgd1na2vs0mg"},{"bike_id":"5eef5338-ff8a-466a-999e-0f162b00ff22","system_id":"levelo_inurba_marseille","lat":43.245465,"lon":5.395285,"is_reserved":false,"is_disabled":false,"rental_uris":{"android":"levelo://app?vid=5eef5338-ff8a-466a-999e-0f162b00ff22","ios":"levelo://app?vid=5eef5338-ff8a-466a-999e-0f162b00ff22"},"vehicle_type_id":"4","last_reported":1741803224,"current_range_meters":6400,"station_id":"ce4bhlp2rcd13ifvqgjg","pricing_plan_id":"cebpf4jnsgd1na2vs0mg"},{"bike_id":"d5c6aead-0b4b-49f9-954e-22cf9b9962ba","system_id":"levelo_inurba_marseille","lat":43.31699,"lon":5.37773,"is_reserved":false,"is_disabled":false,"rental_uris":{"android":"levelo://app?vid=d5c6aead-0b4b-49f9-954e-22cf9b9962ba","ios":"levelo://app?vid=d5c6aead-0b4b-49f9-954e-22cf9b9962ba"},"vehicle_type_id":"4","last_reported":1741803224,"current_range_meters":6800,"station_id":"ce4bgth2rcd13ifvqch0","pricing_plan_id":"cebpf4jnsgd1na2vs0mg"},{"bike_id":"29787d47-4407-4140-bead-3f8699d9c1ea","system_id":"levelo_inurba_marseille","lat":43.29251,"lon":5.38448,"is_reserved":false,"is_disabled":false,"rental_uris":{"android":"levelo://app?vid=29787d47-4407-4140-bead-3f8699d9c1ea","ios":"levelo://app?vid=29787d47-4407-4140-bead-3f8699d9c1ea"},"vehicle_type_id":"4","last_reported":1741803224,"current_range_meters":6800,"station_id":"ce4bh692rcd13ifvqea0","pricing_plan_id":"cebpf4jnsgd1na2vs0mg"},{"bike_id":"a03f49bc-5899-4abb-a003-f91ec33dc56b","system_id":"levelo_inurba_marseille","lat":43.30296,"lon":5.39221,"is_reserved":false,"is_disabled":false,"rental_uris":{"android":"levelo://app?vid=a03f49bc-5899-4abb-a003-f91ec33dc56b","ios":"levelo://app?vid=a03f49bc-5899-4abb-a003-f91ec33dc56b"},"vehicle_type_id":"4","last_reported":1741803224,"current_range_meters":6800,"station_id":"ce4bgkh2rcd13ifvqbk0","pricing_plan_id":"cebpf4jnsgd1na2vs0mg"},{"bike_id":"241d79a7-8164-4ee5-8d3f-2565e2e0b3e8","system_id":"levelo_inurba_marseille","lat":43.31374,"lon":5.3797,"is_reserved":false,"is_disabled":false,"rental_uris":{"android":"levelo://app?vid=241d79a7-8164-4ee5-8d3f-2565e2e0b3e8","ios":"levelo://app?vid=241d79a7-8164-4ee5-8d3f-2565e2e0b3e8"},"vehicle_type_id":"4","last_reported":1741803224,"current_range_meters":6800,"station_id":"","pricing_plan_id":"cebpf4jnsgd1na2vs0mg"},{"bike_id":"1bb5dae5-2cdb-43ae-b04c-dad911982ded","system_id":"levelo_inurba_marseille","lat":43.25123,"lon":5.40312,"is_reserved":false,"is_disabled":false,"rental_uris":{"android":"levelo://app?vid=1bb5dae5-2cdb-43ae-b04c-dad911982ded","ios":"levelo://app?vid=1bb5dae5-2cdb-43ae-b04c-dad911982ded"},"vehicle_type_id":"4","last_reported":1741803224,"current_range_meters":6800,"station_id":"ce4bhlh2rcd13ifvqgig","pricing_plan_id":"cebpf4jnsgd1na2vs0mg"},{"bike_id":"548caab8-1d2c-4b84-963b-f8217af52e80","system_id":"levelo_inurba_marseille","lat":43.29051,"lon":5.3758,"is_reserved":false,"is_disabled":true,"rental_uris":{"android":"levelo://app?vid=548caab8-1d2c-4b84-963b-f8217af52e80","ios":"levelo://app?vid=548caab8-1d2c-4b84-963b-f8217af52e80"},"vehicle_type_id":"4","last_reported":1741803224,"current_range_meters":6800,"station_id":"ce4bh692rcd13ifvqe90","pricing_plan_id":"cebpf4jnsgd1na2vs0mg"},{"bike_id":"95c4f609-4057-4688-9b5c-93c1039e1099","system_id":"levelo_inurba_marseille","lat":43.24546,"lon":5.39521,"is_reserved":false,"is_disabled":false,"rental_uris":{"android":"levelo://app?vid=95c4f609-4057-4688-9b5c-93c1039e1099","ios":"levelo://app?vid=95c4f609-4057-4688-9b5c-93c1039e1099"},"vehicle_type_id":"4","last_reported":1741803224,"current_range_meters":6800,"station_id":"ce4bhlp2rcd13ifvqgjg","pricing_plan_id":"cebpf4jnsgd1na2vs0mg"},{"bike_id":"fb34a484-872c-43ca-87c3-e65731015eb0","system_id":"levelo_inurba_marseille","lat":43.27193,"lon":5.41006,"is_reserved":false,"is_disabled":false,"rental_uris":{"android":"levelo://app?vid=fb34a484-872c-43ca-87c3-e65731015eb0","ios":"levelo://app?vid=fb34a484-872c-43ca-87c3-e65731015eb0"},"vehicle_type_id":"4","last_reported":1741803224,"current_range_meters":7200,"station_id":"ce4bhl12rcd13ifvqgf0","pricing_plan_id":"cebpf4jnsgd1na2vs0mg"},{"bike_id":"c47abed3-463e-4702-b23e-85563cf7923d","system_id":"levelo_inurba_marseille","lat":43.31085,"lon":5.42431,"is_reserved":false,"is_disabled":false,"rental_uris":{"android":"levelo://app?vid=c47abed3-463e-4702-b23e-85563cf7923d","ios":"levelo://app?vid=c47abed3-463e-4702-b23e-85563cf7923d"},"vehicle_type_id":"4","last_reported":1741803224,"current_range_meters":7200,"station_id":"ce4bhp92rcd13ifvqhag","pricing_plan_id":"cebpf4jnsgd1na2vs0mg"},{"bike_id":"415e7a31-245d-4ead-9f33-dad092a04302","system_id":"levelo_inurba_marseille","lat":43.23063,"lon":5.35517,"is_reserved":false,"is_disabled":false,"rental_uris":{"android":"levelo://app?vid=415e7a31-245d-4ead-9f33-dad092a04302","ios":"levelo://app?vid=415e7a31-245d-4ead-9f33-dad092a04302"},"vehicle_type_id":"4","last_reported":1741803224,"current_range_meters":7200,"station_id":"cpo3342slgdg3j2ifvpg","pricing_plan_id":"cebpf4jnsgd1na2vs0mg"},{"bike_id":"0413bf20-894d-4a93-a797-b6134ae0d72f","system_id":"levelo_inurba_marseille","lat":43.33048,"lon":5.39045,"is_reserved":false,"is_disabled":false,"rental_uris":{"android":"levelo://app?vid=0413bf20-894d-4a93-a797-b6134ae0d72f","ios":"levelo://app?vid=0413bf20-894d-4a93-a797-b6134ae0d72f"},"vehicle_type_id":"4","last_reported":1741803224,"current_range_meters":7200,"station_id":"ce4bhr92rcd13ifvqhrg","pricing_plan_id":"cebpf4jnsgd1na2vs0mg"},{"bike_id":"0284a967-b367-42ef-9950-11ff75ca7187","system_id":"levelo_inurba_marseille","lat":43.31237,"lon":5.36853,"is_reserved":false,"is_disabled":false,"rental_uris":{"android":"levelo://app?vid=0284a967-b367-42ef-9950-11ff75ca7187","ios":"levelo://app?vid=0284a967-b367-42ef-9950-11ff75ca7187"},"vehicle_type_id":"4","last_reported":1741803224,"current_range_meters":7200,"station_id":"ce4bgl92rcd13ifvqbq0","pricing_plan_id":"cebpf4jnsgd1na2vs0mg"},{"bike_id":"f1c0d483-c580-4378-87bc-d11122fe1b18","system_id":"levelo_inurba_marseille","lat":43.29261,"lon":5.38432,"is_reserved":false,"is_disabled":true,"rental_uris":{"android":"levelo://app?vid=f1c0d483-c580-4378-87bc-d11122fe1b18","ios":"levelo://app?vid=f1c0d483-c580-4378-87bc-d11122fe1b18"},"vehicle_type_id":"4","last_reported":1741803224,"current_range_meters":7200,"station_id":"ce4bh692rcd13ifvqea0","pricing_plan_id":"cebpf4jnsgd1na2vs0mg"},{"bike_id":"da440fc7-ae9a-4b21-83c8-a8e662a14c16","system_id":"levelo_inurba_marseille","lat":43.25492,"lon":5.37654,"is_reserved":false,"is_disabled":true,"rental_uris":{"android":"levelo://app?vid=da440fc7-ae9a-4b21-83c8-a8e662a14c16","ios":"levelo://app?vid=da440fc7-ae9a-4b21-83c8-a8e662a14c16"},"vehicle_type_id":"4","last_reported":1741803224,"current_range_meters":7200,"station_id":"ce4bhh12rcd13ifvqff0","pricing_plan_id":"cebpf4jnsgd1na2vs0mg"},{"bike_id":"986a512b-31fe-49dd-96e3-705e6fbfe600","system_id":"levelo_inurba_marseille","lat":43.30257,"lon":5.40069,"is_reserved":false,"is_disabled":false,"rental_uris":{"android":"levelo://app?vid=986a512b-31fe-49dd-96e3-705e6fbfe600","ios":"levelo://app?vid=986a512b-31fe-49dd-96e3-705e6fbfe600"},"vehicle_type_id":"4","last_reported":1741803224,"current_range_meters":7200,"station_id":"ce4bgvh2rcd13ifvqcs0","pricing_plan_id":"cebpf4jnsgd1na2vs0mg"},{"bike_id":"6487222c-c71e-47a5-ad88-93e08ff70bd9","system_id":"levelo_inurba_marseille","lat":43.28352,"lon":5.38108,"is_reserved":false,"is_disabled":false,"rental_uris":{"android":"levelo://app?vid=6487222c-c71e-47a5-ad88-93e08ff70bd9","ios":"levelo://app?vid=6487222c-c71e-47a5-ad88-93e08ff70bd9"},"vehicle_type_id":"4","last_reported":1741803224,"current_range_meters":7200,"station_id":"ce4bh412rcd13ifvqdr0","pricing_plan_id":"cebpf4jnsgd1na2vs0mg"},{"bike_id":"2d53a75d-876d-46ef-b452-e895eb247b89","system_id":"levelo_inurba_marseille","lat":43.3021,"lon":5.39459,"is_reserved":false,"is_disabled":false,"rental_uris":{"android":"levelo://app?vid=2d53a75d-876d-46ef-b452-e895eb247b89","ios":"levelo://app?vid=2d53a75d-876d-46ef-b452-e895eb247b89"},"vehicle_type_id":"4","last_reported":1741803224,"current_range_meters":7200,"station_id":"ce4bh0p2rcd13ifvqd70","pricing_plan_id":"cebpf4jnsgd1na2vs0mg"},{"bike_id":"09e616ea-e3eb-4d91-8cad-56db86fddb73","system_id":"levelo_inurba_marseille","lat":43.25583,"lon":5.38237,"is_reserved":false,"is_disabled":false,"rental_uris":{"android":"levelo://app?vid=09e616ea-e3eb-4d91-8cad-56db86fddb73","ios":"levelo://app?vid=09e616ea-e3eb-4d91-8cad-56db86fddb73"},"vehicle_type_id":"4","last_reported":1741803224,"current_range_meters":7200,"station_id":"ce4bhih2rcd13ifvqfs0","pricing_plan_id":"cebpf4jnsgd1na2vs0mg"},{"bike_id":"8dd79aea-40cd-4b14-bd62-24eb98ee883f","system_id":"levelo_inurba_marseille","lat":43.26392,"lon":5.40142,"is_reserved":false,"is_disabled":false,"rental_uris":{"android":"levelo://app?vid=8dd79aea-40cd-4b14-bd62-24eb98ee883f","ios":"levelo://app?vid=8dd79aea-40cd-4b14-bd62-24eb98ee883f"},"vehicle_type_id":"4","last_reported":1741803224,"current_range_meters":7200,"station_id":"","pricing_plan_id":"cebpf4jnsgd1na2vs0mg"},{"bike_id":"985ba300-542a-4309-8532-765e28bc8981","system_id":"levelo_inurba_marseille","lat":43.30799,"lon":5.36976,"is_reserved":false,"is_disabled":false,"rental_uris":{"android":"levelo://app?vid=985ba300-542a-4309-8532-765e28bc8981","ios":"levelo://app?vid=985ba300-542a-4309-8532-765e28bc8981"},"vehicle_type_id":"4","last_reported":1741803224,"current_range_meters":7200,"station_id":"","pricing_plan_id":"cebpf4jnsgd1na2vs0mg"},{"bike_id":"e12be538-6dde-4604-98c7-f66a323a5270","system_id":"levelo_inurba_marseille","lat":43.230581,"lon":5.354968,"is_reserved":false,"is_disabled":false,"rental_uris":{"android":"levelo://app?vid=e12be538-6dde-4604-98c7-f66a323a5270","ios":"levelo://app?vid=e12be538-6dde-4604-98c7-f66a323a5270"},"vehicle_type_id":"4","last_reported":1741803224,"current_range_meters":7200,"station_id":"cpo3342slgdg3j2ifvpg","pricing_plan_id":"cebpf4jnsgd1na2vs0mg"},{"bike_id":"feb4b9df-ca5a-441d-8892-405597e7da99","system_id":"levelo_inurba_marseille","lat":43.23058,"lon":5.35501,"is_reserved":false,"is_disabled":false,"rental_uris":{"android":"levelo://app?vid=feb4b9df-ca5a-441d-8892-405597e7da99","ios":"levelo://app?vid=feb4b9df-ca5a-441d-8892-405597e7da99"},"vehicle_type_id":"4","last_reported":1741803224,"current_range_meters":7200,"station_id":"cpo3342slgdg3j2ifvpg","pricing_plan_id":"cebpf4jnsgd1na2vs0mg"},{"bike_id":"960e9047-430c-4ba9-b5fa-726a15c78b33","system_id":"levelo_inurba_marseille","lat":43.28002,"lon":5.4002,"is_reserved":false,"is_disabled":false,"rental_uris":{"android":"levelo://app?vid=960e9047-430c-4ba9-b5fa-726a15c78b33","ios":"levelo://app?vid=960e9047-430c-4ba9-b5fa-726a15c78b33"},"vehicle_type_id":"4","last_reported":1741803224,"current_range_meters":8000,"station_id":"ce4bho92rcd13ifvqh4g","pricing_plan_id":"cebpf4jnsgd1na2vs0mg"},{"bike_id":"1412a43a-760d-4892-afbb-140c5828055c","system_id":"levelo_inurba_marseille","lat":43.31996,"lon":5.38133,"is_reserved":false,"is_disabled":false,"rental_uris":{"android":"levelo://app?vid=1412a43a-760d-4892-afbb-140c5828055c","ios":"levelo://app?vid=1412a43a-760d-4892-afbb-140c5828055c"},"vehicle_type_id":"4","last_reported":1741803224,"current_range_meters":8000,"station_id":"ce4bhr12rcd13ifvqhpg","pricing_plan_id":"cebpf4jnsgd1na2vs0mg"},{"bike_id":"ed596a7c-cda2-45ef-b25e-62c3bde0748a","system_id":"levelo_inurba_marseille","lat":43.25002,"lon":5.38931,"is_reserved":false,"is_disabled":false,"rental_uris":{"android":"levelo://app?vid=ed596a7c-cda2-45ef-b25e-62c3bde0748a","ios":"levelo://app?vid=ed596a7c-cda2-45ef-b25e-62c3bde0748a"},"vehicle_type_id":"4","last_reported":1741803224,"current_range_meters":8000,"station_id":"ce4bhgp2rcd13ifvqfd0","pricing_plan_id":"cebpf4jnsgd1na2vs0mg"},{"bike_id":"efab6700-508c-45e7-a250-bfb1d4670a97","system_id":"levelo_inurba_marseille","lat":43.31323,"lon":5.39695,"is_reserved":false,"is_disabled":false,"rental_uris":{"android":"levelo://app?vid=efab6700-508c-45e7-a250-bfb1d4670a97","ios":"levelo://app?vid=efab6700-508c-45e7-a250-bfb1d4670a97"},"vehicle_type_id":"4","last_reported":1741803224,"current_range_meters":8000,"station_id":"ce4bgvp2rcd13ifvqcu0","pricing_plan_id":"cebpf4jnsgd1na2vs0mg"},{"bike_id":"3ad48f5a-0469-49a7-a1aa-401191a33f12","system_id":"levelo_inurba_marseille","lat":43.30329,"lon":5.40433,"is_reserved":false,"is_disabled":false,"rental_uris":{"android":"levelo://app?vid=3ad48f5a-0469-49a7-a1aa-401191a33f12","ios":"levelo://app?vid=3ad48f5a-0469-49a7-a1aa-401191a33f12"},"vehicle_type_id":"4","last_reported":1741803224,"current_range_meters":8000,"station_id":"ce4bh012rcd13ifvqd10","pricing_plan_id":"cebpf4jnsgd1na2vs0mg"},{"bike_id":"4fa4ae82-fbb1-4c1a-8610-8b78e2413b9b","system_id":"levelo_inurba_marseille","lat":43.24669,"lon":5.38163,"is_reserved":false,"is_disabled":false,"rental_uris":{"android":"levelo://app?vid=4fa4ae82-fbb1-4c1a-8610-8b78e2413b9b","ios":"levelo://app?vid=4fa4ae82-fbb1-4c1a-8610-8b78e2413b9b"},"vehicle_type_id":"4","last_reported":1741803224,"current_range_meters":8000,"station_id":"ce4bhih2rcd13ifvqfr0","pricing_plan_id":"cebpf4jnsgd1na2vs0mg"},{"bike_id":"72de4c85-7223-490f-9219-5d9d46436df5","system_id":"levelo_inurba_marseille","lat":43.3319,"lon":5.39452,"is_reserved":false,"is_disabled":false,"rental_uris":{"android":"levelo://app?vid=72de4c85-7223-490f-9219-5d9d46436df5","ios":"levelo://app?vid=72de4c85-7223-490f-9219-5d9d46436df5"},"vehicle_type_id":"4","last_reported":1741803224,"current_range_meters":8000,"station_id":"","pricing_plan_id":"cebpf4jnsgd1na2vs0mg"},{"bike_id":"205b0c2b-b2d7-463b-ac73-89fbec64313f","system_id":"levelo_inurba_marseille","lat":43.29444,"lon":5.38588,"is_reserved":false,"is_disabled":false,"rental_uris":{"android":"levelo://app?vid=205b0c2b-b2d7-463b-ac73-89fbec64313f","ios":"levelo://app?vid=205b0c2b-b2d7-463b-ac73-89fbec64313f"},"vehicle_type_id":"4","last_reported":1741803224,"current_range_meters":8000,"station_id":"ce4bh2h2rcd13ifvqdh0","pricing_plan_id":"cebpf4jnsgd1na2vs0mg"},{"bike_id":"b21aa0f0-eb05-4ff6-bece-f111dcc9d6f7","system_id":"levelo_inurba_marseille","lat":43.28409,"lon":5.37508,"is_reserved":false,"is_disabled":false,"rental_uris":{"android":"levelo://app?vid=b21aa0f0-eb05-4ff6-bece-f111dcc9d6f7","ios":"levelo://app?vid=b21aa0f0-eb05-4ff6-bece-f111dcc9d6f7"},"vehicle_type_id":"4","last_reported":1741803224,"current_range_meters":8000,"station_id":"ce4bh412rcd13ifvqds0","pricing_plan_id":"cebpf4jnsgd1na2vs0mg"},{"bike_id":"ba24594a-7700-4799-b6f2-d711d1af9e8a","system_id":"levelo_inurba_marseille","lat":43.29029,"lon":5.38648,"is_reserved":false,"is_disabled":false,"rental_uris":{"android":"levelo://app?vid=ba24594a-7700-4799-b6f2-d711d1af9e8a","ios":"levelo://app?vid=ba24594a-7700-4799-b6f2-d711d1af9e8a"},"vehicle_type_id":"4","last_reported":1741803224,"current_range_meters":8000,"station_id":"ce4bh4p2rcd13ifvqe0g","pricing_plan_id":"cebpf4jnsgd1na2vs0mg"},{"bike_id":"6dfb60a6-ee54-47d6-8a1a-502799f99ca3","system_id":"levelo_inurba_marseille","lat":43.3003,"lon":5.40941,"is_reserved":false,"is_disabled":false,"rental_uris":{"android":"levelo://app?vid=6dfb60a6-ee54-47d6-8a1a-502799f99ca3","ios":"levelo://app?vid=6dfb60a6-ee54-47d6-8a1a-502799f99ca3"},"vehicle_type_id":"4","last_reported":1741803224,"current_range_meters":8000,"station_id":"","pricing_plan_id":"cebpf4jnsgd1na2vs0mg"},{"bike_id":"469b06fb-0d13-4c47-afaa-bce363e4b029","system_id":"levelo_inurba_marseille","lat":43.29582,"lon":5.36746,"is_reserved":false,"is_disabled":false,"rental_uris":{"android":"levelo://app?vid=469b06fb-0d13-4c47-afaa-bce363e4b029","ios":"levelo://app?vid=469b06fb-0d13-4c47-afaa-bce363e4b029"},"vehicle_type_id":"4","last_reported":1741803224,"current_range_meters":8000,"station_id":"ce4bgph2rcd13ifvqc2g","pricing_plan_id":"cebpf4jnsgd1na2vs0mg"},{"bike_id":"272fcfa4-b149-4103-83d5-1007b809ee60","system_id":"levelo_inurba_marseille","lat":43.27071,"lon":5.42287,"is_reserved":false,"is_disabled":false,"rental_uris":{"android":"levelo://app?vid=272fcfa4-b149-4103-83d5-1007b809ee60","ios":"levelo://app?vid=272fcfa4-b149-4103-83d5-1007b809ee60"},"vehicle_type_id":"4","last_reported":1741803224,"current_range_meters":8000,"station_id":"ce4bhk92rcd13ifvqgb0","pricing_plan_id":"cebpf4jnsgd1na2vs0mg"},{"bike_id":"05388ace-665a-4114-a828-939b708a2589","system_id":"levelo_inurba_marseille","lat":43.23183,"lon":5.39969,"is_reserved":false,"is_disabled":false,"rental_uris":{"android":"levelo://app?vid=05388ace-665a-4114-a828-939b708a2589","ios":"levelo://app?vid=05388ace-665a-4114-a828-939b708a2589"},"vehicle_type_id":"4","last_reported":1741803224,"current_range_meters":8000,"station_id":"ce4bhn12rcd13ifvqgqg","pricing_plan_id":"cebpf4jnsgd1na2vs0mg"},{"bike_id":"0d99c84a-8cee-485a-abeb-7524f1072473","system_id":"levelo_inurba_marseille","lat":43.29174,"lon":5.37158,"is_reserved":false,"is_disabled":false,"rental_uris":{"android":"levelo://app?vid=0d99c84a-8cee-485a-abeb-7524f1072473","ios":"levelo://app?vid=0d99c84a-8cee-485a-abeb-7524f1072473"},"vehicle_type_id":"4","last_reported":1741803224,"current_range_meters":8400,"station_id":"ce4bha92rcd13ifvqeh0","pricing_plan_id":"cebpf4jnsgd1na2vs0mg"},{"bike_id":"86f9f19c-681c-4714-b59d-f5798e2ac606","system_id":"levelo_inurba_marseille","lat":43.27178,"lon":5.41001,"is_reserved":false,"is_disabled":false,"rental_uris":{"android":"levelo://app?vid=86f9f19c-681c-4714-b59d-f5798e2ac606","ios":"levelo://app?vid=86f9f19c-681c-4714-b59d-f5798e2ac606"},"vehicle_type_id":"4","last_reported":1741803224,"current_range_meters":8400,"station_id":"ce4bhl12rcd13ifvqgf0","pricing_plan_id":"cebpf4jnsgd1na2vs0mg"},{"bike_id":"7e3544d7-e161-424c-9b47-a7769e32d4c3","system_id":"levelo_inurba_marseille","lat":43.2893,"lon":5.38404,"is_reserved":false,"is_disabled":false,"rental_uris":{"android":"levelo://app?vid=7e3544d7-e161-424c-9b47-a7769e32d4c3","ios":"levelo://app?vid=7e3544d7-e161-424c-9b47-a7769e32d4c3"},"vehicle_type_id":"4","last_reported":1741803224,"current_range_meters":8400,"station_id":"ce4bh612rcd13ifvqe6g","pricing_plan_id":"cebpf4jnsgd1na2vs0mg"},{"bike_id":"d2e8ce6e-12ac-4e8d-8248-c9bb7fe45533","system_id":"levelo_inurba_marseille","lat":43.29208,"lon":5.3932,"is_reserved":false,"is_disabled":false,"rental_uris":{"android":"levelo://app?vid=d2e8ce6e-12ac-4e8d-8248-c9bb7fe45533","ios":"levelo://app?vid=d2e8ce6e-12ac-4e8d-8248-c9bb7fe45533"},"vehicle_type_id":"4","last_reported":1741803224,"current_range_meters":8400,"station_id":"ce4bh192rcd13ifvqdd0","pricing_plan_id":"cebpf4jnsgd1na2vs0mg"},{"bike_id":"2931d81f-abb3-45b8-9224-dc3fce2fae31","system_id":"levelo_inurba_marseille","lat":43.323646,"lon":5.367629,"is_reserved":false,"is_disabled":false,"rental_uris":{"android":"levelo://app?vid=2931d81f-abb3-45b8-9224-dc3fce2fae31","ios":"levelo://app?vid=2931d81f-abb3-45b8-9224-dc3fce2fae31"},"vehicle_type_id":"4","last_reported":1741803224,"current_range_meters":8400,"station_id":"ce4bhsh2rcd13ifvqi2g","pricing_plan_id":"cebpf4jnsgd1na2vs0mg"},{"bike_id":"c4909d41-ca2e-4793-8010-bfc39cdcae09","system_id":"levelo_inurba_marseille","lat":43.30254,"lon":5.40056,"is_reserved":false,"is_disabled":false,"rental_uris":{"android":"levelo://app?vid=c4909d41-ca2e-4793-8010-bfc39cdcae09","ios":"levelo://app?vid=c4909d41-ca2e-4793-8010-bfc39cdcae09"},"vehicle_type_id":"4","last_reported":1741803224,"current_range_meters":8400,"station_id":"ce4bgvh2rcd13ifvqcs0","pricing_plan_id":"cebpf4jnsgd1na2vs0mg"},{"bike_id":"dba8b361-8c42-4b53-aa29-77d87af7fbbc","system_id":"levelo_inurba_marseille","lat":43.23156,"lon":5.4371,"is_reserved":false,"is_disabled":false,"rental_uris":{"android":"levelo://app?vid=dba8b361-8c42-4b53-aa29-77d87af7fbbc","ios":"levelo://app?vid=dba8b361-8c42-4b53-aa29-77d87af7fbbc"},"vehicle_type_id":"4","last_reported":1741803224,"current_range_meters":8400,"station_id":"ce4bhmp2rcd13ifvqgog","pricing_plan_id":"cebpf4jnsgd1na2vs0mg"},{"bike_id":"c1883f69-20d3-4090-b7ad-cadabe4aa4fd","system_id":"levelo_inurba_marseille","lat":43.25882,"lon":5.39936,"is_reserved":false,"is_disabled":false,"rental_uris":{"android":"levelo://app?vid=c1883f69-20d3-4090-b7ad-cadabe4aa4fd","ios":"levelo://app?vid=c1883f69-20d3-4090-b7ad-cadabe4aa4fd"},"vehicle_type_id":"4","last_reported":1741803224,"current_range_meters":8400,"station_id":"ce4bhl92rcd13ifvqghg","pricing_plan_id":"cebpf4jnsgd1na2vs0mg"},{"bike_id":"4698139f-fdcd-4091-bad1-631aac630530","system_id":"levelo_inurba_marseille","lat":43.29892,"lon":5.38894,"is_reserved":false,"is_disabled":false,"rental_uris":{"android":"levelo://app?vid=4698139f-fdcd-4091-bad1-631aac630530","ios":"levelo://app?vid=4698139f-fdcd-4091-bad1-631aac630530"},"vehicle_type_id":"4","last_reported":1741803224,"current_range_meters":8400,"station_id":"ce4bh392rcd13ifvqdl0","pricing_plan_id":"cebpf4jnsgd1na2vs0mg"},{"bike_id":"d594c27b-f587-4400-b401-1a6e6f8174c2","system_id":"levelo_inurba_marseille","lat":43.31169,"lon":5.38731,"is_reserved":false,"is_disabled":false,"rental_uris":{"android":"levelo://app?vid=d594c27b-f587-4400-b401-1a6e6f8174c2","ios":"levelo://app?vid=d594c27b-f587-4400-b401-1a6e6f8174c2"},"vehicle_type_id":"4","last_reported":1741803224,"current_range_meters":8800,"station_id":"ce4bgv12rcd13ifvqcp0","pricing_plan_id":"cebpf4jnsgd1na2vs0mg"},{"bike_id":"68e8a3df-dd22-457f-9274-85eeef86ab2e","system_id":"levelo_inurba_marseille","lat":43.31332,"lon":5.39699,"is_reserved":false,"is_disabled":false,"rental_uris":{"android":"levelo://app?vid=68e8a3df-dd22-457f-9274-85eeef86ab2e","ios":"levelo://app?vid=68e8a3df-dd22-457f-9274-85eeef86ab2e"},"vehicle_type_id":"4","last_reported":1741803224,"current_range_meters":8800,"station_id":"ce4bgvp2rcd13ifvqcu0","pricing_plan_id":"cebpf4jnsgd1na2vs0mg"},{"bike_id":"385dd9cb-1d33-48e9-8250-88818c623a92","system_id":"levelo_inurba_marseille","lat":43.260608,"lon":5.393999,"is_reserved":false,"is_disabled":false,"rental_uris":{"android":"levelo://app?vid=385dd9cb-1d33-48e9-8250-88818c623a92","ios":"levelo://app?vid=385dd9cb-1d33-48e9-8250-88818c623a92"},"vehicle_type_id":"4","last_reported":1741803224,"current_range_meters":8800,"station_id":"ce4bhh92rcd13ifvqfj0","pricing_plan_id":"cebpf4jnsgd1na2vs0mg"},{"bike_id":"a14ea32d-1ba7-46f9-b20f-e1e12e9ccd96","system_id":"levelo_inurba_marseille","lat":43.29203,"lon":5.39309,"is_reserved":false,"is_disabled":false,"rental_uris":{"android":"levelo://app?vid=a14ea32d-1ba7-46f9-b20f-e1e12e9ccd96","ios":"levelo://app?vid=a14ea32d-1ba7-46f9-b20f-e1e12e9ccd96"},"vehicle_type_id":"4","last_reported":1741803224,"current_range_meters":8800,"station_id":"ce4bh192rcd13ifvqdd0","pricing_plan_id":"cebpf4jnsgd1na2vs0mg"},{"bike_id":"8dee66dd-a753-4e90-9df0-a75f60b0d66f","system_id":"levelo_inurba_marseille","lat":43.28576,"lon":5.42492,"is_reserved":false,"is_disabled":false,"rental_uris":{"android":"levelo://app?vid=8dee66dd-a753-4e90-9df0-a75f60b0d66f","ios":"levelo://app?vid=8dee66dd-a753-4e90-9df0-a75f60b0d66f"},"vehicle_type_id":"4","last_reported":1741803224,"current_range_meters":8800,"station_id":"","pricing_plan_id":"cebpf4jnsgd1na2vs0mg"},{"bike_id":"9b9a2ee3-efd2-44e9-97ae-9a4b19ec3ff6","system_id":"levelo_inurba_marseille","lat":43.2926,"lon":5.37611,"is_reserved":false,"is_disabled":false,"rental_uris":{"android":"levelo://app?vid=9b9a2ee3-efd2-44e9-97ae-9a4b19ec3ff6","ios":"levelo://app?vid=9b9a2ee3-efd2-44e9-97ae-9a4b19ec3ff6"},"vehicle_type_id":"4","last_reported":1741803224,"current_range_meters":8800,"station_id":"ce4bgi12rcd13ifvqb80","pricing_plan_id":"cebpf4jnsgd1na2vs0mg"},{"bike_id":"c4df4535-7d31-495a-82fb-c042b3676ebe","system_id":"levelo_inurba_marseille","lat":43.32347,"lon":5.40618,"is_reserved":false,"is_disabled":false,"rental_uris":{"android":"levelo://app?vid=c4df4535-7d31-495a-82fb-c042b3676ebe","ios":"levelo://app?vid=c4df4535-7d31-495a-82fb-c042b3676ebe"},"vehicle_type_id":"4","last_reported":1741803224,"current_range_meters":8800,"station_id":"ce4bhq92rcd13ifvqhjg","pricing_plan_id":"cebpf4jnsgd1na2vs0mg"},{"bike_id":"03fcef79-f017-4d15-a10d-891c5cd96db2","system_id":"levelo_inurba_marseille","lat":43.23057,"lon":5.3549,"is_reserved":false,"is_disabled":false,"rental_uris":{"android":"levelo://app?vid=03fcef79-f017-4d15-a10d-891c5cd96db2","ios":"levelo://app?vid=03fcef79-f017-4d15-a10d-891c5cd96db2"},"vehicle_type_id":"4","last_reported":1741803224,"current_range_meters":8800,"station_id":"cpo3342slgdg3j2ifvpg","pricing_plan_id":"cebpf4jnsgd1na2vs0mg"},{"bike_id":"f829a819-671e-4b71-9c22-56c5f8047725","system_id":"levelo_inurba_marseille","lat":43.32364,"lon":5.36753,"is_reserved":false,"is_disabled":false,"rental_uris":{"android":"levelo://app?vid=f829a819-671e-4b71-9c22-56c5f8047725","ios":"levelo://app?vid=f829a819-671e-4b71-9c22-56c5f8047725"},"vehicle_type_id":"4","last_reported":1741803224,"current_range_meters":8800,"station_id":"ce4bhsh2rcd13ifvqi2g","pricing_plan_id":"cebpf4jnsgd1na2vs0mg"},{"bike_id":"f076f6f7-e4b4-48be-92db-c2ec27c500f6","system_id":"levelo_inurba_marseille","lat":43.23193,"lon":5.39997,"is_reserved":false,"is_disabled":false,"rental_uris":{"android":"levelo://app?vid=f076f6f7-e4b4-48be-92db-c2ec27c500f6","ios":"levelo://app?vid=f076f6f7-e4b4-48be-92db-c2ec27c500f6"},"vehicle_type_id":"4","last_reported":1741803224,"current_range_meters":9200,"station_id":"ce4bhn12rcd13ifvqgqg","pricing_plan_id":"cebpf4jnsgd1na2vs0mg"},{"bike_id":"66045fb5-9617-4f1d-8d01-96efa06c588b","system_id":"levelo_inurba_marseille","lat":43.29301,"lon":5.37125,"is_reserved":false,"is_disabled":false,"rental_uris":{"android":"levelo://app?vid=66045fb5-9617-4f1d-8d01-96efa06c588b","ios":"levelo://app?vid=66045fb5-9617-4f1d-8d01-96efa06c588b"},"vehicle_type_id":"4","last_reported":1741803224,"current_range_meters":9200,"station_id":"ce4bgh92rcd13ifvqb40","pricing_plan_id":"cebpf4jnsgd1na2vs0mg"},{"bike_id":"aeca8d61-61f7-41ab-a0ef-f49a44bca5c8","system_id":"levelo_inurba_marseille","lat":43.29011,"lon":5.3563,"is_reserved":false,"is_disabled":true,"rental_uris":{"android":"levelo://app?vid=aeca8d61-61f7-41ab-a0ef-f49a44bca5c8","ios":"levelo://app?vid=aeca8d61-61f7-41ab-a0ef-f49a44bca5c8"},"vehicle_type_id":"4","last_reported":1741803224,"current_range_meters":9200,"station_id":"ce4bhb92rcd13ifvqen0","pricing_plan_id":"cebpf4jnsgd1na2vs0mg"},{"bike_id":"9b5074ce-d66f-46e2-8cef-48745c51281b","system_id":"levelo_inurba_marseille","lat":43.30885,"lon":5.39652,"is_reserved":false,"is_disabled":false,"rental_uris":{"android":"levelo://app?vid=9b5074ce-d66f-46e2-8cef-48745c51281b","ios":"levelo://app?vid=9b5074ce-d66f-46e2-8cef-48745c51281b"},"vehicle_type_id":"4","last_reported":1741803224,"current_range_meters":9200,"station_id":"ce4bh012rcd13ifvqcv0","pricing_plan_id":"cebpf4jnsgd1na2vs0mg"},{"bike_id":"29845dc5-37a0-4fe4-ad83-a244b4c5c8a7","system_id":"levelo_inurba_marseille","lat":43.28162,"lon":5.42631,"is_reserved":false,"is_disabled":false,"rental_uris":{"android":"levelo://app?vid=29845dc5-37a0-4fe4-ad83-a244b4c5c8a7","ios":"levelo://app?vid=29845dc5-37a0-4fe4-ad83-a244b4c5c8a7"},"vehicle_type_id":"4","last_reported":1741803224,"current_range_meters":9200,"station_id":"ce4bhnh2rcd13ifvqgug","pricing_plan_id":"cebpf4jnsgd1na2vs0mg"},{"bike_id":"4a9749ff-9763-423f-bd26-59e79de25618","system_id":"levelo_inurba_marseille","lat":43.30411,"lon":5.4129,"is_reserved":false,"is_disabled":false,"rental_uris":{"android":"levelo://app?vid=4a9749ff-9763-423f-bd26-59e79de25618","ios":"levelo://app?vid=4a9749ff-9763-423f-bd26-59e79de25618"},"vehicle_type_id":"4","last_reported":1741803224,"current_range_meters":9200,"station_id":"ce4bhop2rcd13ifvqh8g","pricing_plan_id":"cebpf4jnsgd1na2vs0mg"},{"bike_id":"4d7646fc-f591-41de-8dcc-fa2484fc9a53","system_id":"levelo_inurba_marseille","lat":43.23972,"lon":5.36634,"is_reserved":false,"is_disabled":false,"rental_uris":{"android":"levelo://app?vid=4d7646fc-f591-41de-8dcc-fa2484fc9a53","ios":"levelo://app?vid=4d7646fc-f591-41de-8dcc-fa2484fc9a53"},"vehicle_type_id":"4","last_reported":1741803224,"current_range_meters":9200,"station_id":"ce4bhi12rcd13ifvqfp0","pricing_plan_id":"cebpf4jnsgd1na2vs0mg"},{"bike_id":"b70ce7ef-8969-4901-8934-5513f8055e43","system_id":"levelo_inurba_marseille","lat":43.27852,"lon":5.39207,"is_reserved":false,"is_disabled":false,"rental_uris":{"android":"levelo://app?vid=b70ce7ef-8969-4901-8934-5513f8055e43","ios":"levelo://app?vid=b70ce7ef-8969-4901-8934-5513f8055e43"},"vehicle_type_id":"4","last_reported":1741803224,"current_range_meters":9200,"station_id":"ce4bhjp2rcd13ifvqga0","pricing_plan_id":"cebpf4jnsgd1na2vs0mg"},{"bike_id":"30f2c3d1-cc20-40eb-a852-107a2c1c5edd","system_id":"levelo_inurba_marseille","lat":43.299087,"lon":5.381445,"is_reserved":false,"is_disabled":false,"rental_uris":{"android":"levelo://app?vid=30f2c3d1-cc20-40eb-a852-107a2c1c5edd","ios":"levelo://app?vid=30f2c3d1-cc20-40eb-a852-107a2c1c5edd"},"vehicle_type_id":"4","last_reported":1741803224,"current_range_meters":9600,"station_id":"ce4bgjh2rcd13ifvqbg0","pricing_plan_id":"cebpf4jnsgd1na2vs0mg"},{"bike_id":"a4ce6389-69c8-41eb-a2cb-27e113df5153","system_id":"levelo_inurba_marseille","lat":43.28615,"lon":5.3514,"is_reserved":false,"is_disabled":false,"rental_uris":{"android":"levelo://app?vid=a4ce6389-69c8-41eb-a2cb-27e113df5153","ios":"levelo://app?vid=a4ce6389-69c8-41eb-a2cb-27e113df5153"},"vehicle_type_id":"4","last_reported":1741803224,"current_range_meters":9600,"station_id":"ce4bhch2rcd13ifvqeug","pricing_plan_id":"cebpf4jnsgd1na2vs0mg"},{"bike_id":"07f7354c-ac17-49b2-9499-e6c4b63eca01","system_id":"levelo_inurba_marseille","lat":43.26058,"lon":5.39381,"is_reserved":false,"is_disabled":false,"rental_uris":{"android":"levelo://app?vid=07f7354c-ac17-49b2-9499-e6c4b63eca01","ios":"levelo://app?vid=07f7354c-ac17-49b2-9499-e6c4b63eca01"},"vehicle_type_id":"4","last_reported":1741803224,"current_range_meters":9600,"station_id":"ce4bhh92rcd13ifvqfj0","pricing_plan_id":"cebpf4jnsgd1na2vs0mg"},{"bike_id":"be3eba52-36a5-4f74-89e1-abe140adb5e7","system_id":"levelo_inurba_marseille","lat":43.28573,"lon":5.39499,"is_reserved":false,"is_disabled":false,"rental_uris":{"android":"levelo://app?vid=be3eba52-36a5-4f74-89e1-abe140adb5e7","ios":"levelo://app?vid=be3eba52-36a5-4f74-89e1-abe140adb5e7"},"vehicle_type_id":"4","last_reported":1741803224,"current_range_meters":9600,"station_id":"ce4bh292rcd13ifvqdg0","pricing_plan_id":"cebpf4jnsgd1na2vs0mg"},{"bike_id":"707f97a7-32db-422b-bfa8-ef8d193a1bb4","system_id":"levelo_inurba_marseille","lat":43.292264,"lon":5.363378,"is_reserved":false,"is_disabled":false,"rental_uris":{"android":"levelo://app?vid=707f97a7-32db-422b-bfa8-ef8d193a1bb4","ios":"levelo://app?vid=707f97a7-32db-422b-bfa8-ef8d193a1bb4"},"vehicle_type_id":"4","last_reported":1741803224,"current_range_meters":9600,"station_id":"cpo3532slgdg3j2ikp40","pricing_plan_id":"cebpf4jnsgd1na2vs0mg"},{"bike_id":"11f2552b-2460-4153-a459-65a17defcbf1","system_id":"levelo_inurba_marseille","lat":43.28406,"lon":5.37518,"is_reserved":false,"is_disabled":false,"rental_uris":{"android":"levelo://app?vid=11f2552b-2460-4153-a459-65a17defcbf1","ios":"levelo://app?vid=11f2552b-2460-4153-a459-65a17defcbf1"},"vehicle_type_id":"4","last_reported":1741803224,"current_range_meters":9600,"station_id":"ce4bh412rcd13ifvqds0","pricing_plan_id":"cebpf4jnsgd1na2vs0mg"},{"bike_id":"ec5d08ce-934d-49b5-9a73-c20b44942d11","system_id":"levelo_inurba_marseille","lat":43.31429,"lon":5.37513,"is_reserved":false,"is_disabled":false,"rental_uris":{"android":"levelo://app?vid=ec5d08ce-934d-49b5-9a73-c20b44942d11","ios":"levelo://app?vid=ec5d08ce-934d-49b5-9a73-c20b44942d11"},"vehicle_type_id":"4","last_reported":1741803224,"current_range_meters":9600,"station_id":"","pricing_plan_id":"cebpf4jnsgd1na2vs0mg"},{"bike_id":"43df9bfa-a828-442c-9897-9f0d41ac42f2","system_id":"levelo_inurba_marseille","lat":43.30153,"lon":5.37419,"is_reserved":false,"is_disabled":false,"rental_uris":{"android":"levelo://app?vid=43df9bfa-a828-442c-9897-9f0d41ac42f2","ios":"levelo://app?vid=43df9bfa-a828-442c-9897-9f0d41ac42f2"},"vehicle_type_id":"4","last_reported":1741803224,"current_range_meters":9600,"station_id":"ce4bgs92rcd13ifvqcc0","pricing_plan_id":"cebpf4jnsgd1na2vs0mg"},{"bike_id":"c16477d5-7793-4073-b158-0eaf5052f2dc","system_id":"levelo_inurba_marseille","lat":43.28292,"lon":5.43242,"is_reserved":false,"is_disabled":false,"rental_uris":{"android":"levelo://app?vid=c16477d5-7793-4073-b158-0eaf5052f2dc","ios":"levelo://app?vid=c16477d5-7793-4073-b158-0eaf5052f2dc"},"vehicle_type_id":"4","last_reported":1741803224,"current_range_meters":9600,"station_id":"","pricing_plan_id":"cebpf4jnsgd1na2vs0mg"},{"bike_id":"65b3e6ee-260e-4a65-a75b-07984abceef3","system_id":"levelo_inurba_marseille","lat":43.33014,"lon":5.39053,"is_reserved":false,"is_disabled":false,"rental_uris":{"android":"levelo://app?vid=65b3e6ee-260e-4a65-a75b-07984abceef3","ios":"levelo://app?vid=65b3e6ee-260e-4a65-a75b-07984abceef3"},"vehicle_type_id":"4","last_reported":1741803224,"current_range_meters":9600,"station_id":"ce4bhr92rcd13ifvqhrg","pricing_plan_id":"cebpf4jnsgd1na2vs0mg"},{"bike_id":"1b44384f-3cd3-4b6d-a7ca-1accb3bc5ace","system_id":"levelo_inurba_marseille","lat":43.29419,"lon":5.38622,"is_reserved":false,"is_disabled":false,"rental_uris":{"android":"levelo://app?vid=1b44384f-3cd3-4b6d-a7ca-1accb3bc5ace","ios":"levelo://app?vid=1b44384f-3cd3-4b6d-a7ca-1accb3bc5ace"},"vehicle_type_id":"4","last_reported":1741803224,"current_range_meters":9600,"station_id":"ce4bh2h2rcd13ifvqdh0","pricing_plan_id":"cebpf4jnsgd1na2vs0mg"},{"bike_id":"f82b5a4a-3803-4ccc-a27e-93c32c4ac78b","system_id":"levelo_inurba_marseille","lat":43.30403,"lon":5.41287,"is_reserved":false,"is_disabled":false,"rental_uris":{"android":"levelo://app?vid=f82b5a4a-3803-4ccc-a27e-93c32c4ac78b","ios":"levelo://app?vid=f82b5a4a-3803-4ccc-a27e-93c32c4ac78b"},"vehicle_type_id":"4","last_reported":1741803224,"current_range_meters":9600,"station_id":"ce4bhop2rcd13ifvqh8g","pricing_plan_id":"cebpf4jnsgd1na2vs0mg"},{"bike_id":"6190eac7-4d69-4aee-8885-569caf678aef","system_id":"levelo_inurba_marseille","lat":43.25733,"lon":5.41103,"is_reserved":false,"is_disabled":false,"rental_uris":{"android":"levelo://app?vid=6190eac7-4d69-4aee-8885-569caf678aef","ios":"levelo://app?vid=6190eac7-4d69-4aee-8885-569caf678aef"},"vehicle_type_id":"4","last_reported":1741803224,"current_range_meters":9600,"station_id":"ce4bhkp2rcd13ifvqgd0","pricing_plan_id":"cebpf4jnsgd1na2vs0mg"},{"bike_id":"1bb0937d-9ba1-4ef6-b9f0-674b69c5806f","system_id":"levelo_inurba_marseille","lat":43.29532,"lon":5.39402,"is_reserved":false,"is_disabled":false,"rental_uris":{"android":"levelo://app?vid=1bb0937d-9ba1-4ef6-b9f0-674b69c5806f","ios":"levelo://app?vid=1bb0937d-9ba1-4ef6-b9f0-674b69c5806f"},"vehicle_type_id":"4","last_reported":1741803224,"current_range_meters":9600,"station_id":"ce4bh292rcd13ifvqdf0","pricing_plan_id":"cebpf4jnsgd1na2vs0mg"},{"bike_id":"12d8c0d4-6abc-4053-9c8c-690abca02735","system_id":"levelo_inurba_marseille","lat":43.31173,"lon":5.37463,"is_reserved":false,"is_disabled":false,"rental_uris":{"android":"levelo://app?vid=12d8c0d4-6abc-4053-9c8c-690abca02735","ios":"levelo://app?vid=12d8c0d4-6abc-4053-9c8c-690abca02735"},"vehicle_type_id":"4","last_reported":1741803224,"current_range_meters":9600,"station_id":"","pricing_plan_id":"cebpf4jnsgd1na2vs0mg"},{"bike_id":"5c34724b-f087-4af8-81a9-c8f257f8749c","system_id":"levelo_inurba_marseille","lat":43.27569,"lon":5.38403,"is_reserved":false,"is_disabled":false,"rental_uris":{"android":"levelo://app?vid=5c34724b-f087-4af8-81a9-c8f257f8749c","ios":"levelo://app?vid=5c34724b-f087-4af8-81a9-c8f257f8749c"},"vehicle_type_id":"4","last_reported":1741803224,"current_range_meters":9600,"station_id":"ce4bhh92rcd13ifvqfi0","pricing_plan_id":"cebpf4jnsgd1na2vs0mg"},{"bike_id":"0a4293a2-53c4-43b6-ab71-b6a6692af996","system_id":"levelo_inurba_marseille","lat":43.2953,"lon":5.39039,"is_reserved":false,"is_disabled":false,"rental_uris":{"android":"levelo://app?vid=0a4293a2-53c4-43b6-ab71-b6a6692af996","ios":"levelo://app?vid=0a4293a2-53c4-43b6-ab71-b6a6692af996"},"vehicle_type_id":"4","last_reported":1741803224,"current_range_meters":10000,"station_id":"ce4bh3p2rcd13ifvqdp0","pricing_plan_id":"cebpf4jnsgd1na2vs0mg"},{"bike_id":"459fa484-6061-4cf3-8db3-46e1a48f28e2","system_id":"levelo_inurba_marseille","lat":43.29549,"lon":5.3855,"is_reserved":false,"is_disabled":false,"rental_uris":{"android":"levelo://app?vid=459fa484-6061-4cf3-8db3-46e1a48f28e2","ios":"levelo://app?vid=459fa484-6061-4cf3-8db3-46e1a48f28e2"},"vehicle_type_id":"4","last_reported":1741803224,"current_range_meters":10000,"station_id":"ce4bgih2rcd13ifvqba0","pricing_plan_id":"cebpf4jnsgd1na2vs0mg"},{"bike_id":"46f2e81a-8d75-4b81-a3ee-d46e23c0fa4e","system_id":"levelo_inurba_marseille","lat":43.245383,"lon":5.395163,"is_reserved":false,"is_disabled":false,"rental_uris":{"android":"levelo://app?vid=46f2e81a-8d75-4b81-a3ee-d46e23c0fa4e","ios":"levelo://app?vid=46f2e81a-8d75-4b81-a3ee-d46e23c0fa4e"},"vehicle_type_id":"4","last_reported":1741803224,"current_range_meters":10000,"station_id":"ce4bhlp2rcd13ifvqgjg","pricing_plan_id":"cebpf4jnsgd1na2vs0mg"},{"bike_id":"fa7cbca1-85b3-4296-b8d7-b151db577a79","system_id":"levelo_inurba_marseille","lat":43.29587,"lon":5.39958,"is_reserved":false,"is_disabled":false,"rental_uris":{"android":"levelo://app?vid=fa7cbca1-85b3-4296-b8d7-b151db577a79","ios":"levelo://app?vid=fa7cbca1-85b3-4296-b8d7-b151db577a79"},"vehicle_type_id":"4","last_reported":1741803224,"current_range_meters":10000,"station_id":"ce4bh312rcd13ifvqdj0","pricing_plan_id":"cebpf4jnsgd1na2vs0mg"},{"bike_id":"20719e7d-e656-4d2f-a019-3cbf98c17c5e","system_id":"levelo_inurba_marseille","lat":43.28617,"lon":5.35106,"is_reserved":false,"is_disabled":false,"rental_uris":{"android":"levelo://app?vid=20719e7d-e656-4d2f-a019-3cbf98c17c5e","ios":"levelo://app?vid=20719e7d-e656-4d2f-a019-3cbf98c17c5e"},"vehicle_type_id":"4","last_reported":1741803224,"current_range_meters":10000,"station_id":"ce4bhch2rcd13ifvqeug","pricing_plan_id":"cebpf4jnsgd1na2vs0mg"},{"bike_id":"600a8b1d-91ce-4fc9-92cd-846d63d5cb51","system_id":"levelo_inurba_marseille","lat":43.25003,"lon":5.38927,"is_reserved":false,"is_disabled":false,"rental_uris":{"android":"levelo://app?vid=600a8b1d-91ce-4fc9-92cd-846d63d5cb51","ios":"levelo://app?vid=600a8b1d-91ce-4fc9-92cd-846d63d5cb51"},"vehicle_type_id":"4","last_reported":1741803224,"current_range_meters":10000,"station_id":"ce4bhgp2rcd13ifvqfd0","pricing_plan_id":"cebpf4jnsgd1na2vs0mg"},{"bike_id":"53ff2450-4a83-48aa-8d18-ea01a70401f6","system_id":"levelo_inurba_marseille","lat":43.25581,"lon":5.38236,"is_reserved":false,"is_disabled":false,"rental_uris":{"android":"levelo://app?vid=53ff2450-4a83-48aa-8d18-ea01a70401f6","ios":"levelo://app?vid=53ff2450-4a83-48aa-8d18-ea01a70401f6"},"vehicle_type_id":"4","last_reported":1741803224,"current_range_meters":10000,"station_id":"ce4bhih2rcd13ifvqfs0","pricing_plan_id":"cebpf4jnsgd1na2vs0mg"},{"bike_id":"485f1510-a973-46b6-8b2d-6d22ffc60cae","system_id":"levelo_inurba_marseille","lat":43.24174,"lon":5.3643,"is_reserved":false,"is_disabled":false,"rental_uris":{"android":"levelo://app?vid=485f1510-a973-46b6-8b2d-6d22ffc60cae","ios":"levelo://app?vid=485f1510-a973-46b6-8b2d-6d22ffc60cae"},"vehicle_type_id":"4","last_reported":1741803224,"current_range_meters":10000,"station_id":"cpo36qri1sfpv3e86is0","pricing_plan_id":"cebpf4jnsgd1na2vs0mg"},{"bike_id":"843eb4ae-ecca-4ae8-b949-be2f1e5ae79e","system_id":"levelo_inurba_marseille","lat":43.29446,"lon":5.38646,"is_reserved":false,"is_disabled":false,"rental_uris":{"android":"levelo://app?vid=843eb4ae-ecca-4ae8-b949-be2f1e5ae79e","ios":"levelo://app?vid=843eb4ae-ecca-4ae8-b949-be2f1e5ae79e"},"vehicle_type_id":"4","last_reported":1741803224,"current_range_meters":10000,"station_id":"ce4bh2h2rcd13ifvqdh0","pricing_plan_id":"cebpf4jnsgd1na2vs0mg"},{"bike_id":"2e973f94-f907-43c7-a668-6683ad848102","system_id":"levelo_inurba_marseille","lat":43.28464,"lon":5.35877,"is_reserved":false,"is_disabled":false,"rental_uris":{"android":"levelo://app?vid=2e973f94-f907-43c7-a668-6683ad848102","ios":"levelo://app?vid=2e973f94-f907-43c7-a668-6683ad848102"},"vehicle_type_id":"4","last_reported":1741803224,"current_range_meters":10000,"station_id":"ce4bhah2rcd13ifvqei0","pricing_plan_id":"cebpf4jnsgd1na2vs0mg"},{"bike_id":"1a26ce95-2351-4587-9afe-d2f016471b46","system_id":"levelo_inurba_marseille","lat":43.30604,"lon":5.39368,"is_reserved":false,"is_disabled":false,"rental_uris":{"android":"levelo://app?vid=1a26ce95-2351-4587-9afe-d2f016471b46","ios":"levelo://app?vid=1a26ce95-2351-4587-9afe-d2f016471b46"},"vehicle_type_id":"4","last_reported":1741803224,"current_range_meters":10000,"station_id":"ce4bh0p2rcd13ifvqd80","pricing_plan_id":"cebpf4jnsgd1na2vs0mg"},{"bike_id":"2d16443d-ed2e-4c48-af94-4deffe2479f1","system_id":"levelo_inurba_marseille","lat":43.2501,"lon":5.38916,"is_reserved":false,"is_disabled":false,"rental_uris":{"android":"levelo://app?vid=2d16443d-ed2e-4c48-af94-4deffe2479f1","ios":"levelo://app?vid=2d16443d-ed2e-4c48-af94-4deffe2479f1"},"vehicle_type_id":"4","last_reported":1741803224,"current_range_meters":10000,"station_id":"ce4bhgp2rcd13ifvqfd0","pricing_plan_id":"cebpf4jnsgd1na2vs0mg"},{"bike_id":"213c5f9b-6655-4e9a-8cb8-e86a1e2c533c","system_id":"levelo_inurba_marseille","lat":43.27378,"lon":5.36258,"is_reserved":false,"is_disabled":false,"rental_uris":{"android":"levelo://app?vid=213c5f9b-6655-4e9a-8cb8-e86a1e2c533c","ios":"levelo://app?vid=213c5f9b-6655-4e9a-8cb8-e86a1e2c533c"},"vehicle_type_id":"4","last_reported":1741803224,"current_range_meters":10000,"station_id":"ce4bhbh2rcd13ifvqeo0","pricing_plan_id":"cebpf4jnsgd1na2vs0mg"},{"bike_id":"4dec2e31-6986-45d0-997d-a7c40ba56373","system_id":"levelo_inurba_marseille","lat":43.29301,"lon":5.37459,"is_reserved":false,"is_disabled":false,"rental_uris":{"android":"levelo://app?vid=4dec2e31-6986-45d0-997d-a7c40ba56373","ios":"levelo://app?vid=4dec2e31-6986-45d0-997d-a7c40ba56373"},"vehicle_type_id":"4","last_reported":1741803224,"current_range_meters":10000,"station_id":"ce4bgi12rcd13ifvqb70","pricing_plan_id":"cebpf4jnsgd1na2vs0mg"},{"bike_id":"e83fe258-c109-4362-a4e8-292a18525663","system_id":"levelo_inurba_marseille","lat":43.29208,"lon":5.39326,"is_reserved":false,"is_disabled":false,"rental_uris":{"android":"levelo://app?vid=e83fe258-c109-4362-a4e8-292a18525663","ios":"levelo://app?vid=e83fe258-c109-4362-a4e8-292a18525663"},"vehicle_type_id":"4","last_reported":1741803224,"current_range_meters":10000,"station_id":"ce4bh192rcd13ifvqdd0","pricing_plan_id":"cebpf4jnsgd1na2vs0mg"},{"bike_id":"0a995a9a-6122-4f4b-b298-a8b06cbca7e2","system_id":"levelo_inurba_marseille","lat":43.25002,"lon":5.38907,"is_reserved":false,"is_disabled":false,"rental_uris":{"android":"levelo://app?vid=0a995a9a-6122-4f4b-b298-a8b06cbca7e2","ios":"levelo://app?vid=0a995a9a-6122-4f4b-b298-a8b06cbca7e2"},"vehicle_type_id":"4","last_reported":1741803224,"current_range_meters":10800,"station_id":"ce4bhgp2rcd13ifvqfd0","pricing_plan_id":"cebpf4jnsgd1na2vs0mg"},{"bike_id":"84fa7286-e7f8-4903-bd5a-b297c2c64e6f","system_id":"levelo_inurba_marseille","lat":43.29262,"lon":5.40903,"is_reserved":false,"is_disabled":false,"rental_uris":{"android":"levelo://app?vid=84fa7286-e7f8-4903-bd5a-b297c2c64e6f","ios":"levelo://app?vid=84fa7286-e7f8-4903-bd5a-b297c2c64e6f"},"vehicle_type_id":"4","last_reported":1741803224,"current_range_meters":10800,"station_id":"ce4bh192rcd13ifvqdc0","pricing_plan_id":"cebpf4jnsgd1na2vs0mg"},{"bike_id":"df6b060b-9f9e-4288-bcc1-ae0d53050642","system_id":"levelo_inurba_marseille","lat":43.22923,"lon":5.35384,"is_reserved":false,"is_disabled":false,"rental_uris":{"android":"levelo://app?vid=df6b060b-9f9e-4288-bcc1-ae0d53050642","ios":"levelo://app?vid=df6b060b-9f9e-4288-bcc1-ae0d53050642"},"vehicle_type_id":"4","last_reported":1741803224,"current_range_meters":10800,"station_id":"cpo3532slgdg3j2ikp40","pricing_plan_id":"cebpf4jnsgd1na2vs0mg"},{"bike_id":"55fe5d5a-17ad-4e56-ad62-6cc28a264c81","system_id":"levelo_inurba_marseille","lat":43.25001,"lon":5.38932,"is_reserved":false,"is_disabled":false,"rental_uris":{"android":"levelo://app?vid=55fe5d5a-17ad-4e56-ad62-6cc28a264c81","ios":"levelo://app?vid=55fe5d5a-17ad-4e56-ad62-6cc28a264c81"},"vehicle_type_id":"4","last_reported":1741803224,"current_range_meters":10800,"station_id":"ce4bhgp2rcd13ifvqfd0","pricing_plan_id":"cebpf4jnsgd1na2vs0mg"},{"bike_id":"4b7a2d81-ce82-46d8-89dc-2d3efebdf7b2","system_id":"levelo_inurba_marseille","lat":43.295396,"lon":5.390338,"is_reserved":false,"is_disabled":false,"rental_uris":{"android":"levelo://app?vid=4b7a2d81-ce82-46d8-89dc-2d3efebdf7b2","ios":"levelo://app?vid=4b7a2d81-ce82-46d8-89dc-2d3efebdf7b2"},"vehicle_type_id":"4","last_reported":1741803224,"current_range_meters":10800,"station_id":"ce4bh3p2rcd13ifvqdp0","pricing_plan_id":"cebpf4jnsgd1na2vs0mg"},{"bike_id":"9f25a6ad-433a-45b0-a0d0-4a619d769e26","system_id":"levelo_inurba_marseille","lat":43.23191,"lon":5.35564,"is_reserved":false,"is_disabled":false,"rental_uris":{"android":"levelo://app?vid=9f25a6ad-433a-45b0-a0d0-4a619d769e26","ios":"levelo://app?vid=9f25a6ad-433a-45b0-a0d0-4a619d769e26"},"vehicle_type_id":"4","last_reported":1741803224,"current_range_meters":10800,"station_id":"ce4bhu92rcd13ifvqi70","pricing_plan_id":"cebpf4jnsgd1na2vs0mg"},{"bike_id":"ba20e47c-896a-493f-8190-db8826082c81","system_id":"levelo_inurba_marseille","lat":43.315583,"lon":5.388062,"is_reserved":false,"is_disabled":false,"rental_uris":{"android":"levelo://app?vid=ba20e47c-896a-493f-8190-db8826082c81","ios":"levelo://app?vid=ba20e47c-896a-493f-8190-db8826082c81"},"vehicle_type_id":"4","last_reported":1741803224,"current_range_meters":10800,"station_id":"ce4bgqh2rcd13ifvqc4g","pricing_plan_id":"cebpf4jnsgd1na2vs0mg"},{"bike_id":"f9ddc9a1-e83b-4776-8488-d9a472c71b09","system_id":"levelo_inurba_marseille","lat":43.2744,"lon":5.39373,"is_reserved":false,"is_disabled":false,"rental_uris":{"android":"levelo://app?vid=f9ddc9a1-e83b-4776-8488-d9a472c71b09","ios":"levelo://app?vid=f9ddc9a1-e83b-4776-8488-d9a472c71b09"},"vehicle_type_id":"4","last_reported":1741803224,"current_range_meters":10800,"station_id":"ce4bhdp2rcd13ifvqf20","pricing_plan_id":"cebpf4jnsgd1na2vs0mg"},{"bike_id":"bb667e62-ac81-4b79-b92a-765b7a017aad","system_id":"levelo_inurba_marseille","lat":43.30432,"lon":5.38877,"is_reserved":false,"is_disabled":false,"rental_uris":{"android":"levelo://app?vid=bb667e62-ac81-4b79-b92a-765b7a017aad","ios":"levelo://app?vid=bb667e62-ac81-4b79-b92a-765b7a017aad"},"vehicle_type_id":"4","last_reported":1741803224,"current_range_meters":10800,"station_id":"ce4bgk12rcd13ifvqbi0","pricing_plan_id":"cebpf4jnsgd1na2vs0mg"},{"bike_id":"6dbc9b4a-c5a1-4dbf-a00f-5bb7462d2694","system_id":"levelo_inurba_marseille","lat":43.28097,"lon":5.39835,"is_reserved":false,"is_disabled":false,"rental_uris":{"android":"levelo://app?vid=6dbc9b4a-c5a1-4dbf-a00f-5bb7462d2694","ios":"levelo://app?vid=6dbc9b4a-c5a1-4dbf-a00f-5bb7462d2694"},"vehicle_type_id":"4","last_reported":1741803224,"current_range_meters":10800,"station_id":"","pricing_plan_id":"cebpf4jnsgd1na2vs0mg"},{"bike_id":"f89b9f3b-9595-4d0e-acf5-ac5f650bb50c","system_id":"levelo_inurba_marseille","lat":43.30383,"lon":5.42448,"is_reserved":false,"is_disabled":false,"rental_uris":{"android":"levelo://app?vid=f89b9f3b-9595-4d0e-acf5-ac5f650bb50c","ios":"levelo://app?vid=f89b9f3b-9595-4d0e-acf5-ac5f650bb50c"},"vehicle_type_id":"4","last_reported":1741803224,"current_range_meters":10800,"station_id":"ce4bghh2rcd13ifvqb60","pricing_plan_id":"cebpf4jnsgd1na2vs0mg"},{"bike_id":"27f76c2b-d63f-4028-9cd1-2303e7f55327","system_id":"levelo_inurba_marseille","lat":43.29979,"lon":5.38489,"is_reserved":false,"is_disabled":false,"rental_uris":{"android":"levelo://app?vid=27f76c2b-d63f-4028-9cd1-2303e7f55327","ios":"levelo://app?vid=27f76c2b-d63f-4028-9cd1-2303e7f55327"},"vehicle_type_id":"4","last_reported":1741803224,"current_range_meters":10800,"station_id":"ce4bgj92rcd13ifvqbd0","pricing_plan_id":"cebpf4jnsgd1na2vs0mg"},{"bike_id":"4fd8d803-383c-45ac-a0f3-c619c7ffab9f","system_id":"levelo_inurba_marseille","lat":43.29789,"lon":5.38115,"is_reserved":false,"is_disabled":false,"rental_uris":{"android":"levelo://app?vid=4fd8d803-383c-45ac-a0f3-c619c7ffab9f","ios":"levelo://app?vid=4fd8d803-383c-45ac-a0f3-c619c7ffab9f"},"vehicle_type_id":"4","last_reported":1741803224,"current_range_meters":10800,"station_id":"ce4bgip2rcd13ifvqbb0","pricing_plan_id":"cebpf4jnsgd1na2vs0mg"},{"bike_id":"013f9f0a-a5f3-4139-8086-451cb3895860","system_id":"levelo_inurba_marseille","lat":43.29717,"lon":5.36607,"is_reserved":false,"is_disabled":false,"rental_uris":{"android":"levelo://app?vid=013f9f0a-a5f3-4139-8086-451cb3895860","ios":"levelo://app?vid=013f9f0a-a5f3-4139-8086-451cb3895860"},"vehicle_type_id":"4","last_reported":1741803224,"current_range_meters":10800,"station_id":"ce4bgn12rcd13ifvqbt0","pricing_plan_id":"cebpf4jnsgd1na2vs0mg"},{"bike_id":"7d4aedfe-c4d1-46e1-9530-386849f612f8","system_id":"levelo_inurba_marseille","lat":43.30383,"lon":5.42487,"is_reserved":false,"is_disabled":false,"rental_uris":{"android":"levelo://app?vid=7d4aedfe-c4d1-46e1-9530-386849f612f8","ios":"levelo://app?vid=7d4aedfe-c4d1-46e1-9530-386849f612f8"},"vehicle_type_id":"4","last_reported":1741803224,"current_range_meters":10800,"station_id":"ce4bghh2rcd13ifvqb60","pricing_plan_id":"cebpf4jnsgd1na2vs0mg"},{"bike_id":"c985f224-f9dc-464f-a18f-adfe226f7eec","system_id":"levelo_inurba_marseille","lat":43.29276,"lon":5.40907,"is_reserved":false,"is_disabled":false,"rental_uris":{"android":"levelo://app?vid=c985f224-f9dc-464f-a18f-adfe226f7eec","ios":"levelo://app?vid=c985f224-f9dc-464f-a18f-adfe226f7eec"},"vehicle_type_id":"4","last_reported":1741803224,"current_range_meters":10800,"station_id":"ce4bh192rcd13ifvqdc0","pricing_plan_id":"cebpf4jnsgd1na2vs0mg"},{"bike_id":"6c83aba9-eb1e-4e35-add9-1ed6c49a74fd","system_id":"levelo_inurba_marseille","lat":43.27996,"lon":5.41658,"is_reserved":false,"is_disabled":false,"rental_uris":{"android":"levelo://app?vid=6c83aba9-eb1e-4e35-add9-1ed6c49a74fd","ios":"levelo://app?vid=6c83aba9-eb1e-4e35-add9-1ed6c49a74fd"},"vehicle_type_id":"4","last_reported":1741803224,"current_range_meters":10800,"station_id":"ce4bho12rcd13ifvqh1g","pricing_plan_id":"cebpf4jnsgd1na2vs0mg"},{"bike_id":"3baf227d-0be9-4b96-8721-684a3fb14c35","system_id":"levelo_inurba_marseille","lat":43.318395,"lon":5.373105,"is_reserved":false,"is_disabled":false,"rental_uris":{"android":"levelo://app?vid=3baf227d-0be9-4b96-8721-684a3fb14c35","ios":"levelo://app?vid=3baf227d-0be9-4b96-8721-684a3fb14c35"},"vehicle_type_id":"4","last_reported":1741803224,"current_range_meters":11200,"station_id":"","pricing_plan_id":"cebpf4jnsgd1na2vs0mg"},{"bike_id":"9c9b4fe2-0c24-4e47-8858-2d4973e49f79","system_id":"levelo_inurba_marseille","lat":43.27564,"lon":5.38427,"is_reserved":false,"is_disabled":false,"rental_uris":{"android":"levelo://app?vid=9c9b4fe2-0c24-4e47-8858-2d4973e49f79","ios":"levelo://app?vid=9c9b4fe2-0c24-4e47-8858-2d4973e49f79"},"vehicle_type_id":"4","last_reported":1741803224,"current_range_meters":11200,"station_id":"ce4bhh92rcd13ifvqfi0","pricing_plan_id":"cebpf4jnsgd1na2vs0mg"},{"bike_id":"4ba92e91-2340-474d-9340-f7b21657d567","system_id":"levelo_inurba_marseille","lat":43.26576,"lon":5.39031,"is_reserved":false,"is_disabled":false,"rental_uris":{"android":"levelo://app?vid=4ba92e91-2340-474d-9340-f7b21657d567","ios":"levelo://app?vid=4ba92e91-2340-474d-9340-f7b21657d567"},"vehicle_type_id":"4","last_reported":1741803224,"current_range_meters":11200,"station_id":"ce4bhe12rcd13ifvqf30","pricing_plan_id":"cebpf4jnsgd1na2vs0mg"},{"bike_id":"92d43dae-3551-41d5-8a85-36f0642a11da","system_id":"levelo_inurba_marseille","lat":43.29635,"lon":5.3815,"is_reserved":false,"is_disabled":false,"rental_uris":{"android":"levelo://app?vid=92d43dae-3551-41d5-8a85-36f0642a11da","ios":"levelo://app?vid=92d43dae-3551-41d5-8a85-36f0642a11da"},"vehicle_type_id":"4","last_reported":1741803224,"current_range_meters":11200,"station_id":"ce4bgl12rcd13ifvqbo0","pricing_plan_id":"cebpf4jnsgd1na2vs0mg"},{"bike_id":"af64c64c-9a01-418f-87e7-78e6ba5b9d14","system_id":"levelo_inurba_marseille","lat":43.30593,"lon":5.39358,"is_reserved":false,"is_disabled":false,"rental_uris":{"android":"levelo://app?vid=af64c64c-9a01-418f-87e7-78e6ba5b9d14","ios":"levelo://app?vid=af64c64c-9a01-418f-87e7-78e6ba5b9d14"},"vehicle_type_id":"4","last_reported":1741803224,"current_range_meters":11200,"station_id":"ce4bh0p2rcd13ifvqd80","pricing_plan_id":"cebpf4jnsgd1na2vs0mg"},{"bike_id":"f4330146-bc06-4a10-a6f7-4e22fb58cd0d","system_id":"levelo_inurba_marseille","lat":43.28996,"lon":5.38686,"is_reserved":false,"is_disabled":false,"rental_uris":{"android":"levelo://app?vid=f4330146-bc06-4a10-a6f7-4e22fb58cd0d","ios":"levelo://app?vid=f4330146-bc06-4a10-a6f7-4e22fb58cd0d"},"vehicle_type_id":"4","last_reported":1741803224,"current_range_meters":11200,"station_id":"ce4bh4p2rcd13ifvqe0g","pricing_plan_id":"cebpf4jnsgd1na2vs0mg"},{"bike_id":"27978618-6a05-41e9-b500-4c9c04aec95f","system_id":"levelo_inurba_marseille","lat":43.28148,"lon":5.42649,"is_reserved":false,"is_disabled":false,"rental_uris":{"android":"levelo://app?vid=27978618-6a05-41e9-b500-4c9c04aec95f","ios":"levelo://app?vid=27978618-6a05-41e9-b500-4c9c04aec95f"},"vehicle_type_id":"4","last_reported":1741803224,"current_range_meters":11200,"station_id":"ce4bhnh2rcd13ifvqgug","pricing_plan_id":"cebpf4jnsgd1na2vs0mg"},{"bike_id":"23667599-c39f-4b94-a83e-082050eb199c","system_id":"levelo_inurba_marseille","lat":43.28437,"lon":5.37572,"is_reserved":false,"is_disabled":false,"rental_uris":{"android":"levelo://app?vid=23667599-c39f-4b94-a83e-082050eb199c","ios":"levelo://app?vid=23667599-c39f-4b94-a83e-082050eb199c"},"vehicle_type_id":"4","last_reported":1741803224,"current_range_meters":11200,"station_id":"","pricing_plan_id":"cebpf4jnsgd1na2vs0mg"},{"bike_id":"4ad56eea-d829-4f6d-9960-72e92a6b1135","system_id":"levelo_inurba_marseille","lat":43.30904,"lon":5.37182,"is_reserved":false,"is_disabled":false,"rental_uris":{"android":"levelo://app?vid=4ad56eea-d829-4f6d-9960-72e92a6b1135","ios":"levelo://app?vid=4ad56eea-d829-4f6d-9960-72e92a6b1135"},"vehicle_type_id":"4","last_reported":1741803224,"current_range_meters":11200,"station_id":"ce4bguh2rcd13ifvqckg","pricing_plan_id":"cebpf4jnsgd1na2vs0mg"},{"bike_id":"6ee60008-6479-4bd4-a4a4-8bc38d1b7c18","system_id":"levelo_inurba_marseille","lat":43.28713,"lon":5.37936,"is_reserved":false,"is_disabled":false,"rental_uris":{"android":"levelo://app?vid=6ee60008-6479-4bd4-a4a4-8bc38d1b7c18","ios":"levelo://app?vid=6ee60008-6479-4bd4-a4a4-8bc38d1b7c18"},"vehicle_type_id":"4","last_reported":1741803224,"current_range_meters":11200,"station_id":"ce4bh9p2rcd13ifvqec0","pricing_plan_id":"cebpf4jnsgd1na2vs0mg"},{"bike_id":"25c60722-2019-40de-883a-d0c16c5ff8db","system_id":"levelo_inurba_marseille","lat":43.29604,"lon":5.38102,"is_reserved":false,"is_disabled":false,"rental_uris":{"android":"levelo://app?vid=25c60722-2019-40de-883a-d0c16c5ff8db","ios":"levelo://app?vid=25c60722-2019-40de-883a-d0c16c5ff8db"},"vehicle_type_id":"4","last_reported":1741803224,"current_range_meters":11200,"station_id":"ce4bgl12rcd13ifvqbo0","pricing_plan_id":"cebpf4jnsgd1na2vs0mg"},{"bike_id":"d7a2860a-e352-45d5-b451-fd9d27899b78","system_id":"levelo_inurba_marseille","lat":43.2407,"lon":5.37765,"is_reserved":false,"is_disabled":false,"rental_uris":{"android":"levelo://app?vid=d7a2860a-e352-45d5-b451-fd9d27899b78","ios":"levelo://app?vid=d7a2860a-e352-45d5-b451-fd9d27899b78"},"vehicle_type_id":"4","last_reported":1741803224,"current_range_meters":11200,"station_id":"ce4bhnp2rcd13ifvqgvg","pricing_plan_id":"cebpf4jnsgd1na2vs0mg"},{"bike_id":"8c25ebae-476e-46e9-b505-692058b7ab14","system_id":"levelo_inurba_marseille","lat":43.29546,"lon":5.42275,"is_reserved":false,"is_disabled":false,"rental_uris":{"android":"levelo://app?vid=8c25ebae-476e-46e9-b505-692058b7ab14","ios":"levelo://app?vid=8c25ebae-476e-46e9-b505-692058b7ab14"},"vehicle_type_id":"4","last_reported":1741803224,"current_range_meters":11600,"station_id":"ce4bhph2rcd13ifvqhdg","pricing_plan_id":"cebpf4jnsgd1na2vs0mg"},{"bike_id":"97ca9420-b25d-4ea8-a141-f0d6f74107a6","system_id":"levelo_inurba_marseille","lat":43.29214,"lon":5.39319,"is_reserved":false,"is_disabled":false,"rental_uris":{"android":"levelo://app?vid=97ca9420-b25d-4ea8-a141-f0d6f74107a6","ios":"levelo://app?vid=97ca9420-b25d-4ea8-a141-f0d6f74107a6"},"vehicle_type_id":"4","last_reported":1741803224,"current_range_meters":11600,"station_id":"ce4bh192rcd13ifvqdd0","pricing_plan_id":"cebpf4jnsgd1na2vs0mg"},{"bike_id":"be29a3ba-daba-41fe-83eb-4a323bcbaf56","system_id":"levelo_inurba_marseille","lat":43.30131,"lon":5.38786,"is_reserved":false,"is_disabled":false,"rental_uris":{"android":"levelo://app?vid=be29a3ba-daba-41fe-83eb-4a323bcbaf56","ios":"levelo://app?vid=be29a3ba-daba-41fe-83eb-4a323bcbaf56"},"vehicle_type_id":"4","last_reported":1741803224,"current_range_meters":11600,"station_id":"ce4bghh2rcd13ifvqb60","pricing_plan_id":"cebpf4jnsgd1na2vs0mg"},{"bike_id":"79e732be-e7d8-4dc9-8c8f-89d56717d799","system_id":"levelo_inurba_marseille","lat":43.2904,"lon":5.37547,"is_reserved":false,"is_disabled":true,"rental_uris":{"android":"levelo://app?vid=79e732be-e7d8-4dc9-8c8f-89d56717d799","ios":"levelo://app?vid=79e732be-e7d8-4dc9-8c8f-89d56717d799"},"vehicle_type_id":"4","last_reported":1741803224,"current_range_meters":11600,"station_id":"ce4bh692rcd13ifvqe90","pricing_plan_id":"cebpf4jnsgd1na2vs0mg"},{"bike_id":"c2fdc035-3896-46f1-aee2-5294a5907071","system_id":"levelo_inurba_marseille","lat":43.25,"lon":5.38937,"is_reserved":false,"is_disabled":false,"rental_uris":{"android":"levelo://app?vid=c2fdc035-3896-46f1-aee2-5294a5907071","ios":"levelo://app?vid=c2fdc035-3896-46f1-aee2-5294a5907071"},"vehicle_type_id":"4","last_reported":1741803224,"current_range_meters":11600,"station_id":"ce4bhgp2rcd13ifvqfd0","pricing_plan_id":"cebpf4jnsgd1na2vs0mg"},{"bike_id":"84b41223-5438-49ab-ac4e-911d33c36636","system_id":"levelo_inurba_marseille","lat":43.30188,"lon":5.36607,"is_reserved":false,"is_disabled":false,"rental_uris":{"android":"levelo://app?vid=84b41223-5438-49ab-ac4e-911d33c36636","ios":"levelo://app?vid=84b41223-5438-49ab-ac4e-911d33c36636"},"vehicle_type_id":"4","last_reported":1741803224,"current_range_meters":11600,"station_id":"ce4bgrh2rcd13ifvqc8g","pricing_plan_id":"cebpf4jnsgd1na2vs0mg"},{"bike_id":"a1a835b2-7625-464b-926b-a286982c4984","system_id":"levelo_inurba_marseille","lat":43.244,"lon":5.37051,"is_reserved":false,"is_disabled":false,"rental_uris":{"android":"levelo://app?vid=a1a835b2-7625-464b-926b-a286982c4984","ios":"levelo://app?vid=a1a835b2-7625-464b-926b-a286982c4984"},"vehicle_type_id":"4","last_reported":1741803224,"current_range_meters":12000,"station_id":"ce4bhhh2rcd13ifvqfk0","pricing_plan_id":"cebpf4jnsgd1na2vs0mg"},{"bike_id":"4cf60356-1cab-4b56-abe3-cbbc3b2a278a","system_id":"levelo_inurba_marseille","lat":43.29984,"lon":5.38481,"is_reserved":false,"is_disabled":false,"rental_uris":{"android":"levelo://app?vid=4cf60356-1cab-4b56-abe3-cbbc3b2a278a","ios":"levelo://app?vid=4cf60356-1cab-4b56-abe3-cbbc3b2a278a"},"vehicle_type_id":"4","last_reported":1741803224,"current_range_meters":12000,"station_id":"ce4bgj92rcd13ifvqbd0","pricing_plan_id":"cebpf4jnsgd1na2vs0mg"},{"bike_id":"9dc8ba98-3de9-4f14-81e1-9a5589e794de","system_id":"levelo_inurba_marseille","lat":43.258593,"lon":5.39898,"is_reserved":false,"is_disabled":true,"rental_uris":{"android":"levelo://app?vid=9dc8ba98-3de9-4f14-81e1-9a5589e794de","ios":"levelo://app?vid=9dc8ba98-3de9-4f14-81e1-9a5589e794de"},"vehicle_type_id":"4","last_reported":1741803224,"current_range_meters":12000,"station_id":"ce4bhl92rcd13ifvqghg","pricing_plan_id":"cebpf4jnsgd1na2vs0mg"},{"bike_id":"4ad9c640-704f-4648-a12d-b5105947d193","system_id":"levelo_inurba_marseille","lat":43.27805,"lon":5.40717,"is_reserved":false,"is_disabled":false,"rental_uris":{"android":"levelo://app?vid=4ad9c640-704f-4648-a12d-b5105947d193","ios":"levelo://app?vid=4ad9c640-704f-4648-a12d-b5105947d193"},"vehicle_type_id":"4","last_reported":1741803224,"current_range_meters":12000,"station_id":"ce4bhnh2rcd13ifvqgtg","pricing_plan_id":"cebpf4jnsgd1na2vs0mg"},{"bike_id":"c8f5a7aa-328f-49c1-a785-9624fa888d07","system_id":"levelo_inurba_marseille","lat":43.25015,"lon":5.38918,"is_reserved":false,"is_disabled":false,"rental_uris":{"android":"levelo://app?vid=c8f5a7aa-328f-49c1-a785-9624fa888d07","ios":"levelo://app?vid=c8f5a7aa-328f-49c1-a785-9624fa888d07"},"vehicle_type_id":"4","last_reported":1741803224,"current_range_meters":12000,"station_id":"ce4bhgp2rcd13ifvqfd0","pricing_plan_id":"cebpf4jnsgd1na2vs0mg"},{"bike_id":"0234a9c0-0d92-4771-9dd1-5abbd3156dde","system_id":"levelo_inurba_marseille","lat":43.240708,"lon":5.377372,"is_reserved":false,"is_disabled":false,"rental_uris":{"android":"levelo://app?vid=0234a9c0-0d92-4771-9dd1-5abbd3156dde","ios":"levelo://app?vid=0234a9c0-0d92-4771-9dd1-5abbd3156dde"},"vehicle_type_id":"4","last_reported":1741803224,"current_range_meters":12000,"station_id":"ce4bhnp2rcd13ifvqgvg","pricing_plan_id":"cebpf4jnsgd1na2vs0mg"},{"bike_id":"8ca3f336-10d2-4fd1-806d-fe3fa7c2deb3","system_id":"levelo_inurba_marseille","lat":43.29428,"lon":5.38623,"is_reserved":false,"is_disabled":false,"rental_uris":{"android":"levelo://app?vid=8ca3f336-10d2-4fd1-806d-fe3fa7c2deb3","ios":"levelo://app?vid=8ca3f336-10d2-4fd1-806d-fe3fa7c2deb3"},"vehicle_type_id":"4","last_reported":1741803224,"current_range_meters":12000,"station_id":"ce4bh2h2rcd13ifvqdh0","pricing_plan_id":"cebpf4jnsgd1na2vs0mg"},{"bike_id":"c26915a5-7038-4af8-b22f-8f1cb1389e48","system_id":"levelo_inurba_marseille","lat":43.31282,"lon":5.40167,"is_reserved":false,"is_disabled":false,"rental_uris":{"android":"levelo://app?vid=c26915a5-7038-4af8-b22f-8f1cb1389e48","ios":"levelo://app?vid=c26915a5-7038-4af8-b22f-8f1cb1389e48"},"vehicle_type_id":"4","last_reported":1741803224,"current_range_meters":12400,"station_id":"ce4bh092rcd13ifvqd30","pricing_plan_id":"cebpf4jnsgd1na2vs0mg"},{"bike_id":"3a8c4ffa-0f15-4c39-abee-84f482124166","system_id":"levelo_inurba_marseille","lat":43.25815,"lon":5.39421,"is_reserved":false,"is_disabled":false,"rental_uris":{"android":"levelo://app?vid=3a8c4ffa-0f15-4c39-abee-84f482124166","ios":"levelo://app?vid=3a8c4ffa-0f15-4c39-abee-84f482124166"},"vehicle_type_id":"4","last_reported":1741803224,"current_range_meters":12400,"station_id":"ce4bhip2rcd13ifvqft0","pricing_plan_id":"cebpf4jnsgd1na2vs0mg"},{"bike_id":"61cdf4c1-4a7b-4f2d-ada8-6d57529a416a","system_id":"levelo_inurba_marseille","lat":43.29294,"lon":5.3746,"is_reserved":false,"is_disabled":false,"rental_uris":{"android":"levelo://app?vid=61cdf4c1-4a7b-4f2d-ada8-6d57529a416a","ios":"levelo://app?vid=61cdf4c1-4a7b-4f2d-ada8-6d57529a416a"},"vehicle_type_id":"4","last_reported":1741803224,"current_range_meters":12400,"station_id":"ce4bgi12rcd13ifvqb70","pricing_plan_id":"cebpf4jnsgd1na2vs0mg"},{"bike_id":"7b7469fa-5747-43e4-a76c-9a093fd271e6","system_id":"levelo_inurba_marseille","lat":43.28467,"lon":5.35877,"is_reserved":false,"is_disabled":false,"rental_uris":{"android":"levelo://app?vid=7b7469fa-5747-43e4-a76c-9a093fd271e6","ios":"levelo://app?vid=7b7469fa-5747-43e4-a76c-9a093fd271e6"},"vehicle_type_id":"4","last_reported":1741803224,"current_range_meters":12400,"station_id":"ce4bhah2rcd13ifvqei0","pricing_plan_id":"cebpf4jnsgd1na2vs0mg"},{"bike_id":"4c607265-c996-4d9b-81fd-daa80dd99e32","system_id":"levelo_inurba_marseille","lat":43.28781,"lon":5.38448,"is_reserved":false,"is_disabled":false,"rental_uris":{"android":"levelo://app?vid=4c607265-c996-4d9b-81fd-daa80dd99e32","ios":"levelo://app?vid=4c607265-c996-4d9b-81fd-daa80dd99e32"},"vehicle_type_id":"4","last_reported":1741803224,"current_range_meters":12400,"station_id":"","pricing_plan_id":"cebpf4jnsgd1na2vs0mg"},{"bike_id":"b4b0b320-fa02-42d1-9f17-f2f9455a8dd3","system_id":"levelo_inurba_marseille","lat":43.25873,"lon":5.39893,"is_reserved":false,"is_disabled":false,"rental_uris":{"android":"levelo://app?vid=b4b0b320-fa02-42d1-9f17-f2f9455a8dd3","ios":"levelo://app?vid=b4b0b320-fa02-42d1-9f17-f2f9455a8dd3"},"vehicle_type_id":"4","last_reported":1741803224,"current_range_meters":12400,"station_id":"ce4bhl92rcd13ifvqghg","pricing_plan_id":"cebpf4jnsgd1na2vs0mg"},{"bike_id":"c4b6ee7a-6380-4b8e-bea9-032c6e5ab5ee","system_id":"levelo_inurba_marseille","lat":43.30807,"lon":5.43521,"is_reserved":false,"is_disabled":false,"rental_uris":{"android":"levelo://app?vid=c4b6ee7a-6380-4b8e-bea9-032c6e5ab5ee","ios":"levelo://app?vid=c4b6ee7a-6380-4b8e-bea9-032c6e5ab5ee"},"vehicle_type_id":"4","last_reported":1741803224,"current_range_meters":12400,"station_id":"ce4bhph2rcd13ifvqheg","pricing_plan_id":"cebpf4jnsgd1na2vs0mg"},{"bike_id":"8812b570-286f-4d36-8021-bd8648455d31","system_id":"levelo_inurba_marseille","lat":43.32108,"lon":5.36773,"is_reserved":false,"is_disabled":false,"rental_uris":{"android":"levelo://app?vid=8812b570-286f-4d36-8021-bd8648455d31","ios":"levelo://app?vid=8812b570-286f-4d36-8021-bd8648455d31"},"vehicle_type_id":"4","last_reported":1741803224,"current_range_meters":12400,"station_id":"ce4bhrh2rcd13ifvqhug","pricing_plan_id":"cebpf4jnsgd1na2vs0mg"},{"bike_id":"79397302-4916-493d-9bc0-e5035ae3c476","system_id":"levelo_inurba_marseille","lat":43.22931,"lon":5.35386,"is_reserved":false,"is_disabled":false,"rental_uris":{"android":"levelo://app?vid=79397302-4916-493d-9bc0-e5035ae3c476","ios":"levelo://app?vid=79397302-4916-493d-9bc0-e5035ae3c476"},"vehicle_type_id":"4","last_reported":1741803224,"current_range_meters":12400,"station_id":"cpo3532slgdg3j2ikp40","pricing_plan_id":"cebpf4jnsgd1na2vs0mg"},{"bike_id":"c52a8d11-6815-4d71-ba96-6fbf4184892a","system_id":"levelo_inurba_marseille","lat":43.27824,"lon":5.40715,"is_reserved":false,"is_disabled":false,"rental_uris":{"android":"levelo://app?vid=c52a8d11-6815-4d71-ba96-6fbf4184892a","ios":"levelo://app?vid=c52a8d11-6815-4d71-ba96-6fbf4184892a"},"vehicle_type_id":"4","last_reported":1741803224,"current_range_meters":12400,"station_id":"ce4bhnh2rcd13ifvqgtg","pricing_plan_id":"cebpf4jnsgd1na2vs0mg"},{"bike_id":"1e9605ad-316e-4640-bf07-9cbe52612819","system_id":"levelo_inurba_marseille","lat":43.305887,"lon":5.393636,"is_reserved":false,"is_disabled":false,"rental_uris":{"android":"levelo://app?vid=1e9605ad-316e-4640-bf07-9cbe52612819","ios":"levelo://app?vid=1e9605ad-316e-4640-bf07-9cbe52612819"},"vehicle_type_id":"4","last_reported":1741803224,"current_range_meters":12400,"station_id":"ce4bgk12rcd13ifvqbi0","pricing_plan_id":"cebpf4jnsgd1na2vs0mg"},{"bike_id":"436e085c-5670-4eff-8dad-4cd12fea26c0","system_id":"levelo_inurba_marseille","lat":43.32401,"lon":5.38421,"is_reserved":false,"is_disabled":false,"rental_uris":{"android":"levelo://app?vid=436e085c-5670-4eff-8dad-4cd12fea26c0","ios":"levelo://app?vid=436e085c-5670-4eff-8dad-4cd12fea26c0"},"vehicle_type_id":"4","last_reported":1741803224,"current_range_meters":12400,"station_id":"","pricing_plan_id":"cebpf4jnsgd1na2vs0mg"},{"bike_id":"cb30bd3f-be42-4e42-9b87-66b72747a4ec","system_id":"levelo_inurba_marseille","lat":43.29548,"lon":5.39055,"is_reserved":false,"is_disabled":false,"rental_uris":{"android":"levelo://app?vid=cb30bd3f-be42-4e42-9b87-66b72747a4ec","ios":"levelo://app?vid=cb30bd3f-be42-4e42-9b87-66b72747a4ec"},"vehicle_type_id":"4","last_reported":1741803224,"current_range_meters":12800,"station_id":"ce4bh3p2rcd13ifvqdp0","pricing_plan_id":"cebpf4jnsgd1na2vs0mg"},{"bike_id":"04b6b0f6-d318-40e6-a023-347d481d621c","system_id":"levelo_inurba_marseille","lat":43.29196,"lon":5.37567,"is_reserved":false,"is_disabled":false,"rental_uris":{"android":"levelo://app?vid=04b6b0f6-d318-40e6-a023-347d481d621c","ios":"levelo://app?vid=04b6b0f6-d318-40e6-a023-347d481d621c"},"vehicle_type_id":"4","last_reported":1741803224,"current_range_meters":12800,"station_id":"","pricing_plan_id":"cebpf4jnsgd1na2vs0mg"},{"bike_id":"89f8c2a2-cb7a-4fdd-af34-98430d432441","system_id":"levelo_inurba_marseille","lat":43.2903,"lon":5.38644,"is_reserved":false,"is_disabled":false,"rental_uris":{"android":"levelo://app?vid=89f8c2a2-cb7a-4fdd-af34-98430d432441","ios":"levelo://app?vid=89f8c2a2-cb7a-4fdd-af34-98430d432441"},"vehicle_type_id":"4","last_reported":1741803224,"current_range_meters":12800,"station_id":"ce4bh4p2rcd13ifvqe0g","pricing_plan_id":"cebpf4jnsgd1na2vs0mg"},{"bike_id":"86f138dc-3528-4e0c-a85a-3b9286537aaf","system_id":"levelo_inurba_marseille","lat":43.29886,"lon":5.38903,"is_reserved":false,"is_disabled":false,"rental_uris":{"android":"levelo://app?vid=86f138dc-3528-4e0c-a85a-3b9286537aaf","ios":"levelo://app?vid=86f138dc-3528-4e0c-a85a-3b9286537aaf"},"vehicle_type_id":"4","last_reported":1741803224,"current_range_meters":12800,"station_id":"ce4bh392rcd13ifvqdl0","pricing_plan_id":"cebpf4jnsgd1na2vs0mg"},{"bike_id":"e7b25e36-0a83-4dda-88d0-c2926bc1cbb4","system_id":"levelo_inurba_marseille","lat":43.29891,"lon":5.36324,"is_reserved":false,"is_disabled":true,"rental_uris":{"android":"levelo://app?vid=e7b25e36-0a83-4dda-88d0-c2926bc1cbb4","ios":"levelo://app?vid=e7b25e36-0a83-4dda-88d0-c2926bc1cbb4"},"vehicle_type_id":"4","last_reported":1741803224,"current_range_meters":12800,"station_id":"ce4bgpp2rcd13ifvqc3g","pricing_plan_id":"cebpf4jnsgd1na2vs0mg"},{"bike_id":"d4734fe4-cdab-4e79-a6fc-a2e82e41e437","system_id":"levelo_inurba_marseille","lat":43.29976,"lon":5.3851,"is_reserved":false,"is_disabled":false,"rental_uris":{"android":"levelo://app?vid=d4734fe4-cdab-4e79-a6fc-a2e82e41e437","ios":"levelo://app?vid=d4734fe4-cdab-4e79-a6fc-a2e82e41e437"},"vehicle_type_id":"4","last_reported":1741803224,"current_range_meters":12800,"station_id":"ce4bgj92rcd13ifvqbd0","pricing_plan_id":"cebpf4jnsgd1na2vs0mg"},{"bike_id":"0b10227e-b255-443b-a56e-5f16aa438f82","system_id":"levelo_inurba_marseille","lat":43.33605,"lon":5.41037,"is_reserved":false,"is_disabled":false,"rental_uris":{"android":"levelo://app?vid=0b10227e-b255-443b-a56e-5f16aa438f82","ios":"levelo://app?vid=0b10227e-b255-443b-a56e-5f16aa438f82"},