{"last_updated":1752361859,"ttl":60,"version":"2.2","data":{"bikes":[{"bike_id":"03a4bb49-c0dc-4f53-9e95-b0a0acb113a0","system_id":"levelo_inurba_marseille","lat":43.27056,"lon":5.42312,"is_reserved":false,"is_disabled":false,"rental_uris":{"android":"levelo://app?vid=03a4bb49-c0dc-4f53-9e95-b0a0acb113a0","ios":"levelo://app?vid=03a4bb49-c0dc-4f53-9e95-b0a0acb113a0"},"vehicle_type_id":"4","last_reported":1752361859,"current_range_meters":2800,"station_id":"ce4bhk92rcd13ifvqgb0","pricing_plan_id":"cebpf4jnsgd1na2vs0mg"},{"bike_id":"4c3b6b72-a6a0-403e-ab55-0d1c75e5c257","system_id":"levelo_inurba_marseille","lat":43.28378,"lon":5.38623,"is_reserved":false,"is_disabled":false,"rental_uris":{"android":"levelo://app?vid=4c3b6b72-a6a0-403e-ab55-0d1c75e5c257","ios":"levelo://app?vid=4c3b6b72-a6a0-403e-ab55-0d1c75e5c257"},"vehicle_type_id":"4","last_reported":1752361859,"current_range_meters":2800,"station_id":"ce4bh492rcd13ifvqdvg","pricing_plan_id":"cebpf4jnsgd1na2vs0mg"},{"bike_id":"6bc2327d-feab-495c-ae8a-29a6ae5976bd","system_id":"levelo_inurba_marseille","lat":43.29198,"lon":5.35811,"is_reserved":false,"is_disabled":false,"rental_uris":{"android":"levelo://app?vid=6bc2327d-feab-495c-ae8a-29a6ae5976bd","ios":"levelo://app?vid=6bc2327d-feab-495c-ae8a-29a6ae5976bd"},"vehicle_type_id":"4","last_reported":1752361859,"current_range_meters":3600,"station_id":"ce4bhb12rcd13ifvqel0","pricing_plan_id":"cebpf4jnsgd1na2vs0mg"},{"bike_id":"c0ed3a4e-0b08-4739-aee6-df5a174b758c","system_id":"levelo_inurba_marseille","lat":43.28448,"lon":5.39182,"is_reserved":false,"is_disabled":false,"rental_uris":{"android":"levelo://app?vid=c0ed3a4e-0b08-4739-aee6-df5a174b758c","ios":"levelo://app?vid=c0ed3a4e-0b08-4739-aee6-df5a174b758c"},"vehicle_type_id":"4","last_reported":1752361859,"current_range_meters":3600,"station_id":"ce4bhoh2rcd13ifvqh5g","pricing_plan_id":"cebpf4jnsgd1na2vs0mg"},{"bike_id":"52afc32f-62c6-492b-8b37-addf11ba5d44","system_id":"levelo_inurba_marseille","lat":43.25111,"lon":5.40323,"is_reserved":false,"is_disabled":false,"rental_uris":{"android":"levelo://app?vid=52afc32f-62c6-492b-8b37-addf11ba5d44","ios":"levelo://app?vid=52afc32f-62c6-492b-8b37-addf11ba5d44"},"vehicle_type_id":"4","last_reported":1752361859,"current_range_meters":4000,"station_id":"ce4bhlh2rcd13ifvqgig","pricing_plan_id":"cebpf4jnsgd1na2vs0mg"},{"bike_id":"be5909ab-3946-4c27-8725-9a42a836a048","system_id":"levelo_inurba_marseille","lat":43.24077,"lon":5.37753,"is_reserved":false,"is_disabled":false,"rental_uris":{"android":"levelo://app?vid=be5909ab-3946-4c27-8725-9a42a836a048","ios":"levelo://app?vid=be5909ab-3946-4c27-8725-9a42a836a048"},"vehicle_type_id":"4","last_reported":1752361859,"current_range_meters":4400,"station_id":"ce4bhnp2rcd13ifvqgvg","pricing_plan_id":"cebpf4jnsgd1na2vs0mg"},{"bike_id":"0f2dd242-19ed-4565-b4b5-d15effcc48a9","system_id":"levelo_inurba_marseille","lat":43.2512,"lon":5.40318,"is_reserved":false,"is_disabled":false,"rental_uris":{"android":"levelo://app?vid=0f2dd242-19ed-4565-b4b5-d15effcc48a9","ios":"levelo://app?vid=0f2dd242-19ed-4565-b4b5-d15effcc48a9"},"vehicle_type_id":"4","last_reported":1752361859,"current_range_meters":4800,"station_id":"ce4bhlh2rcd13ifvqgig","pricing_plan_id":"cebpf4jnsgd1na2vs0mg"},{"bike_id":"b25e716b-466d-4073-bda9-c1fa6de3ef16","system_id":"levelo_inurba_marseille","lat":43.29227,"lon":5.37462,"is_reserved":false,"is_disabled":true,"rental_uris":{"android":"levelo://app?vid=b25e716b-466d-4073-bda9-c1fa6de3ef16","ios":"levelo://app?vid=b25e716b-466d-4073-bda9-c1fa6de3ef16"},"vehicle_type_id":"4","last_reported":1752361859,"current_range_meters":5600,"station_id":"","pricing_plan_id":"cebpf4jnsgd1na2vs0mg"},{"bike_id":"bbc4683c-1e55-4e3d-ace4-4f2a6419c9e3","system_id":"levelo_inurba_marseille","lat":43.29641,"lon":5.40572,"is_reserved":false,"is_disabled":false,"rental_uris":{"android":"levelo://app?vid=bbc4683c-1e55-4e3d-ace4-4f2a6419c9e3","ios":"levelo://app?vid=bbc4683c-1e55-4e3d-ace4-4f2a6419c9e3"},"vehicle_type_id":"4","last_reported":1752361859,"current_range_meters":6000,"station_id":"ce4bh0h2rcd13ifvqd60","pricing_plan_id":"cebpf4jnsgd1na2vs0mg"},{"bike_id":"cb9282c9-0a04-426f-af4a-9dc494a82650","system_id":"levelo_inurba_marseille","lat":43.225037,"lon":5.347922,"is_reserved":false,"is_disabled":false,"rental_uris":{"android":"levelo://app?vid=cb9282c9-0a04-426f-af4a-9dc494a82650","ios":"levelo://app?vid=cb9282c9-0a04-426f-af4a-9dc494a82650"},"vehicle_type_id":"4","last_reported":1752361859,"current_range_meters":6000,"station_id":"","pricing_plan_id":"cebpf4jnsgd1na2vs0mg"},{"bike_id":"534ed68d-5ceb-43a8-968b-be30f01dfa74","system_id":"levelo_inurba_marseille","lat":43.282224,"lon":5.390795,"is_reserved":false,"is_disabled":false,"rental_uris":{"android":"levelo://app?vid=534ed68d-5ceb-43a8-968b-be30f01dfa74","ios":"levelo://app?vid=534ed68d-5ceb-43a8-968b-be30f01dfa74"},"vehicle_type_id":"4","last_reported":1752361859,"current_range_meters":6400,"station_id":"","pricing_plan_id":"cebpf4jnsgd1na2vs0mg"},{"bike_id":"1104b20f-16e4-4f75-9acd-2b946a15461a","system_id":"levelo_inurba_marseille","lat":43.241756,"lon":5.397248,"is_reserved":false,"is_disabled":false,"rental_uris":{"android":"levelo://app?vid=1104b20f-16e4-4f75-9acd-2b946a15461a","ios":"levelo://app?vid=1104b20f-16e4-4f75-9acd-2b946a15461a"},"vehicle_type_id":"4","last_reported":1752361859,"current_range_meters":6400,"station_id":"ce4bhn12rcd13ifvqgpg","pricing_plan_id":"cebpf4jnsgd1na2vs0mg"},{"bike_id":"bced4aa7-a628-4057-a6e6-27edc27c5e17","system_id":"levelo_inurba_marseille","lat":43.21197,"lon":5.35077,"is_reserved":false,"is_disabled":false,"rental_uris":{"android":"levelo://app?vid=bced4aa7-a628-4057-a6e6-27edc27c5e17","ios":"levelo://app?vid=bced4aa7-a628-4057-a6e6-27edc27c5e17"},"vehicle_type_id":"4","last_reported":1752361859,"current_range_meters":6400,"station_id":"st_cvj6sg6p6f1abm77japg","pricing_plan_id":"cebpf4jnsgd1na2vs0mg"},{"bike_id":"0f1287f9-390e-4629-ab8e-ad2d35ff61ae","system_id":"levelo_inurba_marseille","lat":43.255795,"lon":5.382358,"is_reserved":false,"is_disabled":true,"rental_uris":{"android":"levelo://app?vid=0f1287f9-390e-4629-ab8e-ad2d35ff61ae","ios":"levelo://app?vid=0f1287f9-390e-4629-ab8e-ad2d35ff61ae"},"vehicle_type_id":"4","last_reported":1752361859,"current_range_meters":6800,"station_id":"ce4bhih2rcd13ifvqfs0","pricing_plan_id":"cebpf4jnsgd1na2vs0mg"},{"bike_id":"5744d274-e943-416d-a6ae-a74284da96e2","system_id":"levelo_inurba_marseille","lat":43.23194,"lon":5.39972,"is_reserved":false,"is_disabled":false,"rental_uris":{"android":"levelo://app?vid=5744d274-e943-416d-a6ae-a74284da96e2","ios":"levelo://app?vid=5744d274-e943-416d-a6ae-a74284da96e2"},"vehicle_type_id":"4","last_reported":1752361859,"current_range_meters":6800,"station_id":"ce4bhn12rcd13ifvqgqg","pricing_plan_id":"cebpf4jnsgd1na2vs0mg"},{"bike_id":"2d525522-e6dc-4040-9c4c-8e2e7a587583","system_id":"levelo_inurba_marseille","lat":43.291681,"lon":5.37525,"is_reserved":false,"is_disabled":false,"rental_uris":{"android":"levelo://app?vid=2d525522-e6dc-4040-9c4c-8e2e7a587583","ios":"levelo://app?vid=2d525522-e6dc-4040-9c4c-8e2e7a587583"},"vehicle_type_id":"4","last_reported":1752361859,"current_range_meters":7200,"station_id":"","pricing_plan_id":"cebpf4jnsgd1na2vs0mg"},{"bike_id":"9a721a67-800d-41fb-b2c2-3309f63164c3","system_id":"levelo_inurba_marseille","lat":43.211809,"lon":5.350577,"is_reserved":false,"is_disabled":false,"rental_uris":{"android":"levelo://app?vid=9a721a67-800d-41fb-b2c2-3309f63164c3","ios":"levelo://app?vid=9a721a67-800d-41fb-b2c2-3309f63164c3"},"vehicle_type_id":"4","last_reported":1752361859,"current_range_meters":7200,"station_id":"st_cvj6sg6p6f1abm77japg","pricing_plan_id":"cebpf4jnsgd1na2vs0mg"},{"bike_id":"f84dc9ae-3194-4812-bf71-dd523a302c8f","system_id":"levelo_inurba_marseille","lat":43.289754,"lon":5.355455,"is_reserved":false,"is_disabled":false,"rental_uris":{"android":"levelo://app?vid=f84dc9ae-3194-4812-bf71-dd523a302c8f","ios":"levelo://app?vid=f84dc9ae-3194-4812-bf71-dd523a302c8f"},"vehicle_type_id":"4","last_reported":1752361859,"current_range_meters":7200,"station_id":"ce4bhb92rcd13ifvqen0","pricing_plan_id":"cebpf4jnsgd1na2vs0mg"},{"bike_id":"cb63022a-1efc-42f8-a1d0-4347575d6014","system_id":"levelo_inurba_marseille","lat":43.25493,"lon":5.37655,"is_reserved":false,"is_disabled":true,"rental_uris":{"android":"levelo://app?vid=cb63022a-1efc-42f8-a1d0-4347575d6014","ios":"levelo://app?vid=cb63022a-1efc-42f8-a1d0-4347575d6014"},"vehicle_type_id":"4","last_reported":1752361859,"current_range_meters":8000,"station_id":"ce4bhh12rcd13ifvqff0","pricing_plan_id":"cebpf4jnsgd1na2vs0mg"},{"bike_id":"595e9351-a7ce-45de-8995-771f7d9fe86e","system_id":"levelo_inurba_marseille","lat":43.309243,"lon":5.378088,"is_reserved":false,"is_disabled":false,"rental_uris":{"android":"levelo://app?vid=595e9351-a7ce-45de-8995-771f7d9fe86e","ios":"levelo://app?vid=595e9351-a7ce-45de-8995-771f7d9fe86e"},"vehicle_type_id":"4","last_reported":1752361859,"current_range_meters":8000,"station_id":"","pricing_plan_id":"cebpf4jnsgd1na2vs0mg"},{"bike_id":"2f0ba75c-aff3-43f4-857b-fc7c66f4e426","system_id":"levelo_inurba_marseille","lat":43.309703,"lon":5.390409,"is_reserved":false,"is_disabled":true,"rental_uris":{"android":"levelo://app?vid=2f0ba75c-aff3-43f4-857b-fc7c66f4e426","ios":"levelo://app?vid=2f0ba75c-aff3-43f4-857b-fc7c66f4e426"},"vehicle_type_id":"4","last_reported":1752361859,"current_range_meters":8000,"station_id":"ce4bgup2rcd13ifvqco0","pricing_plan_id":"cebpf4jnsgd1na2vs0mg"},{"bike_id":"696aca5a-f985-42f2-b5f7-74ca3a442dcb","system_id":"levelo_inurba_marseille","lat":43.30981,"lon":5.37132,"is_reserved":false,"is_disabled":false,"rental_uris":{"android":"levelo://app?vid=696aca5a-f985-42f2-b5f7-74ca3a442dcb","ios":"levelo://app?vid=696aca5a-f985-42f2-b5f7-74ca3a442dcb"},"vehicle_type_id":"4","last_reported":1752361859,"current_range_meters":8000,"station_id":"","pricing_plan_id":"cebpf4jnsgd1na2vs0mg"},{"bike_id":"0cbcd422-d013-45a0-86eb-5c705f44c421","system_id":"levelo_inurba_marseille","lat":43.27072,"lon":5.42284,"is_reserved":false,"is_disabled":false,"rental_uris":{"android":"levelo://app?vid=0cbcd422-d013-45a0-86eb-5c705f44c421","ios":"levelo://app?vid=0cbcd422-d013-45a0-86eb-5c705f44c421"},"vehicle_type_id":"4","last_reported":1752361859,"current_range_meters":8000,"station_id":"ce4bhk92rcd13ifvqgb0","pricing_plan_id":"cebpf4jnsgd1na2vs0mg"},{"bike_id":"a3c5836e-affd-45c8-ae1f-d2c064a34a8e","system_id":"levelo_inurba_marseille","lat":43.30963,"lon":5.39039,"is_reserved":false,"is_disabled":true,"rental_uris":{"android":"levelo://app?vid=a3c5836e-affd-45c8-ae1f-d2c064a34a8e","ios":"levelo://app?vid=a3c5836e-affd-45c8-ae1f-d2c064a34a8e"},"vehicle_type_id":"4","last_reported":1752361859,"current_range_meters":8400,"station_id":"ce4bgup2rcd13ifvqco0","pricing_plan_id":"cebpf4jnsgd1na2vs0mg"},{"bike_id":"1017810a-ab4b-46fd-b7f2-8e6d899ec648","system_id":"levelo_inurba_marseille","lat":43.29519,"lon":5.38543,"is_reserved":false,"is_disabled":false,"rental_uris":{"android":"levelo://app?vid=1017810a-ab4b-46fd-b7f2-8e6d899ec648","ios":"levelo://app?vid=1017810a-ab4b-46fd-b7f2-8e6d899ec648"},"vehicle_type_id":"4","last_reported":1752361859,"current_range_meters":8400,"station_id":"ce4bgih2rcd13ifvqba0","pricing_plan_id":"cebpf4jnsgd1na2vs0mg"},{"bike_id":"e3a75ee9-c614-467b-8cc2-f813bcef2ab1","system_id":"levelo_inurba_marseille","lat":43.33743,"lon":5.3919,"is_reserved":false,"is_disabled":true,"rental_uris":{"android":"levelo://app?vid=e3a75ee9-c614-467b-8cc2-f813bcef2ab1","ios":"levelo://app?vid=e3a75ee9-c614-467b-8cc2-f813bcef2ab1"},"vehicle_type_id":"4","last_reported":1752361859,"current_range_meters":8400,"station_id":"ce4bhr92rcd13ifvqhsg","pricing_plan_id":"cebpf4jnsgd1na2vs0mg"},{"bike_id":"d0abf83c-5a5f-4794-86fc-d045bbbd68d4","system_id":"levelo_inurba_marseille","lat":43.28874,"lon":5.35842,"is_reserved":false,"is_disabled":false,"rental_uris":{"android":"levelo://app?vid=d0abf83c-5a5f-4794-86fc-d045bbbd68d4","ios":"levelo://app?vid=d0abf83c-5a5f-4794-86fc-d045bbbd68d4"},"vehicle_type_id":"4","last_reported":1752361859,"current_range_meters":8400,"station_id":"ce4bhb12rcd13ifvqem0","pricing_plan_id":"cebpf4jnsgd1na2vs0mg"},{"bike_id":"6095c933-9798-4887-89ea-df28d09a11cd","system_id":"levelo_inurba_marseille","lat":43.2467,"lon":5.38164,"is_reserved":false,"is_disabled":false,"rental_uris":{"android":"levelo://app?vid=6095c933-9798-4887-89ea-df28d09a11cd","ios":"levelo://app?vid=6095c933-9798-4887-89ea-df28d09a11cd"},"vehicle_type_id":"4","last_reported":1752361859,"current_range_meters":8800,"station_id":"ce4bhih2rcd13ifvqfr0","pricing_plan_id":"cebpf4jnsgd1na2vs0mg"},{"bike_id":"097106d7-0dc8-4152-8540-cae0e1de8dea","system_id":"levelo_inurba_marseille","lat":43.211854,"lon":5.350704,"is_reserved":false,"is_disabled":false,"rental_uris":{"android":"levelo://app?vid=097106d7-0dc8-4152-8540-cae0e1de8dea","ios":"levelo://app?vid=097106d7-0dc8-4152-8540-cae0e1de8dea"},"vehicle_type_id":"4","last_reported":1752361859,"current_range_meters":8800,"station_id":"st_cvj6sg6p6f1abm77japg","pricing_plan_id":"cebpf4jnsgd1na2vs0mg"},{"bike_id":"dc783418-0218-41c8-af13-aac51939d004","system_id":"levelo_inurba_marseille","lat":43.29579,"lon":5.36742,"is_reserved":false,"is_disabled":false,"rental_uris":{"android":"levelo://app?vid=dc783418-0218-41c8-af13-aac51939d004","ios":"levelo://app?vid=dc783418-0218-41c8-af13-aac51939d004"},"vehicle_type_id":"4","last_reported":1752361859,"current_range_meters":8800,"station_id":"ce4bgph2rcd13ifvqc2g","pricing_plan_id":"cebpf4jnsgd1na2vs0mg"},{"bike_id":"f1e9a190-07cd-4409-943b-b258a2b701f0","system_id":"levelo_inurba_marseille","lat":43.26695,"lon":5.38234,"is_reserved":false,"is_disabled":false,"rental_uris":{"android":"levelo://app?vid=f1e9a190-07cd-4409-943b-b258a2b701f0","ios":"levelo://app?vid=f1e9a190-07cd-4409-943b-b258a2b701f0"},"vehicle_type_id":"4","last_reported":1752361859,"current_range_meters":8800,"station_id":"ce4bhg92rcd13ifvqf90","pricing_plan_id":"cebpf4jnsgd1na2vs0mg"},{"bike_id":"03251f63-26eb-493f-9d65-8e11851ca687","system_id":"levelo_inurba_marseille","lat":43.28868,"lon":5.39338,"is_reserved":false,"is_disabled":true,"rental_uris":{"android":"levelo://app?vid=03251f63-26eb-493f-9d65-8e11851ca687","ios":"levelo://app?vid=03251f63-26eb-493f-9d65-8e11851ca687"},"vehicle_type_id":"4","last_reported":1752361859,"current_range_meters":8800,"station_id":"ce4bh2p2rcd13ifvqdi0","pricing_plan_id":"cebpf4jnsgd1na2vs0mg"},{"bike_id":"aef30c69-c99a-487b-8847-7a0edd010aab","system_id":"levelo_inurba_marseille","lat":43.255744,"lon":5.382328,"is_reserved":false,"is_disabled":false,"rental_uris":{"android":"levelo://app?vid=aef30c69-c99a-487b-8847-7a0edd010aab","ios":"levelo://app?vid=aef30c69-c99a-487b-8847-7a0edd010aab"},"vehicle_type_id":"4","last_reported":1752361859,"current_range_meters":8800,"station_id":"ce4bhih2rcd13ifvqfs0","pricing_plan_id":"cebpf4jnsgd1na2vs0mg"},{"bike_id":"8929c1bf-fd4d-44e4-aa66-b3eb6538c998","system_id":"levelo_inurba_marseille","lat":43.28575,"lon":5.42969,"is_reserved":false,"is_disabled":false,"rental_uris":{"android":"levelo://app?vid=8929c1bf-fd4d-44e4-aa66-b3eb6538c998","ios":"levelo://app?vid=8929c1bf-fd4d-44e4-aa66-b3eb6538c998"},"vehicle_type_id":"4","last_reported":1752361859,"current_range_meters":9200,"station_id":"","pricing_plan_id":"cebpf4jnsgd1na2vs0mg"},{"bike_id":"5a71ab42-51f6-4d74-8942-e5c8339f2255","system_id":"levelo_inurba_marseille","lat":43.31779,"lon":5.39022,"is_reserved":false,"is_disabled":true,"rental_uris":{"android":"levelo://app?vid=5a71ab42-51f6-4d74-8942-e5c8339f2255","ios":"levelo://app?vid=5a71ab42-51f6-4d74-8942-e5c8339f2255"},"vehicle_type_id":"4","last_reported":1752361859,"current_range_meters":9600,"station_id":"ce4bhqp2rcd13ifvqhng","pricing_plan_id":"cebpf4jnsgd1na2vs0mg"},{"bike_id":"df61839a-7a72-4634-9960-e8ea0d9a8d35","system_id":"levelo_inurba_marseille","lat":43.239474,"lon":5.366089,"is_reserved":false,"is_disabled":true,"rental_uris":{"android":"levelo://app?vid=df61839a-7a72-4634-9960-e8ea0d9a8d35","ios":"levelo://app?vid=df61839a-7a72-4634-9960-e8ea0d9a8d35"},"vehicle_type_id":"4","last_reported":1752361859,"current_range_meters":9200,"station_id":"","pricing_plan_id":"cebpf4jnsgd1na2vs0mg"},{"bike_id":"21e0289b-2558-49b3-8ba1-f80b198c7c41","system_id":"levelo_inurba_marseille","lat":43.30793,"lon":5.38154,"is_reserved":false,"is_disabled":false,"rental_uris":{"android":"levelo://app?vid=21e0289b-2558-49b3-8ba1-f80b198c7c41","ios":"levelo://app?vid=21e0289b-2558-49b3-8ba1-f80b198c7c41"},"vehicle_type_id":"4","last_reported":1752361859,"current_range_meters":8800,"station_id":"ce4bgt12rcd13ifvqce0","pricing_plan_id":"cebpf4jnsgd1na2vs0mg"},{"bike_id":"b1da53a2-f678-4435-a691-33b851c5ea7e","system_id":"levelo_inurba_marseille","lat":43.30463,"lon":5.37909,"is_reserved":false,"is_disabled":false,"rental_uris":{"android":"levelo://app?vid=b1da53a2-f678-4435-a691-33b851c5ea7e","ios":"levelo://app?vid=b1da53a2-f678-4435-a691-33b851c5ea7e"},"vehicle_type_id":"4","last_reported":1752361859,"current_range_meters":8800,"station_id":"ce4bgup2rcd13ifvqcn0","pricing_plan_id":"cebpf4jnsgd1na2vs0mg"},{"bike_id":"5a1aa169-e8de-4c42-8232-f9cf794c57f1","system_id":"levelo_inurba_marseille","lat":43.21199,"lon":5.35076,"is_reserved":false,"is_disabled":false,"rental_uris":{"android":"levelo://app?vid=5a1aa169-e8de-4c42-8232-f9cf794c57f1","ios":"levelo://app?vid=5a1aa169-e8de-4c42-8232-f9cf794c57f1"},"vehicle_type_id":"4","last_reported":1752361859,"current_range_meters":9200,"station_id":"st_cvj6sg6p6f1abm77japg","pricing_plan_id":"cebpf4jnsgd1na2vs0mg"},{"bike_id":"75bb1dd6-50a7-47a9-9e4b-6b29bd46237a","system_id":"levelo_inurba_marseille","lat":43.21193,"lon":5.35119,"is_reserved":false,"is_disabled":false,"rental_uris":{"android":"levelo://app?vid=75bb1dd6-50a7-47a9-9e4b-6b29bd46237a","ios":"levelo://app?vid=75bb1dd6-50a7-47a9-9e4b-6b29bd46237a"},"vehicle_type_id":"4","last_reported":1752361859,"current_range_meters":9200,"station_id":"st_cvj6sg6p6f1abm77japg","pricing_plan_id":"cebpf4jnsgd1na2vs0mg"},{"bike_id":"0ad0b534-1da5-456c-aa84-d2096630950d","system_id":"levelo_inurba_marseille","lat":43.29012,"lon":5.38649,"is_reserved":false,"is_disabled":false,"rental_uris":{"android":"levelo://app?vid=0ad0b534-1da5-456c-aa84-d2096630950d","ios":"levelo://app?vid=0ad0b534-1da5-456c-aa84-d2096630950d"},"vehicle_type_id":"4","last_reported":1752361859,"current_range_meters":9600,"station_id":"ce4bh4p2rcd13ifvqe0g","pricing_plan_id":"cebpf4jnsgd1na2vs0mg"},{"bike_id":"9f922b43-f9c5-4c8f-8b19-2acf45720544","system_id":"levelo_inurba_marseille","lat":43.29274,"lon":5.36847,"is_reserved":false,"is_disabled":false,"rental_uris":{"android":"levelo://app?vid=9f922b43-f9c5-4c8f-8b19-2acf45720544","ios":"levelo://app?vid=9f922b43-f9c5-4c8f-8b19-2acf45720544"},"vehicle_type_id":"4","last_reported":1752361859,"current_range_meters":9600,"station_id":"ce4bhbp2rcd13ifvqesg","pricing_plan_id":"cebpf4jnsgd1na2vs0mg"},{"bike_id":"21f51f77-8b78-488b-a42e-44d2a504cf11","system_id":"levelo_inurba_marseille","lat":43.241704,"lon":5.364031,"is_reserved":false,"is_disabled":true,"rental_uris":{"android":"levelo://app?vid=21f51f77-8b78-488b-a42e-44d2a504cf11","ios":"levelo://app?vid=21f51f77-8b78-488b-a42e-44d2a504cf11"},"vehicle_type_id":"4","last_reported":1752361859,"current_range_meters":9600,"station_id":"cpo36qri1sfpv3e86is0","pricing_plan_id":"cebpf4jnsgd1na2vs0mg"},{"bike_id":"27d8ffad-9306-48cd-a801-c7902f04eca4","system_id":"levelo_inurba_marseille","lat":43.28571,"lon":5.39501,"is_reserved":false,"is_disabled":false,"rental_uris":{"android":"levelo://app?vid=27d8ffad-9306-48cd-a801-c7902f04eca4","ios":"levelo://app?vid=27d8ffad-9306-48cd-a801-c7902f04eca4"},"vehicle_type_id":"4","last_reported":1752361859,"current_range_meters":9600,"station_id":"ce4bh292rcd13ifvqdg0","pricing_plan_id":"cebpf4jnsgd1na2vs0mg"},{"bike_id":"4ca03e85-5530-4c3b-a306-6d898c219ede","system_id":"levelo_inurba_marseille","lat":43.28846,"lon":5.39313,"is_reserved":false,"is_disabled":false,"rental_uris":{"android":"levelo://app?vid=4ca03e85-5530-4c3b-a306-6d898c219ede","ios":"levelo://app?vid=4ca03e85-5530-4c3b-a306-6d898c219ede"},"vehicle_type_id":"4","last_reported":1752361859,"current_range_meters":10000,"station_id":"ce4bh2p2rcd13ifvqdi0","pricing_plan_id":"cebpf4jnsgd1na2vs0mg"},{"bike_id":"c28d459d-c8c4-44c1-896e-8dbd8bc9bffe","system_id":"levelo_inurba_marseille","lat":43.29511,"lon":5.39416,"is_reserved":false,"is_disabled":false,"rental_uris":{"android":"levelo://app?vid=c28d459d-c8c4-44c1-896e-8dbd8bc9bffe","ios":"levelo://app?vid=c28d459d-c8c4-44c1-896e-8dbd8bc9bffe"},"vehicle_type_id":"4","last_reported":1752361859,"current_range_meters":10000,"station_id":"ce4bh292rcd13ifvqdf0","pricing_plan_id":"cebpf4jnsgd1na2vs0mg"},{"bike_id":"46cacac0-84b7-4c70-a453-a1cb8250fb4d","system_id":"levelo_inurba_marseille","lat":43.33815,"lon":5.37446,"is_reserved":false,"is_disabled":false,"rental_uris":{"android":"levelo://app?vid=46cacac0-84b7-4c70-a453-a1cb8250fb4d","ios":"levelo://app?vid=46cacac0-84b7-4c70-a453-a1cb8250fb4d"},"vehicle_type_id":"4","last_reported":1752361859,"current_range_meters":10000,"station_id":"","pricing_plan_id":"cebpf4jnsgd1na2vs0mg"},{"bike_id":"74ddbde9-dfae-4600-a056-3ddee1254131","system_id":"levelo_inurba_marseille","lat":43.30142,"lon":5.39844,"is_reserved":false,"is_disabled":false,"rental_uris":{"android":"levelo://app?vid=74ddbde9-dfae-4600-a056-3ddee1254131","ios":"levelo://app?vid=74ddbde9-dfae-4600-a056-3ddee1254131"},"vehicle_type_id":"4","last_reported":1752361859,"current_range_meters":10000,"station_id":"ce4bh0h2rcd13ifvqd40","pricing_plan_id":"cebpf4jnsgd1na2vs0mg"},{"bike_id":"3dc1fbf7-9d01-4390-8d3e-a821b3da1341","system_id":"levelo_inurba_marseille","lat":43.2866,"lon":5.3637,"is_reserved":false,"is_disabled":false,"rental_uris":{"android":"levelo://app?vid=3dc1fbf7-9d01-4390-8d3e-a821b3da1341","ios":"levelo://app?vid=3dc1fbf7-9d01-4390-8d3e-a821b3da1341"},"vehicle_type_id":"4","last_reported":1752361859,"current_range_meters":9600,"station_id":"ce4bhah2rcd13ifvqej0","pricing_plan_id":"cebpf4jnsgd1na2vs0mg"},{"bike_id":"61198919-e72c-4fce-bc96-126627987dc0","system_id":"levelo_inurba_marseille","lat":43.2958,"lon":5.37885,"is_reserved":false,"is_disabled":false,"rental_uris":{"android":"levelo://app?vid=61198919-e72c-4fce-bc96-126627987dc0","ios":"levelo://app?vid=61198919-e72c-4fce-bc96-126627987dc0"},"vehicle_type_id":"4","last_reported":1752361859,"current_range_meters":10000,"station_id":"","pricing_plan_id":"cebpf4jnsgd1na2vs0mg"},{"bike_id":"864d1381-1e4e-40e0-8778-4669071a0310","system_id":"levelo_inurba_marseille","lat":43.30304,"lon":5.40472,"is_reserved":false,"is_disabled":false,"rental_uris":{"android":"levelo://app?vid=864d1381-1e4e-40e0-8778-4669071a0310","ios":"levelo://app?vid=864d1381-1e4e-40e0-8778-4669071a0310"},"vehicle_type_id":"4","last_reported":1752361859,"current_range_meters":10000,"station_id":"ce4bh012rcd13ifvqd10","pricing_plan_id":"cebpf4jnsgd1na2vs0mg"},{"bike_id":"4e18f6a0-cf0a-4e54-823e-14d073e25d70","system_id":"levelo_inurba_marseille","lat":43.28003,"lon":5.36875,"is_reserved":false,"is_disabled":true,"rental_uris":{"android":"levelo://app?vid=4e18f6a0-cf0a-4e54-823e-14d073e25d70","ios":"levelo://app?vid=4e18f6a0-cf0a-4e54-823e-14d073e25d70"},"vehicle_type_id":"4","last_reported":1752361859,"current_range_meters":10000,"station_id":"ce4bha12rcd13ifvqef0","pricing_plan_id":"cebpf4jnsgd1na2vs0mg"},{"bike_id":"c453155a-5220-48fc-922b-600ca54f8ab5","system_id":"levelo_inurba_marseille","lat":43.286639,"lon":5.363327,"is_reserved":false,"is_disabled":true,"rental_uris":{"android":"levelo://app?vid=c453155a-5220-48fc-922b-600ca54f8ab5","ios":"levelo://app?vid=c453155a-5220-48fc-922b-600ca54f8ab5"},"vehicle_type_id":"4","last_reported":1752361859,"current_range_meters":10000,"station_id":"ce4bhah2rcd13ifvqej0","pricing_plan_id":"cebpf4jnsgd1na2vs0mg"},{"bike_id":"cf910ebf-bca7-415d-a5e5-a41bbdc88f0f","system_id":"levelo_inurba_marseille","lat":43.30275,"lon":5.37713,"is_reserved":false,"is_disabled":false,"rental_uris":{"android":"levelo://app?vid=cf910ebf-bca7-415d-a5e5-a41bbdc88f0f","ios":"levelo://app?vid=cf910ebf-bca7-415d-a5e5-a41bbdc88f0f"},"vehicle_type_id":"4","last_reported":1752361859,"current_range_meters":10000,"station_id":"ce4bguh2rcd13ifvqcj0","pricing_plan_id":"cebpf4jnsgd1na2vs0mg"},{"bike_id":"d92d0cad-b413-48a2-976e-f2508f8da637","system_id":"levelo_inurba_marseille","lat":43.28575,"lon":5.39507,"is_reserved":false,"is_disabled":false,"rental_uris":{"android":"levelo://app?vid=d92d0cad-b413-48a2-976e-f2508f8da637","ios":"levelo://app?vid=d92d0cad-b413-48a2-976e-f2508f8da637"},"vehicle_type_id":"4","last_reported":1752361859,"current_range_meters":10800,"station_id":"ce4bh292rcd13ifvqdg0","pricing_plan_id":"cebpf4jnsgd1na2vs0mg"},{"bike_id":"ffe907d6-7ed9-401c-9d9c-e32dcd8dda6d","system_id":"levelo_inurba_marseille","lat":43.29238,"lon":5.38435,"is_reserved":false,"is_disabled":false,"rental_uris":{"android":"levelo://app?vid=ffe907d6-7ed9-401c-9d9c-e32dcd8dda6d","ios":"levelo://app?vid=ffe907d6-7ed9-401c-9d9c-e32dcd8dda6d"},"vehicle_type_id":"4","last_reported":1752361859,"current_range_meters":10800,"station_id":"ce4bh692rcd13ifvqea0","pricing_plan_id":"cebpf4jnsgd1na2vs0mg"},{"bike_id":"98242408-ee22-433f-afb4-0f23426d79cd","system_id":"levelo_inurba_marseille","lat":43.299606,"lon":5.363854,"is_reserved":false,"is_disabled":false,"rental_uris":{"android":"levelo://app?vid=98242408-ee22-433f-afb4-0f23426d79cd","ios":"levelo://app?vid=98242408-ee22-433f-afb4-0f23426d79cd"},"vehicle_type_id":"4","last_reported":1752361859,"current_range_meters":10800,"station_id":"","pricing_plan_id":"cebpf4jnsgd1na2vs0mg"},{"bike_id":"dbba3321-20c7-4989-a7b5-ea9ab2c4b3e8","system_id":"levelo_inurba_marseille","lat":43.261935,"lon":5.374477,"is_reserved":false,"is_disabled":true,"rental_uris":{"android":"levelo://app?vid=dbba3321-20c7-4989-a7b5-ea9ab2c4b3e8","ios":"levelo://app?vid=dbba3321-20c7-4989-a7b5-ea9ab2c4b3e8"},"vehicle_type_id":"4","last_reported":1752361859,"current_range_meters":10800,"station_id":"ce4bhgp2rcd13ifvqfc0","pricing_plan_id":"cebpf4jnsgd1na2vs0mg"},{"bike_id":"315447df-10b3-47aa-9d46-5a60f24c76a1","system_id":"levelo_inurba_marseille","lat":43.29531,"lon":5.38551,"is_reserved":false,"is_disabled":false,"rental_uris":{"android":"levelo://app?vid=315447df-10b3-47aa-9d46-5a60f24c76a1","ios":"levelo://app?vid=315447df-10b3-47aa-9d46-5a60f24c76a1"},"vehicle_type_id":"4","last_reported":1752361859,"current_range_meters":10800,"station_id":"ce4bgih2rcd13ifvqba0","pricing_plan_id":"cebpf4jnsgd1na2vs0mg"},{"bike_id":"5cf29819-6390-4355-bb40-16c62cef1501","system_id":"levelo_inurba_marseille","lat":43.284154,"lon":5.34975,"is_reserved":false,"is_disabled":false,"rental_uris":{"android":"levelo://app?vid=5cf29819-6390-4355-bb40-16c62cef1501","ios":"levelo://app?vid=5cf29819-6390-4355-bb40-16c62cef1501"},"vehicle_type_id":"4","last_reported":1752361859,"current_range_meters":11200,"station_id":"","pricing_plan_id":"cebpf4jnsgd1na2vs0mg"},{"bike_id":"22f1c805-b6eb-40a9-b55d-3da1689613da","system_id":"levelo_inurba_marseille","lat":43.26188,"lon":5.37446,"is_reserved":false,"is_disabled":false,"rental_uris":{"android":"levelo://app?vid=22f1c805-b6eb-40a9-b55d-3da1689613da","ios":"levelo://app?vid=22f1c805-b6eb-40a9-b55d-3da1689613da"},"vehicle_type_id":"4","last_reported":1752361859,"current_range_meters":11200,"station_id":"ce4bhgp2rcd13ifvqfc0","pricing_plan_id":"cebpf4jnsgd1na2vs0mg"},{"bike_id":"b1942de7-ca5a-4106-990c-b0326a65b965","system_id":"levelo_inurba_marseille","lat":43.30431,"lon":5.38895,"is_reserved":false,"is_disabled":false,"rental_uris":{"android":"levelo://app?vid=b1942de7-ca5a-4106-990c-b0326a65b965","ios":"levelo://app?vid=b1942de7-ca5a-4106-990c-b0326a65b965"},"vehicle_type_id":"4","last_reported":1752361859,"current_range_meters":11200,"station_id":"ce4bgk12rcd13ifvqbi0","pricing_plan_id":"cebpf4jnsgd1na2vs0mg"},{"bike_id":"c816310d-8ff0-4290-b10a-aad431dd902c","system_id":"levelo_inurba_marseille","lat":43.21751,"lon":5.34611,"is_reserved":false,"is_disabled":true,"rental_uris":{"android":"levelo://app?vid=c816310d-8ff0-4290-b10a-aad431dd902c","ios":"levelo://app?vid=c816310d-8ff0-4290-b10a-aad431dd902c"},"vehicle_type_id":"4","last_reported":1752361859,"current_range_meters":11600,"station_id":"st_cvj6r9ubvosntc0bgbag","pricing_plan_id":"cebpf4jnsgd1na2vs0mg"},{"bike_id":"d502518b-cea4-4a93-9e26-6385d9028156","system_id":"levelo_inurba_marseille","lat":43.295349,"lon":5.385473,"is_reserved":false,"is_disabled":false,"rental_uris":{"android":"levelo://app?vid=d502518b-cea4-4a93-9e26-6385d9028156","ios":"levelo://app?vid=d502518b-cea4-4a93-9e26-6385d9028156"},"vehicle_type_id":"4","last_reported":1752361859,"current_range_meters":11600,"station_id":"ce4bhb12rcd13ifvqem0","pricing_plan_id":"cebpf4jnsgd1na2vs0mg"},{"bike_id":"92e154b4-028c-4974-88b2-e4f9a14dc7a9","system_id":"levelo_inurba_marseille","lat":43.246523,"lon":5.38898,"is_reserved":false,"is_disabled":false,"rental_uris":{"android":"levelo://app?vid=92e154b4-028c-4974-88b2-e4f9a14dc7a9","ios":"levelo://app?vid=92e154b4-028c-4974-88b2-e4f9a14dc7a9"},"vehicle_type_id":"4","last_reported":1752361859,"current_range_meters":11600,"station_id":"ce4bhg12rcd13ifvqf60","pricing_plan_id":"cebpf4jnsgd1na2vs0mg"},{"bike_id":"85dfc701-1021-40a1-a5af-40a4d2962857","system_id":"levelo_inurba_marseille","lat":43.28156,"lon":5.42632,"is_reserved":false,"is_disabled":false,"rental_uris":{"android":"levelo://app?vid=85dfc701-1021-40a1-a5af-40a4d2962857","ios":"levelo://app?vid=85dfc701-1021-40a1-a5af-40a4d2962857"},"vehicle_type_id":"4","last_reported":1752361859,"current_range_meters":11600,"station_id":"ce4bhnh2rcd13ifvqgug","pricing_plan_id":"cebpf4jnsgd1na2vs0mg"},{"bike_id":"ee5338dd-18a1-4b48-a5b0-f8c72f7b1319","system_id":"levelo_inurba_marseille","lat":43.31896,"lon":5.36802,"is_reserved":false,"is_disabled":false,"rental_uris":{"android":"levelo://app?vid=ee5338dd-18a1-4b48-a5b0-f8c72f7b1319","ios":"levelo://app?vid=ee5338dd-18a1-4b48-a5b0-f8c72f7b1319"},"vehicle_type_id":"4","last_reported":1752361859,"current_range_meters":12000,"station_id":"","pricing_plan_id":"cebpf4jnsgd1na2vs0mg"},{"bike_id":"ad3a92a9-aac6-4694-a2f3-20c935fef2b6","system_id":"levelo_inurba_marseille","lat":43.292986,"lon":5.374656,"is_reserved":false,"is_disabled":false,"rental_uris":{"android":"levelo://app?vid=ad3a92a9-aac6-4694-a2f3-20c935fef2b6","ios":"levelo://app?vid=ad3a92a9-aac6-4694-a2f3-20c935fef2b6"},"vehicle_type_id":"4","last_reported":1752361859,"current_range_meters":12000,"station_id":"","pricing_plan_id":"cebpf4jnsgd1na2vs0mg"},{"bike_id":"af57023f-eef1-4731-8ce3-6d3155788247","system_id":"levelo_inurba_marseille","lat":43.29582,"lon":5.367447,"is_reserved":false,"is_disabled":false,"rental_uris":{"android":"levelo://app?vid=af57023f-eef1-4731-8ce3-6d3155788247","ios":"levelo://app?vid=af57023f-eef1-4731-8ce3-6d3155788247"},"vehicle_type_id":"4","last_reported":1752361859,"current_range_meters":12000,"station_id":"ce4bgph2rcd13ifvqc2g","pricing_plan_id":"cebpf4jnsgd1na2vs0mg"},{"bike_id":"7f02047d-a6cd-43f4-a617-996f2b9a8bc8","system_id":"levelo_inurba_marseille","lat":43.32321,"lon":5.36687,"is_reserved":false,"is_disabled":false,"rental_uris":{"android":"levelo://app?vid=7f02047d-a6cd-43f4-a617-996f2b9a8bc8","ios":"levelo://app?vid=7f02047d-a6cd-43f4-a617-996f2b9a8bc8"},"vehicle_type_id":"4","last_reported":1752361859,"current_range_meters":12400,"station_id":"","pricing_plan_id":"cebpf4jnsgd1na2vs0mg"},{"bike_id":"43a604c2-f42d-4840-93ea-75f23e254af6","system_id":"levelo_inurba_marseille","lat":43.26191,"lon":5.37451,"is_reserved":false,"is_disabled":false,"rental_uris":{"android":"levelo://app?vid=43a604c2-f42d-4840-93ea-75f23e254af6","ios":"levelo://app?vid=43a604c2-f42d-4840-93ea-75f23e254af6"},"vehicle_type_id":"4","last_reported":1752361859,"current_range_meters":12400,"station_id":"ce4bhgp2rcd13ifvqfc0","pricing_plan_id":"cebpf4jnsgd1na2vs0mg"},{"bike_id":"f18db782-201e-4e02-9468-2a81d86bd33d","system_id":"levelo_inurba_marseille","lat":43.284241,"lon":5.375234,"is_reserved":false,"is_disabled":false,"rental_uris":{"android":"levelo://app?vid=f18db782-201e-4e02-9468-2a81d86bd33d","ios":"levelo://app?vid=f18db782-201e-4e02-9468-2a81d86bd33d"},"vehicle_type_id":"4","last_reported":1752361859,"current_range_meters":12400,"station_id":"","pricing_plan_id":"cebpf4jnsgd1na2vs0mg"},{"bike_id":"4439f06f-e232-40e6-b17e-1a51f5a4d38d","system_id":"levelo_inurba_marseille","lat":43.26565,"lon":5.39018,"is_reserved":false,"is_disabled":false,"rental_uris":{"android":"levelo://app?vid=4439f06f-e232-40e6-b17e-1a51f5a4d38d","ios":"levelo://app?vid=4439f06f-e232-40e6-b17e-1a51f5a4d38d"},"vehicle_type_id":"4","last_reported":1752361859,"current_range_meters":12800,"station_id":"ce4bhe12rcd13ifvqf30","pricing_plan_id":"cebpf4jnsgd1na2vs0mg"},{"bike_id":"c21a465a-eb33-4f99-98b8-ce960e99ca69","system_id":"levelo_inurba_marseille","lat":43.287,"lon":5.39991,"is_reserved":false,"is_disabled":false,"rental_uris":{"android":"levelo://app?vid=c21a465a-eb33-4f99-98b8-ce960e99ca69","ios":"levelo://app?vid=c21a465a-eb33-4f99-98b8-ce960e99ca69"},"vehicle_type_id":"4","last_reported":1752361859,"current_range_meters":12000,"station_id":"ce4bho92rcd13ifvqh3g","pricing_plan_id":"cebpf4jnsgd1na2vs0mg"},{"bike_id":"470d1e9d-8c05-40b8-a6b2-039f183b9f6a","system_id":"levelo_inurba_marseille","lat":43.231939,"lon":5.355544,"is_reserved":false,"is_disabled":true,"rental_uris":{"android":"levelo://app?vid=470d1e9d-8c05-40b8-a6b2-039f183b9f6a","ios":"levelo://app?vid=470d1e9d-8c05-40b8-a6b2-039f183b9f6a"},"vehicle_type_id":"4","last_reported":1752361859,"current_range_meters":12400,"station_id":"ce4bhu92rcd13ifvqi70","pricing_plan_id":"cebpf4jnsgd1na2vs0mg"},{"bike_id":"9050c31c-488e-4df1-99e9-bb445ad50095","system_id":"levelo_inurba_marseille","lat":43.27322,"lon":5.39074,"is_reserved":false,"is_disabled":false,"rental_uris":{"android":"levelo://app?vid=9050c31c-488e-4df1-99e9-bb445ad50095","ios":"levelo://app?vid=9050c31c-488e-4df1-99e9-bb445ad50095"},"vehicle_type_id":"4","last_reported":1752361859,"current_range_meters":12400,"station_id":"ce4bhgp2rcd13ifvqfe0","pricing_plan_id":"cebpf4jnsgd1na2vs0mg"},{"bike_id":"7bb2812a-b96e-400f-831c-7b8a97727eef","system_id":"levelo_inurba_marseille","lat":43.31699,"lon":5.3777,"is_reserved":false,"is_disabled":false,"rental_uris":{"android":"levelo://app?vid=7bb2812a-b96e-400f-831c-7b8a97727eef","ios":"levelo://app?vid=7bb2812a-b96e-400f-831c-7b8a97727eef"},"vehicle_type_id":"4","last_reported":1752361859,"current_range_meters":12800,"station_id":"ce4bgth2rcd13ifvqch0","pricing_plan_id":"cebpf4jnsgd1na2vs0mg"},{"bike_id":"dec0260e-662d-4be0-bc35-d8d0072aa468","system_id":"levelo_inurba_marseille","lat":43.29526,"lon":5.39407,"is_reserved":false,"is_disabled":false,"rental_uris":{"android":"levelo://app?vid=dec0260e-662d-4be0-bc35-d8d0072aa468","ios":"levelo://app?vid=dec0260e-662d-4be0-bc35-d8d0072aa468"},"vehicle_type_id":"4","last_reported":1752361859,"current_range_meters":12800,"station_id":"ce4bh292rcd13ifvqdf0","pricing_plan_id":"cebpf4jnsgd1na2vs0mg"},{"bike_id":"297f7a4d-6e86-4c62-9995-41f8589188c2","system_id":"levelo_inurba_marseille","lat":43.292725,"lon":5.384503,"is_reserved":false,"is_disabled":false,"rental_uris":{"android":"levelo://app?vid=297f7a4d-6e86-4c62-9995-41f8589188c2","ios":"levelo://app?vid=297f7a4d-6e86-4c62-9995-41f8589188c2"},"vehicle_type_id":"4","last_reported":1752361859,"current_range_meters":12800,"station_id":"ce4bh692rcd13ifvqea0","pricing_plan_id":"cebpf4jnsgd1na2vs0mg"},{"bike_id":"b57f9a69-9807-41ac-bf1f-c8e68ba8cdd5","system_id":"levelo_inurba_marseille","lat":43.28466,"lon":5.35885,"is_reserved":false,"is_disabled":false,"rental_uris":{"android":"levelo://app?vid=b57f9a69-9807-41ac-bf1f-c8e68ba8cdd5","ios":"levelo://app?vid=b57f9a69-9807-41ac-bf1f-c8e68ba8cdd5"},"vehicle_type_id":"4","last_reported":1752361859,"current_range_meters":12800,"station_id":"ce4bhah2rcd13ifvqei0","pricing_plan_id":"cebpf4jnsgd1na2vs0mg"},{"bike_id":"2854adae-f0fd-4a42-8177-b7559cca565e","system_id":"levelo_inurba_marseille","lat":43.30887,"lon":5.37196,"is_reserved":false,"is_disabled":false,"rental_uris":{"android":"levelo://app?vid=2854adae-f0fd-4a42-8177-b7559cca565e","ios":"levelo://app?vid=2854adae-f0fd-4a42-8177-b7559cca565e"},"vehicle_type_id":"4","last_reported":1752361859,"current_range_meters":12800,"station_id":"ce4bguh2rcd13ifvqckg","pricing_plan_id":"cebpf4jnsgd1na2vs0mg"},{"bike_id":"0bd8a27d-527e-4750-ba1a-01035a65f04a","system_id":"levelo_inurba_marseille","lat":43.32539,"lon":5.41427,"is_reserved":false,"is_disabled":false,"rental_uris":{"android":"levelo://app?vid=0bd8a27d-527e-4750-ba1a-01035a65f04a","ios":"levelo://app?vid=0bd8a27d-527e-4750-ba1a-01035a65f04a"},"vehicle_type_id":"4","last_reported":1752361859,"current_range_meters":12800,"station_id":"ce4bhq12rcd13ifvqhhg","pricing_plan_id":"cebpf4jnsgd1na2vs0mg"},{"bike_id":"383a2485-518e-4235-b1cd-0ebf65ba74a5","system_id":"levelo_inurba_marseille","lat":43.29532,"lon":5.38539,"is_reserved":false,"is_disabled":true,"rental_uris":{"android":"levelo://app?vid=383a2485-518e-4235-b1cd-0ebf65ba74a5","ios":"levelo://app?vid=383a2485-518e-4235-b1cd-0ebf65ba74a5"},"vehicle_type_id":"4","last_reported":1752361859,"current_range_meters":12800,"station_id":"ce4bgih2rcd13ifvqba0","pricing_plan_id":"cebpf4jnsgd1na2vs0mg"},{"bike_id":"a2d82a2f-d37e-468c-bc43-b3bcf1bfcc9f","system_id":"levelo_inurba_marseille","lat":43.30322,"lon":5.40449,"is_reserved":false,"is_disabled":false,"rental_uris":{"android":"levelo://app?vid=a2d82a2f-d37e-468c-bc43-b3bcf1bfcc9f","ios":"levelo://app?vid=a2d82a2f-d37e-468c-bc43-b3bcf1bfcc9f"},"vehicle_type_id":"4","last_reported":1752361859,"current_range_meters":12800,"station_id":"ce4bh012rcd13ifvqd10","pricing_plan_id":"cebpf4jnsgd1na2vs0mg"},{"bike_id":"d3a6e38c-d49f-4352-88a6-de4e89f5067a","system_id":"levelo_inurba_marseille","lat":43.26229,"lon":5.404633,"is_reserved":false,"is_disabled":false,"rental_uris":{"android":"levelo://app?vid=d3a6e38c-d49f-4352-88a6-de4e89f5067a","ios":"levelo://app?vid=d3a6e38c-d49f-4352-88a6-de4e89f5067a"},"vehicle_type_id":"4","last_reported":1752361859,"current_range_meters":12800,"station_id":"ce4bhmh2rcd13ifvqgmg","pricing_plan_id":"cebpf4jnsgd1na2vs0mg"},{"bike_id":"2c01c085-a118-4b6b-9ba6-2000ce1f20ec","system_id":"levelo_inurba_marseille","lat":43.28678,"lon":5.37983,"is_reserved":false,"is_disabled":false,"rental_uris":{"android":"levelo://app?vid=2c01c085-a118-4b6b-9ba6-2000ce1f20ec","ios":"levelo://app?vid=2c01c085-a118-4b6b-9ba6-2000ce1f20ec"},"vehicle_type_id":"4","last_reported":1752361859,"current_range_meters":12800,"station_id":"","pricing_plan_id":"cebpf4jnsgd1na2vs0mg"},{"bike_id":"fad97c9e-b980-4829-b6fa-c6dded07c8ee","system_id":"levelo_inurba_marseille","lat":43.28672,"lon":5.38657,"is_reserved":false,"is_disabled":false,"rental_uris":{"android":"levelo://app?vid=fad97c9e-b980-4829-b6fa-c6dded07c8ee","ios":"levelo://app?vid=fad97c9e-b980-4829-b6fa-c6dded07c8ee"},"vehicle_type_id":"4","last_reported":1752361859,"current_range_meters":12800,"station_id":"ce4bh492rcd13ifvqdug","pricing_plan_id":"cebpf4jnsgd1na2vs0mg"},{"bike_id":"c6f1693c-9d0c-40dd-baf4-4555f389e364","system_id":"levelo_inurba_marseille","lat":43.28934,"lon":5.38388,"is_reserved":false,"is_disabled":false,"rental_uris":{"android":"levelo://app?vid=c6f1693c-9d0c-40dd-baf4-4555f389e364","ios":"levelo://app?vid=c6f1693c-9d0c-40dd-baf4-4555f389e364"},"vehicle_type_id":"4","last_reported":1752361859,"current_range_meters":12400,"station_id":"ce4bh612rcd13ifvqe6g","pricing_plan_id":"cebpf4jnsgd1na2vs0mg"},{"bike_id":"737ead6f-e608-42f1-8a55-8949c954e8e3","system_id":"levelo_inurba_marseille","lat":43.212127,"lon":5.350795,"is_reserved":false,"is_disabled":false,"rental_uris":{"android":"levelo://app?vid=737ead6f-e608-42f1-8a55-8949c954e8e3","ios":"levelo://app?vid=737ead6f-e608-42f1-8a55-8949c954e8e3"},"vehicle_type_id":"4","last_reported":1752361859,"current_range_meters":13600,"station_id":"st_cvj6sg6p6f1abm77japg","pricing_plan_id":"cebpf4jnsgd1na2vs0mg"},{"bike_id":"65e074d9-7127-4e46-91d5-363b4db5691c","system_id":"levelo_inurba_marseille","lat":43.30896,"lon":5.37183,"is_reserved":false,"is_disabled":false,"rental_uris":{"android":"levelo://app?vid=65e074d9-7127-4e46-91d5-363b4db5691c","ios":"levelo://app?vid=65e074d9-7127-4e46-91d5-363b4db5691c"},"vehicle_type_id":"4","last_reported":1752361859,"current_range_meters":12800,"station_id":"ce4bguh2rcd13ifvqckg","pricing_plan_id":"cebpf4jnsgd1na2vs0mg"},{"bike_id":"51890362-46b0-4ee7-9f02-afbf036d064e","system_id":"levelo_inurba_marseille","lat":43.21204,"lon":5.35059,"is_reserved":false,"is_disabled":false,"rental_uris":{"android":"levelo://app?vid=51890362-46b0-4ee7-9f02-afbf036d064e","ios":"levelo://app?vid=51890362-46b0-4ee7-9f02-afbf036d064e"},"vehicle_type_id":"4","last_reported":1752361859,"current_range_meters":14000,"station_id":"st_cvj6sg6p6f1abm77japg","pricing_plan_id":"cebpf4jnsgd1na2vs0mg"},{"bike_id":"c3e3ac6f-9bdf-42be-94b7-108dfa8bf9d9","system_id":"levelo_inurba_marseille","lat":43.32476,"lon":5.36567,"is_reserved":false,"is_disabled":true,"rental_uris":{"android":"levelo://app?vid=c3e3ac6f-9bdf-42be-94b7-108dfa8bf9d9","ios":"levelo://app?vid=c3e3ac6f-9bdf-42be-94b7-108dfa8bf9d9"},"vehicle_type_id":"4","last_reported":1752361859,"current_range_meters":13600,"station_id":"ce4bhs12rcd13ifvqhvg","pricing_plan_id":"cebpf4jnsgd1na2vs0mg"},{"bike_id":"c4159d35-3997-4d22-8b07-70d50dce5087","system_id":"levelo_inurba_marseille","lat":43.24177,"lon":5.39735,"is_reserved":false,"is_disabled":false,"rental_uris":{"android":"levelo://app?vid=c4159d35-3997-4d22-8b07-70d50dce5087","ios":"levelo://app?vid=c4159d35-3997-4d22-8b07-70d50dce5087"},"vehicle_type_id":"4","last_reported":1752361859,"current_range_meters":13600,"station_id":"ce4bhn12rcd13ifvqgpg","pricing_plan_id":"cebpf4jnsgd1na2vs0mg"},{"bike_id":"bf82b556-a6ac-43ae-9a1e-d4da10eaeb3a","system_id":"levelo_inurba_marseille","lat":43.29006,"lon":5.35613,"is_reserved":false,"is_disabled":false,"rental_uris":{"android":"levelo://app?vid=bf82b556-a6ac-43ae-9a1e-d4da10eaeb3a","ios":"levelo://app?vid=bf82b556-a6ac-43ae-9a1e-d4da10eaeb3a"},"vehicle_type_id":"4","last_reported":1752361859,"current_range_meters":13600,"station_id":"ce4bhb92rcd13ifvqen0","pricing_plan_id":"cebpf4jnsgd1na2vs0mg"},{"bike_id":"9e5d61df-0c69-432d-8d47-afb9d510710a","system_id":"levelo_inurba_marseille","lat":43.2904,"lon":5.38656,"is_reserved":false,"is_disabled":false,"rental_uris":{"android":"levelo://app?vid=9e5d61df-0c69-432d-8d47-afb9d510710a","ios":"levelo://app?vid=9e5d61df-0c69-432d-8d47-afb9d510710a"},"vehicle_type_id":"4","last_reported":1752361859,"current_range_meters":14000,"station_id":"ce4bh4p2rcd13ifvqe0g","pricing_plan_id":"cebpf4jnsgd1na2vs0mg"},{"bike_id":"d33c74ed-791f-4f00-818b-0a666c3e7727","system_id":"levelo_inurba_marseille","lat":43.30258,"lon":5.40082,"is_reserved":false,"is_disabled":false,"rental_uris":{"android":"levelo://app?vid=d33c74ed-791f-4f00-818b-0a666c3e7727","ios":"levelo://app?vid=d33c74ed-791f-4f00-818b-0a666c3e7727"},"vehicle_type_id":"4","last_reported":1752361859,"current_range_meters":14000,"station_id":"ce4bgvh2rcd13ifvqcs0","pricing_plan_id":"cebpf4jnsgd1na2vs0mg"},{"bike_id":"ff12513b-478c-4f81-9d13-9e238175c660","system_id":"levelo_inurba_marseille","lat":43.2953,"lon":5.38557,"is_reserved":false,"is_disabled":false,"rental_uris":{"android":"levelo://app?vid=ff12513b-478c-4f81-9d13-9e238175c660","ios":"levelo://app?vid=ff12513b-478c-4f81-9d13-9e238175c660"},"vehicle_type_id":"4","last_reported":1752361859,"current_range_meters":14000,"station_id":"ce4bgih2rcd13ifvqba0","pricing_plan_id":"cebpf4jnsgd1na2vs0mg"},{"bike_id":"49801dc2-618a-44b8-84ae-416cd87fdbe9","system_id":"levelo_inurba_marseille","lat":43.33766,"lon":5.375,"is_reserved":false,"is_disabled":false,"rental_uris":{"android":"levelo://app?vid=49801dc2-618a-44b8-84ae-416cd87fdbe9","ios":"levelo://app?vid=49801dc2-618a-44b8-84ae-416cd87fdbe9"},"vehicle_type_id":"4","last_reported":1752361859,"current_range_meters":14000,"station_id":"","pricing_plan_id":"cebpf4jnsgd1na2vs0mg"},{"bike_id":"a0137104-c9f4-434a-a5e3-80725cd5a2b4","system_id":"levelo_inurba_marseille","lat":43.211984,"lon":5.350728,"is_reserved":false,"is_disabled":false,"rental_uris":{"android":"levelo://app?vid=a0137104-c9f4-434a-a5e3-80725cd5a2b4","ios":"levelo://app?vid=a0137104-c9f4-434a-a5e3-80725cd5a2b4"},"vehicle_type_id":"4","last_reported":1752361859,"current_range_meters":14000,"station_id":"st_cvj6sg6p6f1abm77japg","pricing_plan_id":"cebpf4jnsgd1na2vs0mg"},{"bike_id":"c4cc3da4-b9c1-4f0e-b85a-b8a89a4a8f47","system_id":"levelo_inurba_marseille","lat":43.30212,"lon":5.39462,"is_reserved":false,"is_disabled":false,"rental_uris":{"android":"levelo://app?vid=c4cc3da4-b9c1-4f0e-b85a-b8a89a4a8f47","ios":"levelo://app?vid=c4cc3da4-b9c1-4f0e-b85a-b8a89a4a8f47"},"vehicle_type_id":"4","last_reported":1752361859,"current_range_meters":14000,"station_id":"ce4bh0p2rcd13ifvqd70","pricing_plan_id":"cebpf4jnsgd1na2vs0mg"},{"bike_id":"5c0448b2-8814-4934-b665-27ab2eac725a","system_id":"levelo_inurba_marseille","lat":43.26492,"lon":5.39543,"is_reserved":false,"is_disabled":false,"rental_uris":{"android":"levelo://app?vid=5c0448b2-8814-4934-b665-27ab2eac725a","ios":"levelo://app?vid=5c0448b2-8814-4934-b665-27ab2eac725a"},"vehicle_type_id":"4","last_reported":1752361859,"current_range_meters":14400,"station_id":"ce4bhi12rcd13ifvqfq0","pricing_plan_id":"cebpf4jnsgd1na2vs0mg"},{"bike_id":"43d1f36e-7a94-4f86-940a-e6f2b1184556","system_id":"levelo_inurba_marseille","lat":43.3073,"lon":5.42449,"is_reserved":false,"is_disabled":false,"rental_uris":{"android":"levelo://app?vid=43d1f36e-7a94-4f86-940a-e6f2b1184556","ios":"levelo://app?vid=43d1f36e-7a94-4f86-940a-e6f2b1184556"},"vehicle_type_id":"4","last_reported":1752361859,"current_range_meters":14400,"station_id":"st_cvj6ca6bvosntc0bfgr0","pricing_plan_id":"cebpf4jnsgd1na2vs0mg"},{"bike_id":"00bc0b3b-e317-4a17-a011-a3a9a29d816a","system_id":"levelo_inurba_marseille","lat":43.21193,"lon":5.35072,"is_reserved":false,"is_disabled":false,"rental_uris":{"android":"levelo://app?vid=00bc0b3b-e317-4a17-a011-a3a9a29d816a","ios":"levelo://app?vid=00bc0b3b-e317-4a17-a011-a3a9a29d816a"},"vehicle_type_id":"4","last_reported":1752361859,"current_range_meters":14800,"station_id":"st_cvj6sg6p6f1abm77japg","pricing_plan_id":"cebpf4jnsgd1na2vs0mg"},{"bike_id":"d7d851de-d966-47dc-9bd8-1a9ae0c433a4","system_id":"levelo_inurba_marseille","lat":43.22504,"lon":5.34775,"is_reserved":false,"is_disabled":false,"rental_uris":{"android":"levelo://app?vid=d7d851de-d966-47dc-9bd8-1a9ae0c433a4","ios":"levelo://app?vid=d7d851de-d966-47dc-9bd8-1a9ae0c433a4"},"vehicle_type_id":"4","last_reported":1752361859,"current_range_meters":14400,"station_id":"st_cvj5dfep6f1abm77gieg","pricing_plan_id":"cebpf4jnsgd1na2vs0mg"},{"bike_id":"03421460-779f-4093-b1d8-36a28cadf13b","system_id":"levelo_inurba_marseille","lat":43.26031,"lon":5.37549,"is_reserved":false,"is_disabled":false,"rental_uris":{"android":"levelo://app?vid=03421460-779f-4093-b1d8-36a28cadf13b","ios":"levelo://app?vid=03421460-779f-4093-b1d8-36a28cadf13b"},"vehicle_type_id":"4","last_reported":1752361859,"current_range_meters":14000,"station_id":"ce4bhgh2rcd13ifvqfa0","pricing_plan_id":"cebpf4jnsgd1na2vs0mg"},{"bike_id":"854d5dbd-9ed2-47cd-9380-9348e08a193d","system_id":"levelo_inurba_marseille","lat":43.29903,"lon":5.37482,"is_reserved":false,"is_disabled":false,"rental_uris":{"android":"levelo://app?vid=854d5dbd-9ed2-47cd-9380-9348e08a193d","ios":"levelo://app?vid=854d5dbd-9ed2-47cd-9380-9348e08a193d"},"vehicle_type_id":"4","last_reported":1752361859,"current_range_meters":14800,"station_id":"ce4bgjh2rcd13ifvqbg0","pricing_plan_id":"cebpf4jnsgd1na2vs0mg"},{"bike_id":"016a0553-daa1-434d-8dba-ff1fbded5db8","system_id":"levelo_inurba_marseille","lat":43.22492,"lon":5.34795,"is_reserved":false,"is_disabled":false,"rental_uris":{"android":"levelo://app?vid=016a0553-daa1-434d-8dba-ff1fbded5db8","ios":"levelo://app?vid=016a0553-daa1-434d-8dba-ff1fbded5db8"},"vehicle_type_id":"4","last_reported":1752361859,"current_range_meters":14800,"station_id":"st_cvj5dfep6f1abm77gieg","pricing_plan_id":"cebpf4jnsgd1na2vs0mg"},{"bike_id":"fd4ea8a4-19a2-471d-a213-096f14af8bf9","system_id":"levelo_inurba_marseille","lat":43.29244,"lon":5.38448,"is_reserved":false,"is_disabled":false,"rental_uris":{"android":"levelo://app?vid=fd4ea8a4-19a2-471d-a213-096f14af8bf9","ios":"levelo://app?vid=fd4ea8a4-19a2-471d-a213-096f14af8bf9"},"vehicle_type_id":"4","last_reported":1752361859,"current_range_meters":14800,"station_id":"ce4bh692rcd13ifvqea0","pricing_plan_id":"cebpf4jnsgd1na2vs0mg"},{"bike_id":"4ab460f6-2b13-462f-a8b8-8ee3ec6489ea","system_id":"levelo_inurba_marseille","lat":43.26228,"lon":5.40452,"is_reserved":false,"is_disabled":false,"rental_uris":{"android":"levelo://app?vid=4ab460f6-2b13-462f-a8b8-8ee3ec6489ea","ios":"levelo://app?vid=4ab460f6-2b13-462f-a8b8-8ee3ec6489ea"},"vehicle_type_id":"4","last_reported":1752361859,"current_range_meters":14800,"station_id":"ce4bhmh2rcd13ifvqgmg","pricing_plan_id":"cebpf4jnsgd1na2vs0mg"},{"bike_id":"f0da6885-0c82-4d8d-bf55-a938a971a24e","system_id":"levelo_inurba_marseille","lat":43.29307,"lon":5.37174,"is_reserved":false,"is_disabled":false,"rental_uris":{"android":"levelo://app?vid=f0da6885-0c82-4d8d-bf55-a938a971a24e","ios":"levelo://app?vid=f0da6885-0c82-4d8d-bf55-a938a971a24e"},"vehicle_type_id":"4","last_reported":1752361859,"current_range_meters":14400,"station_id":"ce4bgh92rcd13ifvqb40","pricing_plan_id":"cebpf4jnsgd1na2vs0mg"},{"bike_id":"fce910f6-1273-41e7-b45e-484353369220","system_id":"levelo_inurba_marseille","lat":43.30431,"lon":5.38887,"is_reserved":false,"is_disabled":false,"rental_uris":{"android":"levelo://app?vid=fce910f6-1273-41e7-b45e-484353369220","ios":"levelo://app?vid=fce910f6-1273-41e7-b45e-484353369220"},"vehicle_type_id":"4","last_reported":1752361859,"current_range_meters":15200,"station_id":"ce4bgk12rcd13ifvqbi0","pricing_plan_id":"cebpf4jnsgd1na2vs0mg"},{"bike_id":"bcd5f92f-9d0d-4919-acc7-84ce17b87f71","system_id":"levelo_inurba_marseille","lat":43.26782,"lon":5.39434,"is_reserved":false,"is_disabled":false,"rental_uris":{"android":"levelo://app?vid=bcd5f92f-9d0d-4919-acc7-84ce17b87f71","ios":"levelo://app?vid=bcd5f92f-9d0d-4919-acc7-84ce17b87f71"},"vehicle_type_id":"4","last_reported":1752361859,"current_range_meters":14800,"station_id":"ce4bhh12rcd13ifvqfg0","pricing_plan_id":"cebpf4jnsgd1na2vs0mg"},{"bike_id":"31f76825-7b9f-439a-a66c-521eb63e58c1","system_id":"levelo_inurba_marseille","lat":43.29453,"lon":5.43852,"is_reserved":false,"is_disabled":false,"rental_uris":{"android":"levelo://app?vid=31f76825-7b9f-439a-a66c-521eb63e58c1","ios":"levelo://app?vid=31f76825-7b9f-439a-a66c-521eb63e58c1"},"vehicle_type_id":"4","last_reported":1752361859,"current_range_meters":14800,"station_id":"","pricing_plan_id":"cebpf4jnsgd1na2vs0mg"},{"bike_id":"135fbc31-bb5d-4cf3-9c17-22b0e74b8dcf","system_id":"levelo_inurba_marseille","lat":43.292725,"lon":5.368383,"is_reserved":false,"is_disabled":false,"rental_uris":{"android":"levelo://app?vid=135fbc31-bb5d-4cf3-9c17-22b0e74b8dcf","ios":"levelo://app?vid=135fbc31-bb5d-4cf3-9c17-22b0e74b8dcf"},"vehicle_type_id":"4","last_reported":1752361859,"current_range_meters":15200,"station_id":"","pricing_plan_id":"cebpf4jnsgd1na2vs0mg"},{"bike_id":"11f46ca2-23ee-4f2a-83a5-008959742fbd","system_id":"levelo_inurba_marseille","lat":43.2468,"lon":5.38141,"is_reserved":false,"is_disabled":false,"rental_uris":{"android":"levelo://app?vid=11f46ca2-23ee-4f2a-83a5-008959742fbd","ios":"levelo://app?vid=11f46ca2-23ee-4f2a-83a5-008959742fbd"},"vehicle_type_id":"4","last_reported":1752361859,"current_range_meters":15200,"station_id":"ce4bhih2rcd13ifvqfr0","pricing_plan_id":"cebpf4jnsgd1na2vs0mg"},{"bike_id":"8b37f03f-f226-4bbc-8648-b109da7ba145","system_id":"levelo_inurba_marseille","lat":43.30536,"lon":5.366999,"is_reserved":false,"is_disabled":false,"rental_uris":{"android":"levelo://app?vid=8b37f03f-f226-4bbc-8648-b109da7ba145","ios":"levelo://app?vid=8b37f03f-f226-4bbc-8648-b109da7ba145"},"vehicle_type_id":"4","last_reported":1752361859,"current_range_meters":15200,"station_id":"","pricing_plan_id":"cebpf4jnsgd1na2vs0mg"},{"bike_id":"54c42649-7aa4-4934-92f3-a23a386f7d15","system_id":"levelo_inurba_marseille","lat":43.241713,"lon":5.36405,"is_reserved":false,"is_disabled":false,"rental_uris":{"android":"levelo://app?vid=54c42649-7aa4-4934-92f3-a23a386f7d15","ios":"levelo://app?vid=54c42649-7aa4-4934-92f3-a23a386f7d15"},"vehicle_type_id":"4","last_reported":1752361859,"current_range_meters":15200,"station_id":"cpo36qri1sfpv3e86is0","pricing_plan_id":"cebpf4jnsgd1na2vs0mg"},{"bike_id":"20adb84f-da13-4b09-9cee-587319a1783b","system_id":"levelo_inurba_marseille","lat":43.29262,"lon":5.40895,"is_reserved":false,"is_disabled":false,"rental_uris":{"android":"levelo://app?vid=20adb84f-da13-4b09-9cee-587319a1783b","ios":"levelo://app?vid=20adb84f-da13-4b09-9cee-587319a1783b"},"vehicle_type_id":"4","last_reported":1752361859,"current_range_meters":15200,"station_id":"ce4bh192rcd13ifvqdc0","pricing_plan_id":"cebpf4jnsgd1na2vs0mg"},{"bike_id":"f23760ff-ab61-4853-aa67-28aac93822c1","system_id":"levelo_inurba_marseille","lat":43.337444,"lon":5.374475,"is_reserved":false,"is_disabled":false,"rental_uris":{"android":"levelo://app?vid=f23760ff-ab61-4853-aa67-28aac93822c1","ios":"levelo://app?vid=f23760ff-ab61-4853-aa67-28aac93822c1"},"vehicle_type_id":"4","last_reported":1752361859,"current_range_meters":15200,"station_id":"","pricing_plan_id":"cebpf4jnsgd1na2vs0mg"},{"bike_id":"198ed86b-5126-4c92-bb8b-ab2f45abb2b7","system_id":"levelo_inurba_marseille","lat":43.28669,"lon":5.36355,"is_reserved":false,"is_disabled":false,"rental_uris":{"android":"levelo://app?vid=198ed86b-5126-4c92-bb8b-ab2f45abb2b7","ios":"levelo://app?vid=198ed86b-5126-4c92-bb8b-ab2f45abb2b7"},"vehicle_type_id":"4","last_reported":1752361859,"current_range_meters":15200,"station_id":"ce4bhah2rcd13ifvqej0","pricing_plan_id":"cebpf4jnsgd1na2vs0mg"},{"bike_id":"d3eb6ebc-944c-4672-ad0e-46dbd50d6295","system_id":"levelo_inurba_marseille","lat":43.26198,"lon":5.37461,"is_reserved":false,"is_disabled":false,"rental_uris":{"android":"levelo://app?vid=d3eb6ebc-944c-4672-ad0e-46dbd50d6295","ios":"levelo://app?vid=d3eb6ebc-944c-4672-ad0e-46dbd50d6295"},"vehicle_type_id":"4","last_reported":1752361859,"current_range_meters":15200,"station_id":"ce4bhgp2rcd13ifvqfc0","pricing_plan_id":"cebpf4jnsgd1na2vs0mg"},{"bike_id":"b105f991-1563-4fc4-9371-7364ce9b8c80","system_id":"levelo_inurba_marseille","lat":43.287285,"lon":5.395579,"is_reserved":false,"is_disabled":false,"rental_uris":{"android":"levelo://app?vid=b105f991-1563-4fc4-9371-7364ce9b8c80","ios":"levelo://app?vid=b105f991-1563-4fc4-9371-7364ce9b8c80"},"vehicle_type_id":"4","last_reported":1752361859,"current_range_meters":15200,"station_id":"","pricing_plan_id":"cebpf4jnsgd1na2vs0mg"},{"bike_id":"8b0171f7-9aa1-49c8-ab03-e7d9fc8e7191","system_id":"levelo_inurba_marseille","lat":43.3015,"lon":5.38088,"is_reserved":false,"is_disabled":false,"rental_uris":{"android":"levelo://app?vid=8b0171f7-9aa1-49c8-ab03-e7d9fc8e7191","ios":"levelo://app?vid=8b0171f7-9aa1-49c8-ab03-e7d9fc8e7191"},"vehicle_type_id":"4","last_reported":1752361859,"current_range_meters":16000,"station_id":"ce4bgjp2rcd13ifvqbh0","pricing_plan_id":"cebpf4jnsgd1na2vs0mg"},{"bike_id":"844b44b6-4e33-4917-878d-a3c647561239","system_id":"levelo_inurba_marseille","lat":43.30749,"lon":5.42451,"is_reserved":false,"is_disabled":false,"rental_uris":{"android":"levelo://app?vid=844b44b6-4e33-4917-878d-a3c647561239","ios":"levelo://app?vid=844b44b6-4e33-4917-878d-a3c647561239"},"vehicle_type_id":"4","last_reported":1752361859,"current_range_meters":16000,"station_id":"st_cvj6ca6bvosntc0bfgr0","pricing_plan_id":"cebpf4jnsgd1na2vs0mg"},{"bike_id":"4100bc4f-2218-4922-9dc2-ac7a30b24292","system_id":"levelo_inurba_marseille","lat":43.2952,"lon":5.38548,"is_reserved":false,"is_disabled":false,"rental_uris":{"android":"levelo://app?vid=4100bc4f-2218-4922-9dc2-ac7a30b24292","ios":"levelo://app?vid=4100bc4f-2218-4922-9dc2-ac7a30b24292"},"vehicle_type_id":"4","last_reported":1752361859,"current_range_meters":16000,"station_id":"ce4bgih2rcd13ifvqba0","pricing_plan_id":"cebpf4jnsgd1na2vs0mg"},{"bike_id":"4b8da722-ee9e-48a4-a5e5-3a8a10364708","system_id":"levelo_inurba_marseille","lat":43.31225,"lon":5.37942,"is_reserved":false,"is_disabled":false,"rental_uris":{"android":"levelo://app?vid=4b8da722-ee9e-48a4-a5e5-3a8a10364708","ios":"levelo://app?vid=4b8da722-ee9e-48a4-a5e5-3a8a10364708"},"vehicle_type_id":"4","last_reported":1752361859,"current_range_meters":16000,"station_id":"","pricing_plan_id":"cebpf4jnsgd1na2vs0mg"},{"bike_id":"65b30612-b2c9-49b8-bf2d-82f4bb5353d2","system_id":"levelo_inurba_marseille","lat":43.28613,"lon":5.37066,"is_reserved":false,"is_disabled":false,"rental_uris":{"android":"levelo://app?vid=65b30612-b2c9-49b8-bf2d-82f4bb5353d2","ios":"levelo://app?vid=65b30612-b2c9-49b8-bf2d-82f4bb5353d2"},"vehicle_type_id":"4","last_reported":1752361859,"current_range_meters":16000,"station_id":"ce4bht12rcd13ifvqi60","pricing_plan_id":"cebpf4jnsgd1na2vs0mg"},{"bike_id":"c1d0629c-eaee-41e7-8c10-68b0ec1b077d","system_id":"levelo_inurba_marseille","lat":43.32766,"lon":5.39121,"is_reserved":false,"is_disabled":false,"rental_uris":{"android":"levelo://app?vid=c1d0629c-eaee-41e7-8c10-68b0ec1b077d","ios":"levelo://app?vid=c1d0629c-eaee-41e7-8c10-68b0ec1b077d"},"vehicle_type_id":"4","last_reported":1752361859,"current_range_meters":16000,"station_id":"","pricing_plan_id":"cebpf4jnsgd1na2vs0mg"},{"bike_id":"03a436fb-5e33-4301-9462-cda142dcc749","system_id":"levelo_inurba_marseille","lat":43.301432,"lon":5.380858,"is_reserved":false,"is_disabled":false,"rental_uris":{"android":"levelo://app?vid=03a436fb-5e33-4301-9462-cda142dcc749","ios":"levelo://app?vid=03a436fb-5e33-4301-9462-cda142dcc749"},"vehicle_type_id":"4","last_reported":1752361859,"current_range_meters":16000,"station_id":"ce4bgjp2rcd13ifvqbh0","pricing_plan_id":"cebpf4jnsgd1na2vs0mg"},{"bike_id":"7f9cdf24-06d5-4966-a653-209a5c486322","system_id":"levelo_inurba_marseille","lat":43.3025,"lon":5.40088,"is_reserved":false,"is_disabled":false,"rental_uris":{"android":"levelo://app?vid=7f9cdf24-06d5-4966-a653-209a5c486322","ios":"levelo://app?vid=7f9cdf24-06d5-4966-a653-209a5c486322"},"vehicle_type_id":"4","last_reported":1752361859,"current_range_meters":16000,"station_id":"ce4bgvh2rcd13ifvqcs0","pricing_plan_id":"cebpf4jnsgd1na2vs0mg"},{"bike_id":"9a72d1fd-ba0d-40b8-85c2-0a32bee82c5a","system_id":"levelo_inurba_marseille","lat":43.28568,"lon":5.40235,"is_reserved":false,"is_disabled":false,"rental_uris":{"android":"levelo://app?vid=9a72d1fd-ba0d-40b8-85c2-0a32bee82c5a","ios":"levelo://app?vid=9a72d1fd-ba0d-40b8-85c2-0a32bee82c5a"},"vehicle_type_id":"4","last_reported":1752361859,"current_range_meters":16000,"station_id":"","pricing_plan_id":"cebpf4jnsgd1na2vs0mg"},{"bike_id":"7419c120-5824-4734-9504-530659ebab94","system_id":"levelo_inurba_marseille","lat":43.27999,"lon":5.4001,"is_reserved":false,"is_disabled":false,"rental_uris":{"android":"levelo://app?vid=7419c120-5824-4734-9504-530659ebab94","ios":"levelo://app?vid=7419c120-5824-4734-9504-530659ebab94"},"vehicle_type_id":"4","last_reported":1752361859,"current_range_meters":16400,"station_id":"ce4bho92rcd13ifvqh4g","pricing_plan_id":"cebpf4jnsgd1na2vs0mg"},{"bike_id":"6d3f299a-d341-49bc-a1f9-7534528d9b67","system_id":"levelo_inurba_marseille","lat":43.23193,"lon":5.35571,"is_reserved":false,"is_disabled":false,"rental_uris":{"android":"levelo://app?vid=6d3f299a-d341-49bc-a1f9-7534528d9b67","ios":"levelo://app?vid=6d3f299a-d341-49bc-a1f9-7534528d9b67"},"vehicle_type_id":"4","last_reported":1752361859,"current_range_meters":16400,"station_id":"ce4bhu92rcd13ifvqi70","pricing_plan_id":"cebpf4jnsgd1na2vs0mg"},{"bike_id":"7780a103-8bca-4ab1-af37-f818dd294d32","system_id":"levelo_inurba_marseille","lat":43.296633,"lon":5.387004,"is_reserved":false,"is_disabled":false,"rental_uris":{"android":"levelo://app?vid=7780a103-8bca-4ab1-af37-f818dd294d32","ios":"levelo://app?vid=7780a103-8bca-4ab1-af37-f818dd294d32"},"vehicle_type_id":"4","last_reported":1752361859,"current_range_meters":16400,"station_id":"","pricing_plan_id":"cebpf4jnsgd1na2vs0mg"},{"bike_id":"a44f68aa-b920-4eb6-845e-df1183944a6b","system_id":"levelo_inurba_marseille","lat":43.28551,"lon":5.35129,"is_reserved":false,"is_disabled":true,"rental_uris":{"android":"levelo://app?vid=a44f68aa-b920-4eb6-845e-df1183944a6b","ios":"levelo://app?vid=a44f68aa-b920-4eb6-845e-df1183944a6b"},"vehicle_type_id":"4","last_reported":1752361859,"current_range_meters":16400,"station_id":"","pricing_plan_id":"cebpf4jnsgd1na2vs0mg"},{"bike_id":"e2ce6e8a-ef9f-4211-8776-042780e4931d","system_id":"levelo_inurba_marseille","lat":43.284233,"lon":5.349886,"is_reserved":false,"is_disabled":true,"rental_uris":{"android":"levelo://app?vid=e2ce6e8a-ef9f-4211-8776-042780e4931d","ios":"levelo://app?vid=e2ce6e8a-ef9f-4211-8776-042780e4931d"},"vehicle_type_id":"4","last_reported":1752361859,"current_range_meters":16400,"station_id":"ce4bhbh2rcd13ifvqepg","pricing_plan_id":"cebpf4jnsgd1na2vs0mg"},{"bike_id":"b8cd8c38-4d88-48b2-abb3-ece961dbda2a","system_id":"levelo_inurba_marseille","lat":43.30656,"lon":5.4009,"is_reserved":false,"is_disabled":false,"rental_uris":{"android":"levelo://app?vid=b8cd8c38-4d88-48b2-abb3-ece961dbda2a","ios":"levelo://app?vid=b8cd8c38-4d88-48b2-abb3-ece961dbda2a"},"vehicle_type_id":"4","last_reported":1752361859,"current_range_meters":16400,"station_id":"ce4bh112rcd13ifvqda0","pricing_plan_id":"cebpf4jnsgd1na2vs0mg"},{"bike_id":"d75270ea-f3ef-4721-aa6e-977ccb24549b","system_id":"levelo_inurba_marseille","lat":43.28712,"lon":5.39993,"is_reserved":false,"is_disabled":false,"rental_uris":{"android":"levelo://app?vid=d75270ea-f3ef-4721-aa6e-977ccb24549b","ios":"levelo://app?vid=d75270ea-f3ef-4721-aa6e-977ccb24549b"},"vehicle_type_id":"4","last_reported":1752361859,"current_range_meters":16400,"station_id":"ce4bho92rcd13ifvqh3g","pricing_plan_id":"cebpf4jnsgd1na2vs0mg"},{"bike_id":"e58026f0-c12c-4510-ad41-3bd3c2a5dfc0","system_id":"levelo_inurba_marseille","lat":43.26922,"lon":5.39302,"is_reserved":false,"is_disabled":false,"rental_uris":{"android":"levelo://app?vid=e58026f0-c12c-4510-ad41-3bd3c2a5dfc0","ios":"levelo://app?vid=e58026f0-c12c-4510-ad41-3bd3c2a5dfc0"},"vehicle_type_id":"4","last_reported":1752361859,"current_range_meters":16400,"station_id":"ce4bhi12rcd13ifvqfq0","pricing_plan_id":"cebpf4jnsgd1na2vs0mg"},{"bike_id":"5bbda851-d70d-46ec-89a2-e0e55c3fc47e","system_id":"levelo_inurba_marseille","lat":43.27997,"lon":5.41665,"is_reserved":false,"is_disabled":false,"rental_uris":{"android":"levelo://app?vid=5bbda851-d70d-46ec-89a2-e0e55c3fc47e","ios":"levelo://app?vid=5bbda851-d70d-46ec-89a2-e0e55c3fc47e"},"vehicle_type_id":"4","last_reported":1752361859,"current_range_meters":16400,"station_id":"ce4bho12rcd13ifvqh1g","pricing_plan_id":"cebpf4jnsgd1na2vs0mg"},{"bike_id":"f462ee31-4185-499d-b95c-69379c3acf35","system_id":"levelo_inurba_marseille","lat":43.26189,"lon":5.37465,"is_reserved":false,"is_disabled":false,"rental_uris":{"android":"levelo://app?vid=f462ee31-4185-499d-b95c-69379c3acf35","ios":"levelo://app?vid=f462ee31-4185-499d-b95c-69379c3acf35"},"vehicle_type_id":"4","last_reported":1752361859,"current_range_meters":16400,"station_id":"ce4bhgp2rcd13ifvqfc0","pricing_plan_id":"cebpf4jnsgd1na2vs0mg"},{"bike_id":"34fd5d57-2e91-4b08-8d44-fea0c511ece3","system_id":"levelo_inurba_marseille","lat":43.28694,"lon":5.39986,"is_reserved":false,"is_disabled":false,"rental_uris":{"android":"levelo://app?vid=34fd5d57-2e91-4b08-8d44-fea0c511ece3","ios":"levelo://app?vid=34fd5d57-2e91-4b08-8d44-fea0c511ece3"},"vehicle_type_id":"4","last_reported":1752361859,"current_range_meters":16400,"station_id":"ce4bho92rcd13ifvqh3g","pricing_plan_id":"cebpf4jnsgd1na2vs0mg"},{"bike_id":"a8059ab9-9e82-4efd-b955-19bec5320b53","system_id":"levelo_inurba_marseille","lat":43.29521,"lon":5.38547,"is_reserved":false,"is_disabled":false,"rental_uris":{"android":"levelo://app?vid=a8059ab9-9e82-4efd-b955-19bec5320b53","ios":"levelo://app?vid=a8059ab9-9e82-4efd-b955-19bec5320b53"},"vehicle_type_id":"4","last_reported":1752361859,"current_range_meters":16400,"station_id":"ce4bgih2rcd13ifvqba0","pricing_plan_id":"cebpf4jnsgd1na2vs0mg"},{"bike_id":"1448e6d0-474d-475d-af49-1be6ba8620db","system_id":"levelo_inurba_marseille","lat":43.3211,"lon":5.36773,"is_reserved":false,"is_disabled":false,"rental_uris":{"android":"levelo://app?vid=1448e6d0-474d-475d-af49-1be6ba8620db","ios":"levelo://app?vid=1448e6d0-474d-475d-af49-1be6ba8620db"},"vehicle_type_id":"4","last_reported":1752361859,"current_range_meters":16400,"station_id":"ce4bhrh2rcd13ifvqhug","pricing_plan_id":"cebpf4jnsgd1na2vs0mg"},{"bike_id":"cfbb5f19-387e-422e-94ae-244cc1b71021","system_id":"levelo_inurba_marseille","lat":43.260324,"lon":5.375484,"is_reserved":false,"is_disabled":false,"rental_uris":{"android":"levelo://app?vid=cfbb5f19-387e-422e-94ae-244cc1b71021","ios":"levelo://app?vid=cfbb5f19-387e-422e-94ae-244cc1b71021"},"vehicle_type_id":"4","last_reported":1752361859,"current_range_meters":16800,"station_id":"ce4bhgh2rcd13ifvqfa0","pricing_plan_id":"cebpf4jnsgd1na2vs0mg"},{"bike_id":"68c1f4f9-3dcb-4b8c-ad5e-327e4ca87863","system_id":"levelo_inurba_marseille","lat":43.259371,"lon":5.409015,"is_reserved":false,"is_disabled":false,"rental_uris":{"android":"levelo://app?vid=68c1f4f9-3dcb-4b8c-ad5e-327e4ca87863","ios":"levelo://app?vid=68c1f4f9-3dcb-4b8c-ad5e-327e4ca87863"},"vehicle_type_id":"4","last_reported":1752361859,"current_range_meters":16800,"station_id":"ce4bhm92rcd13ifvqglg","pricing_plan_id":"cebpf4jnsgd1na2vs0mg"},{"bike_id":"867d98f5-c689-4b8c-88dc-bb0a55b1f9f4","system_id":"levelo_inurba_marseille","lat":43.29522,"lon":5.38526,"is_reserved":false,"is_disabled":false,"rental_uris":{"android":"levelo://app?vid=867d98f5-c689-4b8c-88dc-bb0a55b1f9f4","ios":"levelo://app?vid=867d98f5-c689-4b8c-88dc-bb0a55b1f9f4"},"vehicle_type_id":"4","last_reported":1752361859,"current_range_meters":16800,"station_id":"ce4bgih2rcd13ifvqba0","pricing_plan_id":"cebpf4jnsgd1na2vs0mg"},{"bike_id":"03d40799-ba8e-4a75-bddf-f3269f9a0698","system_id":"levelo_inurba_marseille","lat":43.27944,"lon":5.41047,"is_reserved":false,"is_disabled":false,"rental_uris":{"android":"levelo://app?vid=03d40799-ba8e-4a75-bddf-f3269f9a0698","ios":"levelo://app?vid=03d40799-ba8e-4a75-bddf-f3269f9a0698"},"vehicle_type_id":"4","last_reported":1752361859,"current_range_meters":16800,"station_id":"ce4bhnp2rcd13ifvqh0g","pricing_plan_id":"cebpf4jnsgd1na2vs0mg"},{"bike_id":"2e3a44ca-8f20-4cbd-bad3-15bc5ae11f74","system_id":"levelo_inurba_marseille","lat":43.306221,"lon":5.383539,"is_reserved":false,"is_disabled":false,"rental_uris":{"android":"levelo://app?vid=2e3a44ca-8f20-4cbd-bad3-15bc5ae11f74","ios":"levelo://app?vid=2e3a44ca-8f20-4cbd-bad3-15bc5ae11f74"},"vehicle_type_id":"4","last_reported":1752361859,"current_range_meters":16800,"station_id":"ce4bgt12rcd13ifvqce0","pricing_plan_id":"cebpf4jnsgd1na2vs0mg"},{"bike_id":"5d2e7aad-0a21-4598-93c2-a1d014fc322f","system_id":"levelo_inurba_marseille","lat":43.24177,"lon":5.39735,"is_reserved":false,"is_disabled":false,"rental_uris":{"android":"levelo://app?vid=5d2e7aad-0a21-4598-93c2-a1d014fc322f","ios":"levelo://app?vid=5d2e7aad-0a21-4598-93c2-a1d014fc322f"},"vehicle_type_id":"4","last_reported":1752361859,"current_range_meters":17200,"station_id":"ce4bhn12rcd13ifvqgpg","pricing_plan_id":"cebpf4jnsgd1na2vs0mg"},{"bike_id":"8577aaca-7915-49c3-b3eb-bc84fe946baf","system_id":"levelo_inurba_marseille","lat":43.27568,"lon":5.41688,"is_reserved":false,"is_disabled":false,"rental_uris":{"android":"levelo://app?vid=8577aaca-7915-49c3-b3eb-bc84fe946baf","ios":"levelo://app?vid=8577aaca-7915-49c3-b3eb-bc84fe946baf"},"vehicle_type_id":"4","last_reported":1752361859,"current_range_meters":17200,"station_id":"","pricing_plan_id":"cebpf4jnsgd1na2vs0mg"},{"bike_id":"a8830b52-7b57-46c5-8d4c-beadddaa5f60","system_id":"levelo_inurba_marseille","lat":43.26553,"lon":5.37303,"is_reserved":false,"is_disabled":false,"rental_uris":{"android":"levelo://app?vid=a8830b52-7b57-46c5-8d4c-beadddaa5f60","ios":"levelo://app?vid=a8830b52-7b57-46c5-8d4c-beadddaa5f60"},"vehicle_type_id":"4","last_reported":1752361859,"current_range_meters":17200,"station_id":"ce4bhg12rcd13ifvqf70","pricing_plan_id":"cebpf4jnsgd1na2vs0mg"},{"bike_id":"f9924005-c8ac-4086-8e25-9a21391f65ea","system_id":"levelo_inurba_marseille","lat":43.21201,"lon":5.35083,"is_reserved":false,"is_disabled":false,"rental_uris":{"android":"levelo://app?vid=f9924005-c8ac-4086-8e25-9a21391f65ea","ios":"levelo://app?vid=f9924005-c8ac-4086-8e25-9a21391f65ea"},"vehicle_type_id":"4","last_reported":1752361859,"current_range_meters":17200,"station_id":"st_cvj6sg6p6f1abm77japg","pricing_plan_id":"cebpf4jnsgd1na2vs0mg"},{"bike_id":"77da523b-ace4-4d05-9e20-7148788972a6","system_id":"levelo_inurba_marseille","lat":43.317113,"lon":5.377483,"is_reserved":false,"is_disabled":false,"rental_uris":{"android":"levelo://app?vid=77da523b-ace4-4d05-9e20-7148788972a6","ios":"levelo://app?vid=77da523b-ace4-4d05-9e20-7148788972a6"},"vehicle_type_id":"4","last_reported":1752361859,"current_range_meters":17200,"station_id":"ce4bgth2rcd13ifvqch0","pricing_plan_id":"cebpf4jnsgd1na2vs0mg"},{"bike_id":"2afd10ce-5f23-4122-9c7a-a3416be941b2","system_id":"levelo_inurba_marseille","lat":43.260212,"lon":5.375552,"is_reserved":false,"is_disabled":true,"rental_uris":{"android":"levelo://app?vid=2afd10ce-5f23-4122-9c7a-a3416be941b2","ios":"levelo://app?vid=2afd10ce-5f23-4122-9c7a-a3416be941b2"},"vehicle_type_id":"4","last_reported":1752361859,"current_range_meters":17200,"station_id":"ce4bhgh2rcd13ifvqfa0","pricing_plan_id":"cebpf4jnsgd1na2vs0mg"},{"bike_id":"f0feca6a-5fdc-49d7-998c-af68d2d3ba72","system_id":"levelo_inurba_marseille","lat":43.24165,"lon":5.36398,"is_reserved":false,"is_disabled":false,"rental_uris":{"android":"levelo://app?vid=f0feca6a-5fdc-49d7-998c-af68d2d3ba72","ios":"levelo://app?vid=f0feca6a-5fdc-49d7-998c-af68d2d3ba72"},"vehicle_type_id":"4","last_reported":1752361859,"current_range_meters":17200,"station_id":"cpo36qri1sfpv3e86is0","pricing_plan_id":"cebpf4jnsgd1na2vs0mg"},{"bike_id":"7048b274-bb73-4f78-bd84-2dffe4927289","system_id":"levelo_inurba_marseille","lat":43.29797,"lon":5.39349,"is_reserved":false,"is_disabled":true,"rental_uris":{"android":"levelo://app?vid=7048b274-bb73-4f78-bd84-2dffe4927289","ios":"levelo://app?vid=7048b274-bb73-4f78-bd84-2dffe4927289"},"vehicle_type_id":"4","last_reported":1752361859,"current_range_meters":17200,"station_id":"chh1huq6cuj3fo74tm60","pricing_plan_id":"cebpf4jnsgd1na2vs0mg"},{"bike_id":"2e7fe8f1-cb52-4b2d-bbe6-28f609574842","system_id":"levelo_inurba_marseille","lat":43.27944,"lon":5.41044,"is_reserved":false,"is_disabled":false,"rental_uris":{"android":"levelo://app?vid=2e7fe8f1-cb52-4b2d-bbe6-28f609574842","ios":"levelo://app?vid=2e7fe8f1-cb52-4b2d-bbe6-28f609574842"},"vehicle_type_id":"4","last_reported":1752361859,"current_range_meters":17200,"station_id":"ce4bhnp2rcd13ifvqh0g","pricing_plan_id":"cebpf4jnsgd1na2vs0mg"},{"bike_id":"e676eacf-c836-4368-99dd-9b8a7d8d4529","system_id":"levelo_inurba_marseille","lat":43.30596,"lon":5.39353,"is_reserved":false,"is_disabled":false,"rental_uris":{"android":"levelo://app?vid=e676eacf-c836-4368-99dd-9b8a7d8d4529","ios":"levelo://app?vid=e676eacf-c836-4368-99dd-9b8a7d8d4529"},"vehicle_type_id":"4","last_reported":1752361859,"current_range_meters":17600,"station_id":"ce4bh0p2rcd13ifvqd80","pricing_plan_id":"cebpf4jnsgd1na2vs0mg"},{"bike_id":"d6c2e7a9-befd-4693-bb9b-68e09a645180","system_id":"levelo_inurba_marseille","lat":43.30143,"lon":5.3741,"is_reserved":false,"is_disabled":false,"rental_uris":{"android":"levelo://app?vid=d6c2e7a9-befd-4693-bb9b-68e09a645180","ios":"levelo://app?vid=d6c2e7a9-befd-4693-bb9b-68e09a645180"},"vehicle_type_id":"4","last_reported":1752361859,"current_range_meters":17200,"station_id":"ce4bgs92rcd13ifvqcc0","pricing_plan_id":"cebpf4jnsgd1na2vs0mg"},{"bike_id":"6db2d44d-c7ca-41ac-b814-ccca58d47fae","system_id":"levelo_inurba_marseille","lat":43.2621,"lon":5.37457,"is_reserved":false,"is_disabled":false,"rental_uris":{"android":"levelo://app?vid=6db2d44d-c7ca-41ac-b814-ccca58d47fae","ios":"levelo://app?vid=6db2d44d-c7ca-41ac-b814-ccca58d47fae"},"vehicle_type_id":"4","last_reported":1752361859,"current_range_meters":17600,"station_id":"ce4bhgp2rcd13ifvqfc0","pricing_plan_id":"cebpf4jnsgd1na2vs0mg"},{"bike_id":"718eafe4-1059-4d0b-9935-83404501b5b5","system_id":"levelo_inurba_marseille","lat":43.31708,"lon":5.37762,"is_reserved":false,"is_disabled":false,"rental_uris":{"android":"levelo://app?vid=718eafe4-1059-4d0b-9935-83404501b5b5","ios":"levelo://app?vid=718eafe4-1059-4d0b-9935-83404501b5b5"},"vehicle_type_id":"4","last_reported":1752361859,"current_range_meters":17600,"station_id":"ce4bgth2rcd13ifvqch0","pricing_plan_id":"cebpf4jnsgd1na2vs0mg"},{"bike_id":"658da48e-808c-42cf-8658-300de37ba77a","system_id":"levelo_inurba_marseille","lat":43.26789,"lon":5.39419,"is_reserved":false,"is_disabled":false,"rental_uris":{"android":"levelo://app?vid=658da48e-808c-42cf-8658-300de37ba77a","ios":"levelo://app?vid=658da48e-808c-42cf-8658-300de37ba77a"},"vehicle_type_id":"4","last_reported":1752361859,"current_range_meters":18000,"station_id":"ce4bhh12rcd13ifvqfg0","pricing_plan_id":"cebpf4jnsgd1na2vs0mg"},{"bike_id":"0c1249a9-581f-45d5-a449-324c436c6465","system_id":"levelo_inurba_marseille","lat":43.24666,"lon":5.3816,"is_reserved":false,"is_disabled":false,"rental_uris":{"android":"levelo://app?vid=0c1249a9-581f-45d5-a449-324c436c6465","ios":"levelo://app?vid=0c1249a9-581f-45d5-a449-324c436c6465"},"vehicle_type_id":"4","last_reported":1752361859,"current_range_meters":18000,"station_id":"ce4bhih2rcd13ifvqfr0","pricing_plan_id":"cebpf4jnsgd1na2vs0mg"},{"bike_id":"fa847f70-26d0-4cd6-a985-18bf25dfb7a6","system_id":"levelo_inurba_marseille","lat":43.29796,"lon":5.40409,"is_reserved":false,"is_disabled":false,"rental_uris":{"android":"levelo://app?vid=fa847f70-26d0-4cd6-a985-18bf25dfb7a6","ios":"levelo://app?vid=fa847f70-26d0-4cd6-a985-18bf25dfb7a6"},"vehicle_type_id":"4","last_reported":1752361859,"current_range_meters":17600,"station_id":"ce4bh112rcd13ifvqd90","pricing_plan_id":"cebpf4jnsgd1na2vs0mg"},{"bike_id":"300e41aa-f750-4dc7-8b55-65fc6d001d62","system_id":"levelo_inurba_marseille","lat":43.21195,"lon":5.35071,"is_reserved":false,"is_disabled":false,"rental_uris":{"android":"levelo://app?vid=300e41aa-f750-4dc7-8b55-65fc6d001d62","ios":"levelo://app?vid=300e41aa-f750-4dc7-8b55-65fc6d001d62"},"vehicle_type_id":"4","last_reported":1752361859,"current_range_meters":18000,"station_id":"st_cvj6sg6p6f1abm77japg","pricing_plan_id":"cebpf4jnsgd1na2vs0mg"},{"bike_id":"9b40dc73-509b-4d2f-8a27-44696719b175","system_id":"levelo_inurba_marseille","lat":43.27069,"lon":5.4228,"is_reserved":false,"is_disabled":false,"rental_uris":{"android":"levelo://app?vid=9b40dc73-509b-4d2f-8a27-44696719b175","ios":"levelo://app?vid=9b40dc73-509b-4d2f-8a27-44696719b175"},"vehicle_type_id":"4","last_reported":1752361859,"current_range_meters":18000,"station_id":"ce4bhk92rcd13ifvqgb0","pricing_plan_id":"cebpf4jnsgd1na2vs0mg"},{"bike_id":"19d8c96b-505e-482a-9c00-fb5dedf16568","system_id":"levelo_inurba_marseille","lat":43.30932,"lon":5.36832,"is_reserved":false,"is_disabled":false,"rental_uris":{"android":"levelo://app?vid=19d8c96b-505e-482a-9c00-fb5dedf16568","ios":"levelo://app?vid=19d8c96b-505e-482a-9c00-fb5dedf16568"},"vehicle_type_id":"4","last_reported":1752361859,"current_range_meters":18000,"station_id":"","pricing_plan_id":"cebpf4jnsgd1na2vs0mg"},{"bike_id":"adfe8be3-1e95-4a39-ba2c-619c92879657","system_id":"levelo_inurba_marseille","lat":43.23189,"lon":5.39974,"is_reserved":false,"is_disabled":false,"rental_uris":{"android":"levelo://app?vid=adfe8be3-1e95-4a39-ba2c-619c92879657","ios":"levelo://app?vid=adfe8be3-1e95-4a39-ba2c-619c92879657"},"vehicle_type_id":"4","last_reported":1752361859,"current_range_meters":18000,"station_id":"ce4bhn12rcd13ifvqgqg","pricing_plan_id":"cebpf4jnsgd1na2vs0mg"},{"bike_id":"09334d41-cc3f-4830-ac12-e843115d37f5","system_id":"levelo_inurba_marseille","lat":43.29532,"lon":5.38545,"is_reserved":false,"is_disabled":false,"rental_uris":{"android":"levelo://app?vid=09334d41-cc3f-4830-ac12-e843115d37f5","ios":"levelo://app?vid=09334d41-cc3f-4830-ac12-e843115d37f5"},"vehicle_type_id":"4","last_reported":1752361859,"current_range_meters":18000,"station_id":"ce4bgih2rcd13ifvqba0","pricing_plan_id":"cebpf4jnsgd1na2vs0mg"},{"bike_id":"f70d4eb7-0483-4b22-b4af-6857c0805839","system_id":"levelo_inurba_marseille","lat":43.29924,"lon":5.38132,"is_reserved":false,"is_disabled":true,"rental_uris":{"android":"levelo://app?vid=f70d4eb7-0483-4b22-b4af-6857c0805839","ios":"levelo://app?vid=f70d4eb7-0483-4b22-b4af-6857c0805839"},"vehicle_type_id":"4","last_reported":1752361859,"current_range_meters":18000,"station_id":"ce4bgj12rcd13ifvqbc0","pricing_plan_id":"cebpf4jnsgd1na2vs0mg"},{"bike_id":"44e022b8-f428-49a4-baf3-bda17c44a0d3","system_id":"levelo_inurba_marseille","lat":43.2846,"lon":5.3589,"is_reserved":false,"is_disabled":false,"rental_uris":{"android":"levelo://app?vid=44e022b8-f428-49a4-baf3-bda17c44a0d3","ios":"levelo://app?vid=44e022b8-f428-49a4-baf3-bda17c44a0d3"},"vehicle_type_id":"4","last_reported":1752361859,"current_range_meters":18000,"station_id":"ce4bhah2rcd13ifvqei0","pricing_plan_id":"cebpf4jnsgd1na2vs0mg"},{"bike_id":"fb490633-22c3-4141-8bd3-19a0822e963e","system_id":"levelo_inurba_marseille","lat":43.28349,"lon":5.38113,"is_reserved":false,"is_disabled":false,"rental_uris":{"android":"levelo://app?vid=fb490633-22c3-4141-8bd3-19a0822e963e","ios":"levelo://app?vid=fb490633-22c3-4141-8bd3-19a0822e963e"},"vehicle_type_id":"4","last_reported":1752361859,"current_range_meters":18000,"station_id":"ce4bh412rcd13ifvqdr0","pricing_plan_id":"cebpf4jnsgd1na2vs0mg"},{"bike_id":"1bf2d551-15b1-424b-b262-5e53675978dc","system_id":"levelo_inurba_marseille","lat":43.31079,"lon":5.38344,"is_reserved":false,"is_disabled":false,"rental_uris":{"android":"levelo://app?vid=1bf2d551-15b1-424b-b262-5e53675978dc","ios":"levelo://app?vid=1bf2d551-15b1-424b-b262-5e53675978dc"},"vehicle_type_id":"4","last_reported":1752361859,"current_range_meters":18000,"station_id":"ce4bgv92rcd13ifvqcr0","pricing_plan_id":"cebpf4jnsgd1na2vs0mg"},{"bike_id":"64748af8-28a3-4fb4-ae3a-6cf154d2bfa6","system_id":"levelo_inurba_marseille","lat":43.304356,"lon":5.389052,"is_reserved":false,"is_disabled":false,"rental_uris":{"android":"levelo://app?vid=64748af8-28a3-4fb4-ae3a-6cf154d2bfa6","ios":"levelo://app?vid=64748af8-28a3-4fb4-ae3a-6cf154d2bfa6"},"vehicle_type_id":"4","last_reported":1752361859,"current_range_meters":18800,"station_id":"ce4bgk12rcd13ifvqbi0","pricing_plan_id":"cebpf4jnsgd1na2vs0mg"},{"bike_id":"55ad167a-528b-48c9-b380-5aecba65de9a","system_id":"levelo_inurba_marseille","lat":43.29274,"lon":5.40126,"is_reserved":false,"is_disabled":false,"rental_uris":{"android":"levelo://app?vid=55ad167a-528b-48c9-b380-5aecba65de9a","ios":"levelo://app?vid=55ad167a-528b-48c9-b380-5aecba65de9a"},"vehicle_type_id":"4","last_reported":1752361859,"current_range_meters":18800,"station_id":"ce4bh312rcd13ifvqdk0","pricing_plan_id":"cebpf4jnsgd1na2vs0mg"},{"bike_id":"899f3cd4-00cc-438c-bf29-379d610fdcc2","system_id":"levelo_inurba_marseille","lat":43.26029,"lon":5.3755,"is_reserved":false,"is_disabled":false,"rental_uris":{"android":"levelo://app?vid=899f3cd4-00cc-438c-bf29-379d610fdcc2","ios":"levelo://app?vid=899f3cd4-00cc-438c-bf29-379d610fdcc2"},"vehicle_type_id":"4","last_reported":1752361859,"current_range_meters":18800,"station_id":"ce4bhgh2rcd13ifvqfa0","pricing_plan_id":"cebpf4jnsgd1na2vs0mg"},{"bike_id":"e675ea5a-0c83-4a42-b716-288fa684c6ed","system_id":"levelo_inurba_marseille","lat":43.29413,"lon":5.38617,"is_reserved":false,"is_disabled":false,"rental_uris":{"android":"levelo://app?vid=e675ea5a-0c83-4a42-b716-288fa684c6ed","ios":"levelo://app?vid=e675ea5a-0c83-4a42-b716-288fa684c6ed"},"vehicle_type_id":"4","last_reported":1752361859,"current_range_meters":18800,"station_id":"ce4bh2h2rcd13ifvqdh0","pricing_plan_id":"cebpf4jnsgd1na2vs0mg"},{"bike_id":"8e959f96-8fbf-4567-8a05-c91bf03061d0","system_id":"levelo_inurba_marseille","lat":43.30531,"lon":5.38429,"is_reserved":false,"is_disabled":false,"rental_uris":{"android":"levelo://app?vid=8e959f96-8fbf-4567-8a05-c91bf03061d0","ios":"levelo://app?vid=8e959f96-8fbf-4567-8a05-c91bf03061d0"},"vehicle_type_id":"4","last_reported":1752361859,"current_range_meters":18000,"station_id":"ce4bgg92rcd13ifvqb30","pricing_plan_id":"cebpf4jnsgd1na2vs0mg"},{"bike_id":"9bfc7d3d-4e60-4f8a-9c32-ef3d0e77ec5b","system_id":"levelo_inurba_marseille","lat":43.21213,"lon":5.35068,"is_reserved":false,"is_disabled":false,"rental_uris":{"android":"levelo://app?vid=9bfc7d3d-4e60-4f8a-9c32-ef3d0e77ec5b","ios":"levelo://app?vid=9bfc7d3d-4e60-4f8a-9c32-ef3d0e77ec5b"},"vehicle_type_id":"4","last_reported":1752361859,"current_range_meters":19200,"station_id":"st_cvj6sg6p6f1abm77japg","pricing_plan_id":"cebpf4jnsgd1na2vs0mg"},{"bike_id":"902e9dbb-3e0b-462f-8331-d1b1a85d202a","system_id":"levelo_inurba_marseille","lat":43.28841,"lon":5.39323,"is_reserved":false,"is_disabled":false,"rental_uris":{"android":"levelo://app?vid=902e9dbb-3e0b-462f-8331-d1b1a85d202a","ios":"levelo://app?vid=902e9dbb-3e0b-462f-8331-d1b1a85d202a"},"vehicle_type_id":"4","last_reported":1752361859,"current_range_meters":19200,"station_id":"ce4bh2p2rcd13ifvqdi0","pricing_plan_id":"cebpf4jnsgd1na2vs0mg"},{"bike_id":"cc4b685c-99b1-4612-81f2-73a6dae5d794","system_id":"levelo_inurba_marseille","lat":43.26214,"lon":5.37451,"is_reserved":false,"is_disabled":false,"rental_uris":{"android":"levelo://app?vid=cc4b685c-99b1-4612-81f2-73a6dae5d794","ios":"levelo://app?vid=cc4b685c-99b1-4612-81f2-73a6dae5d794"},"vehicle_type_id":"4","last_reported":1752361859,"current_range_meters":19200,"station_id":"ce4bhgp2rcd13ifvqfc0","pricing_plan_id":"cebpf4jnsgd1na2vs0mg"},{"bike_id":"f5a47db5-6fb2-46bd-a2de-efa4ad13bf60","system_id":"levelo_inurba_marseille","lat":43.21194,"lon":5.3507,"is_reserved":false,"is_disabled":false,"rental_uris":{"android":"levelo://app?vid=f5a47db5-6fb2-46bd-a2de-efa4ad13bf60","ios":"levelo://app?vid=f5a47db5-6fb2-46bd-a2de-efa4ad13bf60"},"vehicle_type_id":"4","last_reported":1752361859,"current_range_meters":19200,"station_id":"st_cvj6sg6p6f1abm77japg","pricing_plan_id":"cebpf4jnsgd1na2vs0mg"},{"bike_id":"3159d451-c5fb-4b46-8889-70f59d6a384e","system_id":"levelo_inurba_marseille","lat":43.3014,"lon":5.3987,"is_reserved":false,"is_disabled":false,"rental_uris":{"android":"levelo://app?vid=3159d451-c5fb-4b46-8889-70f59d6a384e","ios":"levelo://app?vid=3159d451-c5fb-4b46-8889-70f59d6a384e"},"vehicle_type_id":"4","last_reported":1752361859,"current_range_meters":19200,"station_id":"ce4bh0h2rcd13ifvqd40","pricing_plan_id":"cebpf4jnsgd1na2vs0mg"},{"bike_id":"436e917a-7f3e-467e-946b-136c32e6f617","system_id":"levelo_inurba_marseille","lat":43.26209,"lon":5.40472,"is_reserved":false,"is_disabled":false,"rental_uris":{"android":"levelo://app?vid=436e917a-7f3e-467e-946b-136c32e6f617","ios":"levelo://app?vid=436e917a-7f3e-467e-946b-136c32e6f617"},"vehicle_type_id":"4","last_reported":1752361859,"current_range_meters":19200,"station_id":"ce4bhmh2rcd13ifvqgmg","pricing_plan_id":"cebpf4jnsgd1na2vs0mg"},{"bike_id":"56f09403-a466-410a-916d-29f260962e7d","system_id":"levelo_inurba_marseille","lat":43.29534,"lon":5.38548,"is_reserved":false,"is_disabled":false,"rental_uris":{"android":"levelo://app?vid=56f09403-a466-410a-916d-29f260962e7d","ios":"levelo://app?vid=56f09403-a466-410a-916d-29f260962e7d"},"vehicle_type_id":"4","last_reported":1752361859,"current_range_meters":19200,"station_id":"ce4bgih2rcd13ifvqba0","pricing_plan_id":"cebpf4jnsgd1na2vs0mg"},{"bike_id":"cc6260c7-e588-42d7-afef-96c409802ccc","system_id":"levelo_inurba_marseille","lat":43.211934,"lon":5.350746,"is_reserved":false,"is_disabled":false,"rental_uris":{"android":"levelo://app?vid=cc6260c7-e588-42d7-afef-96c409802ccc","ios":"levelo://app?vid=cc6260c7-e588-42d7-afef-96c409802ccc"},"vehicle_type_id":"4","last_reported":1752361859,"current_range_meters":19200,"station_id":"st_cvj6sg6p6f1abm77japg","pricing_plan_id":"cebpf4jnsgd1na2vs0mg"},{"bike_id":"14033238-8d50-4ab3-8c05-429e098c4955","system_id":"levelo_inurba_marseille","lat":43.29764,"lon":5.37102,"is_reserved":false,"is_disabled":false,"rental_uris":{"android":"levelo://app?vid=14033238-8d50-4ab3-8c05-429e098c4955","ios":"levelo://app?vid=14033238-8d50-4ab3-8c05-429e098c4955"},"vehicle_type_id":"4","last_reported":1752361859,"current_range_meters":19200,"station_id":"ce4bgop2rcd13ifvqc1g","pricing_plan_id":"cebpf4jnsgd1na2vs0mg"},{"bike_id":"58e32a4d-ba2a-42fe-9371-16390cf31560","system_id":"levelo_inurba_marseille","lat":43.28398,"lon":5.3754,"is_reserved":false,"is_disabled":false,"rental_uris":{"android":"levelo://app?vid=58e32a4d-ba2a-42fe-9371-16390cf31560","ios":"levelo://app?vid=58e32a4d-ba2a-42fe-9371-16390cf31560"},"vehicle_type_id":"4","last_reported":1752361859,"current_range_meters":19200,"station_id":"ce4bh412rcd13ifvqds0","pricing_plan_id":"cebpf4jnsgd1na2vs0mg"},{"bike_id":"7a888645-4b0c-4379-98d8-380a5347b74c","system_id":"levelo_inurba_marseille","lat":43.27379,"lon":5.36262,"is_reserved":false,"is_disabled":true,"rental_uris":{"android":"levelo://app?vid=7a888645-4b0c-4379-98d8-380a5347b74c","ios":"levelo://app?vid=7a888645-4b0c-4379-98d8-380a5347b74c"},"vehicle_type_id":"4","last_reported":1752361859,"current_range_meters":19600,"station_id":"ce4bhbh2rcd13ifvqeo0","pricing_plan_id":"cebpf4jnsgd1na2vs0mg"},{"bike_id":"7b60e2b3-fe60-4caf-8d3e-4c917054d448","system_id":"levelo_inurba_marseille","lat":43.28441,"lon":5.34996,"is_reserved":false,"is_disabled":true,"rental_uris":{"android":"levelo://app?vid=7b60e2b3-fe60-4caf-8d3e-4c917054d448","ios":"levelo://app?vid=7b60e2b3-fe60-4caf-8d3e-4c917054d448"},"vehicle_type_id":"4","last_reported":1752361859,"current_range_meters":19600,"station_id":"ce4bhbh2rcd13ifvqepg","pricing_plan_id":"cebpf4jnsgd1na2vs0mg"},{"bike_id":"46ce7424-8151-41ba-a046-0c68273c2c8e","system_id":"levelo_inurba_marseille","lat":43.29236,"lon":5.36572,"is_reserved":false,"is_disabled":false,"rental_uris":{"android":"levelo://app?vid=46ce7424-8151-41ba-a046-0c68273c2c8e","ios":"levelo://app?vid=46ce7424-8151-41ba-a046-0c68273c2c8e"},"vehicle_type_id":"4","last_reported":1752361859,"current_range_meters":19600,"station_id":"","pricing_plan_id":"cebpf4jnsgd1na2vs0mg"},{"bike_id":"fec12c7a-1647-4f54-b558-f5198b460511","system_id":"levelo_inurba_marseille","lat":43.24551,"lon":5.39555,"is_reserved":false,"is_disabled":false,"rental_uris":{"android":"levelo://app?vid=fec12c7a-1647-4f54-b558-f5198b460511","ios":"levelo://app?vid=fec12c7a-1647-4f54-b558-f5198b460511"},"vehicle_type_id":"4","last_reported":1752361859,"current_range_meters":19600,"station_id":"ce4bhlp2rcd13ifvqgjg","pricing_plan_id":"cebpf4jnsgd1na2vs0mg"},{"bike_id":"20eb7dcd-9a57-4563-bf6a-cf6f974011df","system_id":"levelo_inurba_marseille","lat":43.29506,"lon":5.38583,"is_reserved":false,"is_disabled":false,"rental_uris":{"android":"levelo://app?vid=20eb7dcd-9a57-4563-bf6a-cf6f974011df","ios":"levelo://app?vid=20eb7dcd-9a57-4563-bf6a-cf6f974011df"},"vehicle_type_id":"4","last_reported":1752361859,"current_range_meters":19600,"station_id":"ce4bgih2rcd13ifvqba0","pricing_plan_id":"cebpf4jnsgd1na2vs0mg"},{"bike_id":"e2d471d2-441c-4fab-a3f1-09d51702e4c5","system_id":"levelo_inurba_marseille","lat":43.27978,"lon":5.38743,"is_reserved":false,"is_disabled":false,"rental_uris":{"android":"levelo://app?vid=e2d471d2-441c-4fab-a3f1-09d51702e4c5","ios":"levelo://app?vid=e2d471d2-441c-4fab-a3f1-09d51702e4c5"},"vehicle_type_id":"4","last_reported":1752361859,"current_range_meters":19600,"station_id":"ce4bhg12rcd13ifvqf80","pricing_plan_id":"cebpf4jnsgd1na2vs0mg"},{"bike_id":"059a4775-c8b3-4965-854c-46db5bc514d2","system_id":"levelo_inurba_marseille","lat":43.28388,"lon":5.37537,"is_reserved":false,"is_disabled":false,"rental_uris":{"android":"levelo://app?vid=059a4775-c8b3-4965-854c-46db5bc514d2","ios":"levelo://app?vid=059a4775-c8b3-4965-854c-46db5bc514d2"},"vehicle_type_id":"4","last_reported":1752361859,"current_range_meters":19600,"station_id":"ce4bh412rcd13ifvqds0","pricing_plan_id":"cebpf4jnsgd1na2vs0mg"},{"bike_id":"62447698-1237-4fb6-a1b7-6c94e0711cf4","system_id":"levelo_inurba_marseille","lat":43.292011,"lon":5.393136,"is_reserved":false,"is_disabled":false,"rental_uris":{"android":"levelo://app?vid=62447698-1237-4fb6-a1b7-6c94e0711cf4","ios":"levelo://app?vid=62447698-1237-4fb6-a1b7-6c94e0711cf4"},"vehicle_type_id":"4","last_reported":1752361859,"current_range_meters":19600,"station_id":"ce4bh192rcd13ifvqdd0","pricing_plan_id":"cebpf4jnsgd1na2vs0mg"},{"bike_id":"58375fde-ca97-4dab-be52-59caf98323d3","system_id":"levelo_inurba_marseille","lat":43.2656,"lon":5.37289,"is_reserved":false,"is_disabled":true,"rental_uris":{"android":"levelo://app?vid=58375fde-ca97-4dab-be52-59caf98323d3","ios":"levelo://app?vid=58375fde-ca97-4dab-be52-59caf98323d3"},"vehicle_type_id":"4","last_reported":1752361859,"current_range_meters":19600,"station_id":"ce4bhg12rcd13ifvqf70","pricing_plan_id":"cebpf4jnsgd1na2vs0mg"},{"bike_id":"971b1f31-a743-4191-95a5-bf861272f744","system_id":"levelo_inurba_marseille","lat":43.29022,"lon":5.38673,"is_reserved":false,"is_disabled":false,"rental_uris":{"android":"levelo://app?vid=971b1f31-a743-4191-95a5-bf861272f744","ios":"levelo://app?vid=971b1f31-a743-4191-95a5-bf861272f744"},"vehicle_type_id":"4","last_reported":1752361859,"current_range_meters":19600,"station_id":"ce4bh4p2rcd13ifvqe0g","pricing_plan_id":"cebpf4jnsgd1na2vs0mg"},{"bike_id":"ece9d047-dc12-4ce6-82bf-fc7ad56a230c","system_id":"levelo_inurba_marseille","lat":43.28619,"lon":5.35106,"is_reserved":false,"is_disabled":true,"rental_uris":{"android":"levelo://app?vid=ece9d047-dc12-4ce6-82bf-fc7ad56a230c","ios":"levelo://app?vid=ece9d047-dc12-4ce6-82bf-fc7ad56a230c"},"vehicle_type_id":"4","last_reported":1752361859,"current_range_meters":19600,"station_id":"ce4bhch2rcd13ifvqeug","pricing_plan_id":"cebpf4jnsgd1na2vs0mg"},{"bike_id":"7d80377e-8c8b-466d-b275-5356b99e3e43","system_id":"levelo_inurba_marseille","lat":43.24652,"lon":5.38898,"is_reserved":false,"is_disabled":false,"rental_uris":{"android":"levelo://app?vid=7d80377e-8c8b-466d-b275-5356b99e3e43","ios":"levelo://app?vid=7d80377e-8c8b-466d-b275-5356b99e3e43"},"vehicle_type_id":"4","last_reported":1752361859,"current_range_meters":19600,"station_id":"ce4bhg12rcd13ifvqf60","pricing_plan_id":"cebpf4jnsgd1na2vs0mg"},{"bike_id":"904d6a86-60ed-431a-b0ac-b0f35672ff9e","system_id":"levelo_inurba_marseille","lat":43.27935,"lon":5.41066,"is_reserved":false,"is_disabled":false,"rental_uris":{"android":"levelo://app?vid=904d6a86-60ed-431a-b0ac-b0f35672ff9e","ios":"levelo://app?vid=904d6a86-60ed-431a-b0ac-b0f35672ff9e"},"vehicle_type_id":"4","last_reported":1752361859,"current_range_meters":19600,"station_id":"ce4bhnp2rcd13ifvqh0g","pricing_plan_id":"cebpf4jnsgd1na2vs0mg"},{"bike_id":"72afe63b-6210-4a4f-84d8-f623c45e8e34","system_id":"levelo_inurba_marseille","lat":43.30317,"lon":5.40452,"is_reserved":false,"is_disabled":false,"rental_uris":{"android":"levelo://app?vid=72afe63b-6210-4a4f-84d8-f623c45e8e34","ios":"levelo://app?vid=72afe63b-6210-4a4f-84d8-f623c45e8e34"},"vehicle_type_id":"4","last_reported":1752361859,"current_range_meters":20000,"station_id":"ce4bh012rcd13ifvqd10","pricing_plan_id":"cebpf4jnsgd1na2vs0mg"},{"bike_id":"711ac624-d408-4d62-a6b0-a60e4e9b3156","system_id":"levelo_inurba_marseille","lat":43.30154,"lon":5.37381,"is_reserved":false,"is_disabled":false,"rental_uris":{"android":"levelo://app?vid=711ac624-d408-4d62-a6b0-a60e4e9b3156","ios":"levelo://app?vid=711ac624-d408-4d62-a6b0-a60e4e9b3156"},"vehicle_type_id":"4","last_reported":1752361859,"current_range_meters":20000,"station_id":"ce4bgs92rcd13ifvqcc0","pricing_plan_id":"cebpf4jnsgd1na2vs0mg"},{"bike_id":"10388035-8e57-4e34-8ec1-559555823a7c","system_id":"levelo_inurba_marseille","lat":43.313237,"lon":5.396918,"is_reserved":false,"is_disabled":false,"rental_uris":{"android":"levelo://app?vid=10388035-8e57-4e34-8ec1-559555823a7c","ios":"levelo://app?vid=10388035-8e57-4e34-8ec1-559555823a7c"},"vehicle_type_id":"4","last_reported":1752361859,"current_range_meters":20000,"station_id":"ce4bgvp2rcd13ifvqcu0","pricing_plan_id":"cebpf4jnsgd1na2vs0mg"},{"bike_id":"91e36618-f857-45af-ac89-91d909da2db3","system_id":"levelo_inurba_marseille","lat":43.29437,"lon":5.38585,"is_reserved":false,"is_disabled":true,"rental_uris":{"android":"levelo://app?vid=91e36618-f857-45af-ac89-91d909da2db3","ios":"levelo://app?vid=91e36618-f857-45af-ac89-91d909da2db3"},"vehicle_type_id":"4","last_reported":1752361859,"current_range_meters":20000,"station_id":"ce4bh2h2rcd13ifvqdh0","pricing_plan_id":"cebpf4jnsgd1na2vs0mg"},{"bike_id":"7b707764-6b84-40b0-9c98-a224a01d3ffc","system_id":"levelo_inurba_marseille","lat":43.29942,"lon":5.37462,"is_reserved":false,"is_disabled":false,"rental_uris":{"android":"levelo://app?vid=7b707764-6b84-40b0-9c98-a224a01d3ffc","ios":"levelo://app?vid=7b707764-6b84-40b0-9c98-a224a01d3ffc"},"vehicle_type_id":"4","last_reported":1752361859,"current_range_meters":20000,"station_id":"ce4bgjh2rcd13ifvqbg0","pricing_plan_id":"cebpf4jnsgd1na2vs0mg"},{"bike_id":"dd2e5d44-8055-4f8f-b9df-abf0f4284b78","system_id":"levelo_inurba_marseille","lat":43.29062,"lon":5.37164,"is_reserved":false,"is_disabled":false,"rental_uris":{"android":"levelo://app?vid=dd2e5d44-8055-4f8f-b9df-abf0f4284b78","ios":"levelo://app?vid=dd2e5d44-8055-4f8f-b9df-abf0f4284b78"},"vehicle_type_id":"4","last_reported":1752361859,"current_range_meters":20000,"station_id":"ce4bh5p2rcd13ifvqe4g","pricing_plan_id":"cebpf4jnsgd1na2vs0mg"},{"bike_id":"1cca882b-7b11-47e9-aa92-5e740b80b073","system_id":"levelo_inurba_marseille","lat":43.29588,"lon":5.38107,"is_reserved":false,"is_disabled":false,"rental_uris":{"android":"levelo://app?vid=1cca882b-7b11-47e9-aa92-5e740b80b073","ios":"levelo://app?vid=1cca882b-7b11-47e9-aa92-5e740b80b073"},"vehicle_type_id":"4","last_reported":1752361859,"current_range_meters":20000,"station_id":"ce4bgl12rcd13ifvqbo0","pricing_plan_id":"cebpf4jnsgd1na2vs0mg"},{"bike_id":"ba7a68cd-be5e-47bf-aeea-8bcf9b703ca1","system_id":"levelo_inurba_marseille","lat":43.29973,"lon":5.38485,"is_reserved":false,"is_disabled":false,"rental_uris":{"android":"levelo://app?vid=ba7a68cd-be5e-47bf-aeea-8bcf9b703ca1","ios":"levelo://app?vid=ba7a68cd-be5e-47bf-aeea-8bcf9b703ca1"},"vehicle_type_id":"4","last_reported":1752361859,"current_range_meters":20000,"station_id":"ce4bgj92rcd13ifvqbd0","pricing_plan_id":"cebpf4jnsgd1na2vs0mg"},{"bike_id":"5c0fc7d8-43fe-4ade-9435-39a657901032","system_id":"levelo_inurba_marseille","lat":43.29277,"lon":5.40118,"is_reserved":false,"is_disabled":false,"rental_uris":{"android":"levelo://app?vid=5c0fc7d8-43fe-4ade-9435-39a657901032","ios":"levelo://app?vid=5c0fc7d8-43fe-4ade-9435-39a657901032"},"vehicle_type_id":"4","last_reported":1752361859,"current_range_meters":20000,"station_id":"ce4bh312rcd13ifvqdk0","pricing_plan_id":"cebpf4jnsgd1na2vs0mg"},{"bike_id":"c8c4de1a-846f-4f5b-aace-9fb14bf7ad52","system_id":"levelo_inurba_marseille","lat":43.21196,"lon":5.35074,"is_reserved":false,"is_disabled":false,"rental_uris":{"android":"levelo://app?vid=c8c4de1a-846f-4f5b-aace-9fb14bf7ad52","ios":"levelo://app?vid=c8c4de1a-846f-4f5b-aace-9fb14bf7ad52"},"vehicle_type_id":"4","last_reported":1752361859,"current_range_meters":20000,"station_id":"st_cvj6sg6p6f1abm77japg","pricing_plan_id":"cebpf4jnsgd1na2vs0mg"},{"bike_id":"2ec427da-b403-4a7e-86be-3f48ba535d18","system_id":"levelo_inurba_marseille","lat":43.21188,"lon":5.35069,"is_reserved":false,"is_disabled":false,"rental_uris":{"android":"levelo://app?vid=2ec427da-b403-4a7e-86be-3f48ba535d18","ios":"levelo://app?vid=2ec427da-b403-4a7e-86be-3f48ba535d18"},"vehicle_type_id":"4","last_reported":1752361859,"current_range_meters":20400,"station_id":"st_cvj6sg6p6f1abm77japg","pricing_plan_id":"cebpf4jnsgd1na2vs0mg"},{"bike_id":"b9849e5b-7fc2-4f78-9758-0502b57bf9bc","system_id":"levelo_inurba_marseille","lat":43.30952,"lon":5.39036,"is_reserved":false,"is_disabled":false,"rental_uris":{"android":"levelo://app?vid=b9849e5b-7fc2-4f78-9758-0502b57bf9bc","ios":"levelo://app?vid=b9849e5b-7fc2-4f78-9758-0502b57bf9bc"},"vehicle_type_id":"4","last_reported":1752361859,"current_range_meters":20400,"station_id":"ce4bgup2rcd13ifvqco0","pricing_plan_id":"cebpf4jnsgd1na2vs0mg"},{"bike_id":"d521aff3-0f83-4518-a1f1-d09c428be4f6","system_id":"levelo_inurba_marseille","lat":43.25572,"lon":5.38235,"is_reserved":false,"is_disabled":false,"rental_uris":{"android":"levelo://app?vid=d521aff3-0f83-4518-a1f1-d09c428be4f6","ios":"levelo://app?vid=d521aff3-0f83-4518-a1f1-d09c428be4f6"},"vehicle_type_id":"4","last_reported":1752361859,"current_range_meters":20400,"station_id":"ce4bhih2rcd13ifvqfs0","pricing_plan_id":"cebpf4jnsgd1na2vs0mg"},{"bike_id":"b053f929-7efb-49cd-9959-74ef096980bb","system_id":"levelo_inurba_marseille","lat":43.29309,"lon":5.36844,"is_reserved":false,"is_disabled":true,"rental_uris":{"android":"levelo://app?vid=b053f929-7efb-49cd-9959-74ef096980bb","ios":"levelo://app?vid=b053f929-7efb-49cd-9959-74ef096980bb"},"vehicle_type_id":"4","last_reported":1752361859,"current_range_meters":20400,"station_id":"ce4bhbp2rcd13ifvqesg","pricing_plan_id":"cebpf4jnsgd1na2vs0mg"},{"bike_id":"0787b895-fab7-4e38-87be-4b24638e44cd","system_id":"levelo_inurba_marseille","lat":43.3025,"lon":5.40077,"is_reserved":false,"is_disabled":false,"rental_uris":{"android":"levelo://app?vid=0787b895-fab7-4e38-87be-4b24638e44cd","ios":"levelo://app?vid=0787b895-fab7-4e38-87be-4b24638e44cd"},"vehicle_type_id":"4","last_reported":1752361859,"current_range_meters":20400,"station_id":"ce4bgvh2rcd13ifvqcs0","pricing_plan_id":"cebpf4jnsgd1na2vs0mg"},{"bike_id":"fe318ad3-5569-488a-a55f-800be9072933","system_id":"levelo_inurba_marseille","lat":43.26935,"lon":5.4026,"is_reserved":false,"is_disabled":false,"rental_uris":{"android":"levelo://app?vid=fe318ad3-5569-488a-a55f-800be9072933","ios":"levelo://app?vid=fe318ad3-5569-488a-a55f-800be9072933"},"vehicle_type_id":"4","last_reported":1752361859,"current_range_meters":20400,"station_id":"cjm6bp8fraef2m0cb0m0","pricing_plan_id":"cebpf4jnsgd1na2vs0mg"},{"bike_id":"246ebab2-9254-47ab-bd77-1cd395c6c73f","system_id":"levelo_inurba_marseille","lat":43.29804,"lon":5.37095,"is_reserved":false,"is_disabled":false,"rental_uris":{"android":"levelo://app?vid=246ebab2-9254-47ab-bd77-1cd395c6c73f","ios":"levelo://app?vid=246ebab2-9254-47ab-bd77-1cd395c6c73f"},"vehicle_type_id":"4","last_reported":1752361859,"current_range_meters":20000,"station_id":"ce4bgop2rcd13ifvqc1g","pricing_plan_id":"cebpf4jnsgd1na2vs0mg"},{"bike_id":"99ae43ef-9981-41ec-907c-f94f73cc9ad2","system_id":"levelo_inurba_marseille","lat":43.29985,"lon":5.38484,"is_reserved":false,"is_disabled":false,"rental_uris":{"android":"levelo://app?vid=99ae43ef-9981-41ec-907c-f94f73cc9ad2","ios":"levelo://app?vid=99ae43ef-9981-41ec-907c-f94f73cc9ad2"},