{"last_updated":1715198851,"ttl":30,"version":"2.2","data":{"bikes":[{"bike_id":"8cd67e58-c491-46f7-8f05-6a715b6428c3","system_id":"levelo_inurba_marseille","lat":43.31341,"lon":5.367098,"is_reserved":false,"is_disabled":false,"rental_uris":{"android":"levelo://app?vid=8cd67e58-c491-46f7-8f05-6a715b6428c3","ios":"levelo://app?vid=8cd67e58-c491-46f7-8f05-6a715b6428c3"},"vehicle_type_id":"4","last_reported":1715198851,"current_range_meters":9600,"station_id":"ce4bgr92rcd13ifvqc6g","pricing_plan_id":"cebpf4jnsgd1na2vs0mg"},{"bike_id":"01de644b-29bb-40e1-8423-7a010e98f221","system_id":"levelo_inurba_marseille","lat":43.31341,"lon":5.367098,"is_reserved":false,"is_disabled":false,"rental_uris":{"android":"levelo://app?vid=01de644b-29bb-40e1-8423-7a010e98f221","ios":"levelo://app?vid=01de644b-29bb-40e1-8423-7a010e98f221"},"vehicle_type_id":"4","last_reported":1715198851,"current_range_meters":1600,"station_id":"ce4bgr92rcd13ifvqc6g","pricing_plan_id":"cebpf4jnsgd1na2vs0mg"},{"bike_id":"7d1c3a7e-42b1-4e6a-93f4-8fa0ad9492c0","system_id":"levelo_inurba_marseille","lat":43.312381,"lon":5.368584,"is_reserved":false,"is_disabled":false,"rental_uris":{"android":"levelo://app?vid=7d1c3a7e-42b1-4e6a-93f4-8fa0ad9492c0","ios":"levelo://app?vid=7d1c3a7e-42b1-4e6a-93f4-8fa0ad9492c0"},"vehicle_type_id":"4","last_reported":1715198851,"current_range_meters":0,"station_id":"ce4bgl92rcd13ifvqbq0","pricing_plan_id":"cebpf4jnsgd1na2vs0mg"},{"bike_id":"40243396-5bfb-48ab-b99d-d854b49ed75f","system_id":"levelo_inurba_marseille","lat":43.31545,"lon":5.36866,"is_reserved":false,"is_disabled":false,"rental_uris":{"android":"levelo://app?vid=40243396-5bfb-48ab-b99d-d854b49ed75f","ios":"levelo://app?vid=40243396-5bfb-48ab-b99d-d854b49ed75f"},"vehicle_type_id":"4","last_reported":1715198851,"current_range_meters":15600,"station_id":"","pricing_plan_id":"cebpf4jnsgd1na2vs0mg"},{"bike_id":"d62d728f-efe8-4019-89e3-eb19c963d2ed","system_id":"levelo_inurba_marseille","lat":43.314811,"lon":5.373103,"is_reserved":false,"is_disabled":false,"rental_uris":{"android":"levelo://app?vid=d62d728f-efe8-4019-89e3-eb19c963d2ed","ios":"levelo://app?vid=d62d728f-efe8-4019-89e3-eb19c963d2ed"},"vehicle_type_id":"4","last_reported":1715198851,"current_range_meters":2400,"station_id":"ce4bgt12rcd13ifvqcd0","pricing_plan_id":"cebpf4jnsgd1na2vs0mg"},{"bike_id":"6f68d1fe-8cc0-4ffb-bcf0-a25e434499bf","system_id":"levelo_inurba_marseille","lat":43.314811,"lon":5.373103,"is_reserved":false,"is_disabled":false,"rental_uris":{"android":"levelo://app?vid=6f68d1fe-8cc0-4ffb-bcf0-a25e434499bf","ios":"levelo://app?vid=6f68d1fe-8cc0-4ffb-bcf0-a25e434499bf"},"vehicle_type_id":"4","last_reported":1715198851,"current_range_meters":25600,"station_id":"ce4bgt12rcd13ifvqcd0","pricing_plan_id":"cebpf4jnsgd1na2vs0mg"},{"bike_id":"14eba552-e272-47f8-9ffb-9e0f5e4efb63","system_id":"levelo_inurba_marseille","lat":43.314825,"lon":5.373106,"is_reserved":false,"is_disabled":false,"rental_uris":{"android":"levelo://app?vid=14eba552-e272-47f8-9ffb-9e0f5e4efb63","ios":"levelo://app?vid=14eba552-e272-47f8-9ffb-9e0f5e4efb63"},"vehicle_type_id":"4","last_reported":1715198851,"current_range_meters":0,"station_id":"ce4bgt12rcd13ifvqcd0","pricing_plan_id":"cebpf4jnsgd1na2vs0mg"},{"bike_id":"6b5fb14a-3e66-408e-b423-3a2793bdd953","system_id":"levelo_inurba_marseille","lat":43.314811,"lon":5.373103,"is_reserved":false,"is_disabled":false,"rental_uris":{"android":"levelo://app?vid=6b5fb14a-3e66-408e-b423-3a2793bdd953","ios":"levelo://app?vid=6b5fb14a-3e66-408e-b423-3a2793bdd953"},"vehicle_type_id":"4","last_reported":1715198851,"current_range_meters":4400,"station_id":"ce4bgt12rcd13ifvqcd0","pricing_plan_id":"cebpf4jnsgd1na2vs0mg"},{"bike_id":"0b1bd49e-480f-4df7-84b0-c0d506dbd461","system_id":"levelo_inurba_marseille","lat":43.314811,"lon":5.373103,"is_reserved":false,"is_disabled":false,"rental_uris":{"android":"levelo://app?vid=0b1bd49e-480f-4df7-84b0-c0d506dbd461","ios":"levelo://app?vid=0b1bd49e-480f-4df7-84b0-c0d506dbd461"},"vehicle_type_id":"4","last_reported":1715198851,"current_range_meters":6000,"station_id":"ce4bgt12rcd13ifvqcd0","pricing_plan_id":"cebpf4jnsgd1na2vs0mg"},{"bike_id":"cdc2e6ca-69ec-4cec-9697-2c0dd9fceab0","system_id":"levelo_inurba_marseille","lat":43.31497,"lon":5.37307,"is_reserved":false,"is_disabled":false,"rental_uris":{"android":"levelo://app?vid=cdc2e6ca-69ec-4cec-9697-2c0dd9fceab0","ios":"levelo://app?vid=cdc2e6ca-69ec-4cec-9697-2c0dd9fceab0"},"vehicle_type_id":"4","last_reported":1715198851,"current_range_meters":12400,"station_id":"ce4bgt12rcd13ifvqcd0","pricing_plan_id":"cebpf4jnsgd1na2vs0mg"},{"bike_id":"42764403-89fc-4b48-be39-d5784d6cd7c7","system_id":"levelo_inurba_marseille","lat":43.309039,"lon":5.371797,"is_reserved":false,"is_disabled":false,"rental_uris":{"android":"levelo://app?vid=42764403-89fc-4b48-be39-d5784d6cd7c7","ios":"levelo://app?vid=42764403-89fc-4b48-be39-d5784d6cd7c7"},"vehicle_type_id":"4","last_reported":1715198851,"current_range_meters":16000,"station_id":"ce4bguh2rcd13ifvqckg","pricing_plan_id":"cebpf4jnsgd1na2vs0mg"},{"bike_id":"44b4e8b8-10d0-40fc-8b25-057d7c121f50","system_id":"levelo_inurba_marseille","lat":43.309039,"lon":5.371797,"is_reserved":false,"is_disabled":false,"rental_uris":{"android":"levelo://app?vid=44b4e8b8-10d0-40fc-8b25-057d7c121f50","ios":"levelo://app?vid=44b4e8b8-10d0-40fc-8b25-057d7c121f50"},"vehicle_type_id":"4","last_reported":1715198851,"current_range_meters":12000,"station_id":"ce4bguh2rcd13ifvqckg","pricing_plan_id":"cebpf4jnsgd1na2vs0mg"},{"bike_id":"f6786bf4-60dc-487e-9fb0-7af91762898e","system_id":"levelo_inurba_marseille","lat":43.305503,"lon":5.365368,"is_reserved":false,"is_disabled":false,"rental_uris":{"android":"levelo://app?vid=f6786bf4-60dc-487e-9fb0-7af91762898e","ios":"levelo://app?vid=f6786bf4-60dc-487e-9fb0-7af91762898e"},"vehicle_type_id":"4","last_reported":1715198851,"current_range_meters":0,"station_id":"ce4bgkh2rcd13ifvqbl0","pricing_plan_id":"cebpf4jnsgd1na2vs0mg"},{"bike_id":"ad546a67-a92c-4416-a2e7-4ef5ec5c4985","system_id":"levelo_inurba_marseille","lat":43.3054,"lon":5.36718,"is_reserved":false,"is_disabled":false,"rental_uris":{"android":"levelo://app?vid=ad546a67-a92c-4416-a2e7-4ef5ec5c4985","ios":"levelo://app?vid=ad546a67-a92c-4416-a2e7-4ef5ec5c4985"},"vehicle_type_id":"4","last_reported":1715198851,"current_range_meters":0,"station_id":"ce4bgrp2rcd13ifvqc9g","pricing_plan_id":"cebpf4jnsgd1na2vs0mg"},{"bike_id":"a08c5c35-84e8-467c-816a-87c027d6fbbc","system_id":"levelo_inurba_marseille","lat":43.305989,"lon":5.37225,"is_reserved":false,"is_disabled":false,"rental_uris":{"android":"levelo://app?vid=a08c5c35-84e8-467c-816a-87c027d6fbbc","ios":"levelo://app?vid=a08c5c35-84e8-467c-816a-87c027d6fbbc"},"vehicle_type_id":"4","last_reported":1715198851,"current_range_meters":13600,"station_id":"ce4bgqh2rcd13ifvqc4g","pricing_plan_id":"cebpf4jnsgd1na2vs0mg"},{"bike_id":"8d959f46-2391-4a8d-8221-49a3a70fc6ac","system_id":"levelo_inurba_marseille","lat":43.305989,"lon":5.37225,"is_reserved":false,"is_disabled":false,"rental_uris":{"android":"levelo://app?vid=8d959f46-2391-4a8d-8221-49a3a70fc6ac","ios":"levelo://app?vid=8d959f46-2391-4a8d-8221-49a3a70fc6ac"},"vehicle_type_id":"4","last_reported":1715198851,"current_range_meters":15600,"station_id":"ce4bgqh2rcd13ifvqc4g","pricing_plan_id":"cebpf4jnsgd1na2vs0mg"},{"bike_id":"d0503c26-eb1d-44fb-8ed4-059c14d885d3","system_id":"levelo_inurba_marseille","lat":43.305989,"lon":5.37225,"is_reserved":false,"is_disabled":false,"rental_uris":{"android":"levelo://app?vid=d0503c26-eb1d-44fb-8ed4-059c14d885d3","ios":"levelo://app?vid=d0503c26-eb1d-44fb-8ed4-059c14d885d3"},"vehicle_type_id":"4","last_reported":1715198851,"current_range_meters":26000,"station_id":"ce4bgqh2rcd13ifvqc4g","pricing_plan_id":"cebpf4jnsgd1na2vs0mg"},{"bike_id":"e7b7ec64-6716-4d9b-ae03-f88d77a4225b","system_id":"levelo_inurba_marseille","lat":43.305992,"lon":5.372363,"is_reserved":false,"is_disabled":false,"rental_uris":{"android":"levelo://app?vid=e7b7ec64-6716-4d9b-ae03-f88d77a4225b","ios":"levelo://app?vid=e7b7ec64-6716-4d9b-ae03-f88d77a4225b"},"vehicle_type_id":"4","last_reported":1715198851,"current_range_meters":8400,"station_id":"ce4bgqh2rcd13ifvqc4g","pricing_plan_id":"cebpf4jnsgd1na2vs0mg"},{"bike_id":"69a0cd4a-56fb-48a5-9c9e-2b28f521e042","system_id":"levelo_inurba_marseille","lat":43.305989,"lon":5.37225,"is_reserved":false,"is_disabled":false,"rental_uris":{"android":"levelo://app?vid=69a0cd4a-56fb-48a5-9c9e-2b28f521e042","ios":"levelo://app?vid=69a0cd4a-56fb-48a5-9c9e-2b28f521e042"},"vehicle_type_id":"4","last_reported":1715198851,"current_range_meters":0,"station_id":"ce4bgqh2rcd13ifvqc4g","pricing_plan_id":"cebpf4jnsgd1na2vs0mg"},{"bike_id":"7354307d-1049-48cc-8411-085278b543b7","system_id":"levelo_inurba_marseille","lat":43.311125,"lon":5.377624,"is_reserved":false,"is_disabled":false,"rental_uris":{"android":"levelo://app?vid=7354307d-1049-48cc-8411-085278b543b7","ios":"levelo://app?vid=7354307d-1049-48cc-8411-085278b543b7"},"vehicle_type_id":"4","last_reported":1715198851,"current_range_meters":10400,"station_id":"ce4bgt92rcd13ifvqcg0","pricing_plan_id":"cebpf4jnsgd1na2vs0mg"},{"bike_id":"0da6ad05-a359-4236-a5c4-c3b0d1cb9f71","system_id":"levelo_inurba_marseille","lat":43.311131,"lon":5.377651,"is_reserved":false,"is_disabled":false,"rental_uris":{"android":"levelo://app?vid=0da6ad05-a359-4236-a5c4-c3b0d1cb9f71","ios":"levelo://app?vid=0da6ad05-a359-4236-a5c4-c3b0d1cb9f71"},"vehicle_type_id":"4","last_reported":1715198851,"current_range_meters":6400,"station_id":"ce4bgt92rcd13ifvqcg0","pricing_plan_id":"cebpf4jnsgd1na2vs0mg"},{"bike_id":"a8c99441-f0fc-4132-8a09-340d05b2cd13","system_id":"levelo_inurba_marseille","lat":43.31104,"lon":5.37779,"is_reserved":false,"is_disabled":false,"rental_uris":{"android":"levelo://app?vid=a8c99441-f0fc-4132-8a09-340d05b2cd13","ios":"levelo://app?vid=a8c99441-f0fc-4132-8a09-340d05b2cd13"},"vehicle_type_id":"4","last_reported":1715198851,"current_range_meters":0,"station_id":"ce4bgt92rcd13ifvqcg0","pricing_plan_id":"cebpf4jnsgd1na2vs0mg"},{"bike_id":"dd29451b-61cc-4ba0-b55e-448aa5dd8cd5","system_id":"levelo_inurba_marseille","lat":43.317075,"lon":5.377367,"is_reserved":false,"is_disabled":false,"rental_uris":{"android":"levelo://app?vid=dd29451b-61cc-4ba0-b55e-448aa5dd8cd5","ios":"levelo://app?vid=dd29451b-61cc-4ba0-b55e-448aa5dd8cd5"},"vehicle_type_id":"4","last_reported":1715198851,"current_range_meters":24000,"station_id":"ce4bgth2rcd13ifvqch0","pricing_plan_id":"cebpf4jnsgd1na2vs0mg"},{"bike_id":"b4af5fd6-f598-45bf-8180-866716ac55cf","system_id":"levelo_inurba_marseille","lat":43.307945,"lon":5.376487,"is_reserved":false,"is_disabled":false,"rental_uris":{"android":"levelo://app?vid=b4af5fd6-f598-45bf-8180-866716ac55cf","ios":"levelo://app?vid=b4af5fd6-f598-45bf-8180-866716ac55cf"},"vehicle_type_id":"4","last_reported":1715198851,"current_range_meters":2400,"station_id":"ce4bgv92rcd13ifvqcq0","pricing_plan_id":"cebpf4jnsgd1na2vs0mg"},{"bike_id":"8be7ad7b-9e73-4170-9811-7f09ca9edd67","system_id":"levelo_inurba_marseille","lat":43.305124,"lon":5.371852,"is_reserved":false,"is_disabled":false,"rental_uris":{"android":"levelo://app?vid=8be7ad7b-9e73-4170-9811-7f09ca9edd67","ios":"levelo://app?vid=8be7ad7b-9e73-4170-9811-7f09ca9edd67"},"vehicle_type_id":"4","last_reported":1715198851,"current_range_meters":6800,"station_id":"","pricing_plan_id":"cebpf4jnsgd1na2vs0mg"},{"bike_id":"ad1789a1-f1c3-42f1-8200-d3c87ade9edc","system_id":"levelo_inurba_marseille","lat":43.307945,"lon":5.376487,"is_reserved":false,"is_disabled":false,"rental_uris":{"android":"levelo://app?vid=ad1789a1-f1c3-42f1-8200-d3c87ade9edc","ios":"levelo://app?vid=ad1789a1-f1c3-42f1-8200-d3c87ade9edc"},"vehicle_type_id":"4","last_reported":1715198851,"current_range_meters":3200,"station_id":"ce4bgv92rcd13ifvqcq0","pricing_plan_id":"cebpf4jnsgd1na2vs0mg"},{"bike_id":"c03c7cf8-24f3-4255-9fae-67484629b747","system_id":"levelo_inurba_marseille","lat":43.307945,"lon":5.376487,"is_reserved":false,"is_disabled":false,"rental_uris":{"android":"levelo://app?vid=c03c7cf8-24f3-4255-9fae-67484629b747","ios":"levelo://app?vid=c03c7cf8-24f3-4255-9fae-67484629b747"},"vehicle_type_id":"4","last_reported":1715198851,"current_range_meters":0,"station_id":"ce4bgv92rcd13ifvqcq0","pricing_plan_id":"cebpf4jnsgd1na2vs0mg"},{"bike_id":"3f707746-36e3-4336-9a1a-9c36dec88330","system_id":"levelo_inurba_marseille","lat":43.307945,"lon":5.376487,"is_reserved":false,"is_disabled":false,"rental_uris":{"android":"levelo://app?vid=3f707746-36e3-4336-9a1a-9c36dec88330","ios":"levelo://app?vid=3f707746-36e3-4336-9a1a-9c36dec88330"},"vehicle_type_id":"4","last_reported":1715198851,"current_range_meters":7200,"station_id":"ce4bgv92rcd13ifvqcq0","pricing_plan_id":"cebpf4jnsgd1na2vs0mg"},{"bike_id":"a8420d12-5ea1-4553-ba77-74153419b9a1","system_id":"levelo_inurba_marseille","lat":43.307945,"lon":5.376487,"is_reserved":false,"is_disabled":false,"rental_uris":{"android":"levelo://app?vid=a8420d12-5ea1-4553-ba77-74153419b9a1","ios":"levelo://app?vid=a8420d12-5ea1-4553-ba77-74153419b9a1"},"vehicle_type_id":"4","last_reported":1715198851,"current_range_meters":31200,"station_id":"ce4bgv92rcd13ifvqcq0","pricing_plan_id":"cebpf4jnsgd1na2vs0mg"},{"bike_id":"5ddc8e45-7f33-4e8a-b277-dfd412ab8f95","system_id":"levelo_inurba_marseille","lat":43.317075,"lon":5.377367,"is_reserved":false,"is_disabled":false,"rental_uris":{"android":"levelo://app?vid=5ddc8e45-7f33-4e8a-b277-dfd412ab8f95","ios":"levelo://app?vid=5ddc8e45-7f33-4e8a-b277-dfd412ab8f95"},"vehicle_type_id":"4","last_reported":1715198851,"current_range_meters":25600,"station_id":"ce4bgth2rcd13ifvqch0","pricing_plan_id":"cebpf4jnsgd1na2vs0mg"},{"bike_id":"74ad082e-38f3-4058-ab16-7c773b8ccb6b","system_id":"levelo_inurba_marseille","lat":43.310717,"lon":5.378568,"is_reserved":false,"is_disabled":false,"rental_uris":{"android":"levelo://app?vid=74ad082e-38f3-4058-ab16-7c773b8ccb6b","ios":"levelo://app?vid=74ad082e-38f3-4058-ab16-7c773b8ccb6b"},"vehicle_type_id":"4","last_reported":1715198851,"current_range_meters":5600,"station_id":"","pricing_plan_id":"cebpf4jnsgd1na2vs0mg"},{"bike_id":"9a472bf1-7cb4-4917-a52a-6da0ec939ad9","system_id":"levelo_inurba_marseille","lat":43.317075,"lon":5.377367,"is_reserved":false,"is_disabled":false,"rental_uris":{"android":"levelo://app?vid=9a472bf1-7cb4-4917-a52a-6da0ec939ad9","ios":"levelo://app?vid=9a472bf1-7cb4-4917-a52a-6da0ec939ad9"},"vehicle_type_id":"4","last_reported":1715198851,"current_range_meters":17200,"station_id":"ce4bgth2rcd13ifvqch0","pricing_plan_id":"cebpf4jnsgd1na2vs0mg"},{"bike_id":"9345ee18-755a-4a63-938f-fab987b0bed8","system_id":"levelo_inurba_marseille","lat":43.317075,"lon":5.377367,"is_reserved":false,"is_disabled":false,"rental_uris":{"android":"levelo://app?vid=9345ee18-755a-4a63-938f-fab987b0bed8","ios":"levelo://app?vid=9345ee18-755a-4a63-938f-fab987b0bed8"},"vehicle_type_id":"4","last_reported":1715198851,"current_range_meters":9600,"station_id":"ce4bgth2rcd13ifvqch0","pricing_plan_id":"cebpf4jnsgd1na2vs0mg"},{"bike_id":"10669a39-fd49-44c2-82b8-096036dcb40b","system_id":"levelo_inurba_marseille","lat":43.315289,"lon":5.380349,"is_reserved":false,"is_disabled":false,"rental_uris":{"android":"levelo://app?vid=10669a39-fd49-44c2-82b8-096036dcb40b","ios":"levelo://app?vid=10669a39-fd49-44c2-82b8-096036dcb40b"},"vehicle_type_id":"4","last_reported":1715198851,"current_range_meters":16000,"station_id":"ce4bhsp2rcd13ifvqi50","pricing_plan_id":"cebpf4jnsgd1na2vs0mg"},{"bike_id":"adf46850-23cc-4af3-81d0-6556e79cb2cf","system_id":"levelo_inurba_marseille","lat":43.311125,"lon":5.377624,"is_reserved":false,"is_disabled":false,"rental_uris":{"android":"levelo://app?vid=adf46850-23cc-4af3-81d0-6556e79cb2cf","ios":"levelo://app?vid=adf46850-23cc-4af3-81d0-6556e79cb2cf"},"vehicle_type_id":"4","last_reported":1715198851,"current_range_meters":6800,"station_id":"ce4bgt92rcd13ifvqcg0","pricing_plan_id":"cebpf4jnsgd1na2vs0mg"},{"bike_id":"dab49ece-7d19-459b-907d-80176a551c1a","system_id":"levelo_inurba_marseille","lat":43.303046,"lon":5.368981,"is_reserved":false,"is_disabled":false,"rental_uris":{"android":"levelo://app?vid=dab49ece-7d19-459b-907d-80176a551c1a","ios":"levelo://app?vid=dab49ece-7d19-459b-907d-80176a551c1a"},"vehicle_type_id":"4","last_reported":1715198851,"current_range_meters":23200,"station_id":"ce4bgqh2rcd13ifvqc5g","pricing_plan_id":"cebpf4jnsgd1na2vs0mg"},{"bike_id":"c9145a23-3201-41bc-9201-cc1c2a0f8a15","system_id":"levelo_inurba_marseille","lat":43.315293,"lon":5.380349,"is_reserved":false,"is_disabled":false,"rental_uris":{"android":"levelo://app?vid=c9145a23-3201-41bc-9201-cc1c2a0f8a15","ios":"levelo://app?vid=c9145a23-3201-41bc-9201-cc1c2a0f8a15"},"vehicle_type_id":"4","last_reported":1715198851,"current_range_meters":10000,"station_id":"ce4bhsp2rcd13ifvqi50","pricing_plan_id":"cebpf4jnsgd1na2vs0mg"},{"bike_id":"1479fb2d-1517-4c5b-b0f9-7c46759a22f9","system_id":"levelo_inurba_marseille","lat":43.303046,"lon":5.368981,"is_reserved":false,"is_disabled":false,"rental_uris":{"android":"levelo://app?vid=1479fb2d-1517-4c5b-b0f9-7c46759a22f9","ios":"levelo://app?vid=1479fb2d-1517-4c5b-b0f9-7c46759a22f9"},"vehicle_type_id":"4","last_reported":1715198851,"current_range_meters":27600,"station_id":"ce4bgqh2rcd13ifvqc5g","pricing_plan_id":"cebpf4jnsgd1na2vs0mg"},{"bike_id":"41a31254-f32b-4cf4-b4ba-b8e9006317a0","system_id":"levelo_inurba_marseille","lat":43.31531,"lon":5.38029,"is_reserved":false,"is_disabled":false,"rental_uris":{"android":"levelo://app?vid=41a31254-f32b-4cf4-b4ba-b8e9006317a0","ios":"levelo://app?vid=41a31254-f32b-4cf4-b4ba-b8e9006317a0"},"vehicle_type_id":"4","last_reported":1715198851,"current_range_meters":0,"station_id":"ce4bhsp2rcd13ifvqi50","pricing_plan_id":"cebpf4jnsgd1na2vs0mg"},{"bike_id":"66f2f05d-667e-458b-964f-da0bf7b787c3","system_id":"levelo_inurba_marseille","lat":43.315289,"lon":5.380349,"is_reserved":false,"is_disabled":false,"rental_uris":{"android":"levelo://app?vid=66f2f05d-667e-458b-964f-da0bf7b787c3","ios":"levelo://app?vid=66f2f05d-667e-458b-964f-da0bf7b787c3"},"vehicle_type_id":"4","last_reported":1715198851,"current_range_meters":17600,"station_id":"ce4bhsp2rcd13ifvqi50","pricing_plan_id":"cebpf4jnsgd1na2vs0mg"},{"bike_id":"d31b0aa0-3c56-48f8-8df4-92bdcad52d7b","system_id":"levelo_inurba_marseille","lat":43.315293,"lon":5.380349,"is_reserved":false,"is_disabled":false,"rental_uris":{"android":"levelo://app?vid=d31b0aa0-3c56-48f8-8df4-92bdcad52d7b","ios":"levelo://app?vid=d31b0aa0-3c56-48f8-8df4-92bdcad52d7b"},"vehicle_type_id":"4","last_reported":1715198851,"current_range_meters":5200,"station_id":"ce4bhsp2rcd13ifvqi50","pricing_plan_id":"cebpf4jnsgd1na2vs0mg"},{"bike_id":"156bab95-2671-4e35-bdb5-8ef6967e5341","system_id":"levelo_inurba_marseille","lat":43.315293,"lon":5.380349,"is_reserved":false,"is_disabled":false,"rental_uris":{"android":"levelo://app?vid=156bab95-2671-4e35-bdb5-8ef6967e5341","ios":"levelo://app?vid=156bab95-2671-4e35-bdb5-8ef6967e5341"},"vehicle_type_id":"4","last_reported":1715198851,"current_range_meters":800,"station_id":"ce4bhsp2rcd13ifvqi50","pricing_plan_id":"cebpf4jnsgd1na2vs0mg"},{"bike_id":"c6cbd1b3-6bd5-49bb-a98b-275869b588b1","system_id":"levelo_inurba_marseille","lat":43.308012,"lon":5.381511,"is_reserved":false,"is_disabled":false,"rental_uris":{"android":"levelo://app?vid=c6cbd1b3-6bd5-49bb-a98b-275869b588b1","ios":"levelo://app?vid=c6cbd1b3-6bd5-49bb-a98b-275869b588b1"},"vehicle_type_id":"4","last_reported":1715198851,"current_range_meters":4000,"station_id":"ce4bgt12rcd13ifvqce0","pricing_plan_id":"cebpf4jnsgd1na2vs0mg"},{"bike_id":"cfd64fea-c863-4f36-944f-7a9b9aa6ea05","system_id":"levelo_inurba_marseille","lat":43.310448,"lon":5.381993,"is_reserved":false,"is_disabled":false,"rental_uris":{"android":"levelo://app?vid=cfd64fea-c863-4f36-944f-7a9b9aa6ea05","ios":"levelo://app?vid=cfd64fea-c863-4f36-944f-7a9b9aa6ea05"},"vehicle_type_id":"4","last_reported":1715198851,"current_range_meters":0,"station_id":"","pricing_plan_id":"cebpf4jnsgd1na2vs0mg"},{"bike_id":"9ee5dac7-3637-481a-b893-883d00617c46","system_id":"levelo_inurba_marseille","lat":43.308012,"lon":5.381511,"is_reserved":false,"is_disabled":false,"rental_uris":{"android":"levelo://app?vid=9ee5dac7-3637-481a-b893-883d00617c46","ios":"levelo://app?vid=9ee5dac7-3637-481a-b893-883d00617c46"},"vehicle_type_id":"4","last_reported":1715198851,"current_range_meters":0,"station_id":"ce4bgt12rcd13ifvqce0","pricing_plan_id":"cebpf4jnsgd1na2vs0mg"},{"bike_id":"de3cd83a-c2df-46c6-8334-20ab563c8b3c","system_id":"levelo_inurba_marseille","lat":43.308012,"lon":5.381511,"is_reserved":false,"is_disabled":false,"rental_uris":{"android":"levelo://app?vid=de3cd83a-c2df-46c6-8334-20ab563c8b3c","ios":"levelo://app?vid=de3cd83a-c2df-46c6-8334-20ab563c8b3c"},"vehicle_type_id":"4","last_reported":1715198851,"current_range_meters":800,"station_id":"ce4bgt12rcd13ifvqce0","pricing_plan_id":"cebpf4jnsgd1na2vs0mg"},{"bike_id":"87ebcc42-f2e9-4f1d-b251-99a969bc0c0d","system_id":"levelo_inurba_marseille","lat":43.304606,"lon":5.379026,"is_reserved":false,"is_disabled":false,"rental_uris":{"android":"levelo://app?vid=87ebcc42-f2e9-4f1d-b251-99a969bc0c0d","ios":"levelo://app?vid=87ebcc42-f2e9-4f1d-b251-99a969bc0c0d"},"vehicle_type_id":"4","last_reported":1715198851,"current_range_meters":8400,"station_id":"ce4bgup2rcd13ifvqcn0","pricing_plan_id":"cebpf4jnsgd1na2vs0mg"},{"bike_id":"9836fdab-7946-4d16-9a4d-48d5ac667504","system_id":"levelo_inurba_marseille","lat":43.324771,"lon":5.36557,"is_reserved":false,"is_disabled":false,"rental_uris":{"android":"levelo://app?vid=9836fdab-7946-4d16-9a4d-48d5ac667504","ios":"levelo://app?vid=9836fdab-7946-4d16-9a4d-48d5ac667504"},"vehicle_type_id":"4","last_reported":1715198851,"current_range_meters":17200,"station_id":"ce4bhs12rcd13ifvqhvg","pricing_plan_id":"cebpf4jnsgd1na2vs0mg"},{"bike_id":"148629b0-6bce-4112-8d0e-dace9efa6087","system_id":"levelo_inurba_marseille","lat":43.324799,"lon":5.365741,"is_reserved":false,"is_disabled":false,"rental_uris":{"android":"levelo://app?vid=148629b0-6bce-4112-8d0e-dace9efa6087","ios":"levelo://app?vid=148629b0-6bce-4112-8d0e-dace9efa6087"},"vehicle_type_id":"4","last_reported":1715198851,"current_range_meters":0,"station_id":"ce4bhs12rcd13ifvqhvg","pricing_plan_id":"cebpf4jnsgd1na2vs0mg"},{"bike_id":"5d8f84e1-a9cc-45ac-bfa9-0af8364bece7","system_id":"levelo_inurba_marseille","lat":43.324801,"lon":5.365771,"is_reserved":false,"is_disabled":false,"rental_uris":{"android":"levelo://app?vid=5d8f84e1-a9cc-45ac-bfa9-0af8364bece7","ios":"levelo://app?vid=5d8f84e1-a9cc-45ac-bfa9-0af8364bece7"},"vehicle_type_id":"4","last_reported":1715198851,"current_range_meters":400,"station_id":"ce4bhs12rcd13ifvqhvg","pricing_plan_id":"cebpf4jnsgd1na2vs0mg"},{"bike_id":"ddb4fac1-dd66-44e0-937e-3bf7b62822da","system_id":"levelo_inurba_marseille","lat":43.32483,"lon":5.36558,"is_reserved":false,"is_disabled":false,"rental_uris":{"android":"levelo://app?vid=ddb4fac1-dd66-44e0-937e-3bf7b62822da","ios":"levelo://app?vid=ddb4fac1-dd66-44e0-937e-3bf7b62822da"},"vehicle_type_id":"4","last_reported":1715198851,"current_range_meters":15200,"station_id":"ce4bhs12rcd13ifvqhvg","pricing_plan_id":"cebpf4jnsgd1na2vs0mg"},{"bike_id":"ecbae52d-c76d-4d3a-a7e8-3be4b14cb268","system_id":"levelo_inurba_marseille","lat":43.324771,"lon":5.36557,"is_reserved":false,"is_disabled":false,"rental_uris":{"android":"levelo://app?vid=ecbae52d-c76d-4d3a-a7e8-3be4b14cb268","ios":"levelo://app?vid=ecbae52d-c76d-4d3a-a7e8-3be4b14cb268"},"vehicle_type_id":"4","last_reported":1715198851,"current_range_meters":15600,"station_id":"ce4bhs12rcd13ifvqhvg","pricing_plan_id":"cebpf4jnsgd1na2vs0mg"},{"bike_id":"00f0da6a-8339-499e-b70c-f4da61db8bab","system_id":"levelo_inurba_marseille","lat":43.32492,"lon":5.36553,"is_reserved":false,"is_disabled":false,"rental_uris":{"android":"levelo://app?vid=00f0da6a-8339-499e-b70c-f4da61db8bab","ios":"levelo://app?vid=00f0da6a-8339-499e-b70c-f4da61db8bab"},"vehicle_type_id":"4","last_reported":1715198851,"current_range_meters":4800,"station_id":"ce4bhs12rcd13ifvqhvg","pricing_plan_id":"cebpf4jnsgd1na2vs0mg"},{"bike_id":"20b694db-c43b-4444-82d1-595705e32c7e","system_id":"levelo_inurba_marseille","lat":43.31076,"lon":5.38355,"is_reserved":false,"is_disabled":false,"rental_uris":{"android":"levelo://app?vid=20b694db-c43b-4444-82d1-595705e32c7e","ios":"levelo://app?vid=20b694db-c43b-4444-82d1-595705e32c7e"},"vehicle_type_id":"4","last_reported":1715198851,"current_range_meters":8400,"station_id":"ce4bgv92rcd13ifvqcr0","pricing_plan_id":"cebpf4jnsgd1na2vs0mg"},{"bike_id":"6be71a0b-8699-4183-b5b5-fc3cbc440a8a","system_id":"levelo_inurba_marseille","lat":43.30143,"lon":5.37413,"is_reserved":false,"is_disabled":false,"rental_uris":{"android":"levelo://app?vid=6be71a0b-8699-4183-b5b5-fc3cbc440a8a","ios":"levelo://app?vid=6be71a0b-8699-4183-b5b5-fc3cbc440a8a"},"vehicle_type_id":"4","last_reported":1715198851,"current_range_meters":1200,"station_id":"ce4bgs92rcd13ifvqcc0","pricing_plan_id":"cebpf4jnsgd1na2vs0mg"},{"bike_id":"e6705ca9-901f-4148-b5db-de14c0138650","system_id":"levelo_inurba_marseille","lat":43.30143,"lon":5.37413,"is_reserved":false,"is_disabled":false,"rental_uris":{"android":"levelo://app?vid=e6705ca9-901f-4148-b5db-de14c0138650","ios":"levelo://app?vid=e6705ca9-901f-4148-b5db-de14c0138650"},"vehicle_type_id":"4","last_reported":1715198851,"current_range_meters":27600,"station_id":"ce4bgs92rcd13ifvqcc0","pricing_plan_id":"cebpf4jnsgd1na2vs0mg"},{"bike_id":"7097edfc-d7ec-4c12-88d6-f17e8136e288","system_id":"levelo_inurba_marseille","lat":43.313571,"lon":5.384829,"is_reserved":false,"is_disabled":false,"rental_uris":{"android":"levelo://app?vid=7097edfc-d7ec-4c12-88d6-f17e8136e288","ios":"levelo://app?vid=7097edfc-d7ec-4c12-88d6-f17e8136e288"},"vehicle_type_id":"4","last_reported":1715198851,"current_range_meters":22400,"station_id":"ce4bgt92rcd13ifvqcf0","pricing_plan_id":"cebpf4jnsgd1na2vs0mg"},{"bike_id":"0eacc168-c363-4c25-b9e8-1adf66480916","system_id":"levelo_inurba_marseille","lat":43.313571,"lon":5.384829,"is_reserved":false,"is_disabled":false,"rental_uris":{"android":"levelo://app?vid=0eacc168-c363-4c25-b9e8-1adf66480916","ios":"levelo://app?vid=0eacc168-c363-4c25-b9e8-1adf66480916"},"vehicle_type_id":"4","last_reported":1715198851,"current_range_meters":6000,"station_id":"ce4bgt92rcd13ifvqcf0","pricing_plan_id":"cebpf4jnsgd1na2vs0mg"},{"bike_id":"1eafe15d-2f93-4d42-a32e-7025b8f9cc65","system_id":"levelo_inurba_marseille","lat":43.301939,"lon":5.366286,"is_reserved":false,"is_disabled":false,"rental_uris":{"android":"levelo://app?vid=1eafe15d-2f93-4d42-a32e-7025b8f9cc65","ios":"levelo://app?vid=1eafe15d-2f93-4d42-a32e-7025b8f9cc65"},"vehicle_type_id":"4","last_reported":1715198851,"current_range_meters":12800,"station_id":"ce4bgrh2rcd13ifvqc8g","pricing_plan_id":"cebpf4jnsgd1na2vs0mg"},{"bike_id":"c9617f18-b0d6-41a9-9fdd-2f396b2cd843","system_id":"levelo_inurba_marseille","lat":43.299334,"lon":5.365352,"is_reserved":false,"is_disabled":false,"rental_uris":{"android":"levelo://app?vid=c9617f18-b0d6-41a9-9fdd-2f396b2cd843","ios":"levelo://app?vid=c9617f18-b0d6-41a9-9fdd-2f396b2cd843"},"vehicle_type_id":"4","last_reported":1715198851,"current_range_meters":0,"station_id":"ce4bgm92rcd13ifvqbr0","pricing_plan_id":"cebpf4jnsgd1na2vs0mg"},{"bike_id":"6c698a57-06cb-4701-bb85-c6ce18b97918","system_id":"levelo_inurba_marseille","lat":43.29931,"lon":5.36545,"is_reserved":false,"is_disabled":false,"rental_uris":{"android":"levelo://app?vid=6c698a57-06cb-4701-bb85-c6ce18b97918","ios":"levelo://app?vid=6c698a57-06cb-4701-bb85-c6ce18b97918"},"vehicle_type_id":"4","last_reported":1715198851,"current_range_meters":0,"station_id":"ce4bgm92rcd13ifvqbr0","pricing_plan_id":"cebpf4jnsgd1na2vs0mg"},{"bike_id":"53a1135a-adda-4722-a07a-3c6f9b9aa45b","system_id":"levelo_inurba_marseille","lat":43.29928,"lon":5.3654,"is_reserved":false,"is_disabled":false,"rental_uris":{"android":"levelo://app?vid=53a1135a-adda-4722-a07a-3c6f9b9aa45b","ios":"levelo://app?vid=53a1135a-adda-4722-a07a-3c6f9b9aa45b"},"vehicle_type_id":"4","last_reported":1715198851,"current_range_meters":0,"station_id":"ce4bgm92rcd13ifvqbr0","pricing_plan_id":"cebpf4jnsgd1na2vs0mg"},{"bike_id":"62088722-09e4-4d7e-b4da-2fe1204d5575","system_id":"levelo_inurba_marseille","lat":43.299243,"lon":5.37481,"is_reserved":false,"is_disabled":false,"rental_uris":{"android":"levelo://app?vid=62088722-09e4-4d7e-b4da-2fe1204d5575","ios":"levelo://app?vid=62088722-09e4-4d7e-b4da-2fe1204d5575"},"vehicle_type_id":"4","last_reported":1715198851,"current_range_meters":3600,"station_id":"ce4bgjh2rcd13ifvqbg0","pricing_plan_id":"cebpf4jnsgd1na2vs0mg"},{"bike_id":"0006bc15-ebce-4dea-9921-f615c397e48e","system_id":"levelo_inurba_marseille","lat":43.299243,"lon":5.374807,"is_reserved":false,"is_disabled":false,"rental_uris":{"android":"levelo://app?vid=0006bc15-ebce-4dea-9921-f615c397e48e","ios":"levelo://app?vid=0006bc15-ebce-4dea-9921-f615c397e48e"},"vehicle_type_id":"4","last_reported":1715198851,"current_range_meters":17200,"station_id":"ce4bgjh2rcd13ifvqbg0","pricing_plan_id":"cebpf4jnsgd1na2vs0mg"},{"bike_id":"f4338412-8085-465a-be62-97805ad436ed","system_id":"levelo_inurba_marseille","lat":43.299243,"lon":5.374807,"is_reserved":false,"is_disabled":false,"rental_uris":{"android":"levelo://app?vid=f4338412-8085-465a-be62-97805ad436ed","ios":"levelo://app?vid=f4338412-8085-465a-be62-97805ad436ed"},"vehicle_type_id":"4","last_reported":1715198851,"current_range_meters":17600,"station_id":"ce4bgjh2rcd13ifvqbg0","pricing_plan_id":"cebpf4jnsgd1na2vs0mg"},{"bike_id":"ba09d07b-9fc1-47b0-81d5-dc995df28473","system_id":"levelo_inurba_marseille","lat":43.299243,"lon":5.37481,"is_reserved":false,"is_disabled":false,"rental_uris":{"android":"levelo://app?vid=ba09d07b-9fc1-47b0-81d5-dc995df28473","ios":"levelo://app?vid=ba09d07b-9fc1-47b0-81d5-dc995df28473"},"vehicle_type_id":"4","last_reported":1715198851,"current_range_meters":25200,"station_id":"ce4bgjh2rcd13ifvqbg0","pricing_plan_id":"cebpf4jnsgd1na2vs0mg"},{"bike_id":"12943002-7118-4100-9538-64ddc46a6ce8","system_id":"levelo_inurba_marseille","lat":43.311722,"lon":5.387247,"is_reserved":false,"is_disabled":false,"rental_uris":{"android":"levelo://app?vid=12943002-7118-4100-9538-64ddc46a6ce8","ios":"levelo://app?vid=12943002-7118-4100-9538-64ddc46a6ce8"},"vehicle_type_id":"4","last_reported":1715198851,"current_range_meters":19600,"station_id":"ce4bgv12rcd13ifvqcp0","pricing_plan_id":"cebpf4jnsgd1na2vs0mg"},{"bike_id":"f17d762f-f56a-4f04-89d4-6b91b0b33ddb","system_id":"levelo_inurba_marseille","lat":43.311722,"lon":5.387247,"is_reserved":false,"is_disabled":false,"rental_uris":{"android":"levelo://app?vid=f17d762f-f56a-4f04-89d4-6b91b0b33ddb","ios":"levelo://app?vid=f17d762f-f56a-4f04-89d4-6b91b0b33ddb"},"vehicle_type_id":"4","last_reported":1715198851,"current_range_meters":4400,"station_id":"ce4bgv12rcd13ifvqcp0","pricing_plan_id":"cebpf4jnsgd1na2vs0mg"},{"bike_id":"8e15535a-438f-4ae5-91e2-b0101903589c","system_id":"levelo_inurba_marseille","lat":43.299018,"lon":5.37463,"is_reserved":false,"is_disabled":false,"rental_uris":{"android":"levelo://app?vid=8e15535a-438f-4ae5-91e2-b0101903589c","ios":"levelo://app?vid=8e15535a-438f-4ae5-91e2-b0101903589c"},"vehicle_type_id":"4","last_reported":1715198851,"current_range_meters":0,"station_id":"ce4bgjh2rcd13ifvqbg0","pricing_plan_id":"cebpf4jnsgd1na2vs0mg"},{"bike_id":"c6480d59-fcc1-4332-b9ef-612d13c92dfc","system_id":"levelo_inurba_marseille","lat":43.311722,"lon":5.387247,"is_reserved":false,"is_disabled":false,"rental_uris":{"android":"levelo://app?vid=c6480d59-fcc1-4332-b9ef-612d13c92dfc","ios":"levelo://app?vid=c6480d59-fcc1-4332-b9ef-612d13c92dfc"},"vehicle_type_id":"4","last_reported":1715198851,"current_range_meters":12400,"station_id":"ce4bgv12rcd13ifvqcp0","pricing_plan_id":"cebpf4jnsgd1na2vs0mg"},{"bike_id":"ca394a43-fd8e-4701-b181-a714fa830606","system_id":"levelo_inurba_marseille","lat":43.29913,"lon":5.37628,"is_reserved":false,"is_disabled":false,"rental_uris":{"android":"levelo://app?vid=ca394a43-fd8e-4701-b181-a714fa830606","ios":"levelo://app?vid=ca394a43-fd8e-4701-b181-a714fa830606"},"vehicle_type_id":"4","last_reported":1715198851,"current_range_meters":0,"station_id":"","pricing_plan_id":"cebpf4jnsgd1na2vs0mg"},{"bike_id":"51515124-8061-49f7-bb3e-6bc3e956ea9e","system_id":"levelo_inurba_marseille","lat":43.32287,"lon":5.38267,"is_reserved":false,"is_disabled":false,"rental_uris":{"android":"levelo://app?vid=51515124-8061-49f7-bb3e-6bc3e956ea9e","ios":"levelo://app?vid=51515124-8061-49f7-bb3e-6bc3e956ea9e"},"vehicle_type_id":"4","last_reported":1715198851,"current_range_meters":5600,"station_id":"ce4bhr12rcd13ifvqhqg","pricing_plan_id":"cebpf4jnsgd1na2vs0mg"},{"bike_id":"6ad7ef97-2f71-448d-b062-a28ce4d6c290","system_id":"levelo_inurba_marseille","lat":43.297378,"lon":5.369132,"is_reserved":false,"is_disabled":false,"rental_uris":{"android":"levelo://app?vid=6ad7ef97-2f71-448d-b062-a28ce4d6c290","ios":"levelo://app?vid=6ad7ef97-2f71-448d-b062-a28ce4d6c290"},"vehicle_type_id":"4","last_reported":1715198851,"current_range_meters":0,"station_id":"","pricing_plan_id":"cebpf4jnsgd1na2vs0mg"},{"bike_id":"155e4b7c-f36e-4bdd-bdfb-21c522dd85b2","system_id":"levelo_inurba_marseille","lat":43.297281,"lon":5.365915,"is_reserved":false,"is_disabled":false,"rental_uris":{"android":"levelo://app?vid=155e4b7c-f36e-4bdd-bdfb-21c522dd85b2","ios":"levelo://app?vid=155e4b7c-f36e-4bdd-bdfb-21c522dd85b2"},"vehicle_type_id":"4","last_reported":1715198851,"current_range_meters":1200,"station_id":"","pricing_plan_id":"cebpf4jnsgd1na2vs0mg"},{"bike_id":"077cd0c7-c335-4e27-9761-d490805dc92e","system_id":"levelo_inurba_marseille","lat":43.29712,"lon":5.36609,"is_reserved":false,"is_disabled":false,"rental_uris":{"android":"levelo://app?vid=077cd0c7-c335-4e27-9761-d490805dc92e","ios":"levelo://app?vid=077cd0c7-c335-4e27-9761-d490805dc92e"},"vehicle_type_id":"4","last_reported":1715198851,"current_range_meters":14800,"station_id":"","pricing_plan_id":"cebpf4jnsgd1na2vs0mg"},{"bike_id":"eedcd45a-cd2f-47a3-ab6d-a9a5afd89ed3","system_id":"levelo_inurba_marseille","lat":43.297,"lon":5.36606,"is_reserved":false,"is_disabled":false,"rental_uris":{"android":"levelo://app?vid=eedcd45a-cd2f-47a3-ab6d-a9a5afd89ed3","ios":"levelo://app?vid=eedcd45a-cd2f-47a3-ab6d-a9a5afd89ed3"},"vehicle_type_id":"4","last_reported":1715198851,"current_range_meters":1600,"station_id":"","pricing_plan_id":"cebpf4jnsgd1na2vs0mg"},{"bike_id":"d8ee9fd3-73ea-4deb-92d1-449de13f5f87","system_id":"levelo_inurba_marseille","lat":43.29727,"lon":5.37351,"is_reserved":false,"is_disabled":false,"rental_uris":{"android":"levelo://app?vid=d8ee9fd3-73ea-4deb-92d1-449de13f5f87","ios":"levelo://app?vid=d8ee9fd3-73ea-4deb-92d1-449de13f5f87"},"vehicle_type_id":"4","last_reported":1715198851,"current_range_meters":10400,"station_id":"","pricing_plan_id":"cebpf4jnsgd1na2vs0mg"},{"bike_id":"f9f54dd1-303d-4995-9a29-8484b72554f7","system_id":"levelo_inurba_marseille","lat":43.29732,"lon":5.37686,"is_reserved":false,"is_disabled":false,"rental_uris":{"android":"levelo://app?vid=f9f54dd1-303d-4995-9a29-8484b72554f7","ios":"levelo://app?vid=f9f54dd1-303d-4995-9a29-8484b72554f7"},"vehicle_type_id":"4","last_reported":1715198851,"current_range_meters":18400,"station_id":"ce4bgkh2rcd13ifvqbl0","pricing_plan_id":"cebpf4jnsgd1na2vs0mg"},{"bike_id":"a2c4f024-bc72-42f8-841f-8356c052368d","system_id":"levelo_inurba_marseille","lat":43.29726,"lon":5.37669,"is_reserved":false,"is_disabled":false,"rental_uris":{"android":"levelo://app?vid=a2c4f024-bc72-42f8-841f-8356c052368d","ios":"levelo://app?vid=a2c4f024-bc72-42f8-841f-8356c052368d"},"vehicle_type_id":"4","last_reported":1715198851,"current_range_meters":18000,"station_id":"ce4bgkh2rcd13ifvqbl0","pricing_plan_id":"cebpf4jnsgd1na2vs0mg"},{"bike_id":"a5a79a00-56d2-4fb0-9239-05655f210346","system_id":"levelo_inurba_marseille","lat":43.29727,"lon":5.37672,"is_reserved":false,"is_disabled":false,"rental_uris":{"android":"levelo://app?vid=a5a79a00-56d2-4fb0-9239-05655f210346","ios":"levelo://app?vid=a5a79a00-56d2-4fb0-9239-05655f210346"},"vehicle_type_id":"4","last_reported":1715198851,"current_range_meters":24800,"station_id":"ce4bgkh2rcd13ifvqbl0","pricing_plan_id":"cebpf4jnsgd1na2vs0mg"},{"bike_id":"bbeaa846-b1d1-45c1-a49f-10f8b5883cd7","system_id":"levelo_inurba_marseille","lat":43.29732,"lon":5.37688,"is_reserved":false,"is_disabled":false,"rental_uris":{"android":"levelo://app?vid=bbeaa846-b1d1-45c1-a49f-10f8b5883cd7","ios":"levelo://app?vid=bbeaa846-b1d1-45c1-a49f-10f8b5883cd7"},"vehicle_type_id":"4","last_reported":1715198851,"current_range_meters":19600,"station_id":"ce4bgkh2rcd13ifvqbl0","pricing_plan_id":"cebpf4jnsgd1na2vs0mg"},{"bike_id":"ad82a6c6-1665-418d-8737-97a03666d75f","system_id":"levelo_inurba_marseille","lat":43.29728,"lon":5.3768,"is_reserved":false,"is_disabled":false,"rental_uris":{"android":"levelo://app?vid=ad82a6c6-1665-418d-8737-97a03666d75f","ios":"levelo://app?vid=ad82a6c6-1665-418d-8737-97a03666d75f"},"vehicle_type_id":"4","last_reported":1715198851,"current_range_meters":8800,"station_id":"ce4bgkh2rcd13ifvqbl0","pricing_plan_id":"cebpf4jnsgd1na2vs0mg"},{"bike_id":"59477bae-e4f1-40fc-a96e-fa6150dab90f","system_id":"levelo_inurba_marseille","lat":43.296935,"lon":5.376544,"is_reserved":false,"is_disabled":false,"rental_uris":{"android":"levelo://app?vid=59477bae-e4f1-40fc-a96e-fa6150dab90f","ios":"levelo://app?vid=59477bae-e4f1-40fc-a96e-fa6150dab90f"},"vehicle_type_id":"4","last_reported":1715198851,"current_range_meters":12800,"station_id":"ce4bgkh2rcd13ifvqbl0","pricing_plan_id":"cebpf4jnsgd1na2vs0mg"},{"bike_id":"7dccf070-7a16-4652-a6a8-b31948033278","system_id":"levelo_inurba_marseille","lat":43.297299,"lon":5.376861,"is_reserved":false,"is_disabled":false,"rental_uris":{"android":"levelo://app?vid=7dccf070-7a16-4652-a6a8-b31948033278","ios":"levelo://app?vid=7dccf070-7a16-4652-a6a8-b31948033278"},"vehicle_type_id":"4","last_reported":1715198851,"current_range_meters":24000,"station_id":"ce4bgkh2rcd13ifvqbl0","pricing_plan_id":"cebpf4jnsgd1na2vs0mg"},{"bike_id":"c4bc795a-f3c6-4db2-b3db-4df2a3b0f3e8","system_id":"levelo_inurba_marseille","lat":43.29735,"lon":5.37701,"is_reserved":false,"is_disabled":false,"rental_uris":{"android":"levelo://app?vid=c4bc795a-f3c6-4db2-b3db-4df2a3b0f3e8","ios":"levelo://app?vid=c4bc795a-f3c6-4db2-b3db-4df2a3b0f3e8"},"vehicle_type_id":"4","last_reported":1715198851,"current_range_meters":0,"station_id":"ce4bgkh2rcd13ifvqbl0","pricing_plan_id":"cebpf4jnsgd1na2vs0mg"},{"bike_id":"a6ca81c8-da1c-4634-bcab-417bd73a98ea","system_id":"levelo_inurba_marseille","lat":43.29731,"lon":5.3769,"is_reserved":false,"is_disabled":false,"rental_uris":{"android":"levelo://app?vid=a6ca81c8-da1c-4634-bcab-417bd73a98ea","ios":"levelo://app?vid=a6ca81c8-da1c-4634-bcab-417bd73a98ea"},"vehicle_type_id":"4","last_reported":1715198851,"current_range_meters":8000,"station_id":"ce4bgkh2rcd13ifvqbl0","pricing_plan_id":"cebpf4jnsgd1na2vs0mg"},{"bike_id":"4318f82c-c401-4313-962b-6a185c91f224","system_id":"levelo_inurba_marseille","lat":43.29728,"lon":5.37684,"is_reserved":false,"is_disabled":false,"rental_uris":{"android":"levelo://app?vid=4318f82c-c401-4313-962b-6a185c91f224","ios":"levelo://app?vid=4318f82c-c401-4313-962b-6a185c91f224"},"vehicle_type_id":"4","last_reported":1715198851,"current_range_meters":11200,"station_id":"ce4bgkh2rcd13ifvqbl0","pricing_plan_id":"cebpf4jnsgd1na2vs0mg"},{"bike_id":"ea4e108e-64cf-4c4c-be83-7646c7a897f3","system_id":"levelo_inurba_marseille","lat":43.29724,"lon":5.37676,"is_reserved":false,"is_disabled":false,"rental_uris":{"android":"levelo://app?vid=ea4e108e-64cf-4c4c-be83-7646c7a897f3","ios":"levelo://app?vid=ea4e108e-64cf-4c4c-be83-7646c7a897f3"},"vehicle_type_id":"4","last_reported":1715198851,"current_range_meters":22400,"station_id":"ce4bgkh2rcd13ifvqbl0","pricing_plan_id":"cebpf4jnsgd1na2vs0mg"},{"bike_id":"00c39543-e877-4158-a384-8da7b67fa226","system_id":"levelo_inurba_marseille","lat":43.296921,"lon":5.376579,"is_reserved":false,"is_disabled":false,"rental_uris":{"android":"levelo://app?vid=00c39543-e877-4158-a384-8da7b67fa226","ios":"levelo://app?vid=00c39543-e877-4158-a384-8da7b67fa226"},"vehicle_type_id":"4","last_reported":1715198851,"current_range_meters":19600,"station_id":"ce4bgkh2rcd13ifvqbl0","pricing_plan_id":"cebpf4jnsgd1na2vs0mg"},{"bike_id":"4c6f2774-3e25-4f2f-9283-b15b76181d9a","system_id":"levelo_inurba_marseille","lat":43.29727,"lon":5.37687,"is_reserved":false,"is_disabled":false,"rental_uris":{"android":"levelo://app?vid=4c6f2774-3e25-4f2f-9283-b15b76181d9a","ios":"levelo://app?vid=4c6f2774-3e25-4f2f-9283-b15b76181d9a"},"vehicle_type_id":"4","last_reported":1715198851,"current_range_meters":8800,"station_id":"ce4bgkh2rcd13ifvqbl0","pricing_plan_id":"cebpf4jnsgd1na2vs0mg"},{"bike_id":"3020959b-10dc-4d0d-a333-4fbcbe89eb3d","system_id":"levelo_inurba_marseille","lat":43.29727,"lon":5.37687,"is_reserved":false,"is_disabled":false,"rental_uris":{"android":"levelo://app?vid=3020959b-10dc-4d0d-a333-4fbcbe89eb3d","ios":"levelo://app?vid=3020959b-10dc-4d0d-a333-4fbcbe89eb3d"},"vehicle_type_id":"4","last_reported":1715198851,"current_range_meters":27600,"station_id":"ce4bgkh2rcd13ifvqbl0","pricing_plan_id":"cebpf4jnsgd1na2vs0mg"},{"bike_id":"f324ba25-0a76-4a6f-9f2d-968aafec96f4","system_id":"levelo_inurba_marseille","lat":43.296935,"lon":5.376544,"is_reserved":false,"is_disabled":false,"rental_uris":{"android":"levelo://app?vid=f324ba25-0a76-4a6f-9f2d-968aafec96f4","ios":"levelo://app?vid=f324ba25-0a76-4a6f-9f2d-968aafec96f4"},"vehicle_type_id":"4","last_reported":1715198851,"current_range_meters":24000,"station_id":"ce4bgkh2rcd13ifvqbl0","pricing_plan_id":"cebpf4jnsgd1na2vs0mg"},{"bike_id":"46d7f4cb-7b55-4e0a-b28b-66c815d6124e","system_id":"levelo_inurba_marseille","lat":43.29724,"lon":5.37679,"is_reserved":false,"is_disabled":false,"rental_uris":{"android":"levelo://app?vid=46d7f4cb-7b55-4e0a-b28b-66c815d6124e","ios":"levelo://app?vid=46d7f4cb-7b55-4e0a-b28b-66c815d6124e"},"vehicle_type_id":"4","last_reported":1715198851,"current_range_meters":22400,"station_id":"ce4bgkh2rcd13ifvqbl0","pricing_plan_id":"cebpf4jnsgd1na2vs0mg"},{"bike_id":"d6b01398-45fc-4952-a03e-ad8c4eee875c","system_id":"levelo_inurba_marseille","lat":43.297304,"lon":5.376987,"is_reserved":false,"is_disabled":false,"rental_uris":{"android":"levelo://app?vid=d6b01398-45fc-4952-a03e-ad8c4eee875c","ios":"levelo://app?vid=d6b01398-45fc-4952-a03e-ad8c4eee875c"},"vehicle_type_id":"4","last_reported":1715198851,"current_range_meters":5600,"station_id":"ce4bgkh2rcd13ifvqbl0","pricing_plan_id":"cebpf4jnsgd1na2vs0mg"},{"bike_id":"e0d22461-90a0-425b-9fd5-99be78a59fef","system_id":"levelo_inurba_marseille","lat":43.29727,"lon":5.37692,"is_reserved":false,"is_disabled":false,"rental_uris":{"android":"levelo://app?vid=e0d22461-90a0-425b-9fd5-99be78a59fef","ios":"levelo://app?vid=e0d22461-90a0-425b-9fd5-99be78a59fef"},"vehicle_type_id":"4","last_reported":1715198851,"current_range_meters":25200,"station_id":"ce4bgkh2rcd13ifvqbl0","pricing_plan_id":"cebpf4jnsgd1na2vs0mg"},{"bike_id":"a77b2763-f349-46d6-88be-a49b78817437","system_id":"levelo_inurba_marseille","lat":43.29725,"lon":5.37687,"is_reserved":false,"is_disabled":false,"rental_uris":{"android":"levelo://app?vid=a77b2763-f349-46d6-88be-a49b78817437","ios":"levelo://app?vid=a77b2763-f349-46d6-88be-a49b78817437"},"vehicle_type_id":"4","last_reported":1715198851,"current_range_meters":12800,"station_id":"ce4bgkh2rcd13ifvqbl0","pricing_plan_id":"cebpf4jnsgd1na2vs0mg"},{"bike_id":"d808b9b7-1d3d-4960-aa95-23701ec1e6aa","system_id":"levelo_inurba_marseille","lat":43.296921,"lon":5.376579,"is_reserved":false,"is_disabled":false,"rental_uris":{"android":"levelo://app?vid=d808b9b7-1d3d-4960-aa95-23701ec1e6aa","ios":"levelo://app?vid=d808b9b7-1d3d-4960-aa95-23701ec1e6aa"},"vehicle_type_id":"4","last_reported":1715198851,"current_range_meters":22400,"station_id":"ce4bgkh2rcd13ifvqbl0","pricing_plan_id":"cebpf4jnsgd1na2vs0mg"},{"bike_id":"b143a15d-bd01-4164-b67d-4260b47c20c1","system_id":"levelo_inurba_marseille","lat":43.29724,"lon":5.37685,"is_reserved":false,"is_disabled":false,"rental_uris":{"android":"levelo://app?vid=b143a15d-bd01-4164-b67d-4260b47c20c1","ios":"levelo://app?vid=b143a15d-bd01-4164-b67d-4260b47c20c1"},"vehicle_type_id":"4","last_reported":1715198851,"current_range_meters":18400,"station_id":"ce4bgkh2rcd13ifvqbl0","pricing_plan_id":"cebpf4jnsgd1na2vs0mg"},{"bike_id":"c163bf5e-e2ca-468f-b631-b1f786e2447e","system_id":"levelo_inurba_marseille","lat":43.29727,"lon":5.37694,"is_reserved":false,"is_disabled":false,"rental_uris":{"android":"levelo://app?vid=c163bf5e-e2ca-468f-b631-b1f786e2447e","ios":"levelo://app?vid=c163bf5e-e2ca-468f-b631-b1f786e2447e"},"vehicle_type_id":"4","last_reported":1715198851,"current_range_meters":2800,"station_id":"ce4bgkh2rcd13ifvqbl0","pricing_plan_id":"cebpf4jnsgd1na2vs0mg"},{"bike_id":"825b60d9-ed15-4e1d-a5f8-02947ac8e0d5","system_id":"levelo_inurba_marseille","lat":43.29731,"lon":5.37706,"is_reserved":false,"is_disabled":false,"rental_uris":{"android":"levelo://app?vid=825b60d9-ed15-4e1d-a5f8-02947ac8e0d5","ios":"levelo://app?vid=825b60d9-ed15-4e1d-a5f8-02947ac8e0d5"},"vehicle_type_id":"4","last_reported":1715198851,"current_range_meters":20800,"station_id":"ce4bgkh2rcd13ifvqbl0","pricing_plan_id":"cebpf4jnsgd1na2vs0mg"},{"bike_id":"e6a28509-659f-4717-b19c-8fe1870b90cf","system_id":"levelo_inurba_marseille","lat":43.29729,"lon":5.37702,"is_reserved":false,"is_disabled":false,"rental_uris":{"android":"levelo://app?vid=e6a28509-659f-4717-b19c-8fe1870b90cf","ios":"levelo://app?vid=e6a28509-659f-4717-b19c-8fe1870b90cf"},"vehicle_type_id":"4","last_reported":1715198851,"current_range_meters":11600,"station_id":"ce4bgkh2rcd13ifvqbl0","pricing_plan_id":"cebpf4jnsgd1na2vs0mg"},{"bike_id":"eb7b1c49-e786-4fa0-94d4-458afbe2a823","system_id":"levelo_inurba_marseille","lat":43.297223,"lon":5.376869,"is_reserved":false,"is_disabled":false,"rental_uris":{"android":"levelo://app?vid=eb7b1c49-e786-4fa0-94d4-458afbe2a823","ios":"levelo://app?vid=eb7b1c49-e786-4fa0-94d4-458afbe2a823"},"vehicle_type_id":"4","last_reported":1715198851,"current_range_meters":24800,"station_id":"ce4bgkh2rcd13ifvqbl0","pricing_plan_id":"cebpf4jnsgd1na2vs0mg"},{"bike_id":"5d58ed2c-85e3-469a-b95c-1c01ed6e0616","system_id":"levelo_inurba_marseille","lat":43.29723,"lon":5.37689,"is_reserved":false,"is_disabled":false,"rental_uris":{"android":"levelo://app?vid=5d58ed2c-85e3-469a-b95c-1c01ed6e0616","ios":"levelo://app?vid=5d58ed2c-85e3-469a-b95c-1c01ed6e0616"},"vehicle_type_id":"4","last_reported":1715198851,"current_range_meters":1200,"station_id":"ce4bgkh2rcd13ifvqbl0","pricing_plan_id":"cebpf4jnsgd1na2vs0mg"},{"bike_id":"64741560-c138-4d13-bbfa-ea2b52e39996","system_id":"levelo_inurba_marseille","lat":43.29721,"lon":5.37684,"is_reserved":false,"is_disabled":false,"rental_uris":{"android":"levelo://app?vid=64741560-c138-4d13-bbfa-ea2b52e39996","ios":"levelo://app?vid=64741560-c138-4d13-bbfa-ea2b52e39996"},"vehicle_type_id":"4","last_reported":1715198851,"current_range_meters":4800,"station_id":"ce4bgkh2rcd13ifvqbl0","pricing_plan_id":"cebpf4jnsgd1na2vs0mg"},{"bike_id":"fa06ca98-3165-4bb0-8f52-6941edad0f73","system_id":"levelo_inurba_marseille","lat":43.29726,"lon":5.37699,"is_reserved":false,"is_disabled":false,"rental_uris":{"android":"levelo://app?vid=fa06ca98-3165-4bb0-8f52-6941edad0f73","ios":"levelo://app?vid=fa06ca98-3165-4bb0-8f52-6941edad0f73"},"vehicle_type_id":"4","last_reported":1715198851,"current_range_meters":28400,"station_id":"ce4bgkh2rcd13ifvqbl0","pricing_plan_id":"cebpf4jnsgd1na2vs0mg"},{"bike_id":"4af89f0a-0b75-464f-8dd6-b2953cbce3af","system_id":"levelo_inurba_marseille","lat":43.296921,"lon":5.376579,"is_reserved":false,"is_disabled":false,"rental_uris":{"android":"levelo://app?vid=4af89f0a-0b75-464f-8dd6-b2953cbce3af","ios":"levelo://app?vid=4af89f0a-0b75-464f-8dd6-b2953cbce3af"},"vehicle_type_id":"4","last_reported":1715198851,"current_range_meters":6800,"station_id":"ce4bgkh2rcd13ifvqbl0","pricing_plan_id":"cebpf4jnsgd1na2vs0mg"},{"bike_id":"7d2879aa-ad2a-4865-bc06-31003e6f9d30","system_id":"levelo_inurba_marseille","lat":43.29723,"lon":5.37692,"is_reserved":false,"is_disabled":false,"rental_uris":{"android":"levelo://app?vid=7d2879aa-ad2a-4865-bc06-31003e6f9d30","ios":"levelo://app?vid=7d2879aa-ad2a-4865-bc06-31003e6f9d30"},"vehicle_type_id":"4","last_reported":1715198851,"current_range_meters":18400,"station_id":"ce4bgkh2rcd13ifvqbl0","pricing_plan_id":"cebpf4jnsgd1na2vs0mg"},{"bike_id":"4c16e26a-a61a-460e-b384-225ae4776f57","system_id":"levelo_inurba_marseille","lat":43.296921,"lon":5.376579,"is_reserved":false,"is_disabled":false,"rental_uris":{"android":"levelo://app?vid=4c16e26a-a61a-460e-b384-225ae4776f57","ios":"levelo://app?vid=4c16e26a-a61a-460e-b384-225ae4776f57"},"vehicle_type_id":"4","last_reported":1715198851,"current_range_meters":10000,"station_id":"ce4bgkh2rcd13ifvqbl0","pricing_plan_id":"cebpf4jnsgd1na2vs0mg"},{"bike_id":"d6ba7821-4e9f-44c3-9e82-961142368d5b","system_id":"levelo_inurba_marseille","lat":43.29723,"lon":5.37693,"is_reserved":false,"is_disabled":false,"rental_uris":{"android":"levelo://app?vid=d6ba7821-4e9f-44c3-9e82-961142368d5b","ios":"levelo://app?vid=d6ba7821-4e9f-44c3-9e82-961142368d5b"},"vehicle_type_id":"4","last_reported":1715198851,"current_range_meters":22800,"station_id":"ce4bgkh2rcd13ifvqbl0","pricing_plan_id":"cebpf4jnsgd1na2vs0mg"},{"bike_id":"6821201f-f6d9-4e2d-b401-036e38509b3a","system_id":"levelo_inurba_marseille","lat":43.29723,"lon":5.37694,"is_reserved":false,"is_disabled":false,"rental_uris":{"android":"levelo://app?vid=6821201f-f6d9-4e2d-b401-036e38509b3a","ios":"levelo://app?vid=6821201f-f6d9-4e2d-b401-036e38509b3a"},"vehicle_type_id":"4","last_reported":1715198851,"current_range_meters":14000,"station_id":"ce4bgkh2rcd13ifvqbl0","pricing_plan_id":"cebpf4jnsgd1na2vs0mg"},{"bike_id":"9a521f91-178a-448c-9967-08bde07cd83e","system_id":"levelo_inurba_marseille","lat":43.297247,"lon":5.37699,"is_reserved":false,"is_disabled":false,"rental_uris":{"android":"levelo://app?vid=9a521f91-178a-448c-9967-08bde07cd83e","ios":"levelo://app?vid=9a521f91-178a-448c-9967-08bde07cd83e"},"vehicle_type_id":"4","last_reported":1715198851,"current_range_meters":400,"station_id":"ce4bgkh2rcd13ifvqbl0","pricing_plan_id":"cebpf4jnsgd1na2vs0mg"},{"bike_id":"01ded26a-aeed-41b0-b322-e9c6ee3a9250","system_id":"levelo_inurba_marseille","lat":43.296921,"lon":5.376579,"is_reserved":false,"is_disabled":false,"rental_uris":{"android":"levelo://app?vid=01ded26a-aeed-41b0-b322-e9c6ee3a9250","ios":"levelo://app?vid=01ded26a-aeed-41b0-b322-e9c6ee3a9250"},"vehicle_type_id":"4","last_reported":1715198851,"current_range_meters":31200,"station_id":"ce4bgkh2rcd13ifvqbl0","pricing_plan_id":"cebpf4jnsgd1na2vs0mg"},{"bike_id":"b54f9c14-42be-4e61-806d-eb806026435f","system_id":"levelo_inurba_marseille","lat":43.29722,"lon":5.37693,"is_reserved":false,"is_disabled":false,"rental_uris":{"android":"levelo://app?vid=b54f9c14-42be-4e61-806d-eb806026435f","ios":"levelo://app?vid=b54f9c14-42be-4e61-806d-eb806026435f"},"vehicle_type_id":"4","last_reported":1715198851,"current_range_meters":2800,"station_id":"ce4bgkh2rcd13ifvqbl0","pricing_plan_id":"cebpf4jnsgd1na2vs0mg"},{"bike_id":"207b949a-5474-401d-86c0-87f3f0d717d9","system_id":"levelo_inurba_marseille","lat":43.29721,"lon":5.37691,"is_reserved":false,"is_disabled":false,"rental_uris":{"android":"levelo://app?vid=207b949a-5474-401d-86c0-87f3f0d717d9","ios":"levelo://app?vid=207b949a-5474-401d-86c0-87f3f0d717d9"},"vehicle_type_id":"4","last_reported":1715198851,"current_range_meters":7600,"station_id":"ce4bgkh2rcd13ifvqbl0","pricing_plan_id":"cebpf4jnsgd1na2vs0mg"},{"bike_id":"721e1906-f616-46a2-9f3e-f89838a44e38","system_id":"levelo_inurba_marseille","lat":43.29721,"lon":5.37692,"is_reserved":false,"is_disabled":false,"rental_uris":{"android":"levelo://app?vid=721e1906-f616-46a2-9f3e-f89838a44e38","ios":"levelo://app?vid=721e1906-f616-46a2-9f3e-f89838a44e38"},"vehicle_type_id":"4","last_reported":1715198851,"current_range_meters":24800,"station_id":"ce4bgkh2rcd13ifvqbl0","pricing_plan_id":"cebpf4jnsgd1na2vs0mg"},{"bike_id":"0c0616f8-6201-4e91-9cf9-3fbcdaab5dfd","system_id":"levelo_inurba_marseille","lat":43.29719,"lon":5.37691,"is_reserved":false,"is_disabled":false,"rental_uris":{"android":"levelo://app?vid=0c0616f8-6201-4e91-9cf9-3fbcdaab5dfd","ios":"levelo://app?vid=0c0616f8-6201-4e91-9cf9-3fbcdaab5dfd"},"vehicle_type_id":"4","last_reported":1715198851,"current_range_meters":4800,"station_id":"ce4bgkh2rcd13ifvqbl0","pricing_plan_id":"cebpf4jnsgd1na2vs0mg"},{"bike_id":"a0edcede-7e25-45db-9bc0-1b8f7484a0a7","system_id":"levelo_inurba_marseille","lat":43.29721,"lon":5.37698,"is_reserved":false,"is_disabled":false,"rental_uris":{"android":"levelo://app?vid=a0edcede-7e25-45db-9bc0-1b8f7484a0a7","ios":"levelo://app?vid=a0edcede-7e25-45db-9bc0-1b8f7484a0a7"},"vehicle_type_id":"4","last_reported":1715198851,"current_range_meters":22800,"station_id":"ce4bgkh2rcd13ifvqbl0","pricing_plan_id":"cebpf4jnsgd1na2vs0mg"},{"bike_id":"d8b7170a-6fe3-4c29-8201-fb122c0c5c3b","system_id":"levelo_inurba_marseille","lat":43.29721,"lon":5.37698,"is_reserved":false,"is_disabled":false,"rental_uris":{"android":"levelo://app?vid=d8b7170a-6fe3-4c29-8201-fb122c0c5c3b","ios":"levelo://app?vid=d8b7170a-6fe3-4c29-8201-fb122c0c5c3b"},"vehicle_type_id":"4","last_reported":1715198851,"current_range_meters":21600,"station_id":"ce4bgkh2rcd13ifvqbl0","pricing_plan_id":"cebpf4jnsgd1na2vs0mg"},{"bike_id":"e046acbb-58ed-482b-a5ec-99e71545eab7","system_id":"levelo_inurba_marseille","lat":43.297301,"lon":5.377256,"is_reserved":false,"is_disabled":false,"rental_uris":{"android":"levelo://app?vid=e046acbb-58ed-482b-a5ec-99e71545eab7","ios":"levelo://app?vid=e046acbb-58ed-482b-a5ec-99e71545eab7"},"vehicle_type_id":"4","last_reported":1715198851,"current_range_meters":14400,"station_id":"ce4bgkh2rcd13ifvqbl0","pricing_plan_id":"cebpf4jnsgd1na2vs0mg"},{"bike_id":"504474d4-03d9-414e-9581-b3aeb9627a10","system_id":"levelo_inurba_marseille","lat":43.29722,"lon":5.37704,"is_reserved":false,"is_disabled":false,"rental_uris":{"android":"levelo://app?vid=504474d4-03d9-414e-9581-b3aeb9627a10","ios":"levelo://app?vid=504474d4-03d9-414e-9581-b3aeb9627a10"},"vehicle_type_id":"4","last_reported":1715198851,"current_range_meters":27600,"station_id":"ce4bgkh2rcd13ifvqbl0","pricing_plan_id":"cebpf4jnsgd1na2vs0mg"},{"bike_id":"68e98df2-6e28-40e1-b14e-08d2ec2ca3d3","system_id":"levelo_inurba_marseille","lat":43.2972,"lon":5.377,"is_reserved":false,"is_disabled":false,"rental_uris":{"android":"levelo://app?vid=68e98df2-6e28-40e1-b14e-08d2ec2ca3d3","ios":"levelo://app?vid=68e98df2-6e28-40e1-b14e-08d2ec2ca3d3"},"vehicle_type_id":"4","last_reported":1715198851,"current_range_meters":3200,"station_id":"ce4bgkh2rcd13ifvqbl0","pricing_plan_id":"cebpf4jnsgd1na2vs0mg"},{"bike_id":"b4bd47f7-c73e-42aa-a464-7f50b9237c5f","system_id":"levelo_inurba_marseille","lat":43.297204,"lon":5.377014,"is_reserved":false,"is_disabled":false,"rental_uris":{"android":"levelo://app?vid=b4bd47f7-c73e-42aa-a464-7f50b9237c5f","ios":"levelo://app?vid=b4bd47f7-c73e-42aa-a464-7f50b9237c5f"},"vehicle_type_id":"4","last_reported":1715198851,"current_range_meters":7200,"station_id":"ce4bgkh2rcd13ifvqbl0","pricing_plan_id":"cebpf4jnsgd1na2vs0mg"},{"bike_id":"acfb04e6-0ae6-4bbe-9135-6049c38fac33","system_id":"levelo_inurba_marseille","lat":43.29721,"lon":5.377034,"is_reserved":false,"is_disabled":false,"rental_uris":{"android":"levelo://app?vid=acfb04e6-0ae6-4bbe-9135-6049c38fac33","ios":"levelo://app?vid=acfb04e6-0ae6-4bbe-9135-6049c38fac33"},"vehicle_type_id":"4","last_reported":1715198851,"current_range_meters":25600,"station_id":"ce4bgkh2rcd13ifvqbl0","pricing_plan_id":"cebpf4jnsgd1na2vs0mg"},{"bike_id":"92f1e498-2e1e-4368-b66c-09b7b968751a","system_id":"levelo_inurba_marseille","lat":43.29718,"lon":5.376954,"is_reserved":false,"is_disabled":false,"rental_uris":{"android":"levelo://app?vid=92f1e498-2e1e-4368-b66c-09b7b968751a","ios":"levelo://app?vid=92f1e498-2e1e-4368-b66c-09b7b968751a"},"vehicle_type_id":"4","last_reported":1715198851,"current_range_meters":3600,"station_id":"ce4bgkh2rcd13ifvqbl0","pricing_plan_id":"cebpf4jnsgd1na2vs0mg"},{"bike_id":"e378d452-19a0-42ab-a09d-3763f1df265b","system_id":"levelo_inurba_marseille","lat":43.297214,"lon":5.377059,"is_reserved":false,"is_disabled":false,"rental_uris":{"android":"levelo://app?vid=e378d452-19a0-42ab-a09d-3763f1df265b","ios":"levelo://app?vid=e378d452-19a0-42ab-a09d-3763f1df265b"},"vehicle_type_id":"4","last_reported":1715198851,"current_range_meters":28000,"station_id":"ce4bgkh2rcd13ifvqbl0","pricing_plan_id":"cebpf4jnsgd1na2vs0mg"},{"bike_id":"126086d8-b581-451e-ab03-1dec81ebaa77","system_id":"levelo_inurba_marseille","lat":43.29719,"lon":5.37699,"is_reserved":false,"is_disabled":false,"rental_uris":{"android":"levelo://app?vid=126086d8-b581-451e-ab03-1dec81ebaa77","ios":"levelo://app?vid=126086d8-b581-451e-ab03-1dec81ebaa77"},"vehicle_type_id":"4","last_reported":1715198851,"current_range_meters":26000,"station_id":"ce4bgkh2rcd13ifvqbl0","pricing_plan_id":"cebpf4jnsgd1na2vs0mg"},{"bike_id":"a6449107-d1da-4453-872f-9a48f7a60aaf","system_id":"levelo_inurba_marseille","lat":43.29724,"lon":5.37714,"is_reserved":false,"is_disabled":false,"rental_uris":{"android":"levelo://app?vid=a6449107-d1da-4453-872f-9a48f7a60aaf","ios":"levelo://app?vid=a6449107-d1da-4453-872f-9a48f7a60aaf"},"vehicle_type_id":"4","last_reported":1715198851,"current_range_meters":26000,"station_id":"ce4bgkh2rcd13ifvqbl0","pricing_plan_id":"cebpf4jnsgd1na2vs0mg"},{"bike_id":"34169df6-a685-4961-b1e4-cad7d27c14da","system_id":"levelo_inurba_marseille","lat":43.29722,"lon":5.37709,"is_reserved":false,"is_disabled":false,"rental_uris":{"android":"levelo://app?vid=34169df6-a685-4961-b1e4-cad7d27c14da","ios":"levelo://app?vid=34169df6-a685-4961-b1e4-cad7d27c14da"},"vehicle_type_id":"4","last_reported":1715198851,"current_range_meters":18800,"station_id":"ce4bgkh2rcd13ifvqbl0","pricing_plan_id":"cebpf4jnsgd1na2vs0mg"},{"bike_id":"f7700933-202b-4daf-ade6-7de49b49bb7b","system_id":"levelo_inurba_marseille","lat":43.29716,"lon":5.37696,"is_reserved":false,"is_disabled":false,"rental_uris":{"android":"levelo://app?vid=f7700933-202b-4daf-ade6-7de49b49bb7b","ios":"levelo://app?vid=f7700933-202b-4daf-ade6-7de49b49bb7b"},"vehicle_type_id":"4","last_reported":1715198851,"current_range_meters":11200,"station_id":"ce4bgkh2rcd13ifvqbl0","pricing_plan_id":"cebpf4jnsgd1na2vs0mg"},{"bike_id":"3bf4325a-8029-4288-ae69-7954c278292f","system_id":"levelo_inurba_marseille","lat":43.29715,"lon":5.37694,"is_reserved":false,"is_disabled":false,"rental_uris":{"android":"levelo://app?vid=3bf4325a-8029-4288-ae69-7954c278292f","ios":"levelo://app?vid=3bf4325a-8029-4288-ae69-7954c278292f"},"vehicle_type_id":"4","last_reported":1715198851,"current_range_meters":20800,"station_id":"ce4bgkh2rcd13ifvqbl0","pricing_plan_id":"cebpf4jnsgd1na2vs0mg"},{"bike_id":"fdf3d126-0a5a-434d-a9a5-af1efeef8857","system_id":"levelo_inurba_marseille","lat":43.29714,"lon":5.37693,"is_reserved":false,"is_disabled":false,"rental_uris":{"android":"levelo://app?vid=fdf3d126-0a5a-434d-a9a5-af1efeef8857","ios":"levelo://app?vid=fdf3d126-0a5a-434d-a9a5-af1efeef8857"},"vehicle_type_id":"4","last_reported":1715198851,"current_range_meters":17200,"station_id":"ce4bgkh2rcd13ifvqbl0","pricing_plan_id":"cebpf4jnsgd1na2vs0mg"},{"bike_id":"dfafdf2f-c266-43ac-b52e-f67b9cfa9c7c","system_id":"levelo_inurba_marseille","lat":43.29721,"lon":5.37715,"is_reserved":false,"is_disabled":false,"rental_uris":{"android":"levelo://app?vid=dfafdf2f-c266-43ac-b52e-f67b9cfa9c7c","ios":"levelo://app?vid=dfafdf2f-c266-43ac-b52e-f67b9cfa9c7c"},"vehicle_type_id":"4","last_reported":1715198851,"current_range_meters":26800,"station_id":"ce4bgkh2rcd13ifvqbl0","pricing_plan_id":"cebpf4jnsgd1na2vs0mg"},{"bike_id":"cc0c18a4-63e6-4e30-95db-c9db818bb319","system_id":"levelo_inurba_marseille","lat":43.29714,"lon":5.376962,"is_reserved":false,"is_disabled":false,"rental_uris":{"android":"levelo://app?vid=cc0c18a4-63e6-4e30-95db-c9db818bb319","ios":"levelo://app?vid=cc0c18a4-63e6-4e30-95db-c9db818bb319"},"vehicle_type_id":"4","last_reported":1715198851,"current_range_meters":26000,"station_id":"ce4bgkh2rcd13ifvqbl0","pricing_plan_id":"cebpf4jnsgd1na2vs0mg"},{"bike_id":"7b604cd6-f854-4ded-8fc3-d2643f780de4","system_id":"levelo_inurba_marseille","lat":43.2972,"lon":5.37714,"is_reserved":false,"is_disabled":false,"rental_uris":{"android":"levelo://app?vid=7b604cd6-f854-4ded-8fc3-d2643f780de4","ios":"levelo://app?vid=7b604cd6-f854-4ded-8fc3-d2643f780de4"},"vehicle_type_id":"4","last_reported":1715198851,"current_range_meters":9200,"station_id":"ce4bgkh2rcd13ifvqbl0","pricing_plan_id":"cebpf4jnsgd1na2vs0mg"},{"bike_id":"30e58cab-d3f0-4a36-aadf-f0fbb04aff1e","system_id":"levelo_inurba_marseille","lat":43.297178,"lon":5.377082,"is_reserved":false,"is_disabled":false,"rental_uris":{"android":"levelo://app?vid=30e58cab-d3f0-4a36-aadf-f0fbb04aff1e","ios":"levelo://app?vid=30e58cab-d3f0-4a36-aadf-f0fbb04aff1e"},"vehicle_type_id":"4","last_reported":1715198851,"current_range_meters":14000,"station_id":"ce4bgkh2rcd13ifvqbl0","pricing_plan_id":"cebpf4jnsgd1na2vs0mg"},{"bike_id":"af1b77ae-c837-46a1-903b-0202d0b0ca64","system_id":"levelo_inurba_marseille","lat":43.29717,"lon":5.37707,"is_reserved":false,"is_disabled":false,"rental_uris":{"android":"levelo://app?vid=af1b77ae-c837-46a1-903b-0202d0b0ca64","ios":"levelo://app?vid=af1b77ae-c837-46a1-903b-0202d0b0ca64"},"vehicle_type_id":"4","last_reported":1715198851,"current_range_meters":25200,"station_id":"ce4bgkh2rcd13ifvqbl0","pricing_plan_id":"cebpf4jnsgd1na2vs0mg"},{"bike_id":"846cb1fb-7359-4170-aa06-396b3a867e97","system_id":"levelo_inurba_marseille","lat":43.29718,"lon":5.3771,"is_reserved":false,"is_disabled":false,"rental_uris":{"android":"levelo://app?vid=846cb1fb-7359-4170-aa06-396b3a867e97","ios":"levelo://app?vid=846cb1fb-7359-4170-aa06-396b3a867e97"},"vehicle_type_id":"4","last_reported":1715198851,"current_range_meters":18400,"station_id":"ce4bgkh2rcd13ifvqbl0","pricing_plan_id":"cebpf4jnsgd1na2vs0mg"},{"bike_id":"6387d791-46d4-4f66-ac9d-451f1138ee2c","system_id":"levelo_inurba_marseille","lat":43.29714,"lon":5.37699,"is_reserved":false,"is_disabled":false,"rental_uris":{"android":"levelo://app?vid=6387d791-46d4-4f66-ac9d-451f1138ee2c","ios":"levelo://app?vid=6387d791-46d4-4f66-ac9d-451f1138ee2c"},"vehicle_type_id":"4","last_reported":1715198851,"current_range_meters":18800,"station_id":"ce4bgkh2rcd13ifvqbl0","pricing_plan_id":"cebpf4jnsgd1na2vs0mg"},{"bike_id":"c9f10882-d80d-44b4-a25b-6506049cd00a","system_id":"levelo_inurba_marseille","lat":43.29719,"lon":5.37714,"is_reserved":false,"is_disabled":false,"rental_uris":{"android":"levelo://app?vid=c9f10882-d80d-44b4-a25b-6506049cd00a","ios":"levelo://app?vid=c9f10882-d80d-44b4-a25b-6506049cd00a"},"vehicle_type_id":"4","last_reported":1715198851,"current_range_meters":10800,"station_id":"ce4bgkh2rcd13ifvqbl0","pricing_plan_id":"cebpf4jnsgd1na2vs0mg"},{"bike_id":"1e146810-3937-4be6-a856-ebc57714f15a","system_id":"levelo_inurba_marseille","lat":43.29723,"lon":5.37726,"is_reserved":false,"is_disabled":false,"rental_uris":{"android":"levelo://app?vid=1e146810-3937-4be6-a856-ebc57714f15a","ios":"levelo://app?vid=1e146810-3937-4be6-a856-ebc57714f15a"},"vehicle_type_id":"4","last_reported":1715198851,"current_range_meters":18400,"station_id":"ce4bgkh2rcd13ifvqbl0","pricing_plan_id":"cebpf4jnsgd1na2vs0mg"},{"bike_id":"a8c0e7c4-c394-401d-acb5-a2741ee5c9e1","system_id":"levelo_inurba_marseille","lat":43.296935,"lon":5.376544,"is_reserved":false,"is_disabled":false,"rental_uris":{"android":"levelo://app?vid=a8c0e7c4-c394-401d-acb5-a2741ee5c9e1","ios":"levelo://app?vid=a8c0e7c4-c394-401d-acb5-a2741ee5c9e1"},"vehicle_type_id":"4","last_reported":1715198851,"current_range_meters":28000,"station_id":"ce4bgkh2rcd13ifvqbl0","pricing_plan_id":"cebpf4jnsgd1na2vs0mg"},{"bike_id":"c8bfca13-02a2-444e-b075-913e8b226be7","system_id":"levelo_inurba_marseille","lat":43.297155,"lon":5.377065,"is_reserved":false,"is_disabled":false,"rental_uris":{"android":"levelo://app?vid=c8bfca13-02a2-444e-b075-913e8b226be7","ios":"levelo://app?vid=c8bfca13-02a2-444e-b075-913e8b226be7"},"vehicle_type_id":"4","last_reported":1715198851,"current_range_meters":23600,"station_id":"ce4bgkh2rcd13ifvqbl0","pricing_plan_id":"cebpf4jnsgd1na2vs0mg"},{"bike_id":"243a6c6d-0964-4626-b1ab-0a2929aa6a5a","system_id":"levelo_inurba_marseille","lat":43.297177,"lon":5.377134,"is_reserved":false,"is_disabled":false,"rental_uris":{"android":"levelo://app?vid=243a6c6d-0964-4626-b1ab-0a2929aa6a5a","ios":"levelo://app?vid=243a6c6d-0964-4626-b1ab-0a2929aa6a5a"},"vehicle_type_id":"4","last_reported":1715198851,"current_range_meters":23600,"station_id":"ce4bgkh2rcd13ifvqbl0","pricing_plan_id":"cebpf4jnsgd1na2vs0mg"},{"bike_id":"e5491dc5-fe48-4e80-bb94-29143ca3ba00","system_id":"levelo_inurba_marseille","lat":43.29717,"lon":5.37712,"is_reserved":false,"is_disabled":false,"rental_uris":{"android":"levelo://app?vid=e5491dc5-fe48-4e80-bb94-29143ca3ba00","ios":"levelo://app?vid=e5491dc5-fe48-4e80-bb94-29143ca3ba00"},"vehicle_type_id":"4","last_reported":1715198851,"current_range_meters":15200,"station_id":"ce4bgkh2rcd13ifvqbl0","pricing_plan_id":"cebpf4jnsgd1na2vs0mg"},{"bike_id":"930e4924-1115-4f65-b389-ed4c304a01cf","system_id":"levelo_inurba_marseille","lat":43.29718,"lon":5.37715,"is_reserved":false,"is_disabled":false,"rental_uris":{"android":"levelo://app?vid=930e4924-1115-4f65-b389-ed4c304a01cf","ios":"levelo://app?vid=930e4924-1115-4f65-b389-ed4c304a01cf"},"vehicle_type_id":"4","last_reported":1715198851,"current_range_meters":7600,"station_id":"ce4bgkh2rcd13ifvqbl0","pricing_plan_id":"cebpf4jnsgd1na2vs0mg"},{"bike_id":"9c47d86b-2248-498e-ba49-620a22706afb","system_id":"levelo_inurba_marseille","lat":43.297177,"lon":5.377153,"is_reserved":false,"is_disabled":false,"rental_uris":{"android":"levelo://app?vid=9c47d86b-2248-498e-ba49-620a22706afb","ios":"levelo://app?vid=9c47d86b-2248-498e-ba49-620a22706afb"},"vehicle_type_id":"4","last_reported":1715198851,"current_range_meters":8400,"station_id":"ce4bgkh2rcd13ifvqbl0","pricing_plan_id":"cebpf4jnsgd1na2vs0mg"},{"bike_id":"1856873e-90b7-40d2-ae39-d046a487a8ce","system_id":"levelo_inurba_marseille","lat":43.297114,"lon":5.376971,"is_reserved":false,"is_disabled":false,"rental_uris":{"android":"levelo://app?vid=1856873e-90b7-40d2-ae39-d046a487a8ce","ios":"levelo://app?vid=1856873e-90b7-40d2-ae39-d046a487a8ce"},"vehicle_type_id":"4","last_reported":1715198851,"current_range_meters":25600,"station_id":"ce4bgkh2rcd13ifvqbl0","pricing_plan_id":"cebpf4jnsgd1na2vs0mg"},{"bike_id":"d4e2aa43-d56d-4c36-bc59-138fd6567e8f","system_id":"levelo_inurba_marseille","lat":43.299028,"lon":5.381509,"is_reserved":false,"is_disabled":false,"rental_uris":{"android":"levelo://app?vid=d4e2aa43-d56d-4c36-bc59-138fd6567e8f","ios":"levelo://app?vid=d4e2aa43-d56d-4c36-bc59-138fd6567e8f"},"vehicle_type_id":"4","last_reported":1715198851,"current_range_meters":22000,"station_id":"ce4bgj12rcd13ifvqbc0","pricing_plan_id":"cebpf4jnsgd1na2vs0mg"},{"bike_id":"aacfe9cf-fa29-411c-a5e9-7ffbdfc8adbe","system_id":"levelo_inurba_marseille","lat":43.29717,"lon":5.37717,"is_reserved":false,"is_disabled":false,"rental_uris":{"android":"levelo://app?vid=aacfe9cf-fa29-411c-a5e9-7ffbdfc8adbe","ios":"levelo://app?vid=aacfe9cf-fa29-411c-a5e9-7ffbdfc8adbe"},"vehicle_type_id":"4","last_reported":1715198851,"current_range_meters":11600,"station_id":"ce4bgkh2rcd13ifvqbl0","pricing_plan_id":"cebpf4jnsgd1na2vs0mg"},{"bike_id":"1611673d-30a5-4e38-8d16-cad9c17bd86f","system_id":"levelo_inurba_marseille","lat":43.29711,"lon":5.377,"is_reserved":false,"is_disabled":false,"rental_uris":{"android":"levelo://app?vid=1611673d-30a5-4e38-8d16-cad9c17bd86f","ios":"levelo://app?vid=1611673d-30a5-4e38-8d16-cad9c17bd86f"},"vehicle_type_id":"4","last_reported":1715198851,"current_range_meters":12800,"station_id":"ce4bgkh2rcd13ifvqbl0","pricing_plan_id":"cebpf4jnsgd1na2vs0mg"},{"bike_id":"ee2f61ae-c977-4841-bd52-2d9f2a48e95a","system_id":"levelo_inurba_marseille","lat":43.297085,"lon":5.376928,"is_reserved":false,"is_disabled":false,"rental_uris":{"android":"levelo://app?vid=ee2f61ae-c977-4841-bd52-2d9f2a48e95a","ios":"levelo://app?vid=ee2f61ae-c977-4841-bd52-2d9f2a48e95a"},"vehicle_type_id":"4","last_reported":1715198851,"current_range_meters":8400,"station_id":"ce4bgkh2rcd13ifvqbl0","pricing_plan_id":"cebpf4jnsgd1na2vs0mg"},{"bike_id":"ad46542f-c49a-4601-8608-7f3af783263d","system_id":"levelo_inurba_marseille","lat":43.29713,"lon":5.37707,"is_reserved":false,"is_disabled":false,"rental_uris":{"android":"levelo://app?vid=ad46542f-c49a-4601-8608-7f3af783263d","ios":"levelo://app?vid=ad46542f-c49a-4601-8608-7f3af783263d"},"vehicle_type_id":"4","last_reported":1715198851,"current_range_meters":2000,"station_id":"ce4bgkh2rcd13ifvqbl0","pricing_plan_id":"cebpf4jnsgd1na2vs0mg"},{"bike_id":"7c3baf6b-13b8-4cc8-a0a7-72ba385b76b9","system_id":"levelo_inurba_marseille","lat":43.297073,"lon":5.37694,"is_reserved":false,"is_disabled":false,"rental_uris":{"android":"levelo://app?vid=7c3baf6b-13b8-4cc8-a0a7-72ba385b76b9","ios":"levelo://app?vid=7c3baf6b-13b8-4cc8-a0a7-72ba385b76b9"},"vehicle_type_id":"4","last_reported":1715198851,"current_range_meters":18800,"station_id":"ce4bgkh2rcd13ifvqbl0","pricing_plan_id":"cebpf4jnsgd1na2vs0mg"},{"bike_id":"68beb7ff-98d8-4c1f-a0fc-924290aff59a","system_id":"levelo_inurba_marseille","lat":43.297001,"lon":5.376737,"is_reserved":false,"is_disabled":false,"rental_uris":{"android":"levelo://app?vid=68beb7ff-98d8-4c1f-a0fc-924290aff59a","ios":"levelo://app?vid=68beb7ff-98d8-4c1f-a0fc-924290aff59a"},"vehicle_type_id":"4","last_reported":1715198851,"current_range_meters":10800,"station_id":"ce4bgkh2rcd13ifvqbl0","pricing_plan_id":"cebpf4jnsgd1na2vs0mg"},{"bike_id":"b606e422-e23d-4ebc-a9de-c06d6634859f","system_id":"levelo_inurba_marseille","lat":43.29709,"lon":5.37704,"is_reserved":false,"is_disabled":false,"rental_uris":{"android":"levelo://app?vid=b606e422-e23d-4ebc-a9de-c06d6634859f","ios":"levelo://app?vid=b606e422-e23d-4ebc-a9de-c06d6634859f"},"vehicle_type_id":"4","last_reported":1715198851,"current_range_meters":12800,"station_id":"ce4bgkh2rcd13ifvqbl0","pricing_plan_id":"cebpf4jnsgd1na2vs0mg"},{"bike_id":"33fb775f-b4e2-4828-b1ef-f57264dfb1ab","system_id":"levelo_inurba_marseille","lat":43.29715,"lon":5.37722,"is_reserved":false,"is_disabled":false,"rental_uris":{"android":"levelo://app?vid=33fb775f-b4e2-4828-b1ef-f57264dfb1ab","ios":"levelo://app?vid=33fb775f-b4e2-4828-b1ef-f57264dfb1ab"},"vehicle_type_id":"4","last_reported":1715198851,"current_range_meters":29200,"station_id":"ce4bgkh2rcd13ifvqbl0","pricing_plan_id":"cebpf4jnsgd1na2vs0mg"},{"bike_id":"7db53f0f-cfc2-4bf8-a6d6-11ea4f512b40","system_id":"levelo_inurba_marseille","lat":43.29704,"lon":5.37691,"is_reserved":false,"is_disabled":false,"rental_uris":{"android":"levelo://app?vid=7db53f0f-cfc2-4bf8-a6d6-11ea4f512b40","ios":"levelo://app?vid=7db53f0f-cfc2-4bf8-a6d6-11ea4f512b40"},"vehicle_type_id":"4","last_reported":1715198851,"current_range_meters":19600,"station_id":"ce4bgkh2rcd13ifvqbl0","pricing_plan_id":"cebpf4jnsgd1na2vs0mg"},{"bike_id":"b438a69a-7b88-4686-9682-a3478adb8117","system_id":"levelo_inurba_marseille","lat":43.29708,"lon":5.37705,"is_reserved":false,"is_disabled":false,"rental_uris":{"android":"levelo://app?vid=b438a69a-7b88-4686-9682-a3478adb8117","ios":"levelo://app?vid=b438a69a-7b88-4686-9682-a3478adb8117"},"vehicle_type_id":"4","last_reported":1715198851,"current_range_meters":7600,"station_id":"ce4bgkh2rcd13ifvqbl0","pricing_plan_id":"cebpf4jnsgd1na2vs0mg"},{"bike_id":"85435d1f-de0f-46cf-bcc7-3f3793cbc4d7","system_id":"levelo_inurba_marseille","lat":43.29708,"lon":5.37708,"is_reserved":false,"is_disabled":false,"rental_uris":{"android":"levelo://app?vid=85435d1f-de0f-46cf-bcc7-3f3793cbc4d7","ios":"levelo://app?vid=85435d1f-de0f-46cf-bcc7-3f3793cbc4d7"},"vehicle_type_id":"4","last_reported":1715198851,"current_range_meters":9200,"station_id":"ce4bgkh2rcd13ifvqbl0","pricing_plan_id":"cebpf4jnsgd1na2vs0mg"},{"bike_id":"0942c6d4-be77-4e43-8231-056601d52af3","system_id":"levelo_inurba_marseille","lat":43.297054,"lon":5.377026,"is_reserved":false,"is_disabled":false,"rental_uris":{"android":"levelo://app?vid=0942c6d4-be77-4e43-8231-056601d52af3","ios":"levelo://app?vid=0942c6d4-be77-4e43-8231-056601d52af3"},"vehicle_type_id":"4","last_reported":1715198851,"current_range_meters":10800,"station_id":"","pricing_plan_id":"cebpf4jnsgd1na2vs0mg"},{"bike_id":"91f0368d-cf7f-4874-817d-d943dfd03e43","system_id":"levelo_inurba_marseille","lat":43.2971,"lon":5.37724,"is_reserved":false,"is_disabled":false,"rental_uris":{"android":"levelo://app?vid=91f0368d-cf7f-4874-817d-d943dfd03e43","ios":"levelo://app?vid=91f0368d-cf7f-4874-817d-d943dfd03e43"},"vehicle_type_id":"4","last_reported":1715198851,"current_range_meters":15200,"station_id":"ce4bgkh2rcd13ifvqbl0","pricing_plan_id":"cebpf4jnsgd1na2vs0mg"},{"bike_id":"4c8f1fe9-4744-4f6c-9359-7ba08f0bab48","system_id":"levelo_inurba_marseille","lat":43.297063,"lon":5.377181,"is_reserved":false,"is_disabled":false,"rental_uris":{"android":"levelo://app?vid=4c8f1fe9-4744-4f6c-9359-7ba08f0bab48","ios":"levelo://app?vid=4c8f1fe9-4744-4f6c-9359-7ba08f0bab48"},"vehicle_type_id":"4","last_reported":1715198851,"current_range_meters":10400,"station_id":"ce4bgkh2rcd13ifvqbl0","pricing_plan_id":"cebpf4jnsgd1na2vs0mg"},{"bike_id":"68d9bf89-24e5-4379-afb4-ca09977ac9d2","system_id":"levelo_inurba_marseille","lat":43.31752,"lon":5.39009,"is_reserved":false,"is_disabled":false,"rental_uris":{"android":"levelo://app?vid=68d9bf89-24e5-4379-afb4-ca09977ac9d2","ios":"levelo://app?vid=68d9bf89-24e5-4379-afb4-ca09977ac9d2"},"vehicle_type_id":"4","last_reported":1715198851,"current_range_meters":28800,"station_id":"ce4bhqp2rcd13ifvqhng","pricing_plan_id":"cebpf4jnsgd1na2vs0mg"},{"bike_id":"7ae36dd0-1870-46d6-b80b-2fca3ac6b075","system_id":"levelo_inurba_marseille","lat":43.299108,"lon":5.38215,"is_reserved":false,"is_disabled":false,"rental_uris":{"android":"levelo://app?vid=7ae36dd0-1870-46d6-b80b-2fca3ac6b075","ios":"levelo://app?vid=7ae36dd0-1870-46d6-b80b-2fca3ac6b075"},"vehicle_type_id":"4","last_reported":1715198851,"current_range_meters":5200,"station_id":"ce4bgj12rcd13ifvqbc0","pricing_plan_id":"cebpf4jnsgd1na2vs0mg"},{"bike_id":"8e3aed27-8fbb-4acf-9ce2-be7fa844dc66","system_id":"levelo_inurba_marseille","lat":43.317557,"lon":5.390173,"is_reserved":false,"is_disabled":false,"rental_uris":{"android":"levelo://app?vid=8e3aed27-8fbb-4acf-9ce2-be7fa844dc66","ios":"levelo://app?vid=8e3aed27-8fbb-4acf-9ce2-be7fa844dc66"},"vehicle_type_id":"4","last_reported":1715198851,"current_range_meters":2000,"station_id":"ce4bhqp2rcd13ifvqhng","pricing_plan_id":"cebpf4jnsgd1na2vs0mg"},{"bike_id":"74512c02-4c92-4095-919e-3dc3e5f3219b","system_id":"levelo_inurba_marseille","lat":43.299717,"lon":5.384845,"is_reserved":false,"is_disabled":false,"rental_uris":{"android":"levelo://app?vid=74512c02-4c92-4095-919e-3dc3e5f3219b","ios":"levelo://app?vid=74512c02-4c92-4095-919e-3dc3e5f3219b"},"vehicle_type_id":"4","last_reported":1715198851,"current_range_meters":12000,"station_id":"ce4bgj92rcd13ifvqbd0","pricing_plan_id":"cebpf4jnsgd1na2vs0mg"},{"bike_id":"2b1cc970-9201-4222-a326-cdf1fe15c999","system_id":"levelo_inurba_marseille","lat":43.298037,"lon":5.381066,"is_reserved":false,"is_disabled":false,"rental_uris":{"android":"levelo://app?vid=2b1cc970-9201-4222-a326-cdf1fe15c999","ios":"levelo://app?vid=2b1cc970-9201-4222-a326-cdf1fe15c999"},"vehicle_type_id":"4","last_reported":1715198851,"current_range_meters":8000,"station_id":"ce4bgip2rcd13ifvqbb0","pricing_plan_id":"cebpf4jnsgd1na2vs0mg"},{"bike_id":"81b76db3-c9d2-4f94-8c6e-055177a65535","system_id":"levelo_inurba_marseille","lat":43.298037,"lon":5.381066,"is_reserved":false,"is_disabled":false,"rental_uris":{"android":"levelo://app?vid=81b76db3-c9d2-4f94-8c6e-055177a65535","ios":"levelo://app?vid=81b76db3-c9d2-4f94-8c6e-055177a65535"},"vehicle_type_id":"4","last_reported":1715198851,"current_range_meters":21200,"station_id":"ce4bgip2rcd13ifvqbb0","pricing_plan_id":"cebpf4jnsgd1na2vs0mg"},{"bike_id":"ad3d8dcf-9cb9-4a76-aab0-4d21d78d7da5","system_id":"levelo_inurba_marseille","lat":43.298037,"lon":5.381066,"is_reserved":false,"is_disabled":false,"rental_uris":{"android":"levelo://app?vid=ad3d8dcf-9cb9-4a76-aab0-4d21d78d7da5","ios":"levelo://app?vid=ad3d8dcf-9cb9-4a76-aab0-4d21d78d7da5"},"vehicle_type_id":"4","last_reported":1715198851,"current_range_meters":19600,"station_id":"ce4bgip2rcd13ifvqbb0","pricing_plan_id":"cebpf4jnsgd1na2vs0mg"},{"bike_id":"e0c332e1-b2eb-4226-bc18-e8eddc998b13","system_id":"levelo_inurba_marseille","lat":43.29804,"lon":5.3809,"is_reserved":false,"is_disabled":false,"rental_uris":{"android":"levelo://app?vid=e0c332e1-b2eb-4226-bc18-e8eddc998b13","ios":"levelo://app?vid=e0c332e1-b2eb-4226-bc18-e8eddc998b13"},"vehicle_type_id":"4","last_reported":1715198851,"current_range_meters":14400,"station_id":"ce4bgip2rcd13ifvqbb0","pricing_plan_id":"cebpf4jnsgd1na2vs0mg"},{"bike_id":"2a628600-fe70-47ae-bc2e-1d2b7ddd0fad","system_id":"levelo_inurba_marseille","lat":43.298037,"lon":5.381066,"is_reserved":false,"is_disabled":false,"rental_uris":{"android":"levelo://app?vid=2a628600-fe70-47ae-bc2e-1d2b7ddd0fad","ios":"levelo://app?vid=2a628600-fe70-47ae-bc2e-1d2b7ddd0fad"},"vehicle_type_id":"4","last_reported":1715198851,"current_range_meters":400,"station_id":"ce4bgip2rcd13ifvqbb0","pricing_plan_id":"cebpf4jnsgd1na2vs0mg"},{"bike_id":"2bd2fa3f-61a4-4413-81bb-fb2a2a089370","system_id":"levelo_inurba_marseille","lat":43.29805,"lon":5.380962,"is_reserved":false,"is_disabled":false,"rental_uris":{"android":"levelo://app?vid=2bd2fa3f-61a4-4413-81bb-fb2a2a089370","ios":"levelo://app?vid=2bd2fa3f-61a4-4413-81bb-fb2a2a089370"},"vehicle_type_id":"4","last_reported":1715198851,"current_range_meters":5600,"station_id":"ce4bgip2rcd13ifvqbb0","pricing_plan_id":"cebpf4jnsgd1na2vs0mg"},{"bike_id":"136c2d56-e985-4b2b-a573-19c6ee0b2528","system_id":"levelo_inurba_marseille","lat":43.298037,"lon":5.381066,"is_reserved":false,"is_disabled":false,"rental_uris":{"android":"levelo://app?vid=136c2d56-e985-4b2b-a573-19c6ee0b2528","ios":"levelo://app?vid=136c2d56-e985-4b2b-a573-19c6ee0b2528"},"vehicle_type_id":"4","last_reported":1715198851,"current_range_meters":0,"station_id":"ce4bgip2rcd13ifvqbb0","pricing_plan_id":"cebpf4jnsgd1na2vs0mg"},{"bike_id":"6a1bf280-607a-47ec-9176-d000ccf709a6","system_id":"levelo_inurba_marseille","lat":43.298037,"lon":5.381066,"is_reserved":false,"is_disabled":false,"rental_uris":{"android":"levelo://app?vid=6a1bf280-607a-47ec-9176-d000ccf709a6","ios":"levelo://app?vid=6a1bf280-607a-47ec-9176-d000ccf709a6"},"vehicle_type_id":"4","last_reported":1715198851,"current_range_meters":800,"station_id":"ce4bgip2rcd13ifvqbb0","pricing_plan_id":"cebpf4jnsgd1na2vs0mg"},{"bike_id":"733a4c27-41fe-4cad-9e8f-6f8409e6106f","system_id":"levelo_inurba_marseille","lat":43.298017,"lon":5.381052,"is_reserved":false,"is_disabled":false,"rental_uris":{"android":"levelo://app?vid=733a4c27-41fe-4cad-9e8f-6f8409e6106f","ios":"levelo://app?vid=733a4c27-41fe-4cad-9e8f-6f8409e6106f"},"vehicle_type_id":"4","last_reported":1715198851,"current_range_meters":0,"station_id":"ce4bgip2rcd13ifvqbb0","pricing_plan_id":"cebpf4jnsgd1na2vs0mg"},{"bike_id":"e8ab9734-4f0e-42bf-92ca-276b9f24a700","system_id":"levelo_inurba_marseille","lat":43.298037,"lon":5.381066,"is_reserved":false,"is_disabled":false,"rental_uris":{"android":"levelo://app?vid=e8ab9734-4f0e-42bf-92ca-276b9f24a700","ios":"levelo://app?vid=e8ab9734-4f0e-42bf-92ca-276b9f24a700"},"vehicle_type_id":"4","last_reported":1715198851,"current_range_meters":6800,"station_id":"ce4bgip2rcd13ifvqbb0","pricing_plan_id":"cebpf4jnsgd1na2vs0mg"},{"bike_id":"fcf4ca03-fe1c-4300-b19b-fde9c7557ced","system_id":"levelo_inurba_marseille","lat":43.297885,"lon":5.380882,"is_reserved":false,"is_disabled":false,"rental_uris":{"android":"levelo://app?vid=fcf4ca03-fe1c-4300-b19b-fde9c7557ced","ios":"levelo://app?vid=fcf4ca03-fe1c-4300-b19b-fde9c7557ced"},"vehicle_type_id":"4","last_reported":1715198851,"current_range_meters":0,"station_id":"ce4bgip2rcd13ifvqbb0","pricing_plan_id":"cebpf4jnsgd1na2vs0mg"},{"bike_id":"087dc845-5a69-4a07-8ac0-f5445f3a1ad1","system_id":"levelo_inurba_marseille","lat":43.297897,"lon":5.380932,"is_reserved":false,"is_disabled":false,"rental_uris":{"android":"levelo://app?vid=087dc845-5a69-4a07-8ac0-f5445f3a1ad1","ios":"levelo://app?vid=087dc845-5a69-4a07-8ac0-f5445f3a1ad1"},"vehicle_type_id":"4","last_reported":1715198851,"current_range_meters":12800,"station_id":"ce4bgip2rcd13ifvqbb0","pricing_plan_id":"cebpf4jnsgd1na2vs0mg"},{"bike_id":"b540046a-e5eb-4f0b-83cb-024b18a81b7c","system_id":"levelo_inurba_marseille","lat":43.297928,"lon":5.381005,"is_reserved":false,"is_disabled":false,"rental_uris":{"android":"levelo://app?vid=b540046a-e5eb-4f0b-83cb-024b18a81b7c","ios":"levelo://app?vid=b540046a-e5eb-4f0b-83cb-024b18a81b7c"},"vehicle_type_id":"4","last_reported":1715198851,"current_range_meters":14400,"station_id":"ce4bgip2rcd13ifvqbb0","pricing_plan_id":"cebpf4jnsgd1na2vs0mg"},{"bike_id":"5c5dabac-3072-4755-b850-18b9d84e1945","system_id":"levelo_inurba_marseille","lat":43.297916,"lon":5.380987,"is_reserved":false,"is_disabled":false,"rental_uris":{"android":"levelo://app?vid=5c5dabac-3072-4755-b850-18b9d84e1945","ios":"levelo://app?vid=5c5dabac-3072-4755-b850-18b9d84e1945"},"vehicle_type_id":"4","last_reported":1715198851,"current_range_meters":13600,"station_id":"ce4bgip2rcd13ifvqbb0","pricing_plan_id":"cebpf4jnsgd1na2vs0mg"},{"bike_id":"5b5020b7-0caf-45b1-a3ba-4c03f0d6f2d6","system_id":"levelo_inurba_marseille","lat":43.298037,"lon":5.381066,"is_reserved":false,"is_disabled":false,"rental_uris":{"android":"levelo://app?vid=5b5020b7-0caf-45b1-a3ba-4c03f0d6f2d6","ios":"levelo://app?vid=5b5020b7-0caf-45b1-a3ba-4c03f0d6f2d6"},"vehicle_type_id":"4","last_reported":1715198851,"current_range_meters":2000,"station_id":"ce4bgip2rcd13ifvqbb0","pricing_plan_id":"cebpf4jnsgd1na2vs0mg"},{"bike_id":"649b7ba2-6e07-46e6-a407-f1f019a89218","system_id":"levelo_inurba_marseille","lat":43.304278,"lon":5.388868,"is_reserved":false,"is_disabled":false,"rental_uris":{"android":"levelo://app?vid=649b7ba2-6e07-46e6-a407-f1f019a89218","ios":"levelo://app?vid=649b7ba2-6e07-46e6-a407-f1f019a89218"},"vehicle_type_id":"4","last_reported":1715198851,"current_range_meters":6800,"station_id":"ce4bgk12rcd13ifvqbi0","pricing_plan_id":"cebpf4jnsgd1na2vs0mg"},{"bike_id":"a5974fea-6364-422f-9e8e-025bb09cf91e","system_id":"levelo_inurba_marseille","lat":43.30431,"lon":5.38884,"is_reserved":false,"is_disabled":false,"rental_uris":{"android":"levelo://app?vid=a5974fea-6364-422f-9e8e-025bb09cf91e","ios":"levelo://app?vid=a5974fea-6364-422f-9e8e-025bb09cf91e"},"vehicle_type_id":"4","last_reported":1715198851,"current_range_meters":0,"station_id":"ce4bgk12rcd13ifvqbi0","pricing_plan_id":"cebpf4jnsgd1na2vs0mg"},{"bike_id":"0b581ebc-e455-4a17-9817-44b83c7119a6","system_id":"levelo_inurba_marseille","lat":43.29795,"lon":5.38112,"is_reserved":false,"is_disabled":false,"rental_uris":{"android":"levelo://app?vid=0b581ebc-e455-4a17-9817-44b83c7119a6","ios":"levelo://app?vid=0b581ebc-e455-4a17-9817-44b83c7119a6"},"vehicle_type_id":"4","last_reported":1715198851,"current_range_meters":0,"station_id":"ce4bgip2rcd13ifvqbb0","pricing_plan_id":"cebpf4jnsgd1na2vs0mg"},{"bike_id":"e7f13b35-7473-41cf-b08b-a9d0c1521de1","system_id":"levelo_inurba_marseille","lat":43.30427,"lon":5.38882,"is_reserved":false,"is_disabled":false,"rental_uris":{"android":"levelo://app?vid=e7f13b35-7473-41cf-b08b-a9d0c1521de1","ios":"levelo://app?vid=e7f13b35-7473-41cf-b08b-a9d0c1521de1"},"vehicle_type_id":"4","last_reported":1715198851,"current_range_meters":3600,"station_id":"ce4bgk12rcd13ifvqbi0","pricing_plan_id":"cebpf4jnsgd1na2vs0mg"},{"bike_id":"d70636f1-844f-48b3-94d5-a8313186e201","system_id":"levelo_inurba_marseille","lat":43.298037,"lon":5.381066,"is_reserved":false,"is_disabled":false,"rental_uris":{"android":"levelo://app?vid=d70636f1-844f-48b3-94d5-a8313186e201","ios":"levelo://app?vid=d70636f1-844f-48b3-94d5-a8313186e201"},"vehicle_type_id":"4","last_reported":1715198851,"current_range_meters":0,"station_id":"ce4bgip2rcd13ifvqbb0","pricing_plan_id":"cebpf4jnsgd1na2vs0mg"},{"bike_id":"dc7bfc44-767b-41b4-9823-9c045f1ef14c","system_id":"levelo_inurba_marseille","lat":43.304278,"lon":5.388868,"is_reserved":false,"is_disabled":false,"rental_uris":{"android":"levelo://app?vid=dc7bfc44-767b-41b4-9823-9c045f1ef14c","ios":"levelo://app?vid=dc7bfc44-767b-41b4-9823-9c045f1ef14c"},"vehicle_type_id":"4","last_reported":1715198851,"current_range_meters":6400,"station_id":"ce4bgk12rcd13ifvqbi0","pricing_plan_id":"cebpf4jnsgd1na2vs0mg"},{"bike_id":"ffa7363b-92bf-4963-9389-aeade0548ebb","system_id":"levelo_inurba_marseille","lat":43.30421,"lon":5.388846,"is_reserved":false,"is_disabled":false,"rental_uris":{"android":"levelo://app?vid=ffa7363b-92bf-4963-9389-aeade0548ebb","ios":"levelo://app?vid=ffa7363b-92bf-4963-9389-aeade0548ebb"},"vehicle_type_id":"4","last_reported":1715198851,"current_range_meters":400,"station_id":"ce4bgk12rcd13ifvqbi0","pricing_plan_id":"cebpf4jnsgd1na2vs0mg"},{"bike_id":"b11910f6-0a2e-4179-9bdd-f3b80df7e725","system_id":"levelo_inurba_marseille","lat":43.298037,"lon":5.381066,"is_reserved":false,"is_disabled":false,"rental_uris":{"android":"levelo://app?vid=b11910f6-0a2e-4179-9bdd-f3b80df7e725","ios":"levelo://app?vid=b11910f6-0a2e-4179-9bdd-f3b80df7e725"},"vehicle_type_id":"4","last_reported":1715198851,"current_range_meters":0,"station_id":"ce4bgip2rcd13ifvqbb0","pricing_plan_id":"cebpf4jnsgd1na2vs0mg"},{"bike_id":"f01bea13-05c8-49a9-bcea-9063c843a0b1","system_id":"levelo_inurba_marseille","lat":43.298037,"lon":5.381066,"is_reserved":false,"is_disabled":false,"rental_uris":{"android":"levelo://app?vid=f01bea13-05c8-49a9-bcea-9063c843a0b1","ios":"levelo://app?vid=f01bea13-05c8-49a9-bcea-9063c843a0b1"},"vehicle_type_id":"4","last_reported":1715198851,"current_range_meters":24800,"station_id":"ce4bgip2rcd13ifvqbb0","pricing_plan_id":"cebpf4jnsgd1na2vs0mg"},{"bike_id":"eb43d587-f881-468a-b931-3d4840c9660c","system_id":"levelo_inurba_marseille","lat":43.30422,"lon":5.38889,"is_reserved":false,"is_disabled":false,"rental_uris":{"android":"levelo://app?vid=eb43d587-f881-468a-b931-3d4840c9660c","ios":"levelo://app?vid=eb43d587-f881-468a-b931-3d4840c9660c"},"vehicle_type_id":"4","last_reported":1715198851,"current_range_meters":2800,"station_id":"ce4bgk12rcd13ifvqbi0","pricing_plan_id":"cebpf4jnsgd1na2vs0mg"},{"bike_id":"2446fa46-0519-4b29-9df5-152f0c33fdd0","system_id":"levelo_inurba_marseille","lat":43.298037,"lon":5.381066,"is_reserved":false,"is_disabled":false,"rental_uris":{"android":"levelo://app?vid=2446fa46-0519-4b29-9df5-152f0c33fdd0","ios":"levelo://app?vid=2446fa46-0519-4b29-9df5-152f0c33fdd0"},"vehicle_type_id":"4","last_reported":1715198851,"current_range_meters":11600,"station_id":"ce4bgip2rcd13ifvqbb0","pricing_plan_id":"cebpf4jnsgd1na2vs0mg"},{"bike_id":"3d1d6b54-5954-40f0-8600-a7d9c71360f1","system_id":"levelo_inurba_marseille","lat":43.29788,"lon":5.38117,"is_reserved":false,"is_disabled":false,"rental_uris":{"android":"levelo://app?vid=3d1d6b54-5954-40f0-8600-a7d9c71360f1","ios":"levelo://app?vid=3d1d6b54-5954-40f0-8600-a7d9c71360f1"},"vehicle_type_id":"4","last_reported":1715198851,"current_range_meters":0,"station_id":"ce4bgip2rcd13ifvqbb0","pricing_plan_id":"cebpf4jnsgd1na2vs0mg"},{"bike_id":"84c4cbe2-3ec3-466f-992a-a193906eb704","system_id":"levelo_inurba_marseille","lat":43.29785,"lon":5.38115,"is_reserved":false,"is_disabled":false,"rental_uris":{"android":"levelo://app?vid=84c4cbe2-3ec3-466f-992a-a193906eb704","ios":"levelo://app?vid=84c4cbe2-3ec3-466f-992a-a193906eb704"},"vehicle_type_id":"4","last_reported":1715198851,"current_range_meters":12400,"station_id":"ce4bgip2rcd13ifvqbb0","pricing_plan_id":"cebpf4jnsgd1na2vs0mg"},{"bike_id":"ad68f2dd-b174-487a-ac85-96fb05fa006e","system_id":"levelo_inurba_marseille","lat":43.298049,"lon":5.38162,"is_reserved":false,"is_disabled":false,"rental_uris":{"android":"levelo://app?vid=ad68f2dd-b174-487a-ac85-96fb05fa006e","ios":"levelo://app?vid=ad68f2dd-b174-487a-ac85-96fb05fa006e"},"vehicle_type_id":"4","last_reported":1715198851,"current_range_meters":5200,"station_id":"ce4bgip2rcd13ifvqbb0","pricing_plan_id":"cebpf4jnsgd1na2vs0mg"},{"bike_id":"69e0b072-3f02-4cc1-b1f2-fea541d9b14e","system_id":"levelo_inurba_marseille","lat":43.296089,"lon":5.377071,"is_reserved":false,"is_disabled":false,"rental_uris":{"android":"levelo://app?vid=69e0b072-3f02-4cc1-b1f2-fea541d9b14e","ios":"levelo://app?vid=69e0b072-3f02-4cc1-b1f2-fea541d9b14e"},"vehicle_type_id":"4","last_reported":1715198851,"current_range_meters":25200,"station_id":"","pricing_plan_id":"cebpf4jnsgd1na2vs0mg"},{"bike_id":"c3db651b-e6d2-45b8-a1e4-2db1a316c8e2","system_id":"levelo_inurba_marseille","lat":43.290779,"lon":5.371482,"is_reserved":false,"is_disabled":false,"rental_uris":{"android":"levelo://app?vid=c3db651b-e6d2-45b8-a1e4-2db1a316c8e2","ios":"levelo://app?vid=c3db651b-e6d2-45b8-a1e4-2db1a316c8e2"},"vehicle_type_id":"4","last_reported":1715198851,"current_range_meters":22000,"station_id":"ce4bh5p2rcd13ifvqe4g","pricing_plan_id":"cebpf4jnsgd1na2vs0mg"},{"bike_id":"619aec94-d9af-48da-9a96-4907b34ce9a8","system_id":"levelo_inurba_marseille","lat":43.29621,"lon":5.37792,"is_reserved":false,"is_disabled":false,"rental_uris":{"android":"levelo://app?vid=619aec94-d9af-48da-9a96-4907b34ce9a8","ios":"levelo://app?vid=619aec94-d9af-48da-9a96-4907b34ce9a8"},"vehicle_type_id":"4","last_reported":1715198851,"current_range_meters":7200,"station_id":"","pricing_plan_id":"cebpf4jnsgd1na2vs0mg"},{"bike_id":"c7c097f0-a03f-49dc-9d3d-18fd5eb2c5b4","system_id":"levelo_inurba_marseille","lat":43.299703,"lon":5.384811,"is_reserved":false,"is_disabled":false,"rental_uris":{"android":"levelo://app?vid=c7c097f0-a03f-49dc-9d3d-18fd5eb2c5b4","ios":"levelo://app?vid=c7c097f0-a03f-49dc-9d3d-18fd5eb2c5b4"},"vehicle_type_id":"4","last_reported":1715198851,"current_range_meters":3600,"station_id":"ce4bgj92rcd13ifvqbd0","pricing_plan_id":"cebpf4jnsgd1na2vs0mg"},{"bike_id":"1f8552da-07b4-431e-bb42-2f996a485e81","system_id":"levelo_inurba_marseille","lat":43.29978,"lon":5.38495,"is_reserved":false,"is_disabled":false,"rental_uris":{"android":"levelo://app?vid=1f8552da-07b4-431e-bb42-2f996a485e81","ios":"levelo://app?vid=1f8552da-07b4-431e-bb42-2f996a485e81"},"vehicle_type_id":"4","last_reported":1715198851,"current_range_meters":0,"station_id":"ce4bgj92rcd13ifvqbd0","pricing_plan_id":"cebpf4jnsgd1na2vs0mg"},{"bike_id":"fc1a67b7-1eb0-4e20-bfa5-024b638eac3a","system_id":"levelo_inurba_marseille","lat":43.299707,"lon":5.384859,"is_reserved":false,"is_disabled":false,"rental_uris":{"android":"levelo://app?vid=fc1a67b7-1eb0-4e20-bfa5-024b638eac3a","ios":"levelo://app?vid=fc1a67b7-1eb0-4e20-bfa5-024b638eac3a"},"vehicle_type_id":"4","last_reported":1715198851,"current_range_meters":22000,"station_id":"ce4bgj92rcd13ifvqbd0","pricing_plan_id":"cebpf4jnsgd1na2vs0mg"},{"bike_id":"3961e7d3-027b-496c-a059-f326cebf2f9d","system_id":"levelo_inurba_marseille","lat":43.300161,"lon":5.385558,"is_reserved":false,"is_disabled":false,"rental_uris":{"android":"levelo://app?vid=3961e7d3-027b-496c-a059-f326cebf2f9d","ios":"levelo://app?vid=3961e7d3-027b-496c-a059-f326cebf2f9d"},"vehicle_type_id":"4","last_reported":1715198851,"current_range_meters":4800,"station_id":"ce4bgj92rcd13ifvqbd0","pricing_plan_id":"cebpf4jnsgd1na2vs0mg"},{"bike_id":"f9700b5e-a928-4859-ac8c-2da8acd3e0b0","system_id":"levelo_inurba_marseille","lat":43.299724,"lon":5.384848,"is_reserved":false,"is_disabled":false,"rental_uris":{"android":"levelo://app?vid=f9700b5e-a928-4859-ac8c-2da8acd3e0b0","ios":"levelo://app?vid=f9700b5e-a928-4859-ac8c-2da8acd3e0b0"},"vehicle_type_id":"4","last_reported":1715198851,"current_range_meters":1200,"station_id":"ce4bgj92rcd13ifvqbd0","pricing_plan_id":"cebpf4jnsgd1na2vs0mg"},{"bike_id":"e4c38745-40cd-487d-ada1-435cd72bfe0e","system_id":"levelo_inurba_marseille","lat":43.299717,"lon":5.384845,"is_reserved":false,"is_disabled":false,"rental_uris":{"android":"levelo://app?vid=e4c38745-40cd-487d-ada1-435cd72bfe0e","ios":"levelo://app?vid=e4c38745-40cd-487d-ada1-435cd72bfe0e"},"vehicle_type_id":"4","last_reported":1715198851,"current_range_meters":6000,"station_id":"ce4bgj92rcd13ifvqbd0","pricing_plan_id":"cebpf4jnsgd1na2vs0mg"},{"bike_id":"2a9032e7-7649-4437-9d2a-8a2d45d199c2","system_id":"levelo_inurba_marseille","lat":43.29966,"lon":5.38497,"is_reserved":false,"is_disabled":false,"rental_uris":{"android":"levelo://app?vid=2a9032e7-7649-4437-9d2a-8a2d45d199c2","ios":"levelo://app?vid=2a9032e7-7649-4437-9d2a-8a2d45d199c2"},"vehicle_type_id":"4","last_reported":1715198851,"current_range_meters":0,"station_id":"ce4bgj92rcd13ifvqbd0","pricing_plan_id":"cebpf4jnsgd1na2vs0mg"},{"bike_id":"418472aa-9d90-47ec-a145-96900419d53c","system_id":"levelo_inurba_marseille","lat":43.299614,"lon":5.384928,"is_reserved":false,"is_disabled":false,"rental_uris":{"android":"levelo://app?vid=418472aa-9d90-47ec-a145-96900419d53c","ios":"levelo://app?vid=418472aa-9d90-47ec-a145-96900419d53c"},"vehicle_type_id":"4","last_reported":1715198851,"current_range_meters":0,"station_id":"ce4bgj92rcd13ifvqbd0","pricing_plan_id":"cebpf4jnsgd1na2vs0mg"},{"bike_id":"21d49dce-6cbe-4b1c-8004-3a81f598dd9c","system_id":"levelo_inurba_marseille","lat":43.29963,"lon":5.38498,"is_reserved":false,"is_disabled":false,"rental_uris":{"android":"levelo://app?vid=21d49dce-6cbe-4b1c-8004-3a81f598dd9c","ios":"levelo://app?vid=21d49dce-6cbe-4b1c-8004-3a81f598dd9c"},"vehicle_type_id":"4","last_reported":1715198851,"current_range_meters":0,"station_id":"ce4bgj92rcd13ifvqbd0","pricing_plan_id":"cebpf4jnsgd1na2vs0mg"},{"bike_id":"a41ed8b2-dd3d-4fa7-80ea-d752c8371746","system_id":"levelo_inurba_marseille","lat":43.299717,"lon":5.384845,"is_reserved":false,"is_disabled":false,"rental_uris":{"android":"levelo://app?vid=a41ed8b2-dd3d-4fa7-80ea-d752c8371746","ios":"levelo://app?vid=a41ed8b2-dd3d-4fa7-80ea-d752c8371746"},"vehicle_type_id":"4","last_reported":1715198851,"current_range_meters":24800,"station_id":"ce4bgj92rcd13ifvqbd0","pricing_plan_id":"cebpf4jnsgd1na2vs0mg"},{"bike_id":"057b12f2-ad22-4fc4-b12f-fbfff2a806eb","system_id":"levelo_inurba_marseille","lat":43.299575,"lon":5.385011,"is_reserved":false,"is_disabled":false,"rental_uris":{"android":"levelo://app?vid=057b12f2-ad22-4fc4-b12f-fbfff2a806eb","ios":"levelo://app?vid=057b12f2-ad22-4fc4-b12f-fbfff2a806eb"},"vehicle_type_id":"4","last_reported":1715198851,"current_range_meters":0,"station_id":"ce4bgj92rcd13ifvqbd0","pricing_plan_id":"cebpf4jnsgd1na2vs0mg"},{"bike_id":"704856b8-da1a-4347-8d0d-5217ce3ea40d","system_id":"levelo_inurba_marseille","lat":43.313571,"lon":5.384829,"is_reserved":false,"is_disabled":false,"rental_uris":{"android":"levelo://app?vid=704856b8-da1a-4347-8d0d-5217ce3ea40d","ios":"levelo://app?vid=704856b8-da1a-4347-8d0d-5217ce3ea40d"},"vehicle_type_id":"4","last_reported":1715198851,"current_range_meters":15200,"station_id":"ce4bgt92rcd13ifvqcf0","pricing_plan_id":"cebpf4jnsgd1na2vs0mg"},{"bike_id":"9899741a-39a1-4eb5-a27c-90d118990b79","system_id":"levelo_inurba_marseille","lat":43.323482,"lon":5.388977,"is_reserved":false,"is_disabled":false,"rental_uris":{"android":"levelo://app?vid=9899741a-39a1-4eb5-a27c-90d118990b79","ios":"levelo://app?vid=9899741a-39a1-4eb5-a27c-90d118990b79"},"vehicle_type_id":"4","last_reported":1715198851,"current_range_meters":0,"station_id":"ce4bhqp2rcd13ifvqhog","pricing_plan_id":"cebpf4jnsgd1na2vs0mg"},{"bike_id":"f1ea86bf-2b4e-4c86-b309-8deb6789d430","system_id":"levelo_inurba_marseille","lat":43.32367,"lon":5.388836,"is_reserved":false,"is_disabled":false,"rental_uris":{"android":"levelo://app?vid=f1ea86bf-2b4e-4c86-b309-8deb6789d430","ios":"levelo://app?vid=f1ea86bf-2b4e-4c86-b309-8deb6789d430"},"vehicle_type_id":"4","last_reported":1715198851,"current_range_meters":29600,"station_id":"ce4bhqp2rcd13ifvqhog","pricing_plan_id":"cebpf4jnsgd1na2vs0mg"},{"bike_id":"a2fd84e6-c61f-4034-b4d2-df604af7e36e","system_id":"levelo_inurba_marseille","lat":43.32367,"lon":5.38883,"is_reserved":false,"is_disabled":false,"rental_uris":{"android":"levelo://app?vid=a2fd84e6-c61f-4034-b4d2-df604af7e36e","ios":"levelo://app?vid=a2fd84e6-c61f-4034-b4d2-df604af7e36e"},"vehicle_type_id":"4","last_reported":1715198851,"current_range_meters":0,"station_id":"ce4bhqp2rcd13ifvqhog","pricing_plan_id":"cebpf4jnsgd1na2vs0mg"},{"bike_id":"98916766-3c09-414b-a6d6-094305de3b54","system_id":"levelo_inurba_marseille","lat":43.29602,"lon":5.38093,"is_reserved":false,"is_disabled":false,"rental_uris":{"android":"levelo://app?vid=98916766-3c09-414b-a6d6-094305de3b54","ios":"levelo://app?vid=98916766-3c09-414b-a6d6-094305de3b54"},"vehicle_type_id":"4","last_reported":1715198851,"current_range_meters":0,"station_id":"ce4bgl12rcd13ifvqbo0","pricing_plan_id":"cebpf4jnsgd1na2vs0mg"},{"bike_id":"8ecb5723-6ce2-4f3f-ac6d-ff41d6efed73","system_id":"levelo_inurba_marseille","lat":43.295968,"lon":5.380993,"is_reserved":false,"is_disabled":false,"rental_uris":{"android":"levelo://app?vid=8ecb5723-6ce2-4f3f-ac6d-ff41d6efed73","ios":"levelo://app?vid=8ecb5723-6ce2-4f3f-ac6d-ff41d6efed73"},"vehicle_type_id":"4","last_reported":1715198851,"current_range_meters":28000,"station_id":"ce4bgl12rcd13ifvqbo0","pricing_plan_id":"cebpf4jnsgd1na2vs0mg"},{"bike_id":"6bdb31b4-ca04-4bd4-bed6-c4041b4eff7b","system_id":"levelo_inurba_marseille","lat":43.32367,"lon":5.388836,"is_reserved":false,"is_disabled":false,"rental_uris":{"android":"levelo://app?vid=6bdb31b4-ca04-4bd4-bed6-c4041b4eff7b","ios":"levelo://app?vid=6bdb31b4-ca04-4bd4-bed6-c4041b4eff7b"},"vehicle_type_id":"4","last_reported":1715198851,"current_range_meters":22000,"station_id":"ce4bhqp2rcd13ifvqhog","pricing_plan_id":"cebpf4jnsgd1na2vs0mg"},{"bike_id":"9fe44096-a234-4cc2-ac46-1603e591ef72","system_id":"levelo_inurba_marseille","lat":43.2936,"lon":5.37835,"is_reserved":false,"is_disabled":false,"rental_uris":{"android":"levelo://app?vid=9fe44096-a234-4cc2-ac46-1603e591ef72","ios":"levelo://app?vid=9fe44096-a234-4cc2-ac46-1603e591ef72"},"vehicle_type_id":"4","last_reported":1715198851,"current_range_meters":400,"station_id":"ce4bgjh2rcd13ifvqbf0","pricing_plan_id":"cebpf4jnsgd1na2vs0mg"},{"bike_id":"597d07bd-4728-4474-9eaf-a9433ecc5553","system_id":"levelo_inurba_marseille","lat":43.2936,"lon":5.37835,"is_reserved":false,"is_disabled":false,"rental_uris":{"android":"levelo://app?vid=597d07bd-4728-4474-9eaf-a9433ecc5553","ios":"levelo://app?vid=597d07bd-4728-4474-9eaf-a9433ecc5553"},"vehicle_type_id":"4","last_reported":1715198851,"current_range_meters":0,"station_id":"ce4bgjh2rcd13ifvqbf0","pricing_plan_id":"cebpf4jnsgd1na2vs0mg"},{"bike_id":"eaf34802-ca67-4bd0-9780-1936e178a997","system_id":"levelo_inurba_marseille","lat":43.30085,"lon":5.390856,"is_reserved":false,"is_disabled":false,"rental_uris":{"android":"levelo://app?vid=eaf34802-ca67-4bd0-9780-1936e178a997","ios":"levelo://app?vid=eaf34802-ca67-4bd0-9780-1936e178a997"},"vehicle_type_id":"4","last_reported":1715198851,"current_range_meters":0,"station_id":"ce4bh192rcd13ifvqdb0","pricing_plan_id":"cebpf4jnsgd1na2vs0mg"},