{"last_updated":1781303270,"ttl":60,"version":"2.2","data":{"bikes":[{"bike_id":"ec12d144-24c8-4071-abf6-197e520eae96","system_id":"levelo_inurba_marseille","lat":43.337444,"lon":5.374475,"is_reserved":false,"is_disabled":false,"rental_uris":{"android":"levelo://app?vid=ec12d144-24c8-4071-abf6-197e520eae96","ios":"levelo://app?vid=ec12d144-24c8-4071-abf6-197e520eae96"},"vehicle_type_id":"4","last_reported":1781303271,"current_range_meters":0,"station_id":"","pricing_plan_id":"cebpf4jnsgd1na2vs0mg"},{"bike_id":"0a743a51-5728-422c-8a96-f69476a8f4cb","system_id":"levelo_inurba_marseille","lat":43.27614,"lon":5.36101,"is_reserved":false,"is_disabled":true,"rental_uris":{"android":"levelo://app?vid=0a743a51-5728-422c-8a96-f69476a8f4cb","ios":"levelo://app?vid=0a743a51-5728-422c-8a96-f69476a8f4cb"},"vehicle_type_id":"4","last_reported":1781303271,"current_range_meters":2800,"station_id":"ce4bgj92rcd13ifvqbe0","pricing_plan_id":"cebpf4jnsgd1na2vs0mg"},{"bike_id":"2e41d0d3-9e86-4c08-89a6-e0a70cc8ae89","system_id":"levelo_inurba_marseille","lat":43.29248,"lon":5.38251,"is_reserved":false,"is_disabled":true,"rental_uris":{"android":"levelo://app?vid=2e41d0d3-9e86-4c08-89a6-e0a70cc8ae89","ios":"levelo://app?vid=2e41d0d3-9e86-4c08-89a6-e0a70cc8ae89"},"vehicle_type_id":"4","last_reported":1781303271,"current_range_meters":2800,"station_id":"","pricing_plan_id":"cebpf4jnsgd1na2vs0mg"},{"bike_id":"82e40a8e-6a39-46e2-aa69-66c475f3eb1b","system_id":"levelo_inurba_marseille","lat":43.30424,"lon":5.38905,"is_reserved":false,"is_disabled":false,"rental_uris":{"android":"levelo://app?vid=82e40a8e-6a39-46e2-aa69-66c475f3eb1b","ios":"levelo://app?vid=82e40a8e-6a39-46e2-aa69-66c475f3eb1b"},"vehicle_type_id":"4","last_reported":1781303271,"current_range_meters":2800,"station_id":"ce4bgk12rcd13ifvqbi0","pricing_plan_id":"cebpf4jnsgd1na2vs0mg"},{"bike_id":"5ac28b06-af05-4d8b-a509-2f5043908588","system_id":"levelo_inurba_marseille","lat":43.2341,"lon":5.36831,"is_reserved":false,"is_disabled":false,"rental_uris":{"android":"levelo://app?vid=5ac28b06-af05-4d8b-a509-2f5043908588","ios":"levelo://app?vid=5ac28b06-af05-4d8b-a509-2f5043908588"},"vehicle_type_id":"4","last_reported":1781303271,"current_range_meters":2800,"station_id":"","pricing_plan_id":"cebpf4jnsgd1na2vs0mg"},{"bike_id":"2b93ae1e-aed2-4f09-a1d5-207d27d2dd0d","system_id":"levelo_inurba_marseille","lat":43.24488,"lon":5.42517,"is_reserved":false,"is_disabled":false,"rental_uris":{"android":"levelo://app?vid=2b93ae1e-aed2-4f09-a1d5-207d27d2dd0d","ios":"levelo://app?vid=2b93ae1e-aed2-4f09-a1d5-207d27d2dd0d"},"vehicle_type_id":"4","last_reported":1781303271,"current_range_meters":2800,"station_id":"st_d4a3vfp97mjs738cd8kg","pricing_plan_id":"cebpf4jnsgd1na2vs0mg"},{"bike_id":"dd8f2fa1-b5da-4cef-87c9-29d3b1051138","system_id":"levelo_inurba_marseille","lat":43.25639,"lon":5.42749,"is_reserved":false,"is_disabled":false,"rental_uris":{"android":"levelo://app?vid=dd8f2fa1-b5da-4cef-87c9-29d3b1051138","ios":"levelo://app?vid=dd8f2fa1-b5da-4cef-87c9-29d3b1051138"},"vehicle_type_id":"4","last_reported":1781303271,"current_range_meters":2800,"station_id":"","pricing_plan_id":"cebpf4jnsgd1na2vs0mg"},{"bike_id":"a7035cfa-2cad-4a3c-b6b7-082bb42a565d","system_id":"levelo_inurba_marseille","lat":43.24034,"lon":5.37817,"is_reserved":false,"is_disabled":false,"rental_uris":{"android":"levelo://app?vid=a7035cfa-2cad-4a3c-b6b7-082bb42a565d","ios":"levelo://app?vid=a7035cfa-2cad-4a3c-b6b7-082bb42a565d"},"vehicle_type_id":"4","last_reported":1781303271,"current_range_meters":2800,"station_id":"","pricing_plan_id":"cebpf4jnsgd1na2vs0mg"},{"bike_id":"0d1f6c8f-daf5-49b7-b85d-39b65c9ed163","system_id":"levelo_inurba_marseille","lat":43.313418,"lon":5.36723,"is_reserved":false,"is_disabled":false,"rental_uris":{"android":"levelo://app?vid=0d1f6c8f-daf5-49b7-b85d-39b65c9ed163","ios":"levelo://app?vid=0d1f6c8f-daf5-49b7-b85d-39b65c9ed163"},"vehicle_type_id":"4","last_reported":1781303271,"current_range_meters":2800,"station_id":"ce4bgr92rcd13ifvqc6g","pricing_plan_id":"cebpf4jnsgd1na2vs0mg"},{"bike_id":"29f7d747-9b82-488e-8947-0fa10cd61cc5","system_id":"levelo_inurba_marseille","lat":43.28259,"lon":5.35064,"is_reserved":false,"is_disabled":false,"rental_uris":{"android":"levelo://app?vid=29f7d747-9b82-488e-8947-0fa10cd61cc5","ios":"levelo://app?vid=29f7d747-9b82-488e-8947-0fa10cd61cc5"},"vehicle_type_id":"4","last_reported":1781303271,"current_range_meters":2800,"station_id":"ce4bhbp2rcd13ifvqerg","pricing_plan_id":"cebpf4jnsgd1na2vs0mg"},{"bike_id":"7c307ebc-aea8-4c74-801b-203d11055b3c","system_id":"levelo_inurba_marseille","lat":43.29893,"lon":5.42797,"is_reserved":false,"is_disabled":false,"rental_uris":{"android":"levelo://app?vid=7c307ebc-aea8-4c74-801b-203d11055b3c","ios":"levelo://app?vid=7c307ebc-aea8-4c74-801b-203d11055b3c"},"vehicle_type_id":"4","last_reported":1781303271,"current_range_meters":2800,"station_id":"","pricing_plan_id":"cebpf4jnsgd1na2vs0mg"},{"bike_id":"a0128756-80d5-4531-9016-37354262a605","system_id":"levelo_inurba_marseille","lat":43.28621,"lon":5.35108,"is_reserved":false,"is_disabled":false,"rental_uris":{"android":"levelo://app?vid=a0128756-80d5-4531-9016-37354262a605","ios":"levelo://app?vid=a0128756-80d5-4531-9016-37354262a605"},"vehicle_type_id":"4","last_reported":1781303271,"current_range_meters":2800,"station_id":"ce4bhch2rcd13ifvqeug","pricing_plan_id":"cebpf4jnsgd1na2vs0mg"},{"bike_id":"48a1118a-f7e6-40e6-9008-e75804c90e76","system_id":"levelo_inurba_marseille","lat":43.24066,"lon":5.37765,"is_reserved":false,"is_disabled":false,"rental_uris":{"android":"levelo://app?vid=48a1118a-f7e6-40e6-9008-e75804c90e76","ios":"levelo://app?vid=48a1118a-f7e6-40e6-9008-e75804c90e76"},"vehicle_type_id":"4","last_reported":1781303271,"current_range_meters":2800,"station_id":"ce4bhnp2rcd13ifvqgvg","pricing_plan_id":"cebpf4jnsgd1na2vs0mg"},{"bike_id":"2fe78ccb-070f-432a-a7e8-216efa06d701","system_id":"levelo_inurba_marseille","lat":43.28578,"lon":5.42997,"is_reserved":false,"is_disabled":false,"rental_uris":{"android":"levelo://app?vid=2fe78ccb-070f-432a-a7e8-216efa06d701","ios":"levelo://app?vid=2fe78ccb-070f-432a-a7e8-216efa06d701"},"vehicle_type_id":"4","last_reported":1781303271,"current_range_meters":2800,"station_id":"","pricing_plan_id":"cebpf4jnsgd1na2vs0mg"},{"bike_id":"b867be92-d2f0-4542-9e90-9b0ff4cf1450","system_id":"levelo_inurba_marseille","lat":43.30432,"lon":5.38907,"is_reserved":false,"is_disabled":false,"rental_uris":{"android":"levelo://app?vid=b867be92-d2f0-4542-9e90-9b0ff4cf1450","ios":"levelo://app?vid=b867be92-d2f0-4542-9e90-9b0ff4cf1450"},"vehicle_type_id":"4","last_reported":1781303271,"current_range_meters":2800,"station_id":"ce4bgk12rcd13ifvqbi0","pricing_plan_id":"cebpf4jnsgd1na2vs0mg"},{"bike_id":"aab305a1-0870-4585-9ecd-1b6d37fbfab3","system_id":"levelo_inurba_marseille","lat":43.26028,"lon":5.3755,"is_reserved":false,"is_disabled":false,"rental_uris":{"android":"levelo://app?vid=aab305a1-0870-4585-9ecd-1b6d37fbfab3","ios":"levelo://app?vid=aab305a1-0870-4585-9ecd-1b6d37fbfab3"},"vehicle_type_id":"4","last_reported":1781303271,"current_range_meters":2800,"station_id":"ce4bhgh2rcd13ifvqfa0","pricing_plan_id":"cebpf4jnsgd1na2vs0mg"},{"bike_id":"bde8bc53-6079-427f-9bc4-78d438be8c2b","system_id":"levelo_inurba_marseille","lat":43.29202,"lon":5.39301,"is_reserved":false,"is_disabled":false,"rental_uris":{"android":"levelo://app?vid=bde8bc53-6079-427f-9bc4-78d438be8c2b","ios":"levelo://app?vid=bde8bc53-6079-427f-9bc4-78d438be8c2b"},"vehicle_type_id":"4","last_reported":1781303271,"current_range_meters":2800,"station_id":"ce4bh192rcd13ifvqdd0","pricing_plan_id":"cebpf4jnsgd1na2vs0mg"},{"bike_id":"f0fd0361-f31f-49cf-b700-8653d29b5d8e","system_id":"levelo_inurba_marseille","lat":43.24799,"lon":5.3747,"is_reserved":false,"is_disabled":false,"rental_uris":{"android":"levelo://app?vid=f0fd0361-f31f-49cf-b700-8653d29b5d8e","ios":"levelo://app?vid=f0fd0361-f31f-49cf-b700-8653d29b5d8e"},"vehicle_type_id":"4","last_reported":1781303271,"current_range_meters":2800,"station_id":"ce4bhgh2rcd13ifvqfb0","pricing_plan_id":"cebpf4jnsgd1na2vs0mg"},{"bike_id":"f1f3da79-9b74-41a2-b703-068c935cdd85","system_id":"levelo_inurba_marseille","lat":43.29632,"lon":5.40604,"is_reserved":false,"is_disabled":false,"rental_uris":{"android":"levelo://app?vid=f1f3da79-9b74-41a2-b703-068c935cdd85","ios":"levelo://app?vid=f1f3da79-9b74-41a2-b703-068c935cdd85"},"vehicle_type_id":"4","last_reported":1781303271,"current_range_meters":2800,"station_id":"ce4bh0h2rcd13ifvqd60","pricing_plan_id":"cebpf4jnsgd1na2vs0mg"},{"bike_id":"52697234-3681-4587-bd5b-b5458c1b2c6c","system_id":"levelo_inurba_marseille","lat":43.23186,"lon":5.3558,"is_reserved":false,"is_disabled":false,"rental_uris":{"android":"levelo://app?vid=52697234-3681-4587-bd5b-b5458c1b2c6c","ios":"levelo://app?vid=52697234-3681-4587-bd5b-b5458c1b2c6c"},"vehicle_type_id":"4","last_reported":1781303271,"current_range_meters":2800,"station_id":"ce4bhu92rcd13ifvqi70","pricing_plan_id":"cebpf4jnsgd1na2vs0mg"},{"bike_id":"8682f4e8-0798-4b4f-8fef-c4dc002ea1c8","system_id":"levelo_inurba_marseille","lat":43.29156,"lon":5.46105,"is_reserved":false,"is_disabled":false,"rental_uris":{"android":"levelo://app?vid=8682f4e8-0798-4b4f-8fef-c4dc002ea1c8","ios":"levelo://app?vid=8682f4e8-0798-4b4f-8fef-c4dc002ea1c8"},"vehicle_type_id":"4","last_reported":1781303271,"current_range_meters":2800,"station_id":"","pricing_plan_id":"cebpf4jnsgd1na2vs0mg"},{"bike_id":"75248494-6e46-4c4b-92d2-9db9ddbe9016","system_id":"levelo_inurba_marseille","lat":43.2848,"lon":5.48403,"is_reserved":false,"is_disabled":false,"rental_uris":{"android":"levelo://app?vid=75248494-6e46-4c4b-92d2-9db9ddbe9016","ios":"levelo://app?vid=75248494-6e46-4c4b-92d2-9db9ddbe9016"},"vehicle_type_id":"4","last_reported":1781303271,"current_range_meters":2800,"station_id":"st_d3svhcjqgbts73a3dn0g","pricing_plan_id":"cebpf4jnsgd1na2vs0mg"},{"bike_id":"02779e87-7950-4b3e-a0cb-69ad55469255","system_id":"levelo_inurba_marseille","lat":43.30919,"lon":5.38287,"is_reserved":false,"is_disabled":false,"rental_uris":{"android":"levelo://app?vid=02779e87-7950-4b3e-a0cb-69ad55469255","ios":"levelo://app?vid=02779e87-7950-4b3e-a0cb-69ad55469255"},"vehicle_type_id":"4","last_reported":1781303271,"current_range_meters":2800,"station_id":"","pricing_plan_id":"cebpf4jnsgd1na2vs0mg"},{"bike_id":"b10e7d08-29a9-481b-bca9-123d84c5931d","system_id":"levelo_inurba_marseille","lat":43.28351,"lon":5.38118,"is_reserved":false,"is_disabled":false,"rental_uris":{"android":"levelo://app?vid=b10e7d08-29a9-481b-bca9-123d84c5931d","ios":"levelo://app?vid=b10e7d08-29a9-481b-bca9-123d84c5931d"},"vehicle_type_id":"4","last_reported":1781303271,"current_range_meters":2800,"station_id":"ce4bh412rcd13ifvqdr0","pricing_plan_id":"cebpf4jnsgd1na2vs0mg"},{"bike_id":"dbcda9ae-c30a-47f2-91a8-8dac9b33d85e","system_id":"levelo_inurba_marseille","lat":43.28015,"lon":5.36049,"is_reserved":false,"is_disabled":false,"rental_uris":{"android":"levelo://app?vid=dbcda9ae-c30a-47f2-91a8-8dac9b33d85e","ios":"levelo://app?vid=dbcda9ae-c30a-47f2-91a8-8dac9b33d85e"},"vehicle_type_id":"4","last_reported":1781303271,"current_range_meters":2800,"station_id":"","pricing_plan_id":"cebpf4jnsgd1na2vs0mg"},{"bike_id":"06234b80-9b18-4d41-a55b-867303d8d217","system_id":"levelo_inurba_marseille","lat":43.30217,"lon":5.39468,"is_reserved":false,"is_disabled":false,"rental_uris":{"android":"levelo://app?vid=06234b80-9b18-4d41-a55b-867303d8d217","ios":"levelo://app?vid=06234b80-9b18-4d41-a55b-867303d8d217"},"vehicle_type_id":"4","last_reported":1781303271,"current_range_meters":3200,"station_id":"ce4bh0p2rcd13ifvqd70","pricing_plan_id":"cebpf4jnsgd1na2vs0mg"},{"bike_id":"cfca987a-456e-47df-a095-b63382c88e43","system_id":"levelo_inurba_marseille","lat":43.23186,"lon":5.35556,"is_reserved":false,"is_disabled":false,"rental_uris":{"android":"levelo://app?vid=cfca987a-456e-47df-a095-b63382c88e43","ios":"levelo://app?vid=cfca987a-456e-47df-a095-b63382c88e43"},"vehicle_type_id":"4","last_reported":1781303271,"current_range_meters":3200,"station_id":"ce4bhu92rcd13ifvqi70","pricing_plan_id":"cebpf4jnsgd1na2vs0mg"},{"bike_id":"2a192182-021b-439d-a0e2-993561972500","system_id":"levelo_inurba_marseille","lat":43.225345,"lon":5.348271,"is_reserved":false,"is_disabled":false,"rental_uris":{"android":"levelo://app?vid=2a192182-021b-439d-a0e2-993561972500","ios":"levelo://app?vid=2a192182-021b-439d-a0e2-993561972500"},"vehicle_type_id":"4","last_reported":1781303271,"current_range_meters":3200,"station_id":"st_cvj5dfep6f1abm77gieg","pricing_plan_id":"cebpf4jnsgd1na2vs0mg"},{"bike_id":"40877921-cf64-4231-b6a7-7f65220da3fe","system_id":"levelo_inurba_marseille","lat":43.296022,"lon":5.381013,"is_reserved":false,"is_disabled":true,"rental_uris":{"android":"levelo://app?vid=40877921-cf64-4231-b6a7-7f65220da3fe","ios":"levelo://app?vid=40877921-cf64-4231-b6a7-7f65220da3fe"},"vehicle_type_id":"4","last_reported":1781303271,"current_range_meters":3200,"station_id":"ce4bgl12rcd13ifvqbo0","pricing_plan_id":"cebpf4jnsgd1na2vs0mg"},{"bike_id":"ee62bb71-0b13-474e-a3e7-f54e7b9d1d69","system_id":"levelo_inurba_marseille","lat":43.30427,"lon":5.3889,"is_reserved":false,"is_disabled":false,"rental_uris":{"android":"levelo://app?vid=ee62bb71-0b13-474e-a3e7-f54e7b9d1d69","ios":"levelo://app?vid=ee62bb71-0b13-474e-a3e7-f54e7b9d1d69"},"vehicle_type_id":"4","last_reported":1781303271,"current_range_meters":3200,"station_id":"ce4bgk12rcd13ifvqbi0","pricing_plan_id":"cebpf4jnsgd1na2vs0mg"},{"bike_id":"f6f4f86c-9b37-4ce7-9093-9ca625094014","system_id":"levelo_inurba_marseille","lat":43.28875,"lon":5.4253,"is_reserved":false,"is_disabled":false,"rental_uris":{"android":"levelo://app?vid=f6f4f86c-9b37-4ce7-9093-9ca625094014","ios":"levelo://app?vid=f6f4f86c-9b37-4ce7-9093-9ca625094014"},"vehicle_type_id":"4","last_reported":1781303271,"current_range_meters":3200,"station_id":"st_d3b462108ojc7389ooeg","pricing_plan_id":"cebpf4jnsgd1na2vs0mg"},{"bike_id":"3643eb2e-b0e4-40f6-9aa2-b567c4963540","system_id":"levelo_inurba_marseille","lat":43.3208,"lon":5.36751,"is_reserved":false,"is_disabled":false,"rental_uris":{"android":"levelo://app?vid=3643eb2e-b0e4-40f6-9aa2-b567c4963540","ios":"levelo://app?vid=3643eb2e-b0e4-40f6-9aa2-b567c4963540"},"vehicle_type_id":"4","last_reported":1781303271,"current_range_meters":3200,"station_id":"ce4bhrh2rcd13ifvqhug","pricing_plan_id":"cebpf4jnsgd1na2vs0mg"},{"bike_id":"c7920772-b4ab-4523-8462-6bacaa3845a1","system_id":"levelo_inurba_marseille","lat":43.29696,"lon":5.36617,"is_reserved":false,"is_disabled":false,"rental_uris":{"android":"levelo://app?vid=c7920772-b4ab-4523-8462-6bacaa3845a1","ios":"levelo://app?vid=c7920772-b4ab-4523-8462-6bacaa3845a1"},"vehicle_type_id":"4","last_reported":1781303271,"current_range_meters":3200,"station_id":"ce4bgn12rcd13ifvqbt0","pricing_plan_id":"cebpf4jnsgd1na2vs0mg"},{"bike_id":"74b24087-6dc2-49ee-8768-6d8cfcdc5c69","system_id":"levelo_inurba_marseille","lat":43.29376,"lon":5.37281,"is_reserved":false,"is_disabled":false,"rental_uris":{"android":"levelo://app?vid=74b24087-6dc2-49ee-8768-6d8cfcdc5c69","ios":"levelo://app?vid=74b24087-6dc2-49ee-8768-6d8cfcdc5c69"},"vehicle_type_id":"4","last_reported":1781303271,"current_range_meters":3200,"station_id":"","pricing_plan_id":"cebpf4jnsgd1na2vs0mg"},{"bike_id":"8973ed0e-0f1d-4b17-8f92-c0a250fe8e91","system_id":"levelo_inurba_marseille","lat":43.27948,"lon":5.41057,"is_reserved":false,"is_disabled":false,"rental_uris":{"android":"levelo://app?vid=8973ed0e-0f1d-4b17-8f92-c0a250fe8e91","ios":"levelo://app?vid=8973ed0e-0f1d-4b17-8f92-c0a250fe8e91"},"vehicle_type_id":"4","last_reported":1781303271,"current_range_meters":3200,"station_id":"ce4bhnp2rcd13ifvqh0g","pricing_plan_id":"cebpf4jnsgd1na2vs0mg"},{"bike_id":"059f3a32-515d-4619-a926-169233bb3b67","system_id":"levelo_inurba_marseille","lat":43.25864,"lon":5.39918,"is_reserved":false,"is_disabled":false,"rental_uris":{"android":"levelo://app?vid=059f3a32-515d-4619-a926-169233bb3b67","ios":"levelo://app?vid=059f3a32-515d-4619-a926-169233bb3b67"},"vehicle_type_id":"4","last_reported":1781303271,"current_range_meters":3200,"station_id":"ce4bhl92rcd13ifvqghg","pricing_plan_id":"cebpf4jnsgd1na2vs0mg"},{"bike_id":"c21080f3-e6f3-4502-a636-582aac59ccb0","system_id":"levelo_inurba_marseille","lat":43.27944,"lon":5.41053,"is_reserved":false,"is_disabled":false,"rental_uris":{"android":"levelo://app?vid=c21080f3-e6f3-4502-a636-582aac59ccb0","ios":"levelo://app?vid=c21080f3-e6f3-4502-a636-582aac59ccb0"},"vehicle_type_id":"4","last_reported":1781303271,"current_range_meters":3200,"station_id":"ce4bhnp2rcd13ifvqh0g","pricing_plan_id":"cebpf4jnsgd1na2vs0mg"},{"bike_id":"e68fddf3-c826-4b80-8260-df958ad54400","system_id":"levelo_inurba_marseille","lat":43.26407,"lon":5.37829,"is_reserved":false,"is_disabled":false,"rental_uris":{"android":"levelo://app?vid=e68fddf3-c826-4b80-8260-df958ad54400","ios":"levelo://app?vid=e68fddf3-c826-4b80-8260-df958ad54400"},"vehicle_type_id":"4","last_reported":1781303271,"current_range_meters":3200,"station_id":"","pricing_plan_id":"cebpf4jnsgd1na2vs0mg"},{"bike_id":"f1a562e5-8cff-449a-bdbb-a7b0c70c969e","system_id":"levelo_inurba_marseille","lat":43.29023,"lon":5.38133,"is_reserved":false,"is_disabled":true,"rental_uris":{"android":"levelo://app?vid=f1a562e5-8cff-449a-bdbb-a7b0c70c969e","ios":"levelo://app?vid=f1a562e5-8cff-449a-bdbb-a7b0c70c969e"},"vehicle_type_id":"4","last_reported":1781303271,"current_range_meters":3200,"station_id":"ce4bh4p2rcd13ifvqe1g","pricing_plan_id":"cebpf4jnsgd1na2vs0mg"},{"bike_id":"5e0ad376-6185-4ff4-b96b-53f5e823cca0","system_id":"levelo_inurba_marseille","lat":43.265261,"lon":5.395792,"is_reserved":false,"is_disabled":false,"rental_uris":{"android":"levelo://app?vid=5e0ad376-6185-4ff4-b96b-53f5e823cca0","ios":"levelo://app?vid=5e0ad376-6185-4ff4-b96b-53f5e823cca0"},"vehicle_type_id":"4","last_reported":1781303271,"current_range_meters":3200,"station_id":"ce4bhl92rcd13ifvqghg","pricing_plan_id":"cebpf4jnsgd1na2vs0mg"},{"bike_id":"32f4b615-e829-45d6-b461-b53e4666a0e2","system_id":"levelo_inurba_marseille","lat":43.31329,"lon":5.39692,"is_reserved":false,"is_disabled":false,"rental_uris":{"android":"levelo://app?vid=32f4b615-e829-45d6-b461-b53e4666a0e2","ios":"levelo://app?vid=32f4b615-e829-45d6-b461-b53e4666a0e2"},"vehicle_type_id":"4","last_reported":1781303271,"current_range_meters":3200,"station_id":"ce4bgvp2rcd13ifvqcu0","pricing_plan_id":"cebpf4jnsgd1na2vs0mg"},{"bike_id":"15fc56fc-294c-406d-b298-e6517f81b737","system_id":"levelo_inurba_marseille","lat":43.24635,"lon":5.4316,"is_reserved":false,"is_disabled":false,"rental_uris":{"android":"levelo://app?vid=15fc56fc-294c-406d-b298-e6517f81b737","ios":"levelo://app?vid=15fc56fc-294c-406d-b298-e6517f81b737"},"vehicle_type_id":"4","last_reported":1781303271,"current_range_meters":3200,"station_id":"st_d2m6c4gdas8pm72e190g","pricing_plan_id":"cebpf4jnsgd1na2vs0mg"},{"bike_id":"bd8e8f33-12b1-4c8d-8011-a25262fca44e","system_id":"levelo_inurba_marseille","lat":43.325,"lon":5.38318,"is_reserved":false,"is_disabled":false,"rental_uris":{"android":"levelo://app?vid=bd8e8f33-12b1-4c8d-8011-a25262fca44e","ios":"levelo://app?vid=bd8e8f33-12b1-4c8d-8011-a25262fca44e"},"vehicle_type_id":"4","last_reported":1781303271,"current_range_meters":3200,"station_id":"st_d4asgbiv49dc73anf9m0","pricing_plan_id":"cebpf4jnsgd1na2vs0mg"},{"bike_id":"57ef147f-97c4-4530-822d-985460b5cb6b","system_id":"levelo_inurba_marseille","lat":43.27915,"lon":5.39584,"is_reserved":false,"is_disabled":false,"rental_uris":{"android":"levelo://app?vid=57ef147f-97c4-4530-822d-985460b5cb6b","ios":"levelo://app?vid=57ef147f-97c4-4530-822d-985460b5cb6b"},"vehicle_type_id":"4","last_reported":1781303271,"current_range_meters":3200,"station_id":"ce4bhf92rcd13ifvqf40","pricing_plan_id":"cebpf4jnsgd1na2vs0mg"},{"bike_id":"1aa3286e-2b31-4b76-a32b-edfb60876a2a","system_id":"levelo_inurba_marseille","lat":43.28722,"lon":5.36089,"is_reserved":false,"is_disabled":false,"rental_uris":{"android":"levelo://app?vid=1aa3286e-2b31-4b76-a32b-edfb60876a2a","ios":"levelo://app?vid=1aa3286e-2b31-4b76-a32b-edfb60876a2a"},"vehicle_type_id":"4","last_reported":1781303271,"current_range_meters":3200,"station_id":"cki0cbj6b192h4jlfktg","pricing_plan_id":"cebpf4jnsgd1na2vs0mg"},{"bike_id":"4334e9b2-e02d-4cab-a325-f2a304fb7e29","system_id":"levelo_inurba_marseille","lat":43.25488,"lon":5.37647,"is_reserved":false,"is_disabled":false,"rental_uris":{"android":"levelo://app?vid=4334e9b2-e02d-4cab-a325-f2a304fb7e29","ios":"levelo://app?vid=4334e9b2-e02d-4cab-a325-f2a304fb7e29"},"vehicle_type_id":"4","last_reported":1781303271,"current_range_meters":3200,"station_id":"ce4bhh12rcd13ifvqff0","pricing_plan_id":"cebpf4jnsgd1na2vs0mg"},{"bike_id":"192118a2-c336-48c0-9abc-895d30ddfa45","system_id":"levelo_inurba_marseille","lat":43.27811,"lon":5.40739,"is_reserved":false,"is_disabled":false,"rental_uris":{"android":"levelo://app?vid=192118a2-c336-48c0-9abc-895d30ddfa45","ios":"levelo://app?vid=192118a2-c336-48c0-9abc-895d30ddfa45"},"vehicle_type_id":"4","last_reported":1781303271,"current_range_meters":3600,"station_id":"ce4bhnh2rcd13ifvqgtg","pricing_plan_id":"cebpf4jnsgd1na2vs0mg"},{"bike_id":"f479e9f1-5d34-46d9-9066-4efc22ee1f5b","system_id":"levelo_inurba_marseille","lat":43.3091,"lon":5.36848,"is_reserved":false,"is_disabled":false,"rental_uris":{"android":"levelo://app?vid=f479e9f1-5d34-46d9-9066-4efc22ee1f5b","ios":"levelo://app?vid=f479e9f1-5d34-46d9-9066-4efc22ee1f5b"},"vehicle_type_id":"4","last_reported":1781303271,"current_range_meters":3600,"station_id":"ce4bgn92rcd13ifvqbvg","pricing_plan_id":"cebpf4jnsgd1na2vs0mg"},{"bike_id":"1962cd80-1948-45bd-a5c0-ff35fc23ed03","system_id":"levelo_inurba_marseille","lat":43.28494,"lon":5.38455,"is_reserved":false,"is_disabled":true,"rental_uris":{"android":"levelo://app?vid=1962cd80-1948-45bd-a5c0-ff35fc23ed03","ios":"levelo://app?vid=1962cd80-1948-45bd-a5c0-ff35fc23ed03"},"vehicle_type_id":"4","last_reported":1781303271,"current_range_meters":3600,"station_id":"ce4bh512rcd13ifvqe3g","pricing_plan_id":"cebpf4jnsgd1na2vs0mg"},{"bike_id":"e48341ff-c3a9-4403-8a03-efe3196284a2","system_id":"levelo_inurba_marseille","lat":43.303067,"lon":5.392126,"is_reserved":false,"is_disabled":false,"rental_uris":{"android":"levelo://app?vid=e48341ff-c3a9-4403-8a03-efe3196284a2","ios":"levelo://app?vid=e48341ff-c3a9-4403-8a03-efe3196284a2"},"vehicle_type_id":"4","last_reported":1781303271,"current_range_meters":3600,"station_id":"ce4bgkh2rcd13ifvqbk0","pricing_plan_id":"cebpf4jnsgd1na2vs0mg"},{"bike_id":"338f2e1c-8667-43d2-bd42-f185411844a7","system_id":"levelo_inurba_marseille","lat":43.2871,"lon":5.39998,"is_reserved":false,"is_disabled":false,"rental_uris":{"android":"levelo://app?vid=338f2e1c-8667-43d2-bd42-f185411844a7","ios":"levelo://app?vid=338f2e1c-8667-43d2-bd42-f185411844a7"},"vehicle_type_id":"4","last_reported":1781303271,"current_range_meters":3600,"station_id":"ce4bho92rcd13ifvqh3g","pricing_plan_id":"cebpf4jnsgd1na2vs0mg"},{"bike_id":"f63e0e69-6a54-4e19-8d8e-f67680de3ed1","system_id":"levelo_inurba_marseille","lat":43.24626,"lon":5.43163,"is_reserved":false,"is_disabled":false,"rental_uris":{"android":"levelo://app?vid=f63e0e69-6a54-4e19-8d8e-f67680de3ed1","ios":"levelo://app?vid=f63e0e69-6a54-4e19-8d8e-f67680de3ed1"},"vehicle_type_id":"4","last_reported":1781303271,"current_range_meters":3600,"station_id":"st_d2m6c4gdas8pm72e190g","pricing_plan_id":"cebpf4jnsgd1na2vs0mg"},{"bike_id":"8b6b68f1-e508-4aca-8408-2e25b4d6ced5","system_id":"levelo_inurba_marseille","lat":43.21191,"lon":5.35071,"is_reserved":false,"is_disabled":false,"rental_uris":{"android":"levelo://app?vid=8b6b68f1-e508-4aca-8408-2e25b4d6ced5","ios":"levelo://app?vid=8b6b68f1-e508-4aca-8408-2e25b4d6ced5"},"vehicle_type_id":"4","last_reported":1781303271,"current_range_meters":3600,"station_id":"st_cvj6sg6p6f1abm77japg","pricing_plan_id":"cebpf4jnsgd1na2vs0mg"},{"bike_id":"40de0209-043c-4ed6-84c3-7ac1da5cf58d","system_id":"levelo_inurba_marseille","lat":43.32118,"lon":5.36768,"is_reserved":false,"is_disabled":false,"rental_uris":{"android":"levelo://app?vid=40de0209-043c-4ed6-84c3-7ac1da5cf58d","ios":"levelo://app?vid=40de0209-043c-4ed6-84c3-7ac1da5cf58d"},"vehicle_type_id":"4","last_reported":1781303271,"current_range_meters":3600,"station_id":"ce4bhrh2rcd13ifvqhug","pricing_plan_id":"cebpf4jnsgd1na2vs0mg"},{"bike_id":"4804a152-3c28-4559-af87-113cd26d6b42","system_id":"levelo_inurba_marseille","lat":43.25849,"lon":5.39916,"is_reserved":false,"is_disabled":false,"rental_uris":{"android":"levelo://app?vid=4804a152-3c28-4559-af87-113cd26d6b42","ios":"levelo://app?vid=4804a152-3c28-4559-af87-113cd26d6b42"},"vehicle_type_id":"4","last_reported":1781303271,"current_range_meters":3600,"station_id":"ce4bhl92rcd13ifvqghg","pricing_plan_id":"cebpf4jnsgd1na2vs0mg"},{"bike_id":"7c3c9798-9b75-4378-9f94-0bdd0c17f02c","system_id":"levelo_inurba_marseille","lat":43.24671,"lon":5.3816,"is_reserved":false,"is_disabled":false,"rental_uris":{"android":"levelo://app?vid=7c3c9798-9b75-4378-9f94-0bdd0c17f02c","ios":"levelo://app?vid=7c3c9798-9b75-4378-9f94-0bdd0c17f02c"},"vehicle_type_id":"4","last_reported":1781303271,"current_range_meters":3600,"station_id":"ce4bhih2rcd13ifvqfr0","pricing_plan_id":"cebpf4jnsgd1na2vs0mg"},{"bike_id":"3922a396-c5f6-4a26-bc3c-50942816827d","system_id":"levelo_inurba_marseille","lat":43.26223,"lon":5.4047,"is_reserved":false,"is_disabled":false,"rental_uris":{"android":"levelo://app?vid=3922a396-c5f6-4a26-bc3c-50942816827d","ios":"levelo://app?vid=3922a396-c5f6-4a26-bc3c-50942816827d"},"vehicle_type_id":"4","last_reported":1781303271,"current_range_meters":3600,"station_id":"ce4bhmh2rcd13ifvqgmg","pricing_plan_id":"cebpf4jnsgd1na2vs0mg"},{"bike_id":"91127671-348d-48fa-8e16-debe2eed689f","system_id":"levelo_inurba_marseille","lat":43.27799,"lon":5.39257,"is_reserved":false,"is_disabled":false,"rental_uris":{"android":"levelo://app?vid=91127671-348d-48fa-8e16-debe2eed689f","ios":"levelo://app?vid=91127671-348d-48fa-8e16-debe2eed689f"},"vehicle_type_id":"4","last_reported":1781303271,"current_range_meters":3600,"station_id":"","pricing_plan_id":"cebpf4jnsgd1na2vs0mg"},{"bike_id":"3a44773b-a64a-45f6-9197-56969bf49878","system_id":"levelo_inurba_marseille","lat":43.29714,"lon":5.3702,"is_reserved":false,"is_disabled":false,"rental_uris":{"android":"levelo://app?vid=3a44773b-a64a-45f6-9197-56969bf49878","ios":"levelo://app?vid=3a44773b-a64a-45f6-9197-56969bf49878"},"vehicle_type_id":"4","last_reported":1781303271,"current_range_meters":3600,"station_id":"","pricing_plan_id":"cebpf4jnsgd1na2vs0mg"},{"bike_id":"d96d04db-3a46-41d7-a5cf-29ee2408a116","system_id":"levelo_inurba_marseille","lat":43.23961,"lon":5.36615,"is_reserved":false,"is_disabled":false,"rental_uris":{"android":"levelo://app?vid=d96d04db-3a46-41d7-a5cf-29ee2408a116","ios":"levelo://app?vid=d96d04db-3a46-41d7-a5cf-29ee2408a116"},"vehicle_type_id":"4","last_reported":1781303271,"current_range_meters":3600,"station_id":"ce4bhi12rcd13ifvqfp0","pricing_plan_id":"cebpf4jnsgd1na2vs0mg"},{"bike_id":"8140e6e9-1ff4-412a-b716-f8751d9410d8","system_id":"levelo_inurba_marseille","lat":43.27561,"lon":5.38406,"is_reserved":false,"is_disabled":false,"rental_uris":{"android":"levelo://app?vid=8140e6e9-1ff4-412a-b716-f8751d9410d8","ios":"levelo://app?vid=8140e6e9-1ff4-412a-b716-f8751d9410d8"},"vehicle_type_id":"4","last_reported":1781303271,"current_range_meters":4000,"station_id":"ce4bhh92rcd13ifvqfi0","pricing_plan_id":"cebpf4jnsgd1na2vs0mg"},{"bike_id":"b71af7c2-4d98-4630-86ae-a4a165ba23e9","system_id":"levelo_inurba_marseille","lat":43.28869,"lon":5.37668,"is_reserved":false,"is_disabled":false,"rental_uris":{"android":"levelo://app?vid=b71af7c2-4d98-4630-86ae-a4a165ba23e9","ios":"levelo://app?vid=b71af7c2-4d98-4630-86ae-a4a165ba23e9"},"vehicle_type_id":"4","last_reported":1781303271,"current_range_meters":4000,"station_id":"","pricing_plan_id":"cebpf4jnsgd1na2vs0mg"},{"bike_id":"49e44123-4e12-4210-a075-5881856fef32","system_id":"levelo_inurba_marseille","lat":43.31326,"lon":5.397,"is_reserved":false,"is_disabled":false,"rental_uris":{"android":"levelo://app?vid=49e44123-4e12-4210-a075-5881856fef32","ios":"levelo://app?vid=49e44123-4e12-4210-a075-5881856fef32"},"vehicle_type_id":"4","last_reported":1781303271,"current_range_meters":4000,"station_id":"ce4bgvp2rcd13ifvqcu0","pricing_plan_id":"cebpf4jnsgd1na2vs0mg"},{"bike_id":"193e1006-9335-49a8-bba4-d06d716c1154","system_id":"levelo_inurba_marseille","lat":43.32097,"lon":5.3677,"is_reserved":false,"is_disabled":false,"rental_uris":{"android":"levelo://app?vid=193e1006-9335-49a8-bba4-d06d716c1154","ios":"levelo://app?vid=193e1006-9335-49a8-bba4-d06d716c1154"},"vehicle_type_id":"4","last_reported":1781303271,"current_range_meters":4000,"station_id":"ce4bhrh2rcd13ifvqhug","pricing_plan_id":"cebpf4jnsgd1na2vs0mg"},{"bike_id":"696ffd7d-90f2-4962-a226-c170e838fc3a","system_id":"levelo_inurba_marseille","lat":43.237872,"lon":5.366354,"is_reserved":false,"is_disabled":false,"rental_uris":{"android":"levelo://app?vid=696ffd7d-90f2-4962-a226-c170e838fc3a","ios":"levelo://app?vid=696ffd7d-90f2-4962-a226-c170e838fc3a"},"vehicle_type_id":"4","last_reported":1781303271,"current_range_meters":4000,"station_id":"st_d3nk18o9ro0c73en2l3g","pricing_plan_id":"cebpf4jnsgd1na2vs0mg"},{"bike_id":"f7698676-1932-4dbf-ab9d-6c907c9bbe14","system_id":"levelo_inurba_marseille","lat":43.31886,"lon":5.37143,"is_reserved":false,"is_disabled":false,"rental_uris":{"android":"levelo://app?vid=f7698676-1932-4dbf-ab9d-6c907c9bbe14","ios":"levelo://app?vid=f7698676-1932-4dbf-ab9d-6c907c9bbe14"},"vehicle_type_id":"4","last_reported":1781303271,"current_range_meters":4000,"station_id":"","pricing_plan_id":"cebpf4jnsgd1na2vs0mg"},{"bike_id":"8afeb7a8-b686-4611-8220-2ade2d33c717","system_id":"levelo_inurba_marseille","lat":43.29627,"lon":5.37669,"is_reserved":false,"is_disabled":true,"rental_uris":{"android":"levelo://app?vid=8afeb7a8-b686-4611-8220-2ade2d33c717","ios":"levelo://app?vid=8afeb7a8-b686-4611-8220-2ade2d33c717"},"vehicle_type_id":"4","last_reported":1781303271,"current_range_meters":4000,"station_id":"ce4bgi92rcd13ifvqb90","pricing_plan_id":"cebpf4jnsgd1na2vs0mg"},{"bike_id":"edd7f6cf-c00d-4334-ba4f-ddda86c6a12e","system_id":"levelo_inurba_marseille","lat":43.30239,"lon":5.37684,"is_reserved":false,"is_disabled":false,"rental_uris":{"android":"levelo://app?vid=edd7f6cf-c00d-4334-ba4f-ddda86c6a12e","ios":"levelo://app?vid=edd7f6cf-c00d-4334-ba4f-ddda86c6a12e"},"vehicle_type_id":"4","last_reported":1781303271,"current_range_meters":4000,"station_id":"","pricing_plan_id":"cebpf4jnsgd1na2vs0mg"},{"bike_id":"b5e5b9f3-bc66-4719-bcc7-6308b8e27554","system_id":"levelo_inurba_marseille","lat":43.26373,"lon":5.37825,"is_reserved":false,"is_disabled":false,"rental_uris":{"android":"levelo://app?vid=b5e5b9f3-bc66-4719-bcc7-6308b8e27554","ios":"levelo://app?vid=b5e5b9f3-bc66-4719-bcc7-6308b8e27554"},"vehicle_type_id":"4","last_reported":1781303271,"current_range_meters":4000,"station_id":"st_d163nis0mtpqnht9uue0","pricing_plan_id":"cebpf4jnsgd1na2vs0mg"},{"bike_id":"899fc967-7875-4bbe-9778-4c7d3ea1d62e","system_id":"levelo_inurba_marseille","lat":43.29105,"lon":5.38805,"is_reserved":false,"is_disabled":false,"rental_uris":{"android":"levelo://app?vid=899fc967-7875-4bbe-9778-4c7d3ea1d62e","ios":"levelo://app?vid=899fc967-7875-4bbe-9778-4c7d3ea1d62e"},"vehicle_type_id":"4","last_reported":1781303271,"current_range_meters":4000,"station_id":"","pricing_plan_id":"cebpf4jnsgd1na2vs0mg"},{"bike_id":"c216ae5f-598a-40d9-adeb-bc16e14cf742","system_id":"levelo_inurba_marseille","lat":43.24657,"lon":5.38162,"is_reserved":false,"is_disabled":false,"rental_uris":{"android":"levelo://app?vid=c216ae5f-598a-40d9-adeb-bc16e14cf742","ios":"levelo://app?vid=c216ae5f-598a-40d9-adeb-bc16e14cf742"},"vehicle_type_id":"4","last_reported":1781303271,"current_range_meters":4000,"station_id":"ce4bhih2rcd13ifvqfr0","pricing_plan_id":"cebpf4jnsgd1na2vs0mg"},{"bike_id":"a34661f4-e228-4d38-b4d3-66a93ab6d46c","system_id":"levelo_inurba_marseille","lat":43.296012,"lon":5.381005,"is_reserved":false,"is_disabled":false,"rental_uris":{"android":"levelo://app?vid=a34661f4-e228-4d38-b4d3-66a93ab6d46c","ios":"levelo://app?vid=a34661f4-e228-4d38-b4d3-66a93ab6d46c"},"vehicle_type_id":"4","last_reported":1781303271,"current_range_meters":4000,"station_id":"ce4bgl12rcd13ifvqbo0","pricing_plan_id":"cebpf4jnsgd1na2vs0mg"},{"bike_id":"e2093fe4-aa71-4f89-ae53-0ad6cb55af3b","system_id":"levelo_inurba_marseille","lat":43.288572,"lon":5.358449,"is_reserved":false,"is_disabled":false,"rental_uris":{"android":"levelo://app?vid=e2093fe4-aa71-4f89-ae53-0ad6cb55af3b","ios":"levelo://app?vid=e2093fe4-aa71-4f89-ae53-0ad6cb55af3b"},"vehicle_type_id":"4","last_reported":1781303271,"current_range_meters":4000,"station_id":"ce4bhb12rcd13ifvqem0","pricing_plan_id":"cebpf4jnsgd1na2vs0mg"},{"bike_id":"608ff39f-6b8a-4c50-ab24-16b80cd5ad22","system_id":"levelo_inurba_marseille","lat":43.27943,"lon":5.41057,"is_reserved":false,"is_disabled":false,"rental_uris":{"android":"levelo://app?vid=608ff39f-6b8a-4c50-ab24-16b80cd5ad22","ios":"levelo://app?vid=608ff39f-6b8a-4c50-ab24-16b80cd5ad22"},"vehicle_type_id":"4","last_reported":1781303271,"current_range_meters":4400,"station_id":"ce4bhnp2rcd13ifvqh0g","pricing_plan_id":"cebpf4jnsgd1na2vs0mg"},{"bike_id":"116e7e79-df73-459e-bb6d-922ab4ccb8bd","system_id":"levelo_inurba_marseille","lat":43.21192,"lon":5.35073,"is_reserved":false,"is_disabled":false,"rental_uris":{"android":"levelo://app?vid=116e7e79-df73-459e-bb6d-922ab4ccb8bd","ios":"levelo://app?vid=116e7e79-df73-459e-bb6d-922ab4ccb8bd"},"vehicle_type_id":"4","last_reported":1781303271,"current_range_meters":4400,"station_id":"st_cvj6sg6p6f1abm77japg","pricing_plan_id":"cebpf4jnsgd1na2vs0mg"},{"bike_id":"b83be4d3-06f4-4b3e-9ba2-a6d47abaf96e","system_id":"levelo_inurba_marseille","lat":43.29266,"lon":5.37636,"is_reserved":false,"is_disabled":true,"rental_uris":{"android":"levelo://app?vid=b83be4d3-06f4-4b3e-9ba2-a6d47abaf96e","ios":"levelo://app?vid=b83be4d3-06f4-4b3e-9ba2-a6d47abaf96e"},"vehicle_type_id":"4","last_reported":1781303271,"current_range_meters":4400,"station_id":"ce4bgi12rcd13ifvqb80","pricing_plan_id":"cebpf4jnsgd1na2vs0mg"},{"bike_id":"71e673c1-4feb-446e-b58c-e0535f27ae14","system_id":"levelo_inurba_marseille","lat":43.31783,"lon":5.38843,"is_reserved":false,"is_disabled":false,"rental_uris":{"android":"levelo://app?vid=71e673c1-4feb-446e-b58c-e0535f27ae14","ios":"levelo://app?vid=71e673c1-4feb-446e-b58c-e0535f27ae14"},"vehicle_type_id":"4","last_reported":1781303271,"current_range_meters":4400,"station_id":"","pricing_plan_id":"cebpf4jnsgd1na2vs0mg"},{"bike_id":"318c2327-cd61-4b3a-8efa-5ff92eb9038b","system_id":"levelo_inurba_marseille","lat":43.34758,"lon":5.36648,"is_reserved":false,"is_disabled":false,"rental_uris":{"android":"levelo://app?vid=318c2327-cd61-4b3a-8efa-5ff92eb9038b","ios":"levelo://app?vid=318c2327-cd61-4b3a-8efa-5ff92eb9038b"},"vehicle_type_id":"4","last_reported":1781303271,"current_range_meters":4400,"station_id":"","pricing_plan_id":"cebpf4jnsgd1na2vs0mg"},{"bike_id":"68709dce-a836-44f2-995a-c3bbeadc0f73","system_id":"levelo_inurba_marseille","lat":43.27509,"lon":5.41584,"is_reserved":false,"is_disabled":false,"rental_uris":{"android":"levelo://app?vid=68709dce-a836-44f2-995a-c3bbeadc0f73","ios":"levelo://app?vid=68709dce-a836-44f2-995a-c3bbeadc0f73"},"vehicle_type_id":"4","last_reported":1781303271,"current_range_meters":4400,"station_id":"st_d6im8g6chgec73a5pndg","pricing_plan_id":"cebpf4jnsgd1na2vs0mg"},{"bike_id":"08fbc0bc-0d78-4646-a316-9a416607340a","system_id":"levelo_inurba_marseille","lat":43.2534,"lon":5.42194,"is_reserved":false,"is_disabled":false,"rental_uris":{"android":"levelo://app?vid=08fbc0bc-0d78-4646-a316-9a416607340a","ios":"levelo://app?vid=08fbc0bc-0d78-4646-a316-9a416607340a"},"vehicle_type_id":"4","last_reported":1781303271,"current_range_meters":4400,"station_id":"st_d2m65c5bi1j21697t3ng","pricing_plan_id":"cebpf4jnsgd1na2vs0mg"},{"bike_id":"d9bbcfa4-a44d-4020-b0df-d2651b3bdf41","system_id":"levelo_inurba_marseille","lat":43.21193,"lon":5.35071,"is_reserved":false,"is_disabled":false,"rental_uris":{"android":"levelo://app?vid=d9bbcfa4-a44d-4020-b0df-d2651b3bdf41","ios":"levelo://app?vid=d9bbcfa4-a44d-4020-b0df-d2651b3bdf41"},"vehicle_type_id":"4","last_reported":1781303271,"current_range_meters":4400,"station_id":"st_cvj6sg6p6f1abm77japg","pricing_plan_id":"cebpf4jnsgd1na2vs0mg"},{"bike_id":"8bf99202-0aa0-4c45-a06d-a3fa999fbea6","system_id":"levelo_inurba_marseille","lat":43.31114,"lon":5.37148,"is_reserved":false,"is_disabled":true,"rental_uris":{"android":"levelo://app?vid=8bf99202-0aa0-4c45-a06d-a3fa999fbea6","ios":"levelo://app?vid=8bf99202-0aa0-4c45-a06d-a3fa999fbea6"},"vehicle_type_id":"4","last_reported":1781303271,"current_range_meters":4400,"station_id":"","pricing_plan_id":"cebpf4jnsgd1na2vs0mg"},{"bike_id":"3eabbc96-3126-4ab2-9db8-b9c78a7ec335","system_id":"levelo_inurba_marseille","lat":43.29262,"lon":5.40905,"is_reserved":false,"is_disabled":false,"rental_uris":{"android":"levelo://app?vid=3eabbc96-3126-4ab2-9db8-b9c78a7ec335","ios":"levelo://app?vid=3eabbc96-3126-4ab2-9db8-b9c78a7ec335"},"vehicle_type_id":"4","last_reported":1781303271,"current_range_meters":4400,"station_id":"ce4bh192rcd13ifvqdc0","pricing_plan_id":"cebpf4jnsgd1na2vs0mg"},{"bike_id":"b4c0f195-58a3-456c-9ed4-e0663f1468e6","system_id":"levelo_inurba_marseille","lat":43.28278,"lon":5.37378,"is_reserved":false,"is_disabled":false,"rental_uris":{"android":"levelo://app?vid=b4c0f195-58a3-456c-9ed4-e0663f1468e6","ios":"levelo://app?vid=b4c0f195-58a3-456c-9ed4-e0663f1468e6"},"vehicle_type_id":"4","last_reported":1781303271,"current_range_meters":4400,"station_id":"","pricing_plan_id":"cebpf4jnsgd1na2vs0mg"},{"bike_id":"f67ad162-59a7-4930-b91f-53ea1831b39d","system_id":"levelo_inurba_marseille","lat":43.30439,"lon":5.38886,"is_reserved":false,"is_disabled":false,"rental_uris":{"android":"levelo://app?vid=f67ad162-59a7-4930-b91f-53ea1831b39d","ios":"levelo://app?vid=f67ad162-59a7-4930-b91f-53ea1831b39d"},"vehicle_type_id":"4","last_reported":1781303271,"current_range_meters":4400,"station_id":"ce4bgk12rcd13ifvqbi0","pricing_plan_id":"cebpf4jnsgd1na2vs0mg"},{"bike_id":"a24188e5-5b3d-49b1-ac4b-766450209e73","system_id":"levelo_inurba_marseille","lat":43.23184,"lon":5.35547,"is_reserved":false,"is_disabled":false,"rental_uris":{"android":"levelo://app?vid=a24188e5-5b3d-49b1-ac4b-766450209e73","ios":"levelo://app?vid=a24188e5-5b3d-49b1-ac4b-766450209e73"},"vehicle_type_id":"4","last_reported":1781303271,"current_range_meters":4400,"station_id":"ce4bhu92rcd13ifvqi70","pricing_plan_id":"cebpf4jnsgd1na2vs0mg"},{"bike_id":"91f3d509-948f-4954-869e-c5f5265c1675","system_id":"levelo_inurba_marseille","lat":43.29014,"lon":5.38132,"is_reserved":false,"is_disabled":false,"rental_uris":{"android":"levelo://app?vid=91f3d509-948f-4954-869e-c5f5265c1675","ios":"levelo://app?vid=91f3d509-948f-4954-869e-c5f5265c1675"},"vehicle_type_id":"4","last_reported":1781303271,"current_range_meters":4400,"station_id":"ce4bh4p2rcd13ifvqe1g","pricing_plan_id":"cebpf4jnsgd1na2vs0mg"},{"bike_id":"95a6a820-080c-4047-9edc-2eab85cc3ea0","system_id":"levelo_inurba_marseille","lat":43.31247,"lon":5.37265,"is_reserved":false,"is_disabled":false,"rental_uris":{"android":"levelo://app?vid=95a6a820-080c-4047-9edc-2eab85cc3ea0","ios":"levelo://app?vid=95a6a820-080c-4047-9edc-2eab85cc3ea0"},"vehicle_type_id":"4","last_reported":1781303271,"current_range_meters":4400,"station_id":"","pricing_plan_id":"cebpf4jnsgd1na2vs0mg"},{"bike_id":"e9d15136-042f-4610-a927-ed31e93e91eb","system_id":"levelo_inurba_marseille","lat":43.30459,"lon":5.37911,"is_reserved":false,"is_disabled":false,"rental_uris":{"android":"levelo://app?vid=e9d15136-042f-4610-a927-ed31e93e91eb","ios":"levelo://app?vid=e9d15136-042f-4610-a927-ed31e93e91eb"},"vehicle_type_id":"4","last_reported":1781303271,"current_range_meters":4400,"station_id":"ce4bgup2rcd13ifvqcn0","pricing_plan_id":"cebpf4jnsgd1na2vs0mg"},{"bike_id":"263da845-97bb-476a-b58b-c1db1ba25e78","system_id":"levelo_inurba_marseille","lat":43.28693,"lon":5.40009,"is_reserved":false,"is_disabled":false,"rental_uris":{"android":"levelo://app?vid=263da845-97bb-476a-b58b-c1db1ba25e78","ios":"levelo://app?vid=263da845-97bb-476a-b58b-c1db1ba25e78"},"vehicle_type_id":"4","last_reported":1781303271,"current_range_meters":4400,"station_id":"ce4bho92rcd13ifvqh3g","pricing_plan_id":"cebpf4jnsgd1na2vs0mg"},{"bike_id":"a70cc9d0-8c18-4493-8a97-b7df9d495e9b","system_id":"levelo_inurba_marseille","lat":43.2512,"lon":5.4032,"is_reserved":false,"is_disabled":false,"rental_uris":{"android":"levelo://app?vid=a70cc9d0-8c18-4493-8a97-b7df9d495e9b","ios":"levelo://app?vid=a70cc9d0-8c18-4493-8a97-b7df9d495e9b"},"vehicle_type_id":"4","last_reported":1781303271,"current_range_meters":4400,"station_id":"","pricing_plan_id":"cebpf4jnsgd1na2vs0mg"},{"bike_id":"41eb6a40-5c9c-4ae0-95cb-ec8052428c3d","system_id":"levelo_inurba_marseille","lat":43.26054,"lon":5.39375,"is_reserved":false,"is_disabled":false,"rental_uris":{"android":"levelo://app?vid=41eb6a40-5c9c-4ae0-95cb-ec8052428c3d","ios":"levelo://app?vid=41eb6a40-5c9c-4ae0-95cb-ec8052428c3d"},"vehicle_type_id":"4","last_reported":1781303271,"current_range_meters":4800,"station_id":"ce4bhh92rcd13ifvqfj0","pricing_plan_id":"cebpf4jnsgd1na2vs0mg"},{"bike_id":"52e0ca30-f6db-4b40-a595-fe3e1b7ca10e","system_id":"levelo_inurba_marseille","lat":43.26191,"lon":5.37453,"is_reserved":false,"is_disabled":true,"rental_uris":{"android":"levelo://app?vid=52e0ca30-f6db-4b40-a595-fe3e1b7ca10e","ios":"levelo://app?vid=52e0ca30-f6db-4b40-a595-fe3e1b7ca10e"},"vehicle_type_id":"4","last_reported":1781303271,"current_range_meters":4800,"station_id":"ce4bhgp2rcd13ifvqfc0","pricing_plan_id":"cebpf4jnsgd1na2vs0mg"},{"bike_id":"dd9375de-505e-4abc-8eaf-45ecbf56d14f","system_id":"levelo_inurba_marseille","lat":43.29798,"lon":5.37115,"is_reserved":false,"is_disabled":false,"rental_uris":{"android":"levelo://app?vid=dd9375de-505e-4abc-8eaf-45ecbf56d14f","ios":"levelo://app?vid=dd9375de-505e-4abc-8eaf-45ecbf56d14f"},"vehicle_type_id":"4","last_reported":1781303271,"current_range_meters":4800,"station_id":"ce4bgop2rcd13ifvqc1g","pricing_plan_id":"cebpf4jnsgd1na2vs0mg"},{"bike_id":"4f4c9807-76d5-4dd6-820d-18855297b03f","system_id":"levelo_inurba_marseille","lat":43.28996,"lon":5.38354,"is_reserved":false,"is_disabled":false,"rental_uris":{"android":"levelo://app?vid=4f4c9807-76d5-4dd6-820d-18855297b03f","ios":"levelo://app?vid=4f4c9807-76d5-4dd6-820d-18855297b03f"},"vehicle_type_id":"4","last_reported":1781303271,"current_range_meters":4800,"station_id":"","pricing_plan_id":"cebpf4jnsgd1na2vs0mg"},{"bike_id":"0e737488-eea1-4c79-a09b-4e4182d3e90a","system_id":"levelo_inurba_marseille","lat":43.26217,"lon":5.38765,"is_reserved":false,"is_disabled":false,"rental_uris":{"android":"levelo://app?vid=0e737488-eea1-4c79-a09b-4e4182d3e90a","ios":"levelo://app?vid=0e737488-eea1-4c79-a09b-4e4182d3e90a"},"vehicle_type_id":"4","last_reported":1781303271,"current_range_meters":4800,"station_id":"st_d8gjfg747rts73coq3b0","pricing_plan_id":"cebpf4jnsgd1na2vs0mg"},{"bike_id":"0c866fd6-b5f6-4453-95cd-f3b0069af732","system_id":"levelo_inurba_marseille","lat":43.27949,"lon":5.38751,"is_reserved":false,"is_disabled":false,"rental_uris":{"android":"levelo://app?vid=0c866fd6-b5f6-4453-95cd-f3b0069af732","ios":"levelo://app?vid=0c866fd6-b5f6-4453-95cd-f3b0069af732"},"vehicle_type_id":"4","last_reported":1781303271,"current_range_meters":4800,"station_id":"ce4bhg12rcd13ifvqf80","pricing_plan_id":"cebpf4jnsgd1na2vs0mg"},{"bike_id":"6edb1571-ff0e-41be-86f6-ab57a8172f99","system_id":"levelo_inurba_marseille","lat":43.3212,"lon":5.36804,"is_reserved":false,"is_disabled":false,"rental_uris":{"android":"levelo://app?vid=6edb1571-ff0e-41be-86f6-ab57a8172f99","ios":"levelo://app?vid=6edb1571-ff0e-41be-86f6-ab57a8172f99"},"vehicle_type_id":"4","last_reported":1781303271,"current_range_meters":4800,"station_id":"ce4bhrh2rcd13ifvqhug","pricing_plan_id":"cebpf4jnsgd1na2vs0mg"},{"bike_id":"8a9f3474-1ba5-4fc3-b4e6-1d2f8579f9d1","system_id":"levelo_inurba_marseille","lat":43.26568,"lon":5.39074,"is_reserved":false,"is_disabled":true,"rental_uris":{"android":"levelo://app?vid=8a9f3474-1ba5-4fc3-b4e6-1d2f8579f9d1","ios":"levelo://app?vid=8a9f3474-1ba5-4fc3-b4e6-1d2f8579f9d1"},"vehicle_type_id":"4","last_reported":1781303271,"current_range_meters":4800,"station_id":"","pricing_plan_id":"cebpf4jnsgd1na2vs0mg"},{"bike_id":"1345c154-16ee-4ed3-b4f1-947a1b328d12","system_id":"levelo_inurba_marseille","lat":43.26224,"lon":5.38784,"is_reserved":false,"is_disabled":false,"rental_uris":{"android":"levelo://app?vid=1345c154-16ee-4ed3-b4f1-947a1b328d12","ios":"levelo://app?vid=1345c154-16ee-4ed3-b4f1-947a1b328d12"},"vehicle_type_id":"4","last_reported":1781303271,"current_range_meters":4800,"station_id":"st_d8gjfg747rts73coq3b0","pricing_plan_id":"cebpf4jnsgd1na2vs0mg"},{"bike_id":"24f02d56-4cb2-4734-b396-c4353be9b86c","system_id":"levelo_inurba_marseille","lat":43.32099,"lon":5.36779,"is_reserved":false,"is_disabled":false,"rental_uris":{"android":"levelo://app?vid=24f02d56-4cb2-4734-b396-c4353be9b86c","ios":"levelo://app?vid=24f02d56-4cb2-4734-b396-c4353be9b86c"},"vehicle_type_id":"4","last_reported":1781303271,"current_range_meters":4800,"station_id":"ce4bhrh2rcd13ifvqhug","pricing_plan_id":"cebpf4jnsgd1na2vs0mg"},{"bike_id":"246ae3dc-a47d-4d5c-b55b-33a21570cec9","system_id":"levelo_inurba_marseille","lat":43.29575,"lon":5.39983,"is_reserved":false,"is_disabled":false,"rental_uris":{"android":"levelo://app?vid=246ae3dc-a47d-4d5c-b55b-33a21570cec9","ios":"levelo://app?vid=246ae3dc-a47d-4d5c-b55b-33a21570cec9"},"vehicle_type_id":"4","last_reported":1781303271,"current_range_meters":4800,"station_id":"ce4bh312rcd13ifvqdj0","pricing_plan_id":"cebpf4jnsgd1na2vs0mg"},{"bike_id":"6edcf1b7-92b4-40b2-b83c-f35c5e6a2231","system_id":"levelo_inurba_marseille","lat":43.25325,"lon":5.42173,"is_reserved":false,"is_disabled":false,"rental_uris":{"android":"levelo://app?vid=6edcf1b7-92b4-40b2-b83c-f35c5e6a2231","ios":"levelo://app?vid=6edcf1b7-92b4-40b2-b83c-f35c5e6a2231"},"vehicle_type_id":"4","last_reported":1781303271,"current_range_meters":4800,"station_id":"st_d2m65c5bi1j21697t3ng","pricing_plan_id":"cebpf4jnsgd1na2vs0mg"},{"bike_id":"a848a5d1-feb4-4560-89e7-b2ad298b123f","system_id":"levelo_inurba_marseille","lat":43.24639,"lon":5.4315,"is_reserved":false,"is_disabled":false,"rental_uris":{"android":"levelo://app?vid=a848a5d1-feb4-4560-89e7-b2ad298b123f","ios":"levelo://app?vid=a848a5d1-feb4-4560-89e7-b2ad298b123f"},"vehicle_type_id":"4","last_reported":1781303271,"current_range_meters":4800,"station_id":"st_d2m6c4gdas8pm72e190g","pricing_plan_id":"cebpf4jnsgd1na2vs0mg"},{"bike_id":"3eb1ee37-e347-41f2-8d65-873e103ae57e","system_id":"levelo_inurba_marseille","lat":43.26442,"lon":5.39512,"is_reserved":false,"is_disabled":false,"rental_uris":{"android":"levelo://app?vid=3eb1ee37-e347-41f2-8d65-873e103ae57e","ios":"levelo://app?vid=3eb1ee37-e347-41f2-8d65-873e103ae57e"},"vehicle_type_id":"4","last_reported":1781303271,"current_range_meters":4800,"station_id":"","pricing_plan_id":"cebpf4jnsgd1na2vs0mg"},{"bike_id":"7717390a-9f55-4678-b2a5-ba0a73b8a548","system_id":"levelo_inurba_marseille","lat":43.3159,"lon":5.36973,"is_reserved":false,"is_disabled":false,"rental_uris":{"android":"levelo://app?vid=7717390a-9f55-4678-b2a5-ba0a73b8a548","ios":"levelo://app?vid=7717390a-9f55-4678-b2a5-ba0a73b8a548"},"vehicle_type_id":"4","last_reported":1781303271,"current_range_meters":4800,"station_id":"","pricing_plan_id":"cebpf4jnsgd1na2vs0mg"},{"bike_id":"c7003374-df0a-4adf-a763-b7ffcb27c463","system_id":"levelo_inurba_marseille","lat":43.28471,"lon":5.48404,"is_reserved":false,"is_disabled":false,"rental_uris":{"android":"levelo://app?vid=c7003374-df0a-4adf-a763-b7ffcb27c463","ios":"levelo://app?vid=c7003374-df0a-4adf-a763-b7ffcb27c463"},"vehicle_type_id":"4","last_reported":1781303271,"current_range_meters":4800,"station_id":"st_d3svhcjqgbts73a3dn0g","pricing_plan_id":"cebpf4jnsgd1na2vs0mg"},{"bike_id":"750d545d-9962-42b9-9a8e-d0d1cf1bbc44","system_id":"levelo_inurba_marseille","lat":43.25509,"lon":5.3767,"is_reserved":false,"is_disabled":false,"rental_uris":{"android":"levelo://app?vid=750d545d-9962-42b9-9a8e-d0d1cf1bbc44","ios":"levelo://app?vid=750d545d-9962-42b9-9a8e-d0d1cf1bbc44"},"vehicle_type_id":"4","last_reported":1781303271,"current_range_meters":4800,"station_id":"ce4bhh12rcd13ifvqff0","pricing_plan_id":"cebpf4jnsgd1na2vs0mg"},{"bike_id":"e4f3ef33-23ae-46b5-9d3f-ed3f2c6f89cf","system_id":"levelo_inurba_marseille","lat":43.26645,"lon":5.38162,"is_reserved":false,"is_disabled":false,"rental_uris":{"android":"levelo://app?vid=e4f3ef33-23ae-46b5-9d3f-ed3f2c6f89cf","ios":"levelo://app?vid=e4f3ef33-23ae-46b5-9d3f-ed3f2c6f89cf"},"vehicle_type_id":"4","last_reported":1781303271,"current_range_meters":4800,"station_id":"","pricing_plan_id":"cebpf4jnsgd1na2vs0mg"},{"bike_id":"0b5e5ebe-06e0-49ff-af56-ed6dd5b297a9","system_id":"levelo_inurba_marseille","lat":43.3062,"lon":5.40091,"is_reserved":false,"is_disabled":false,"rental_uris":{"android":"levelo://app?vid=0b5e5ebe-06e0-49ff-af56-ed6dd5b297a9","ios":"levelo://app?vid=0b5e5ebe-06e0-49ff-af56-ed6dd5b297a9"},"vehicle_type_id":"4","last_reported":1781303271,"current_range_meters":4800,"station_id":"ce4bh112rcd13ifvqda0","pricing_plan_id":"cebpf4jnsgd1na2vs0mg"},{"bike_id":"d2e103c4-ce9b-4038-a829-b6440c26249c","system_id":"levelo_inurba_marseille","lat":43.26355,"lon":5.37822,"is_reserved":false,"is_disabled":false,"rental_uris":{"android":"levelo://app?vid=d2e103c4-ce9b-4038-a829-b6440c26249c","ios":"levelo://app?vid=d2e103c4-ce9b-4038-a829-b6440c26249c"},"vehicle_type_id":"4","last_reported":1781303271,"current_range_meters":4800,"station_id":"st_d163nis0mtpqnht9uue0","pricing_plan_id":"cebpf4jnsgd1na2vs0mg"},{"bike_id":"76ff20aa-c2bd-4fa2-8dca-7099f4d9bbe6","system_id":"levelo_inurba_marseille","lat":43.2118,"lon":5.35075,"is_reserved":false,"is_disabled":false,"rental_uris":{"android":"levelo://app?vid=76ff20aa-c2bd-4fa2-8dca-7099f4d9bbe6","ios":"levelo://app?vid=76ff20aa-c2bd-4fa2-8dca-7099f4d9bbe6"},"vehicle_type_id":"4","last_reported":1781303271,"current_range_meters":4800,"station_id":"st_cvj6sg6p6f1abm77japg","pricing_plan_id":"cebpf4jnsgd1na2vs0mg"},{"bike_id":"497db4fe-414c-4f3e-9d03-238169542317","system_id":"levelo_inurba_marseille","lat":43.35066,"lon":5.35066,"is_reserved":false,"is_disabled":false,"rental_uris":{"android":"levelo://app?vid=497db4fe-414c-4f3e-9d03-238169542317","ios":"levelo://app?vid=497db4fe-414c-4f3e-9d03-238169542317"},"vehicle_type_id":"4","last_reported":1781303271,"current_range_meters":5600,"station_id":"","pricing_plan_id":"cebpf4jnsgd1na2vs0mg"},{"bike_id":"9355951e-b041-446b-b93e-73dce11071c1","system_id":"levelo_inurba_marseille","lat":43.30319,"lon":5.37345,"is_reserved":false,"is_disabled":false,"rental_uris":{"android":"levelo://app?vid=9355951e-b041-446b-b93e-73dce11071c1","ios":"levelo://app?vid=9355951e-b041-446b-b93e-73dce11071c1"},"vehicle_type_id":"4","last_reported":1781303271,"current_range_meters":5600,"station_id":"","pricing_plan_id":"cebpf4jnsgd1na2vs0mg"},{"bike_id":"4865a1c5-afe2-4dda-8194-f69b08d22f31","system_id":"levelo_inurba_marseille","lat":43.25581,"lon":5.38242,"is_reserved":false,"is_disabled":false,"rental_uris":{"android":"levelo://app?vid=4865a1c5-afe2-4dda-8194-f69b08d22f31","ios":"levelo://app?vid=4865a1c5-afe2-4dda-8194-f69b08d22f31"},"vehicle_type_id":"4","last_reported":1781303271,"current_range_meters":5600,"station_id":"ce4bhih2rcd13ifvqfs0","pricing_plan_id":"cebpf4jnsgd1na2vs0mg"},{"bike_id":"9e2ab423-c4f7-4fc5-bb89-60dd4548e5f9","system_id":"levelo_inurba_marseille","lat":43.26552,"lon":5.37278,"is_reserved":false,"is_disabled":false,"rental_uris":{"android":"levelo://app?vid=9e2ab423-c4f7-4fc5-bb89-60dd4548e5f9","ios":"levelo://app?vid=9e2ab423-c4f7-4fc5-bb89-60dd4548e5f9"},"vehicle_type_id":"4","last_reported":1781303271,"current_range_meters":5600,"station_id":"ce4bhg12rcd13ifvqf70","pricing_plan_id":"cebpf4jnsgd1na2vs0mg"},{"bike_id":"ea97e60e-4181-45fb-93e9-aec30c6471ba","system_id":"levelo_inurba_marseille","lat":43.2937,"lon":5.39878,"is_reserved":false,"is_disabled":false,"rental_uris":{"android":"levelo://app?vid=ea97e60e-4181-45fb-93e9-aec30c6471ba","ios":"levelo://app?vid=ea97e60e-4181-45fb-93e9-aec30c6471ba"},"vehicle_type_id":"4","last_reported":1781303271,"current_range_meters":5600,"station_id":"","pricing_plan_id":"cebpf4jnsgd1na2vs0mg"},{"bike_id":"146aec29-722b-453a-912a-fa2de91661dd","system_id":"levelo_inurba_marseille","lat":43.28676,"lon":5.38659,"is_reserved":false,"is_disabled":false,"rental_uris":{"android":"levelo://app?vid=146aec29-722b-453a-912a-fa2de91661dd","ios":"levelo://app?vid=146aec29-722b-453a-912a-fa2de91661dd"},"vehicle_type_id":"4","last_reported":1781303271,"current_range_meters":5600,"station_id":"ce4bh492rcd13ifvqdug","pricing_plan_id":"cebpf4jnsgd1na2vs0mg"},{"bike_id":"feb02014-d1e9-4644-93d9-395980d05286","system_id":"levelo_inurba_marseille","lat":43.28477,"lon":5.38433,"is_reserved":false,"is_disabled":false,"rental_uris":{"android":"levelo://app?vid=feb02014-d1e9-4644-93d9-395980d05286","ios":"levelo://app?vid=feb02014-d1e9-4644-93d9-395980d05286"},"vehicle_type_id":"4","last_reported":1781303271,"current_range_meters":5600,"station_id":"ce4bh512rcd13ifvqe3g","pricing_plan_id":"cebpf4jnsgd1na2vs0mg"},{"bike_id":"5868bc47-e30d-49b5-b51a-7a8a5eb4eb1b","system_id":"levelo_inurba_marseille","lat":43.31496,"lon":5.37318,"is_reserved":false,"is_disabled":false,"rental_uris":{"android":"levelo://app?vid=5868bc47-e30d-49b5-b51a-7a8a5eb4eb1b","ios":"levelo://app?vid=5868bc47-e30d-49b5-b51a-7a8a5eb4eb1b"},"vehicle_type_id":"4","last_reported":1781303271,"current_range_meters":5600,"station_id":"ce4bgt12rcd13ifvqcd0","pricing_plan_id":"cebpf4jnsgd1na2vs0mg"},{"bike_id":"70589535-c6c3-49ab-af0f-cc78c5f53fcb","system_id":"levelo_inurba_marseille","lat":43.32369,"lon":5.38887,"is_reserved":false,"is_disabled":false,"rental_uris":{"android":"levelo://app?vid=70589535-c6c3-49ab-af0f-cc78c5f53fcb","ios":"levelo://app?vid=70589535-c6c3-49ab-af0f-cc78c5f53fcb"},"vehicle_type_id":"4","last_reported":1781303271,"current_range_meters":5600,"station_id":"ce4bhqp2rcd13ifvqhog","pricing_plan_id":"cebpf4jnsgd1na2vs0mg"},{"bike_id":"ebb827df-8560-450e-81ad-69a11a9752d3","system_id":"levelo_inurba_marseille","lat":43.29816,"lon":5.44066,"is_reserved":false,"is_disabled":false,"rental_uris":{"android":"levelo://app?vid=ebb827df-8560-450e-81ad-69a11a9752d3","ios":"levelo://app?vid=ebb827df-8560-450e-81ad-69a11a9752d3"},"vehicle_type_id":"4","last_reported":1781303271,"current_range_meters":5600,"station_id":"st_d3jp68qikq2c7381ktn0","pricing_plan_id":"cebpf4jnsgd1na2vs0mg"},{"bike_id":"faf8ca25-719d-47d6-9604-bd79076dfce4","system_id":"levelo_inurba_marseille","lat":43.26674,"lon":5.38263,"is_reserved":false,"is_disabled":false,"rental_uris":{"android":"levelo://app?vid=faf8ca25-719d-47d6-9604-bd79076dfce4","ios":"levelo://app?vid=faf8ca25-719d-47d6-9604-bd79076dfce4"},"vehicle_type_id":"4","last_reported":1781303271,"current_range_meters":5600,"station_id":"ce4bhg92rcd13ifvqf90","pricing_plan_id":"cebpf4jnsgd1na2vs0mg"},{"bike_id":"b105e559-ad92-41ad-9bdf-4bd2f454dd68","system_id":"levelo_inurba_marseille","lat":43.30154,"lon":5.44967,"is_reserved":false,"is_disabled":false,"rental_uris":{"android":"levelo://app?vid=b105e559-ad92-41ad-9bdf-4bd2f454dd68","ios":"levelo://app?vid=b105e559-ad92-41ad-9bdf-4bd2f454dd68"},"vehicle_type_id":"4","last_reported":1781303271,"current_range_meters":5600,"station_id":"","pricing_plan_id":"cebpf4jnsgd1na2vs0mg"},{"bike_id":"b91e8fb6-0f51-4635-af15-b9f2d3bd237c","system_id":"levelo_inurba_marseille","lat":43.30802,"lon":5.37651,"is_reserved":false,"is_disabled":false,"rental_uris":{"android":"levelo://app?vid=b91e8fb6-0f51-4635-af15-b9f2d3bd237c","ios":"levelo://app?vid=b91e8fb6-0f51-4635-af15-b9f2d3bd237c"},"vehicle_type_id":"4","last_reported":1781303271,"current_range_meters":5600,"station_id":"ce4bgv92rcd13ifvqcq0","pricing_plan_id":"cebpf4jnsgd1na2vs0mg"},{"bike_id":"d0de1da7-d7ae-4453-8900-8b3f4d2eb0f2","system_id":"levelo_inurba_marseille","lat":43.29519,"lon":5.38548,"is_reserved":false,"is_disabled":false,"rental_uris":{"android":"levelo://app?vid=d0de1da7-d7ae-4453-8900-8b3f4d2eb0f2","ios":"levelo://app?vid=d0de1da7-d7ae-4453-8900-8b3f4d2eb0f2"},"vehicle_type_id":"4","last_reported":1781303271,"current_range_meters":5600,"station_id":"ce4bgih2rcd13ifvqba0","pricing_plan_id":"cebpf4jnsgd1na2vs0mg"},{"bike_id":"eebe66ac-767a-4fec-89e5-49612df6f0cb","system_id":"levelo_inurba_marseille","lat":43.29807,"lon":5.44066,"is_reserved":false,"is_disabled":false,"rental_uris":{"android":"levelo://app?vid=eebe66ac-767a-4fec-89e5-49612df6f0cb","ios":"levelo://app?vid=eebe66ac-767a-4fec-89e5-49612df6f0cb"},"vehicle_type_id":"4","last_reported":1781303271,"current_range_meters":5600,"station_id":"st_d3jp68qikq2c7381ktn0","pricing_plan_id":"cebpf4jnsgd1na2vs0mg"},{"bike_id":"31a183c8-c081-4c93-b667-22a1387054e5","system_id":"levelo_inurba_marseille","lat":43.30931,"lon":5.40144,"is_reserved":false,"is_disabled":false,"rental_uris":{"android":"levelo://app?vid=31a183c8-c081-4c93-b667-22a1387054e5","ios":"levelo://app?vid=31a183c8-c081-4c93-b667-22a1387054e5"},"vehicle_type_id":"4","last_reported":1781303271,"current_range_meters":5600,"station_id":"ce4bgvp2rcd13ifvqct0","pricing_plan_id":"cebpf4jnsgd1na2vs0mg"},{"bike_id":"5959399d-2a5a-4619-a6df-91439cbfbae4","system_id":"levelo_inurba_marseille","lat":43.27068,"lon":5.38301,"is_reserved":false,"is_disabled":false,"rental_uris":{"android":"levelo://app?vid=5959399d-2a5a-4619-a6df-91439cbfbae4","ios":"levelo://app?vid=5959399d-2a5a-4619-a6df-91439cbfbae4"},"vehicle_type_id":"4","last_reported":1781303271,"current_range_meters":5600,"station_id":"st_d3n2fo6cfp8s73cte1j0","pricing_plan_id":"cebpf4jnsgd1na2vs0mg"},{"bike_id":"6c149b80-daf1-4dc6-b899-1e8147e8b6f7","system_id":"levelo_inurba_marseille","lat":43.25066,"lon":5.40452,"is_reserved":false,"is_disabled":false,"rental_uris":{"android":"levelo://app?vid=6c149b80-daf1-4dc6-b899-1e8147e8b6f7","ios":"levelo://app?vid=6c149b80-daf1-4dc6-b899-1e8147e8b6f7"},"vehicle_type_id":"4","last_reported":1781303271,"current_range_meters":5600,"station_id":"","pricing_plan_id":"cebpf4jnsgd1na2vs0mg"},{"bike_id":"7a4ba46c-6362-49a8-982a-a4ee92fd7529","system_id":"levelo_inurba_marseille","lat":43.26865,"lon":5.37081,"is_reserved":false,"is_disabled":false,"rental_uris":{"android":"levelo://app?vid=7a4ba46c-6362-49a8-982a-a4ee92fd7529","ios":"levelo://app?vid=7a4ba46c-6362-49a8-982a-a4ee92fd7529"},"vehicle_type_id":"4","last_reported":1781303271,"current_range_meters":5600,"station_id":"","pricing_plan_id":"cebpf4jnsgd1na2vs0mg"},{"bike_id":"a4b5c841-081f-4864-9ad4-e1c7a6e60416","system_id":"levelo_inurba_marseille","lat":43.23792,"lon":5.36617,"is_reserved":false,"is_disabled":true,"rental_uris":{"android":"levelo://app?vid=a4b5c841-081f-4864-9ad4-e1c7a6e60416","ios":"levelo://app?vid=a4b5c841-081f-4864-9ad4-e1c7a6e60416"},"vehicle_type_id":"4","last_reported":1781303271,"current_range_meters":5600,"station_id":"st_d3nk18o9ro0c73en2l3g","pricing_plan_id":"cebpf4jnsgd1na2vs0mg"},{"bike_id":"fddbf6a7-cfab-4481-914f-86a0d0db8fc2","system_id":"levelo_inurba_marseille","lat":43.26354,"lon":5.37831,"is_reserved":false,"is_disabled":false,"rental_uris":{"android":"levelo://app?vid=fddbf6a7-cfab-4481-914f-86a0d0db8fc2","ios":"levelo://app?vid=fddbf6a7-cfab-4481-914f-86a0d0db8fc2"},"vehicle_type_id":"4","last_reported":1781303271,"current_range_meters":5600,"station_id":"st_d163nis0mtpqnht9uue0","pricing_plan_id":"cebpf4jnsgd1na2vs0mg"},{"bike_id":"83b97a84-3219-4b15-b3c7-d12b8693895b","system_id":"levelo_inurba_marseille","lat":43.25117,"lon":5.40326,"is_reserved":false,"is_disabled":false,"rental_uris":{"android":"levelo://app?vid=83b97a84-3219-4b15-b3c7-d12b8693895b","ios":"levelo://app?vid=83b97a84-3219-4b15-b3c7-d12b8693895b"},"vehicle_type_id":"4","last_reported":1781303271,"current_range_meters":5600,"station_id":"","pricing_plan_id":"cebpf4jnsgd1na2vs0mg"},{"bike_id":"ee494397-ad1c-4b5e-80ed-9cc6e888762d","system_id":"levelo_inurba_marseille","lat":43.31881,"lon":5.42504,"is_reserved":false,"is_disabled":false,"rental_uris":{"android":"levelo://app?vid=ee494397-ad1c-4b5e-80ed-9cc6e888762d","ios":"levelo://app?vid=ee494397-ad1c-4b5e-80ed-9cc6e888762d"},"vehicle_type_id":"4","last_reported":1781303271,"current_range_meters":5600,"station_id":"","pricing_plan_id":"cebpf4jnsgd1na2vs0mg"},{"bike_id":"30e01542-7337-4f91-9d2a-c1a5200b8d0f","system_id":"levelo_inurba_marseille","lat":43.2306,"lon":5.35492,"is_reserved":false,"is_disabled":false,"rental_uris":{"android":"levelo://app?vid=30e01542-7337-4f91-9d2a-c1a5200b8d0f","ios":"levelo://app?vid=30e01542-7337-4f91-9d2a-c1a5200b8d0f"},"vehicle_type_id":"4","last_reported":1781303271,"current_range_meters":6000,"station_id":"cpo3342slgdg3j2ifvpg","pricing_plan_id":"cebpf4jnsgd1na2vs0mg"},{"bike_id":"ae3be122-678e-4362-a61e-d9ebae16bb12","system_id":"levelo_inurba_marseille","lat":43.26563,"lon":5.37304,"is_reserved":false,"is_disabled":false,"rental_uris":{"android":"levelo://app?vid=ae3be122-678e-4362-a61e-d9ebae16bb12","ios":"levelo://app?vid=ae3be122-678e-4362-a61e-d9ebae16bb12"},"vehicle_type_id":"4","last_reported":1781303271,"current_range_meters":6000,"station_id":"ce4bhg12rcd13ifvqf70","pricing_plan_id":"cebpf4jnsgd1na2vs0mg"},{"bike_id":"6859e872-f5de-49b6-9665-a4075fb23877","system_id":"levelo_inurba_marseille","lat":43.29386,"lon":5.39754,"is_reserved":false,"is_disabled":false,"rental_uris":{"android":"levelo://app?vid=6859e872-f5de-49b6-9665-a4075fb23877","ios":"levelo://app?vid=6859e872-f5de-49b6-9665-a4075fb23877"},"vehicle_type_id":"4","last_reported":1781303271,"current_range_meters":6000,"station_id":"","pricing_plan_id":"cebpf4jnsgd1na2vs0mg"},{"bike_id":"4bbd9026-ac9b-4dc1-97ad-6610089734db","system_id":"levelo_inurba_marseille","lat":43.31556,"lon":5.38812,"is_reserved":false,"is_disabled":false,"rental_uris":{"android":"levelo://app?vid=4bbd9026-ac9b-4dc1-97ad-6610089734db","ios":"levelo://app?vid=4bbd9026-ac9b-4dc1-97ad-6610089734db"},"vehicle_type_id":"4","last_reported":1781303271,"current_range_meters":6000,"station_id":"","pricing_plan_id":"cebpf4jnsgd1na2vs0mg"},{"bike_id":"8549ed76-d067-4e8e-8122-bf5cc7918ab0","system_id":"levelo_inurba_marseille","lat":43.2781,"lon":5.40746,"is_reserved":false,"is_disabled":false,"rental_uris":{"android":"levelo://app?vid=8549ed76-d067-4e8e-8122-bf5cc7918ab0","ios":"levelo://app?vid=8549ed76-d067-4e8e-8122-bf5cc7918ab0"},"vehicle_type_id":"4","last_reported":1781303271,"current_range_meters":6000,"station_id":"ce4bhnh2rcd13ifvqgtg","pricing_plan_id":"cebpf4jnsgd1na2vs0mg"},{"bike_id":"ef95c250-9b06-45a5-a042-179938269e70","system_id":"levelo_inurba_marseille","lat":43.29197,"lon":5.3931,"is_reserved":false,"is_disabled":false,"rental_uris":{"android":"levelo://app?vid=ef95c250-9b06-45a5-a042-179938269e70","ios":"levelo://app?vid=ef95c250-9b06-45a5-a042-179938269e70"},"vehicle_type_id":"4","last_reported":1781303271,"current_range_meters":6000,"station_id":"ce4bh192rcd13ifvqdd0","pricing_plan_id":"cebpf4jnsgd1na2vs0mg"},{"bike_id":"1ca3a914-a55c-4637-a9ca-4ffd36fbecad","system_id":"levelo_inurba_marseille","lat":43.262214,"lon":5.387661,"is_reserved":false,"is_disabled":true,"rental_uris":{"android":"levelo://app?vid=1ca3a914-a55c-4637-a9ca-4ffd36fbecad","ios":"levelo://app?vid=1ca3a914-a55c-4637-a9ca-4ffd36fbecad"},"vehicle_type_id":"4","last_reported":1781303271,"current_range_meters":6000,"station_id":"st_d8gjfg747rts73coq3b0","pricing_plan_id":"cebpf4jnsgd1na2vs0mg"},{"bike_id":"5bc93fa4-047c-40e2-94fd-52abf60188ac","system_id":"levelo_inurba_marseille","lat":43.2507,"lon":5.3953,"is_reserved":false,"is_disabled":false,"rental_uris":{"android":"levelo://app?vid=5bc93fa4-047c-40e2-94fd-52abf60188ac","ios":"levelo://app?vid=5bc93fa4-047c-40e2-94fd-52abf60188ac"},"vehicle_type_id":"4","last_reported":1781303271,"current_range_meters":6000,"station_id":"ce4bhm12rcd13ifvqgkg","pricing_plan_id":"cebpf4jnsgd1na2vs0mg"},{"bike_id":"44a5ef51-d680-412c-83f6-10778670a0fe","system_id":"levelo_inurba_marseille","lat":43.24794,"lon":5.37447,"is_reserved":false,"is_disabled":false,"rental_uris":{"android":"levelo://app?vid=44a5ef51-d680-412c-83f6-10778670a0fe","ios":"levelo://app?vid=44a5ef51-d680-412c-83f6-10778670a0fe"},"vehicle_type_id":"4","last_reported":1781303271,"current_range_meters":6000,"station_id":"ce4bhgh2rcd13ifvqfb0","pricing_plan_id":"cebpf4jnsgd1na2vs0mg"},{"bike_id":"232c1afd-523d-440c-80f7-f63bf78566e7","system_id":"levelo_inurba_marseille","lat":43.29688,"lon":5.36611,"is_reserved":false,"is_disabled":false,"rental_uris":{"android":"levelo://app?vid=232c1afd-523d-440c-80f7-f63bf78566e7","ios":"levelo://app?vid=232c1afd-523d-440c-80f7-f63bf78566e7"},"vehicle_type_id":"4","last_reported":1781303271,"current_range_meters":6000,"station_id":"ce4bgn12rcd13ifvqbt0","pricing_plan_id":"cebpf4jnsgd1na2vs0mg"},{"bike_id":"5fe816be-adb0-4ccc-a8a6-ac6bd0711409","system_id":"levelo_inurba_marseille","lat":43.24956,"lon":5.40491,"is_reserved":false,"is_disabled":false,"rental_uris":{"android":"levelo://app?vid=5fe816be-adb0-4ccc-a8a6-ac6bd0711409","ios":"levelo://app?vid=5fe816be-adb0-4ccc-a8a6-ac6bd0711409"},"vehicle_type_id":"4","last_reported":1781303271,"current_range_meters":6000,"station_id":"st_d2ngiaodas8pm72gd1h0","pricing_plan_id":"cebpf4jnsgd1na2vs0mg"},{"bike_id":"cfc9ce44-657a-4109-a7fc-ce859e64a059","system_id":"levelo_inurba_marseille","lat":43.28721,"lon":5.37946,"is_reserved":false,"is_disabled":false,"rental_uris":{"android":"levelo://app?vid=cfc9ce44-657a-4109-a7fc-ce859e64a059","ios":"levelo://app?vid=cfc9ce44-657a-4109-a7fc-ce859e64a059"},"vehicle_type_id":"4","last_reported":1781303271,"current_range_meters":6000,"station_id":"ce4bh9p2rcd13ifvqec0","pricing_plan_id":"cebpf4jnsgd1na2vs0mg"},{"bike_id":"b1eee0d4-a7e2-443f-95a2-aabcccb890e7","system_id":"levelo_inurba_marseille","lat":43.30908,"lon":5.4019,"is_reserved":false,"is_disabled":false,"rental_uris":{"android":"levelo://app?vid=b1eee0d4-a7e2-443f-95a2-aabcccb890e7","ios":"levelo://app?vid=b1eee0d4-a7e2-443f-95a2-aabcccb890e7"},"vehicle_type_id":"4","last_reported":1781303271,"current_range_meters":6000,"station_id":"ce4bgvp2rcd13ifvqct0","pricing_plan_id":"cebpf4jnsgd1na2vs0mg"},{"bike_id":"a318bc01-9889-445e-ad9e-b36118278119","system_id":"levelo_inurba_marseille","lat":43.28613,"lon":5.35116,"is_reserved":false,"is_disabled":true,"rental_uris":{"android":"levelo://app?vid=a318bc01-9889-445e-ad9e-b36118278119","ios":"levelo://app?vid=a318bc01-9889-445e-ad9e-b36118278119"},"vehicle_type_id":"4","last_reported":1781303271,"current_range_meters":6000,"station_id":"ce4bhch2rcd13ifvqeug","pricing_plan_id":"cebpf4jnsgd1na2vs0mg"},{"bike_id":"b154e503-5e6b-4b2c-aea8-7afe1c19122c","system_id":"levelo_inurba_marseille","lat":43.28105,"lon":5.4264,"is_reserved":false,"is_disabled":false,"rental_uris":{"android":"levelo://app?vid=b154e503-5e6b-4b2c-aea8-7afe1c19122c","ios":"levelo://app?vid=b154e503-5e6b-4b2c-aea8-7afe1c19122c"},"vehicle_type_id":"4","last_reported":1781303271,"current_range_meters":6000,"station_id":"","pricing_plan_id":"cebpf4jnsgd1na2vs0mg"},{"bike_id":"7f928b3b-7f65-4d73-95df-3bf5f0b8fb18","system_id":"levelo_inurba_marseille","lat":43.24803,"lon":5.37438,"is_reserved":false,"is_disabled":false,"rental_uris":{"android":"levelo://app?vid=7f928b3b-7f65-4d73-95df-3bf5f0b8fb18","ios":"levelo://app?vid=7f928b3b-7f65-4d73-95df-3bf5f0b8fb18"},"vehicle_type_id":"4","last_reported":1781303271,"current_range_meters":6000,"station_id":"ce4bhgh2rcd13ifvqfb0","pricing_plan_id":"cebpf4jnsgd1na2vs0mg"},{"bike_id":"624cc4bb-1c76-4f5a-af4e-d99674e9a2d2","system_id":"levelo_inurba_marseille","lat":43.30132,"lon":5.38784,"is_reserved":false,"is_disabled":false,"rental_uris":{"android":"levelo://app?vid=624cc4bb-1c76-4f5a-af4e-d99674e9a2d2","ios":"levelo://app?vid=624cc4bb-1c76-4f5a-af4e-d99674e9a2d2"},"vehicle_type_id":"4","last_reported":1781303271,"current_range_meters":6000,"station_id":"ce4bghh2rcd13ifvqb60","pricing_plan_id":"cebpf4jnsgd1na2vs0mg"},{"bike_id":"2fb2d909-a825-4be6-b9af-b3411bad096c","system_id":"levelo_inurba_marseille","lat":43.30132,"lon":5.39864,"is_reserved":false,"is_disabled":false,"rental_uris":{"android":"levelo://app?vid=2fb2d909-a825-4be6-b9af-b3411bad096c","ios":"levelo://app?vid=2fb2d909-a825-4be6-b9af-b3411bad096c"},"vehicle_type_id":"4","last_reported":1781303271,"current_range_meters":6400,"station_id":"ce4bh0h2rcd13ifvqd40","pricing_plan_id":"cebpf4jnsgd1na2vs0mg"},{"bike_id":"ba9e662c-c195-4d37-b478-8ff41eecf68d","system_id":"levelo_inurba_marseille","lat":43.2945,"lon":5.39758,"is_reserved":false,"is_disabled":false,"rental_uris":{"android":"levelo://app?vid=ba9e662c-c195-4d37-b478-8ff41eecf68d","ios":"levelo://app?vid=ba9e662c-c195-4d37-b478-8ff41eecf68d"},"vehicle_type_id":"4","last_reported":1781303271,"current_range_meters":6400,"station_id":"ce4bh3h2rcd13ifvqdo0","pricing_plan_id":"cebpf4jnsgd1na2vs0mg"},{"bike_id":"97cf3850-544b-401a-a6c0-da2d55991407","system_id":"levelo_inurba_marseille","lat":43.2917,"lon":5.37163,"is_reserved":false,"is_disabled":false,"rental_uris":{"android":"levelo://app?vid=97cf3850-544b-401a-a6c0-da2d55991407","ios":"levelo://app?vid=97cf3850-544b-401a-a6c0-da2d55991407"},"vehicle_type_id":"4","last_reported":1781303271,"current_range_meters":6400,"station_id":"ce4bha92rcd13ifvqeh0","pricing_plan_id":"cebpf4jnsgd1na2vs0mg"},{"bike_id":"d6f0960d-8a26-4d7f-93a9-7161f0913d8b","system_id":"levelo_inurba_marseille","lat":43.25512,"lon":5.37664,"is_reserved":false,"is_disabled":false,"rental_uris":{"android":"levelo://app?vid=d6f0960d-8a26-4d7f-93a9-7161f0913d8b","ios":"levelo://app?vid=d6f0960d-8a26-4d7f-93a9-7161f0913d8b"},"vehicle_type_id":"4","last_reported":1781303271,"current_range_meters":6400,"station_id":"ce4bhh12rcd13ifvqff0","pricing_plan_id":"cebpf4jnsgd1na2vs0mg"},{"bike_id":"f312a474-3688-43e4-8515-a784a5c48528","system_id":"levelo_inurba_marseille","lat":43.21185,"lon":5.35075,"is_reserved":false,"is_disabled":true,"rental_uris":{"android":"levelo://app?vid=f312a474-3688-43e4-8515-a784a5c48528","ios":"levelo://app?vid=f312a474-3688-43e4-8515-a784a5c48528"},"vehicle_type_id":"4","last_reported":1781303271,"current_range_meters":6400,"station_id":"st_cvj6sg6p6f1abm77japg","pricing_plan_id":"cebpf4jnsgd1na2vs0mg"},{"bike_id":"d39db183-6bf7-420a-96f5-b25822544857","system_id":"levelo_inurba_marseille","lat":43.32362,"lon":5.36736,"is_reserved":false,"is_disabled":false,"rental_uris":{"android":"levelo://app?vid=d39db183-6bf7-420a-96f5-b25822544857","ios":"levelo://app?vid=d39db183-6bf7-420a-96f5-b25822544857"},"vehicle_type_id":"4","last_reported":1781303271,"current_range_meters":6400,"station_id":"ce4bhsh2rcd13ifvqi2g","pricing_plan_id":"cebpf4jnsgd1na2vs0mg"},{"bike_id":"a0d2ac5f-fff6-43f6-831d-dfa81e9c3981","system_id":"levelo_inurba_marseille","lat":43.29611,"lon":5.36447,"is_reserved":false,"is_disabled":false,"rental_uris":{"android":"levelo://app?vid=a0d2ac5f-fff6-43f6-831d-dfa81e9c3981","ios":"levelo://app?vid=a0d2ac5f-fff6-43f6-831d-dfa81e9c3981"},"vehicle_type_id":"4","last_reported":1781303271,"current_range_meters":6400,"station_id":"","pricing_plan_id":"cebpf4jnsgd1na2vs0mg"},{"bike_id":"1c444fa9-9def-4999-8bc4-4a6c72c5f742","system_id":"levelo_inurba_marseille","lat":43.26014,"lon":5.37544,"is_reserved":false,"is_disabled":false,"rental_uris":{"android":"levelo://app?vid=1c444fa9-9def-4999-8bc4-4a6c72c5f742","ios":"levelo://app?vid=1c444fa9-9def-4999-8bc4-4a6c72c5f742"},"vehicle_type_id":"4","last_reported":1781303271,"current_range_meters":6400,"station_id":"ce4bhgh2rcd13ifvqfa0","pricing_plan_id":"cebpf4jnsgd1na2vs0mg"},{"bike_id":"97b9414c-f337-4aa3-a619-e8223bfb5c75","system_id":"levelo_inurba_marseille","lat":43.29523,"lon":5.38555,"is_reserved":false,"is_disabled":false,"rental_uris":{"android":"levelo://app?vid=97b9414c-f337-4aa3-a619-e8223bfb5c75","ios":"levelo://app?vid=97b9414c-f337-4aa3-a619-e8223bfb5c75"},"vehicle_type_id":"4","last_reported":1781303271,"current_range_meters":6400,"station_id":"ce4bgih2rcd13ifvqba0","pricing_plan_id":"cebpf4jnsgd1na2vs0mg"},{"bike_id":"2d65b860-94da-4574-a20f-82b65ca5f84b","system_id":"levelo_inurba_marseille","lat":43.22562,"lon":5.41626,"is_reserved":false,"is_disabled":false,"rental_uris":{"android":"levelo://app?vid=2d65b860-94da-4574-a20f-82b65ca5f84b","ios":"levelo://app?vid=2d65b860-94da-4574-a20f-82b65ca5f84b"},"vehicle_type_id":"4","last_reported":1781303271,"current_range_meters":6400,"station_id":"st_d2o4gvlbi1j2169b742g","pricing_plan_id":"cebpf4jnsgd1na2vs0mg"},{"bike_id":"f57ddc5d-b3ad-43f3-bbc4-226ea7be866d","system_id":"levelo_inurba_marseille","lat":43.29853,"lon":5.42272,"is_reserved":false,"is_disabled":false,"rental_uris":{"android":"levelo://app?vid=f57ddc5d-b3ad-43f3-bbc4-226ea7be866d","ios":"levelo://app?vid=f57ddc5d-b3ad-43f3-bbc4-226ea7be866d"},"vehicle_type_id":"4","last_reported":1781303271,"current_range_meters":6400,"station_id":"","pricing_plan_id":"cebpf4jnsgd1na2vs0mg"},{"bike_id":"fb2a1f7d-f7e9-4d12-bb3c-32e8cd55f82d","system_id":"levelo_inurba_marseille","lat":43.29068,"lon":5.4426,"is_reserved":false,"is_disabled":false,"rental_uris":{"android":"levelo://app?vid=fb2a1f7d-f7e9-4d12-bb3c-32e8cd55f82d","ios":"levelo://app?vid=fb2a1f7d-f7e9-4d12-bb3c-32e8cd55f82d"},"vehicle_type_id":"4","last_reported":1781303271,"current_range_meters":6400,"station_id":"","pricing_plan_id":"cebpf4jnsgd1na2vs0mg"},{"bike_id":"5ab25b28-e35d-4f10-9ca9-7d658cce4ea9","system_id":"levelo_inurba_marseille","lat":43.28924,"lon":5.38417,"is_reserved":false,"is_disabled":true,"rental_uris":{"android":"levelo://app?vid=5ab25b28-e35d-4f10-9ca9-7d658cce4ea9","ios":"levelo://app?vid=5ab25b28-e35d-4f10-9ca9-7d658cce4ea9"},"vehicle_type_id":"4","last_reported":1781303271,"current_range_meters":6400,"station_id":"ce4bh612rcd13ifvqe6g","pricing_plan_id":"cebpf4jnsgd1na2vs0mg"},{"bike_id":"0861ae41-ee4b-4f20-9f21-8200b0c33b42","system_id":"levelo_inurba_marseille","lat":43.27748,"lon":5.35612,"is_reserved":false,"is_disabled":false,"rental_uris":{"android":"levelo://app?vid=0861ae41-ee4b-4f20-9f21-8200b0c33b42","ios":"levelo://app?vid=0861ae41-ee4b-4f20-9f21-8200b0c33b42"},"vehicle_type_id":"4","last_reported":1781303271,"current_range_meters":6400,"station_id":"","pricing_plan_id":"cebpf4jnsgd1na2vs0mg"},{"bike_id":"7af5dc62-7a31-4d7c-a26c-927a2cb82321","system_id":"levelo_inurba_marseille","lat":43.32104,"lon":5.36785,"is_reserved":false,"is_disabled":false,"rental_uris":{"android":"levelo://app?vid=7af5dc62-7a31-4d7c-a26c-927a2cb82321","ios":"levelo://app?vid=7af5dc62-7a31-4d7c-a26c-927a2cb82321"},"vehicle_type_id":"4","last_reported":1781303271,"current_range_meters":6400,"station_id":"ce4bhrh2rcd13ifvqhug","pricing_plan_id":"cebpf4jnsgd1na2vs0mg"},{"bike_id":"ba23ed86-5c30-4950-a630-059dd7689627","system_id":"levelo_inurba_marseille","lat":43.2306,"lon":5.35474,"is_reserved":false,"is_disabled":false,"rental_uris":{"android":"levelo://app?vid=ba23ed86-5c30-4950-a630-059dd7689627","ios":"levelo://app?vid=ba23ed86-5c30-4950-a630-059dd7689627"},"vehicle_type_id":"4","last_reported":1781303271,"current_range_meters":6400,"station_id":"cpo3342slgdg3j2ifvpg","pricing_plan_id":"cebpf4jnsgd1na2vs0mg"},{"bike_id":"ccc6ea07-81c8-4111-91e4-1100441ffcc8","system_id":"levelo_inurba_marseille","lat":43.288611,"lon":5.425203,"is_reserved":false,"is_disabled":false,"rental_uris":{"android":"levelo://app?vid=ccc6ea07-81c8-4111-91e4-1100441ffcc8","ios":"levelo://app?vid=ccc6ea07-81c8-4111-91e4-1100441ffcc8"},"vehicle_type_id":"4","last_reported":1781303271,"current_range_meters":6400,"station_id":"st_d3b462108ojc7389ooeg","pricing_plan_id":"cebpf4jnsgd1na2vs0mg"},{"bike_id":"e0a74a1c-d0c3-44ff-b592-1db9f2da5a78","system_id":"levelo_inurba_marseille","lat":43.23055,"lon":5.35479,"is_reserved":false,"is_disabled":false,"rental_uris":{"android":"levelo://app?vid=e0a74a1c-d0c3-44ff-b592-1db9f2da5a78","ios":"levelo://app?vid=e0a74a1c-d0c3-44ff-b592-1db9f2da5a78"},"vehicle_type_id":"4","last_reported":1781303271,"current_range_meters":6400,"station_id":"cpo3342slgdg3j2ifvpg","pricing_plan_id":"cebpf4jnsgd1na2vs0mg"},{"bike_id":"c017a8ae-85a7-45a6-aa4f-da9efc8013ea","system_id":"levelo_inurba_marseille","lat":43.24792,"lon":5.37485,"is_reserved":false,"is_disabled":false,"rental_uris":{"android":"levelo://app?vid=c017a8ae-85a7-45a6-aa4f-da9efc8013ea","ios":"levelo://app?vid=c017a8ae-85a7-45a6-aa4f-da9efc8013ea"},"vehicle_type_id":"4","last_reported":1781303271,"current_range_meters":6400,"station_id":"ce4bhgh2rcd13ifvqfb0","pricing_plan_id":"cebpf4jnsgd1na2vs0mg"},{"bike_id":"9e36cfa1-09fe-4bd5-9827-624ec281fd82","system_id":"levelo_inurba_marseille","lat":43.26043,"lon":5.37556,"is_reserved":false,"is_disabled":false,"rental_uris":{"android":"levelo://app?vid=9e36cfa1-09fe-4bd5-9827-624ec281fd82","ios":"levelo://app?vid=9e36cfa1-09fe-4bd5-9827-624ec281fd82"},"vehicle_type_id":"4","last_reported":1781303271,"current_range_meters":6400,"station_id":"ce4bhgh2rcd13ifvqfa0","pricing_plan_id":"cebpf4jnsgd1na2vs0mg"},{"bike_id":"6df7054b-12fc-4820-90eb-30a94928fe3f","system_id":"levelo_inurba_marseille","lat":43.23781,"lon":5.36628,"is_reserved":false,"is_disabled":false,"rental_uris":{"android":"levelo://app?vid=6df7054b-12fc-4820-90eb-30a94928fe3f","ios":"levelo://app?vid=6df7054b-12fc-4820-90eb-30a94928fe3f"},"vehicle_type_id":"4","last_reported":1781303271,"current_range_meters":6400,"station_id":"st_d3nk18o9ro0c73en2l3g","pricing_plan_id":"cebpf4jnsgd1na2vs0mg"},{"bike_id":"82c5236f-da96-48a3-a8db-d02895bef072","system_id":"levelo_inurba_marseille","lat":43.29063,"lon":5.37173,"is_reserved":false,"is_disabled":false,"rental_uris":{"android":"levelo://app?vid=82c5236f-da96-48a3-a8db-d02895bef072","ios":"levelo://app?vid=82c5236f-da96-48a3-a8db-d02895bef072"},"vehicle_type_id":"4","last_reported":1781303271,"current_range_meters":6400,"station_id":"ce4bh5p2rcd13ifvqe4g","pricing_plan_id":"cebpf4jnsgd1na2vs0mg"},{"bike_id":"27f3b105-3355-4aa2-8638-5e2eec2dead3","system_id":"levelo_inurba_marseille","lat":43.2907,"lon":5.37148,"is_reserved":false,"is_disabled":false,"rental_uris":{"android":"levelo://app?vid=27f3b105-3355-4aa2-8638-5e2eec2dead3","ios":"levelo://app?vid=27f3b105-3355-4aa2-8638-5e2eec2dead3"},"vehicle_type_id":"4","last_reported":1781303271,"current_range_meters":6400,"station_id":"ce4bh5p2rcd13ifvqe4g","pricing_plan_id":"cebpf4jnsgd1na2vs0mg"},{"bike_id":"767b09ca-cda7-447e-893a-535d0d88bbbc","system_id":"levelo_inurba_marseille","lat":43.279043,"lon":5.395564,"is_reserved":false,"is_disabled":false,"rental_uris":{"android":"levelo://app?vid=767b09ca-cda7-447e-893a-535d0d88bbbc","ios":"levelo://app?vid=767b09ca-cda7-447e-893a-535d0d88bbbc"},"vehicle_type_id":"4","last_reported":1781303271,"current_range_meters":6400,"station_id":"ce4bhf92rcd13ifvqf40","pricing_plan_id":"cebpf4jnsgd1na2vs0mg"},{"bike_id":"9e5dca86-cea8-4464-8ef4-356b17b3a843","system_id":"levelo_inurba_marseille","lat":43.28841,"lon":5.39304,"is_reserved":false,"is_disabled":false,"rental_uris":{"android":"levelo://app?vid=9e5dca86-cea8-4464-8ef4-356b17b3a843","ios":"levelo://app?vid=9e5dca86-cea8-4464-8ef4-356b17b3a843"},"vehicle_type_id":"4","last_reported":1781303271,"current_range_meters":6400,"station_id":"ce4bh2p2rcd13ifvqdi0","pricing_plan_id":"cebpf4jnsgd1na2vs0mg"},{"bike_id":"3ea61c54-5ae4-4ec5-8d1e-95c813254f6e","system_id":"levelo_inurba_marseille","lat":43.2447,"lon":5.42544,"is_reserved":false,"is_disabled":false,"rental_uris":{"android":"levelo://app?vid=3ea61c54-5ae4-4ec5-8d1e-95c813254f6e","ios":"levelo://app?vid=3ea61c54-5ae4-4ec5-8d1e-95c813254f6e"},"vehicle_type_id":"4","last_reported":1781303271,"current_range_meters":6400,"station_id":"st_d4a3vfp97mjs738cd8kg","pricing_plan_id":"cebpf4jnsgd1na2vs0mg"},{"bike_id":"67d79504-0563-4610-907f-80e12b8075dc","system_id":"levelo_inurba_marseille","lat":43.24507,"lon":5.37095,"is_reserved":false,"is_disabled":false,"rental_uris":{"android":"levelo://app?vid=67d79504-0563-4610-907f-80e12b8075dc","ios":"levelo://app?vid=67d79504-0563-4610-907f-80e12b8075dc"},"vehicle_type_id":"4","last_reported":1781303271,"current_range_meters":6800,"station_id":"","pricing_plan_id":"cebpf4jnsgd1na2vs0mg"},{"bike_id":"a4d50990-da38-4609-929b-c4b84ed6ea16","system_id":"levelo_inurba_marseille","lat":43.29015,"lon":5.38653,"is_reserved":false,"is_disabled":false,"rental_uris":{"android":"levelo://app?vid=a4d50990-da38-4609-929b-c4b84ed6ea16","ios":"levelo://app?vid=a4d50990-da38-4609-929b-c4b84ed6ea16"},"vehicle_type_id":"4","last_reported":1781303271,"current_range_meters":6800,"station_id":"ce4bh4p2rcd13ifvqe0g","pricing_plan_id":"cebpf4jnsgd1na2vs0mg"},{"bike_id":"f4bd0ae9-9a5e-4f7b-b865-f24efdefb544","system_id":"levelo_inurba_marseille","lat":43.31181,"lon":5.38737,"is_reserved":false,"is_disabled":false,"rental_uris":{"android":"levelo://app?vid=f4bd0ae9-9a5e-4f7b-b865-f24efdefb544","ios":"levelo://app?vid=f4bd0ae9-9a5e-4f7b-b865-f24efdefb544"},"vehicle_type_id":"4","last_reported":1781303271,"current_range_meters":6800,"station_id":"","pricing_plan_id":"cebpf4jnsgd1na2vs0mg"},{"bike_id":"7ec5ac6c-1ad1-484e-b1ac-0dd6240aeac8","system_id":"levelo_inurba_marseille","lat":43.32107,"lon":5.36789,"is_reserved":false,"is_disabled":false,"rental_uris":{"android":"levelo://app?vid=7ec5ac6c-1ad1-484e-b1ac-0dd6240aeac8","ios":"levelo://app?vid=7ec5ac6c-1ad1-484e-b1ac-0dd6240aeac8"},"vehicle_type_id":"4","last_reported":1781303271,"current_range_meters":6800,"station_id":"ce4bhrh2rcd13ifvqhug","pricing_plan_id":"cebpf4jnsgd1na2vs0mg"},{"bike_id":"f7c4d48f-86c6-4aea-a62b-889b6bc69fa8","system_id":"levelo_inurba_marseille","lat":43.287255,"lon":5.360842,"is_reserved":false,"is_disabled":false,"rental_uris":{"android":"levelo://app?vid=f7c4d48f-86c6-4aea-a62b-889b6bc69fa8","ios":"levelo://app?vid=f7c4d48f-86c6-4aea-a62b-889b6bc69fa8"},"vehicle_type_id":"4","last_reported":1781303271,"current_range_meters":6800,"station_id":"cki0cbj6b192h4jlfktg","pricing_plan_id":"cebpf4jnsgd1na2vs0mg"},{"bike_id":"f777abcb-a843-445c-9e8e-79729d317d0e","system_id":"levelo_inurba_marseille","lat":43.31496,"lon":5.373,"is_reserved":false,"is_disabled":false,"rental_uris":{"android":"levelo://app?vid=f777abcb-a843-445c-9e8e-79729d317d0e","ios":"levelo://app?vid=f777abcb-a843-445c-9e8e-79729d317d0e"},"vehicle_type_id":"4","last_reported":1781303271,"current_range_meters":6800,"station_id":"ce4bgt12rcd13ifvqcd0","pricing_plan_id":"cebpf4jnsgd1na2vs0mg"},{"bike_id":"7c56fbf2-b06b-4ad4-bd6e-fb0ad9ba401c","system_id":"levelo_inurba_marseille","lat":43.28714,"lon":5.3793,"is_reserved":false,"is_disabled":true,"rental_uris":{"android":"levelo://app?vid=7c56fbf2-b06b-4ad4-bd6e-fb0ad9ba401c","ios":"levelo://app?vid=7c56fbf2-b06b-4ad4-bd6e-fb0ad9ba401c"},"vehicle_type_id":"4","last_reported":1781303271,"current_range_meters":6800,"station_id":"ce4bh9p2rcd13ifvqec0","pricing_plan_id":"cebpf4jnsgd1na2vs0mg"},{"bike_id":"58e38786-a619-47c4-8493-e9a168bebca4","system_id":"levelo_inurba_marseille","lat":43.30107,"lon":5.38794,"is_reserved":false,"is_disabled":false,"rental_uris":{"android":"levelo://app?vid=58e38786-a619-47c4-8493-e9a168bebca4","ios":"levelo://app?vid=58e38786-a619-47c4-8493-e9a168bebca4"},"vehicle_type_id":"4","last_reported":1781303271,"current_range_meters":6800,"station_id":"ce4bghh2rcd13ifvqb60","pricing_plan_id":"cebpf4jnsgd1na2vs0mg"},{"bike_id":"50c968ef-0b2e-4ab1-9b20-028a4dfa1cd2","system_id":"levelo_inurba_marseille","lat":43.28482,"lon":5.38424,"is_reserved":false,"is_disabled":false,"rental_uris":{"android":"levelo://app?vid=50c968ef-0b2e-4ab1-9b20-028a4dfa1cd2","ios":"levelo://app?vid=50c968ef-0b2e-4ab1-9b20-028a4dfa1cd2"},"vehicle_type_id":"4","last_reported":1781303271,"current_range_meters":6800,"station_id":"ce4bh512rcd13ifvqe3g","pricing_plan_id":"cebpf4jnsgd1na2vs0mg"},{"bike_id":"d8e2f29c-9ec2-4e32-922f-fe7cf1f41a45","system_id":"levelo_inurba_marseille","lat":43.34405,"lon":5.42051,"is_reserved":false,"is_disabled":false,"rental_uris":{"android":"levelo://app?vid=d8e2f29c-9ec2-4e32-922f-fe7cf1f41a45","ios":"levelo://app?vid=d8e2f29c-9ec2-4e32-922f-fe7cf1f41a45"},"vehicle_type_id":"4","last_reported":1781303271,"current_range_meters":6800,"station_id":"","pricing_plan_id":"cebpf4jnsgd1na2vs0mg"},{"bike_id":"925c1e70-5a7e-4c96-b774-c6af84642d7b","system_id":"levelo_inurba_marseille","lat":43.25465,"lon":5.3764,"is_reserved":false,"is_disabled":false,"rental_uris":{"android":"levelo://app?vid=925c1e70-5a7e-4c96-b774-c6af84642d7b","ios":"levelo://app?vid=925c1e70-5a7e-4c96-b774-c6af84642d7b"},"vehicle_type_id":"4","last_reported":1781303271,"current_range_meters":6800,"station_id":"","pricing_plan_id":"cebpf4jnsgd1na2vs0mg"},{"bike_id":"035cd80f-c63b-44c7-9fa7-211fc8e2fbd5","system_id":"levelo_inurba_marseille","lat":43.3018,"lon":5.41794,"is_reserved":false,"is_disabled":false,"rental_uris":{"android":"levelo://app?vid=035cd80f-c63b-44c7-9fa7-211fc8e2fbd5","ios":"levelo://app?vid=035cd80f-c63b-44c7-9fa7-211fc8e2fbd5"},"vehicle_type_id":"4","last_reported":1781303271,"current_range_meters":6800,"station_id":"","pricing_plan_id":"cebpf4jnsgd1na2vs0mg"},{"bike_id":"cf2ecc12-f863-46e8-a4d9-61a8831aafb1","system_id":"levelo_inurba_marseille","lat":43.28707,"lon":5.40006,"is_reserved":false,"is_disabled":false,"rental_uris":{"android":"levelo://app?vid=cf2ecc12-f863-46e8-a4d9-61a8831aafb1","ios":"levelo://app?vid=cf2ecc12-f863-46e8-a4d9-61a8831aafb1"},"vehicle_type_id":"4","last_reported":1781303271,"current_range_meters":6800,"station_id":"ce4bho92rcd13ifvqh3g","pricing_plan_id":"cebpf4jnsgd1na2vs0mg"},{"bike_id":"e6dd2d51-0c09-4f37-aab6-d3ebe41e92d3","system_id":"levelo_inurba_marseille","lat":43.26553,"lon":5.37266,"is_reserved":false,"is_disabled":false,"rental_uris":{"android":"levelo://app?vid=e6dd2d51-0c09-4f37-aab6-d3ebe41e92d3","ios":"levelo://app?vid=e6dd2d51-0c09-4f37-aab6-d3ebe41e92d3"},"vehicle_type_id":"4","last_reported":1781303271,"current_range_meters":6800,"station_id":"ce4bhg12rcd13ifvqf70","pricing_plan_id":"cebpf4jnsgd1na2vs0mg"},{"bike_id":"6823f9a2-8013-4e26-94c8-72b20fcbdb61","system_id":"levelo_inurba_marseille","lat":43.30329,"lon":5.40379,"is_reserved":false,"is_disabled":false,"rental_uris":{"android":"levelo://app?vid=6823f9a2-8013-4e26-94c8-72b20fcbdb61","ios":"levelo://app?vid=6823f9a2-8013-4e26-94c8-72b20fcbdb61"},"vehicle_type_id":"4","last_reported":1781303271,"current_range_meters":6800,"station_id":"ce4bh012rcd13ifvqd10","pricing_plan_id":"cebpf4jnsgd1na2vs0mg"},{"bike_id":"29f89edd-ea47-4769-ba03-c94739969a4f","system_id":"levelo_inurba_marseille","lat":43.29381,"lon":5.40198,"is_reserved":false,"is_disabled":false,"rental_uris":{"android":"levelo://app?vid=29f89edd-ea47-4769-ba03-c94739969a4f","ios":"levelo://app?vid=29f89edd-ea47-4769-ba03-c94739969a4f"},"vehicle_type_id":"4","last_reported":1781303271,"current_range_meters":6800,"station_id":"","pricing_plan_id":"cebpf4jnsgd1na2vs0mg"},{"bike_id":"29866fdf-8b3b-4d01-acd8-1c5cee78560c","system_id":"levelo_inurba_marseille","lat":43.24381,"lon":5.37101,"is_reserved":false,"is_disabled":false,"rental_uris":{"android":"levelo://app?vid=29866fdf-8b3b-4d01-acd8-1c5cee78560c","ios":"levelo://app?vid=29866fdf-8b3b-4d01-acd8-1c5cee78560c"},"vehicle_type_id":"4","last_reported":1781303271,"current_range_meters":6800,"station_id":"ce4bhhh2rcd13ifvqfk0","pricing_plan_id":"cebpf4jnsgd1na2vs0mg"},{"bike_id":"a48ddd59-740a-46d1-a488-52db0b6c8054","system_id":"levelo_inurba_marseille","lat":43.26192,"lon":5.37466,"is_reserved":false,"is_disabled":false,"rental_uris":{"android":"levelo://app?vid=a48ddd59-740a-46d1-a488-52db0b6c8054","ios":"levelo://app?vid=a48ddd59-740a-46d1-a488-52db0b6c8054"},"vehicle_type_id":"4","last_reported":1781303271,"current_range_meters":6800,"station_id":"","pricing_plan_id":"cebpf4jnsgd1na2vs0mg"},{"bike_id":"f96f9850-1fa1-4da0-b9b2-06c64b7f75d3","system_id":"levelo_inurba_marseille","lat":43.25997,"lon":5.3757,"is_reserved":false,"is_disabled":false,"rental_uris":{"android":"levelo://app?vid=f96f9850-1fa1-4da0-b9b2-06c64b7f75d3","ios":"levelo://app?vid=f96f9850-1fa1-4da0-b9b2-06c64b7f75d3"},"vehicle_type_id":"4","last_reported":1781303271,"current_range_meters":6800,"station_id":"ce4bhgh2rcd13ifvqfa0","pricing_plan_id":"cebpf4jnsgd1na2vs0mg"},{"bike_id":"28155138-3f8c-416d-9a69-c3f6c5d05894","system_id":"levelo_inurba_marseille","lat":43.305939,"lon":5.3936,"is_reserved":false,"is_disabled":false,"rental_uris":{"android":"levelo://app?vid=28155138-3f8c-416d-9a69-c3f6c5d05894","ios":"levelo://app?vid=28155138-3f8c-416d-9a69-c3f6c5d05894"},"vehicle_type_id":"4","last_reported":1781303271,"current_range_meters":6800,"station_id":"ce4bh0p2rcd13ifvqd80","pricing_plan_id":"cebpf4jnsgd1na2vs0mg"},{"bike_id":"9baebc47-9a21-445a-b575-5e8cc4ed7549","system_id":"levelo_inurba_marseille","lat":43.28472,"lon":5.48409,"is_reserved":false,"is_disabled":false,"rental_uris":{"android":"levelo://app?vid=9baebc47-9a21-445a-b575-5e8cc4ed7549","ios":"levelo://app?vid=9baebc47-9a21-445a-b575-5e8cc4ed7549"},"vehicle_type_id":"4","last_reported":1781303271,"current_range_meters":6800,"station_id":"st_d3svhcjqgbts73a3dn0g","pricing_plan_id":"cebpf4jnsgd1na2vs0mg"},{"bike_id":"ed1b8ea2-ecf3-46da-8352-26963074c835","system_id":"levelo_inurba_marseille","lat":43.24466,"lon":5.42531,"is_reserved":false,"is_disabled":false,"rental_uris":{"android":"levelo://app?vid=ed1b8ea2-ecf3-46da-8352-26963074c835","ios":"levelo://app?vid=ed1b8ea2-ecf3-46da-8352-26963074c835"},"vehicle_type_id":"4","last_reported":1781303271,"current_range_meters":6800,"station_id":"st_d4a3vfp97mjs738cd8kg","pricing_plan_id":"cebpf4jnsgd1na2vs0mg"},{"bike_id":"61b7a27c-4633-4433-8d95-fae8968731e7","system_id":"levelo_inurba_marseille","lat":43.27498,"lon":5.41577,"is_reserved":false,"is_disabled":false,"rental_uris":{"android":"levelo://app?vid=61b7a27c-4633-4433-8d95-fae8968731e7","ios":"levelo://app?vid=61b7a27c-4633-4433-8d95-fae8968731e7"},"vehicle_type_id":"4","last_reported":1781303271,"current_range_meters":6800,"station_id":"st_d6im8g6chgec73a5pndg","pricing_plan_id":"cebpf4jnsgd1na2vs0mg"},{"bike_id":"deaa129f-e1ec-4b70-89be-08228923086d","system_id":"levelo_inurba_marseille","lat":43.27057,"lon":5.38307,"is_reserved":false,"is_disabled":false,"rental_uris":{"android":"levelo://app?vid=deaa129f-e1ec-4b70-89be-08228923086d","ios":"levelo://app?vid=deaa129f-e1ec-4b70-89be-08228923086d"},"vehicle_type_id":"4","last_reported":1781303271,"current_range_meters":6800,"station_id":"st_d3n2fo6cfp8s73cte1j0","pricing_plan_id":"cebpf4jnsgd1na2vs0mg"},{"bike_id":"c40c4ead-d8dd-4ab4-8b7c-8c735c9c1613","system_id":"levelo_inurba_marseille","lat":43.31887,"lon":5.36874,"is_reserved":false,"is_disabled":false,"rental_uris":{"android":"levelo://app?vid=c40c4ead-d8dd-4ab4-8b7c-8c735c9c1613","ios":"levelo://app?vid=c40c4ead-d8dd-4ab4-8b7c-8c735c9c1613"},"vehicle_type_id":"4","last_reported":1781303271,"current_range_meters":6800,"station_id":"st_d6o2h0d0559c73evc1b0","pricing_plan_id":"cebpf4jnsgd1na2vs0mg"},{"bike_id":"9f069751-295a-496b-b19c-281f4491a5fd","system_id":"levelo_inurba_marseille","lat":43.35057,"lon":5.35056,"is_reserved":false,"is_disabled":false,"rental_uris":{"android":"levelo://app?vid=9f069751-295a-496b-b19c-281f4491a5fd","ios":"levelo://app?vid=9f069751-295a-496b-b19c-281f4491a5fd"},"vehicle_type_id":"4","last_reported":1781303271,"current_range_meters":7200,"station_id":"","pricing_plan_id":"cebpf4jnsgd1na2vs0mg"},{"bike_id":"a5e77653-46b7-42be-ae06-dd075d05a062","system_id":"levelo_inurba_marseille","lat":43.32519,"lon":5.36648,"is_reserved":false,"is_disabled":false,"rental_uris":{"android":"levelo://app?vid=a5e77653-46b7-42be-ae06-dd075d05a062","ios":"levelo://app?vid=a5e77653-46b7-42be-ae06-dd075d05a062"},"vehicle_type_id":"4","last_reported":1781303271,"current_range_meters":7200,"station_id":"","pricing_plan_id":"cebpf4jnsgd1na2vs0mg"},{"bike_id":"932afb10-d230-406f-a6e2-098fe36a2de4","system_id":"levelo_inurba_marseille","lat":43.25329,"lon":5.42153,"is_reserved":false,"is_disabled":false,"rental_uris":{"android":"levelo://app?vid=932afb10-d230-406f-a6e2-098fe36a2de4","ios":"levelo://app?vid=932afb10-d230-406f-a6e2-098fe36a2de4"},"vehicle_type_id":"4","last_reported":1781303271,"current_range_meters":7200,"station_id":"st_d2m65c5bi1j21697t3ng","pricing_plan_id":"cebpf4jnsgd1na2vs0mg"},{"bike_id":"d37198cb-cc83-44d2-a6c5-b2109b3acbb6","system_id":"levelo_inurba_marseille","lat":43.29564,"lon":5.39969,"is_reserved":false,"is_disabled":false,"rental_uris":{"android":"levelo://app?vid=d37198cb-cc83-44d2-a6c5-b2109b3acbb6","ios":"levelo://app?vid=d37198cb-cc83-44d2-a6c5-b2109b3acbb6"},"vehicle_type_id":"4","last_reported":1781303271,"current_range_meters":7200,"station_id":"ce4bh312rcd13ifvqdj0","pricing_plan_id":"cebpf4jnsgd1na2vs0mg"},{"bike_id":"40d12a24-cf28-4a6d-87fd-6bb64cea15d1","system_id":"levelo_inurba_marseille","lat":43.2655,"lon":5.37291,"is_reserved":false,"is_disabled":false,"rental_uris":{"android":"levelo://app?vid=40d12a24-cf28-4a6d-87fd-6bb64cea15d1","ios":"levelo://app?vid=40d12a24-cf28-4a6d-87fd-6bb64cea15d1"},"vehicle_type_id":"4","last_reported":1781303271,"current_range_meters":7200,"station_id":"ce4bhg12rcd13ifvqf70","pricing_plan_id":"cebpf4jnsgd1na2vs0mg"},{"bike_id":"6a27404a-fd45-46ef-b0c6-d19df52b0472","system_id":"levelo_inurba_marseille","lat":43.3006,"lon":5.37775,"is_reserved":false,"is_disabled":false,"rental_uris":{"android":"levelo://app?vid=6a27404a-fd45-46ef-b0c6-d19df52b0472","ios":"levelo://app?vid=6a27404a-fd45-46ef-b0c6-d19df52b0472"},"vehicle_type_id":"4","last_reported":1781303271,"current_range_meters":7200,"station_id":"","pricing_plan_id":"cebpf4jnsgd1na2vs0mg"},{"bike_id":"a88c18f7-a05b-424b-a2e6-87c48e40dd60","system_id":"levelo_inurba_marseille","lat":43.23899,"lon":5.37457,"is_reserved":false,"is_disabled":true,"rental_uris":{"android":"levelo://app?vid=a88c18f7-a05b-424b-a2e6-87c48e40dd60","ios":"levelo://app?vid=a88c18f7-a05b-424b-a2e6-87c48e40dd60"},"vehicle_type_id":"4","last_reported":1781303271,"current_range_meters":7200,"station_id":"st_d6sm7csbq4hs73f8fpjg","pricing_plan_id":"cebpf4jnsgd1na2vs0mg"},{"bike_id":"0af28dff-10e3-45c2-abfc-a6abed270ace","system_id":"levelo_inurba_marseille","lat":43.33721,"lon":5.39204,"is_reserved":false,"is_disabled":false,"rental_uris":{"android":"levelo://app?vid=0af28dff-10e3-45c2-abfc-a6abed270ace","ios":"levelo://app?vid=0af28dff-10e3-45c2-abfc-a6abed270ace"},"vehicle_type_id":"4","last_reported":1781303271,"current_range_meters":7200,"station_id":"ce4bhr92rcd13ifvqhsg","pricing_plan_id":"cebpf4jnsgd1na2vs0mg"},{"bike_id":"1bd36802-444b-47b8-b6d5-5854caf6a4a9","system_id":"levelo_inurba_marseille","lat":43.31483,"lon":5.373,"is_reserved":false,"is_disabled":false,"rental_uris":{"android":"levelo://app?vid=1bd36802-444b-47b8-b6d5-5854caf6a4a9","ios":"levelo://app?vid=1bd36802-444b-47b8-b6d5-5854caf6a4a9"},"vehicle_type_id":"4","last_reported":1781303271,"current_range_meters":7200,"station_id":"ce4bgt12rcd13ifvqcd0","pricing_plan_id":"cebpf4jnsgd1na2vs0mg"},{"bike_id":"61abc050-794c-43f3-96ae-15565612cd1b","system_id":"levelo_inurba_marseille","lat":43.28695,"lon":5.46667,"is_reserved":false,"is_disabled":false,"rental_uris":{"android":"levelo://app?vid=61abc050-794c-43f3-96ae-15565612cd1b","ios":"levelo://app?vid=61abc050-794c-43f3-96ae-15565612cd1b"},"vehicle_type_id":"4","last_reported":1781303271,"current_range_meters":7200,"station_id":"st_d6tc3vkotcvc738tfjhg","pricing_plan_id":"cebpf4jnsgd1na2vs0mg"},{"bike_id":"b987ce63-e627-4ed6-9935-58a7a8c76a82","system_id":"levelo_inurba_marseille","lat":43.28332,"lon":5.38084,"is_reserved":false,"is_disabled":false,"rental_uris":{"android":"levelo://app?vid=b987ce63-e627-4ed6-9935-58a7a8c76a82","ios":"levelo://app?vid=b987ce63-e627-4ed6-9935-58a7a8c76a82"},"vehicle_type_id":"4","last_reported":1781303271,"current_range_meters":7200,"station_id":"ce4bh412rcd13ifvqdr0","pricing_plan_id":"cebpf4jnsgd1na2vs0mg"},{"bike_id":"75a8d4bb-5b93-4cf3-8f56-e58ee660da96","system_id":"levelo_inurba_marseille","lat":43.24189,"lon":5.40836,"is_reserved":false,"is_disabled":false,"rental_uris":{"android":"levelo://app?vid=75a8d4bb-5b93-4cf3-8f56-e58ee660da96","ios":"levelo://app?vid=75a8d4bb-5b93-4cf3-8f56-e58ee660da96"},"vehicle_type_id":"4","last_reported":1781303271,"current_range_meters":7200,"station_id":"","pricing_plan_id":"cebpf4jnsgd1na2vs0mg"},{"bike_id":"1f4cf7cf-98e2-40ce-8e0b-c74ae682295d","system_id":"levelo_inurba_marseille","lat":43.26241,"lon":5.38772,"is_reserved":false,"is_disabled":false,"rental_uris":{"android":"levelo://app?vid=1f4cf7cf-98e2-40ce-8e0b-c74ae682295d","ios":"levelo://app?vid=1f4cf7cf-98e2-40ce-8e0b-c74ae682295d"},"vehicle_type_id":"4","last_reported":1781303271,"current_range_meters":7200,"station_id":"st_d8gjfg747rts73coq3b0","pricing_plan_id":"cebpf4jnsgd1na2vs0mg"},{"bike_id":"4d77753f-2320-404c-93a2-094e7eff83c5","system_id":"levelo_inurba_marseille","lat":43.28613,"lon":5.37381,"is_reserved":false,"is_disabled":false,"rental_uris":{"android":"levelo://app?vid=4d77753f-2320-404c-93a2-094e7eff83c5","ios":"levelo://app?vid=4d77753f-2320-404c-93a2-094e7eff83c5"},"vehicle_type_id":"4","last_reported":1781303271,"current_range_meters":7200,"station_id":"ce4bh3p2rcd13ifvqdq0","pricing_plan_id":"cebpf4jnsgd1na2vs0mg"},{"bike_id":"01974ce9-2ce7-4184-9698-03768bec9bb4","system_id":"levelo_inurba_marseille","lat":43.28684,"lon":5.46641,"is_reserved":false,"is_disabled":false,"rental_uris":{"android":"levelo://app?vid=01974ce9-2ce7-4184-9698-03768bec9bb4","ios":"levelo://app?vid=01974ce9-2ce7-4184-9698-03768bec9bb4"},"vehicle_type_id":"4","last_reported":1781303271,"current_range_meters":7200,"station_id":"st_d6tc3vkotcvc738tfjhg","pricing_plan_id":"cebpf4jnsgd1na2vs0mg"},{"bike_id":"e359725d-04b5-4451-8ab6-a4ac14bd9ba6","system_id":"levelo_inurba_marseille","lat":43.26684,"lon":5.38284,"is_reserved":false,"is_disabled":false,"rental_uris":{"android":"levelo://app?vid=e359725d-04b5-4451-8ab6-a4ac14bd9ba6","ios":"levelo://app?vid=e359725d-04b5-4451-8ab6-a4ac14bd9ba6"},"vehicle_type_id":"4","last_reported":1781303271,"current_range_meters":7200,"station_id":"ce4bhg92rcd13ifvqf90","pricing_plan_id":"cebpf4jnsgd1na2vs0mg"},{"bike_id":"1fdd923e-e961-41f9-8f3c-11f5303c0850","system_id":"levelo_inurba_marseille","lat":43.287,"lon":5.37409,"is_reserved":false,"is_disabled":false,"rental_uris":{"android":"levelo://app?vid=1fdd923e-e961-41f9-8f3c-11f5303c0850","ios":"levelo://app?vid=1fdd923e-e961-41f9-8f3c-11f5303c0850"},"vehicle_type_id":"4","last_reported":1781303271,"current_range_meters":7200,"station_id":"ce4bh3p2rcd13ifvqdq0","pricing_plan_id":"cebpf4jnsgd1na2vs0mg"},{"bike_id":"e1f61ad6-7e3d-40b4-9834-86bf2c8c8eb5","system_id":"levelo_inurba_marseille","lat":43.29539,"lon":5.3855,"is_reserved":false,"is_disabled":false,"rental_uris":{"android":"levelo://app?vid=e1f61ad6-7e3d-40b4-9834-86bf2c8c8eb5","ios":"levelo://app?vid=e1f61ad6-7e3d-40b4-9834-86bf2c8c8eb5"},"vehicle_type_id":"4","last_reported":1781303271,"current_range_meters":7200,"station_id":"ce4bgih2rcd13ifvqba0","pricing_plan_id":"cebpf4jnsgd1na2vs0mg"},