{"last_updated":1739819251,"ttl":60,"version":"2.2","data":{"bikes":[{"bike_id":"f7e2b004-8560-4eb3-8f2e-2beae3a09d09","system_id":"levelo_inurba_marseille","lat":43.25582,"lon":5.38223,"is_reserved":false,"is_disabled":false,"rental_uris":{"android":"levelo://app?vid=f7e2b004-8560-4eb3-8f2e-2beae3a09d09","ios":"levelo://app?vid=f7e2b004-8560-4eb3-8f2e-2beae3a09d09"},"vehicle_type_id":"4","last_reported":1739819251,"current_range_meters":2800,"station_id":"","pricing_plan_id":"cebpf4jnsgd1na2vs0mg"},{"bike_id":"06186b5a-edc6-4cf9-afae-1b86ce00446a","system_id":"levelo_inurba_marseille","lat":43.28668,"lon":5.38294,"is_reserved":false,"is_disabled":false,"rental_uris":{"android":"levelo://app?vid=06186b5a-edc6-4cf9-afae-1b86ce00446a","ios":"levelo://app?vid=06186b5a-edc6-4cf9-afae-1b86ce00446a"},"vehicle_type_id":"4","last_reported":1739819251,"current_range_meters":2800,"station_id":"","pricing_plan_id":"cebpf4jnsgd1na2vs0mg"},{"bike_id":"08cd6744-10bc-4525-8709-c0c9eaae2b7d","system_id":"levelo_inurba_marseille","lat":43.24661,"lon":5.38905,"is_reserved":false,"is_disabled":true,"rental_uris":{"android":"levelo://app?vid=08cd6744-10bc-4525-8709-c0c9eaae2b7d","ios":"levelo://app?vid=08cd6744-10bc-4525-8709-c0c9eaae2b7d"},"vehicle_type_id":"4","last_reported":1739819251,"current_range_meters":3200,"station_id":"ce4bhg12rcd13ifvqf60","pricing_plan_id":"cebpf4jnsgd1na2vs0mg"},{"bike_id":"6dc7fa8c-1042-4821-a7ca-4c7318a1dbc2","system_id":"levelo_inurba_marseille","lat":43.29874,"lon":5.36305,"is_reserved":false,"is_disabled":false,"rental_uris":{"android":"levelo://app?vid=6dc7fa8c-1042-4821-a7ca-4c7318a1dbc2","ios":"levelo://app?vid=6dc7fa8c-1042-4821-a7ca-4c7318a1dbc2"},"vehicle_type_id":"4","last_reported":1739819251,"current_range_meters":3200,"station_id":"","pricing_plan_id":"cebpf4jnsgd1na2vs0mg"},{"bike_id":"75af70f0-f7a6-40f6-90f2-7f5a81403b7c","system_id":"levelo_inurba_marseille","lat":43.25106,"lon":5.40319,"is_reserved":false,"is_disabled":false,"rental_uris":{"android":"levelo://app?vid=75af70f0-f7a6-40f6-90f2-7f5a81403b7c","ios":"levelo://app?vid=75af70f0-f7a6-40f6-90f2-7f5a81403b7c"},"vehicle_type_id":"4","last_reported":1739819251,"current_range_meters":3200,"station_id":"","pricing_plan_id":"cebpf4jnsgd1na2vs0mg"},{"bike_id":"310c6260-9e35-4b21-a9e2-03f46f4e6089","system_id":"levelo_inurba_marseille","lat":43.29005,"lon":5.3561,"is_reserved":false,"is_disabled":false,"rental_uris":{"android":"levelo://app?vid=310c6260-9e35-4b21-a9e2-03f46f4e6089","ios":"levelo://app?vid=310c6260-9e35-4b21-a9e2-03f46f4e6089"},"vehicle_type_id":"4","last_reported":1739819251,"current_range_meters":3600,"station_id":"ce4bhb92rcd13ifvqen0","pricing_plan_id":"cebpf4jnsgd1na2vs0mg"},{"bike_id":"a0ebdd3a-e435-484b-95ea-3a2475b43b8c","system_id":"levelo_inurba_marseille","lat":43.28412,"lon":5.37494,"is_reserved":false,"is_disabled":false,"rental_uris":{"android":"levelo://app?vid=a0ebdd3a-e435-484b-95ea-3a2475b43b8c","ios":"levelo://app?vid=a0ebdd3a-e435-484b-95ea-3a2475b43b8c"},"vehicle_type_id":"4","last_reported":1739819251,"current_range_meters":3600,"station_id":"","pricing_plan_id":"cebpf4jnsgd1na2vs0mg"},{"bike_id":"31846ea2-cdfb-441a-a907-8c716455882f","system_id":"levelo_inurba_marseille","lat":43.27898,"lon":5.37982,"is_reserved":false,"is_disabled":false,"rental_uris":{"android":"levelo://app?vid=31846ea2-cdfb-441a-a907-8c716455882f","ios":"levelo://app?vid=31846ea2-cdfb-441a-a907-8c716455882f"},"vehicle_type_id":"4","last_reported":1739819251,"current_range_meters":3600,"station_id":"ce4bhf92rcd13ifvqf50","pricing_plan_id":"cebpf4jnsgd1na2vs0mg"},{"bike_id":"af1bdb29-ed53-4281-81eb-3ea47d561751","system_id":"levelo_inurba_marseille","lat":43.28986,"lon":5.36614,"is_reserved":false,"is_disabled":false,"rental_uris":{"android":"levelo://app?vid=af1bdb29-ed53-4281-81eb-3ea47d561751","ios":"levelo://app?vid=af1bdb29-ed53-4281-81eb-3ea47d561751"},"vehicle_type_id":"4","last_reported":1739819251,"current_range_meters":3600,"station_id":"ce4bhap2rcd13ifvqek0","pricing_plan_id":"cebpf4jnsgd1na2vs0mg"},{"bike_id":"e8544f63-d1f5-4d8b-b6f4-e5c6fa24cb4b","system_id":"levelo_inurba_marseille","lat":43.2867,"lon":5.38676,"is_reserved":false,"is_disabled":false,"rental_uris":{"android":"levelo://app?vid=e8544f63-d1f5-4d8b-b6f4-e5c6fa24cb4b","ios":"levelo://app?vid=e8544f63-d1f5-4d8b-b6f4-e5c6fa24cb4b"},"vehicle_type_id":"4","last_reported":1739819251,"current_range_meters":3600,"station_id":"ce4bh492rcd13ifvqdug","pricing_plan_id":"cebpf4jnsgd1na2vs0mg"},{"bike_id":"3ef5e7c4-474f-441a-ad4f-51720c30cd1a","system_id":"levelo_inurba_marseille","lat":43.31405,"lon":5.37353,"is_reserved":false,"is_disabled":false,"rental_uris":{"android":"levelo://app?vid=3ef5e7c4-474f-441a-ad4f-51720c30cd1a","ios":"levelo://app?vid=3ef5e7c4-474f-441a-ad4f-51720c30cd1a"},"vehicle_type_id":"4","last_reported":1739819251,"current_range_meters":3600,"station_id":"","pricing_plan_id":"cebpf4jnsgd1na2vs0mg"},{"bike_id":"4e7beed8-3f51-4c59-a37c-0ac46140a818","system_id":"levelo_inurba_marseille","lat":43.26941,"lon":5.38636,"is_reserved":false,"is_disabled":true,"rental_uris":{"android":"levelo://app?vid=4e7beed8-3f51-4c59-a37c-0ac46140a818","ios":"levelo://app?vid=4e7beed8-3f51-4c59-a37c-0ac46140a818"},"vehicle_type_id":"4","last_reported":1739819251,"current_range_meters":3600,"station_id":"","pricing_plan_id":"cebpf4jnsgd1na2vs0mg"},{"bike_id":"38cf3e97-9083-4dde-9b51-e39f8998c236","system_id":"levelo_inurba_marseille","lat":43.31169,"lon":5.38715,"is_reserved":false,"is_disabled":false,"rental_uris":{"android":"levelo://app?vid=38cf3e97-9083-4dde-9b51-e39f8998c236","ios":"levelo://app?vid=38cf3e97-9083-4dde-9b51-e39f8998c236"},"vehicle_type_id":"4","last_reported":1739819251,"current_range_meters":3600,"station_id":"ce4bgv12rcd13ifvqcp0","pricing_plan_id":"cebpf4jnsgd1na2vs0mg"},{"bike_id":"b69bce8f-c9a5-42d8-b6d5-010b2db4eb73","system_id":"levelo_inurba_marseille","lat":43.28492,"lon":5.38549,"is_reserved":false,"is_disabled":false,"rental_uris":{"android":"levelo://app?vid=b69bce8f-c9a5-42d8-b6d5-010b2db4eb73","ios":"levelo://app?vid=b69bce8f-c9a5-42d8-b6d5-010b2db4eb73"},"vehicle_type_id":"4","last_reported":1739819251,"current_range_meters":4000,"station_id":"ce4bh8p2rcd13ifvqeb0","pricing_plan_id":"cebpf4jnsgd1na2vs0mg"},{"bike_id":"a0a73c4f-5940-4a3f-8189-6eff9b6f4923","system_id":"levelo_inurba_marseille","lat":43.2816,"lon":5.42644,"is_reserved":false,"is_disabled":false,"rental_uris":{"android":"levelo://app?vid=a0a73c4f-5940-4a3f-8189-6eff9b6f4923","ios":"levelo://app?vid=a0a73c4f-5940-4a3f-8189-6eff9b6f4923"},"vehicle_type_id":"4","last_reported":1739819251,"current_range_meters":4400,"station_id":"","pricing_plan_id":"cebpf4jnsgd1na2vs0mg"},{"bike_id":"029b99e9-77bb-4611-bbfd-d7c37a5629a5","system_id":"levelo_inurba_marseille","lat":43.29534,"lon":5.39033,"is_reserved":false,"is_disabled":false,"rental_uris":{"android":"levelo://app?vid=029b99e9-77bb-4611-bbfd-d7c37a5629a5","ios":"levelo://app?vid=029b99e9-77bb-4611-bbfd-d7c37a5629a5"},"vehicle_type_id":"4","last_reported":1739819251,"current_range_meters":4000,"station_id":"ce4bh3p2rcd13ifvqdp0","pricing_plan_id":"cebpf4jnsgd1na2vs0mg"},{"bike_id":"958ed81b-f6fd-4182-a500-df71e3bfb2b1","system_id":"levelo_inurba_marseille","lat":43.29941,"lon":5.3654,"is_reserved":false,"is_disabled":false,"rental_uris":{"android":"levelo://app?vid=958ed81b-f6fd-4182-a500-df71e3bfb2b1","ios":"levelo://app?vid=958ed81b-f6fd-4182-a500-df71e3bfb2b1"},"vehicle_type_id":"4","last_reported":1739819251,"current_range_meters":4400,"station_id":"ce4bgm92rcd13ifvqbr0","pricing_plan_id":"cebpf4jnsgd1na2vs0mg"},{"bike_id":"bef4f31f-0072-4d95-b59d-c63b41c2e263","system_id":"levelo_inurba_marseille","lat":43.29421,"lon":5.38615,"is_reserved":false,"is_disabled":false,"rental_uris":{"android":"levelo://app?vid=bef4f31f-0072-4d95-b59d-c63b41c2e263","ios":"levelo://app?vid=bef4f31f-0072-4d95-b59d-c63b41c2e263"},"vehicle_type_id":"4","last_reported":1739819251,"current_range_meters":4400,"station_id":"ce4bh2h2rcd13ifvqdh0","pricing_plan_id":"cebpf4jnsgd1na2vs0mg"},{"bike_id":"5ec821de-84ff-4be6-bfb4-596692ab8d92","system_id":"levelo_inurba_marseille","lat":43.28674,"lon":5.38653,"is_reserved":false,"is_disabled":false,"rental_uris":{"android":"levelo://app?vid=5ec821de-84ff-4be6-bfb4-596692ab8d92","ios":"levelo://app?vid=5ec821de-84ff-4be6-bfb4-596692ab8d92"},"vehicle_type_id":"4","last_reported":1739819251,"current_range_meters":4000,"station_id":"ce4bh492rcd13ifvqdug","pricing_plan_id":"cebpf4jnsgd1na2vs0mg"},{"bike_id":"458f44e2-37dd-48dd-8470-babd18691b9c","system_id":"levelo_inurba_marseille","lat":43.24637,"lon":5.38924,"is_reserved":false,"is_disabled":true,"rental_uris":{"android":"levelo://app?vid=458f44e2-37dd-48dd-8470-babd18691b9c","ios":"levelo://app?vid=458f44e2-37dd-48dd-8470-babd18691b9c"},"vehicle_type_id":"4","last_reported":1739819251,"current_range_meters":4400,"station_id":"ce4bhg12rcd13ifvqf60","pricing_plan_id":"cebpf4jnsgd1na2vs0mg"},{"bike_id":"ecf94a46-896a-477b-9072-efe33284489c","system_id":"levelo_inurba_marseille","lat":43.28832,"lon":5.39303,"is_reserved":false,"is_disabled":false,"rental_uris":{"android":"levelo://app?vid=ecf94a46-896a-477b-9072-efe33284489c","ios":"levelo://app?vid=ecf94a46-896a-477b-9072-efe33284489c"},"vehicle_type_id":"4","last_reported":1739819251,"current_range_meters":4800,"station_id":"ce4bh2p2rcd13ifvqdi0","pricing_plan_id":"cebpf4jnsgd1na2vs0mg"},{"bike_id":"67a5ae46-124f-4fdc-924b-fed86268686c","system_id":"levelo_inurba_marseille","lat":43.2848,"lon":5.38401,"is_reserved":false,"is_disabled":false,"rental_uris":{"android":"levelo://app?vid=67a5ae46-124f-4fdc-924b-fed86268686c","ios":"levelo://app?vid=67a5ae46-124f-4fdc-924b-fed86268686c"},"vehicle_type_id":"4","last_reported":1739819251,"current_range_meters":4800,"station_id":"ce4bh512rcd13ifvqe3g","pricing_plan_id":"cebpf4jnsgd1na2vs0mg"},{"bike_id":"7e98fd03-a604-4376-9d6b-039279ec729b","system_id":"levelo_inurba_marseille","lat":43.28943,"lon":5.36401,"is_reserved":false,"is_disabled":false,"rental_uris":{"android":"levelo://app?vid=7e98fd03-a604-4376-9d6b-039279ec729b","ios":"levelo://app?vid=7e98fd03-a604-4376-9d6b-039279ec729b"},"vehicle_type_id":"4","last_reported":1739819251,"current_range_meters":4800,"station_id":"ce4bhc92rcd13ifvqetg","pricing_plan_id":"cebpf4jnsgd1na2vs0mg"},{"bike_id":"984fd977-5ba3-4586-bc95-c7433758a6d5","system_id":"levelo_inurba_marseille","lat":43.23963,"lon":5.36628,"is_reserved":false,"is_disabled":false,"rental_uris":{"android":"levelo://app?vid=984fd977-5ba3-4586-bc95-c7433758a6d5","ios":"levelo://app?vid=984fd977-5ba3-4586-bc95-c7433758a6d5"},"vehicle_type_id":"4","last_reported":1739819251,"current_range_meters":4800,"station_id":"","pricing_plan_id":"cebpf4jnsgd1na2vs0mg"},{"bike_id":"b87cb6a5-cf63-4b15-83a4-03a98611e72a","system_id":"levelo_inurba_marseille","lat":43.28147,"lon":5.44288,"is_reserved":false,"is_disabled":true,"rental_uris":{"android":"levelo://app?vid=b87cb6a5-cf63-4b15-83a4-03a98611e72a","ios":"levelo://app?vid=b87cb6a5-cf63-4b15-83a4-03a98611e72a"},"vehicle_type_id":"4","last_reported":1739819251,"current_range_meters":4800,"station_id":"ce4bhnh2rcd13ifvqgtg","pricing_plan_id":"cebpf4jnsgd1na2vs0mg"},{"bike_id":"43d9e9b4-0690-4b47-a93c-6894e50185b8","system_id":"levelo_inurba_marseille","lat":43.303162,"lon":5.368999,"is_reserved":false,"is_disabled":false,"rental_uris":{"android":"levelo://app?vid=43d9e9b4-0690-4b47-a93c-6894e50185b8","ios":"levelo://app?vid=43d9e9b4-0690-4b47-a93c-6894e50185b8"},"vehicle_type_id":"4","last_reported":1739819251,"current_range_meters":5600,"station_id":"ce4bh512rcd13ifvqe3g","pricing_plan_id":"cebpf4jnsgd1na2vs0mg"},{"bike_id":"4e4a5638-e41b-4c3a-aee6-c5ff4938e432","system_id":"levelo_inurba_marseille","lat":43.30625,"lon":5.39346,"is_reserved":false,"is_disabled":false,"rental_uris":{"android":"levelo://app?vid=4e4a5638-e41b-4c3a-aee6-c5ff4938e432","ios":"levelo://app?vid=4e4a5638-e41b-4c3a-aee6-c5ff4938e432"},"vehicle_type_id":"4","last_reported":1739819251,"current_range_meters":5600,"station_id":"ce4bh0p2rcd13ifvqd80","pricing_plan_id":"cebpf4jnsgd1na2vs0mg"},{"bike_id":"4bf52dd4-05c6-47db-9a6d-2c8971b9e952","system_id":"levelo_inurba_marseille","lat":43.30216,"lon":5.39457,"is_reserved":false,"is_disabled":false,"rental_uris":{"android":"levelo://app?vid=4bf52dd4-05c6-47db-9a6d-2c8971b9e952","ios":"levelo://app?vid=4bf52dd4-05c6-47db-9a6d-2c8971b9e952"},"vehicle_type_id":"4","last_reported":1739819251,"current_range_meters":5600,"station_id":"","pricing_plan_id":"cebpf4jnsgd1na2vs0mg"},{"bike_id":"2c0a4e32-7863-4be3-9695-23369c68d50c","system_id":"levelo_inurba_marseille","lat":43.28695,"lon":5.39986,"is_reserved":false,"is_disabled":false,"rental_uris":{"android":"levelo://app?vid=2c0a4e32-7863-4be3-9695-23369c68d50c","ios":"levelo://app?vid=2c0a4e32-7863-4be3-9695-23369c68d50c"},"vehicle_type_id":"4","last_reported":1739819251,"current_range_meters":5600,"station_id":"","pricing_plan_id":"cebpf4jnsgd1na2vs0mg"},{"bike_id":"6b21d320-52d0-422d-a96b-25dc166ffb72","system_id":"levelo_inurba_marseille","lat":43.30426,"lon":5.4129,"is_reserved":false,"is_disabled":true,"rental_uris":{"android":"levelo://app?vid=6b21d320-52d0-422d-a96b-25dc166ffb72","ios":"levelo://app?vid=6b21d320-52d0-422d-a96b-25dc166ffb72"},"vehicle_type_id":"4","last_reported":1739819251,"current_range_meters":5600,"station_id":"ce4bhop2rcd13ifvqh8g","pricing_plan_id":"cebpf4jnsgd1na2vs0mg"},{"bike_id":"a4413d93-aceb-47df-9edf-870ce631380e","system_id":"levelo_inurba_marseille","lat":43.24385,"lon":5.37057,"is_reserved":false,"is_disabled":true,"rental_uris":{"android":"levelo://app?vid=a4413d93-aceb-47df-9edf-870ce631380e","ios":"levelo://app?vid=a4413d93-aceb-47df-9edf-870ce631380e"},"vehicle_type_id":"4","last_reported":1739819251,"current_range_meters":6000,"station_id":"ce4bhhh2rcd13ifvqfk0","pricing_plan_id":"cebpf4jnsgd1na2vs0mg"},{"bike_id":"d0e0a89a-0d81-4148-ba85-59442b59d06e","system_id":"levelo_inurba_marseille","lat":43.28623,"lon":5.35103,"is_reserved":false,"is_disabled":false,"rental_uris":{"android":"levelo://app?vid=d0e0a89a-0d81-4148-ba85-59442b59d06e","ios":"levelo://app?vid=d0e0a89a-0d81-4148-ba85-59442b59d06e"},"vehicle_type_id":"4","last_reported":1739819251,"current_range_meters":6000,"station_id":"","pricing_plan_id":"cebpf4jnsgd1na2vs0mg"},{"bike_id":"c7ba40b1-40e7-476e-b657-501466147d94","system_id":"levelo_inurba_marseille","lat":43.295807,"lon":5.367436,"is_reserved":false,"is_disabled":false,"rental_uris":{"android":"levelo://app?vid=c7ba40b1-40e7-476e-b657-501466147d94","ios":"levelo://app?vid=c7ba40b1-40e7-476e-b657-501466147d94"},"vehicle_type_id":"4","last_reported":1739819251,"current_range_meters":6000,"station_id":"ce4bgph2rcd13ifvqc2g","pricing_plan_id":"cebpf4jnsgd1na2vs0mg"},{"bike_id":"0d26d2ba-3246-44ad-b024-cb27d29838fc","system_id":"levelo_inurba_marseille","lat":43.28707,"lon":5.39968,"is_reserved":false,"is_disabled":false,"rental_uris":{"android":"levelo://app?vid=0d26d2ba-3246-44ad-b024-cb27d29838fc","ios":"levelo://app?vid=0d26d2ba-3246-44ad-b024-cb27d29838fc"},"vehicle_type_id":"4","last_reported":1739819251,"current_range_meters":6000,"station_id":"ce4bho92rcd13ifvqh3g","pricing_plan_id":"cebpf4jnsgd1na2vs0mg"},{"bike_id":"1d6f5a5a-bf78-4d12-91e4-6dc8a2b7ed98","system_id":"levelo_inurba_marseille","lat":43.27491,"lon":5.42457,"is_reserved":false,"is_disabled":true,"rental_uris":{"android":"levelo://app?vid=1d6f5a5a-bf78-4d12-91e4-6dc8a2b7ed98","ios":"levelo://app?vid=1d6f5a5a-bf78-4d12-91e4-6dc8a2b7ed98"},"vehicle_type_id":"4","last_reported":1739819251,"current_range_meters":6000,"station_id":"ce4bhn92rcd13ifvqgrg","pricing_plan_id":"cebpf4jnsgd1na2vs0mg"},{"bike_id":"977156e2-de55-4026-aaef-ca2fa796c6cc","system_id":"levelo_inurba_marseille","lat":43.29788,"lon":5.38088,"is_reserved":false,"is_disabled":false,"rental_uris":{"android":"levelo://app?vid=977156e2-de55-4026-aaef-ca2fa796c6cc","ios":"levelo://app?vid=977156e2-de55-4026-aaef-ca2fa796c6cc"},"vehicle_type_id":"4","last_reported":1739819251,"current_range_meters":5600,"station_id":"ce4bgip2rcd13ifvqbb0","pricing_plan_id":"cebpf4jnsgd1na2vs0mg"},{"bike_id":"014d981f-966e-4078-ae1f-ce3c089009b7","system_id":"levelo_inurba_marseille","lat":43.30213,"lon":5.39472,"is_reserved":false,"is_disabled":false,"rental_uris":{"android":"levelo://app?vid=014d981f-966e-4078-ae1f-ce3c089009b7","ios":"levelo://app?vid=014d981f-966e-4078-ae1f-ce3c089009b7"},"vehicle_type_id":"4","last_reported":1739819251,"current_range_meters":6400,"station_id":"","pricing_plan_id":"cebpf4jnsgd1na2vs0mg"},{"bike_id":"26df165d-382b-4d34-8eee-f36a8b368a2c","system_id":"levelo_inurba_marseille","lat":43.23958,"lon":5.36649,"is_reserved":false,"is_disabled":false,"rental_uris":{"android":"levelo://app?vid=26df165d-382b-4d34-8eee-f36a8b368a2c","ios":"levelo://app?vid=26df165d-382b-4d34-8eee-f36a8b368a2c"},"vehicle_type_id":"4","last_reported":1739819251,"current_range_meters":6400,"station_id":"","pricing_plan_id":"cebpf4jnsgd1na2vs0mg"},{"bike_id":"324c900e-5cb2-4ca6-932a-28ceba0385c4","system_id":"levelo_inurba_marseille","lat":43.31084,"lon":5.42432,"is_reserved":false,"is_disabled":false,"rental_uris":{"android":"levelo://app?vid=324c900e-5cb2-4ca6-932a-28ceba0385c4","ios":"levelo://app?vid=324c900e-5cb2-4ca6-932a-28ceba0385c4"},"vehicle_type_id":"4","last_reported":1739819251,"current_range_meters":6400,"station_id":"ce4bhp92rcd13ifvqhag","pricing_plan_id":"cebpf4jnsgd1na2vs0mg"},{"bike_id":"ce61429a-686f-445d-80d9-4b10876ed4ef","system_id":"levelo_inurba_marseille","lat":43.337444,"lon":5.374475,"is_reserved":false,"is_disabled":true,"rental_uris":{"android":"levelo://app?vid=ce61429a-686f-445d-80d9-4b10876ed4ef","ios":"levelo://app?vid=ce61429a-686f-445d-80d9-4b10876ed4ef"},"vehicle_type_id":"4","last_reported":1739819251,"current_range_meters":6400,"station_id":"","pricing_plan_id":"cebpf4jnsgd1na2vs0mg"},{"bike_id":"f3d41941-a685-450d-85ee-bfbac6e0dda4","system_id":"levelo_inurba_marseille","lat":43.31483,"lon":5.37306,"is_reserved":false,"is_disabled":false,"rental_uris":{"android":"levelo://app?vid=f3d41941-a685-450d-85ee-bfbac6e0dda4","ios":"levelo://app?vid=f3d41941-a685-450d-85ee-bfbac6e0dda4"},"vehicle_type_id":"4","last_reported":1739819251,"current_range_meters":6400,"station_id":"ce4bgt12rcd13ifvqcd0","pricing_plan_id":"cebpf4jnsgd1na2vs0mg"},{"bike_id":"4b62baaf-0754-47c4-8b8f-37c6001aae0a","system_id":"levelo_inurba_marseille","lat":43.29584,"lon":5.37493,"is_reserved":false,"is_disabled":false,"rental_uris":{"android":"levelo://app?vid=4b62baaf-0754-47c4-8b8f-37c6001aae0a","ios":"levelo://app?vid=4b62baaf-0754-47c4-8b8f-37c6001aae0a"},"vehicle_type_id":"4","last_reported":1739819251,"current_range_meters":6400,"station_id":"ce4bgh92rcd13ifvqb50","pricing_plan_id":"cebpf4jnsgd1na2vs0mg"},{"bike_id":"926e1642-8b0d-4269-911f-e7668b60f23d","system_id":"levelo_inurba_marseille","lat":43.24807,"lon":5.37455,"is_reserved":false,"is_disabled":false,"rental_uris":{"android":"levelo://app?vid=926e1642-8b0d-4269-911f-e7668b60f23d","ios":"levelo://app?vid=926e1642-8b0d-4269-911f-e7668b60f23d"},"vehicle_type_id":"4","last_reported":1739819251,"current_range_meters":6400,"station_id":"","pricing_plan_id":"cebpf4jnsgd1na2vs0mg"},{"bike_id":"e8fa394b-a699-49c5-a129-15a4ee64b5be","system_id":"levelo_inurba_marseille","lat":43.24548,"lon":5.39538,"is_reserved":false,"is_disabled":false,"rental_uris":{"android":"levelo://app?vid=e8fa394b-a699-49c5-a129-15a4ee64b5be","ios":"levelo://app?vid=e8fa394b-a699-49c5-a129-15a4ee64b5be"},"vehicle_type_id":"4","last_reported":1739819251,"current_range_meters":6800,"station_id":"ce4bhlp2rcd13ifvqgjg","pricing_plan_id":"cebpf4jnsgd1na2vs0mg"},{"bike_id":"f53f649c-d23c-4b92-98f0-c6e0f833baa8","system_id":"levelo_inurba_marseille","lat":43.2927,"lon":5.38429,"is_reserved":false,"is_disabled":false,"rental_uris":{"android":"levelo://app?vid=f53f649c-d23c-4b92-98f0-c6e0f833baa8","ios":"levelo://app?vid=f53f649c-d23c-4b92-98f0-c6e0f833baa8"},"vehicle_type_id":"4","last_reported":1739819251,"current_range_meters":6800,"station_id":"ce4bh412rcd13ifvqdr0","pricing_plan_id":"cebpf4jnsgd1na2vs0mg"},{"bike_id":"4c7fa70c-e0fb-4e98-8349-3dd589c1f692","system_id":"levelo_inurba_marseille","lat":43.25109,"lon":5.40316,"is_reserved":false,"is_disabled":false,"rental_uris":{"android":"levelo://app?vid=4c7fa70c-e0fb-4e98-8349-3dd589c1f692","ios":"levelo://app?vid=4c7fa70c-e0fb-4e98-8349-3dd589c1f692"},"vehicle_type_id":"4","last_reported":1739819251,"current_range_meters":6800,"station_id":"ce4bhlh2rcd13ifvqgig","pricing_plan_id":"cebpf4jnsgd1na2vs0mg"},{"bike_id":"8f2b0aef-e2a7-47a2-bfd4-c34d4ba0caca","system_id":"levelo_inurba_marseille","lat":43.28613,"lon":5.35106,"is_reserved":false,"is_disabled":false,"rental_uris":{"android":"levelo://app?vid=8f2b0aef-e2a7-47a2-bfd4-c34d4ba0caca","ios":"levelo://app?vid=8f2b0aef-e2a7-47a2-bfd4-c34d4ba0caca"},"vehicle_type_id":"4","last_reported":1739819251,"current_range_meters":6800,"station_id":"","pricing_plan_id":"cebpf4jnsgd1na2vs0mg"},{"bike_id":"96a96649-77a9-44c4-824f-d3e92f79f91f","system_id":"levelo_inurba_marseille","lat":43.23961,"lon":5.3666,"is_reserved":false,"is_disabled":false,"rental_uris":{"android":"levelo://app?vid=96a96649-77a9-44c4-824f-d3e92f79f91f","ios":"levelo://app?vid=96a96649-77a9-44c4-824f-d3e92f79f91f"},"vehicle_type_id":"4","last_reported":1739819251,"current_range_meters":6800,"station_id":"ce4bhi12rcd13ifvqfp0","pricing_plan_id":"cebpf4jnsgd1na2vs0mg"},{"bike_id":"c4916927-7d10-4eb6-bf80-df6fa900d439","system_id":"levelo_inurba_marseille","lat":43.29547,"lon":5.42312,"is_reserved":false,"is_disabled":true,"rental_uris":{"android":"levelo://app?vid=c4916927-7d10-4eb6-bf80-df6fa900d439","ios":"levelo://app?vid=c4916927-7d10-4eb6-bf80-df6fa900d439"},"vehicle_type_id":"4","last_reported":1739819251,"current_range_meters":6800,"station_id":"ce4bhph2rcd13ifvqhdg","pricing_plan_id":"cebpf4jnsgd1na2vs0mg"},{"bike_id":"1ccb8148-d5a9-45e8-a79b-603264947ba2","system_id":"levelo_inurba_marseille","lat":43.22935,"lon":5.35388,"is_reserved":false,"is_disabled":false,"rental_uris":{"android":"levelo://app?vid=1ccb8148-d5a9-45e8-a79b-603264947ba2","ios":"levelo://app?vid=1ccb8148-d5a9-45e8-a79b-603264947ba2"},"vehicle_type_id":"4","last_reported":1739819251,"current_range_meters":6800,"station_id":"cpo3532slgdg3j2ikp40","pricing_plan_id":"cebpf4jnsgd1na2vs0mg"},{"bike_id":"3a9a968d-dcc9-4ffb-90af-aadcb8469a1d","system_id":"levelo_inurba_marseille","lat":43.32246,"lon":5.39402,"is_reserved":false,"is_disabled":false,"rental_uris":{"android":"levelo://app?vid=3a9a968d-dcc9-4ffb-90af-aadcb8469a1d","ios":"levelo://app?vid=3a9a968d-dcc9-4ffb-90af-aadcb8469a1d"},"vehicle_type_id":"4","last_reported":1739819251,"current_range_meters":6800,"station_id":"","pricing_plan_id":"cebpf4jnsgd1na2vs0mg"},{"bike_id":"f206266f-bb9f-443a-8521-7cc97a6d54b8","system_id":"levelo_inurba_marseille","lat":43.32724,"lon":5.39261,"is_reserved":false,"is_disabled":false,"rental_uris":{"android":"levelo://app?vid=f206266f-bb9f-443a-8521-7cc97a6d54b8","ios":"levelo://app?vid=f206266f-bb9f-443a-8521-7cc97a6d54b8"},"vehicle_type_id":"4","last_reported":1739819251,"current_range_meters":6800,"station_id":"ce4bhr92rcd13ifvqhrg","pricing_plan_id":"cebpf4jnsgd1na2vs0mg"},{"bike_id":"87391072-fcac-4aa4-a59a-70f85ae50cbe","system_id":"levelo_inurba_marseille","lat":43.24549,"lon":5.3952,"is_reserved":false,"is_disabled":false,"rental_uris":{"android":"levelo://app?vid=87391072-fcac-4aa4-a59a-70f85ae50cbe","ios":"levelo://app?vid=87391072-fcac-4aa4-a59a-70f85ae50cbe"},"vehicle_type_id":"4","last_reported":1739819251,"current_range_meters":6800,"station_id":"ce4bhlp2rcd13ifvqgjg","pricing_plan_id":"cebpf4jnsgd1na2vs0mg"},{"bike_id":"8c75056a-7815-4dc4-bac4-c86fcaddfb3c","system_id":"levelo_inurba_marseille","lat":43.24808,"lon":5.37456,"is_reserved":false,"is_disabled":false,"rental_uris":{"android":"levelo://app?vid=8c75056a-7815-4dc4-bac4-c86fcaddfb3c","ios":"levelo://app?vid=8c75056a-7815-4dc4-bac4-c86fcaddfb3c"},"vehicle_type_id":"4","last_reported":1739819251,"current_range_meters":6800,"station_id":"ce4bhgh2rcd13ifvqfb0","pricing_plan_id":"cebpf4jnsgd1na2vs0mg"},{"bike_id":"33a2f713-59cf-4dee-bd5e-cf5438338de0","system_id":"levelo_inurba_marseille","lat":43.3047,"lon":5.36961,"is_reserved":false,"is_disabled":false,"rental_uris":{"android":"levelo://app?vid=33a2f713-59cf-4dee-bd5e-cf5438338de0","ios":"levelo://app?vid=33a2f713-59cf-4dee-bd5e-cf5438338de0"},"vehicle_type_id":"4","last_reported":1739819251,"current_range_meters":6800,"station_id":"","pricing_plan_id":"cebpf4jnsgd1na2vs0mg"},{"bike_id":"9bb1f2f4-1747-41ae-bdbc-1994ed2b8b52","system_id":"levelo_inurba_marseille","lat":43.30122,"lon":5.39852,"is_reserved":false,"is_disabled":false,"rental_uris":{"android":"levelo://app?vid=9bb1f2f4-1747-41ae-bdbc-1994ed2b8b52","ios":"levelo://app?vid=9bb1f2f4-1747-41ae-bdbc-1994ed2b8b52"},"vehicle_type_id":"4","last_reported":1739819251,"current_range_meters":6800,"station_id":"ce4bh0h2rcd13ifvqd40","pricing_plan_id":"cebpf4jnsgd1na2vs0mg"},{"bike_id":"50628207-43dd-4227-a6e2-3d0f1f4334db","system_id":"levelo_inurba_marseille","lat":43.27534,"lon":5.38428,"is_reserved":false,"is_disabled":false,"rental_uris":{"android":"levelo://app?vid=50628207-43dd-4227-a6e2-3d0f1f4334db","ios":"levelo://app?vid=50628207-43dd-4227-a6e2-3d0f1f4334db"},"vehicle_type_id":"4","last_reported":1739819251,"current_range_meters":7200,"station_id":"ce4bhh92rcd13ifvqfi0","pricing_plan_id":"cebpf4jnsgd1na2vs0mg"},{"bike_id":"312f7ce0-1ff1-4864-92d3-71930580525e","system_id":"levelo_inurba_marseille","lat":43.30094,"lon":5.39092,"is_reserved":false,"is_disabled":false,"rental_uris":{"android":"levelo://app?vid=312f7ce0-1ff1-4864-92d3-71930580525e","ios":"levelo://app?vid=312f7ce0-1ff1-4864-92d3-71930580525e"},"vehicle_type_id":"4","last_reported":1739819251,"current_range_meters":7200,"station_id":"ce4bh192rcd13ifvqdb0","pricing_plan_id":"cebpf4jnsgd1na2vs0mg"},{"bike_id":"68c9ec09-efa3-42b7-9d9b-298456b6ded4","system_id":"levelo_inurba_marseille","lat":43.30473,"lon":5.36952,"is_reserved":false,"is_disabled":false,"rental_uris":{"android":"levelo://app?vid=68c9ec09-efa3-42b7-9d9b-298456b6ded4","ios":"levelo://app?vid=68c9ec09-efa3-42b7-9d9b-298456b6ded4"},"vehicle_type_id":"4","last_reported":1739819251,"current_range_meters":7200,"station_id":"","pricing_plan_id":"cebpf4jnsgd1na2vs0mg"},{"bike_id":"4089f1a0-cd12-42d3-a6c3-01d445970a86","system_id":"levelo_inurba_marseille","lat":43.31263,"lon":5.37411,"is_reserved":false,"is_disabled":false,"rental_uris":{"android":"levelo://app?vid=4089f1a0-cd12-42d3-a6c3-01d445970a86","ios":"levelo://app?vid=4089f1a0-cd12-42d3-a6c3-01d445970a86"},"vehicle_type_id":"4","last_reported":1739819251,"current_range_meters":7200,"station_id":"","pricing_plan_id":"cebpf4jnsgd1na2vs0mg"},{"bike_id":"ef1d2a18-076b-4144-909c-86744c9cbb3e","system_id":"levelo_inurba_marseille","lat":43.3109,"lon":5.38361,"is_reserved":false,"is_disabled":false,"rental_uris":{"android":"levelo://app?vid=ef1d2a18-076b-4144-909c-86744c9cbb3e","ios":"levelo://app?vid=ef1d2a18-076b-4144-909c-86744c9cbb3e"},"vehicle_type_id":"4","last_reported":1739819251,"current_range_meters":7200,"station_id":"ce4bgv92rcd13ifvqcr0","pricing_plan_id":"cebpf4jnsgd1na2vs0mg"},{"bike_id":"2026fe3f-65a8-4038-ba84-b3acc82ea882","system_id":"levelo_inurba_marseille","lat":43.32047,"lon":5.41533,"is_reserved":false,"is_disabled":false,"rental_uris":{"android":"levelo://app?vid=2026fe3f-65a8-4038-ba84-b3acc82ea882","ios":"levelo://app?vid=2026fe3f-65a8-4038-ba84-b3acc82ea882"},"vehicle_type_id":"4","last_reported":1739819251,"current_range_meters":7200,"station_id":"ce4bhq92rcd13ifvqhkg","pricing_plan_id":"cebpf4jnsgd1na2vs0mg"},{"bike_id":"ad2d5873-f583-4875-85e5-56bb0349d3b9","system_id":"levelo_inurba_marseille","lat":43.30239,"lon":5.40048,"is_reserved":false,"is_disabled":false,"rental_uris":{"android":"levelo://app?vid=ad2d5873-f583-4875-85e5-56bb0349d3b9","ios":"levelo://app?vid=ad2d5873-f583-4875-85e5-56bb0349d3b9"},"vehicle_type_id":"4","last_reported":1739819251,"current_range_meters":7200,"station_id":"ce4bgvh2rcd13ifvqcs0","pricing_plan_id":"cebpf4jnsgd1na2vs0mg"},{"bike_id":"473b1b8e-fe10-489d-99ef-bf91a2f193c2","system_id":"levelo_inurba_marseille","lat":43.28346,"lon":5.38104,"is_reserved":false,"is_disabled":false,"rental_uris":{"android":"levelo://app?vid=473b1b8e-fe10-489d-99ef-bf91a2f193c2","ios":"levelo://app?vid=473b1b8e-fe10-489d-99ef-bf91a2f193c2"},"vehicle_type_id":"4","last_reported":1739819251,"current_range_meters":7200,"station_id":"ce4bh412rcd13ifvqdr0","pricing_plan_id":"cebpf4jnsgd1na2vs0mg"},{"bike_id":"f8c7c3bc-d714-4c3a-90d7-fb7b3543bd22","system_id":"levelo_inurba_marseille","lat":43.30102,"lon":5.39074,"is_reserved":false,"is_disabled":false,"rental_uris":{"android":"levelo://app?vid=f8c7c3bc-d714-4c3a-90d7-fb7b3543bd22","ios":"levelo://app?vid=f8c7c3bc-d714-4c3a-90d7-fb7b3543bd22"},"vehicle_type_id":"4","last_reported":1739819251,"current_range_meters":7200,"station_id":"","pricing_plan_id":"cebpf4jnsgd1na2vs0mg"},{"bike_id":"5971354e-a649-46da-aa95-0938610f3ebc","system_id":"levelo_inurba_marseille","lat":43.30096,"lon":5.39072,"is_reserved":false,"is_disabled":false,"rental_uris":{"android":"levelo://app?vid=5971354e-a649-46da-aa95-0938610f3ebc","ios":"levelo://app?vid=5971354e-a649-46da-aa95-0938610f3ebc"},"vehicle_type_id":"4","last_reported":1739819251,"current_range_meters":8000,"station_id":"","pricing_plan_id":"cebpf4jnsgd1na2vs0mg"},{"bike_id":"e2a40e08-4a05-4254-862b-b58cc14c7904","system_id":"levelo_inurba_marseille","lat":43.25075,"lon":5.39517,"is_reserved":false,"is_disabled":false,"rental_uris":{"android":"levelo://app?vid=e2a40e08-4a05-4254-862b-b58cc14c7904","ios":"levelo://app?vid=e2a40e08-4a05-4254-862b-b58cc14c7904"},"vehicle_type_id":"4","last_reported":1739819251,"current_range_meters":8000,"station_id":"ce4bhm12rcd13ifvqgkg","pricing_plan_id":"cebpf4jnsgd1na2vs0mg"},{"bike_id":"07fcfbbd-fc40-4726-bcce-bbc10c3cde69","system_id":"levelo_inurba_marseille","lat":43.28106,"lon":5.37844,"is_reserved":false,"is_disabled":false,"rental_uris":{"android":"levelo://app?vid=07fcfbbd-fc40-4726-bcce-bbc10c3cde69","ios":"levelo://app?vid=07fcfbbd-fc40-4726-bcce-bbc10c3cde69"},"vehicle_type_id":"4","last_reported":1739819251,"current_range_meters":8000,"station_id":"ce4bha12rcd13ifvqee0","pricing_plan_id":"cebpf4jnsgd1na2vs0mg"},{"bike_id":"e3d6353b-0087-4531-ab55-520477030435","system_id":"levelo_inurba_marseille","lat":43.30134,"lon":5.38781,"is_reserved":false,"is_disabled":false,"rental_uris":{"android":"levelo://app?vid=e3d6353b-0087-4531-ab55-520477030435","ios":"levelo://app?vid=e3d6353b-0087-4531-ab55-520477030435"},"vehicle_type_id":"4","last_reported":1739819251,"current_range_meters":8000,"station_id":"","pricing_plan_id":"cebpf4jnsgd1na2vs0mg"},{"bike_id":"8c89a559-f560-4488-86c3-8858949da2cf","system_id":"levelo_inurba_marseille","lat":43.27997,"lon":5.41659,"is_reserved":false,"is_disabled":false,"rental_uris":{"android":"levelo://app?vid=8c89a559-f560-4488-86c3-8858949da2cf","ios":"levelo://app?vid=8c89a559-f560-4488-86c3-8858949da2cf"},"vehicle_type_id":"4","last_reported":1739819251,"current_range_meters":8000,"station_id":"ce4bho12rcd13ifvqh1g","pricing_plan_id":"cebpf4jnsgd1na2vs0mg"},{"bike_id":"951b4d3f-8001-4a07-94d2-7c087d9f5ec2","system_id":"levelo_inurba_marseille","lat":43.26054,"lon":5.3939,"is_reserved":false,"is_disabled":false,"rental_uris":{"android":"levelo://app?vid=951b4d3f-8001-4a07-94d2-7c087d9f5ec2","ios":"levelo://app?vid=951b4d3f-8001-4a07-94d2-7c087d9f5ec2"},"vehicle_type_id":"4","last_reported":1739819251,"current_range_meters":8000,"station_id":"ce4bhh92rcd13ifvqfj0","pricing_plan_id":"cebpf4jnsgd1na2vs0mg"},{"bike_id":"21569f60-eb1e-4fdf-b7d6-f9c711a75662","system_id":"levelo_inurba_marseille","lat":43.295135,"lon":5.385447,"is_reserved":false,"is_disabled":false,"rental_uris":{"android":"levelo://app?vid=21569f60-eb1e-4fdf-b7d6-f9c711a75662","ios":"levelo://app?vid=21569f60-eb1e-4fdf-b7d6-f9c711a75662"},"vehicle_type_id":"4","last_reported":1739819251,"current_range_meters":8000,"station_id":"ce4bgs92rcd13ifvqcc0","pricing_plan_id":"cebpf4jnsgd1na2vs0mg"},{"bike_id":"9f72b035-42cd-4ed2-9def-93c83a040988","system_id":"levelo_inurba_marseille","lat":43.24071,"lon":5.37708,"is_reserved":false,"is_disabled":false,"rental_uris":{"android":"levelo://app?vid=9f72b035-42cd-4ed2-9def-93c83a040988","ios":"levelo://app?vid=9f72b035-42cd-4ed2-9def-93c83a040988"},"vehicle_type_id":"4","last_reported":1739819251,"current_range_meters":8000,"station_id":"ce4bhnp2rcd13ifvqgvg","pricing_plan_id":"cebpf4jnsgd1na2vs0mg"},{"bike_id":"2b278cf2-594f-4230-8154-882e1df047f2","system_id":"levelo_inurba_marseille","lat":43.24082,"lon":5.37762,"is_reserved":false,"is_disabled":false,"rental_uris":{"android":"levelo://app?vid=2b278cf2-594f-4230-8154-882e1df047f2","ios":"levelo://app?vid=2b278cf2-594f-4230-8154-882e1df047f2"},"vehicle_type_id":"4","last_reported":1739819251,"current_range_meters":8000,"station_id":"ce4bhnp2rcd13ifvqgvg","pricing_plan_id":"cebpf4jnsgd1na2vs0mg"},{"bike_id":"8156b84f-565f-427b-8636-7c6f27cceb7a","system_id":"levelo_inurba_marseille","lat":43.2963,"lon":5.377186,"is_reserved":false,"is_disabled":false,"rental_uris":{"android":"levelo://app?vid=8156b84f-565f-427b-8636-7c6f27cceb7a","ios":"levelo://app?vid=8156b84f-565f-427b-8636-7c6f27cceb7a"},"vehicle_type_id":"4","last_reported":1739819251,"current_range_meters":7200,"station_id":"ce4bh492rcd13ifvqdvg","pricing_plan_id":"cebpf4jnsgd1na2vs0mg"},{"bike_id":"77662860-da7a-47cd-93ba-388df6f19402","system_id":"levelo_inurba_marseille","lat":43.31083,"lon":5.38356,"is_reserved":false,"is_disabled":false,"rental_uris":{"android":"levelo://app?vid=77662860-da7a-47cd-93ba-388df6f19402","ios":"levelo://app?vid=77662860-da7a-47cd-93ba-388df6f19402"},"vehicle_type_id":"4","last_reported":1739819251,"current_range_meters":8000,"station_id":"ce4bgv92rcd13ifvqcr0","pricing_plan_id":"cebpf4jnsgd1na2vs0mg"},{"bike_id":"978eaaf2-6b61-4ed0-bca9-4924592d3303","system_id":"levelo_inurba_marseille","lat":43.28703,"lon":5.37388,"is_reserved":false,"is_disabled":false,"rental_uris":{"android":"levelo://app?vid=978eaaf2-6b61-4ed0-bca9-4924592d3303","ios":"levelo://app?vid=978eaaf2-6b61-4ed0-bca9-4924592d3303"},"vehicle_type_id":"4","last_reported":1739819251,"current_range_meters":8000,"station_id":"","pricing_plan_id":"cebpf4jnsgd1na2vs0mg"},{"bike_id":"c58c96d7-71d0-4144-825c-d95726d0a714","system_id":"levelo_inurba_marseille","lat":43.291713,"lon":5.37154,"is_reserved":false,"is_disabled":false,"rental_uris":{"android":"levelo://app?vid=c58c96d7-71d0-4144-825c-d95726d0a714","ios":"levelo://app?vid=c58c96d7-71d0-4144-825c-d95726d0a714"},"vehicle_type_id":"4","last_reported":1739819251,"current_range_meters":8400,"station_id":"ce4bh092rcd13ifvqd20","pricing_plan_id":"cebpf4jnsgd1na2vs0mg"},{"bike_id":"2207e84d-8df5-40d1-83a1-db0ee02d740f","system_id":"levelo_inurba_marseille","lat":43.29263,"lon":5.38437,"is_reserved":false,"is_disabled":false,"rental_uris":{"android":"levelo://app?vid=2207e84d-8df5-40d1-83a1-db0ee02d740f","ios":"levelo://app?vid=2207e84d-8df5-40d1-83a1-db0ee02d740f"},"vehicle_type_id":"4","last_reported":1739819251,"current_range_meters":8000,"station_id":"ce4bh692rcd13ifvqea0","pricing_plan_id":"cebpf4jnsgd1na2vs0mg"},{"bike_id":"7757f117-de55-43b5-ae50-f2ea1d19b082","system_id":"levelo_inurba_marseille","lat":43.2794,"lon":5.41043,"is_reserved":false,"is_disabled":false,"rental_uris":{"android":"levelo://app?vid=7757f117-de55-43b5-ae50-f2ea1d19b082","ios":"levelo://app?vid=7757f117-de55-43b5-ae50-f2ea1d19b082"},"vehicle_type_id":"4","last_reported":1739819251,"current_range_meters":8000,"station_id":"ce4bhnp2rcd13ifvqh0g","pricing_plan_id":"cebpf4jnsgd1na2vs0mg"},{"bike_id":"1028d825-a809-400b-a433-b2f52b266986","system_id":"levelo_inurba_marseille","lat":43.30942,"lon":5.37919,"is_reserved":false,"is_disabled":false,"rental_uris":{"android":"levelo://app?vid=1028d825-a809-400b-a433-b2f52b266986","ios":"levelo://app?vid=1028d825-a809-400b-a433-b2f52b266986"},"vehicle_type_id":"4","last_reported":1739819251,"current_range_meters":8000,"station_id":"","pricing_plan_id":"cebpf4jnsgd1na2vs0mg"},{"bike_id":"64c66828-729a-4b83-a837-08e0fc2d62c3","system_id":"levelo_inurba_marseille","lat":43.31488,"lon":5.37306,"is_reserved":false,"is_disabled":false,"rental_uris":{"android":"levelo://app?vid=64c66828-729a-4b83-a837-08e0fc2d62c3","ios":"levelo://app?vid=64c66828-729a-4b83-a837-08e0fc2d62c3"},"vehicle_type_id":"4","last_reported":1739819251,"current_range_meters":8400,"station_id":"ce4bgt12rcd13ifvqcd0","pricing_plan_id":"cebpf4jnsgd1na2vs0mg"},{"bike_id":"8bdd4438-90c3-4ca2-bc31-85114c08f79e","system_id":"levelo_inurba_marseille","lat":43.28702,"lon":5.37382,"is_reserved":false,"is_disabled":false,"rental_uris":{"android":"levelo://app?vid=8bdd4438-90c3-4ca2-bc31-85114c08f79e","ios":"levelo://app?vid=8bdd4438-90c3-4ca2-bc31-85114c08f79e"},"vehicle_type_id":"4","last_reported":1739819251,"current_range_meters":8400,"station_id":"ce4bh3p2rcd13ifvqdq0","pricing_plan_id":"cebpf4jnsgd1na2vs0mg"},{"bike_id":"36d97c00-4591-459c-bad3-ddaf8137da9e","system_id":"levelo_inurba_marseille","lat":43.28035,"lon":5.36946,"is_reserved":false,"is_disabled":false,"rental_uris":{"android":"levelo://app?vid=36d97c00-4591-459c-bad3-ddaf8137da9e","ios":"levelo://app?vid=36d97c00-4591-459c-bad3-ddaf8137da9e"},"vehicle_type_id":"4","last_reported":1739819251,"current_range_meters":8400,"station_id":"ce4bha12rcd13ifvqef0","pricing_plan_id":"cebpf4jnsgd1na2vs0mg"},{"bike_id":"47b43428-baa8-4f17-b113-3f79a1469e0a","system_id":"levelo_inurba_marseille","lat":43.27949,"lon":5.4104,"is_reserved":false,"is_disabled":false,"rental_uris":{"android":"levelo://app?vid=47b43428-baa8-4f17-b113-3f79a1469e0a","ios":"levelo://app?vid=47b43428-baa8-4f17-b113-3f79a1469e0a"},"vehicle_type_id":"4","last_reported":1739819251,"current_range_meters":8400,"station_id":"ce4bhnp2rcd13ifvqh0g","pricing_plan_id":"cebpf4jnsgd1na2vs0mg"},{"bike_id":"2e5e89c3-0e0e-4cca-b25a-7707cb6d7c5d","system_id":"levelo_inurba_marseille","lat":43.27668,"lon":5.40846,"is_reserved":false,"is_disabled":false,"rental_uris":{"android":"levelo://app?vid=2e5e89c3-0e0e-4cca-b25a-7707cb6d7c5d","ios":"levelo://app?vid=2e5e89c3-0e0e-4cca-b25a-7707cb6d7c5d"},"vehicle_type_id":"4","last_reported":1739819251,"current_range_meters":8400,"station_id":"","pricing_plan_id":"cebpf4jnsgd1na2vs0mg"},{"bike_id":"01bec25a-ce9b-41ff-8b8e-4879fb269a23","system_id":"levelo_inurba_marseille","lat":43.24163,"lon":5.36413,"is_reserved":false,"is_disabled":false,"rental_uris":{"android":"levelo://app?vid=01bec25a-ce9b-41ff-8b8e-4879fb269a23","ios":"levelo://app?vid=01bec25a-ce9b-41ff-8b8e-4879fb269a23"},"vehicle_type_id":"4","last_reported":1739819251,"current_range_meters":8400,"station_id":"","pricing_plan_id":"cebpf4jnsgd1na2vs0mg"},{"bike_id":"9f3436fc-23ca-4472-a0df-f13136b659e4","system_id":"levelo_inurba_marseille","lat":43.27065,"lon":5.42282,"is_reserved":false,"is_disabled":false,"rental_uris":{"android":"levelo://app?vid=9f3436fc-23ca-4472-a0df-f13136b659e4","ios":"levelo://app?vid=9f3436fc-23ca-4472-a0df-f13136b659e4"},"vehicle_type_id":"4","last_reported":1739819251,"current_range_meters":8400,"station_id":"ce4bhk92rcd13ifvqgb0","pricing_plan_id":"cebpf4jnsgd1na2vs0mg"},{"bike_id":"5e1fe16e-7783-40d6-b310-a694fa828a7b","system_id":"levelo_inurba_marseille","lat":43.2996,"lon":5.38498,"is_reserved":false,"is_disabled":false,"rental_uris":{"android":"levelo://app?vid=5e1fe16e-7783-40d6-b310-a694fa828a7b","ios":"levelo://app?vid=5e1fe16e-7783-40d6-b310-a694fa828a7b"},"vehicle_type_id":"4","last_reported":1739819251,"current_range_meters":8400,"station_id":"ce4bgj92rcd13ifvqbd0","pricing_plan_id":"cebpf4jnsgd1na2vs0mg"},{"bike_id":"2af45b9a-8c0d-4f01-a654-0c80764127bf","system_id":"levelo_inurba_marseille","lat":43.28736,"lon":5.36083,"is_reserved":false,"is_disabled":true,"rental_uris":{"android":"levelo://app?vid=2af45b9a-8c0d-4f01-a654-0c80764127bf","ios":"levelo://app?vid=2af45b9a-8c0d-4f01-a654-0c80764127bf"},"vehicle_type_id":"4","last_reported":1739819251,"current_range_meters":8400,"station_id":"cki0cbj6b192h4jlfktg","pricing_plan_id":"cebpf4jnsgd1na2vs0mg"},{"bike_id":"ddc2aa43-b268-469c-82d5-835785b3bb1f","system_id":"levelo_inurba_marseille","lat":43.27964,"lon":5.3874,"is_reserved":false,"is_disabled":false,"rental_uris":{"android":"levelo://app?vid=ddc2aa43-b268-469c-82d5-835785b3bb1f","ios":"levelo://app?vid=ddc2aa43-b268-469c-82d5-835785b3bb1f"},"vehicle_type_id":"4","last_reported":1739819251,"current_range_meters":7200,"station_id":"ce4bhg12rcd13ifvqf80","pricing_plan_id":"cebpf4jnsgd1na2vs0mg"},{"bike_id":"2a377205-7254-4c69-9278-253a9e40a6d9","system_id":"levelo_inurba_marseille","lat":43.30765,"lon":5.37259,"is_reserved":false,"is_disabled":false,"rental_uris":{"android":"levelo://app?vid=2a377205-7254-4c69-9278-253a9e40a6d9","ios":"levelo://app?vid=2a377205-7254-4c69-9278-253a9e40a6d9"},"vehicle_type_id":"4","last_reported":1739819251,"current_range_meters":8400,"station_id":"ce4bguh2rcd13ifvqckg","pricing_plan_id":"cebpf4jnsgd1na2vs0mg"},{"bike_id":"aeb146d7-9a7c-4f17-afb8-eb73e5fe637d","system_id":"levelo_inurba_marseille","lat":43.2481,"lon":5.37454,"is_reserved":false,"is_disabled":false,"rental_uris":{"android":"levelo://app?vid=aeb146d7-9a7c-4f17-afb8-eb73e5fe637d","ios":"levelo://app?vid=aeb146d7-9a7c-4f17-afb8-eb73e5fe637d"},"vehicle_type_id":"4","last_reported":1739819251,"current_range_meters":8400,"station_id":"ce4bhgh2rcd13ifvqfb0","pricing_plan_id":"cebpf4jnsgd1na2vs0mg"},{"bike_id":"fc404722-a79a-40d0-8e0a-e58382575551","system_id":"levelo_inurba_marseille","lat":43.27995,"lon":5.40064,"is_reserved":false,"is_disabled":false,"rental_uris":{"android":"levelo://app?vid=fc404722-a79a-40d0-8e0a-e58382575551","ios":"levelo://app?vid=fc404722-a79a-40d0-8e0a-e58382575551"},"vehicle_type_id":"4","last_reported":1739819251,"current_range_meters":8400,"station_id":"ce4bho92rcd13ifvqh4g","pricing_plan_id":"cebpf4jnsgd1na2vs0mg"},{"bike_id":"7529b7d3-3386-4c69-b82f-12a292d850ae","system_id":"levelo_inurba_marseille","lat":43.27948,"lon":5.41039,"is_reserved":false,"is_disabled":false,"rental_uris":{"android":"levelo://app?vid=7529b7d3-3386-4c69-b82f-12a292d850ae","ios":"levelo://app?vid=7529b7d3-3386-4c69-b82f-12a292d850ae"},"vehicle_type_id":"4","last_reported":1739819251,"current_range_meters":8800,"station_id":"ce4bhnp2rcd13ifvqh0g","pricing_plan_id":"cebpf4jnsgd1na2vs0mg"},{"bike_id":"78dc6c71-c2f2-492d-bf78-affb1d16bfc6","system_id":"levelo_inurba_marseille","lat":43.31236,"lon":5.36876,"is_reserved":false,"is_disabled":false,"rental_uris":{"android":"levelo://app?vid=78dc6c71-c2f2-492d-bf78-affb1d16bfc6","ios":"levelo://app?vid=78dc6c71-c2f2-492d-bf78-affb1d16bfc6"},"vehicle_type_id":"4","last_reported":1739819251,"current_range_meters":8400,"station_id":"ce4bgl92rcd13ifvqbq0","pricing_plan_id":"cebpf4jnsgd1na2vs0mg"},{"bike_id":"1b626717-c21a-464c-a5f4-9bbaf7fbdb7b","system_id":"levelo_inurba_marseille","lat":43.28716,"lon":5.39975,"is_reserved":false,"is_disabled":false,"rental_uris":{"android":"levelo://app?vid=1b626717-c21a-464c-a5f4-9bbaf7fbdb7b","ios":"levelo://app?vid=1b626717-c21a-464c-a5f4-9bbaf7fbdb7b"},"vehicle_type_id":"4","last_reported":1739819251,"current_range_meters":8400,"station_id":"ce4bho92rcd13ifvqh3g","pricing_plan_id":"cebpf4jnsgd1na2vs0mg"},{"bike_id":"e7c6ff93-3017-44e4-9070-611fabfc5bfc","system_id":"levelo_inurba_marseille","lat":43.28417,"lon":5.34988,"is_reserved":false,"is_disabled":false,"rental_uris":{"android":"levelo://app?vid=e7c6ff93-3017-44e4-9070-611fabfc5bfc","ios":"levelo://app?vid=e7c6ff93-3017-44e4-9070-611fabfc5bfc"},"vehicle_type_id":"4","last_reported":1739819251,"current_range_meters":6400,"station_id":"ce4bhbh2rcd13ifvqepg","pricing_plan_id":"cebpf4jnsgd1na2vs0mg"},{"bike_id":"95834f00-7a62-4700-bdeb-5c88ea97b4bc","system_id":"levelo_inurba_marseille","lat":43.29895,"lon":5.38893,"is_reserved":false,"is_disabled":false,"rental_uris":{"android":"levelo://app?vid=95834f00-7a62-4700-bdeb-5c88ea97b4bc","ios":"levelo://app?vid=95834f00-7a62-4700-bdeb-5c88ea97b4bc"},"vehicle_type_id":"4","last_reported":1739819251,"current_range_meters":8800,"station_id":"ce4bh392rcd13ifvqdl0","pricing_plan_id":"cebpf4jnsgd1na2vs0mg"},{"bike_id":"d7f62805-1769-4460-8a85-3bba759ba7bf","system_id":"levelo_inurba_marseille","lat":43.29869,"lon":5.39729,"is_reserved":false,"is_disabled":false,"rental_uris":{"android":"levelo://app?vid=d7f62805-1769-4460-8a85-3bba759ba7bf","ios":"levelo://app?vid=d7f62805-1769-4460-8a85-3bba759ba7bf"},"vehicle_type_id":"4","last_reported":1739819251,"current_range_meters":9200,"station_id":"ce4bh0h2rcd13ifvqd50","pricing_plan_id":"cebpf4jnsgd1na2vs0mg"},{"bike_id":"8a49e737-2dba-437e-b0e4-c61d64b4fa11","system_id":"levelo_inurba_marseille","lat":43.24545,"lon":5.39537,"is_reserved":false,"is_disabled":false,"rental_uris":{"android":"levelo://app?vid=8a49e737-2dba-437e-b0e4-c61d64b4fa11","ios":"levelo://app?vid=8a49e737-2dba-437e-b0e4-c61d64b4fa11"},"vehicle_type_id":"4","last_reported":1739819251,"current_range_meters":9200,"station_id":"ce4bhlp2rcd13ifvqgjg","pricing_plan_id":"cebpf4jnsgd1na2vs0mg"},{"bike_id":"6d22c68b-e21a-45ed-99d7-ac771affb15b","system_id":"levelo_inurba_marseille","lat":43.30583,"lon":5.39364,"is_reserved":false,"is_disabled":false,"rental_uris":{"android":"levelo://app?vid=6d22c68b-e21a-45ed-99d7-ac771affb15b","ios":"levelo://app?vid=6d22c68b-e21a-45ed-99d7-ac771affb15b"},"vehicle_type_id":"4","last_reported":1739819251,"current_range_meters":9200,"station_id":"ce4bh0p2rcd13ifvqd80","pricing_plan_id":"cebpf4jnsgd1na2vs0mg"},{"bike_id":"0e100a33-eafb-4d74-bfcb-df30a048ca1f","system_id":"levelo_inurba_marseille","lat":43.25188,"lon":5.40476,"is_reserved":false,"is_disabled":false,"rental_uris":{"android":"levelo://app?vid=0e100a33-eafb-4d74-bfcb-df30a048ca1f","ios":"levelo://app?vid=0e100a33-eafb-4d74-bfcb-df30a048ca1f"},"vehicle_type_id":"4","last_reported":1739819251,"current_range_meters":9200,"station_id":"ce4bhlh2rcd13ifvqgig","pricing_plan_id":"cebpf4jnsgd1na2vs0mg"},{"bike_id":"542d681f-a9f9-4b66-8519-5295b3261dc9","system_id":"levelo_inurba_marseille","lat":43.30095,"lon":5.39068,"is_reserved":false,"is_disabled":false,"rental_uris":{"android":"levelo://app?vid=542d681f-a9f9-4b66-8519-5295b3261dc9","ios":"levelo://app?vid=542d681f-a9f9-4b66-8519-5295b3261dc9"},"vehicle_type_id":"4","last_reported":1739819251,"current_range_meters":9200,"station_id":"","pricing_plan_id":"cebpf4jnsgd1na2vs0mg"},{"bike_id":"b71512e6-2811-467b-94d7-8a37bd4611da","system_id":"levelo_inurba_marseille","lat":43.26501,"lon":5.39536,"is_reserved":false,"is_disabled":false,"rental_uris":{"android":"levelo://app?vid=b71512e6-2811-467b-94d7-8a37bd4611da","ios":"levelo://app?vid=b71512e6-2811-467b-94d7-8a37bd4611da"},"vehicle_type_id":"4","last_reported":1739819251,"current_range_meters":9200,"station_id":"ce4bhi12rcd13ifvqfq0","pricing_plan_id":"cebpf4jnsgd1na2vs0mg"},{"bike_id":"8d365853-1905-4307-bde4-c65df14d248d","system_id":"levelo_inurba_marseille","lat":43.28441,"lon":5.39199,"is_reserved":false,"is_disabled":false,"rental_uris":{"android":"levelo://app?vid=8d365853-1905-4307-bde4-c65df14d248d","ios":"levelo://app?vid=8d365853-1905-4307-bde4-c65df14d248d"},"vehicle_type_id":"4","last_reported":1739819251,"current_range_meters":9200,"station_id":"ce4bhoh2rcd13ifvqh5g","pricing_plan_id":"cebpf4jnsgd1na2vs0mg"},{"bike_id":"367f89db-b83d-4d2d-90e6-32ab65c50d2b","system_id":"levelo_inurba_marseille","lat":43.2867,"lon":5.38669,"is_reserved":false,"is_disabled":false,"rental_uris":{"android":"levelo://app?vid=367f89db-b83d-4d2d-90e6-32ab65c50d2b","ios":"levelo://app?vid=367f89db-b83d-4d2d-90e6-32ab65c50d2b"},"vehicle_type_id":"4","last_reported":1739819251,"current_range_meters":12800,"station_id":"ce4bh492rcd13ifvqdug","pricing_plan_id":"cebpf4jnsgd1na2vs0mg"},{"bike_id":"c72dd471-889d-41d7-939b-cdf433bd5acf","system_id":"levelo_inurba_marseille","lat":43.26213,"lon":5.37436,"is_reserved":false,"is_disabled":false,"rental_uris":{"android":"levelo://app?vid=c72dd471-889d-41d7-939b-cdf433bd5acf","ios":"levelo://app?vid=c72dd471-889d-41d7-939b-cdf433bd5acf"},"vehicle_type_id":"4","last_reported":1739819251,"current_range_meters":9600,"station_id":"ce4bhgp2rcd13ifvqfc0","pricing_plan_id":"cebpf4jnsgd1na2vs0mg"},{"bike_id":"ec4e5c40-bdbd-4e4d-917c-4f61899f3b5b","system_id":"levelo_inurba_marseille","lat":43.29259,"lon":5.38434,"is_reserved":false,"is_disabled":false,"rental_uris":{"android":"levelo://app?vid=ec4e5c40-bdbd-4e4d-917c-4f61899f3b5b","ios":"levelo://app?vid=ec4e5c40-bdbd-4e4d-917c-4f61899f3b5b"},"vehicle_type_id":"4","last_reported":1739819251,"current_range_meters":8800,"station_id":"ce4bh692rcd13ifvqea0","pricing_plan_id":"cebpf4jnsgd1na2vs0mg"},{"bike_id":"cf88743b-ec29-46d2-8b88-961b886f8b2a","system_id":"levelo_inurba_marseille","lat":43.26562,"lon":5.39008,"is_reserved":false,"is_disabled":true,"rental_uris":{"android":"levelo://app?vid=cf88743b-ec29-46d2-8b88-961b886f8b2a","ios":"levelo://app?vid=cf88743b-ec29-46d2-8b88-961b886f8b2a"},"vehicle_type_id":"4","last_reported":1739819251,"current_range_meters":9600,"station_id":"ce4bhe12rcd13ifvqf30","pricing_plan_id":"cebpf4jnsgd1na2vs0mg"},{"bike_id":"8dbe617a-73bb-43b1-955a-f0b57c2f6fa2","system_id":"levelo_inurba_marseille","lat":43.27376,"lon":5.36229,"is_reserved":false,"is_disabled":false,"rental_uris":{"android":"levelo://app?vid=8dbe617a-73bb-43b1-955a-f0b57c2f6fa2","ios":"levelo://app?vid=8dbe617a-73bb-43b1-955a-f0b57c2f6fa2"},"vehicle_type_id":"4","last_reported":1739819251,"current_range_meters":9600,"station_id":"ce4bhbh2rcd13ifvqeo0","pricing_plan_id":"cebpf4jnsgd1na2vs0mg"},{"bike_id":"3dce59d2-d5d0-4bb9-8e88-7ae518ce9693","system_id":"levelo_inurba_marseille","lat":43.28979,"lon":5.37835,"is_reserved":false,"is_disabled":false,"rental_uris":{"android":"levelo://app?vid=3dce59d2-d5d0-4bb9-8e88-7ae518ce9693","ios":"levelo://app?vid=3dce59d2-d5d0-4bb9-8e88-7ae518ce9693"},"vehicle_type_id":"4","last_reported":1739819251,"current_range_meters":9600,"station_id":"ce4bh9p2rcd13ifvqed0","pricing_plan_id":"cebpf4jnsgd1na2vs0mg"},{"bike_id":"5ef96a8a-eaf7-4104-83be-2425806fda9b","system_id":"levelo_inurba_marseille","lat":43.28615,"lon":5.35106,"is_reserved":false,"is_disabled":false,"rental_uris":{"android":"levelo://app?vid=5ef96a8a-eaf7-4104-83be-2425806fda9b","ios":"levelo://app?vid=5ef96a8a-eaf7-4104-83be-2425806fda9b"},"vehicle_type_id":"4","last_reported":1739819251,"current_range_meters":9600,"station_id":"","pricing_plan_id":"cebpf4jnsgd1na2vs0mg"},{"bike_id":"d7f5a6fe-ccef-4fa8-9660-769eb9e2899e","system_id":"levelo_inurba_marseille","lat":43.23961,"lon":5.36639,"is_reserved":false,"is_disabled":false,"rental_uris":{"android":"levelo://app?vid=d7f5a6fe-ccef-4fa8-9660-769eb9e2899e","ios":"levelo://app?vid=d7f5a6fe-ccef-4fa8-9660-769eb9e2899e"},"vehicle_type_id":"4","last_reported":1739819251,"current_range_meters":9600,"station_id":"ce4bhi12rcd13ifvqfp0","pricing_plan_id":"cebpf4jnsgd1na2vs0mg"},{"bike_id":"98dafedc-f25b-409d-b3e2-803b47ffb900","system_id":"levelo_inurba_marseille","lat":43.24487,"lon":5.37256,"is_reserved":false,"is_disabled":false,"rental_uris":{"android":"levelo://app?vid=98dafedc-f25b-409d-b3e2-803b47ffb900","ios":"levelo://app?vid=98dafedc-f25b-409d-b3e2-803b47ffb900"},"vehicle_type_id":"4","last_reported":1739819251,"current_range_meters":9600,"station_id":"","pricing_plan_id":"cebpf4jnsgd1na2vs0mg"},{"bike_id":"5a526824-0a51-426c-bf69-def735343d26","system_id":"levelo_inurba_marseille","lat":43.24796,"lon":5.37455,"is_reserved":false,"is_disabled":false,"rental_uris":{"android":"levelo://app?vid=5a526824-0a51-426c-bf69-def735343d26","ios":"levelo://app?vid=5a526824-0a51-426c-bf69-def735343d26"},"vehicle_type_id":"4","last_reported":1739819251,"current_range_meters":10000,"station_id":"ce4bhgh2rcd13ifvqfb0","pricing_plan_id":"cebpf4jnsgd1na2vs0mg"},{"bike_id":"d86dfb12-e53b-4663-b0b1-0753b604c6ce","system_id":"levelo_inurba_marseille","lat":43.29278,"lon":5.40128,"is_reserved":false,"is_disabled":true,"rental_uris":{"android":"levelo://app?vid=d86dfb12-e53b-4663-b0b1-0753b604c6ce","ios":"levelo://app?vid=d86dfb12-e53b-4663-b0b1-0753b604c6ce"},"vehicle_type_id":"4","last_reported":1739819251,"current_range_meters":10000,"station_id":"ce4bh312rcd13ifvqdk0","pricing_plan_id":"cebpf4jnsgd1na2vs0mg"},{"bike_id":"a0dfaaa5-2564-40a0-a720-c6022c8dbdf6","system_id":"levelo_inurba_marseille","lat":43.25503,"lon":5.37649,"is_reserved":false,"is_disabled":false,"rental_uris":{"android":"levelo://app?vid=a0dfaaa5-2564-40a0-a720-c6022c8dbdf6","ios":"levelo://app?vid=a0dfaaa5-2564-40a0-a720-c6022c8dbdf6"},"vehicle_type_id":"4","last_reported":1739819251,"current_range_meters":10000,"station_id":"ce4bhh12rcd13ifvqff0","pricing_plan_id":"cebpf4jnsgd1na2vs0mg"},{"bike_id":"260e4142-a7d8-4d8f-ac25-b52e5f7762e9","system_id":"levelo_inurba_marseille","lat":43.257125,"lon":5.411168,"is_reserved":false,"is_disabled":false,"rental_uris":{"android":"levelo://app?vid=260e4142-a7d8-4d8f-ac25-b52e5f7762e9","ios":"levelo://app?vid=260e4142-a7d8-4d8f-ac25-b52e5f7762e9"},"vehicle_type_id":"4","last_reported":1739819251,"current_range_meters":10000,"station_id":"ce4bhkp2rcd13ifvqgd0","pricing_plan_id":"cebpf4jnsgd1na2vs0mg"},{"bike_id":"b47411c6-8c7d-477c-8857-3de25b957c84","system_id":"levelo_inurba_marseille","lat":43.25086,"lon":5.39519,"is_reserved":false,"is_disabled":false,"rental_uris":{"android":"levelo://app?vid=b47411c6-8c7d-477c-8857-3de25b957c84","ios":"levelo://app?vid=b47411c6-8c7d-477c-8857-3de25b957c84"},"vehicle_type_id":"4","last_reported":1739819251,"current_range_meters":10000,"station_id":"ce4bhm12rcd13ifvqgkg","pricing_plan_id":"cebpf4jnsgd1na2vs0mg"},{"bike_id":"6e87cc88-1d62-485f-a543-6d52b19a5119","system_id":"levelo_inurba_marseille","lat":43.30638,"lon":5.40087,"is_reserved":false,"is_disabled":false,"rental_uris":{"android":"levelo://app?vid=6e87cc88-1d62-485f-a543-6d52b19a5119","ios":"levelo://app?vid=6e87cc88-1d62-485f-a543-6d52b19a5119"},"vehicle_type_id":"4","last_reported":1739819251,"current_range_meters":10000,"station_id":"ce4bh112rcd13ifvqda0","pricing_plan_id":"cebpf4jnsgd1na2vs0mg"},{"bike_id":"bc4f591c-5520-4012-8c42-ce2e7ef9c7b3","system_id":"levelo_inurba_marseille","lat":43.30108,"lon":5.39074,"is_reserved":false,"is_disabled":false,"rental_uris":{"android":"levelo://app?vid=bc4f591c-5520-4012-8c42-ce2e7ef9c7b3","ios":"levelo://app?vid=bc4f591c-5520-4012-8c42-ce2e7ef9c7b3"},"vehicle_type_id":"4","last_reported":1739819251,"current_range_meters":10800,"station_id":"ce4bh192rcd13ifvqdb0","pricing_plan_id":"cebpf4jnsgd1na2vs0mg"},{"bike_id":"9945348e-4dc9-48da-9d8f-f496721a8f8f","system_id":"levelo_inurba_marseille","lat":43.33041,"lon":5.39055,"is_reserved":false,"is_disabled":false,"rental_uris":{"android":"levelo://app?vid=9945348e-4dc9-48da-9d8f-f496721a8f8f","ios":"levelo://app?vid=9945348e-4dc9-48da-9d8f-f496721a8f8f"},"vehicle_type_id":"4","last_reported":1739819251,"current_range_meters":10800,"station_id":"ce4bhr92rcd13ifvqhrg","pricing_plan_id":"cebpf4jnsgd1na2vs0mg"},{"bike_id":"b2eb9521-66ab-42ef-b99e-25163d1a8c42","system_id":"levelo_inurba_marseille","lat":43.31894,"lon":5.40718,"is_reserved":false,"is_disabled":false,"rental_uris":{"android":"levelo://app?vid=b2eb9521-66ab-42ef-b99e-25163d1a8c42","ios":"levelo://app?vid=b2eb9521-66ab-42ef-b99e-25163d1a8c42"},"vehicle_type_id":"4","last_reported":1739819251,"current_range_meters":10800,"station_id":"","pricing_plan_id":"cebpf4jnsgd1na2vs0mg"},{"bike_id":"809cf213-6737-468b-b233-c26bf016ca47","system_id":"levelo_inurba_marseille","lat":43.28148,"lon":5.4264,"is_reserved":false,"is_disabled":false,"rental_uris":{"android":"levelo://app?vid=809cf213-6737-468b-b233-c26bf016ca47","ios":"levelo://app?vid=809cf213-6737-468b-b233-c26bf016ca47"},"vehicle_type_id":"4","last_reported":1739819251,"current_range_meters":10800,"station_id":"ce4bhnh2rcd13ifvqgug","pricing_plan_id":"cebpf4jnsgd1na2vs0mg"},{"bike_id":"2aef7b3e-6346-4c25-8736-5f49d9749908","system_id":"levelo_inurba_marseille","lat":43.32364,"lon":5.389,"is_reserved":false,"is_disabled":false,"rental_uris":{"android":"levelo://app?vid=2aef7b3e-6346-4c25-8736-5f49d9749908","ios":"levelo://app?vid=2aef7b3e-6346-4c25-8736-5f49d9749908"},"vehicle_type_id":"4","last_reported":1739819251,"current_range_meters":10800,"station_id":"","pricing_plan_id":"cebpf4jnsgd1na2vs0mg"},{"bike_id":"63213ce8-ab3b-490e-8b8e-c1a55a68b2ca","system_id":"levelo_inurba_marseille","lat":43.2951,"lon":5.38198,"is_reserved":false,"is_disabled":true,"rental_uris":{"android":"levelo://app?vid=63213ce8-ab3b-490e-8b8e-c1a55a68b2ca","ios":"levelo://app?vid=63213ce8-ab3b-490e-8b8e-c1a55a68b2ca"},"vehicle_type_id":"4","last_reported":1739819251,"current_range_meters":10800,"station_id":"","pricing_plan_id":"cebpf4jnsgd1na2vs0mg"},{"bike_id":"70a568c2-47f9-4e50-859f-3f0b26073c63","system_id":"levelo_inurba_marseille","lat":43.29286,"lon":5.37438,"is_reserved":false,"is_disabled":false,"rental_uris":{"android":"levelo://app?vid=70a568c2-47f9-4e50-859f-3f0b26073c63","ios":"levelo://app?vid=70a568c2-47f9-4e50-859f-3f0b26073c63"},"vehicle_type_id":"4","last_reported":1739819251,"current_range_meters":10800,"station_id":"ce4bgi12rcd13ifvqb70","pricing_plan_id":"cebpf4jnsgd1na2vs0mg"},{"bike_id":"30f2bb12-53fd-414b-896b-6e4c00ab4f28","system_id":"levelo_inurba_marseille","lat":43.29973,"lon":5.37175,"is_reserved":false,"is_disabled":false,"rental_uris":{"android":"levelo://app?vid=30f2bb12-53fd-414b-896b-6e4c00ab4f28","ios":"levelo://app?vid=30f2bb12-53fd-414b-896b-6e4c00ab4f28"},"vehicle_type_id":"4","last_reported":1739819251,"current_range_meters":10800,"station_id":"ce4bgr92rcd13ifvqc7g","pricing_plan_id":"cebpf4jnsgd1na2vs0mg"},{"bike_id":"6e5ef146-6525-451a-b4db-c998d07dcd75","system_id":"levelo_inurba_marseille","lat":43.29857,"lon":5.36271,"is_reserved":false,"is_disabled":false,"rental_uris":{"android":"levelo://app?vid=6e5ef146-6525-451a-b4db-c998d07dcd75","ios":"levelo://app?vid=6e5ef146-6525-451a-b4db-c998d07dcd75"},"vehicle_type_id":"4","last_reported":1739819251,"current_range_meters":11200,"station_id":"","pricing_plan_id":"cebpf4jnsgd1na2vs0mg"},{"bike_id":"811901b7-6a39-4b98-9209-f363e05c2482","system_id":"levelo_inurba_marseille","lat":43.28152,"lon":5.42636,"is_reserved":false,"is_disabled":false,"rental_uris":{"android":"levelo://app?vid=811901b7-6a39-4b98-9209-f363e05c2482","ios":"levelo://app?vid=811901b7-6a39-4b98-9209-f363e05c2482"},"vehicle_type_id":"4","last_reported":1739819251,"current_range_meters":11200,"station_id":"ce4bhnh2rcd13ifvqgug","pricing_plan_id":"cebpf4jnsgd1na2vs0mg"},{"bike_id":"d34fb92a-af04-4ce4-bc7f-267fe4fe0f97","system_id":"levelo_inurba_marseille","lat":43.28417,"lon":5.34979,"is_reserved":false,"is_disabled":false,"rental_uris":{"android":"levelo://app?vid=d34fb92a-af04-4ce4-bc7f-267fe4fe0f97","ios":"levelo://app?vid=d34fb92a-af04-4ce4-bc7f-267fe4fe0f97"},"vehicle_type_id":"4","last_reported":1739819251,"current_range_meters":11200,"station_id":"ce4bhbh2rcd13ifvqepg","pricing_plan_id":"cebpf4jnsgd1na2vs0mg"},{"bike_id":"dcf310c5-15ca-498b-bf9c-cd6c77922408","system_id":"levelo_inurba_marseille","lat":43.2396,"lon":5.36624,"is_reserved":false,"is_disabled":false,"rental_uris":{"android":"levelo://app?vid=dcf310c5-15ca-498b-bf9c-cd6c77922408","ios":"levelo://app?vid=dcf310c5-15ca-498b-bf9c-cd6c77922408"},"vehicle_type_id":"4","last_reported":1739819251,"current_range_meters":11200,"station_id":"ce4bhi12rcd13ifvqfp0","pricing_plan_id":"cebpf4jnsgd1na2vs0mg"},{"bike_id":"6528e792-6c2b-41ab-b102-37d30001a0e7","system_id":"levelo_inurba_marseille","lat":43.27252,"lon":5.40082,"is_reserved":false,"is_disabled":false,"rental_uris":{"android":"levelo://app?vid=6528e792-6c2b-41ab-b102-37d30001a0e7","ios":"levelo://app?vid=6528e792-6c2b-41ab-b102-37d30001a0e7"},"vehicle_type_id":"4","last_reported":1739819251,"current_range_meters":12000,"station_id":"","pricing_plan_id":"cebpf4jnsgd1na2vs0mg"},{"bike_id":"b2adfa86-5626-4c80-b6a4-718caf1b0c58","system_id":"levelo_inurba_marseille","lat":43.28618,"lon":5.35101,"is_reserved":false,"is_disabled":false,"rental_uris":{"android":"levelo://app?vid=b2adfa86-5626-4c80-b6a4-718caf1b0c58","ios":"levelo://app?vid=b2adfa86-5626-4c80-b6a4-718caf1b0c58"},"vehicle_type_id":"4","last_reported":1739819251,"current_range_meters":12000,"station_id":"","pricing_plan_id":"cebpf4jnsgd1na2vs0mg"},{"bike_id":"983e2b89-c8bc-4dfc-9422-c71705605267","system_id":"levelo_inurba_marseille","lat":43.287,"lon":5.37385,"is_reserved":false,"is_disabled":false,"rental_uris":{"android":"levelo://app?vid=983e2b89-c8bc-4dfc-9422-c71705605267","ios":"levelo://app?vid=983e2b89-c8bc-4dfc-9422-c71705605267"},"vehicle_type_id":"4","last_reported":1739819251,"current_range_meters":12000,"station_id":"ce4bh3p2rcd13ifvqdq0","pricing_plan_id":"cebpf4jnsgd1na2vs0mg"},{"bike_id":"3cba3a38-769a-4c52-9d43-10f803b227a8","system_id":"levelo_inurba_marseille","lat":43.27998,"lon":5.41662,"is_reserved":false,"is_disabled":false,"rental_uris":{"android":"levelo://app?vid=3cba3a38-769a-4c52-9d43-10f803b227a8","ios":"levelo://app?vid=3cba3a38-769a-4c52-9d43-10f803b227a8"},"vehicle_type_id":"4","last_reported":1739819251,"current_range_meters":11600,"station_id":"ce4bho12rcd13ifvqh1g","pricing_plan_id":"cebpf4jnsgd1na2vs0mg"},{"bike_id":"e74fef04-4797-4a8d-83a6-0b69a0bb01fb","system_id":"levelo_inurba_marseille","lat":43.2795,"lon":5.41037,"is_reserved":false,"is_disabled":false,"rental_uris":{"android":"levelo://app?vid=e74fef04-4797-4a8d-83a6-0b69a0bb01fb","ios":"levelo://app?vid=e74fef04-4797-4a8d-83a6-0b69a0bb01fb"},"vehicle_type_id":"4","last_reported":1739819251,"current_range_meters":12000,"station_id":"ce4bhnp2rcd13ifvqh0g","pricing_plan_id":"cebpf4jnsgd1na2vs0mg"},{"bike_id":"c5481d8c-801f-4868-b9a0-d493af370dcc","system_id":"levelo_inurba_marseille","lat":43.29192,"lon":5.39319,"is_reserved":false,"is_disabled":false,"rental_uris":{"android":"levelo://app?vid=c5481d8c-801f-4868-b9a0-d493af370dcc","ios":"levelo://app?vid=c5481d8c-801f-4868-b9a0-d493af370dcc"},"vehicle_type_id":"4","last_reported":1739819251,"current_range_meters":11600,"station_id":"ce4bh192rcd13ifvqdd0","pricing_plan_id":"cebpf4jnsgd1na2vs0mg"},{"bike_id":"ff8ead88-2b4e-4dc7-9c75-13ec9e7fbdf8","system_id":"levelo_inurba_marseille","lat":43.30135,"lon":5.38784,"is_reserved":false,"is_disabled":false,"rental_uris":{"android":"levelo://app?vid=ff8ead88-2b4e-4dc7-9c75-13ec9e7fbdf8","ios":"levelo://app?vid=ff8ead88-2b4e-4dc7-9c75-13ec9e7fbdf8"},"vehicle_type_id":"4","last_reported":1739819251,"current_range_meters":12000,"station_id":"ce4bghh2rcd13ifvqb60","pricing_plan_id":"cebpf4jnsgd1na2vs0mg"},{"bike_id":"0a225e25-8f12-4d82-abfc-03cfb3f80f43","system_id":"levelo_inurba_marseille","lat":43.29426,"lon":5.38614,"is_reserved":false,"is_disabled":false,"rental_uris":{"android":"levelo://app?vid=0a225e25-8f12-4d82-abfc-03cfb3f80f43","ios":"levelo://app?vid=0a225e25-8f12-4d82-abfc-03cfb3f80f43"},"vehicle_type_id":"4","last_reported":1739819251,"current_range_meters":12400,"station_id":"ce4bh2h2rcd13ifvqdh0","pricing_plan_id":"cebpf4jnsgd1na2vs0mg"},{"bike_id":"4e2b468f-8f4a-4d73-8517-62fa28d3fb4c","system_id":"levelo_inurba_marseille","lat":43.24804,"lon":5.37457,"is_reserved":false,"is_disabled":false,"rental_uris":{"android":"levelo://app?vid=4e2b468f-8f4a-4d73-8517-62fa28d3fb4c","ios":"levelo://app?vid=4e2b468f-8f4a-4d73-8517-62fa28d3fb4c"},"vehicle_type_id":"4","last_reported":1739819251,"current_range_meters":12400,"station_id":"ce4bhgh2rcd13ifvqfb0","pricing_plan_id":"cebpf4jnsgd1na2vs0mg"},{"bike_id":"d0991bf7-9c1b-4f88-947e-cca686a15eb6","system_id":"levelo_inurba_marseille","lat":43.2466,"lon":5.38169,"is_reserved":false,"is_disabled":false,"rental_uris":{"android":"levelo://app?vid=d0991bf7-9c1b-4f88-947e-cca686a15eb6","ios":"levelo://app?vid=d0991bf7-9c1b-4f88-947e-cca686a15eb6"},"vehicle_type_id":"4","last_reported":1739819251,"current_range_meters":12400,"station_id":"ce4bhih2rcd13ifvqfr0","pricing_plan_id":"cebpf4jnsgd1na2vs0mg"},{"bike_id":"cb8372d6-bad2-4555-89ad-5b495afb0b59","system_id":"levelo_inurba_marseille","lat":43.24817,"lon":5.37468,"is_reserved":false,"is_disabled":false,"rental_uris":{"android":"levelo://app?vid=cb8372d6-bad2-4555-89ad-5b495afb0b59","ios":"levelo://app?vid=cb8372d6-bad2-4555-89ad-5b495afb0b59"},"vehicle_type_id":"4","last_reported":1739819251,"current_range_meters":12400,"station_id":"ce4bhgh2rcd13ifvqfb0","pricing_plan_id":"cebpf4jnsgd1na2vs0mg"},{"bike_id":"51412dc6-c40f-4da4-a3a9-768c7d440222","system_id":"levelo_inurba_marseille","lat":43.28367,"lon":5.38633,"is_reserved":false,"is_disabled":false,"rental_uris":{"android":"levelo://app?vid=51412dc6-c40f-4da4-a3a9-768c7d440222","ios":"levelo://app?vid=51412dc6-c40f-4da4-a3a9-768c7d440222"},"vehicle_type_id":"4","last_reported":1739819251,"current_range_meters":12400,"station_id":"ce4bh492rcd13ifvqdvg","pricing_plan_id":"cebpf4jnsgd1na2vs0mg"},{"bike_id":"9794d763-e929-4197-82ba-1b6d84cc7b2e","system_id":"levelo_inurba_marseille","lat":43.31282,"lon":5.40162,"is_reserved":false,"is_disabled":false,"rental_uris":{"android":"levelo://app?vid=9794d763-e929-4197-82ba-1b6d84cc7b2e","ios":"levelo://app?vid=9794d763-e929-4197-82ba-1b6d84cc7b2e"},"vehicle_type_id":"4","last_reported":1739819251,"current_range_meters":12400,"station_id":"ce4bh092rcd13ifvqd30","pricing_plan_id":"cebpf4jnsgd1na2vs0mg"},{"bike_id":"268d99d1-4268-4d17-9905-2657e582cb77","system_id":"levelo_inurba_marseille","lat":43.29974,"lon":5.37164,"is_reserved":false,"is_disabled":false,"rental_uris":{"android":"levelo://app?vid=268d99d1-4268-4d17-9905-2657e582cb77","ios":"levelo://app?vid=268d99d1-4268-4d17-9905-2657e582cb77"},"vehicle_type_id":"4","last_reported":1739819251,"current_range_meters":12000,"station_id":"ce4bgr92rcd13ifvqc7g","pricing_plan_id":"cebpf4jnsgd1na2vs0mg"},{"bike_id":"020f9db3-6048-4a83-8c59-4acc533112c8","system_id":"levelo_inurba_marseille","lat":43.28159,"lon":5.42657,"is_reserved":false,"is_disabled":false,"rental_uris":{"android":"levelo://app?vid=020f9db3-6048-4a83-8c59-4acc533112c8","ios":"levelo://app?vid=020f9db3-6048-4a83-8c59-4acc533112c8"},"vehicle_type_id":"4","last_reported":1739819251,"current_range_meters":12400,"station_id":"ce4bhnh2rcd13ifvqgug","pricing_plan_id":"cebpf4jnsgd1na2vs0mg"},{"bike_id":"65c5b30d-825e-4d3e-9530-6ab4e6e4507b","system_id":"levelo_inurba_marseille","lat":43.30421,"lon":5.41286,"is_reserved":false,"is_disabled":false,"rental_uris":{"android":"levelo://app?vid=65c5b30d-825e-4d3e-9530-6ab4e6e4507b","ios":"levelo://app?vid=65c5b30d-825e-4d3e-9530-6ab4e6e4507b"},"vehicle_type_id":"4","last_reported":1739819251,"current_range_meters":12400,"station_id":"ce4bhop2rcd13ifvqh8g","pricing_plan_id":"cebpf4jnsgd1na2vs0mg"},{"bike_id":"457b32e7-b84c-4f79-852f-a6901b8a795f","system_id":"levelo_inurba_marseille","lat":43.27496,"lon":5.42454,"is_reserved":false,"is_disabled":false,"rental_uris":{"android":"levelo://app?vid=457b32e7-b84c-4f79-852f-a6901b8a795f","ios":"levelo://app?vid=457b32e7-b84c-4f79-852f-a6901b8a795f"},"vehicle_type_id":"4","last_reported":1739819251,"current_range_meters":12800,"station_id":"ce4bhn92rcd13ifvqgrg","pricing_plan_id":"cebpf4jnsgd1na2vs0mg"},{"bike_id":"239dd848-79e5-42e0-b0f5-128c086b782b","system_id":"levelo_inurba_marseille","lat":43.3118,"lon":5.38705,"is_reserved":false,"is_disabled":false,"rental_uris":{"android":"levelo://app?vid=239dd848-79e5-42e0-b0f5-128c086b782b","ios":"levelo://app?vid=239dd848-79e5-42e0-b0f5-128c086b782b"},"vehicle_type_id":"4","last_reported":1739819251,"current_range_meters":12800,"station_id":"","pricing_plan_id":"cebpf4jnsgd1na2vs0mg"},{"bike_id":"ccbc449c-1efc-468d-bb73-1f977b0c2f8e","system_id":"levelo_inurba_marseille","lat":43.27933,"lon":5.41036,"is_reserved":false,"is_disabled":false,"rental_uris":{"android":"levelo://app?vid=ccbc449c-1efc-468d-bb73-1f977b0c2f8e","ios":"levelo://app?vid=ccbc449c-1efc-468d-bb73-1f977b0c2f8e"},"vehicle_type_id":"4","last_reported":1739819251,"current_range_meters":12800,"station_id":"ce4bhnp2rcd13ifvqh0g","pricing_plan_id":"cebpf4jnsgd1na2vs0mg"},{"bike_id":"43e58a6d-2a17-41bb-bd75-661bed22a62b","system_id":"levelo_inurba_marseille","lat":43.31169,"lon":5.38694,"is_reserved":false,"is_disabled":false,"rental_uris":{"android":"levelo://app?vid=43e58a6d-2a17-41bb-bd75-661bed22a62b","ios":"levelo://app?vid=43e58a6d-2a17-41bb-bd75-661bed22a62b"},"vehicle_type_id":"4","last_reported":1739819251,"current_range_meters":12800,"station_id":"","pricing_plan_id":"cebpf4jnsgd1na2vs0mg"},{"bike_id":"37e2f382-4e5f-4068-ac65-99779f2fa91a","system_id":"levelo_inurba_marseille","lat":43.31073,"lon":5.40073,"is_reserved":false,"is_disabled":false,"rental_uris":{"android":"levelo://app?vid=37e2f382-4e5f-4068-ac65-99779f2fa91a","ios":"levelo://app?vid=37e2f382-4e5f-4068-ac65-99779f2fa91a"},"vehicle_type_id":"4","last_reported":1739819251,"current_range_meters":12800,"station_id":"","pricing_plan_id":"cebpf4jnsgd1na2vs0mg"},{"bike_id":"a5b2ae35-a0bc-4403-a0c1-0e4888d34d21","system_id":"levelo_inurba_marseille","lat":43.29845,"lon":5.36265,"is_reserved":false,"is_disabled":false,"rental_uris":{"android":"levelo://app?vid=a5b2ae35-a0bc-4403-a0c1-0e4888d34d21","ios":"levelo://app?vid=a5b2ae35-a0bc-4403-a0c1-0e4888d34d21"},"vehicle_type_id":"4","last_reported":1739819251,"current_range_meters":12800,"station_id":"","pricing_plan_id":"cebpf4jnsgd1na2vs0mg"},{"bike_id":"4a402c08-fa25-4204-854d-f4db0c137e8d","system_id":"levelo_inurba_marseille","lat":43.29851,"lon":5.36286,"is_reserved":false,"is_disabled":false,"rental_uris":{"android":"levelo://app?vid=4a402c08-fa25-4204-854d-f4db0c137e8d","ios":"levelo://app?vid=4a402c08-fa25-4204-854d-f4db0c137e8d"},"vehicle_type_id":"4","last_reported":1739819251,"current_range_meters":13600,"station_id":"","pricing_plan_id":"cebpf4jnsgd1na2vs0mg"},{"bike_id":"23bdf268-1428-481e-948c-dc2d35fb207d","system_id":"levelo_inurba_marseille","lat":43.30951,"lon":5.39034,"is_reserved":false,"is_disabled":false,"rental_uris":{"android":"levelo://app?vid=23bdf268-1428-481e-948c-dc2d35fb207d","ios":"levelo://app?vid=23bdf268-1428-481e-948c-dc2d35fb207d"},"vehicle_type_id":"4","last_reported":1739819251,"current_range_meters":13600,"station_id":"ce4bgup2rcd13ifvqco0","pricing_plan_id":"cebpf4jnsgd1na2vs0mg"},{"bike_id":"9166a4df-787b-49a2-af88-d27a23dc354b","system_id":"levelo_inurba_marseille","lat":43.30134,"lon":5.38783,"is_reserved":false,"is_disabled":false,"rental_uris":{"android":"levelo://app?vid=9166a4df-787b-49a2-af88-d27a23dc354b","ios":"levelo://app?vid=9166a4df-787b-49a2-af88-d27a23dc354b"},"vehicle_type_id":"4","last_reported":1739819251,"current_range_meters":13600,"station_id":"","pricing_plan_id":"cebpf4jnsgd1na2vs0mg"},{"bike_id":"df01700e-1cac-42e1-a80d-5e68e99ef240","system_id":"levelo_inurba_marseille","lat":43.32002,"lon":5.38154,"is_reserved":false,"is_disabled":false,"rental_uris":{"android":"levelo://app?vid=df01700e-1cac-42e1-a80d-5e68e99ef240","ios":"levelo://app?vid=df01700e-1cac-42e1-a80d-5e68e99ef240"},"vehicle_type_id":"4","last_reported":1739819251,"current_range_meters":13600,"station_id":"ce4bhr12rcd13ifvqhpg","pricing_plan_id":"cebpf4jnsgd1na2vs0mg"},{"bike_id":"64627059-f94e-4aa2-a301-7dfa05f02d32","system_id":"levelo_inurba_marseille","lat":43.28847,"lon":5.3585,"is_reserved":false,"is_disabled":false,"rental_uris":{"android":"levelo://app?vid=64627059-f94e-4aa2-a301-7dfa05f02d32","ios":"levelo://app?vid=64627059-f94e-4aa2-a301-7dfa05f02d32"},"vehicle_type_id":"4","last_reported":1739819251,"current_range_meters":14000,"station_id":"ce4bhb12rcd13ifvqem0","pricing_plan_id":"cebpf4jnsgd1na2vs0mg"},{"bike_id":"c5c59f41-6de9-4286-8e47-0b749ef897bc","system_id":"levelo_inurba_marseille","lat":43.286217,"lon":5.351044,"is_reserved":false,"is_disabled":false,"rental_uris":{"android":"levelo://app?vid=c5c59f41-6de9-4286-8e47-0b749ef897bc","ios":"levelo://app?vid=c5c59f41-6de9-4286-8e47-0b749ef897bc"},"vehicle_type_id":"4","last_reported":1739819251,"current_range_meters":14000,"station_id":"ce4bhch2rcd13ifvqeug","pricing_plan_id":"cebpf4jnsgd1na2vs0mg"},{"bike_id":"b0fc4ee7-b366-47b1-9db5-87f9ab849753","system_id":"levelo_inurba_marseille","lat":43.30119,"lon":5.39892,"is_reserved":false,"is_disabled":false,"rental_uris":{"android":"levelo://app?vid=b0fc4ee7-b366-47b1-9db5-87f9ab849753","ios":"levelo://app?vid=b0fc4ee7-b366-47b1-9db5-87f9ab849753"},"vehicle_type_id":"4","last_reported":1739819251,"current_range_meters":14000,"station_id":"ce4bh0h2rcd13ifvqd40","pricing_plan_id":"cebpf4jnsgd1na2vs0mg"},{"bike_id":"784d0b2d-a3bd-4d1c-bc4b-2ef14d5be33a","system_id":"levelo_inurba_marseille","lat":43.29302,"lon":5.37465,"is_reserved":false,"is_disabled":false,"rental_uris":{"android":"levelo://app?vid=784d0b2d-a3bd-4d1c-bc4b-2ef14d5be33a","ios":"levelo://app?vid=784d0b2d-a3bd-4d1c-bc4b-2ef14d5be33a"},"vehicle_type_id":"4","last_reported":1739819251,"current_range_meters":14000,"station_id":"ce4bgi12rcd13ifvqb70","pricing_plan_id":"cebpf4jnsgd1na2vs0mg"},{"bike_id":"24bb386a-bcc5-4401-802c-2232ecc971ea","system_id":"levelo_inurba_marseille","lat":43.24807,"lon":5.37461,"is_reserved":false,"is_disabled":false,"rental_uris":{"android":"levelo://app?vid=24bb386a-bcc5-4401-802c-2232ecc971ea","ios":"levelo://app?vid=24bb386a-bcc5-4401-802c-2232ecc971ea"},"vehicle_type_id":"4","last_reported":1739819251,"current_range_meters":14000,"station_id":"ce4bhgh2rcd13ifvqfb0","pricing_plan_id":"cebpf4jnsgd1na2vs0mg"},{"bike_id":"f2f1cc05-1d06-4e32-ba67-45efcc7d3738","system_id":"levelo_inurba_marseille","lat":43.28152,"lon":5.42646,"is_reserved":false,"is_disabled":false,"rental_uris":{"android":"levelo://app?vid=f2f1cc05-1d06-4e32-ba67-45efcc7d3738","ios":"levelo://app?vid=f2f1cc05-1d06-4e32-ba67-45efcc7d3738"},"vehicle_type_id":"4","last_reported":1739819251,"current_range_meters":14400,"station_id":"","pricing_plan_id":"cebpf4jnsgd1na2vs0mg"},{"bike_id":"4767ce61-083b-49b6-b6bd-c77650019e8f","system_id":"levelo_inurba_marseille","lat":43.32104,"lon":5.36776,"is_reserved":false,"is_disabled":false,"rental_uris":{"android":"levelo://app?vid=4767ce61-083b-49b6-b6bd-c77650019e8f","ios":"levelo://app?vid=4767ce61-083b-49b6-b6bd-c77650019e8f"},"vehicle_type_id":"4","last_reported":1739819251,"current_range_meters":14400,"station_id":"","pricing_plan_id":"cebpf4jnsgd1na2vs0mg"},{"bike_id":"f8e06fc7-00b7-4831-828e-752a95e98412","system_id":"levelo_inurba_marseille","lat":43.28844,"lon":5.35878,"is_reserved":false,"is_disabled":false,"rental_uris":{"android":"levelo://app?vid=f8e06fc7-00b7-4831-828e-752a95e98412","ios":"levelo://app?vid=f8e06fc7-00b7-4831-828e-752a95e98412"},"vehicle_type_id":"4","last_reported":1739819251,"current_range_meters":14400,"station_id":"ce4bhb12rcd13ifvqem0","pricing_plan_id":"cebpf4jnsgd1na2vs0mg"},{"bike_id":"9084f880-c05c-41d9-962e-1ab7add2848e","system_id":"levelo_inurba_marseille","lat":43.24061,"lon":5.37775,"is_reserved":false,"is_disabled":false,"rental_uris":{"android":"levelo://app?vid=9084f880-c05c-41d9-962e-1ab7add2848e","ios":"levelo://app?vid=9084f880-c05c-41d9-962e-1ab7add2848e"},"vehicle_type_id":"4","last_reported":1739819251,"current_range_meters":14400,"station_id":"ce4bhnp2rcd13ifvqgvg","pricing_plan_id":"cebpf4jnsgd1na2vs0mg"},{"bike_id":"80842653-0916-4e4e-96ac-1b8b526d2858","system_id":"levelo_inurba_marseille","lat":43.29264,"lon":5.40067,"is_reserved":false,"is_disabled":false,"rental_uris":{"android":"levelo://app?vid=80842653-0916-4e4e-96ac-1b8b526d2858","ios":"levelo://app?vid=80842653-0916-4e4e-96ac-1b8b526d2858"},"vehicle_type_id":"4","last_reported":1739819251,"current_range_meters":14800,"station_id":"","pricing_plan_id":"cebpf4jnsgd1na2vs0mg"},{"bike_id":"a278b698-59c6-456b-90f1-28d0cf69dbc2","system_id":"levelo_inurba_marseille","lat":43.301278,"lon":5.398664,"is_reserved":false,"is_disabled":false,"rental_uris":{"android":"levelo://app?vid=a278b698-59c6-456b-90f1-28d0cf69dbc2","ios":"levelo://app?vid=a278b698-59c6-456b-90f1-28d0cf69dbc2"},"vehicle_type_id":"4","last_reported":1739819251,"current_range_meters":14800,"station_id":"ce4bh0h2rcd13ifvqd40","pricing_plan_id":"cebpf4jnsgd1na2vs0mg"},{"bike_id":"f6e82fd7-bfb1-4bc9-9740-73bdd1aa62ab","system_id":"levelo_inurba_marseille","lat":43.25119,"lon":5.40336,"is_reserved":false,"is_disabled":false,"rental_uris":{"android":"levelo://app?vid=f6e82fd7-bfb1-4bc9-9740-73bdd1aa62ab","ios":"levelo://app?vid=f6e82fd7-bfb1-4bc9-9740-73bdd1aa62ab"},"vehicle_type_id":"4","last_reported":1739819251,"current_range_meters":14800,"station_id":"ce4bhlh2rcd13ifvqgig","pricing_plan_id":"cebpf4jnsgd1na2vs0mg"},{"bike_id":"e57f9313-8443-49d5-820a-e3f0c205b6f2","system_id":"levelo_inurba_marseille","lat":43.24067,"lon":5.37758,"is_reserved":false,"is_disabled":false,"rental_uris":{"android":"levelo://app?vid=e57f9313-8443-49d5-820a-e3f0c205b6f2","ios":"levelo://app?vid=e57f9313-8443-49d5-820a-e3f0c205b6f2"},"vehicle_type_id":"4","last_reported":1739819251,"current_range_meters":14800,"station_id":"ce4bhnp2rcd13ifvqgvg","pricing_plan_id":"cebpf4jnsgd1na2vs0mg"},{"bike_id":"9e625bd4-2b4d-4ff8-b24e-8e47162f79af","system_id":"levelo_inurba_marseille","lat":43.2826,"lon":5.37299,"is_reserved":false,"is_disabled":false,"rental_uris":{"android":"levelo://app?vid=9e625bd4-2b4d-4ff8-b24e-8e47162f79af","ios":"levelo://app?vid=9e625bd4-2b4d-4ff8-b24e-8e47162f79af"},"vehicle_type_id":"4","last_reported":1739819251,"current_range_meters":14800,"station_id":"ce4bha12rcd13ifvqef0","pricing_plan_id":"cebpf4jnsgd1na2vs0mg"},{"bike_id":"7e1bcd16-719a-4da9-aa93-fa68923adaea","system_id":"levelo_inurba_marseille","lat":43.24065,"lon":5.37765,"is_reserved":false,"is_disabled":false,"rental_uris":{"android":"levelo://app?vid=7e1bcd16-719a-4da9-aa93-fa68923adaea","ios":"levelo://app?vid=7e1bcd16-719a-4da9-aa93-fa68923adaea"},"vehicle_type_id":"4","last_reported":1739819251,"current_range_meters":14800,"station_id":"ce4bhnp2rcd13ifvqgvg","pricing_plan_id":"cebpf4jnsgd1na2vs0mg"},{"bike_id":"2aafbcc5-8d8c-4d5b-8b14-97ce69328409","system_id":"levelo_inurba_marseille","lat":43.27311,"lon":5.39088,"is_reserved":false,"is_disabled":false,"rental_uris":{"android":"levelo://app?vid=2aafbcc5-8d8c-4d5b-8b14-97ce69328409","ios":"levelo://app?vid=2aafbcc5-8d8c-4d5b-8b14-97ce69328409"},"vehicle_type_id":"4","last_reported":1739819251,"current_range_meters":14800,"station_id":"ce4bh3p2rcd13ifvqdq0","pricing_plan_id":"cebpf4jnsgd1na2vs0mg"},{"bike_id":"b4f7951e-a8d9-4f42-b03f-b06ba82daa83","system_id":"levelo_inurba_marseille","lat":43.27185,"lon":5.40987,"is_reserved":false,"is_disabled":false,"rental_uris":{"android":"levelo://app?vid=b4f7951e-a8d9-4f42-b03f-b06ba82daa83","ios":"levelo://app?vid=b4f7951e-a8d9-4f42-b03f-b06ba82daa83"},"vehicle_type_id":"4","last_reported":1739819251,"current_range_meters":15200,"station_id":"ce4bhl12rcd13ifvqgf0","pricing_plan_id":"cebpf4jnsgd1na2vs0mg"},{"bike_id":"6cea39d1-143a-437a-be7c-4155e2811eca","system_id":"levelo_inurba_marseille","lat":43.25086,"lon":5.39513,"is_reserved":false,"is_disabled":false,"rental_uris":{"android":"levelo://app?vid=6cea39d1-143a-437a-be7c-4155e2811eca","ios":"levelo://app?vid=6cea39d1-143a-437a-be7c-4155e2811eca"},"vehicle_type_id":"4","last_reported":1739819251,"current_range_meters":15200,"station_id":"ce4bhm12rcd13ifvqgkg","pricing_plan_id":"cebpf4jnsgd1na2vs0mg"},{"bike_id":"c8e0588e-063a-45b2-947d-0945f1f70695","system_id":"levelo_inurba_marseille","lat":43.28154,"lon":5.42645,"is_reserved":false,"is_disabled":false,"rental_uris":{"android":"levelo://app?vid=c8e0588e-063a-45b2-947d-0945f1f70695","ios":"levelo://app?vid=c8e0588e-063a-45b2-947d-0945f1f70695"},"vehicle_type_id":"4","last_reported":1739819251,"current_range_meters":15200,"station_id":"","pricing_plan_id":"cebpf4jnsgd1na2vs0mg"},{"bike_id":"855e00a6-9e8c-4de0-bc87-12b351c5db28","system_id":"levelo_inurba_marseille","lat":43.284218,"lon":5.349857,"is_reserved":false,"is_disabled":false,"rental_uris":{"android":"levelo://app?vid=855e00a6-9e8c-4de0-bc87-12b351c5db28","ios":"levelo://app?vid=855e00a6-9e8c-4de0-bc87-12b351c5db28"},"vehicle_type_id":"4","last_reported":1739819251,"current_range_meters":15200,"station_id":"ce4bhbh2rcd13ifvqepg","pricing_plan_id":"cebpf4jnsgd1na2vs0mg"},{"bike_id":"81a3ec43-f5b3-4625-8b09-e5347b4debed","system_id":"levelo_inurba_marseille","lat":43.28105,"lon":5.37837,"is_reserved":false,"is_disabled":false,"rental_uris":{"android":"levelo://app?vid=81a3ec43-f5b3-4625-8b09-e5347b4debed","ios":"levelo://app?vid=81a3ec43-f5b3-4625-8b09-e5347b4debed"},"vehicle_type_id":"4","last_reported":1739819251,"current_range_meters":15200,"station_id":"ce4bha12rcd13ifvqee0","pricing_plan_id":"cebpf4jnsgd1na2vs0mg"},{"bike_id":"7d105968-b75a-42e6-95d1-fd2629fc1eda","system_id":"levelo_inurba_marseille","lat":43.2985,"lon":5.36276,"is_reserved":false,"is_disabled":false,"rental_uris":{"android":"levelo://app?vid=7d105968-b75a-42e6-95d1-fd2629fc1eda","ios":"levelo://app?vid=7d105968-b75a-42e6-95d1-fd2629fc1eda"},"vehicle_type_id":"4","last_reported":1739819251,"current_range_meters":15200,"station_id":"","pricing_plan_id":"cebpf4jnsgd1na2vs0mg"},{"bike_id":"c6d403ef-af42-41ae-9312-3a948449b260","system_id":"levelo_inurba_marseille","lat":43.27628,"lon":5.36103,"is_reserved":false,"is_disabled":false,"rental_uris":{"android":"levelo://app?vid=c6d403ef-af42-41ae-9312-3a948449b260","ios":"levelo://app?vid=c6d403ef-af42-41ae-9312-3a948449b260"},"vehicle_type_id":"4","last_reported":1739819251,"current_range_meters":15200,"station_id":"ce4bgj92rcd13ifvqbe0","pricing_plan_id":"cebpf4jnsgd1na2vs0mg"},{"bike_id":"ae150bdd-3d2a-4f9e-967f-89386cd94b17","system_id":"levelo_inurba_marseille","lat":43.30213,"lon":5.39475,"is_reserved":false,"is_disabled":false,"rental_uris":{"android":"levelo://app?vid=ae150bdd-3d2a-4f9e-967f-89386cd94b17","ios":"levelo://app?vid=ae150bdd-3d2a-4f9e-967f-89386cd94b17"},"vehicle_type_id":"4","last_reported":1739819251,"current_range_meters":16000,"station_id":"","pricing_plan_id":"cebpf4jnsgd1na2vs0mg"},{"bike_id":"91bf3218-0a05-4226-acc9-b3131b7d5a8d","system_id":"levelo_inurba_marseille","lat":43.23958,"lon":5.36623,"is_reserved":false,"is_disabled":false,"rental_uris":{"android":"levelo://app?vid=91bf3218-0a05-4226-acc9-b3131b7d5a8d","ios":"levelo://app?vid=91bf3218-0a05-4226-acc9-b3131b7d5a8d"},"vehicle_type_id":"4","last_reported":1739819251,"current_range_meters":16000,"station_id":"ce4bhi12rcd13ifvqfp0","pricing_plan_id":"cebpf4jnsgd1na2vs0mg"},{"bike_id":"085f975e-f80f-40c8-8c97-4c4e0a22eba2","system_id":"levelo_inurba_marseille","lat":43.23961,"lon":5.36639,"is_reserved":false,"is_disabled":false,"rental_uris":{"android":"levelo://app?vid=085f975e-f80f-40c8-8c97-4c4e0a22eba2","ios":"levelo://app?vid=085f975e-f80f-40c8-8c97-4c4e0a22eba2"},"vehicle_type_id":"4","last_reported":1739819251,"current_range_meters":16000,"station_id":"ce4bhi12rcd13ifvqfp0","pricing_plan_id":"cebpf4jnsgd1na2vs0mg"},{"bike_id":"9513c14d-d35f-4f74-91aa-e7d0eab7a530","system_id":"levelo_inurba_marseille","lat":43.2994,"lon":5.36553,"is_reserved":false,"is_disabled":false,"rental_uris":{"android":"levelo://app?vid=9513c14d-d35f-4f74-91aa-e7d0eab7a530","ios":"levelo://app?vid=9513c14d-d35f-4f74-91aa-e7d0eab7a530"},"vehicle_type_id":"4","last_reported":1739819251,"current_range_meters":16000,"station_id":"ce4bgm92rcd13ifvqbr0","pricing_plan_id":"cebpf4jnsgd1na2vs0mg"},{"bike_id":"fa26596f-385b-467a-983c-09a503967e29","system_id":"levelo_inurba_marseille","lat":43.28274,"lon":5.35073,"is_reserved":false,"is_disabled":true,"rental_uris":{"android":"levelo://app?vid=fa26596f-385b-467a-983c-09a503967e29","ios":"levelo://app?vid=fa26596f-385b-467a-983c-09a503967e29"},"vehicle_type_id":"4","last_reported":1739819251,"current_range_meters":16000,"station_id":"","pricing_plan_id":"cebpf4jnsgd1na2vs0mg"},{"bike_id":"5713cae5-3af2-4d61-97fb-3a85a02a67af","system_id":"levelo_inurba_marseille","lat":43.29422,"lon":5.38625,"is_reserved":false,"is_disabled":false,"rental_uris":{"android":"levelo://app?vid=5713cae5-3af2-4d61-97fb-3a85a02a67af","ios":"levelo://app?vid=5713cae5-3af2-4d61-97fb-3a85a02a67af"},"vehicle_type_id":"4","last_reported":1739819251,"current_range_meters":16000,"station_id":"ce4bh2h2rcd13ifvqdh0","pricing_plan_id":"cebpf4jnsgd1na2vs0mg"},{"bike_id":"d1dec037-ee4c-4db9-a655-1087d8ee1f4f","system_id":"levelo_inurba_marseille","lat":43.28413,"lon":5.39175,"is_reserved":false,"is_disabled":true,"rental_uris":{"android":"levelo://app?vid=d1dec037-ee4c-4db9-a655-1087d8ee1f4f","ios":"levelo://app?vid=d1dec037-ee4c-4db9-a655-1087d8ee1f4f"},"vehicle_type_id":"4","last_reported":1739819251,"current_range_meters":16000,"station_id":"","pricing_plan_id":"cebpf4jnsgd1na2vs0mg"},{"bike_id":"2925d872-7877-4b1f-89a7-e112a91d35d3","system_id":"levelo_inurba_marseille","lat":43.28461,"lon":5.35897,"is_reserved":false,"is_disabled":true,"rental_uris":{"android":"levelo://app?vid=2925d872-7877-4b1f-89a7-e112a91d35d3","ios":"levelo://app?vid=2925d872-7877-4b1f-89a7-e112a91d35d3"},"vehicle_type_id":"4","last_reported":1739819251,"current_range_meters":16000,"station_id":"ce4bhah2rcd13ifvqei0","pricing_plan_id":"cebpf4jnsgd1na2vs0mg"},{"bike_id":"a18d790d-07a5-49e7-9126-9be5347c108c","system_id":"levelo_inurba_marseille","lat":43.2827,"lon":5.35078,"is_reserved":false,"is_disabled":false,"rental_uris":{"android":"levelo://app?vid=a18d790d-07a5-49e7-9126-9be5347c108c","ios":"levelo://app?vid=a18d790d-07a5-49e7-9126-9be5347c108c"},"vehicle_type_id":"4","last_reported":1739819251,"current_range_meters":16000,"station_id":"ce4bhbp2rcd13ifvqerg","pricing_plan_id":"cebpf4jnsgd1na2vs0mg"},{"bike_id":"f1c1d98d-cdd1-4189-ae7f-45e9818fc594","system_id":"levelo_inurba_marseille","lat":43.2844,"lon":5.3919,"is_reserved":false,"is_disabled":false,"rental_uris":{"android":"levelo://app?vid=f1c1d98d-cdd1-4189-ae7f-45e9818fc594","ios":"levelo://app?vid=f1c1d98d-cdd1-4189-ae7f-45e9818fc594"},"vehicle_type_id":"4","last_reported":1739819251,"current_range_meters":16000,"station_id":"ce4bhoh2rcd13ifvqh5g","pricing_plan_id":"cebpf4jnsgd1na2vs0mg"},{"bike_id":"5c51e36a-e173-4af3-9cb5-94e4803b3ffb","system_id":"levelo_inurba_marseille","lat":43.28617,"lon":5.35103,"is_reserved":false,"is_disabled":false,"rental_uris":{"android":"levelo://app?vid=5c51e36a-e173-4af3-9cb5-94e4803b3ffb","ios":"levelo://app?vid=5c51e36a-e173-4af3-9cb5-94e4803b3ffb"},"vehicle_type_id":"4","last_reported":1739819251,"current_range_meters":16000,"station_id":"","pricing_plan_id":"cebpf4jnsgd1na2vs0mg"},{"bike_id":"7d7af1ce-4aca-46ac-840b-2158ccf492af","system_id":"levelo_inurba_marseille","lat":43.30472,"lon":5.37907,"is_reserved":false,"is_disabled":false,"rental_uris":{"android":"levelo://app?vid=7d7af1ce-4aca-46ac-840b-2158ccf492af","ios":"levelo://app?vid=7d7af1ce-4aca-46ac-840b-2158ccf492af"},"vehicle_type_id":"4","last_reported":1739819251,"current_range_meters":16000,"station_id":"ce4bgup2rcd13ifvqcn0","pricing_plan_id":"cebpf4jnsgd1na2vs0mg"},{"bike_id":"772e5d73-e78f-47a1-9755-63448f7ea7a3","system_id":"levelo_inurba_marseille","lat":43.28705,"lon":5.37393,"is_reserved":false,"is_disabled":false,"rental_uris":{"android":"levelo://app?vid=772e5d73-e78f-47a1-9755-63448f7ea7a3","ios":"levelo://app?vid=772e5d73-e78f-47a1-9755-63448f7ea7a3"},"vehicle_type_id":"4","last_reported":1739819251,"current_range_meters":16400,"station_id":"ce4bh3p2rcd13ifvqdq0","pricing_plan_id":"cebpf4jnsgd1na2vs0mg"},{"bike_id":"1ba12497-52c7-420c-a43f-18a1c7f9b5af","system_id":"levelo_inurba_marseille","lat":43.3032,"lon":5.36902,"is_reserved":false,"is_disabled":false,"rental_uris":{"android":"levelo://app?vid=1ba12497-52c7-420c-a43f-18a1c7f9b5af","ios":"levelo://app?vid=1ba12497-52c7-420c-a43f-18a1c7f9b5af"},"vehicle_type_id":"4","last_reported":1739819251,"current_range_meters":16400,"station_id":"ce4bgqh2rcd13ifvqc5g","pricing_plan_id":"cebpf4jnsgd1na2vs0mg"},{"bike_id":"a0d6d5a0-c616-4c50-b79e-af5849f07aae","system_id":"levelo_inurba_marseille","lat":43.30797,"lon":5.37229,"is_reserved":false,"is_disabled":false,"rental_uris":{"android":"levelo://app?vid=a0d6d5a0-c616-4c50-b79e-af5849f07aae","ios":"levelo://app?vid=a0d6d5a0-c616-4c50-b79e-af5849f07aae"},"vehicle_type_id":"4","last_reported":1739819251,"current_range_meters":16400,"station_id":"ce4bguh2rcd13ifvqckg","pricing_plan_id":"cebpf4jnsgd1na2vs0mg"},{"bike_id":"a799a60b-3c75-45fb-ac00-220d507c3482","system_id":"levelo_inurba_marseille","lat":43.24809,"lon":5.37454,"is_reserved":false,"is_disabled":false,"rental_uris":{"android":"levelo://app?vid=a799a60b-3c75-45fb-ac00-220d507c3482","ios":"levelo://app?vid=a799a60b-3c75-45fb-ac00-220d507c3482"},"vehicle_type_id":"4","last_reported":1739819251,"current_range_meters":16400,"station_id":"ce4bhgh2rcd13ifvqfb0","pricing_plan_id":"cebpf4jnsgd1na2vs0mg"},{"bike_id":"7b5ffc48-b2b8-4c7c-9076-b36aa6011a00","system_id":"levelo_inurba_marseille","lat":43.30246,"lon":5.40049,"is_reserved":false,"is_disabled":false,"rental_uris":{"android":"levelo://app?vid=7b5ffc48-b2b8-4c7c-9076-b36aa6011a00","ios":"levelo://app?vid=7b5ffc48-b2b8-4c7c-9076-b36aa6011a00"},"vehicle_type_id":"4","last_reported":1739819251,"current_range_meters":16400,"station_id":"ce4bgvh2rcd13ifvqcs0","pricing_plan_id":"cebpf4jnsgd1na2vs0mg"},{"bike_id":"1c4ab1c1-f8e5-4ceb-8507-e3b252ef908b","system_id":"levelo_inurba_marseille","lat":43.24156,"lon":5.3641,"is_reserved":false,"is_disabled":false,"rental_uris":{"android":"levelo://app?vid=1c4ab1c1-f8e5-4ceb-8507-e3b252ef908b","ios":"levelo://app?vid=1c4ab1c1-f8e5-4ceb-8507-e3b252ef908b"},"vehicle_type_id":"4","last_reported":1739819251,"current_range_meters":16400,"station_id":"cpo36qri1sfpv3e86is0","pricing_plan_id":"cebpf4jnsgd1na2vs0mg"},{"bike_id":"1a593f97-80e0-4ab5-99e3-1042da8fe8d9","system_id":"levelo_inurba_marseille","lat":43.23195,"lon":5.39983,"is_reserved":false,"is_disabled":false,"rental_uris":{"android":"levelo://app?vid=1a593f97-80e0-4ab5-99e3-1042da8fe8d9","ios":"levelo://app?vid=1a593f97-80e0-4ab5-99e3-1042da8fe8d9"},"vehicle_type_id":"4","last_reported":1739819251,"current_range_meters":16400,"station_id":"","pricing_plan_id":"cebpf4jnsgd1na2vs0mg"},{"bike_id":"e84d68d2-e4da-4a1d-bf21-6b854fb2c8cc","system_id":"levelo_inurba_marseille","lat":43.2857,"lon":5.39487,"is_reserved":false,"is_disabled":false,"rental_uris":{"android":"levelo://app?vid=e84d68d2-e4da-4a1d-bf21-6b854fb2c8cc","ios":"levelo://app?vid=e84d68d2-e4da-4a1d-bf21-6b854fb2c8cc"},"vehicle_type_id":"4","last_reported":1739819251,"current_range_meters":16400,"station_id":"ce4bh292rcd13ifvqdg0","pricing_plan_id":"cebpf4jnsgd1na2vs0mg"},{"bike_id":"f4e2d9f7-ffad-4388-b647-2a51157d860a","system_id":"levelo_inurba_marseille","lat":43.30478,"lon":5.38847,"is_reserved":false,"is_disabled":false,"rental_uris":{"android":"levelo://app?vid=f4e2d9f7-ffad-4388-b647-2a51157d860a","ios":"levelo://app?vid=f4e2d9f7-ffad-4388-b647-2a51157d860a"},"vehicle_type_id":"4","last_reported":1739819251,"current_range_meters":16400,"station_id":"ce4bgk12rcd13ifvqbi0","pricing_plan_id":"cebpf4jnsgd1na2vs0mg"},{"bike_id":"b1fb2b3c-7ab6-4dc2-a88e-a7a14bcec4b6","system_id":"levelo_inurba_marseille","lat":43.27065,"lon":5.40251,"is_reserved":false,"is_disabled":false,"rental_uris":{"android":"levelo://app?vid=b1fb2b3c-7ab6-4dc2-a88e-a7a14bcec4b6","ios":"levelo://app?vid=b1fb2b3c-7ab6-4dc2-a88e-a7a14bcec4b6"},"vehicle_type_id":"4","last_reported":1739819251,"current_range_meters":16400,"station_id":"ce4bhk92rcd13ifvqgc0","pricing_plan_id":"cebpf4jnsgd1na2vs0mg"},{"bike_id":"bb4a3648-09cb-4cc2-9947-bf380533d03f","system_id":"levelo_inurba_marseille","lat":43.31662,"lon":5.37242,"is_reserved":false,"is_disabled":true,"rental_uris":{"android":"levelo://app?vid=bb4a3648-09cb-4cc2-9947-bf380533d03f","ios":"levelo://app?vid=bb4a3648-09cb-4cc2-9947-bf380533d03f"},"vehicle_type_id":"4","last_reported":1739819251,"current_range_meters":16400,"station_id":"","pricing_plan_id":"cebpf4jnsgd1na2vs0mg"},{"bike_id":"e493d32f-c7df-48a8-8644-e6c67b333882","system_id":"levelo_inurba_marseille","lat":43.30169,"lon":5.37123,"is_reserved":false,"is_disabled":false,"rental_uris":{"android":"levelo://app?vid=e493d32f-c7df-48a8-8644-e6c67b333882","ios":"levelo://app?vid=e493d32f-c7df-48a8-8644-e6c67b333882"},"vehicle_type_id":"4","last_reported":1739819251,"current_range_meters":16400,"station_id":"","pricing_plan_id":"cebpf4jnsgd1na2vs0mg"},{"bike_id":"213ea857-4e70-4b8d-a56e-e2135671de69","system_id":"levelo_inurba_marseille","lat":43.2927,"lon":5.38437,"is_reserved":false,"is_disabled":false,"rental_uris":{"android":"levelo://app?vid=213ea857-4e70-4b8d-a56e-e2135671de69","ios":"levelo://app?vid=213ea857-4e70-4b8d-a56e-e2135671de69"},"vehicle_type_id":"4","last_reported":1739819251,"current_range_meters":16400,"station_id":"ce4bh692rcd13ifvqea0","pricing_plan_id":"cebpf4jnsgd1na2vs0mg"},{"bike_id":"22f4decf-2440-49b2-9a3c-417f30b387ee","system_id":"levelo_inurba_marseille","lat":43.29798,"lon":5.38098,"is_reserved":false,"is_disabled":false,"rental_uris":{"android":"levelo://app?vid=22f4decf-2440-49b2-9a3c-417f30b387ee","ios":"levelo://app?vid=22f4decf-2440-49b2-9a3c-417f30b387ee"},"vehicle_type_id":"4","last_reported":1739819251,"current_range_meters":16400,"station_id":"ce4bgup2rcd13ifvqcn0","pricing_plan_id":"cebpf4jnsgd1na2vs0mg"},{"bike_id":"1c20412a-0c67-429f-80ce-e2810946a0ef","system_id":"levelo_inurba_marseille","lat":43.29881,"lon":5.3889,"is_reserved":false,"is_disabled":false,"rental_uris":{"android":"levelo://app?vid=1c20412a-0c67-429f-80ce-e2810946a0ef","ios":"levelo://app?vid=1c20412a-0c67-429f-80ce-e2810946a0ef"},"vehicle_type_id":"4","last_reported":1739819251,"current_range_meters":16800,"station_id":"","pricing_plan_id":"cebpf4jnsgd1na2vs0mg"},{"bike_id":"c49bd8ab-6a32-4b41-8e58-51ead274cd34","system_id":"levelo_inurba_marseille","lat":43.28942,"lon":5.36635,"is_reserved":false,"is_disabled":false,"rental_uris":{"android":"levelo://app?vid=c49bd8ab-6a32-4b41-8e58-51ead274cd34","ios":"levelo://app?vid=c49bd8ab-6a32-4b41-8e58-51ead274cd34"},"vehicle_type_id":"4","last_reported":1739819251,"current_range_meters":16400,"station_id":"ce4bhap2rcd13ifvqek0","pricing_plan_id":"cebpf4jnsgd1na2vs0mg"},{"bike_id":"57fc0fcd-aadd-415c-90ca-a505007cba9c","system_id":"levelo_inurba_marseille","lat":43.28353,"lon":5.3864,"is_reserved":false,"is_disabled":false,"rental_uris":{"android":"levelo://app?vid=57fc0fcd-aadd-415c-90ca-a505007cba9c","ios":"levelo://app?vid=57fc0fcd-aadd-415c-90ca-a505007cba9c"},"vehicle_type_id":"4","last_reported":1739819251,"current_range_meters":16800,"station_id":"ce4bh492rcd13ifvqdvg","pricing_plan_id":"cebpf4jnsgd1na2vs0mg"},{"bike_id":"e1fece66-3628-4a74-b0b1-fa9465883c12","system_id":"levelo_inurba_marseille","lat":43.29869,"lon":5.36302,"is_reserved":false,"is_disabled":false,"rental_uris":{"android":"levelo://app?vid=e1fece66-3628-4a74-b0b1-fa9465883c12","ios":"levelo://app?vid=e1fece66-3628-4a74-b0b1-fa9465883c12"},"vehicle_type_id":"4","last_reported":1739819251,"current_range_meters":16800,"station_id":"","pricing_plan_id":"cebpf4jnsgd1na2vs0mg"},{"bike_id":"e46ad52b-d861-4d04-a2c4-ea45df01633c","system_id":"levelo_inurba_marseille","lat":43.26802,"lon":5.4026,"is_reserved":false,"is_disabled":true,"rental_uris":{"android":"levelo://app?vid=e46ad52b-d861-4d04-a2c4-ea45df01633c","ios":"levelo://app?vid=e46ad52b-d861-4d04-a2c4-ea45df01633c"},"vehicle_type_id":"4","last_reported":1739819251,"current_range_meters":16800,"station_id":"ce501612rcd8frsf0b60","pricing_plan_id":"cebpf4jnsgd1na2vs0mg"},{"bike_id":"e60ea86b-4601-4c03-9d67-1a66c75aa754","system_id":"levelo_inurba_marseille","lat":43.2857,"lon":5.39499,"is_reserved":false,"is_disabled":false,"rental_uris":{"android":"levelo://app?vid=e60ea86b-4601-4c03-9d67-1a66c75aa754","ios":"levelo://app?vid=e60ea86b-4601-4c03-9d67-1a66c75aa754"},"vehicle_type_id":"4","last_reported":1739819251,"current_range_meters":16800,"station_id":"ce4bh292rcd13ifvqdg0","pricing_plan_id":"cebpf4jnsgd1na2vs0mg"},{"bike_id":"317352af-c435-44b4-b639-5a1671b51b70","system_id":"levelo_inurba_marseille","lat":43.23152,"lon":5.43706,"is_reserved":false,"is_disabled":false,"rental_uris":{"android":"levelo://app?vid=317352af-c435-44b4-b639-5a1671b51b70","ios":"levelo://app?vid=317352af-c435-44b4-b639-5a1671b51b70"},"vehicle_type_id":"4","last_reported":1739819251,"current_range_meters":16800,"station_id":"ce4bhmp2rcd13ifvqgog","pricing_plan_id":"cebpf4jnsgd1na2vs0mg"},{"bike_id":"c74b4dbc-e6ae-47cb-9ea7-91e74f12ab36","system_id":"levelo_inurba_marseille","lat":43.28346,"lon":5.38105,"is_reserved":false,"is_disabled":false,"rental_uris":{"android":"levelo://app?vid=c74b4dbc-e6ae-47cb-9ea7-91e74f12ab36","ios":"levelo://app?vid=c74b4dbc-e6ae-47cb-9ea7-91e74f12ab36"},"vehicle_type_id":"4","last_reported":1739819251,"current_range_meters":16800,"station_id":"ce4bh412rcd13ifvqdr0","pricing_plan_id":"cebpf4jnsgd1na2vs0mg"},{"bike_id":"a8c5baf6-1f70-4f73-939f-f8738f7ee8c4","system_id":"levelo_inurba_marseille","lat":43.2857,"lon":5.39496,"is_reserved":false,"is_disabled":false,"rental_uris":{"android":"levelo://app?vid=a8c5baf6-1f70-4f73-939f-f8738f7ee8c4","ios":"levelo://app?vid=a8c5baf6-1f70-4f73-939f-f8738f7ee8c4"},"vehicle_type_id":"4","last_reported":1739819251,"current_range_meters":16400,"station_id":"ce4bh292rcd13ifvqdg0","pricing_plan_id":"cebpf4jnsgd1na2vs0mg"},{"bike_id":"a81f047e-2602-4d29-8821-508c11538471","system_id":"levelo_inurba_marseille","lat":43.22928,"lon":5.35377,"is_reserved":false,"is_disabled":false,"rental_uris":{"android":"levelo://app?vid=a81f047e-2602-4d29-8821-508c11538471","ios":"levelo://app?vid=a81f047e-2602-4d29-8821-508c11538471"},"vehicle_type_id":"4","last_reported":1739819251,"current_range_meters":17200,"station_id":"cpo3532slgdg3j2ikp40","pricing_plan_id":"cebpf4jnsgd1na2vs0mg"},{"bike_id":"71a53407-5f2a-4d58-ac05-75c2be551a04","system_id":"levelo_inurba_marseille","lat":43.28568,"lon":5.39492,"is_reserved":false,"is_disabled":false,"rental_uris":{"android":"levelo://app?vid=71a53407-5f2a-4d58-ac05-75c2be551a04","ios":"levelo://app?vid=71a53407-5f2a-4d58-ac05-75c2be551a04"},"vehicle_type_id":"4","last_reported":1739819251,"current_range_meters":17200,"station_id":"ce4bh292rcd13ifvqdg0","pricing_plan_id":"cebpf4jnsgd1na2vs0mg"},{"bike_id":"8efef1d5-fb08-4afd-acdb-f6fd551ad17f","system_id":"levelo_inurba_marseille","lat":43.28544,"lon":5.39491,"is_reserved":false,"is_disabled":false,"rental_uris":{"android":"levelo://app?vid=8efef1d5-fb08-4afd-acdb-f6fd551ad17f","ios":"levelo://app?vid=8efef1d5-fb08-4afd-acdb-f6fd551ad17f"},"vehicle_type_id":"4","last_reported":1739819251,"current_range_meters":17200,"station_id":"ce4bh292rcd13ifvqdg0","pricing_plan_id":"cebpf4jnsgd1na2vs0mg"},{"bike_id":"ebbdb265-c7b8-4741-af21-b9a8b18656e3","system_id":"levelo_inurba_marseille","lat":43.32272,"lon":5.38258,"is_reserved":false,"is_disabled":false,"rental_uris":{"android":"levelo://app?vid=ebbdb265-c7b8-4741-af21-b9a8b18656e3","ios":"levelo://app?vid=ebbdb265-c7b8-4741-af21-b9a8b18656e3"},"vehicle_type_id":"4","last_reported":1739819251,"current_range_meters":17200,"station_id":"ce4bhr12rcd13ifvqhqg","pricing_plan_id":"cebpf4jnsgd1na2vs0mg"},