{"last_updated":1767481862,"ttl":60,"version":"2.2","data":{"bikes":[{"bike_id":"264f6b0f-68ed-483a-a0c0-7b40e6e8d241","system_id":"levelo_inurba_marseille","lat":43.29257,"lon":5.38442,"is_reserved":false,"is_disabled":true,"rental_uris":{"android":"levelo://app?vid=264f6b0f-68ed-483a-a0c0-7b40e6e8d241","ios":"levelo://app?vid=264f6b0f-68ed-483a-a0c0-7b40e6e8d241"},"vehicle_type_id":"4","last_reported":1767481862,"current_range_meters":2800,"station_id":"ce4bh692rcd13ifvqea0","pricing_plan_id":"cebpf4jnsgd1na2vs0mg"},{"bike_id":"9feea015-e373-4e65-a8f2-66772efb3348","system_id":"levelo_inurba_marseille","lat":43.24756,"lon":5.37608,"is_reserved":false,"is_disabled":false,"rental_uris":{"android":"levelo://app?vid=9feea015-e373-4e65-a8f2-66772efb3348","ios":"levelo://app?vid=9feea015-e373-4e65-a8f2-66772efb3348"},"vehicle_type_id":"4","last_reported":1767481862,"current_range_meters":2800,"station_id":"","pricing_plan_id":"cebpf4jnsgd1na2vs0mg"},{"bike_id":"b6b7a146-8a76-4eb7-abd8-58e5d94b3994","system_id":"levelo_inurba_marseille","lat":43.24653,"lon":5.43136,"is_reserved":false,"is_disabled":false,"rental_uris":{"android":"levelo://app?vid=b6b7a146-8a76-4eb7-abd8-58e5d94b3994","ios":"levelo://app?vid=b6b7a146-8a76-4eb7-abd8-58e5d94b3994"},"vehicle_type_id":"4","last_reported":1767481862,"current_range_meters":2800,"station_id":"st_d2m6c4gdas8pm72e190g","pricing_plan_id":"cebpf4jnsgd1na2vs0mg"},{"bike_id":"9cd7b546-9fdb-45b8-982a-6c7bbc626fbf","system_id":"levelo_inurba_marseille","lat":43.30414,"lon":5.40456,"is_reserved":false,"is_disabled":false,"rental_uris":{"android":"levelo://app?vid=9cd7b546-9fdb-45b8-982a-6c7bbc626fbf","ios":"levelo://app?vid=9cd7b546-9fdb-45b8-982a-6c7bbc626fbf"},"vehicle_type_id":"4","last_reported":1767481862,"current_range_meters":2800,"station_id":"","pricing_plan_id":"cebpf4jnsgd1na2vs0mg"},{"bike_id":"c7520a13-b022-4cba-860a-1d0a7964595c","system_id":"levelo_inurba_marseille","lat":43.23069,"lon":5.35493,"is_reserved":false,"is_disabled":false,"rental_uris":{"android":"levelo://app?vid=c7520a13-b022-4cba-860a-1d0a7964595c","ios":"levelo://app?vid=c7520a13-b022-4cba-860a-1d0a7964595c"},"vehicle_type_id":"4","last_reported":1767481862,"current_range_meters":2800,"station_id":"cpo3342slgdg3j2ifvpg","pricing_plan_id":"cebpf4jnsgd1na2vs0mg"},{"bike_id":"222fb9ec-2875-4ac5-9c40-850f5a12dca5","system_id":"levelo_inurba_marseille","lat":43.22548,"lon":5.41662,"is_reserved":false,"is_disabled":false,"rental_uris":{"android":"levelo://app?vid=222fb9ec-2875-4ac5-9c40-850f5a12dca5","ios":"levelo://app?vid=222fb9ec-2875-4ac5-9c40-850f5a12dca5"},"vehicle_type_id":"4","last_reported":1767481862,"current_range_meters":2800,"station_id":"st_d2o4gvlbi1j2169b742g","pricing_plan_id":"cebpf4jnsgd1na2vs0mg"},{"bike_id":"38916ac6-b174-4c0d-8647-ba2725fe2872","system_id":"levelo_inurba_marseille","lat":43.28428,"lon":5.35006,"is_reserved":false,"is_disabled":false,"rental_uris":{"android":"levelo://app?vid=38916ac6-b174-4c0d-8647-ba2725fe2872","ios":"levelo://app?vid=38916ac6-b174-4c0d-8647-ba2725fe2872"},"vehicle_type_id":"4","last_reported":1767481862,"current_range_meters":2800,"station_id":"ce4bhbh2rcd13ifvqepg","pricing_plan_id":"cebpf4jnsgd1na2vs0mg"},{"bike_id":"43f42f89-c2a5-4108-b7ae-78a9cea84d21","system_id":"levelo_inurba_marseille","lat":43.313,"lon":5.40176,"is_reserved":false,"is_disabled":false,"rental_uris":{"android":"levelo://app?vid=43f42f89-c2a5-4108-b7ae-78a9cea84d21","ios":"levelo://app?vid=43f42f89-c2a5-4108-b7ae-78a9cea84d21"},"vehicle_type_id":"4","last_reported":1767481862,"current_range_meters":2800,"station_id":"ce4bh092rcd13ifvqd30","pricing_plan_id":"cebpf4jnsgd1na2vs0mg"},{"bike_id":"0d6bb5ad-dcd1-405b-b68d-99b30db1c271","system_id":"levelo_inurba_marseille","lat":43.27827,"lon":5.38583,"is_reserved":false,"is_disabled":false,"rental_uris":{"android":"levelo://app?vid=0d6bb5ad-dcd1-405b-b68d-99b30db1c271","ios":"levelo://app?vid=0d6bb5ad-dcd1-405b-b68d-99b30db1c271"},"vehicle_type_id":"4","last_reported":1767481862,"current_range_meters":2800,"station_id":"","pricing_plan_id":"cebpf4jnsgd1na2vs0mg"},{"bike_id":"0ddbb058-8afb-4d79-935f-599f6876fb2a","system_id":"levelo_inurba_marseille","lat":43.288498,"lon":5.393142,"is_reserved":false,"is_disabled":false,"rental_uris":{"android":"levelo://app?vid=0ddbb058-8afb-4d79-935f-599f6876fb2a","ios":"levelo://app?vid=0ddbb058-8afb-4d79-935f-599f6876fb2a"},"vehicle_type_id":"4","last_reported":1767481862,"current_range_meters":2800,"station_id":"ce4bh2p2rcd13ifvqdi0","pricing_plan_id":"cebpf4jnsgd1na2vs0mg"},{"bike_id":"2fb70dce-6adc-44dd-925f-e8d0e186f154","system_id":"levelo_inurba_marseille","lat":43.27313,"lon":5.39123,"is_reserved":false,"is_disabled":false,"rental_uris":{"android":"levelo://app?vid=2fb70dce-6adc-44dd-925f-e8d0e186f154","ios":"levelo://app?vid=2fb70dce-6adc-44dd-925f-e8d0e186f154"},"vehicle_type_id":"4","last_reported":1767481862,"current_range_meters":2800,"station_id":"ce4bhgp2rcd13ifvqfe0","pricing_plan_id":"cebpf4jnsgd1na2vs0mg"},{"bike_id":"649b874c-2158-4c53-8651-f5e61cfdd6d4","system_id":"levelo_inurba_marseille","lat":43.22538,"lon":5.34837,"is_reserved":false,"is_disabled":false,"rental_uris":{"android":"levelo://app?vid=649b874c-2158-4c53-8651-f5e61cfdd6d4","ios":"levelo://app?vid=649b874c-2158-4c53-8651-f5e61cfdd6d4"},"vehicle_type_id":"4","last_reported":1767481862,"current_range_meters":3200,"station_id":"","pricing_plan_id":"cebpf4jnsgd1na2vs0mg"},{"bike_id":"b1ea01e8-bfb1-4c5d-927e-78316f3a4fd0","system_id":"levelo_inurba_marseille","lat":43.24394,"lon":5.37072,"is_reserved":false,"is_disabled":false,"rental_uris":{"android":"levelo://app?vid=b1ea01e8-bfb1-4c5d-927e-78316f3a4fd0","ios":"levelo://app?vid=b1ea01e8-bfb1-4c5d-927e-78316f3a4fd0"},"vehicle_type_id":"4","last_reported":1767481862,"current_range_meters":3200,"station_id":"ce4bhhh2rcd13ifvqfk0","pricing_plan_id":"cebpf4jnsgd1na2vs0mg"},{"bike_id":"3e9b8a52-1c26-4230-9ad9-77fb07c3ca7e","system_id":"levelo_inurba_marseille","lat":43.314971,"lon":5.373154,"is_reserved":false,"is_disabled":false,"rental_uris":{"android":"levelo://app?vid=3e9b8a52-1c26-4230-9ad9-77fb07c3ca7e","ios":"levelo://app?vid=3e9b8a52-1c26-4230-9ad9-77fb07c3ca7e"},"vehicle_type_id":"4","last_reported":1767481862,"current_range_meters":3200,"station_id":"","pricing_plan_id":"cebpf4jnsgd1na2vs0mg"},{"bike_id":"4df93d8e-8e9d-4dff-aee2-fd2272d599f0","system_id":"levelo_inurba_marseille","lat":43.22934,"lon":5.35375,"is_reserved":false,"is_disabled":false,"rental_uris":{"android":"levelo://app?vid=4df93d8e-8e9d-4dff-aee2-fd2272d599f0","ios":"levelo://app?vid=4df93d8e-8e9d-4dff-aee2-fd2272d599f0"},"vehicle_type_id":"4","last_reported":1767481862,"current_range_meters":3200,"station_id":"cpo3532slgdg3j2ikp40","pricing_plan_id":"cebpf4jnsgd1na2vs0mg"},{"bike_id":"ce86fdf6-e10c-40d8-8f1d-92c00382a5b2","system_id":"levelo_inurba_marseille","lat":43.24382,"lon":5.3705,"is_reserved":false,"is_disabled":false,"rental_uris":{"android":"levelo://app?vid=ce86fdf6-e10c-40d8-8f1d-92c00382a5b2","ios":"levelo://app?vid=ce86fdf6-e10c-40d8-8f1d-92c00382a5b2"},"vehicle_type_id":"4","last_reported":1767481862,"current_range_meters":3200,"station_id":"ce4bhhh2rcd13ifvqfk0","pricing_plan_id":"cebpf4jnsgd1na2vs0mg"},{"bike_id":"2aad5c19-7962-4a02-9f37-3368ef728fe6","system_id":"levelo_inurba_marseille","lat":43.27517,"lon":5.42468,"is_reserved":false,"is_disabled":false,"rental_uris":{"android":"levelo://app?vid=2aad5c19-7962-4a02-9f37-3368ef728fe6","ios":"levelo://app?vid=2aad5c19-7962-4a02-9f37-3368ef728fe6"},"vehicle_type_id":"4","last_reported":1767481862,"current_range_meters":3600,"station_id":"ce4bhn92rcd13ifvqgrg","pricing_plan_id":"cebpf4jnsgd1na2vs0mg"},{"bike_id":"d43412f7-1927-4309-a5fd-7bdd488f607d","system_id":"levelo_inurba_marseille","lat":43.23144,"lon":5.43716,"is_reserved":false,"is_disabled":false,"rental_uris":{"android":"levelo://app?vid=d43412f7-1927-4309-a5fd-7bdd488f607d","ios":"levelo://app?vid=d43412f7-1927-4309-a5fd-7bdd488f607d"},"vehicle_type_id":"4","last_reported":1767481862,"current_range_meters":3600,"station_id":"ce4bhmp2rcd13ifvqgog","pricing_plan_id":"cebpf4jnsgd1na2vs0mg"},{"bike_id":"70863109-1d9f-4cf0-8c43-29a5e3efd5a3","system_id":"levelo_inurba_marseille","lat":43.28006,"lon":5.40412,"is_reserved":false,"is_disabled":false,"rental_uris":{"android":"levelo://app?vid=70863109-1d9f-4cf0-8c43-29a5e3efd5a3","ios":"levelo://app?vid=70863109-1d9f-4cf0-8c43-29a5e3efd5a3"},"vehicle_type_id":"4","last_reported":1767481862,"current_range_meters":3600,"station_id":"","pricing_plan_id":"cebpf4jnsgd1na2vs0mg"},{"bike_id":"07221466-440f-403d-96a6-d3ba4ffe9dc9","system_id":"levelo_inurba_marseille","lat":43.2917,"lon":5.37152,"is_reserved":false,"is_disabled":false,"rental_uris":{"android":"levelo://app?vid=07221466-440f-403d-96a6-d3ba4ffe9dc9","ios":"levelo://app?vid=07221466-440f-403d-96a6-d3ba4ffe9dc9"},"vehicle_type_id":"4","last_reported":1767481862,"current_range_meters":3600,"station_id":"ce4bha92rcd13ifvqeh0","pricing_plan_id":"cebpf4jnsgd1na2vs0mg"},{"bike_id":"72890b75-5ba0-49b6-b0d9-0c2ee0871d18","system_id":"levelo_inurba_marseille","lat":43.29516,"lon":5.38521,"is_reserved":false,"is_disabled":false,"rental_uris":{"android":"levelo://app?vid=72890b75-5ba0-49b6-b0d9-0c2ee0871d18","ios":"levelo://app?vid=72890b75-5ba0-49b6-b0d9-0c2ee0871d18"},"vehicle_type_id":"4","last_reported":1767481862,"current_range_meters":3600,"station_id":"ce4bgih2rcd13ifvqba0","pricing_plan_id":"cebpf4jnsgd1na2vs0mg"},{"bike_id":"135f5aae-6876-4e42-bdaa-6c13991f4488","system_id":"levelo_inurba_marseille","lat":43.24149,"lon":5.36441,"is_reserved":false,"is_disabled":false,"rental_uris":{"android":"levelo://app?vid=135f5aae-6876-4e42-bdaa-6c13991f4488","ios":"levelo://app?vid=135f5aae-6876-4e42-bdaa-6c13991f4488"},"vehicle_type_id":"4","last_reported":1767481862,"current_range_meters":3600,"station_id":"cpo36qri1sfpv3e86is0","pricing_plan_id":"cebpf4jnsgd1na2vs0mg"},{"bike_id":"4278291f-1d21-4880-a0e3-52116de91cbe","system_id":"levelo_inurba_marseille","lat":43.229248,"lon":5.353726,"is_reserved":false,"is_disabled":false,"rental_uris":{"android":"levelo://app?vid=4278291f-1d21-4880-a0e3-52116de91cbe","ios":"levelo://app?vid=4278291f-1d21-4880-a0e3-52116de91cbe"},"vehicle_type_id":"4","last_reported":1767481862,"current_range_meters":4000,"station_id":"","pricing_plan_id":"cebpf4jnsgd1na2vs0mg"},{"bike_id":"83c93d47-f18b-4628-910f-4db9fa42d2c3","system_id":"levelo_inurba_marseille","lat":43.24666,"lon":5.38151,"is_reserved":false,"is_disabled":false,"rental_uris":{"android":"levelo://app?vid=83c93d47-f18b-4628-910f-4db9fa42d2c3","ios":"levelo://app?vid=83c93d47-f18b-4628-910f-4db9fa42d2c3"},"vehicle_type_id":"4","last_reported":1767481862,"current_range_meters":4000,"station_id":"ce4bhih2rcd13ifvqfr0","pricing_plan_id":"cebpf4jnsgd1na2vs0mg"},{"bike_id":"4e907bb1-c62a-4412-977e-ab28c5745a26","system_id":"levelo_inurba_marseille","lat":43.29957,"lon":5.37182,"is_reserved":false,"is_disabled":false,"rental_uris":{"android":"levelo://app?vid=4e907bb1-c62a-4412-977e-ab28c5745a26","ios":"levelo://app?vid=4e907bb1-c62a-4412-977e-ab28c5745a26"},"vehicle_type_id":"4","last_reported":1767481862,"current_range_meters":4000,"station_id":"ce4bgr92rcd13ifvqc7g","pricing_plan_id":"cebpf4jnsgd1na2vs0mg"},{"bike_id":"61fae4ff-2397-4842-852a-e1069beef8c4","system_id":"levelo_inurba_marseille","lat":43.2856,"lon":5.44069,"is_reserved":false,"is_disabled":false,"rental_uris":{"android":"levelo://app?vid=61fae4ff-2397-4842-852a-e1069beef8c4","ios":"levelo://app?vid=61fae4ff-2397-4842-852a-e1069beef8c4"},"vehicle_type_id":"4","last_reported":1767481862,"current_range_meters":4000,"station_id":"st_d3j3df2ikq2c7380ej80","pricing_plan_id":"cebpf4jnsgd1na2vs0mg"},{"bike_id":"6f089a7e-e81b-483c-a174-dfec5ca5abcf","system_id":"levelo_inurba_marseille","lat":43.2411,"lon":5.37722,"is_reserved":false,"is_disabled":false,"rental_uris":{"android":"levelo://app?vid=6f089a7e-e81b-483c-a174-dfec5ca5abcf","ios":"levelo://app?vid=6f089a7e-e81b-483c-a174-dfec5ca5abcf"},"vehicle_type_id":"4","last_reported":1767481862,"current_range_meters":4000,"station_id":"","pricing_plan_id":"cebpf4jnsgd1na2vs0mg"},{"bike_id":"430881a2-ec0b-4a4c-b8c9-a5e85efe9cef","system_id":"levelo_inurba_marseille","lat":43.2558,"lon":5.38225,"is_reserved":false,"is_disabled":false,"rental_uris":{"android":"levelo://app?vid=430881a2-ec0b-4a4c-b8c9-a5e85efe9cef","ios":"levelo://app?vid=430881a2-ec0b-4a4c-b8c9-a5e85efe9cef"},"vehicle_type_id":"4","last_reported":1767481862,"current_range_meters":4000,"station_id":"ce4bhih2rcd13ifvqfs0","pricing_plan_id":"cebpf4jnsgd1na2vs0mg"},{"bike_id":"c0f2ee2b-8792-4e08-b0a5-b9461536319a","system_id":"levelo_inurba_marseille","lat":43.31163,"lon":5.38628,"is_reserved":false,"is_disabled":false,"rental_uris":{"android":"levelo://app?vid=c0f2ee2b-8792-4e08-b0a5-b9461536319a","ios":"levelo://app?vid=c0f2ee2b-8792-4e08-b0a5-b9461536319a"},"vehicle_type_id":"4","last_reported":1767481862,"current_range_meters":4000,"station_id":"ce4bgv12rcd13ifvqcp0","pricing_plan_id":"cebpf4jnsgd1na2vs0mg"},{"bike_id":"870badd9-8fdb-4dc1-b3ea-d7c8305523fd","system_id":"levelo_inurba_marseille","lat":43.295128,"lon":5.375002,"is_reserved":false,"is_disabled":false,"rental_uris":{"android":"levelo://app?vid=870badd9-8fdb-4dc1-b3ea-d7c8305523fd","ios":"levelo://app?vid=870badd9-8fdb-4dc1-b3ea-d7c8305523fd"},"vehicle_type_id":"4","last_reported":1767481862,"current_range_meters":4000,"station_id":"ce4bhe12rcd13ifvqf30","pricing_plan_id":"cebpf4jnsgd1na2vs0mg"},{"bike_id":"3ecab405-d6ca-4057-a83d-0721b8a2b9e2","system_id":"levelo_inurba_marseille","lat":43.25503,"lon":5.376051,"is_reserved":false,"is_disabled":false,"rental_uris":{"android":"levelo://app?vid=3ecab405-d6ca-4057-a83d-0721b8a2b9e2","ios":"levelo://app?vid=3ecab405-d6ca-4057-a83d-0721b8a2b9e2"},"vehicle_type_id":"4","last_reported":1767481862,"current_range_meters":4000,"station_id":"ce4bhh12rcd13ifvqff0","pricing_plan_id":"cebpf4jnsgd1na2vs0mg"},{"bike_id":"0cc570b7-eef1-4f82-9a7d-d8e53b279269","system_id":"levelo_inurba_marseille","lat":43.30437,"lon":5.41276,"is_reserved":false,"is_disabled":false,"rental_uris":{"android":"levelo://app?vid=0cc570b7-eef1-4f82-9a7d-d8e53b279269","ios":"levelo://app?vid=0cc570b7-eef1-4f82-9a7d-d8e53b279269"},"vehicle_type_id":"4","last_reported":1767481862,"current_range_meters":4000,"station_id":"ce4bhop2rcd13ifvqh8g","pricing_plan_id":"cebpf4jnsgd1na2vs0mg"},{"bike_id":"7fa0d496-d958-4ea6-b3df-57945d310c29","system_id":"levelo_inurba_marseille","lat":43.28456,"lon":5.358898,"is_reserved":false,"is_disabled":false,"rental_uris":{"android":"levelo://app?vid=7fa0d496-d958-4ea6-b3df-57945d310c29","ios":"levelo://app?vid=7fa0d496-d958-4ea6-b3df-57945d310c29"},"vehicle_type_id":"4","last_reported":1767481862,"current_range_meters":4400,"station_id":"ce4bhah2rcd13ifvqei0","pricing_plan_id":"cebpf4jnsgd1na2vs0mg"},{"bike_id":"65131df1-0bed-43f7-938b-a392665de4f0","system_id":"levelo_inurba_marseille","lat":43.27062,"lon":5.42259,"is_reserved":false,"is_disabled":false,"rental_uris":{"android":"levelo://app?vid=65131df1-0bed-43f7-938b-a392665de4f0","ios":"levelo://app?vid=65131df1-0bed-43f7-938b-a392665de4f0"},"vehicle_type_id":"4","last_reported":1767481862,"current_range_meters":4400,"station_id":"ce4bhk92rcd13ifvqgb0","pricing_plan_id":"cebpf4jnsgd1na2vs0mg"},{"bike_id":"06fbba04-38d2-4f98-a876-03ce9ae5ab18","system_id":"levelo_inurba_marseille","lat":43.28628,"lon":5.35105,"is_reserved":false,"is_disabled":false,"rental_uris":{"android":"levelo://app?vid=06fbba04-38d2-4f98-a876-03ce9ae5ab18","ios":"levelo://app?vid=06fbba04-38d2-4f98-a876-03ce9ae5ab18"},"vehicle_type_id":"4","last_reported":1767481862,"current_range_meters":4400,"station_id":"ce4bhch2rcd13ifvqeug","pricing_plan_id":"cebpf4jnsgd1na2vs0mg"},{"bike_id":"67bf8f90-a5df-42e7-b267-9ae66edff758","system_id":"levelo_inurba_marseille","lat":43.3062,"lon":5.37621,"is_reserved":false,"is_disabled":false,"rental_uris":{"android":"levelo://app?vid=67bf8f90-a5df-42e7-b267-9ae66edff758","ios":"levelo://app?vid=67bf8f90-a5df-42e7-b267-9ae66edff758"},"vehicle_type_id":"4","last_reported":1767481862,"current_range_meters":4400,"station_id":"","pricing_plan_id":"cebpf4jnsgd1na2vs0mg"},{"bike_id":"f88d60d0-86d2-4d4b-b3b2-e73e0d897671","system_id":"levelo_inurba_marseille","lat":43.28374,"lon":5.39657,"is_reserved":false,"is_disabled":true,"rental_uris":{"android":"levelo://app?vid=f88d60d0-86d2-4d4b-b3b2-e73e0d897671","ios":"levelo://app?vid=f88d60d0-86d2-4d4b-b3b2-e73e0d897671"},"vehicle_type_id":"4","last_reported":1767481862,"current_range_meters":4400,"station_id":"","pricing_plan_id":"cebpf4jnsgd1na2vs0mg"},{"bike_id":"d40541a1-0c42-4549-90c0-b0bcca8c68bd","system_id":"levelo_inurba_marseille","lat":43.27837,"lon":5.39213,"is_reserved":false,"is_disabled":false,"rental_uris":{"android":"levelo://app?vid=d40541a1-0c42-4549-90c0-b0bcca8c68bd","ios":"levelo://app?vid=d40541a1-0c42-4549-90c0-b0bcca8c68bd"},"vehicle_type_id":"4","last_reported":1767481862,"current_range_meters":4400,"station_id":"ce4bhjp2rcd13ifvqga0","pricing_plan_id":"cebpf4jnsgd1na2vs0mg"},{"bike_id":"f67fdd8e-3a18-4359-8f12-09494150cb39","system_id":"levelo_inurba_marseille","lat":43.24415,"lon":5.37065,"is_reserved":false,"is_disabled":false,"rental_uris":{"android":"levelo://app?vid=f67fdd8e-3a18-4359-8f12-09494150cb39","ios":"levelo://app?vid=f67fdd8e-3a18-4359-8f12-09494150cb39"},"vehicle_type_id":"4","last_reported":1767481862,"current_range_meters":4400,"station_id":"ce4bhhh2rcd13ifvqfk0","pricing_plan_id":"cebpf4jnsgd1na2vs0mg"},{"bike_id":"93e27f2e-18ba-40e2-aeee-5f11ac3d2fb5","system_id":"levelo_inurba_marseille","lat":43.29923,"lon":5.36533,"is_reserved":false,"is_disabled":false,"rental_uris":{"android":"levelo://app?vid=93e27f2e-18ba-40e2-aeee-5f11ac3d2fb5","ios":"levelo://app?vid=93e27f2e-18ba-40e2-aeee-5f11ac3d2fb5"},"vehicle_type_id":"4","last_reported":1767481862,"current_range_meters":4400,"station_id":"ce4bgm92rcd13ifvqbr0","pricing_plan_id":"cebpf4jnsgd1na2vs0mg"},{"bike_id":"02cb24cc-e062-4b73-80fd-141f91a697f7","system_id":"levelo_inurba_marseille","lat":43.31574,"lon":5.37707,"is_reserved":false,"is_disabled":false,"rental_uris":{"android":"levelo://app?vid=02cb24cc-e062-4b73-80fd-141f91a697f7","ios":"levelo://app?vid=02cb24cc-e062-4b73-80fd-141f91a697f7"},"vehicle_type_id":"4","last_reported":1767481862,"current_range_meters":4400,"station_id":"","pricing_plan_id":"cebpf4jnsgd1na2vs0mg"},{"bike_id":"dd14b827-6e9c-4127-a177-b745b75f66cf","system_id":"levelo_inurba_marseille","lat":43.24654,"lon":5.38164,"is_reserved":false,"is_disabled":false,"rental_uris":{"android":"levelo://app?vid=dd14b827-6e9c-4127-a177-b745b75f66cf","ios":"levelo://app?vid=dd14b827-6e9c-4127-a177-b745b75f66cf"},"vehicle_type_id":"4","last_reported":1767481862,"current_range_meters":4400,"station_id":"ce4bhih2rcd13ifvqfr0","pricing_plan_id":"cebpf4jnsgd1na2vs0mg"},{"bike_id":"f6da5d95-02e5-41e7-b5d8-ae93141b63e9","system_id":"levelo_inurba_marseille","lat":43.295212,"lon":5.39399,"is_reserved":false,"is_disabled":false,"rental_uris":{"android":"levelo://app?vid=f6da5d95-02e5-41e7-b5d8-ae93141b63e9","ios":"levelo://app?vid=f6da5d95-02e5-41e7-b5d8-ae93141b63e9"},"vehicle_type_id":"4","last_reported":1767481862,"current_range_meters":4800,"station_id":"ce4bh292rcd13ifvqdf0","pricing_plan_id":"cebpf4jnsgd1na2vs0mg"},{"bike_id":"055a4ca7-bca3-4cb6-bb50-804fce11abb5","system_id":"levelo_inurba_marseille","lat":43.29703,"lon":5.36583,"is_reserved":false,"is_disabled":false,"rental_uris":{"android":"levelo://app?vid=055a4ca7-bca3-4cb6-bb50-804fce11abb5","ios":"levelo://app?vid=055a4ca7-bca3-4cb6-bb50-804fce11abb5"},"vehicle_type_id":"4","last_reported":1767481862,"current_range_meters":4800,"station_id":"ce4bgn12rcd13ifvqbt0","pricing_plan_id":"cebpf4jnsgd1na2vs0mg"},{"bike_id":"cacd189b-364d-4b1a-8882-a16ba27a8c11","system_id":"levelo_inurba_marseille","lat":43.23827,"lon":5.36622,"is_reserved":false,"is_disabled":false,"rental_uris":{"android":"levelo://app?vid=cacd189b-364d-4b1a-8882-a16ba27a8c11","ios":"levelo://app?vid=cacd189b-364d-4b1a-8882-a16ba27a8c11"},"vehicle_type_id":"4","last_reported":1767481862,"current_range_meters":4800,"station_id":"","pricing_plan_id":"cebpf4jnsgd1na2vs0mg"},{"bike_id":"8b720c35-4823-48af-825c-0c71ab5317be","system_id":"levelo_inurba_marseille","lat":43.27951,"lon":5.41063,"is_reserved":false,"is_disabled":true,"rental_uris":{"android":"levelo://app?vid=8b720c35-4823-48af-825c-0c71ab5317be","ios":"levelo://app?vid=8b720c35-4823-48af-825c-0c71ab5317be"},"vehicle_type_id":"4","last_reported":1767481862,"current_range_meters":4800,"station_id":"ce4bhnp2rcd13ifvqh0g","pricing_plan_id":"cebpf4jnsgd1na2vs0mg"},{"bike_id":"989239f2-3929-421d-9620-92e58bc7df90","system_id":"levelo_inurba_marseille","lat":43.28417,"lon":5.34995,"is_reserved":false,"is_disabled":false,"rental_uris":{"android":"levelo://app?vid=989239f2-3929-421d-9620-92e58bc7df90","ios":"levelo://app?vid=989239f2-3929-421d-9620-92e58bc7df90"},"vehicle_type_id":"4","last_reported":1767481862,"current_range_meters":4800,"station_id":"ce4bhbh2rcd13ifvqepg","pricing_plan_id":"cebpf4jnsgd1na2vs0mg"},{"bike_id":"9ac66994-272c-4446-9157-a3f28373efae","system_id":"levelo_inurba_marseille","lat":43.24643,"lon":5.43159,"is_reserved":false,"is_disabled":false,"rental_uris":{"android":"levelo://app?vid=9ac66994-272c-4446-9157-a3f28373efae","ios":"levelo://app?vid=9ac66994-272c-4446-9157-a3f28373efae"},"vehicle_type_id":"4","last_reported":1767481862,"current_range_meters":4800,"station_id":"st_d2m6c4gdas8pm72e190g","pricing_plan_id":"cebpf4jnsgd1na2vs0mg"},{"bike_id":"ed66bf8a-0755-4214-ab92-16f8a5a8cb2f","system_id":"levelo_inurba_marseille","lat":43.298401,"lon":5.362704,"is_reserved":false,"is_disabled":false,"rental_uris":{"android":"levelo://app?vid=ed66bf8a-0755-4214-ab92-16f8a5a8cb2f","ios":"levelo://app?vid=ed66bf8a-0755-4214-ab92-16f8a5a8cb2f"},"vehicle_type_id":"4","last_reported":1767481862,"current_range_meters":5600,"station_id":"ce4bgpp2rcd13ifvqc3g","pricing_plan_id":"cebpf4jnsgd1na2vs0mg"},{"bike_id":"ddadb22a-87ae-403a-8f50-fcfddb4a2105","system_id":"levelo_inurba_marseille","lat":43.28504,"lon":5.38424,"is_reserved":false,"is_disabled":false,"rental_uris":{"android":"levelo://app?vid=ddadb22a-87ae-403a-8f50-fcfddb4a2105","ios":"levelo://app?vid=ddadb22a-87ae-403a-8f50-fcfddb4a2105"},"vehicle_type_id":"4","last_reported":1767481862,"current_range_meters":5600,"station_id":"ce4bh512rcd13ifvqe3g","pricing_plan_id":"cebpf4jnsgd1na2vs0mg"},{"bike_id":"c4be737e-0225-4e9a-bbc0-5bf5b52c2f6f","system_id":"levelo_inurba_marseille","lat":43.26581,"lon":5.39011,"is_reserved":false,"is_disabled":false,"rental_uris":{"android":"levelo://app?vid=c4be737e-0225-4e9a-bbc0-5bf5b52c2f6f","ios":"levelo://app?vid=c4be737e-0225-4e9a-bbc0-5bf5b52c2f6f"},"vehicle_type_id":"4","last_reported":1767481862,"current_range_meters":5600,"station_id":"ce4bhe12rcd13ifvqf30","pricing_plan_id":"cebpf4jnsgd1na2vs0mg"},{"bike_id":"9255467e-14b4-4b38-a086-cb9c5423bc3f","system_id":"levelo_inurba_marseille","lat":43.29372,"lon":5.37859,"is_reserved":false,"is_disabled":false,"rental_uris":{"android":"levelo://app?vid=9255467e-14b4-4b38-a086-cb9c5423bc3f","ios":"levelo://app?vid=9255467e-14b4-4b38-a086-cb9c5423bc3f"},"vehicle_type_id":"4","last_reported":1767481862,"current_range_meters":5600,"station_id":"ce4bgjh2rcd13ifvqbf0","pricing_plan_id":"cebpf4jnsgd1na2vs0mg"},{"bike_id":"90e1e02c-2ee4-42ee-9771-c9f4d63e0c2f","system_id":"levelo_inurba_marseille","lat":43.29036,"lon":5.38645,"is_reserved":false,"is_disabled":false,"rental_uris":{"android":"levelo://app?vid=90e1e02c-2ee4-42ee-9771-c9f4d63e0c2f","ios":"levelo://app?vid=90e1e02c-2ee4-42ee-9771-c9f4d63e0c2f"},"vehicle_type_id":"4","last_reported":1767481862,"current_range_meters":5600,"station_id":"ce4bh4p2rcd13ifvqe0g","pricing_plan_id":"cebpf4jnsgd1na2vs0mg"},{"bike_id":"3b391aa1-1907-4005-88cc-7a9ac12c81d0","system_id":"levelo_inurba_marseille","lat":43.23964,"lon":5.36615,"is_reserved":false,"is_disabled":false,"rental_uris":{"android":"levelo://app?vid=3b391aa1-1907-4005-88cc-7a9ac12c81d0","ios":"levelo://app?vid=3b391aa1-1907-4005-88cc-7a9ac12c81d0"},"vehicle_type_id":"4","last_reported":1767481862,"current_range_meters":5600,"station_id":"ce4bhi12rcd13ifvqfp0","pricing_plan_id":"cebpf4jnsgd1na2vs0mg"},{"bike_id":"eebe5854-7982-4b9e-b627-19ff5d579400","system_id":"levelo_inurba_marseille","lat":43.2963,"lon":5.3714,"is_reserved":false,"is_disabled":false,"rental_uris":{"android":"levelo://app?vid=eebe5854-7982-4b9e-b627-19ff5d579400","ios":"levelo://app?vid=eebe5854-7982-4b9e-b627-19ff5d579400"},"vehicle_type_id":"4","last_reported":1767481862,"current_range_meters":5600,"station_id":"ce4bgnh2rcd13ifvqc0g","pricing_plan_id":"cebpf4jnsgd1na2vs0mg"},{"bike_id":"0c95dd9f-c660-4b76-b09f-1fe6a5fcdd5e","system_id":"levelo_inurba_marseille","lat":43.32362,"lon":5.36744,"is_reserved":false,"is_disabled":false,"rental_uris":{"android":"levelo://app?vid=0c95dd9f-c660-4b76-b09f-1fe6a5fcdd5e","ios":"levelo://app?vid=0c95dd9f-c660-4b76-b09f-1fe6a5fcdd5e"},"vehicle_type_id":"4","last_reported":1767481862,"current_range_meters":5600,"station_id":"ce4bhsh2rcd13ifvqi2g","pricing_plan_id":"cebpf4jnsgd1na2vs0mg"},{"bike_id":"2cd74853-5047-4511-932d-69e4273bcd1e","system_id":"levelo_inurba_marseille","lat":43.22925,"lon":5.35376,"is_reserved":false,"is_disabled":false,"rental_uris":{"android":"levelo://app?vid=2cd74853-5047-4511-932d-69e4273bcd1e","ios":"levelo://app?vid=2cd74853-5047-4511-932d-69e4273bcd1e"},"vehicle_type_id":"4","last_reported":1767481862,"current_range_meters":5600,"station_id":"","pricing_plan_id":"cebpf4jnsgd1na2vs0mg"},{"bike_id":"650cf425-f87e-4c30-9156-354d5fef94cd","system_id":"levelo_inurba_marseille","lat":43.30119,"lon":5.36742,"is_reserved":false,"is_disabled":false,"rental_uris":{"android":"levelo://app?vid=650cf425-f87e-4c30-9156-354d5fef94cd","ios":"levelo://app?vid=650cf425-f87e-4c30-9156-354d5fef94cd"},"vehicle_type_id":"4","last_reported":1767481862,"current_range_meters":5600,"station_id":"","pricing_plan_id":"cebpf4jnsgd1na2vs0mg"},{"bike_id":"e9946f23-a16f-4b6d-a8aa-e4b6ba3d7478","system_id":"levelo_inurba_marseille","lat":43.286,"lon":5.39961,"is_reserved":false,"is_disabled":false,"rental_uris":{"android":"levelo://app?vid=e9946f23-a16f-4b6d-a8aa-e4b6ba3d7478","ios":"levelo://app?vid=e9946f23-a16f-4b6d-a8aa-e4b6ba3d7478"},"vehicle_type_id":"4","last_reported":1767481862,"current_range_meters":5600,"station_id":"","pricing_plan_id":"cebpf4jnsgd1na2vs0mg"},{"bike_id":"b069e66b-3d24-44ee-a3b6-26964d74bee5","system_id":"levelo_inurba_marseille","lat":43.28002,"lon":5.40569,"is_reserved":false,"is_disabled":false,"rental_uris":{"android":"levelo://app?vid=b069e66b-3d24-44ee-a3b6-26964d74bee5","ios":"levelo://app?vid=b069e66b-3d24-44ee-a3b6-26964d74bee5"},"vehicle_type_id":"4","last_reported":1767481862,"current_range_meters":5600,"station_id":"","pricing_plan_id":"cebpf4jnsgd1na2vs0mg"},{"bike_id":"dd60840a-766b-49e6-9f15-3ac6fb6b44d8","system_id":"levelo_inurba_marseille","lat":43.30159,"lon":5.37419,"is_reserved":false,"is_disabled":false,"rental_uris":{"android":"levelo://app?vid=dd60840a-766b-49e6-9f15-3ac6fb6b44d8","ios":"levelo://app?vid=dd60840a-766b-49e6-9f15-3ac6fb6b44d8"},"vehicle_type_id":"4","last_reported":1767481862,"current_range_meters":5600,"station_id":"ce4bgs92rcd13ifvqcc0","pricing_plan_id":"cebpf4jnsgd1na2vs0mg"},{"bike_id":"0ec00df7-3d5b-4681-970c-d49011aaf88f","system_id":"levelo_inurba_marseille","lat":43.27812,"lon":5.39191,"is_reserved":false,"is_disabled":false,"rental_uris":{"android":"levelo://app?vid=0ec00df7-3d5b-4681-970c-d49011aaf88f","ios":"levelo://app?vid=0ec00df7-3d5b-4681-970c-d49011aaf88f"},"vehicle_type_id":"4","last_reported":1767481862,"current_range_meters":5600,"station_id":"ce4bhjp2rcd13ifvqga0","pricing_plan_id":"cebpf4jnsgd1na2vs0mg"},{"bike_id":"7304dd23-e185-4b36-b681-fec4a7828f7d","system_id":"levelo_inurba_marseille","lat":43.24173,"lon":5.39721,"is_reserved":false,"is_disabled":false,"rental_uris":{"android":"levelo://app?vid=7304dd23-e185-4b36-b681-fec4a7828f7d","ios":"levelo://app?vid=7304dd23-e185-4b36-b681-fec4a7828f7d"},"vehicle_type_id":"4","last_reported":1767481862,"current_range_meters":5600,"station_id":"ce4bhn12rcd13ifvqgpg","pricing_plan_id":"cebpf4jnsgd1na2vs0mg"},{"bike_id":"ef571db9-6dc4-4434-a047-459ec60cc0fd","system_id":"levelo_inurba_marseille","lat":43.29046,"lon":5.37161,"is_reserved":false,"is_disabled":false,"rental_uris":{"android":"levelo://app?vid=ef571db9-6dc4-4434-a047-459ec60cc0fd","ios":"levelo://app?vid=ef571db9-6dc4-4434-a047-459ec60cc0fd"},"vehicle_type_id":"4","last_reported":1767481862,"current_range_meters":5600,"station_id":"ce4bh5p2rcd13ifvqe4g","pricing_plan_id":"cebpf4jnsgd1na2vs0mg"},{"bike_id":"6af309a2-8f26-4463-a2f8-b68c7d811285","system_id":"levelo_inurba_marseille","lat":43.30841,"lon":5.37516,"is_reserved":false,"is_disabled":false,"rental_uris":{"android":"levelo://app?vid=6af309a2-8f26-4463-a2f8-b68c7d811285","ios":"levelo://app?vid=6af309a2-8f26-4463-a2f8-b68c7d811285"},"vehicle_type_id":"4","last_reported":1767481862,"current_range_meters":6000,"station_id":"","pricing_plan_id":"cebpf4jnsgd1na2vs0mg"},{"bike_id":"1cb07a07-9f8b-49b3-899d-e4d88daca5ff","system_id":"levelo_inurba_marseille","lat":43.2603,"lon":5.40757,"is_reserved":false,"is_disabled":false,"rental_uris":{"android":"levelo://app?vid=1cb07a07-9f8b-49b3-899d-e4d88daca5ff","ios":"levelo://app?vid=1cb07a07-9f8b-49b3-899d-e4d88daca5ff"},"vehicle_type_id":"4","last_reported":1767481862,"current_range_meters":6000,"station_id":"","pricing_plan_id":"cebpf4jnsgd1na2vs0mg"},{"bike_id":"dc9feb7e-742c-4c15-83bb-7db4fa4848d4","system_id":"levelo_inurba_marseille","lat":43.32845,"lon":5.36683,"is_reserved":false,"is_disabled":false,"rental_uris":{"android":"levelo://app?vid=dc9feb7e-742c-4c15-83bb-7db4fa4848d4","ios":"levelo://app?vid=dc9feb7e-742c-4c15-83bb-7db4fa4848d4"},"vehicle_type_id":"4","last_reported":1767481862,"current_range_meters":6000,"station_id":"","pricing_plan_id":"cebpf4jnsgd1na2vs0mg"},{"bike_id":"1a9cb749-bacd-49f4-9f8b-e93e98ea3f8f","system_id":"levelo_inurba_marseille","lat":43.30113,"lon":5.38227,"is_reserved":false,"is_disabled":false,"rental_uris":{"android":"levelo://app?vid=1a9cb749-bacd-49f4-9f8b-e93e98ea3f8f","ios":"levelo://app?vid=1a9cb749-bacd-49f4-9f8b-e93e98ea3f8f"},"vehicle_type_id":"4","last_reported":1767481862,"current_range_meters":6000,"station_id":"","pricing_plan_id":"cebpf4jnsgd1na2vs0mg"},{"bike_id":"47a9e8ce-5a44-441a-9695-e8dc7f3c9dfa","system_id":"levelo_inurba_marseille","lat":43.30735,"lon":5.42434,"is_reserved":false,"is_disabled":false,"rental_uris":{"android":"levelo://app?vid=47a9e8ce-5a44-441a-9695-e8dc7f3c9dfa","ios":"levelo://app?vid=47a9e8ce-5a44-441a-9695-e8dc7f3c9dfa"},"vehicle_type_id":"4","last_reported":1767481862,"current_range_meters":6000,"station_id":"st_cvj6ca6bvosntc0bfgr0","pricing_plan_id":"cebpf4jnsgd1na2vs0mg"},{"bike_id":"d21a3e34-58bc-4d1b-9ac9-a8532bb50fd1","system_id":"levelo_inurba_marseille","lat":43.29847,"lon":5.4406,"is_reserved":false,"is_disabled":false,"rental_uris":{"android":"levelo://app?vid=d21a3e34-58bc-4d1b-9ac9-a8532bb50fd1","ios":"levelo://app?vid=d21a3e34-58bc-4d1b-9ac9-a8532bb50fd1"},"vehicle_type_id":"4","last_reported":1767481862,"current_range_meters":6000,"station_id":"","pricing_plan_id":"cebpf4jnsgd1na2vs0mg"},{"bike_id":"1e895ccc-52e7-4971-b1eb-1726250f7268","system_id":"levelo_inurba_marseille","lat":43.23036,"lon":5.35347,"is_reserved":false,"is_disabled":false,"rental_uris":{"android":"levelo://app?vid=1e895ccc-52e7-4971-b1eb-1726250f7268","ios":"levelo://app?vid=1e895ccc-52e7-4971-b1eb-1726250f7268"},"vehicle_type_id":"4","last_reported":1767481862,"current_range_meters":6000,"station_id":"","pricing_plan_id":"cebpf4jnsgd1na2vs0mg"},{"bike_id":"8ce78bae-db8a-4d0d-a610-7b09e4add19f","system_id":"levelo_inurba_marseille","lat":43.271681,"lon":5.409879,"is_reserved":false,"is_disabled":false,"rental_uris":{"android":"levelo://app?vid=8ce78bae-db8a-4d0d-a610-7b09e4add19f","ios":"levelo://app?vid=8ce78bae-db8a-4d0d-a610-7b09e4add19f"},"vehicle_type_id":"4","last_reported":1767481862,"current_range_meters":6000,"station_id":"ce4bhl12rcd13ifvqgf0","pricing_plan_id":"cebpf4jnsgd1na2vs0mg"},{"bike_id":"bd110501-2fac-4bc4-a847-9e0950144712","system_id":"levelo_inurba_marseille","lat":43.279516,"lon":5.387026,"is_reserved":false,"is_disabled":false,"rental_uris":{"android":"levelo://app?vid=bd110501-2fac-4bc4-a847-9e0950144712","ios":"levelo://app?vid=bd110501-2fac-4bc4-a847-9e0950144712"},"vehicle_type_id":"4","last_reported":1767481862,"current_range_meters":6000,"station_id":"ce4bhg12rcd13ifvqf80","pricing_plan_id":"cebpf4jnsgd1na2vs0mg"},{"bike_id":"074722cb-2569-4df8-9492-e46ca66ccdc6","system_id":"levelo_inurba_marseille","lat":43.31113,"lon":5.37185,"is_reserved":false,"is_disabled":false,"rental_uris":{"android":"levelo://app?vid=074722cb-2569-4df8-9492-e46ca66ccdc6","ios":"levelo://app?vid=074722cb-2569-4df8-9492-e46ca66ccdc6"},"vehicle_type_id":"4","last_reported":1767481862,"current_range_meters":6400,"station_id":"","pricing_plan_id":"cebpf4jnsgd1na2vs0mg"},{"bike_id":"0791eb7e-5676-4c6e-87cd-e454c991cf85","system_id":"levelo_inurba_marseille","lat":43.28488,"lon":5.37558,"is_reserved":false,"is_disabled":false,"rental_uris":{"android":"levelo://app?vid=0791eb7e-5676-4c6e-87cd-e454c991cf85","ios":"levelo://app?vid=0791eb7e-5676-4c6e-87cd-e454c991cf85"},"vehicle_type_id":"4","last_reported":1767481862,"current_range_meters":6400,"station_id":"","pricing_plan_id":"cebpf4jnsgd1na2vs0mg"},{"bike_id":"34f3a292-6f55-4da9-baea-9c8e3ef09af6","system_id":"levelo_inurba_marseille","lat":43.25528,"lon":5.37645,"is_reserved":false,"is_disabled":false,"rental_uris":{"android":"levelo://app?vid=34f3a292-6f55-4da9-baea-9c8e3ef09af6","ios":"levelo://app?vid=34f3a292-6f55-4da9-baea-9c8e3ef09af6"},"vehicle_type_id":"4","last_reported":1767481862,"current_range_meters":6400,"station_id":"ce4bhh12rcd13ifvqff0","pricing_plan_id":"cebpf4jnsgd1na2vs0mg"},{"bike_id":"607f6356-92f4-49b1-8436-7911c576c661","system_id":"levelo_inurba_marseille","lat":43.29273,"lon":5.37385,"is_reserved":false,"is_disabled":false,"rental_uris":{"android":"levelo://app?vid=607f6356-92f4-49b1-8436-7911c576c661","ios":"levelo://app?vid=607f6356-92f4-49b1-8436-7911c576c661"},"vehicle_type_id":"4","last_reported":1767481862,"current_range_meters":6400,"station_id":"","pricing_plan_id":"cebpf4jnsgd1na2vs0mg"},{"bike_id":"faae1c22-eb69-4a6a-9fdd-05bf4896a93c","system_id":"levelo_inurba_marseille","lat":43.28502,"lon":5.48405,"is_reserved":false,"is_disabled":false,"rental_uris":{"android":"levelo://app?vid=faae1c22-eb69-4a6a-9fdd-05bf4896a93c","ios":"levelo://app?vid=faae1c22-eb69-4a6a-9fdd-05bf4896a93c"},"vehicle_type_id":"4","last_reported":1767481862,"current_range_meters":6400,"station_id":"","pricing_plan_id":"cebpf4jnsgd1na2vs0mg"},{"bike_id":"be59f674-a0bd-4fc3-a219-9eada39112de","system_id":"levelo_inurba_marseille","lat":43.29931,"lon":5.37371,"is_reserved":false,"is_disabled":false,"rental_uris":{"android":"levelo://app?vid=be59f674-a0bd-4fc3-a219-9eada39112de","ios":"levelo://app?vid=be59f674-a0bd-4fc3-a219-9eada39112de"},"vehicle_type_id":"4","last_reported":1767481862,"current_range_meters":6400,"station_id":"","pricing_plan_id":"cebpf4jnsgd1na2vs0mg"},{"bike_id":"3170b344-ccb5-4e10-87d2-0bfacd70bd7f","system_id":"levelo_inurba_marseille","lat":43.29611,"lon":5.37725,"is_reserved":false,"is_disabled":false,"rental_uris":{"android":"levelo://app?vid=3170b344-ccb5-4e10-87d2-0bfacd70bd7f","ios":"levelo://app?vid=3170b344-ccb5-4e10-87d2-0bfacd70bd7f"},"vehicle_type_id":"4","last_reported":1767481862,"current_range_meters":6400,"station_id":"ce4bgi92rcd13ifvqb90","pricing_plan_id":"cebpf4jnsgd1na2vs0mg"},{"bike_id":"369c8c7b-dd26-491c-8ac1-e59e015c794f","system_id":"levelo_inurba_marseille","lat":43.27799,"lon":5.40682,"is_reserved":false,"is_disabled":false,"rental_uris":{"android":"levelo://app?vid=369c8c7b-dd26-491c-8ac1-e59e015c794f","ios":"levelo://app?vid=369c8c7b-dd26-491c-8ac1-e59e015c794f"},"vehicle_type_id":"4","last_reported":1767481862,"current_range_meters":6400,"station_id":"ce4bhnh2rcd13ifvqgtg","pricing_plan_id":"cebpf4jnsgd1na2vs0mg"},{"bike_id":"f73476a1-8b2a-42dc-b112-79fd77bdf5e0","system_id":"levelo_inurba_marseille","lat":43.27185,"lon":5.409947,"is_reserved":false,"is_disabled":false,"rental_uris":{"android":"levelo://app?vid=f73476a1-8b2a-42dc-b112-79fd77bdf5e0","ios":"levelo://app?vid=f73476a1-8b2a-42dc-b112-79fd77bdf5e0"},"vehicle_type_id":"4","last_reported":1767481862,"current_range_meters":6400,"station_id":"ce4bhl12rcd13ifvqgf0","pricing_plan_id":"cebpf4jnsgd1na2vs0mg"},{"bike_id":"b8312627-13c4-4db1-bc05-2c9ecea4546c","system_id":"levelo_inurba_marseille","lat":43.28454,"lon":5.39241,"is_reserved":false,"is_disabled":false,"rental_uris":{"android":"levelo://app?vid=b8312627-13c4-4db1-bc05-2c9ecea4546c","ios":"levelo://app?vid=b8312627-13c4-4db1-bc05-2c9ecea4546c"},"vehicle_type_id":"4","last_reported":1767481862,"current_range_meters":6400,"station_id":"ce4bhoh2rcd13ifvqh5g","pricing_plan_id":"cebpf4jnsgd1na2vs0mg"},{"bike_id":"ddea6b53-a329-474e-b86a-40e23ca5f3fa","system_id":"levelo_inurba_marseille","lat":43.26228,"lon":5.37419,"is_reserved":false,"is_disabled":false,"rental_uris":{"android":"levelo://app?vid=ddea6b53-a329-474e-b86a-40e23ca5f3fa","ios":"levelo://app?vid=ddea6b53-a329-474e-b86a-40e23ca5f3fa"},"vehicle_type_id":"4","last_reported":1767481862,"current_range_meters":6400,"station_id":"ce4bhgp2rcd13ifvqfc0","pricing_plan_id":"cebpf4jnsgd1na2vs0mg"},{"bike_id":"89bf8d0b-0109-4d46-bf26-285da566958b","system_id":"levelo_inurba_marseille","lat":43.31492,"lon":5.37301,"is_reserved":false,"is_disabled":true,"rental_uris":{"android":"levelo://app?vid=89bf8d0b-0109-4d46-bf26-285da566958b","ios":"levelo://app?vid=89bf8d0b-0109-4d46-bf26-285da566958b"},"vehicle_type_id":"4","last_reported":1767481862,"current_range_meters":6400,"station_id":"ce4bgt12rcd13ifvqcd0","pricing_plan_id":"cebpf4jnsgd1na2vs0mg"},{"bike_id":"91458b19-cb25-4f18-83db-4ba9d96005a9","system_id":"levelo_inurba_marseille","lat":43.28594,"lon":5.39905,"is_reserved":false,"is_disabled":false,"rental_uris":{"android":"levelo://app?vid=91458b19-cb25-4f18-83db-4ba9d96005a9","ios":"levelo://app?vid=91458b19-cb25-4f18-83db-4ba9d96005a9"},"vehicle_type_id":"4","last_reported":1767481862,"current_range_meters":6400,"station_id":"ce4bho92rcd13ifvqh3g","pricing_plan_id":"cebpf4jnsgd1na2vs0mg"},{"bike_id":"32088daf-19b4-43c2-bb3d-ac36d2b03bd3","system_id":"levelo_inurba_marseille","lat":43.24399,"lon":5.37069,"is_reserved":false,"is_disabled":false,"rental_uris":{"android":"levelo://app?vid=32088daf-19b4-43c2-bb3d-ac36d2b03bd3","ios":"levelo://app?vid=32088daf-19b4-43c2-bb3d-ac36d2b03bd3"},"vehicle_type_id":"4","last_reported":1767481862,"current_range_meters":6400,"station_id":"ce4bhhh2rcd13ifvqfk0","pricing_plan_id":"cebpf4jnsgd1na2vs0mg"},{"bike_id":"a5e341dd-f678-4ec1-a7c6-1c53bd98d5b6","system_id":"levelo_inurba_marseille","lat":43.29732,"lon":5.38048,"is_reserved":false,"is_disabled":false,"rental_uris":{"android":"levelo://app?vid=a5e341dd-f678-4ec1-a7c6-1c53bd98d5b6","ios":"levelo://app?vid=a5e341dd-f678-4ec1-a7c6-1c53bd98d5b6"},"vehicle_type_id":"4","last_reported":1767481862,"current_range_meters":6400,"station_id":"","pricing_plan_id":"cebpf4jnsgd1na2vs0mg"},{"bike_id":"eebd9e1f-1ba5-43d8-ba3e-599639161f1a","system_id":"levelo_inurba_marseille","lat":43.27345,"lon":5.39053,"is_reserved":false,"is_disabled":false,"rental_uris":{"android":"levelo://app?vid=eebd9e1f-1ba5-43d8-ba3e-599639161f1a","ios":"levelo://app?vid=eebd9e1f-1ba5-43d8-ba3e-599639161f1a"},"vehicle_type_id":"4","last_reported":1767481862,"current_range_meters":6400,"station_id":"ce4bhgp2rcd13ifvqfe0","pricing_plan_id":"cebpf4jnsgd1na2vs0mg"},{"bike_id":"596f9f2e-754a-4bff-95d7-fb2758b09a2e","system_id":"levelo_inurba_marseille","lat":43.32375,"lon":5.36723,"is_reserved":false,"is_disabled":false,"rental_uris":{"android":"levelo://app?vid=596f9f2e-754a-4bff-95d7-fb2758b09a2e","ios":"levelo://app?vid=596f9f2e-754a-4bff-95d7-fb2758b09a2e"},"vehicle_type_id":"4","last_reported":1767481862,"current_range_meters":6400,"station_id":"ce4bhsh2rcd13ifvqi2g","pricing_plan_id":"cebpf4jnsgd1na2vs0mg"},{"bike_id":"d21ecf43-9b53-4ee7-aa3a-25d90ceab79f","system_id":"levelo_inurba_marseille","lat":43.24088,"lon":5.37758,"is_reserved":false,"is_disabled":false,"rental_uris":{"android":"levelo://app?vid=d21ecf43-9b53-4ee7-aa3a-25d90ceab79f","ios":"levelo://app?vid=d21ecf43-9b53-4ee7-aa3a-25d90ceab79f"},"vehicle_type_id":"4","last_reported":1767481862,"current_range_meters":6400,"station_id":"ce4bhnp2rcd13ifvqgvg","pricing_plan_id":"cebpf4jnsgd1na2vs0mg"},{"bike_id":"f6a515b6-0743-4a5b-b2ec-32565099009c","system_id":"levelo_inurba_marseille","lat":43.2379,"lon":5.36634,"is_reserved":false,"is_disabled":false,"rental_uris":{"android":"levelo://app?vid=f6a515b6-0743-4a5b-b2ec-32565099009c","ios":"levelo://app?vid=f6a515b6-0743-4a5b-b2ec-32565099009c"},"vehicle_type_id":"4","last_reported":1767481862,"current_range_meters":6400,"station_id":"st_d3nk18o9ro0c73en2l3g","pricing_plan_id":"cebpf4jnsgd1na2vs0mg"},{"bike_id":"145bab88-2f1e-4291-8a33-4a944fe2542c","system_id":"levelo_inurba_marseille","lat":43.29519,"lon":5.37504,"is_reserved":false,"is_disabled":false,"rental_uris":{"android":"levelo://app?vid=145bab88-2f1e-4291-8a33-4a944fe2542c","ios":"levelo://app?vid=145bab88-2f1e-4291-8a33-4a944fe2542c"},"vehicle_type_id":"4","last_reported":1767481862,"current_range_meters":6400,"station_id":"ce4bgkp2rcd13ifvqbmg","pricing_plan_id":"cebpf4jnsgd1na2vs0mg"},{"bike_id":"e493b9f3-75a9-4b83-a37d-a0c34b5cbb80","system_id":"levelo_inurba_marseille","lat":43.2465,"lon":5.38894,"is_reserved":false,"is_disabled":false,"rental_uris":{"android":"levelo://app?vid=e493b9f3-75a9-4b83-a37d-a0c34b5cbb80","ios":"levelo://app?vid=e493b9f3-75a9-4b83-a37d-a0c34b5cbb80"},"vehicle_type_id":"4","last_reported":1767481862,"current_range_meters":6400,"station_id":"ce4bhg12rcd13ifvqf60","pricing_plan_id":"cebpf4jnsgd1na2vs0mg"},{"bike_id":"efd33062-2cef-445f-af98-648f578e9c2a","system_id":"levelo_inurba_marseille","lat":43.32645,"lon":5.41937,"is_reserved":false,"is_disabled":false,"rental_uris":{"android":"levelo://app?vid=efd33062-2cef-445f-af98-648f578e9c2a","ios":"levelo://app?vid=efd33062-2cef-445f-af98-648f578e9c2a"},"vehicle_type_id":"4","last_reported":1767481862,"current_range_meters":6800,"station_id":"","pricing_plan_id":"cebpf4jnsgd1na2vs0mg"},{"bike_id":"bd7fa06c-6e0f-4e4a-bb60-37e105cca255","system_id":"levelo_inurba_marseille","lat":43.28404,"lon":5.37508,"is_reserved":false,"is_disabled":false,"rental_uris":{"android":"levelo://app?vid=bd7fa06c-6e0f-4e4a-bb60-37e105cca255","ios":"levelo://app?vid=bd7fa06c-6e0f-4e4a-bb60-37e105cca255"},"vehicle_type_id":"4","last_reported":1767481862,"current_range_meters":6800,"station_id":"ce4bh412rcd13ifvqds0","pricing_plan_id":"cebpf4jnsgd1na2vs0mg"},{"bike_id":"5f5ed7b5-474d-41b2-89cd-47b99b1d326f","system_id":"levelo_inurba_marseille","lat":43.32094,"lon":5.3679,"is_reserved":false,"is_disabled":false,"rental_uris":{"android":"levelo://app?vid=5f5ed7b5-474d-41b2-89cd-47b99b1d326f","ios":"levelo://app?vid=5f5ed7b5-474d-41b2-89cd-47b99b1d326f"},"vehicle_type_id":"4","last_reported":1767481862,"current_range_meters":6800,"station_id":"ce4bhrh2rcd13ifvqhug","pricing_plan_id":"cebpf4jnsgd1na2vs0mg"},{"bike_id":"1f351afe-898a-48b2-b821-0a57308b7b34","system_id":"levelo_inurba_marseille","lat":43.27185,"lon":5.40988,"is_reserved":false,"is_disabled":false,"rental_uris":{"android":"levelo://app?vid=1f351afe-898a-48b2-b821-0a57308b7b34","ios":"levelo://app?vid=1f351afe-898a-48b2-b821-0a57308b7b34"},"vehicle_type_id":"4","last_reported":1767481862,"current_range_meters":6800,"station_id":"ce4bhl12rcd13ifvqgf0","pricing_plan_id":"cebpf4jnsgd1na2vs0mg"},{"bike_id":"bbd145e1-db8d-40b0-b146-2b7542d40bf1","system_id":"levelo_inurba_marseille","lat":43.26806,"lon":5.40278,"is_reserved":false,"is_disabled":false,"rental_uris":{"android":"levelo://app?vid=bbd145e1-db8d-40b0-b146-2b7542d40bf1","ios":"levelo://app?vid=bbd145e1-db8d-40b0-b146-2b7542d40bf1"},"vehicle_type_id":"4","last_reported":1767481862,"current_range_meters":6800,"station_id":"ce501612rcd8frsf0b60","pricing_plan_id":"cebpf4jnsgd1na2vs0mg"},{"bike_id":"394b2473-e75b-4508-a6de-dc82472511d3","system_id":"levelo_inurba_marseille","lat":43.26377,"lon":5.41105,"is_reserved":false,"is_disabled":true,"rental_uris":{"android":"levelo://app?vid=394b2473-e75b-4508-a6de-dc82472511d3","ios":"levelo://app?vid=394b2473-e75b-4508-a6de-dc82472511d3"},"vehicle_type_id":"4","last_reported":1767481862,"current_range_meters":6800,"station_id":"","pricing_plan_id":"cebpf4jnsgd1na2vs0mg"},{"bike_id":"9a67c4b7-b002-47fb-91b0-cf920a32496e","system_id":"levelo_inurba_marseille","lat":43.26563,"lon":5.4032,"is_reserved":false,"is_disabled":false,"rental_uris":{"android":"levelo://app?vid=9a67c4b7-b002-47fb-91b0-cf920a32496e","ios":"levelo://app?vid=9a67c4b7-b002-47fb-91b0-cf920a32496e"},"vehicle_type_id":"4","last_reported":1767481862,"current_range_meters":6800,"station_id":"ce4bhmp2rcd13ifvqgng","pricing_plan_id":"cebpf4jnsgd1na2vs0mg"},{"bike_id":"cdb95399-40ba-4ee9-9e4b-631cf7ca51d9","system_id":"levelo_inurba_marseille","lat":43.28279,"lon":5.35042,"is_reserved":false,"is_disabled":false,"rental_uris":{"android":"levelo://app?vid=cdb95399-40ba-4ee9-9e4b-631cf7ca51d9","ios":"levelo://app?vid=cdb95399-40ba-4ee9-9e4b-631cf7ca51d9"},"vehicle_type_id":"4","last_reported":1767481862,"current_range_meters":6800,"station_id":"ce4bhbp2rcd13ifvqerg","pricing_plan_id":"cebpf4jnsgd1na2vs0mg"},{"bike_id":"74300c5a-bf04-44b2-b2bc-1efcfcf64187","system_id":"levelo_inurba_marseille","lat":43.29978,"lon":5.37202,"is_reserved":false,"is_disabled":false,"rental_uris":{"android":"levelo://app?vid=74300c5a-bf04-44b2-b2bc-1efcfcf64187","ios":"levelo://app?vid=74300c5a-bf04-44b2-b2bc-1efcfcf64187"},"vehicle_type_id":"4","last_reported":1767481862,"current_range_meters":6800,"station_id":"ce4bgr92rcd13ifvqc7g","pricing_plan_id":"cebpf4jnsgd1na2vs0mg"},{"bike_id":"03395ae2-aecb-4dc7-941a-44274a6d702f","system_id":"levelo_inurba_marseille","lat":43.28097,"lon":5.37858,"is_reserved":false,"is_disabled":false,"rental_uris":{"android":"levelo://app?vid=03395ae2-aecb-4dc7-941a-44274a6d702f","ios":"levelo://app?vid=03395ae2-aecb-4dc7-941a-44274a6d702f"},"vehicle_type_id":"4","last_reported":1767481862,"current_range_meters":6800,"station_id":"ce4bha12rcd13ifvqee0","pricing_plan_id":"cebpf4jnsgd1na2vs0mg"},{"bike_id":"1543eb88-e233-43c6-b08e-54d2a1b645db","system_id":"levelo_inurba_marseille","lat":43.33548,"lon":5.37464,"is_reserved":false,"is_disabled":false,"rental_uris":{"android":"levelo://app?vid=1543eb88-e233-43c6-b08e-54d2a1b645db","ios":"levelo://app?vid=1543eb88-e233-43c6-b08e-54d2a1b645db"},"vehicle_type_id":"4","last_reported":1767481862,"current_range_meters":6800,"station_id":"st_d46tts09ee8s73dlu43g","pricing_plan_id":"cebpf4jnsgd1na2vs0mg"},{"bike_id":"cf1dde7c-2421-4aa1-aa32-84342583dd5b","system_id":"levelo_inurba_marseille","lat":43.24081,"lon":5.37749,"is_reserved":false,"is_disabled":false,"rental_uris":{"android":"levelo://app?vid=cf1dde7c-2421-4aa1-aa32-84342583dd5b","ios":"levelo://app?vid=cf1dde7c-2421-4aa1-aa32-84342583dd5b"},"vehicle_type_id":"4","last_reported":1767481862,"current_range_meters":6800,"station_id":"ce4bhnp2rcd13ifvqgvg","pricing_plan_id":"cebpf4jnsgd1na2vs0mg"},{"bike_id":"a3be4a7c-7544-49a9-8048-28fcde31ea3d","system_id":"levelo_inurba_marseille","lat":43.29305,"lon":5.37316,"is_reserved":false,"is_disabled":false,"rental_uris":{"android":"levelo://app?vid=a3be4a7c-7544-49a9-8048-28fcde31ea3d","ios":"levelo://app?vid=a3be4a7c-7544-49a9-8048-28fcde31ea3d"},"vehicle_type_id":"4","last_reported":1767481862,"current_range_meters":6800,"station_id":"","pricing_plan_id":"cebpf4jnsgd1na2vs0mg"},{"bike_id":"322ce5af-392a-4808-ba06-a769c670c8d4","system_id":"levelo_inurba_marseille","lat":43.31171,"lon":5.3871,"is_reserved":false,"is_disabled":false,"rental_uris":{"android":"levelo://app?vid=322ce5af-392a-4808-ba06-a769c670c8d4","ios":"levelo://app?vid=322ce5af-392a-4808-ba06-a769c670c8d4"},"vehicle_type_id":"4","last_reported":1767481862,"current_range_meters":6800,"station_id":"ce4bgv12rcd13ifvqcp0","pricing_plan_id":"cebpf4jnsgd1na2vs0mg"},{"bike_id":"b357b06c-84a1-42eb-85bc-16a2d56a5e8b","system_id":"levelo_inurba_marseille","lat":43.29991,"lon":5.3736,"is_reserved":false,"is_disabled":false,"rental_uris":{"android":"levelo://app?vid=b357b06c-84a1-42eb-85bc-16a2d56a5e8b","ios":"levelo://app?vid=b357b06c-84a1-42eb-85bc-16a2d56a5e8b"},"vehicle_type_id":"4","last_reported":1767481862,"current_range_meters":6800,"station_id":"","pricing_plan_id":"cebpf4jnsgd1na2vs0mg"},{"bike_id":"df8cd3ba-6efb-4997-8f45-66c5df017b9d","system_id":"levelo_inurba_marseille","lat":43.30082,"lon":5.36462,"is_reserved":false,"is_disabled":false,"rental_uris":{"android":"levelo://app?vid=df8cd3ba-6efb-4997-8f45-66c5df017b9d","ios":"levelo://app?vid=df8cd3ba-6efb-4997-8f45-66c5df017b9d"},"vehicle_type_id":"4","last_reported":1767481862,"current_range_meters":6800,"station_id":"","pricing_plan_id":"cebpf4jnsgd1na2vs0mg"},{"bike_id":"a939b807-df4d-4473-b61a-46a9cd5ac744","system_id":"levelo_inurba_marseille","lat":43.33093,"lon":5.37901,"is_reserved":false,"is_disabled":false,"rental_uris":{"android":"levelo://app?vid=a939b807-df4d-4473-b61a-46a9cd5ac744","ios":"levelo://app?vid=a939b807-df4d-4473-b61a-46a9cd5ac744"},"vehicle_type_id":"4","last_reported":1767481862,"current_range_meters":6800,"station_id":"st_d46cu089ee8s73dldbu0","pricing_plan_id":"cebpf4jnsgd1na2vs0mg"},{"bike_id":"c9d548ba-2a02-4b82-91f9-b5968320bd23","system_id":"levelo_inurba_marseille","lat":43.23189,"lon":5.35549,"is_reserved":false,"is_disabled":false,"rental_uris":{"android":"levelo://app?vid=c9d548ba-2a02-4b82-91f9-b5968320bd23","ios":"levelo://app?vid=c9d548ba-2a02-4b82-91f9-b5968320bd23"},"vehicle_type_id":"4","last_reported":1767481862,"current_range_meters":6800,"station_id":"ce4bhu92rcd13ifvqi70","pricing_plan_id":"cebpf4jnsgd1na2vs0mg"},{"bike_id":"98b4bf10-5ec2-4366-ab8c-e9dac7b370e9","system_id":"levelo_inurba_marseille","lat":43.24183,"lon":5.39724,"is_reserved":false,"is_disabled":false,"rental_uris":{"android":"levelo://app?vid=98b4bf10-5ec2-4366-ab8c-e9dac7b370e9","ios":"levelo://app?vid=98b4bf10-5ec2-4366-ab8c-e9dac7b370e9"},"vehicle_type_id":"4","last_reported":1767481862,"current_range_meters":6800,"station_id":"ce4bhn12rcd13ifvqgpg","pricing_plan_id":"cebpf4jnsgd1na2vs0mg"},{"bike_id":"557fcc01-1a31-4734-96a9-4bc57201480a","system_id":"levelo_inurba_marseille","lat":43.31583,"lon":5.37198,"is_reserved":false,"is_disabled":false,"rental_uris":{"android":"levelo://app?vid=557fcc01-1a31-4734-96a9-4bc57201480a","ios":"levelo://app?vid=557fcc01-1a31-4734-96a9-4bc57201480a"},"vehicle_type_id":"4","last_reported":1767481862,"current_range_meters":6800,"station_id":"","pricing_plan_id":"cebpf4jnsgd1na2vs0mg"},{"bike_id":"ac0c123e-ed59-4a7e-a27e-86326b93124d","system_id":"levelo_inurba_marseille","lat":43.2847,"lon":5.38409,"is_reserved":false,"is_disabled":false,"rental_uris":{"android":"levelo://app?vid=ac0c123e-ed59-4a7e-a27e-86326b93124d","ios":"levelo://app?vid=ac0c123e-ed59-4a7e-a27e-86326b93124d"},"vehicle_type_id":"4","last_reported":1767481862,"current_range_meters":7200,"station_id":"ce4bh512rcd13ifvqe3g","pricing_plan_id":"cebpf4jnsgd1na2vs0mg"},{"bike_id":"093623d6-2d73-411a-8372-4b522432f61f","system_id":"levelo_inurba_marseille","lat":43.2463,"lon":5.43144,"is_reserved":false,"is_disabled":false,"rental_uris":{"android":"levelo://app?vid=093623d6-2d73-411a-8372-4b522432f61f","ios":"levelo://app?vid=093623d6-2d73-411a-8372-4b522432f61f"},"vehicle_type_id":"4","last_reported":1767481862,"current_range_meters":7200,"station_id":"st_d2m6c4gdas8pm72e190g","pricing_plan_id":"cebpf4jnsgd1na2vs0mg"},{"bike_id":"71953d87-3b66-440f-961e-1a3651e4f016","system_id":"levelo_inurba_marseille","lat":43.28553,"lon":5.38395,"is_reserved":false,"is_disabled":false,"rental_uris":{"android":"levelo://app?vid=71953d87-3b66-440f-961e-1a3651e4f016","ios":"levelo://app?vid=71953d87-3b66-440f-961e-1a3651e4f016"},"vehicle_type_id":"4","last_reported":1767481862,"current_range_meters":7200,"station_id":"","pricing_plan_id":"cebpf4jnsgd1na2vs0mg"},{"bike_id":"bfe47bf6-799b-4ef6-b357-3d67dfdabb79","system_id":"levelo_inurba_marseille","lat":43.33554,"lon":5.37446,"is_reserved":false,"is_disabled":false,"rental_uris":{"android":"levelo://app?vid=bfe47bf6-799b-4ef6-b357-3d67dfdabb79","ios":"levelo://app?vid=bfe47bf6-799b-4ef6-b357-3d67dfdabb79"},"vehicle_type_id":"4","last_reported":1767481862,"current_range_meters":7200,"station_id":"st_d46tts09ee8s73dlu43g","pricing_plan_id":"cebpf4jnsgd1na2vs0mg"},{"bike_id":"2bcf6ae4-322c-43d0-9880-65aeda24ed67","system_id":"levelo_inurba_marseille","lat":43.32446,"lon":5.36877,"is_reserved":false,"is_disabled":false,"rental_uris":{"android":"levelo://app?vid=2bcf6ae4-322c-43d0-9880-65aeda24ed67","ios":"levelo://app?vid=2bcf6ae4-322c-43d0-9880-65aeda24ed67"},"vehicle_type_id":"4","last_reported":1767481862,"current_range_meters":7200,"station_id":"","pricing_plan_id":"cebpf4jnsgd1na2vs0mg"},{"bike_id":"ed0899c0-be91-4332-a2f6-2e78acb199e0","system_id":"levelo_inurba_marseille","lat":43.28432,"lon":5.3496,"is_reserved":false,"is_disabled":false,"rental_uris":{"android":"levelo://app?vid=ed0899c0-be91-4332-a2f6-2e78acb199e0","ios":"levelo://app?vid=ed0899c0-be91-4332-a2f6-2e78acb199e0"},"vehicle_type_id":"4","last_reported":1767481862,"current_range_meters":7200,"station_id":"ce4bhbh2rcd13ifvqepg","pricing_plan_id":"cebpf4jnsgd1na2vs0mg"},{"bike_id":"a8556b39-9aa3-4aa7-92d2-56db02de01ed","system_id":"levelo_inurba_marseille","lat":43.31208,"lon":5.36796,"is_reserved":false,"is_disabled":false,"rental_uris":{"android":"levelo://app?vid=a8556b39-9aa3-4aa7-92d2-56db02de01ed","ios":"levelo://app?vid=a8556b39-9aa3-4aa7-92d2-56db02de01ed"},"vehicle_type_id":"4","last_reported":1767481862,"current_range_meters":7200,"station_id":"ce4bgl92rcd13ifvqbq0","pricing_plan_id":"cebpf4jnsgd1na2vs0mg"},{"bike_id":"0cc8f38b-2aab-4edc-80d1-8d77bb645f60","system_id":"levelo_inurba_marseille","lat":43.25537,"lon":5.37628,"is_reserved":false,"is_disabled":true,"rental_uris":{"android":"levelo://app?vid=0cc8f38b-2aab-4edc-80d1-8d77bb645f60","ios":"levelo://app?vid=0cc8f38b-2aab-4edc-80d1-8d77bb645f60"},"vehicle_type_id":"4","last_reported":1767481862,"current_range_meters":7200,"station_id":"ce4bhh12rcd13ifvqff0","pricing_plan_id":"cebpf4jnsgd1na2vs0mg"},{"bike_id":"ef519fd0-9994-4a2c-8009-8dc16cb9e38e","system_id":"levelo_inurba_marseille","lat":43.32107,"lon":5.3679,"is_reserved":false,"is_disabled":false,"rental_uris":{"android":"levelo://app?vid=ef519fd0-9994-4a2c-8009-8dc16cb9e38e","ios":"levelo://app?vid=ef519fd0-9994-4a2c-8009-8dc16cb9e38e"},"vehicle_type_id":"4","last_reported":1767481862,"current_range_meters":7200,"station_id":"ce4bhrh2rcd13ifvqhug","pricing_plan_id":"cebpf4jnsgd1na2vs0mg"},{"bike_id":"61de8b69-7704-4d24-bebb-39e846fd4b45","system_id":"levelo_inurba_marseille","lat":43.30128,"lon":5.37704,"is_reserved":false,"is_disabled":false,"rental_uris":{"android":"levelo://app?vid=61de8b69-7704-4d24-bebb-39e846fd4b45","ios":"levelo://app?vid=61de8b69-7704-4d24-bebb-39e846fd4b45"},"vehicle_type_id":"4","last_reported":1767481862,"current_range_meters":7200,"station_id":"","pricing_plan_id":"cebpf4jnsgd1na2vs0mg"},{"bike_id":"c51d6830-6676-4ba5-9b70-fc6c18825f29","system_id":"levelo_inurba_marseille","lat":43.29599,"lon":5.37726,"is_reserved":false,"is_disabled":false,"rental_uris":{"android":"levelo://app?vid=c51d6830-6676-4ba5-9b70-fc6c18825f29","ios":"levelo://app?vid=c51d6830-6676-4ba5-9b70-fc6c18825f29"},"vehicle_type_id":"4","last_reported":1767481862,"current_range_meters":7200,"station_id":"ce4bgi92rcd13ifvqb90","pricing_plan_id":"cebpf4jnsgd1na2vs0mg"},{"bike_id":"7ee1c09d-a306-4e72-a256-6549ce7578c9","system_id":"levelo_inurba_marseille","lat":43.29156,"lon":5.37303,"is_reserved":false,"is_disabled":false,"rental_uris":{"android":"levelo://app?vid=7ee1c09d-a306-4e72-a256-6549ce7578c9","ios":"levelo://app?vid=7ee1c09d-a306-4e72-a256-6549ce7578c9"},"vehicle_type_id":"4","last_reported":1767481862,"current_range_meters":7200,"station_id":"","pricing_plan_id":"cebpf4jnsgd1na2vs0mg"},{"bike_id":"d67904e3-d432-4bb6-9c59-13ac7cead46a","system_id":"levelo_inurba_marseille","lat":43.32358,"lon":5.36697,"is_reserved":false,"is_disabled":false,"rental_uris":{"android":"levelo://app?vid=d67904e3-d432-4bb6-9c59-13ac7cead46a","ios":"levelo://app?vid=d67904e3-d432-4bb6-9c59-13ac7cead46a"},"vehicle_type_id":"4","last_reported":1767481862,"current_range_meters":7200,"station_id":"ce4bhsh2rcd13ifvqi2g","pricing_plan_id":"cebpf4jnsgd1na2vs0mg"},{"bike_id":"cb035583-71ec-465e-ae20-89a3af35ac5e","system_id":"levelo_inurba_marseille","lat":43.24554,"lon":5.41326,"is_reserved":false,"is_disabled":false,"rental_uris":{"android":"levelo://app?vid=cb035583-71ec-465e-ae20-89a3af35ac5e","ios":"levelo://app?vid=cb035583-71ec-465e-ae20-89a3af35ac5e"},"vehicle_type_id":"4","last_reported":1767481862,"current_range_meters":7200,"station_id":"","pricing_plan_id":"cebpf4jnsgd1na2vs0mg"},{"bike_id":"fd2d24be-3ca8-4d58-ac4a-6481fce6f9d2","system_id":"levelo_inurba_marseille","lat":43.27086,"lon":5.42296,"is_reserved":false,"is_disabled":false,"rental_uris":{"android":"levelo://app?vid=fd2d24be-3ca8-4d58-ac4a-6481fce6f9d2","ios":"levelo://app?vid=fd2d24be-3ca8-4d58-ac4a-6481fce6f9d2"},"vehicle_type_id":"4","last_reported":1767481862,"current_range_meters":7200,"station_id":"ce4bhk92rcd13ifvqgb0","pricing_plan_id":"cebpf4jnsgd1na2vs0mg"},{"bike_id":"6e7957d0-639e-41a7-bf82-10829831a67f","system_id":"levelo_inurba_marseille","lat":43.32364,"lon":5.36715,"is_reserved":false,"is_disabled":false,"rental_uris":{"android":"levelo://app?vid=6e7957d0-639e-41a7-bf82-10829831a67f","ios":"levelo://app?vid=6e7957d0-639e-41a7-bf82-10829831a67f"},"vehicle_type_id":"4","last_reported":1767481862,"current_range_meters":7200,"station_id":"ce4bhsh2rcd13ifvqi2g","pricing_plan_id":"cebpf4jnsgd1na2vs0mg"},{"bike_id":"7d88ce0c-ae9b-49e1-a08d-95a335fd71ed","system_id":"levelo_inurba_marseille","lat":43.28529,"lon":5.44115,"is_reserved":false,"is_disabled":false,"rental_uris":{"android":"levelo://app?vid=7d88ce0c-ae9b-49e1-a08d-95a335fd71ed","ios":"levelo://app?vid=7d88ce0c-ae9b-49e1-a08d-95a335fd71ed"},"vehicle_type_id":"4","last_reported":1767481862,"current_range_meters":7200,"station_id":"st_d3j3df2ikq2c7380ej80","pricing_plan_id":"cebpf4jnsgd1na2vs0mg"},{"bike_id":"e987523a-ef8b-4c5d-94b4-e53d7fa7dfe0","system_id":"levelo_inurba_marseille","lat":43.24884,"lon":5.38607,"is_reserved":false,"is_disabled":false,"rental_uris":{"android":"levelo://app?vid=e987523a-ef8b-4c5d-94b4-e53d7fa7dfe0","ios":"levelo://app?vid=e987523a-ef8b-4c5d-94b4-e53d7fa7dfe0"},"vehicle_type_id":"4","last_reported":1767481862,"current_range_meters":8000,"station_id":"","pricing_plan_id":"cebpf4jnsgd1na2vs0mg"},{"bike_id":"780fe4f2-2a78-414b-a56d-dd9ca4f3ea66","system_id":"levelo_inurba_marseille","lat":43.29629,"lon":5.38114,"is_reserved":false,"is_disabled":false,"rental_uris":{"android":"levelo://app?vid=780fe4f2-2a78-414b-a56d-dd9ca4f3ea66","ios":"levelo://app?vid=780fe4f2-2a78-414b-a56d-dd9ca4f3ea66"},"vehicle_type_id":"4","last_reported":1767481862,"current_range_meters":8000,"station_id":"ce4bgl12rcd13ifvqbo0","pricing_plan_id":"cebpf4jnsgd1na2vs0mg"},{"bike_id":"c18e9c2e-2088-4f3c-bbf9-e06943f60f93","system_id":"levelo_inurba_marseille","lat":43.29635,"lon":5.38085,"is_reserved":false,"is_disabled":false,"rental_uris":{"android":"levelo://app?vid=c18e9c2e-2088-4f3c-bbf9-e06943f60f93","ios":"levelo://app?vid=c18e9c2e-2088-4f3c-bbf9-e06943f60f93"},"vehicle_type_id":"4","last_reported":1767481862,"current_range_meters":8000,"station_id":"ce4bgl12rcd13ifvqbo0","pricing_plan_id":"cebpf4jnsgd1na2vs0mg"},{"bike_id":"e2488139-6496-4274-88d0-61715a22ef45","system_id":"levelo_inurba_marseille","lat":43.30796,"lon":5.38162,"is_reserved":false,"is_disabled":false,"rental_uris":{"android":"levelo://app?vid=e2488139-6496-4274-88d0-61715a22ef45","ios":"levelo://app?vid=e2488139-6496-4274-88d0-61715a22ef45"},"vehicle_type_id":"4","last_reported":1767481862,"current_range_meters":8000,"station_id":"ce4bgt12rcd13ifvqce0","pricing_plan_id":"cebpf4jnsgd1na2vs0mg"},{"bike_id":"d16182f3-e665-458f-b0d2-66b3db8796ce","system_id":"levelo_inurba_marseille","lat":43.26207,"lon":5.3743,"is_reserved":false,"is_disabled":false,"rental_uris":{"android":"levelo://app?vid=d16182f3-e665-458f-b0d2-66b3db8796ce","ios":"levelo://app?vid=d16182f3-e665-458f-b0d2-66b3db8796ce"},"vehicle_type_id":"4","last_reported":1767481862,"current_range_meters":8000,"station_id":"ce4bhgp2rcd13ifvqfc0","pricing_plan_id":"cebpf4jnsgd1na2vs0mg"},{"bike_id":"bc24ad87-e39b-4719-ba5b-24f618b4c5f7","system_id":"levelo_inurba_marseille","lat":43.28413,"lon":5.34997,"is_reserved":false,"is_disabled":false,"rental_uris":{"android":"levelo://app?vid=bc24ad87-e39b-4719-ba5b-24f618b4c5f7","ios":"levelo://app?vid=bc24ad87-e39b-4719-ba5b-24f618b4c5f7"},"vehicle_type_id":"4","last_reported":1767481862,"current_range_meters":8000,"station_id":"ce4bhbh2rcd13ifvqepg","pricing_plan_id":"cebpf4jnsgd1na2vs0mg"},{"bike_id":"4f9276e2-ba43-4c1d-afca-9c0080feecdf","system_id":"levelo_inurba_marseille","lat":43.323485,"lon":5.367115,"is_reserved":false,"is_disabled":false,"rental_uris":{"android":"levelo://app?vid=4f9276e2-ba43-4c1d-afca-9c0080feecdf","ios":"levelo://app?vid=4f9276e2-ba43-4c1d-afca-9c0080feecdf"},"vehicle_type_id":"4","last_reported":1767481862,"current_range_meters":8000,"station_id":"ce4bhsh2rcd13ifvqi2g","pricing_plan_id":"cebpf4jnsgd1na2vs0mg"},{"bike_id":"c33eb5f0-499c-46b8-b706-b5add847dbd3","system_id":"levelo_inurba_marseille","lat":43.33144,"lon":5.37747,"is_reserved":false,"is_disabled":false,"rental_uris":{"android":"levelo://app?vid=c33eb5f0-499c-46b8-b706-b5add847dbd3","ios":"levelo://app?vid=c33eb5f0-499c-46b8-b706-b5add847dbd3"},"vehicle_type_id":"4","last_reported":1767481862,"current_range_meters":8000,"station_id":"","pricing_plan_id":"cebpf4jnsgd1na2vs0mg"},{"bike_id":"17e06372-e52b-4bdd-90cd-8338755c84dc","system_id":"levelo_inurba_marseille","lat":43.23152,"lon":5.43718,"is_reserved":false,"is_disabled":false,"rental_uris":{"android":"levelo://app?vid=17e06372-e52b-4bdd-90cd-8338755c84dc","ios":"levelo://app?vid=17e06372-e52b-4bdd-90cd-8338755c84dc"},"vehicle_type_id":"4","last_reported":1767481862,"current_range_meters":8000,"station_id":"ce4bhmp2rcd13ifvqgog","pricing_plan_id":"cebpf4jnsgd1na2vs0mg"},{"bike_id":"9f76342a-9caa-49c8-a5a4-4ac2e1abd64a","system_id":"levelo_inurba_marseille","lat":43.34136,"lon":5.40911,"is_reserved":false,"is_disabled":false,"rental_uris":{"android":"levelo://app?vid=9f76342a-9caa-49c8-a5a4-4ac2e1abd64a","ios":"levelo://app?vid=9f76342a-9caa-49c8-a5a4-4ac2e1abd64a"},"vehicle_type_id":"4","last_reported":1767481862,"current_range_meters":8000,"station_id":"ce4bhqh2rcd13ifvqhlg","pricing_plan_id":"cebpf4jnsgd1na2vs0mg"},{"bike_id":"a3868a4f-64f2-455d-866c-159991a9a86d","system_id":"levelo_inurba_marseille","lat":43.29628,"lon":5.4061,"is_reserved":false,"is_disabled":false,"rental_uris":{"android":"levelo://app?vid=a3868a4f-64f2-455d-866c-159991a9a86d","ios":"levelo://app?vid=a3868a4f-64f2-455d-866c-159991a9a86d"},"vehicle_type_id":"4","last_reported":1767481862,"current_range_meters":8000,"station_id":"ce4bh0h2rcd13ifvqd60","pricing_plan_id":"cebpf4jnsgd1na2vs0mg"},{"bike_id":"0c90128f-a850-4a75-9784-0c20c333a355","system_id":"levelo_inurba_marseille","lat":43.307922,"lon":5.38176,"is_reserved":false,"is_disabled":false,"rental_uris":{"android":"levelo://app?vid=0c90128f-a850-4a75-9784-0c20c333a355","ios":"levelo://app?vid=0c90128f-a850-4a75-9784-0c20c333a355"},"vehicle_type_id":"4","last_reported":1767481862,"current_range_meters":8000,"station_id":"ce4bgt12rcd13ifvqce0","pricing_plan_id":"cebpf4jnsgd1na2vs0mg"},{"bike_id":"d49d55fc-f15f-4a66-a00d-73bd545b8ffd","system_id":"levelo_inurba_marseille","lat":43.29038,"lon":5.40008,"is_reserved":false,"is_disabled":false,"rental_uris":{"android":"levelo://app?vid=d49d55fc-f15f-4a66-a00d-73bd545b8ffd","ios":"levelo://app?vid=d49d55fc-f15f-4a66-a00d-73bd545b8ffd"},"vehicle_type_id":"4","last_reported":1767481862,"current_range_meters":8000,"station_id":"ce4bh392rcd13ifvqdm0","pricing_plan_id":"cebpf4jnsgd1na2vs0mg"},{"bike_id":"ca48d4ad-26ca-4dea-a200-be3e43176f3f","system_id":"levelo_inurba_marseille","lat":43.33219,"lon":5.41282,"is_reserved":false,"is_disabled":false,"rental_uris":{"android":"levelo://app?vid=ca48d4ad-26ca-4dea-a200-be3e43176f3f","ios":"levelo://app?vid=ca48d4ad-26ca-4dea-a200-be3e43176f3f"},"vehicle_type_id":"4","last_reported":1767481862,"current_range_meters":8000,"station_id":"","pricing_plan_id":"cebpf4jnsgd1na2vs0mg"},{"bike_id":"12393777-d4e9-4578-911d-aab6cc810391","system_id":"levelo_inurba_marseille","lat":43.31069,"lon":5.3835,"is_reserved":false,"is_disabled":false,"rental_uris":{"android":"levelo://app?vid=12393777-d4e9-4578-911d-aab6cc810391","ios":"levelo://app?vid=12393777-d4e9-4578-911d-aab6cc810391"},"vehicle_type_id":"4","last_reported":1767481862,"current_range_meters":8000,"station_id":"ce4bgv92rcd13ifvqcr0","pricing_plan_id":"cebpf4jnsgd1na2vs0mg"},{"bike_id":"006976d2-d3cb-439d-b972-b36d863282da","system_id":"levelo_inurba_marseille","lat":43.28417,"lon":5.34985,"is_reserved":false,"is_disabled":false,"rental_uris":{"android":"levelo://app?vid=006976d2-d3cb-439d-b972-b36d863282da","ios":"levelo://app?vid=006976d2-d3cb-439d-b972-b36d863282da"},"vehicle_type_id":"4","last_reported":1767481862,"current_range_meters":8000,"station_id":"ce4bhbh2rcd13ifvqepg","pricing_plan_id":"cebpf4jnsgd1na2vs0mg"},{"bike_id":"59aab69d-aa14-4a71-8d9b-0aa143ba58f2","system_id":"levelo_inurba_marseille","lat":43.28538,"lon":5.44081,"is_reserved":false,"is_disabled":true,"rental_uris":{"android":"levelo://app?vid=59aab69d-aa14-4a71-8d9b-0aa143ba58f2","ios":"levelo://app?vid=59aab69d-aa14-4a71-8d9b-0aa143ba58f2"},"vehicle_type_id":"4","last_reported":1767481862,"current_range_meters":8000,"station_id":"st_d3j3df2ikq2c7380ej80","pricing_plan_id":"cebpf4jnsgd1na2vs0mg"},{"bike_id":"55a7fced-b1cf-4260-b657-21d693c02d14","system_id":"levelo_inurba_marseille","lat":43.2841,"lon":5.37541,"is_reserved":false,"is_disabled":false,"rental_uris":{"android":"levelo://app?vid=55a7fced-b1cf-4260-b657-21d693c02d14","ios":"levelo://app?vid=55a7fced-b1cf-4260-b657-21d693c02d14"},"vehicle_type_id":"4","last_reported":1767481862,"current_range_meters":8000,"station_id":"ce4bh412rcd13ifvqds0","pricing_plan_id":"cebpf4jnsgd1na2vs0mg"},{"bike_id":"488bbe71-5d11-4c78-b0d1-df86f5509b1d","system_id":"levelo_inurba_marseille","lat":43.237857,"lon":5.366361,"is_reserved":false,"is_disabled":false,"rental_uris":{"android":"levelo://app?vid=488bbe71-5d11-4c78-b0d1-df86f5509b1d","ios":"levelo://app?vid=488bbe71-5d11-4c78-b0d1-df86f5509b1d"},"vehicle_type_id":"4","last_reported":1767481862,"current_range_meters":8000,"station_id":"st_d3nk18o9ro0c73en2l3g","pricing_plan_id":"cebpf4jnsgd1na2vs0mg"},{"bike_id":"8e3b45c6-7fdf-429f-9c1e-6729d3aac358","system_id":"levelo_inurba_marseille","lat":43.31031,"lon":5.37117,"is_reserved":false,"is_disabled":false,"rental_uris":{"android":"levelo://app?vid=8e3b45c6-7fdf-429f-9c1e-6729d3aac358","ios":"levelo://app?vid=8e3b45c6-7fdf-429f-9c1e-6729d3aac358"},"vehicle_type_id":"4","last_reported":1767481862,"current_range_meters":8000,"station_id":"st_d4kl2rp97mjs73e7tdfg","pricing_plan_id":"cebpf4jnsgd1na2vs0mg"},{"bike_id":"e7270246-bc96-4332-80ca-fcb95709461d","system_id":"levelo_inurba_marseille","lat":43.28623,"lon":5.35105,"is_reserved":false,"is_disabled":false,"rental_uris":{"android":"levelo://app?vid=e7270246-bc96-4332-80ca-fcb95709461d","ios":"levelo://app?vid=e7270246-bc96-4332-80ca-fcb95709461d"},"vehicle_type_id":"4","last_reported":1767481862,"current_range_meters":8000,"station_id":"ce4bhch2rcd13ifvqeug","pricing_plan_id":"cebpf4jnsgd1na2vs0mg"},{"bike_id":"e8cb542a-c910-418d-8827-3aecad0225e3","system_id":"levelo_inurba_marseille","lat":43.2843,"lon":5.34996,"is_reserved":false,"is_disabled":false,"rental_uris":{"android":"levelo://app?vid=e8cb542a-c910-418d-8827-3aecad0225e3","ios":"levelo://app?vid=e8cb542a-c910-418d-8827-3aecad0225e3"},"vehicle_type_id":"4","last_reported":1767481862,"current_range_meters":8000,"station_id":"ce4bhbh2rcd13ifvqepg","pricing_plan_id":"cebpf4jnsgd1na2vs0mg"},{"bike_id":"f01bf4b3-0a81-4ed0-84e5-e869486fd99c","system_id":"levelo_inurba_marseille","lat":43.24654,"lon":5.38894,"is_reserved":false,"is_disabled":false,"rental_uris":{"android":"levelo://app?vid=f01bf4b3-0a81-4ed0-84e5-e869486fd99c","ios":"levelo://app?vid=f01bf4b3-0a81-4ed0-84e5-e869486fd99c"},"vehicle_type_id":"4","last_reported":1767481862,"current_range_meters":8000,"station_id":"ce4bhg12rcd13ifvqf60","pricing_plan_id":"cebpf4jnsgd1na2vs0mg"},{"bike_id":"24df9d62-1935-48d1-97c2-93be25be3729","system_id":"levelo_inurba_marseille","lat":43.289864,"lon":5.356866,"is_reserved":false,"is_disabled":false,"rental_uris":{"android":"levelo://app?vid=24df9d62-1935-48d1-97c2-93be25be3729","ios":"levelo://app?vid=24df9d62-1935-48d1-97c2-93be25be3729"},"vehicle_type_id":"4","last_reported":1767481862,"current_range_meters":8400,"station_id":"ce4bh3p2rcd13ifvqdq0","pricing_plan_id":"cebpf4jnsgd1na2vs0mg"},{"bike_id":"5ed51bc0-851e-44e4-9f66-c5e3e5c8f26a","system_id":"levelo_inurba_marseille","lat":43.27239,"lon":5.39182,"is_reserved":false,"is_disabled":true,"rental_uris":{"android":"levelo://app?vid=5ed51bc0-851e-44e4-9f66-c5e3e5c8f26a","ios":"levelo://app?vid=5ed51bc0-851e-44e4-9f66-c5e3e5c8f26a"},"vehicle_type_id":"4","last_reported":1767481862,"current_range_meters":8400,"station_id":"ce4bhhp2rcd13ifvqfm0","pricing_plan_id":"cebpf4jnsgd1na2vs0mg"},{"bike_id":"091087be-27fe-438d-bb66-a525fac98399","system_id":"levelo_inurba_marseille","lat":43.27377,"lon":5.36242,"is_reserved":false,"is_disabled":false,"rental_uris":{"android":"levelo://app?vid=091087be-27fe-438d-bb66-a525fac98399","ios":"levelo://app?vid=091087be-27fe-438d-bb66-a525fac98399"},"vehicle_type_id":"4","last_reported":1767481862,"current_range_meters":8400,"station_id":"ce4bhbh2rcd13ifvqeo0","pricing_plan_id":"cebpf4jnsgd1na2vs0mg"},{"bike_id":"1ad626a8-48f8-44b7-8f92-c1cbcf226f43","system_id":"levelo_inurba_marseille","lat":43.24818,"lon":5.37456,"is_reserved":false,"is_disabled":false,"rental_uris":{"android":"levelo://app?vid=1ad626a8-48f8-44b7-8f92-c1cbcf226f43","ios":"levelo://app?vid=1ad626a8-48f8-44b7-8f92-c1cbcf226f43"},"vehicle_type_id":"4","last_reported":1767481862,"current_range_meters":8400,"station_id":"ce4bhgh2rcd13ifvqfb0","pricing_plan_id":"cebpf4jnsgd1na2vs0mg"},{"bike_id":"a414d67b-9afa-4a87-9fac-f67cdff12698","system_id":"levelo_inurba_marseille","lat":43.29408,"lon":5.37979,"is_reserved":false,"is_disabled":false,"rental_uris":{"android":"levelo://app?vid=a414d67b-9afa-4a87-9fac-f67cdff12698","ios":"levelo://app?vid=a414d67b-9afa-4a87-9fac-f67cdff12698"},"vehicle_type_id":"4","last_reported":1767481862,"current_range_meters":8400,"station_id":"","pricing_plan_id":"cebpf4jnsgd1na2vs0mg"},{"bike_id":"c3f97c6b-2dc7-4135-9316-e5d0c425f8a0","system_id":"levelo_inurba_marseille","lat":43.26945,"lon":5.38639,"is_reserved":false,"is_disabled":false,"rental_uris":{"android":"levelo://app?vid=c3f97c6b-2dc7-4135-9316-e5d0c425f8a0","ios":"levelo://app?vid=c3f97c6b-2dc7-4135-9316-e5d0c425f8a0"},"vehicle_type_id":"4","last_reported":1767481862,"current_range_meters":8400,"station_id":"ce4bhh92rcd13ifvqfh0","pricing_plan_id":"cebpf4jnsgd1na2vs0mg"},{"bike_id":"96d87c0e-8e58-4458-9a61-596f9aad61aa","system_id":"levelo_inurba_marseille","lat":43.21199,"lon":5.3509,"is_reserved":false,"is_disabled":false,"rental_uris":{"android":"levelo://app?vid=96d87c0e-8e58-4458-9a61-596f9aad61aa","ios":"levelo://app?vid=96d87c0e-8e58-4458-9a61-596f9aad61aa"},"vehicle_type_id":"4","last_reported":1767481862,"current_range_meters":8400,"station_id":"st_cvj6sg6p6f1abm77japg","pricing_plan_id":"cebpf4jnsgd1na2vs0mg"},{"bike_id":"fcd440e6-5539-4d36-8905-9b19c9c5332a","system_id":"levelo_inurba_marseille","lat":43.27118,"lon":5.39157,"is_reserved":false,"is_disabled":false,"rental_uris":{"android":"levelo://app?vid=fcd440e6-5539-4d36-8905-9b19c9c5332a","ios":"levelo://app?vid=fcd440e6-5539-4d36-8905-9b19c9c5332a"},"vehicle_type_id":"4","last_reported":1767481862,"current_range_meters":8400,"station_id":"","pricing_plan_id":"cebpf4jnsgd1na2vs0mg"},{"bike_id":"2d78d04f-3c3b-4c68-b06d-a38be4a7154f","system_id":"levelo_inurba_marseille","lat":43.28987,"lon":5.381,"is_reserved":false,"is_disabled":false,"rental_uris":{"android":"levelo://app?vid=2d78d04f-3c3b-4c68-b06d-a38be4a7154f","ios":"levelo://app?vid=2d78d04f-3c3b-4c68-b06d-a38be4a7154f"},"vehicle_type_id":"4","last_reported":1767481862,"current_range_meters":8400,"station_id":"","pricing_plan_id":"cebpf4jnsgd1na2vs0mg"},{"bike_id":"d315c333-f174-48b1-aaed-b6cca0a078d8","system_id":"levelo_inurba_marseille","lat":43.29231,"lon":5.36059,"is_reserved":false,"is_disabled":false,"rental_uris":{"android":"levelo://app?vid=d315c333-f174-48b1-aaed-b6cca0a078d8","ios":"levelo://app?vid=d315c333-f174-48b1-aaed-b6cca0a078d8"},"vehicle_type_id":"4","last_reported":1767481862,"current_range_meters":8400,"station_id":"ce4bhbh2rcd13ifvqeqg","pricing_plan_id":"cebpf4jnsgd1na2vs0mg"},{"bike_id":"8915119e-3af5-49e8-b21b-a9a565e988bd","system_id":"levelo_inurba_marseille","lat":43.27963,"lon":5.38738,"is_reserved":false,"is_disabled":false,"rental_uris":{"android":"levelo://app?vid=8915119e-3af5-49e8-b21b-a9a565e988bd","ios":"levelo://app?vid=8915119e-3af5-49e8-b21b-a9a565e988bd"},"vehicle_type_id":"4","last_reported":1767481862,"current_range_meters":8400,"station_id":"ce4bhg12rcd13ifvqf80","pricing_plan_id":"cebpf4jnsgd1na2vs0mg"},{"bike_id":"4dc8c32f-96ad-4bbe-8f82-5ce45a16b000","system_id":"levelo_inurba_marseille","lat":43.26207,"lon":5.37464,"is_reserved":false,"is_disabled":false,"rental_uris":{"android":"levelo://app?vid=4dc8c32f-96ad-4bbe-8f82-5ce45a16b000","ios":"levelo://app?vid=4dc8c32f-96ad-4bbe-8f82-5ce45a16b000"},"vehicle_type_id":"4","last_reported":1767481862,"current_range_meters":8400,"station_id":"ce4bhgp2rcd13ifvqfc0","pricing_plan_id":"cebpf4jnsgd1na2vs0mg"},{"bike_id":"124eae3d-8f06-4fa8-b6bd-6109a06a7355","system_id":"levelo_inurba_marseille","lat":43.33173,"lon":5.37723,"is_reserved":false,"is_disabled":false,"rental_uris":{"android":"levelo://app?vid=124eae3d-8f06-4fa8-b6bd-6109a06a7355","ios":"levelo://app?vid=124eae3d-8f06-4fa8-b6bd-6109a06a7355"},"vehicle_type_id":"4","last_reported":1767481862,"current_range_meters":8400,"station_id":"st_d46cu089ee8s73dldbu0","pricing_plan_id":"cebpf4jnsgd1na2vs0mg"},{"bike_id":"09e0601f-1ed8-4ad4-96bb-8937d729a00d","system_id":"levelo_inurba_marseille","lat":43.2557,"lon":5.38241,"is_reserved":false,"is_disabled":false,"rental_uris":{"android":"levelo://app?vid=09e0601f-1ed8-4ad4-96bb-8937d729a00d","ios":"levelo://app?vid=09e0601f-1ed8-4ad4-96bb-8937d729a00d"},"vehicle_type_id":"4","last_reported":1767481862,"current_range_meters":8400,"station_id":"ce4bhih2rcd13ifvqfs0","pricing_plan_id":"cebpf4jnsgd1na2vs0mg"},{"bike_id":"e6d9500a-84c5-42cc-8272-3c33a326b727","system_id":"levelo_inurba_marseille","lat":43.30731,"lon":5.42447,"is_reserved":false,"is_disabled":false,"rental_uris":{"android":"levelo://app?vid=e6d9500a-84c5-42cc-8272-3c33a326b727","ios":"levelo://app?vid=e6d9500a-84c5-42cc-8272-3c33a326b727"},"vehicle_type_id":"4","last_reported":1767481862,"current_range_meters":8400,"station_id":"st_cvj6ca6bvosntc0bfgr0","pricing_plan_id":"cebpf4jnsgd1na2vs0mg"},{"bike_id":"85246bf5-791b-4c2f-925f-a931bac4026e","system_id":"levelo_inurba_marseille","lat":43.30125,"lon":5.43115,"is_reserved":false,"is_disabled":false,"rental_uris":{"android":"levelo://app?vid=85246bf5-791b-4c2f-925f-a931bac4026e","ios":"levelo://app?vid=85246bf5-791b-4c2f-925f-a931bac4026e"},"vehicle_type_id":"4","last_reported":1767481862,"current_range_meters":8800,"station_id":"st_d3js3co5814s73ftftug","pricing_plan_id":"cebpf4jnsgd1na2vs0mg"},{"bike_id":"b97b9366-c081-4745-90ed-0e833c3a2f7c","system_id":"levelo_inurba_marseille","lat":43.33154,"lon":5.38173,"is_reserved":false,"is_disabled":false,"rental_uris":{"android":"levelo://app?vid=b97b9366-c081-4745-90ed-0e833c3a2f7c","ios":"levelo://app?vid=b97b9366-c081-4745-90ed-0e833c3a2f7c"},"vehicle_type_id":"4","last_reported":1767481862,"current_range_meters":8800,"station_id":"","pricing_plan_id":"cebpf4jnsgd1na2vs0mg"},{"bike_id":"ec47e74c-4c77-4ced-84eb-ad537c50b956","system_id":"levelo_inurba_marseille","lat":43.21751,"lon":5.34602,"is_reserved":false,"is_disabled":true,"rental_uris":{"android":"levelo://app?vid=ec47e74c-4c77-4ced-84eb-ad537c50b956","ios":"levelo://app?vid=ec47e74c-4c77-4ced-84eb-ad537c50b956"},"vehicle_type_id":"4","last_reported":1767481862,"current_range_meters":8800,"station_id":"st_cvj6r9ubvosntc0bgbag","pricing_plan_id":"cebpf4jnsgd1na2vs0mg"},{"bike_id":"32430d05-1fb8-4eba-b545-baa9ce76d5e5","system_id":"levelo_inurba_marseille","lat":43.288595,"lon":5.425168,"is_reserved":false,"is_disabled":false,"rental_uris":{"android":"levelo://app?vid=32430d05-1fb8-4eba-b545-baa9ce76d5e5","ios":"levelo://app?vid=32430d05-1fb8-4eba-b545-baa9ce76d5e5"},"vehicle_type_id":"4","last_reported":1767481862,"current_range_meters":8800,"station_id":"st_d3b462108ojc7389ooeg","pricing_plan_id":"cebpf4jnsgd1na2vs0mg"},{"bike_id":"f257b2d0-1f16-4656-837f-b9ab9f001b03","system_id":"levelo_inurba_marseille","lat":43.22568,"lon":5.41631,"is_reserved":false,"is_disabled":false,"rental_uris":{"android":"levelo://app?vid=f257b2d0-1f16-4656-837f-b9ab9f001b03","ios":"levelo://app?vid=f257b2d0-1f16-4656-837f-b9ab9f001b03"},"vehicle_type_id":"4","last_reported":1767481862,"current_range_meters":8800,"station_id":"st_d2o4gvlbi1j2169b742g","pricing_plan_id":"cebpf4jnsgd1na2vs0mg"},{"bike_id":"8daa6ea0-c51c-417e-b7c7-aa57a3739cb8","system_id":"levelo_inurba_marseille","lat":43.29736,"lon":5.38073,"is_reserved":false,"is_disabled":false,"rental_uris":{"android":"levelo://app?vid=8daa6ea0-c51c-417e-b7c7-aa57a3739cb8","ios":"levelo://app?vid=8daa6ea0-c51c-417e-b7c7-aa57a3739cb8"},"vehicle_type_id":"4","last_reported":1767481862,"current_range_meters":8800,"station_id":"","pricing_plan_id":"cebpf4jnsgd1na2vs0mg"},{"bike_id":"73428eec-4c36-4c5f-9923-72dd40a75189","system_id":"levelo_inurba_marseille","lat":43.28163,"lon":5.42631,"is_reserved":false,"is_disabled":false,"rental_uris":{"android":"levelo://app?vid=73428eec-4c36-4c5f-9923-72dd40a75189","ios":"levelo://app?vid=73428eec-4c36-4c5f-9923-72dd40a75189"},"vehicle_type_id":"4","last_reported":1767481862,"current_range_meters":8800,"station_id":"ce4bhnh2rcd13ifvqgug","pricing_plan_id":"cebpf4jnsgd1na2vs0mg"},{"bike_id":"76cfe7ab-794a-46b5-9e73-8bb3ec2a5b3c","system_id":"levelo_inurba_marseille","lat":43.29233,"lon":5.36075,"is_reserved":false,"is_disabled":false,"rental_uris":{"android":"levelo://app?vid=76cfe7ab-794a-46b5-9e73-8bb3ec2a5b3c","ios":"levelo://app?vid=76cfe7ab-794a-46b5-9e73-8bb3ec2a5b3c"},"vehicle_type_id":"4","last_reported":1767481862,"current_range_meters":8800,"station_id":"ce4bhbh2rcd13ifvqeqg","pricing_plan_id":"cebpf4jnsgd1na2vs0mg"},{"bike_id":"20d5f085-f6f8-41a4-83ff-324364b933ea","system_id":"levelo_inurba_marseille","lat":43.29861,"lon":5.36256,"is_reserved":false,"is_disabled":false,"rental_uris":{"android":"levelo://app?vid=20d5f085-f6f8-41a4-83ff-324364b933ea","ios":"levelo://app?vid=20d5f085-f6f8-41a4-83ff-324364b933ea"},"vehicle_type_id":"4","last_reported":1767481862,"current_range_meters":8800,"station_id":"ce4bgpp2rcd13ifvqc3g","pricing_plan_id":"cebpf4jnsgd1na2vs0mg"},{"bike_id":"7f82846f-a9c2-426e-b04f-d573601c2c1e","system_id":"levelo_inurba_marseille","lat":43.24651,"lon":5.43115,"is_reserved":false,"is_disabled":false,"rental_uris":{"android":"levelo://app?vid=7f82846f-a9c2-426e-b04f-d573601c2c1e","ios":"levelo://app?vid=7f82846f-a9c2-426e-b04f-d573601c2c1e"},"vehicle_type_id":"4","last_reported":1767481862,"current_range_meters":8800,"station_id":"st_d2m6c4gdas8pm72e190g","pricing_plan_id":"cebpf4jnsgd1na2vs0mg"},{"bike_id":"69161e8f-51d3-4034-b7dc-9a0c99d58e5d","system_id":"levelo_inurba_marseille","lat":43.29741,"lon":5.37861,"is_reserved":false,"is_disabled":false,"rental_uris":{"android":"levelo://app?vid=69161e8f-51d3-4034-b7dc-9a0c99d58e5d","ios":"levelo://app?vid=69161e8f-51d3-4034-b7dc-9a0c99d58e5d"},"vehicle_type_id":"4","last_reported":1767481862,"current_range_meters":8800,"station_id":"","pricing_plan_id":"cebpf4jnsgd1na2vs0mg"},{"bike_id":"dd3326ea-ad71-4f86-88d6-f79309f37529","system_id":"levelo_inurba_marseille","lat":43.24421,"lon":5.37048,"is_reserved":false,"is_disabled":false,"rental_uris":{"android":"levelo://app?vid=dd3326ea-ad71-4f86-88d6-f79309f37529","ios":"levelo://app?vid=dd3326ea-ad71-4f86-88d6-f79309f37529"},"vehicle_type_id":"4","last_reported":1767481862,"current_range_meters":9200,"station_id":"ce4bhhh2rcd13ifvqfk0","pricing_plan_id":"cebpf4jnsgd1na2vs0mg"},{"bike_id":"0e471836-29c5-4d70-93bc-4b375d486538","system_id":"levelo_inurba_marseille","lat":43.2945,"lon":5.39666,"is_reserved":false,"is_disabled":false,"rental_uris":{"android":"levelo://app?vid=0e471836-29c5-4d70-93bc-4b375d486538","ios":"levelo://app?vid=0e471836-29c5-4d70-93bc-4b375d486538"},"vehicle_type_id":"4","last_reported":1767481862,"current_range_meters":9200,"station_id":"","pricing_plan_id":"cebpf4jnsgd1na2vs0mg"},{"bike_id":"069e0897-8da2-45e6-aee3-9dedd86fd186","system_id":"levelo_inurba_marseille","lat":43.26199,"lon":5.3744,"is_reserved":false,"is_disabled":false,"rental_uris":{"android":"levelo://app?vid=069e0897-8da2-45e6-aee3-9dedd86fd186","ios":"levelo://app?vid=069e0897-8da2-45e6-aee3-9dedd86fd186"},"vehicle_type_id":"4","last_reported":1767481862,"current_range_meters":9200,"station_id":"ce4bhgp2rcd13ifvqfc0","pricing_plan_id":"cebpf4jnsgd1na2vs0mg"},{"bike_id":"f631b3ee-7210-4467-997c-2fcb8a8b1933","system_id":"levelo_inurba_marseille","lat":43.26676,"lon":5.38263,"is_reserved":false,"is_disabled":false,"rental_uris":{"android":"levelo://app?vid=f631b3ee-7210-4467-997c-2fcb8a8b1933","ios":"levelo://app?vid=f631b3ee-7210-4467-997c-2fcb8a8b1933"},"vehicle_type_id":"4","last_reported":1767481862,"current_range_meters":9200,"station_id":"ce4bhg92rcd13ifvqf90","pricing_plan_id":"cebpf4jnsgd1na2vs0mg"},{"bike_id":"35d860d4-6ea7-4d26-b614-c09aa12978bc","system_id":"levelo_inurba_marseille","lat":43.28865,"lon":5.35839,"is_reserved":false,"is_disabled":false,"rental_uris":{"android":"levelo://app?vid=35d860d4-6ea7-4d26-b614-c09aa12978bc","ios":"levelo://app?vid=35d860d4-6ea7-4d26-b614-c09aa12978bc"},"vehicle_type_id":"4","last_reported":1767481862,"current_range_meters":9200,"station_id":"ce4bhb12rcd13ifvqem0","pricing_plan_id":"cebpf4jnsgd1na2vs0mg"},{"bike_id":"0918e6ca-9694-48a3-b7b0-8e3e65954976","system_id":"levelo_inurba_marseille","lat":43.30129,"lon":5.38056,"is_reserved":false,"is_disabled":false,"rental_uris":{"android":"levelo://app?vid=0918e6ca-9694-48a3-b7b0-8e3e65954976","ios":"levelo://app?vid=0918e6ca-9694-48a3-b7b0-8e3e65954976"},"vehicle_type_id":"4","last_reported":1767481862,"current_range_meters":9200,"station_id":"ce4bgjp2rcd13ifvqbh0","pricing_plan_id":"cebpf4jnsgd1na2vs0mg"},{"bike_id":"9adcd37d-8eaa-40b0-986c-a24619cab993","system_id":"levelo_inurba_marseille","lat":43.27958,"lon":5.38624,"is_reserved":false,"is_disabled":false,"rental_uris":{"android":"levelo://app?vid=9adcd37d-8eaa-40b0-986c-a24619cab993","ios":"levelo://app?vid=9adcd37d-8eaa-40b0-986c-a24619cab993"},"vehicle_type_id":"4","last_reported":1767481862,"current_range_meters":9200,"station_id":"ce4bhg12rcd13ifvqf80","pricing_plan_id":"cebpf4jnsgd1na2vs0mg"},{"bike_id":"e44cab74-f685-400b-b393-d23149de2a52","system_id":"levelo_inurba_marseille","lat":43.243334,"lon":5.368015,"is_reserved":false,"is_disabled":false,"rental_uris":{"android":"levelo://app?vid=e44cab74-f685-400b-b393-d23149de2a52","ios":"levelo://app?vid=e44cab74-f685-400b-b393-d23149de2a52"},"vehicle_type_id":"4","last_reported":1767481862,"current_range_meters":9200,"station_id":"cpo36qri1sfpv3e86is0","pricing_plan_id":"cebpf4jnsgd1na2vs0mg"},{"bike_id":"314f1e79-75d2-4520-879c-5c75bd15a245","system_id":"levelo_inurba_marseille","lat":43.27662,"lon":5.41886,"is_reserved":false,"is_disabled":false,"rental_uris":{"android":"levelo://app?vid=314f1e79-75d2-4520-879c-5c75bd15a245","ios":"levelo://app?vid=314f1e79-75d2-4520-879c-5c75bd15a245"},"vehicle_type_id":"4","last_reported":1767481862,"current_range_meters":9200,"station_id":"","pricing_plan_id":"cebpf4jnsgd1na2vs0mg"},{"bike_id":"fbdd49c1-7e16-4b0d-9464-4f1899b2871a","system_id":"levelo_inurba_marseille","lat":43.27916,"lon":5.39581,"is_reserved":false,"is_disabled":false,"rental_uris":{"android":"levelo://app?vid=fbdd49c1-7e16-4b0d-9464-4f1899b2871a","ios":"levelo://app?vid=fbdd49c1-7e16-4b0d-9464-4f1899b2871a"},"vehicle_type_id":"4","last_reported":1767481862,"current_range_meters":9200,"station_id":"ce4bhf92rcd13ifvqf40","pricing_plan_id":"cebpf4jnsgd1na2vs0mg"},{"bike_id":"57b725a6-cdde-4849-96a9-7686225f0651","system_id":"levelo_inurba_marseille","lat":43.2848,"lon":5.38407,"is_reserved":false,"is_disabled":false,"rental_uris":{"android":"levelo://app?vid=57b725a6-cdde-4849-96a9-7686225f0651","ios":"levelo://app?vid=57b725a6-cdde-4849-96a9-7686225f0651"},"vehicle_type_id":"4","last_reported":1767481862,"current_range_meters":9200,"station_id":"ce4bh512rcd13ifvqe3g","pricing_plan_id":"cebpf4jnsgd1na2vs0mg"},{"bike_id":"b98c4bb3-e84f-4703-8006-455cb12ed450","system_id":"levelo_inurba_marseille","lat":43.2883,"lon":5.42628,"is_reserved":false,"is_disabled":false,"rental_uris":{"android":"levelo://app?vid=b98c4bb3-e84f-4703-8006-455cb12ed450","ios":"levelo://app?vid=b98c4bb3-e84f-4703-8006-455cb12ed450"},"vehicle_type_id":"4","last_reported":1767481862,"current_range_meters":9200,"station_id":"","pricing_plan_id":"cebpf4jnsgd1na2vs0mg"},{"bike_id":"7e37952a-94ec-4f1e-959e-53f61206aa5b","system_id":"levelo_inurba_marseille","lat":43.28347,"lon":5.38618,"is_reserved":false,"is_disabled":false,"rental_uris":{"android":"levelo://app?vid=7e37952a-94ec-4f1e-959e-53f61206aa5b","ios":"levelo://app?vid=7e37952a-94ec-4f1e-959e-53f61206aa5b"},"vehicle_type_id":"4","last_reported":1767481862,"current_range_meters":9200,"station_id":"ce4bh492rcd13ifvqdvg","pricing_plan_id":"cebpf4jnsgd1na2vs0mg"},{"bike_id":"dd1e0418-c61b-4102-a323-55dfd0941e3d","system_id":"levelo_inurba_marseille","lat":43.232,"lon":5.35533,"is_reserved":false,"is_disabled":false,"rental_uris":{"android":"levelo://app?vid=dd1e0418-c61b-4102-a323-55dfd0941e3d","ios":"levelo://app?vid=dd1e0418-c61b-4102-a323-55dfd0941e3d"},"vehicle_type_id":"4","last_reported":1767481862,"current_range_meters":9200,"station_id":"ce4bhu92rcd13ifvqi70","pricing_plan_id":"cebpf4jnsgd1na2vs0mg"},{"bike_id":"71909d0f-d574-439b-aabf-5811d30e74ff","system_id":"levelo_inurba_marseille","lat":43.28695,"lon":5.39995,"is_reserved":false,"is_disabled":false,"rental_uris":{"android":"levelo://app?vid=71909d0f-d574-439b-aabf-5811d30e74ff","ios":"levelo://app?vid=71909d0f-d574-439b-aabf-5811d30e74ff"},"vehicle_type_id":"4","last_reported":1767481862,"current_range_meters":9200,"station_id":"ce4bho92rcd13ifvqh3g","pricing_plan_id":"cebpf4jnsgd1na2vs0mg"},{"bike_id":"9266c9ee-84f2-41f3-ba5f-42f44b708c8b","system_id":"levelo_inurba_marseille","lat":43.24623,"lon":5.43151,"is_reserved":false,"is_disabled":false,"rental_uris":{"android":"levelo://app?vid=9266c9ee-84f2-41f3-ba5f-42f44b708c8b","ios":"levelo://app?vid=9266c9ee-84f2-41f3-ba5f-42f44b708c8b"},"vehicle_type_id":"4","last_reported":1767481862,"current_range_meters":9200,"station_id":"st_d2m6c4gdas8pm72e190g","pricing_plan_id":"cebpf4jnsgd1na2vs0mg"},{"bike_id":"b3d59484-cd19-45d2-b606-93493278f957","system_id":"levelo_inurba_marseille","lat":43.29557,"lon":5.4227,"is_reserved":false,"is_disabled":false,"rental_uris":{"android":"levelo://app?vid=b3d59484-cd19-45d2-b606-93493278f957","ios":"levelo://app?vid=b3d59484-cd19-45d2-b606-93493278f957"},"vehicle_type_id":"4","last_reported":1767481862,"current_range_meters":9600,"station_id":"ce4bhph2rcd13ifvqhdg","pricing_plan_id":"cebpf4jnsgd1na2vs0mg"},{"bike_id":"477ba31f-c2c7-4a1d-8843-796b8a55f55c","system_id":"levelo_inurba_marseille","lat":43.28507,"lon":5.38382,"is_reserved":false,"is_disabled":false,"rental_uris":{"android":"levelo://app?vid=477ba31f-c2c7-4a1d-8843-796b8a55f55c","ios":"levelo://app?vid=477ba31f-c2c7-4a1d-8843-796b8a55f55c"},"vehicle_type_id":"4","last_reported":1767481862,"current_range_meters":9600,"station_id":"ce4bh512rcd13ifvqe3g","pricing_plan_id":"cebpf4jnsgd1na2vs0mg"},{"bike_id":"236dd84d-8375-4d9b-8e7d-9db60d676bfe","system_id":"levelo_inurba_marseille","lat":43.24695,"lon":5.38151,"is_reserved":false,"is_disabled":false,"rental_uris":{"android":"levelo://app?vid=236dd84d-8375-4d9b-8e7d-9db60d676bfe","ios":"levelo://app?vid=236dd84d-8375-4d9b-8e7d-9db60d676bfe"},"vehicle_type_id":"4","last_reported":1767481862,"current_range_meters":9600,"station_id":"ce4bhih2rcd13ifvqfr0","pricing_plan_id":"cebpf4jnsgd1na2vs0mg"},{"bike_id":"97186327-2422-4fe5-be9c-f123586b9f1f","system_id":"levelo_inurba_marseille","lat":43.34937,"lon":5.41543,"is_reserved":false,"is_disabled":false,"rental_uris":{"android":"levelo://app?vid=97186327-2422-4fe5-be9c-f123586b9f1f","ios":"levelo://app?vid=97186327-2422-4fe5-be9c-f123586b9f1f"},"vehicle_type_id":"4","last_reported":1767481862,"current_range_meters":9600,"station_id":"","pricing_plan_id":"cebpf4jnsgd1na2vs0mg"},{"bike_id":"ca0c01c7-fbdb-4547-a3b0-3f7514c0d05b","system_id":"levelo_inurba_marseille","lat":43.28418,"lon":5.34985,"is_reserved":false,"is_disabled":false,"rental_uris":{"android":"levelo://app?vid=ca0c01c7-fbdb-4547-a3b0-3f7514c0d05b","ios":"levelo://app?vid=ca0c01c7-fbdb-4547-a3b0-3f7514c0d05b"},"vehicle_type_id":"4","last_reported":1767481862,"current_range_meters":9600,"station_id":"ce4bhbh2rcd13ifvqepg","pricing_plan_id":"cebpf4jnsgd1na2vs0mg"},{"bike_id":"4e839bab-c0a4-4f9b-8de3-cb292b501eb1","system_id":"levelo_inurba_marseille","lat":43.225341,"lon":5.348293,"is_reserved":false,"is_disabled":false,"rental_uris":{"android":"levelo://app?vid=4e839bab-c0a4-4f9b-8de3-cb292b501eb1","ios":"levelo://app?vid=4e839bab-c0a4-4f9b-8de3-cb292b501eb1"},"vehicle_type_id":"4","last_reported":1767481862,"current_range_meters":9600,"station_id":"","pricing_plan_id":"cebpf4jnsgd1na2vs0mg"},{"bike_id":"7da449bd-25d7-4771-9935-4208387ef603","system_id":"levelo_inurba_marseille","lat":43.29551,"lon":5.42288,"is_reserved":false,"is_disabled":false,"rental_uris":{"android":"levelo://app?vid=7da449bd-25d7-4771-9935-4208387ef603","ios":"levelo://app?vid=7da449bd-25d7-4771-9935-4208387ef603"},"vehicle_type_id":"4","last_reported":1767481862,"current_range_meters":9600,"station_id":"ce4bhph2rcd13ifvqhdg","pricing_plan_id":"cebpf4jnsgd1na2vs0mg"},{"bike_id":"1c65de88-5163-4cb5-b996-8f6c30fbe705","system_id":"levelo_inurba_marseille","lat":43.305391,"lon":5.365178,"is_reserved":false,"is_disabled":false,"rental_uris":{"android":"levelo://app?vid=1c65de88-5163-4cb5-b996-8f6c30fbe705","ios":"levelo://app?vid=1c65de88-5163-4cb5-b996-8f6c30fbe705"},"vehicle_type_id":"4","last_reported":1767481862,"current_range_meters":9600,"station_id":"ce4bgs12rcd13ifvqcag","pricing_plan_id":"cebpf4jnsgd1na2vs0mg"},{"bike_id":"a668d423-78fb-4d5c-b207-fb7699a9ad75","system_id":"levelo_inurba_marseille","lat":43.30616,"lon":5.37232,"is_reserved":false,"is_disabled":false,"rental_uris":{"android":"levelo://app?vid=a668d423-78fb-4d5c-b207-fb7699a9ad75","ios":"levelo://app?vid=a668d423-78fb-4d5c-b207-fb7699a9ad75"},"vehicle_type_id":"4","last_reported":1767481862,"current_range_meters":9600,"station_id":"ce4bgqh2rcd13ifvqc4g","pricing_plan_id":"cebpf4jnsgd1na2vs0mg"},{"bike_id":"dc27f3eb-57f1-4106-868f-05862cbe6e1b","system_id":"levelo_inurba_marseille","lat":43.28601,"lon":5.39942,"is_reserved":false,"is_disabled":false,"rental_uris":{"android":"levelo://app?vid=dc27f3eb-57f1-4106-868f-05862cbe6e1b","ios":"levelo://app?vid=dc27f3eb-57f1-4106-868f-05862cbe6e1b"},"vehicle_type_id":"4","last_reported":1767481862,"current_range_meters":9600,"station_id":"","pricing_plan_id":"cebpf4jnsgd1na2vs0mg"},{"bike_id":"7f01de1e-82c5-4abd-a8a0-bd31c8a992fa","system_id":"levelo_inurba_marseille","lat":43.29979,"lon":5.41326,"is_reserved":false,"is_disabled":true,"rental_uris":{"android":"levelo://app?vid=7f01de1e-82c5-4abd-a8a0-bd31c8a992fa","ios":"levelo://app?vid=7f01de1e-82c5-4abd-a8a0-bd31c8a992fa"},"vehicle_type_id":"4","last_reported":1767481862,"current_range_meters":9600,"station_id":"ce4bhp12rcd13ifvqh9g","pricing_plan_id":"cebpf4jnsgd1na2vs0mg"},{"bike_id":"6575d6a9-ccef-46e1-8060-3b89de27fb46","system_id":"levelo_inurba_marseille","lat":43.33566,"lon":5.37433,"is_reserved":false,"is_disabled":false,"rental_uris":{"android":"levelo://app?vid=6575d6a9-ccef-46e1-8060-3b89de27fb46","ios":"levelo://app?vid=6575d6a9-ccef-46e1-8060-3b89de27fb46"},"vehicle_type_id":"4","last_reported":1767481862,"current_range_meters":9600,"station_id":"st_d46tts09ee8s73dlu43g","pricing_plan_id":"cebpf4jnsgd1na2vs0mg"},{"bike_id":"524c1ed8-572d-4bd4-ab56-ccc941c96a3e","system_id":"levelo_inurba_marseille","lat":43.28626,"lon":5.35097,"is_reserved":false,"is_disabled":false,"rental_uris":{"android":"levelo://app?vid=524c1ed8-572d-4bd4-ab56-ccc941c96a3e","ios":"levelo://app?vid=524c1ed8-572d-4bd4-ab56-ccc941c96a3e"},"vehicle_type_id":"4","last_reported":1767481862,"current_range_meters":9600,"station_id":"ce4bhch2rcd13ifvqeug","pricing_plan_id":"cebpf4jnsgd1na2vs0mg"},{"bike_id":"2be57466-a646-4f79-84c2-74019bc2d375","system_id":"levelo_inurba_marseille","lat":43.27942,"lon":5.41048,"is_reserved":false,"is_disabled":false,"rental_uris":{"android":"levelo://app?vid=2be57466-a646-4f79-84c2-74019bc2d375","ios":"levelo://app?vid=2be57466-a646-4f79-84c2-74019bc2d375"},"vehicle_type_id":"4","last_reported":1767481862,"current_range_meters":10000,"station_id":"ce4bhnp2rcd13ifvqh0g","pricing_plan_id":"cebpf4jnsgd1na2vs0mg"},{"bike_id":"49212ed5-2707-44a2-b518-ba6b47efb9fd","system_id":"levelo_inurba_marseille","lat":43.28927,"lon":5.38387,"is_reserved":false,"is_disabled":false,"rental_uris":{"android":"levelo://app?vid=49212ed5-2707-44a2-b518-ba6b47efb9fd","ios":"levelo://app?vid=49212ed5-2707-44a2-b518-ba6b47efb9fd"},"vehicle_type_id":"4","last_reported":1767481862,"current_range_meters":10000,"station_id":"ce4bh612rcd13ifvqe6g","pricing_plan_id":"cebpf4jnsgd1na2vs0mg"},{"bike_id":"067249c4-fb35-421e-9a6c-c895241c197a","system_id":"levelo_inurba_marseille","lat":43.29481,"lon":5.39295,"is_reserved":false,"is_disabled":false,"rental_uris":{"android":"levelo://app?vid=067249c4-fb35-421e-9a6c-c895241c197a","ios":"levelo://app?vid=067249c4-fb35-421e-9a6c-c895241c197a"},"vehicle_type_id":"4","last_reported":1767481862,"current_range_meters":10000,"station_id":"","pricing_plan_id":"cebpf4jnsgd1na2vs0mg"},{"bike_id":"7f889366-09db-4740-a1c0-e9409a42cbcc","system_id":"levelo_inurba_marseille","lat":43.31193,"lon":5.3684,"is_reserved":false,"is_disabled":false,"rental_uris":{"android":"levelo://app?vid=7f889366-09db-4740-a1c0-e9409a42cbcc","ios":"levelo://app?vid=7f889366-09db-4740-a1c0-e9409a42cbcc"},"vehicle_type_id":"4","last_reported":1767481862,"current_range_meters":10000,"station_id":"ce4bgl92rcd13ifvqbq0","pricing_plan_id":"cebpf4jnsgd1na2vs0mg"},{"bike_id":"27626489-9a85-450c-865a-899c2f469916","system_id":"levelo_inurba_marseille","lat":43.25572,"lon":5.38215,"is_reserved":false,"is_disabled":false,"rental_uris":{"android":"levelo://app?vid=27626489-9a85-450c-865a-899c2f469916","ios":"levelo://app?vid=27626489-9a85-450c-865a-899c2f469916"},"vehicle_type_id":"4","last_reported":1767481862,"current_range_meters":10000,"station_id":"ce4bhih2rcd13ifvqfs0","pricing_plan_id":"cebpf4jnsgd1na2vs0mg"},{"bike_id":"d1028c8d-4c1a-4ce3-bb87-06b106258967","system_id":"levelo_inurba_marseille","lat":43.30106,"lon":5.37086,"is_reserved":false,"is_disabled":false,"rental_uris":{"android":"levelo://app?vid=d1028c8d-4c1a-4ce3-bb87-06b106258967","ios":"levelo://app?vid=d1028c8d-4c1a-4ce3-bb87-06b106258967"},"vehicle_type_id":"4","last_reported":1767481862,"current_range_meters":10000,"station_id":"","pricing_plan_id":"cebpf4jnsgd1na2vs0mg"},{"bike_id":"5abeab1b-faee-4efd-b658-f0a83fb10313","system_id":"levelo_inurba_marseille","lat":43.26201,"lon":5.37455,"is_reserved":false,"is_disabled":false,"rental_uris":{"android":"levelo://app?vid=5abeab1b-faee-4efd-b658-f0a83fb10313","ios":"levelo://app?vid=5abeab1b-faee-4efd-b658-f0a83fb10313"},"vehicle_type_id":"4","last_reported":1767481862,"current_range_meters":10000,"station_id":"ce4bhgp2rcd13ifvqfc0","pricing_plan_id":"cebpf4jnsgd1na2vs0mg"},{"bike_id":"810c7ae0-2bf9-4fb7-9de0-ed0f816ef902","system_id":"levelo_inurba_marseille","lat":43.2795,"lon":5.41042,"is_reserved":false,"is_disabled":false,"rental_uris":{"android":"levelo://app?vid=810c7ae0-2bf9-4fb7-9de0-ed0f816ef902","ios":"levelo://app?vid=810c7ae0-2bf9-4fb7-9de0-ed0f816ef902"},"vehicle_type_id":"4","last_reported":1767481862,"current_range_meters":10000,"station_id":"ce4bhnp2rcd13ifvqh0g","pricing_plan_id":"cebpf4jnsgd1na2vs0mg"},{"bike_id":"195e2e14-0016-420f-a925-0b6877e427aa","system_id":"levelo_inurba_marseille","lat":43.22933,"lon":5.35356,"is_reserved":false,"is_disabled":false,"rental_uris":{"android":"levelo://app?vid=195e2e14-0016-420f-a925-0b6877e427aa","ios":"levelo://app?vid=195e2e14-0016-420f-a925-0b6877e427aa"},"vehicle_type_id":"4","last_reported":1767481862,"current_range_meters":10000,"station_id":"cpo3532slgdg3j2ikp40","pricing_plan_id":"cebpf4jnsgd1na2vs0mg"},{"bike_id":"f37c8ab2-4055-4d0c-bc22-679bade32c8c","system_id":"levelo_inurba_marseille","lat":43.30678,"lon":5.37203,"is_reserved":false,"is_disabled":false,"rental_uris":{"android":"levelo://app?vid=f37c8ab2-4055-4d0c-bc22-679bade32c8c","ios":"levelo://app?vid=f37c8ab2-4055-4d0c-bc22-679bade32c8c"},"vehicle_type_id":"4","last_reported":1767481862,"current_range_meters":10000,"station_id":"","pricing_plan_id":"cebpf4jnsgd1na2vs0mg"},{"bike_id":"47f5f321-0859-44a5-a3e2-7e35572c8bac","system_id":"levelo_inurba_marseille","lat":43.27075,"lon":5.42276,"is_reserved":false,"is_disabled":false,"rental_uris":{"android":"levelo://app?vid=47f5f321-0859-44a5-a3e2-7e35572c8bac","ios":"levelo://app?vid=47f5f321-0859-44a5-a3e2-7e35572c8bac"},"vehicle_type_id":"4","last_reported":1767481862,"current_range_meters":10000,"station_id":"ce4bhk92rcd13ifvqgb0","pricing_plan_id":"cebpf4jnsgd1na2vs0mg"},{"bike_id":"0373ff05-39e7-4159-96a1-bf3592dfa78f","system_id":"levelo_inurba_marseille","lat":43.30337,"lon":5.3656,"is_reserved":false,"is_disabled":false,"rental_uris":{"android":"levelo://app?vid=0373ff05-39e7-4159-96a1-bf3592dfa78f","ios":"levelo://app?vid=0373ff05-39e7-4159-96a1-bf3592dfa78f"},"vehicle_type_id":"4","last_reported":1767481862,"current_range_meters":10000,"station_id":"","pricing_plan_id":"cebpf4jnsgd1na2vs0mg"},