{"last_updated":1747559364,"ttl":60,"version":"2.2","data":{"bikes":[{"bike_id":"7ef5f244-0cb5-4598-aaa9-0b13a07a0270","system_id":"levelo_inurba_marseille","lat":43.23965,"lon":5.36625,"is_reserved":false,"is_disabled":false,"rental_uris":{"android":"levelo://app?vid=7ef5f244-0cb5-4598-aaa9-0b13a07a0270","ios":"levelo://app?vid=7ef5f244-0cb5-4598-aaa9-0b13a07a0270"},"vehicle_type_id":"4","last_reported":1747559364,"current_range_meters":2800,"station_id":"ce4bhi12rcd13ifvqfp0","pricing_plan_id":"cebpf4jnsgd1na2vs0mg"},{"bike_id":"1cefc9d4-0786-43ed-b608-30b41ddb144b","system_id":"levelo_inurba_marseille","lat":43.26553,"lon":5.372834,"is_reserved":false,"is_disabled":false,"rental_uris":{"android":"levelo://app?vid=1cefc9d4-0786-43ed-b608-30b41ddb144b","ios":"levelo://app?vid=1cefc9d4-0786-43ed-b608-30b41ddb144b"},"vehicle_type_id":"4","last_reported":1747559364,"current_range_meters":2800,"station_id":"","pricing_plan_id":"cebpf4jnsgd1na2vs0mg"},{"bike_id":"3200028d-adb7-46d7-854a-0d16d1a6f998","system_id":"levelo_inurba_marseille","lat":43.297935,"lon":5.380965,"is_reserved":false,"is_disabled":true,"rental_uris":{"android":"levelo://app?vid=3200028d-adb7-46d7-854a-0d16d1a6f998","ios":"levelo://app?vid=3200028d-adb7-46d7-854a-0d16d1a6f998"},"vehicle_type_id":"4","last_reported":1747559364,"current_range_meters":3200,"station_id":"ce4bgip2rcd13ifvqbb0","pricing_plan_id":"cebpf4jnsgd1na2vs0mg"},{"bike_id":"313766d5-4150-4bd9-8c15-d99705762f75","system_id":"levelo_inurba_marseille","lat":43.21743,"lon":5.34603,"is_reserved":false,"is_disabled":false,"rental_uris":{"android":"levelo://app?vid=313766d5-4150-4bd9-8c15-d99705762f75","ios":"levelo://app?vid=313766d5-4150-4bd9-8c15-d99705762f75"},"vehicle_type_id":"4","last_reported":1747559364,"current_range_meters":3200,"station_id":"st_cvj6r9ubvosntc0bgbag","pricing_plan_id":"cebpf4jnsgd1na2vs0mg"},{"bike_id":"e5faa87c-800f-4c13-bb95-4090fd787427","system_id":"levelo_inurba_marseille","lat":43.23323,"lon":5.39974,"is_reserved":false,"is_disabled":false,"rental_uris":{"android":"levelo://app?vid=e5faa87c-800f-4c13-bb95-4090fd787427","ios":"levelo://app?vid=e5faa87c-800f-4c13-bb95-4090fd787427"},"vehicle_type_id":"4","last_reported":1747559364,"current_range_meters":3200,"station_id":"","pricing_plan_id":"cebpf4jnsgd1na2vs0mg"},{"bike_id":"6d500971-4353-4229-b3cf-3802b55a172e","system_id":"levelo_inurba_marseille","lat":43.255664,"lon":5.382459,"is_reserved":false,"is_disabled":false,"rental_uris":{"android":"levelo://app?vid=6d500971-4353-4229-b3cf-3802b55a172e","ios":"levelo://app?vid=6d500971-4353-4229-b3cf-3802b55a172e"},"vehicle_type_id":"4","last_reported":1747559364,"current_range_meters":3600,"station_id":"ce4bhih2rcd13ifvqfs0","pricing_plan_id":"cebpf4jnsgd1na2vs0mg"},{"bike_id":"258362a5-85fb-475f-a2d2-ffd949b0b2fa","system_id":"levelo_inurba_marseille","lat":43.295828,"lon":5.375221,"is_reserved":false,"is_disabled":false,"rental_uris":{"android":"levelo://app?vid=258362a5-85fb-475f-a2d2-ffd949b0b2fa","ios":"levelo://app?vid=258362a5-85fb-475f-a2d2-ffd949b0b2fa"},"vehicle_type_id":"4","last_reported":1747559364,"current_range_meters":3600,"station_id":"ce4bgh92rcd13ifvqb50","pricing_plan_id":"cebpf4jnsgd1na2vs0mg"},{"bike_id":"a4063de7-3465-4b39-9bf8-ef1a75de7c2d","system_id":"levelo_inurba_marseille","lat":43.28612,"lon":5.46039,"is_reserved":false,"is_disabled":false,"rental_uris":{"android":"levelo://app?vid=a4063de7-3465-4b39-9bf8-ef1a75de7c2d","ios":"levelo://app?vid=a4063de7-3465-4b39-9bf8-ef1a75de7c2d"},"vehicle_type_id":"4","last_reported":1747559364,"current_range_meters":3600,"station_id":"","pricing_plan_id":"cebpf4jnsgd1na2vs0mg"},{"bike_id":"f9bd1aac-8546-43f2-b958-4186b2a9d52e","system_id":"levelo_inurba_marseille","lat":43.265537,"lon":5.372847,"is_reserved":false,"is_disabled":false,"rental_uris":{"android":"levelo://app?vid=f9bd1aac-8546-43f2-b958-4186b2a9d52e","ios":"levelo://app?vid=f9bd1aac-8546-43f2-b958-4186b2a9d52e"},"vehicle_type_id":"4","last_reported":1747559364,"current_range_meters":3600,"station_id":"ce4bhg12rcd13ifvqf70","pricing_plan_id":"cebpf4jnsgd1na2vs0mg"},{"bike_id":"3fa58c22-00c6-48db-914d-ec2861a3d890","system_id":"levelo_inurba_marseille","lat":43.310808,"lon":5.402323,"is_reserved":false,"is_disabled":false,"rental_uris":{"android":"levelo://app?vid=3fa58c22-00c6-48db-914d-ec2861a3d890","ios":"levelo://app?vid=3fa58c22-00c6-48db-914d-ec2861a3d890"},"vehicle_type_id":"4","last_reported":1747559364,"current_range_meters":3600,"station_id":"","pricing_plan_id":"cebpf4jnsgd1na2vs0mg"},{"bike_id":"90b91ec4-9295-4740-af77-f3512896ed17","system_id":"levelo_inurba_marseille","lat":43.27376,"lon":5.36257,"is_reserved":false,"is_disabled":false,"rental_uris":{"android":"levelo://app?vid=90b91ec4-9295-4740-af77-f3512896ed17","ios":"levelo://app?vid=90b91ec4-9295-4740-af77-f3512896ed17"},"vehicle_type_id":"4","last_reported":1747559364,"current_range_meters":4000,"station_id":"ce4bhbh2rcd13ifvqeo0","pricing_plan_id":"cebpf4jnsgd1na2vs0mg"},{"bike_id":"882c8edc-b23c-4149-9ef3-3799cb998d04","system_id":"levelo_inurba_marseille","lat":43.26557,"lon":5.37284,"is_reserved":false,"is_disabled":false,"rental_uris":{"android":"levelo://app?vid=882c8edc-b23c-4149-9ef3-3799cb998d04","ios":"levelo://app?vid=882c8edc-b23c-4149-9ef3-3799cb998d04"},"vehicle_type_id":"4","last_reported":1747559364,"current_range_meters":4400,"station_id":"ce4bhg12rcd13ifvqf70","pricing_plan_id":"cebpf4jnsgd1na2vs0mg"},{"bike_id":"73fe2201-180f-4088-b74e-48ba4dd218f6","system_id":"levelo_inurba_marseille","lat":43.22933,"lon":5.35387,"is_reserved":false,"is_disabled":false,"rental_uris":{"android":"levelo://app?vid=73fe2201-180f-4088-b74e-48ba4dd218f6","ios":"levelo://app?vid=73fe2201-180f-4088-b74e-48ba4dd218f6"},"vehicle_type_id":"4","last_reported":1747559364,"current_range_meters":4400,"station_id":"cpo3532slgdg3j2ikp40","pricing_plan_id":"cebpf4jnsgd1na2vs0mg"},{"bike_id":"e1c8bd55-9b7c-4386-a9ae-56f3df26b8b4","system_id":"levelo_inurba_marseille","lat":43.24805,"lon":5.37461,"is_reserved":false,"is_disabled":false,"rental_uris":{"android":"levelo://app?vid=e1c8bd55-9b7c-4386-a9ae-56f3df26b8b4","ios":"levelo://app?vid=e1c8bd55-9b7c-4386-a9ae-56f3df26b8b4"},"vehicle_type_id":"4","last_reported":1747559364,"current_range_meters":4400,"station_id":"ce4bhgh2rcd13ifvqfb0","pricing_plan_id":"cebpf4jnsgd1na2vs0mg"},{"bike_id":"6cd5c425-f8ac-4068-b8ea-a8bfbef29ee5","system_id":"levelo_inurba_marseille","lat":43.249929,"lon":5.379415,"is_reserved":false,"is_disabled":false,"rental_uris":{"android":"levelo://app?vid=6cd5c425-f8ac-4068-b8ea-a8bfbef29ee5","ios":"levelo://app?vid=6cd5c425-f8ac-4068-b8ea-a8bfbef29ee5"},"vehicle_type_id":"4","last_reported":1747559364,"current_range_meters":4400,"station_id":"","pricing_plan_id":"cebpf4jnsgd1na2vs0mg"},{"bike_id":"3b843dca-d67a-4b0e-916b-710ebb36ec6d","system_id":"levelo_inurba_marseille","lat":43.325104,"lon":5.401383,"is_reserved":false,"is_disabled":false,"rental_uris":{"android":"levelo://app?vid=3b843dca-d67a-4b0e-916b-710ebb36ec6d","ios":"levelo://app?vid=3b843dca-d67a-4b0e-916b-710ebb36ec6d"},"vehicle_type_id":"4","last_reported":1747559364,"current_range_meters":4800,"station_id":"","pricing_plan_id":"cebpf4jnsgd1na2vs0mg"},{"bike_id":"528ce846-d574-43a0-841a-37a291d59045","system_id":"levelo_inurba_marseille","lat":43.28612,"lon":5.3511,"is_reserved":false,"is_disabled":false,"rental_uris":{"android":"levelo://app?vid=528ce846-d574-43a0-841a-37a291d59045","ios":"levelo://app?vid=528ce846-d574-43a0-841a-37a291d59045"},"vehicle_type_id":"4","last_reported":1747559364,"current_range_meters":4800,"station_id":"ce4bhch2rcd13ifvqeug","pricing_plan_id":"cebpf4jnsgd1na2vs0mg"},{"bike_id":"394cadcc-3a78-4403-9bfc-1006acf0fb23","system_id":"levelo_inurba_marseille","lat":43.26202,"lon":5.37928,"is_reserved":false,"is_disabled":true,"rental_uris":{"android":"levelo://app?vid=394cadcc-3a78-4403-9bfc-1006acf0fb23","ios":"levelo://app?vid=394cadcc-3a78-4403-9bfc-1006acf0fb23"},"vehicle_type_id":"4","last_reported":1747559364,"current_range_meters":4800,"station_id":"ce4bhjp2rcd13ifvqg90","pricing_plan_id":"cebpf4jnsgd1na2vs0mg"},{"bike_id":"fd799841-b591-43fe-9876-598df3901993","system_id":"levelo_inurba_marseille","lat":43.28266,"lon":5.35065,"is_reserved":false,"is_disabled":false,"rental_uris":{"android":"levelo://app?vid=fd799841-b591-43fe-9876-598df3901993","ios":"levelo://app?vid=fd799841-b591-43fe-9876-598df3901993"},"vehicle_type_id":"4","last_reported":1747559364,"current_range_meters":5600,"station_id":"ce4bhbp2rcd13ifvqerg","pricing_plan_id":"cebpf4jnsgd1na2vs0mg"},{"bike_id":"1e5a7839-d218-47a9-988d-f5fdcdfa5acb","system_id":"levelo_inurba_marseille","lat":43.25821,"lon":5.39434,"is_reserved":false,"is_disabled":false,"rental_uris":{"android":"levelo://app?vid=1e5a7839-d218-47a9-988d-f5fdcdfa5acb","ios":"levelo://app?vid=1e5a7839-d218-47a9-988d-f5fdcdfa5acb"},"vehicle_type_id":"4","last_reported":1747559364,"current_range_meters":5600,"station_id":"ce4bhip2rcd13ifvqft0","pricing_plan_id":"cebpf4jnsgd1na2vs0mg"},{"bike_id":"60f3da93-dedb-431c-a9b1-0a7bfb1036ce","system_id":"levelo_inurba_marseille","lat":43.30434,"lon":5.38886,"is_reserved":false,"is_disabled":false,"rental_uris":{"android":"levelo://app?vid=60f3da93-dedb-431c-a9b1-0a7bfb1036ce","ios":"levelo://app?vid=60f3da93-dedb-431c-a9b1-0a7bfb1036ce"},"vehicle_type_id":"4","last_reported":1747559364,"current_range_meters":4800,"station_id":"ce4bgk12rcd13ifvqbi0","pricing_plan_id":"cebpf4jnsgd1na2vs0mg"},{"bike_id":"5b9b5bd9-45ed-421c-9935-11f40b52ceb4","system_id":"levelo_inurba_marseille","lat":43.290244,"lon":5.386449,"is_reserved":false,"is_disabled":false,"rental_uris":{"android":"levelo://app?vid=5b9b5bd9-45ed-421c-9935-11f40b52ceb4","ios":"levelo://app?vid=5b9b5bd9-45ed-421c-9935-11f40b52ceb4"},"vehicle_type_id":"4","last_reported":1747559364,"current_range_meters":5600,"station_id":"ce4bh4p2rcd13ifvqe0g","pricing_plan_id":"cebpf4jnsgd1na2vs0mg"},{"bike_id":"459e5ceb-3503-4817-bb1b-289db9da9782","system_id":"levelo_inurba_marseille","lat":43.28262,"lon":5.35061,"is_reserved":false,"is_disabled":false,"rental_uris":{"android":"levelo://app?vid=459e5ceb-3503-4817-bb1b-289db9da9782","ios":"levelo://app?vid=459e5ceb-3503-4817-bb1b-289db9da9782"},"vehicle_type_id":"4","last_reported":1747559364,"current_range_meters":6000,"station_id":"ce4bhbp2rcd13ifvqerg","pricing_plan_id":"cebpf4jnsgd1na2vs0mg"},{"bike_id":"83df6560-d839-4cc1-b9c4-6c477190f614","system_id":"levelo_inurba_marseille","lat":43.243939,"lon":5.370714,"is_reserved":false,"is_disabled":true,"rental_uris":{"android":"levelo://app?vid=83df6560-d839-4cc1-b9c4-6c477190f614","ios":"levelo://app?vid=83df6560-d839-4cc1-b9c4-6c477190f614"},"vehicle_type_id":"4","last_reported":1747559364,"current_range_meters":6000,"station_id":"ce4bhhh2rcd13ifvqfk0","pricing_plan_id":"cebpf4jnsgd1na2vs0mg"},{"bike_id":"3fbeeede-cf5c-498d-89ef-f76a06ece679","system_id":"levelo_inurba_marseille","lat":43.286957,"lon":5.373838,"is_reserved":false,"is_disabled":false,"rental_uris":{"android":"levelo://app?vid=3fbeeede-cf5c-498d-89ef-f76a06ece679","ios":"levelo://app?vid=3fbeeede-cf5c-498d-89ef-f76a06ece679"},"vehicle_type_id":"4","last_reported":1747559364,"current_range_meters":6400,"station_id":"ce4bh512rcd13ifvqe3g","pricing_plan_id":"cebpf4jnsgd1na2vs0mg"},{"bike_id":"e14f7575-b29c-4546-8e86-70adba1d14c6","system_id":"levelo_inurba_marseille","lat":43.337444,"lon":5.374475,"is_reserved":false,"is_disabled":true,"rental_uris":{"android":"levelo://app?vid=e14f7575-b29c-4546-8e86-70adba1d14c6","ios":"levelo://app?vid=e14f7575-b29c-4546-8e86-70adba1d14c6"},"vehicle_type_id":"4","last_reported":1747559364,"current_range_meters":6000,"station_id":"","pricing_plan_id":"cebpf4jnsgd1na2vs0mg"},{"bike_id":"caab5910-fd75-4b75-8450-98e269522bea","system_id":"levelo_inurba_marseille","lat":43.28667,"lon":5.36353,"is_reserved":false,"is_disabled":false,"rental_uris":{"android":"levelo://app?vid=caab5910-fd75-4b75-8450-98e269522bea","ios":"levelo://app?vid=caab5910-fd75-4b75-8450-98e269522bea"},"vehicle_type_id":"4","last_reported":1747559364,"current_range_meters":5600,"station_id":"ce4bhah2rcd13ifvqej0","pricing_plan_id":"cebpf4jnsgd1na2vs0mg"},{"bike_id":"80ce8948-82cf-42c6-8ab6-4636b50ac5f8","system_id":"levelo_inurba_marseille","lat":43.315355,"lon":5.380192,"is_reserved":false,"is_disabled":false,"rental_uris":{"android":"levelo://app?vid=80ce8948-82cf-42c6-8ab6-4636b50ac5f8","ios":"levelo://app?vid=80ce8948-82cf-42c6-8ab6-4636b50ac5f8"},"vehicle_type_id":"4","last_reported":1747559364,"current_range_meters":6000,"station_id":"ce4bhsp2rcd13ifvqi50","pricing_plan_id":"cebpf4jnsgd1na2vs0mg"},{"bike_id":"bbda5443-72b0-478a-aaad-922de1a84bda","system_id":"levelo_inurba_marseille","lat":43.231575,"lon":5.436975,"is_reserved":false,"is_disabled":false,"rental_uris":{"android":"levelo://app?vid=bbda5443-72b0-478a-aaad-922de1a84bda","ios":"levelo://app?vid=bbda5443-72b0-478a-aaad-922de1a84bda"},"vehicle_type_id":"4","last_reported":1747559364,"current_range_meters":6000,"station_id":"ce4bhmp2rcd13ifvqgog","pricing_plan_id":"cebpf4jnsgd1na2vs0mg"},{"bike_id":"6c106e52-7d8f-423a-8c0a-84b8a8f196b5","system_id":"levelo_inurba_marseille","lat":43.29026,"lon":5.38646,"is_reserved":false,"is_disabled":false,"rental_uris":{"android":"levelo://app?vid=6c106e52-7d8f-423a-8c0a-84b8a8f196b5","ios":"levelo://app?vid=6c106e52-7d8f-423a-8c0a-84b8a8f196b5"},"vehicle_type_id":"4","last_reported":1747559364,"current_range_meters":6400,"station_id":"ce4bh4p2rcd13ifvqe0g","pricing_plan_id":"cebpf4jnsgd1na2vs0mg"},{"bike_id":"7711fff8-1c30-4c3a-aa27-6e5dbb51f698","system_id":"levelo_inurba_marseille","lat":43.25117,"lon":5.40319,"is_reserved":false,"is_disabled":false,"rental_uris":{"android":"levelo://app?vid=7711fff8-1c30-4c3a-aa27-6e5dbb51f698","ios":"levelo://app?vid=7711fff8-1c30-4c3a-aa27-6e5dbb51f698"},"vehicle_type_id":"4","last_reported":1747559364,"current_range_meters":6400,"station_id":"ce4bhlh2rcd13ifvqgig","pricing_plan_id":"cebpf4jnsgd1na2vs0mg"},{"bike_id":"5a205474-2c4f-4ed9-ae7e-22db2ffc99dc","system_id":"levelo_inurba_marseille","lat":43.27809,"lon":5.40706,"is_reserved":false,"is_disabled":false,"rental_uris":{"android":"levelo://app?vid=5a205474-2c4f-4ed9-ae7e-22db2ffc99dc","ios":"levelo://app?vid=5a205474-2c4f-4ed9-ae7e-22db2ffc99dc"},"vehicle_type_id":"4","last_reported":1747559364,"current_range_meters":6400,"station_id":"ce4bhnh2rcd13ifvqgtg","pricing_plan_id":"cebpf4jnsgd1na2vs0mg"},{"bike_id":"5cf16f92-b693-47c2-9e9c-211b074a5ed2","system_id":"levelo_inurba_marseille","lat":43.26557,"lon":5.37293,"is_reserved":false,"is_disabled":false,"rental_uris":{"android":"levelo://app?vid=5cf16f92-b693-47c2-9e9c-211b074a5ed2","ios":"levelo://app?vid=5cf16f92-b693-47c2-9e9c-211b074a5ed2"},"vehicle_type_id":"4","last_reported":1747559364,"current_range_meters":6400,"station_id":"ce4bhg12rcd13ifvqf70","pricing_plan_id":"cebpf4jnsgd1na2vs0mg"},{"bike_id":"21eed894-337c-4968-aa2d-88d606d3f8fe","system_id":"levelo_inurba_marseille","lat":43.26567,"lon":5.3729,"is_reserved":false,"is_disabled":false,"rental_uris":{"android":"levelo://app?vid=21eed894-337c-4968-aa2d-88d606d3f8fe","ios":"levelo://app?vid=21eed894-337c-4968-aa2d-88d606d3f8fe"},"vehicle_type_id":"4","last_reported":1747559364,"current_range_meters":6400,"station_id":"ce4bhg12rcd13ifvqf70","pricing_plan_id":"cebpf4jnsgd1na2vs0mg"},{"bike_id":"36b8096c-0c7e-41cf-b26c-fd0186607329","system_id":"levelo_inurba_marseille","lat":43.28458,"lon":5.35886,"is_reserved":false,"is_disabled":false,"rental_uris":{"android":"levelo://app?vid=36b8096c-0c7e-41cf-b26c-fd0186607329","ios":"levelo://app?vid=36b8096c-0c7e-41cf-b26c-fd0186607329"},"vehicle_type_id":"4","last_reported":1747559364,"current_range_meters":6800,"station_id":"ce4bhah2rcd13ifvqei0","pricing_plan_id":"cebpf4jnsgd1na2vs0mg"},{"bike_id":"d9977363-3a58-4e97-99d2-d5c676a9ba4d","system_id":"levelo_inurba_marseille","lat":43.28494,"lon":5.34996,"is_reserved":false,"is_disabled":false,"rental_uris":{"android":"levelo://app?vid=d9977363-3a58-4e97-99d2-d5c676a9ba4d","ios":"levelo://app?vid=d9977363-3a58-4e97-99d2-d5c676a9ba4d"},"vehicle_type_id":"4","last_reported":1747559364,"current_range_meters":6800,"station_id":"ce4bhbp2rcd13ifvqerg","pricing_plan_id":"cebpf4jnsgd1na2vs0mg"},{"bike_id":"c1d5f882-d71a-4c0b-b205-2bbfdb801b0f","system_id":"levelo_inurba_marseille","lat":43.32335,"lon":5.40642,"is_reserved":false,"is_disabled":false,"rental_uris":{"android":"levelo://app?vid=c1d5f882-d71a-4c0b-b205-2bbfdb801b0f","ios":"levelo://app?vid=c1d5f882-d71a-4c0b-b205-2bbfdb801b0f"},"vehicle_type_id":"4","last_reported":1747559364,"current_range_meters":6800,"station_id":"ce4bhq92rcd13ifvqhjg","pricing_plan_id":"cebpf4jnsgd1na2vs0mg"},{"bike_id":"456df13e-096a-4823-8eea-67f822f45ee6","system_id":"levelo_inurba_marseille","lat":43.25145,"lon":5.40328,"is_reserved":false,"is_disabled":false,"rental_uris":{"android":"levelo://app?vid=456df13e-096a-4823-8eea-67f822f45ee6","ios":"levelo://app?vid=456df13e-096a-4823-8eea-67f822f45ee6"},"vehicle_type_id":"4","last_reported":1747559364,"current_range_meters":7200,"station_id":"ce4bhlh2rcd13ifvqgig","pricing_plan_id":"cebpf4jnsgd1na2vs0mg"},{"bike_id":"fdb61a9e-b53b-48c4-b0cb-6db5c626390b","system_id":"levelo_inurba_marseille","lat":43.28979,"lon":5.4024,"is_reserved":false,"is_disabled":true,"rental_uris":{"android":"levelo://app?vid=fdb61a9e-b53b-48c4-b0cb-6db5c626390b","ios":"levelo://app?vid=fdb61a9e-b53b-48c4-b0cb-6db5c626390b"},"vehicle_type_id":"4","last_reported":1747559364,"current_range_meters":7200,"station_id":"","pricing_plan_id":"cebpf4jnsgd1na2vs0mg"},{"bike_id":"55fb771a-6e76-45c4-a9b7-cda97a0011d0","system_id":"levelo_inurba_marseille","lat":43.28756,"lon":5.38276,"is_reserved":false,"is_disabled":false,"rental_uris":{"android":"levelo://app?vid=55fb771a-6e76-45c4-a9b7-cda97a0011d0","ios":"levelo://app?vid=55fb771a-6e76-45c4-a9b7-cda97a0011d0"},"vehicle_type_id":"4","last_reported":1747559364,"current_range_meters":7200,"station_id":"","pricing_plan_id":"cebpf4jnsgd1na2vs0mg"},{"bike_id":"71395d42-4b19-4caf-9540-e918d2a011d2","system_id":"levelo_inurba_marseille","lat":43.24176,"lon":5.39723,"is_reserved":false,"is_disabled":false,"rental_uris":{"android":"levelo://app?vid=71395d42-4b19-4caf-9540-e918d2a011d2","ios":"levelo://app?vid=71395d42-4b19-4caf-9540-e918d2a011d2"},"vehicle_type_id":"4","last_reported":1747559364,"current_range_meters":7200,"station_id":"ce4bhn12rcd13ifvqgpg","pricing_plan_id":"cebpf4jnsgd1na2vs0mg"},{"bike_id":"dd5b3d80-0491-40b6-8404-17c7b47f1dce","system_id":"levelo_inurba_marseille","lat":43.25105,"lon":5.40317,"is_reserved":false,"is_disabled":false,"rental_uris":{"android":"levelo://app?vid=dd5b3d80-0491-40b6-8404-17c7b47f1dce","ios":"levelo://app?vid=dd5b3d80-0491-40b6-8404-17c7b47f1dce"},"vehicle_type_id":"4","last_reported":1747559364,"current_range_meters":7200,"station_id":"ce4bhlh2rcd13ifvqgig","pricing_plan_id":"cebpf4jnsgd1na2vs0mg"},{"bike_id":"698c00d0-9d04-474a-9aca-cd5b8e8cadcb","system_id":"levelo_inurba_marseille","lat":43.26551,"lon":5.37275,"is_reserved":false,"is_disabled":false,"rental_uris":{"android":"levelo://app?vid=698c00d0-9d04-474a-9aca-cd5b8e8cadcb","ios":"levelo://app?vid=698c00d0-9d04-474a-9aca-cd5b8e8cadcb"},"vehicle_type_id":"4","last_reported":1747559364,"current_range_meters":7200,"station_id":"ce4bhg12rcd13ifvqf70","pricing_plan_id":"cebpf4jnsgd1na2vs0mg"},{"bike_id":"9cad89f6-20ac-4a0d-8a49-e06f4ba590cf","system_id":"levelo_inurba_marseille","lat":43.32101,"lon":5.36768,"is_reserved":false,"is_disabled":false,"rental_uris":{"android":"levelo://app?vid=9cad89f6-20ac-4a0d-8a49-e06f4ba590cf","ios":"levelo://app?vid=9cad89f6-20ac-4a0d-8a49-e06f4ba590cf"},"vehicle_type_id":"4","last_reported":1747559364,"current_range_meters":7200,"station_id":"ce4bhrh2rcd13ifvqhug","pricing_plan_id":"cebpf4jnsgd1na2vs0mg"},{"bike_id":"a5dbecf1-f509-414b-bdb8-dc7ccc0cd72c","system_id":"levelo_inurba_marseille","lat":43.27058,"lon":5.42286,"is_reserved":false,"is_disabled":false,"rental_uris":{"android":"levelo://app?vid=a5dbecf1-f509-414b-bdb8-dc7ccc0cd72c","ios":"levelo://app?vid=a5dbecf1-f509-414b-bdb8-dc7ccc0cd72c"},"vehicle_type_id":"4","last_reported":1747559364,"current_range_meters":7200,"station_id":"ce4bhk92rcd13ifvqgb0","pricing_plan_id":"cebpf4jnsgd1na2vs0mg"},{"bike_id":"3713df8b-43d5-4d70-91a2-ef15d7bcf40b","system_id":"levelo_inurba_marseille","lat":43.25106,"lon":5.40328,"is_reserved":false,"is_disabled":false,"rental_uris":{"android":"levelo://app?vid=3713df8b-43d5-4d70-91a2-ef15d7bcf40b","ios":"levelo://app?vid=3713df8b-43d5-4d70-91a2-ef15d7bcf40b"},"vehicle_type_id":"4","last_reported":1747559364,"current_range_meters":8000,"station_id":"ce4bhlh2rcd13ifvqgig","pricing_plan_id":"cebpf4jnsgd1na2vs0mg"},{"bike_id":"82862649-485d-4988-aeb2-e287bb522774","system_id":"levelo_inurba_marseille","lat":43.28947,"lon":5.36415,"is_reserved":false,"is_disabled":false,"rental_uris":{"android":"levelo://app?vid=82862649-485d-4988-aeb2-e287bb522774","ios":"levelo://app?vid=82862649-485d-4988-aeb2-e287bb522774"},"vehicle_type_id":"4","last_reported":1747559364,"current_range_meters":8000,"station_id":"ce4bhc92rcd13ifvqetg","pricing_plan_id":"cebpf4jnsgd1na2vs0mg"},{"bike_id":"1dac04e0-de4c-4b71-882a-ff0a3719b08f","system_id":"levelo_inurba_marseille","lat":43.28258,"lon":5.35067,"is_reserved":false,"is_disabled":false,"rental_uris":{"android":"levelo://app?vid=1dac04e0-de4c-4b71-882a-ff0a3719b08f","ios":"levelo://app?vid=1dac04e0-de4c-4b71-882a-ff0a3719b08f"},"vehicle_type_id":"4","last_reported":1747559364,"current_range_meters":16000,"station_id":"ce4bhbp2rcd13ifvqerg","pricing_plan_id":"cebpf4jnsgd1na2vs0mg"},{"bike_id":"b8e6468b-87db-4ff6-8122-ef13bf5b7c8c","system_id":"levelo_inurba_marseille","lat":43.31379,"lon":5.37916,"is_reserved":false,"is_disabled":false,"rental_uris":{"android":"levelo://app?vid=b8e6468b-87db-4ff6-8122-ef13bf5b7c8c","ios":"levelo://app?vid=b8e6468b-87db-4ff6-8122-ef13bf5b7c8c"},"vehicle_type_id":"4","last_reported":1747559364,"current_range_meters":8000,"station_id":"","pricing_plan_id":"cebpf4jnsgd1na2vs0mg"},{"bike_id":"d06c2b4a-8685-4491-964d-94884c51c927","system_id":"levelo_inurba_marseille","lat":43.26568,"lon":5.39014,"is_reserved":false,"is_disabled":false,"rental_uris":{"android":"levelo://app?vid=d06c2b4a-8685-4491-964d-94884c51c927","ios":"levelo://app?vid=d06c2b4a-8685-4491-964d-94884c51c927"},"vehicle_type_id":"4","last_reported":1747559364,"current_range_meters":8000,"station_id":"ce4bhe12rcd13ifvqf30","pricing_plan_id":"cebpf4jnsgd1na2vs0mg"},{"bike_id":"67c481ef-a737-485a-a2dc-c2f8bf35c19c","system_id":"levelo_inurba_marseille","lat":43.26567,"lon":5.39013,"is_reserved":false,"is_disabled":false,"rental_uris":{"android":"levelo://app?vid=67c481ef-a737-485a-a2dc-c2f8bf35c19c","ios":"levelo://app?vid=67c481ef-a737-485a-a2dc-c2f8bf35c19c"},"vehicle_type_id":"4","last_reported":1747559364,"current_range_meters":8000,"station_id":"ce4bhe12rcd13ifvqf30","pricing_plan_id":"cebpf4jnsgd1na2vs0mg"},{"bike_id":"49c55304-c3c9-4744-8778-cfd2bde6f6c3","system_id":"levelo_inurba_marseille","lat":43.29608,"lon":5.37721,"is_reserved":false,"is_disabled":false,"rental_uris":{"android":"levelo://app?vid=49c55304-c3c9-4744-8778-cfd2bde6f6c3","ios":"levelo://app?vid=49c55304-c3c9-4744-8778-cfd2bde6f6c3"},"vehicle_type_id":"4","last_reported":1747559364,"current_range_meters":8000,"station_id":"ce4bgi92rcd13ifvqb90","pricing_plan_id":"cebpf4jnsgd1na2vs0mg"},{"bike_id":"8634b4b6-b92c-49d3-ba96-c66c587b4dca","system_id":"levelo_inurba_marseille","lat":43.24385,"lon":5.37059,"is_reserved":false,"is_disabled":false,"rental_uris":{"android":"levelo://app?vid=8634b4b6-b92c-49d3-ba96-c66c587b4dca","ios":"levelo://app?vid=8634b4b6-b92c-49d3-ba96-c66c587b4dca"},"vehicle_type_id":"4","last_reported":1747559364,"current_range_meters":7200,"station_id":"ce4bhhh2rcd13ifvqfk0","pricing_plan_id":"cebpf4jnsgd1na2vs0mg"},{"bike_id":"aa5e025d-2477-42c9-9d7c-59b595f82a26","system_id":"levelo_inurba_marseille","lat":43.30153,"lon":5.38099,"is_reserved":false,"is_disabled":false,"rental_uris":{"android":"levelo://app?vid=aa5e025d-2477-42c9-9d7c-59b595f82a26","ios":"levelo://app?vid=aa5e025d-2477-42c9-9d7c-59b595f82a26"},"vehicle_type_id":"4","last_reported":1747559364,"current_range_meters":8000,"station_id":"ce4bgjp2rcd13ifvqbh0","pricing_plan_id":"cebpf4jnsgd1na2vs0mg"},{"bike_id":"69dafa7b-c302-4534-b9b0-f2342a59ac4a","system_id":"levelo_inurba_marseille","lat":43.31264,"lon":5.40187,"is_reserved":false,"is_disabled":false,"rental_uris":{"android":"levelo://app?vid=69dafa7b-c302-4534-b9b0-f2342a59ac4a","ios":"levelo://app?vid=69dafa7b-c302-4534-b9b0-f2342a59ac4a"},"vehicle_type_id":"4","last_reported":1747559364,"current_range_meters":8000,"station_id":"ce4bh092rcd13ifvqd30","pricing_plan_id":"cebpf4jnsgd1na2vs0mg"},{"bike_id":"5ea6f467-857b-4ea7-a4b9-4a241fcc702a","system_id":"levelo_inurba_marseille","lat":43.24657,"lon":5.38147,"is_reserved":false,"is_disabled":false,"rental_uris":{"android":"levelo://app?vid=5ea6f467-857b-4ea7-a4b9-4a241fcc702a","ios":"levelo://app?vid=5ea6f467-857b-4ea7-a4b9-4a241fcc702a"},"vehicle_type_id":"4","last_reported":1747559364,"current_range_meters":8000,"station_id":"ce4bhih2rcd13ifvqfr0","pricing_plan_id":"cebpf4jnsgd1na2vs0mg"},{"bike_id":"af2f3908-848e-4879-9c80-b3ddea1b7f0a","system_id":"levelo_inurba_marseille","lat":43.31189,"lon":5.3878,"is_reserved":false,"is_disabled":true,"rental_uris":{"android":"levelo://app?vid=af2f3908-848e-4879-9c80-b3ddea1b7f0a","ios":"levelo://app?vid=af2f3908-848e-4879-9c80-b3ddea1b7f0a"},"vehicle_type_id":"4","last_reported":1747559364,"current_range_meters":8000,"station_id":"ce4bgv12rcd13ifvqcp0","pricing_plan_id":"cebpf4jnsgd1na2vs0mg"},{"bike_id":"3e073325-7c74-4b6c-b0bd-9716d89c3c37","system_id":"levelo_inurba_marseille","lat":43.265513,"lon":5.372867,"is_reserved":false,"is_disabled":false,"rental_uris":{"android":"levelo://app?vid=3e073325-7c74-4b6c-b0bd-9716d89c3c37","ios":"levelo://app?vid=3e073325-7c74-4b6c-b0bd-9716d89c3c37"},"vehicle_type_id":"4","last_reported":1747559364,"current_range_meters":8000,"station_id":"ce4bhg12rcd13ifvqf70","pricing_plan_id":"cebpf4jnsgd1na2vs0mg"},{"bike_id":"87b1d5a0-ca20-4099-8fc3-ab0909b77445","system_id":"levelo_inurba_marseille","lat":43.30932,"lon":5.40152,"is_reserved":false,"is_disabled":false,"rental_uris":{"android":"levelo://app?vid=87b1d5a0-ca20-4099-8fc3-ab0909b77445","ios":"levelo://app?vid=87b1d5a0-ca20-4099-8fc3-ab0909b77445"},"vehicle_type_id":"4","last_reported":1747559364,"current_range_meters":8400,"station_id":"ce4bgvp2rcd13ifvqct0","pricing_plan_id":"cebpf4jnsgd1na2vs0mg"},{"bike_id":"b8170d3e-526e-437a-8131-382c8d0982fb","system_id":"levelo_inurba_marseille","lat":43.24807,"lon":5.37458,"is_reserved":false,"is_disabled":false,"rental_uris":{"android":"levelo://app?vid=b8170d3e-526e-437a-8131-382c8d0982fb","ios":"levelo://app?vid=b8170d3e-526e-437a-8131-382c8d0982fb"},"vehicle_type_id":"4","last_reported":1747559364,"current_range_meters":8000,"station_id":"ce4bhgh2rcd13ifvqfb0","pricing_plan_id":"cebpf4jnsgd1na2vs0mg"},{"bike_id":"c0948ccd-ea87-4608-90b8-880d7e116a3c","system_id":"levelo_inurba_marseille","lat":43.28155,"lon":5.42651,"is_reserved":false,"is_disabled":false,"rental_uris":{"android":"levelo://app?vid=c0948ccd-ea87-4608-90b8-880d7e116a3c","ios":"levelo://app?vid=c0948ccd-ea87-4608-90b8-880d7e116a3c"},"vehicle_type_id":"4","last_reported":1747559364,"current_range_meters":8400,"station_id":"ce4bhnh2rcd13ifvqgug","pricing_plan_id":"cebpf4jnsgd1na2vs0mg"},{"bike_id":"81c659b6-3a02-46e7-a46f-d340746ad32e","system_id":"levelo_inurba_marseille","lat":43.27385,"lon":5.36257,"is_reserved":false,"is_disabled":true,"rental_uris":{"android":"levelo://app?vid=81c659b6-3a02-46e7-a46f-d340746ad32e","ios":"levelo://app?vid=81c659b6-3a02-46e7-a46f-d340746ad32e"},"vehicle_type_id":"4","last_reported":1747559364,"current_range_meters":8400,"station_id":"ce4bhbh2rcd13ifvqeo0","pricing_plan_id":"cebpf4jnsgd1na2vs0mg"},{"bike_id":"9b49295f-9cfc-4c86-8ad4-a044074faa3c","system_id":"levelo_inurba_marseille","lat":43.29039,"lon":5.3756,"is_reserved":false,"is_disabled":true,"rental_uris":{"android":"levelo://app?vid=9b49295f-9cfc-4c86-8ad4-a044074faa3c","ios":"levelo://app?vid=9b49295f-9cfc-4c86-8ad4-a044074faa3c"},"vehicle_type_id":"4","last_reported":1747559364,"current_range_meters":8400,"station_id":"ce4bh692rcd13ifvqe90","pricing_plan_id":"cebpf4jnsgd1na2vs0mg"},{"bike_id":"aa9446b4-e4c2-4e75-9648-971ccb772673","system_id":"levelo_inurba_marseille","lat":43.27491,"lon":5.4246,"is_reserved":false,"is_disabled":false,"rental_uris":{"android":"levelo://app?vid=aa9446b4-e4c2-4e75-9648-971ccb772673","ios":"levelo://app?vid=aa9446b4-e4c2-4e75-9648-971ccb772673"},"vehicle_type_id":"4","last_reported":1747559364,"current_range_meters":8800,"station_id":"ce4bhn92rcd13ifvqgrg","pricing_plan_id":"cebpf4jnsgd1na2vs0mg"},{"bike_id":"37a04840-3ac4-4a50-aed2-0ee32bfa13bc","system_id":"levelo_inurba_marseille","lat":43.293,"lon":5.37453,"is_reserved":false,"is_disabled":false,"rental_uris":{"android":"levelo://app?vid=37a04840-3ac4-4a50-aed2-0ee32bfa13bc","ios":"levelo://app?vid=37a04840-3ac4-4a50-aed2-0ee32bfa13bc"},"vehicle_type_id":"4","last_reported":1747559364,"current_range_meters":8800,"station_id":"ce4bgi12rcd13ifvqb70","pricing_plan_id":"cebpf4jnsgd1na2vs0mg"},{"bike_id":"a8520898-7dc9-4357-a927-806b739b1260","system_id":"levelo_inurba_marseille","lat":43.261937,"lon":5.374479,"is_reserved":false,"is_disabled":false,"rental_uris":{"android":"levelo://app?vid=a8520898-7dc9-4357-a927-806b739b1260","ios":"levelo://app?vid=a8520898-7dc9-4357-a927-806b739b1260"},"vehicle_type_id":"4","last_reported":1747559364,"current_range_meters":8800,"station_id":"ce4bhgp2rcd13ifvqfc0","pricing_plan_id":"cebpf4jnsgd1na2vs0mg"},{"bike_id":"0fb02880-5c6e-4026-9e4a-07529c572b44","system_id":"levelo_inurba_marseille","lat":43.25487,"lon":5.37393,"is_reserved":false,"is_disabled":false,"rental_uris":{"android":"levelo://app?vid=0fb02880-5c6e-4026-9e4a-07529c572b44","ios":"levelo://app?vid=0fb02880-5c6e-4026-9e4a-07529c572b44"},"vehicle_type_id":"4","last_reported":1747559364,"current_range_meters":9200,"station_id":"","pricing_plan_id":"cebpf4jnsgd1na2vs0mg"},{"bike_id":"953cb372-e37b-4b34-9fc7-227d922b64f1","system_id":"levelo_inurba_marseille","lat":43.25096,"lon":5.40341,"is_reserved":false,"is_disabled":false,"rental_uris":{"android":"levelo://app?vid=953cb372-e37b-4b34-9fc7-227d922b64f1","ios":"levelo://app?vid=953cb372-e37b-4b34-9fc7-227d922b64f1"},"vehicle_type_id":"4","last_reported":1747559364,"current_range_meters":9200,"station_id":"ce4bhlh2rcd13ifvqgig","pricing_plan_id":"cebpf4jnsgd1na2vs0mg"},{"bike_id":"792c9dbd-158e-4661-91d4-2c1ed379e655","system_id":"levelo_inurba_marseille","lat":43.2466,"lon":5.38146,"is_reserved":false,"is_disabled":false,"rental_uris":{"android":"levelo://app?vid=792c9dbd-158e-4661-91d4-2c1ed379e655","ios":"levelo://app?vid=792c9dbd-158e-4661-91d4-2c1ed379e655"},"vehicle_type_id":"4","last_reported":1747559364,"current_range_meters":9200,"station_id":"ce4bhih2rcd13ifvqfr0","pricing_plan_id":"cebpf4jnsgd1na2vs0mg"},{"bike_id":"b934e6da-efb5-4ac5-a51a-eb50220f6e1b","system_id":"levelo_inurba_marseille","lat":43.27,"lon":5.40588,"is_reserved":false,"is_disabled":true,"rental_uris":{"android":"levelo://app?vid=b934e6da-efb5-4ac5-a51a-eb50220f6e1b","ios":"levelo://app?vid=b934e6da-efb5-4ac5-a51a-eb50220f6e1b"},"vehicle_type_id":"4","last_reported":1747559364,"current_range_meters":9200,"station_id":"","pricing_plan_id":"cebpf4jnsgd1na2vs0mg"},{"bike_id":"c0db4030-ef30-480b-a735-af5435a471ed","system_id":"levelo_inurba_marseille","lat":43.27723,"lon":5.42672,"is_reserved":false,"is_disabled":false,"rental_uris":{"android":"levelo://app?vid=c0db4030-ef30-480b-a735-af5435a471ed","ios":"levelo://app?vid=c0db4030-ef30-480b-a735-af5435a471ed"},"vehicle_type_id":"4","last_reported":1747559364,"current_range_meters":9200,"station_id":"","pricing_plan_id":"cebpf4jnsgd1na2vs0mg"},{"bike_id":"9be12a09-efe5-495b-8ec3-e7e0d7473370","system_id":"levelo_inurba_marseille","lat":43.296027,"lon":5.380917,"is_reserved":false,"is_disabled":true,"rental_uris":{"android":"levelo://app?vid=9be12a09-efe5-495b-8ec3-e7e0d7473370","ios":"levelo://app?vid=9be12a09-efe5-495b-8ec3-e7e0d7473370"},"vehicle_type_id":"4","last_reported":1747559364,"current_range_meters":9200,"station_id":"ce4bgl12rcd13ifvqbo0","pricing_plan_id":"cebpf4jnsgd1na2vs0mg"},{"bike_id":"ecfd51e8-e0ea-4ff3-87d0-712fb4f9a24e","system_id":"levelo_inurba_marseille","lat":43.29546,"lon":5.37493,"is_reserved":false,"is_disabled":false,"rental_uris":{"android":"levelo://app?vid=ecfd51e8-e0ea-4ff3-87d0-712fb4f9a24e","ios":"levelo://app?vid=ecfd51e8-e0ea-4ff3-87d0-712fb4f9a24e"},"vehicle_type_id":"4","last_reported":1747559364,"current_range_meters":9200,"station_id":"ce4bgkp2rcd13ifvqbmg","pricing_plan_id":"cebpf4jnsgd1na2vs0mg"},{"bike_id":"8b1b9fc8-2f5f-49e8-b567-ad39dc989cb7","system_id":"levelo_inurba_marseille","lat":43.290227,"lon":5.375571,"is_reserved":false,"is_disabled":true,"rental_uris":{"android":"levelo://app?vid=8b1b9fc8-2f5f-49e8-b567-ad39dc989cb7","ios":"levelo://app?vid=8b1b9fc8-2f5f-49e8-b567-ad39dc989cb7"},"vehicle_type_id":"4","last_reported":1747559364,"current_range_meters":9200,"station_id":"ce4bh692rcd13ifvqe90","pricing_plan_id":"cebpf4jnsgd1na2vs0mg"},{"bike_id":"8e6e4749-5dae-4c8f-98db-5bf2ebcbacd3","system_id":"levelo_inurba_marseille","lat":43.24165,"lon":5.36395,"is_reserved":false,"is_disabled":false,"rental_uris":{"android":"levelo://app?vid=8e6e4749-5dae-4c8f-98db-5bf2ebcbacd3","ios":"levelo://app?vid=8e6e4749-5dae-4c8f-98db-5bf2ebcbacd3"},"vehicle_type_id":"4","last_reported":1747559364,"current_range_meters":9200,"station_id":"cpo36qri1sfpv3e86is0","pricing_plan_id":"cebpf4jnsgd1na2vs0mg"},{"bike_id":"4c33e9a2-0e5c-427f-a7cc-632c63a61d9d","system_id":"levelo_inurba_marseille","lat":43.28337,"lon":5.38109,"is_reserved":false,"is_disabled":true,"rental_uris":{"android":"levelo://app?vid=4c33e9a2-0e5c-427f-a7cc-632c63a61d9d","ios":"levelo://app?vid=4c33e9a2-0e5c-427f-a7cc-632c63a61d9d"},"vehicle_type_id":"4","last_reported":1747559364,"current_range_meters":9200,"station_id":"ce4bh412rcd13ifvqdr0","pricing_plan_id":"cebpf4jnsgd1na2vs0mg"},{"bike_id":"3980d76b-e904-45ba-9bbd-4ee10919b44c","system_id":"levelo_inurba_marseille","lat":43.31068,"lon":5.38192,"is_reserved":false,"is_disabled":false,"rental_uris":{"android":"levelo://app?vid=3980d76b-e904-45ba-9bbd-4ee10919b44c","ios":"levelo://app?vid=3980d76b-e904-45ba-9bbd-4ee10919b44c"},"vehicle_type_id":"4","last_reported":1747559364,"current_range_meters":9200,"station_id":"","pricing_plan_id":"cebpf4jnsgd1na2vs0mg"},{"bike_id":"fab970b2-6cc7-4287-8307-4e9103992343","system_id":"levelo_inurba_marseille","lat":43.32657,"lon":5.40997,"is_reserved":false,"is_disabled":false,"rental_uris":{"android":"levelo://app?vid=fab970b2-6cc7-4287-8307-4e9103992343","ios":"levelo://app?vid=fab970b2-6cc7-4287-8307-4e9103992343"},"vehicle_type_id":"4","last_reported":1747559364,"current_range_meters":9600,"station_id":"ce4bhpp2rcd13ifvqhgg","pricing_plan_id":"cebpf4jnsgd1na2vs0mg"},{"bike_id":"7502aaf2-e0b6-4e59-86da-36975a13a9d8","system_id":"levelo_inurba_marseille","lat":43.29512,"lon":5.37465,"is_reserved":false,"is_disabled":true,"rental_uris":{"android":"levelo://app?vid=7502aaf2-e0b6-4e59-86da-36975a13a9d8","ios":"levelo://app?vid=7502aaf2-e0b6-4e59-86da-36975a13a9d8"},"vehicle_type_id":"4","last_reported":1747559364,"current_range_meters":9600,"station_id":"ce4bgkp2rcd13ifvqbmg","pricing_plan_id":"cebpf4jnsgd1na2vs0mg"},{"bike_id":"14603e41-b2dd-4757-a53c-2e366aa4f983","system_id":"levelo_inurba_marseille","lat":43.269932,"lon":5.428278,"is_reserved":false,"is_disabled":false,"rental_uris":{"android":"levelo://app?vid=14603e41-b2dd-4757-a53c-2e366aa4f983","ios":"levelo://app?vid=14603e41-b2dd-4757-a53c-2e366aa4f983"},"vehicle_type_id":"4","last_reported":1747559364,"current_range_meters":9600,"station_id":"","pricing_plan_id":"cebpf4jnsgd1na2vs0mg"},{"bike_id":"5d0c204a-30d7-45a4-a38f-6cc374d60c0a","system_id":"levelo_inurba_marseille","lat":43.24163,"lon":5.36393,"is_reserved":false,"is_disabled":false,"rental_uris":{"android":"levelo://app?vid=5d0c204a-30d7-45a4-a38f-6cc374d60c0a","ios":"levelo://app?vid=5d0c204a-30d7-45a4-a38f-6cc374d60c0a"},"vehicle_type_id":"4","last_reported":1747559364,"current_range_meters":10000,"station_id":"cpo36qri1sfpv3e86is0","pricing_plan_id":"cebpf4jnsgd1na2vs0mg"},{"bike_id":"0c34b593-39af-4c0b-aef0-e25cd680f42b","system_id":"levelo_inurba_marseille","lat":43.23188,"lon":5.39988,"is_reserved":false,"is_disabled":false,"rental_uris":{"android":"levelo://app?vid=0c34b593-39af-4c0b-aef0-e25cd680f42b","ios":"levelo://app?vid=0c34b593-39af-4c0b-aef0-e25cd680f42b"},"vehicle_type_id":"4","last_reported":1747559364,"current_range_meters":10000,"station_id":"ce4bhn12rcd13ifvqgqg","pricing_plan_id":"cebpf4jnsgd1na2vs0mg"},{"bike_id":"caf4c81d-8b81-4d8d-a4f9-9d00bac7ad70","system_id":"levelo_inurba_marseille","lat":43.30782,"lon":5.42824,"is_reserved":false,"is_disabled":false,"rental_uris":{"android":"levelo://app?vid=caf4c81d-8b81-4d8d-a4f9-9d00bac7ad70","ios":"levelo://app?vid=caf4c81d-8b81-4d8d-a4f9-9d00bac7ad70"},"vehicle_type_id":"4","last_reported":1747559364,"current_range_meters":10000,"station_id":"","pricing_plan_id":"cebpf4jnsgd1na2vs0mg"},{"bike_id":"0be1abf5-5dc6-471d-997c-24b14f77987a","system_id":"levelo_inurba_marseille","lat":43.30558,"lon":5.36551,"is_reserved":false,"is_disabled":false,"rental_uris":{"android":"levelo://app?vid=0be1abf5-5dc6-471d-997c-24b14f77987a","ios":"levelo://app?vid=0be1abf5-5dc6-471d-997c-24b14f77987a"},"vehicle_type_id":"4","last_reported":1747559364,"current_range_meters":10000,"station_id":"ce4bgs12rcd13ifvqcag","pricing_plan_id":"cebpf4jnsgd1na2vs0mg"},{"bike_id":"4b3297d3-2f19-4578-a387-6277c6a46759","system_id":"levelo_inurba_marseille","lat":43.25722,"lon":5.411073,"is_reserved":false,"is_disabled":false,"rental_uris":{"android":"levelo://app?vid=4b3297d3-2f19-4578-a387-6277c6a46759","ios":"levelo://app?vid=4b3297d3-2f19-4578-a387-6277c6a46759"},"vehicle_type_id":"4","last_reported":1747559364,"current_range_meters":10000,"station_id":"ce4bhkp2rcd13ifvqgd0","pricing_plan_id":"cebpf4jnsgd1na2vs0mg"},{"bike_id":"223be6b3-5dbd-4a17-b567-a91926026980","system_id":"levelo_inurba_marseille","lat":43.284,"lon":5.35004,"is_reserved":false,"is_disabled":false,"rental_uris":{"android":"levelo://app?vid=223be6b3-5dbd-4a17-b567-a91926026980","ios":"levelo://app?vid=223be6b3-5dbd-4a17-b567-a91926026980"},"vehicle_type_id":"4","last_reported":1747559364,"current_range_meters":10000,"station_id":"ce4bhbh2rcd13ifvqepg","pricing_plan_id":"cebpf4jnsgd1na2vs0mg"},{"bike_id":"9db921db-996e-49fe-8f0e-9179e3128715","system_id":"levelo_inurba_marseille","lat":43.23194,"lon":5.35548,"is_reserved":false,"is_disabled":false,"rental_uris":{"android":"levelo://app?vid=9db921db-996e-49fe-8f0e-9179e3128715","ios":"levelo://app?vid=9db921db-996e-49fe-8f0e-9179e3128715"},"vehicle_type_id":"4","last_reported":1747559364,"current_range_meters":10000,"station_id":"ce4bhu92rcd13ifvqi70","pricing_plan_id":"cebpf4jnsgd1na2vs0mg"},{"bike_id":"7d080336-5a2d-419d-8d50-e49d93450255","system_id":"levelo_inurba_marseille","lat":43.29163,"lon":5.371466,"is_reserved":false,"is_disabled":true,"rental_uris":{"android":"levelo://app?vid=7d080336-5a2d-419d-8d50-e49d93450255","ios":"levelo://app?vid=7d080336-5a2d-419d-8d50-e49d93450255"},"vehicle_type_id":"4","last_reported":1747559364,"current_range_meters":10800,"station_id":"ce4bha92rcd13ifvqeh0","pricing_plan_id":"cebpf4jnsgd1na2vs0mg"},{"bike_id":"ff99d7ca-ba0d-4021-9b1e-245314d8d685","system_id":"levelo_inurba_marseille","lat":43.30462,"lon":5.37902,"is_reserved":false,"is_disabled":false,"rental_uris":{"android":"levelo://app?vid=ff99d7ca-ba0d-4021-9b1e-245314d8d685","ios":"levelo://app?vid=ff99d7ca-ba0d-4021-9b1e-245314d8d685"},"vehicle_type_id":"4","last_reported":1747559364,"current_range_meters":10800,"station_id":"ce4bgup2rcd13ifvqcn0","pricing_plan_id":"cebpf4jnsgd1na2vs0mg"},{"bike_id":"c931694d-e8a5-4287-ac2e-048e3e74eed0","system_id":"levelo_inurba_marseille","lat":43.29032,"lon":5.37567,"is_reserved":false,"is_disabled":false,"rental_uris":{"android":"levelo://app?vid=c931694d-e8a5-4287-ac2e-048e3e74eed0","ios":"levelo://app?vid=c931694d-e8a5-4287-ac2e-048e3e74eed0"},"vehicle_type_id":"4","last_reported":1747559364,"current_range_meters":10000,"station_id":"ce4bh692rcd13ifvqe90","pricing_plan_id":"cebpf4jnsgd1na2vs0mg"},{"bike_id":"c6e9421a-fcb0-4b3e-9f1a-1fed1b35433a","system_id":"levelo_inurba_marseille","lat":43.23142,"lon":5.43713,"is_reserved":false,"is_disabled":false,"rental_uris":{"android":"levelo://app?vid=c6e9421a-fcb0-4b3e-9f1a-1fed1b35433a","ios":"levelo://app?vid=c6e9421a-fcb0-4b3e-9f1a-1fed1b35433a"},"vehicle_type_id":"4","last_reported":1747559364,"current_range_meters":10800,"station_id":"ce4bhmp2rcd13ifvqgog","pricing_plan_id":"cebpf4jnsgd1na2vs0mg"},{"bike_id":"42503125-ac87-471b-a9a2-ace3db9546f1","system_id":"levelo_inurba_marseille","lat":43.29612,"lon":5.37729,"is_reserved":false,"is_disabled":false,"rental_uris":{"android":"levelo://app?vid=42503125-ac87-471b-a9a2-ace3db9546f1","ios":"levelo://app?vid=42503125-ac87-471b-a9a2-ace3db9546f1"},"vehicle_type_id":"4","last_reported":1747559364,"current_range_meters":10800,"station_id":"","pricing_plan_id":"cebpf4jnsgd1na2vs0mg"},{"bike_id":"88c266e6-7038-494f-b358-90ca603fb435","system_id":"levelo_inurba_marseille","lat":43.29579,"lon":5.374997,"is_reserved":false,"is_disabled":true,"rental_uris":{"android":"levelo://app?vid=88c266e6-7038-494f-b358-90ca603fb435","ios":"levelo://app?vid=88c266e6-7038-494f-b358-90ca603fb435"},"vehicle_type_id":"4","last_reported":1747559364,"current_range_meters":10800,"station_id":"ce4bgh92rcd13ifvqb50","pricing_plan_id":"cebpf4jnsgd1na2vs0mg"},{"bike_id":"4629b8b4-4639-47a7-8c98-07518a3e2778","system_id":"levelo_inurba_marseille","lat":43.26031,"lon":5.3755,"is_reserved":false,"is_disabled":false,"rental_uris":{"android":"levelo://app?vid=4629b8b4-4639-47a7-8c98-07518a3e2778","ios":"levelo://app?vid=4629b8b4-4639-47a7-8c98-07518a3e2778"},"vehicle_type_id":"4","last_reported":1747559364,"current_range_meters":10000,"station_id":"ce4bhgh2rcd13ifvqfa0","pricing_plan_id":"cebpf4jnsgd1na2vs0mg"},{"bike_id":"ffc3ddf2-0082-4578-9e25-c91f5b4279bc","system_id":"levelo_inurba_marseille","lat":43.28324,"lon":5.41119,"is_reserved":false,"is_disabled":false,"rental_uris":{"android":"levelo://app?vid=ffc3ddf2-0082-4578-9e25-c91f5b4279bc","ios":"levelo://app?vid=ffc3ddf2-0082-4578-9e25-c91f5b4279bc"},"vehicle_type_id":"4","last_reported":1747559364,"current_range_meters":10800,"station_id":"","pricing_plan_id":"cebpf4jnsgd1na2vs0mg"},{"bike_id":"8dfe3edc-82df-4b5a-a412-16963c595c57","system_id":"levelo_inurba_marseille","lat":43.308869,"lon":5.396473,"is_reserved":false,"is_disabled":false,"rental_uris":{"android":"levelo://app?vid=8dfe3edc-82df-4b5a-a412-16963c595c57","ios":"levelo://app?vid=8dfe3edc-82df-4b5a-a412-16963c595c57"},"vehicle_type_id":"4","last_reported":1747559364,"current_range_meters":11200,"station_id":"ce4bh012rcd13ifvqcv0","pricing_plan_id":"cebpf4jnsgd1na2vs0mg"},{"bike_id":"56de12ec-c2b3-4960-90ca-a3bf7841338a","system_id":"levelo_inurba_marseille","lat":43.24647,"lon":5.38895,"is_reserved":false,"is_disabled":false,"rental_uris":{"android":"levelo://app?vid=56de12ec-c2b3-4960-90ca-a3bf7841338a","ios":"levelo://app?vid=56de12ec-c2b3-4960-90ca-a3bf7841338a"},"vehicle_type_id":"4","last_reported":1747559364,"current_range_meters":11200,"station_id":"ce4bhg12rcd13ifvqf60","pricing_plan_id":"cebpf4jnsgd1na2vs0mg"},{"bike_id":"3c5a4d2a-05ae-49b2-a333-bc5ef2797cec","system_id":"levelo_inurba_marseille","lat":43.27493,"lon":5.4245,"is_reserved":false,"is_disabled":false,"rental_uris":{"android":"levelo://app?vid=3c5a4d2a-05ae-49b2-a333-bc5ef2797cec","ios":"levelo://app?vid=3c5a4d2a-05ae-49b2-a333-bc5ef2797cec"},"vehicle_type_id":"4","last_reported":1747559364,"current_range_meters":11200,"station_id":"ce4bhn92rcd13ifvqgrg","pricing_plan_id":"cebpf4jnsgd1na2vs0mg"},{"bike_id":"1b2f0e19-c9dc-4000-8367-67c619535c14","system_id":"levelo_inurba_marseille","lat":43.299422,"lon":5.365387,"is_reserved":false,"is_disabled":true,"rental_uris":{"android":"levelo://app?vid=1b2f0e19-c9dc-4000-8367-67c619535c14","ios":"levelo://app?vid=1b2f0e19-c9dc-4000-8367-67c619535c14"},"vehicle_type_id":"4","last_reported":1747559364,"current_range_meters":11200,"station_id":"ce4bgm92rcd13ifvqbr0","pricing_plan_id":"cebpf4jnsgd1na2vs0mg"},{"bike_id":"c608898e-58b6-42f7-903a-6008119c7a64","system_id":"levelo_inurba_marseille","lat":43.24061,"lon":5.37776,"is_reserved":false,"is_disabled":false,"rental_uris":{"android":"levelo://app?vid=c608898e-58b6-42f7-903a-6008119c7a64","ios":"levelo://app?vid=c608898e-58b6-42f7-903a-6008119c7a64"},"vehicle_type_id":"4","last_reported":1747559364,"current_range_meters":11200,"station_id":"ce4bhnp2rcd13ifvqgvg","pricing_plan_id":"cebpf4jnsgd1na2vs0mg"},{"bike_id":"54161b7a-ee9b-4e69-a1bd-d2a4ce23b665","system_id":"levelo_inurba_marseille","lat":43.29024,"lon":5.35628,"is_reserved":false,"is_disabled":false,"rental_uris":{"android":"levelo://app?vid=54161b7a-ee9b-4e69-a1bd-d2a4ce23b665","ios":"levelo://app?vid=54161b7a-ee9b-4e69-a1bd-d2a4ce23b665"},"vehicle_type_id":"4","last_reported":1747559364,"current_range_meters":11200,"station_id":"ce4bhb92rcd13ifvqen0","pricing_plan_id":"cebpf4jnsgd1na2vs0mg"},{"bike_id":"584c70d0-0918-4aa0-b289-fcc6a9442003","system_id":"levelo_inurba_marseille","lat":43.25904,"lon":5.38858,"is_reserved":false,"is_disabled":false,"rental_uris":{"android":"levelo://app?vid=584c70d0-0918-4aa0-b289-fcc6a9442003","ios":"levelo://app?vid=584c70d0-0918-4aa0-b289-fcc6a9442003"},"vehicle_type_id":"4","last_reported":1747559364,"current_range_meters":11600,"station_id":"","pricing_plan_id":"cebpf4jnsgd1na2vs0mg"},{"bike_id":"f4422497-4aad-4e8b-bd52-83c14c78c01b","system_id":"levelo_inurba_marseille","lat":43.25104,"lon":5.40328,"is_reserved":false,"is_disabled":false,"rental_uris":{"android":"levelo://app?vid=f4422497-4aad-4e8b-bd52-83c14c78c01b","ios":"levelo://app?vid=f4422497-4aad-4e8b-bd52-83c14c78c01b"},"vehicle_type_id":"4","last_reported":1747559364,"current_range_meters":11600,"station_id":"ce4bhlh2rcd13ifvqgig","pricing_plan_id":"cebpf4jnsgd1na2vs0mg"},{"bike_id":"0fff26c1-ee5a-45bd-8576-8f20831a7bcd","system_id":"levelo_inurba_marseille","lat":43.29952,"lon":5.38522,"is_reserved":false,"is_disabled":true,"rental_uris":{"android":"levelo://app?vid=0fff26c1-ee5a-45bd-8576-8f20831a7bcd","ios":"levelo://app?vid=0fff26c1-ee5a-45bd-8576-8f20831a7bcd"},"vehicle_type_id":"4","last_reported":1747559364,"current_range_meters":11600,"station_id":"ce4bgj92rcd13ifvqbd0","pricing_plan_id":"cebpf4jnsgd1na2vs0mg"},{"bike_id":"b1cb8d78-11ad-40ea-932e-5adf64013699","system_id":"levelo_inurba_marseille","lat":43.2827,"lon":5.35075,"is_reserved":false,"is_disabled":false,"rental_uris":{"android":"levelo://app?vid=b1cb8d78-11ad-40ea-932e-5adf64013699","ios":"levelo://app?vid=b1cb8d78-11ad-40ea-932e-5adf64013699"},"vehicle_type_id":"4","last_reported":1747559364,"current_range_meters":11600,"station_id":"ce4bhbp2rcd13ifvqerg","pricing_plan_id":"cebpf4jnsgd1na2vs0mg"},{"bike_id":"6e1bd625-3ec1-43df-9657-36d71ae09f8d","system_id":"levelo_inurba_marseille","lat":43.337477,"lon":5.374835,"is_reserved":false,"is_disabled":false,"rental_uris":{"android":"levelo://app?vid=6e1bd625-3ec1-43df-9657-36d71ae09f8d","ios":"levelo://app?vid=6e1bd625-3ec1-43df-9657-36d71ae09f8d"},"vehicle_type_id":"4","last_reported":1747559364,"current_range_meters":11600,"station_id":"","pricing_plan_id":"cebpf4jnsgd1na2vs0mg"},{"bike_id":"4745dd8b-a0b2-49db-b417-8a28eecc51d4","system_id":"levelo_inurba_marseille","lat":43.24346,"lon":5.37994,"is_reserved":false,"is_disabled":false,"rental_uris":{"android":"levelo://app?vid=4745dd8b-a0b2-49db-b417-8a28eecc51d4","ios":"levelo://app?vid=4745dd8b-a0b2-49db-b417-8a28eecc51d4"},"vehicle_type_id":"4","last_reported":1747559364,"current_range_meters":11600,"station_id":"","pricing_plan_id":"cebpf4jnsgd1na2vs0mg"},{"bike_id":"6bc97e27-c5a1-4b41-a53f-b39682e4c4d8","system_id":"levelo_inurba_marseille","lat":43.314816,"lon":5.37293,"is_reserved":false,"is_disabled":false,"rental_uris":{"android":"levelo://app?vid=6bc97e27-c5a1-4b41-a53f-b39682e4c4d8","ios":"levelo://app?vid=6bc97e27-c5a1-4b41-a53f-b39682e4c4d8"},"vehicle_type_id":"4","last_reported":1747559364,"current_range_meters":12000,"station_id":"ce4bgt12rcd13ifvqcd0","pricing_plan_id":"cebpf4jnsgd1na2vs0mg"},{"bike_id":"9a837da0-e204-4d45-9806-d1eee7ba946b","system_id":"levelo_inurba_marseille","lat":43.27836,"lon":5.39214,"is_reserved":false,"is_disabled":false,"rental_uris":{"android":"levelo://app?vid=9a837da0-e204-4d45-9806-d1eee7ba946b","ios":"levelo://app?vid=9a837da0-e204-4d45-9806-d1eee7ba946b"},"vehicle_type_id":"4","last_reported":1747559364,"current_range_meters":11600,"station_id":"ce4bhjp2rcd13ifvqga0","pricing_plan_id":"cebpf4jnsgd1na2vs0mg"},{"bike_id":"a2e8ac07-c27d-4596-ac54-d8fb456abf0d","system_id":"levelo_inurba_marseille","lat":43.28261,"lon":5.42382,"is_reserved":false,"is_disabled":false,"rental_uris":{"android":"levelo://app?vid=a2e8ac07-c27d-4596-ac54-d8fb456abf0d","ios":"levelo://app?vid=a2e8ac07-c27d-4596-ac54-d8fb456abf0d"},"vehicle_type_id":"4","last_reported":1747559364,"current_range_meters":12400,"station_id":"","pricing_plan_id":"cebpf4jnsgd1na2vs0mg"},{"bike_id":"06fb6274-c887-4ce8-9273-400ecb3aef67","system_id":"levelo_inurba_marseille","lat":43.28398,"lon":5.46021,"is_reserved":false,"is_disabled":false,"rental_uris":{"android":"levelo://app?vid=06fb6274-c887-4ce8-9273-400ecb3aef67","ios":"levelo://app?vid=06fb6274-c887-4ce8-9273-400ecb3aef67"},"vehicle_type_id":"4","last_reported":1747559364,"current_range_meters":12400,"station_id":"","pricing_plan_id":"cebpf4jnsgd1na2vs0mg"},{"bike_id":"262036fe-d80c-4d06-a49b-dfb02bc52ea7","system_id":"levelo_inurba_marseille","lat":43.3093,"lon":5.401551,"is_reserved":false,"is_disabled":false,"rental_uris":{"android":"levelo://app?vid=262036fe-d80c-4d06-a49b-dfb02bc52ea7","ios":"levelo://app?vid=262036fe-d80c-4d06-a49b-dfb02bc52ea7"},"vehicle_type_id":"4","last_reported":1747559364,"current_range_meters":12800,"station_id":"ce4bgvp2rcd13ifvqct0","pricing_plan_id":"cebpf4jnsgd1na2vs0mg"},{"bike_id":"6ee7001e-07ad-49d2-9902-4e2095457f59","system_id":"levelo_inurba_marseille","lat":43.27074,"lon":5.42282,"is_reserved":false,"is_disabled":true,"rental_uris":{"android":"levelo://app?vid=6ee7001e-07ad-49d2-9902-4e2095457f59","ios":"levelo://app?vid=6ee7001e-07ad-49d2-9902-4e2095457f59"},"vehicle_type_id":"4","last_reported":1747559364,"current_range_meters":12800,"station_id":"ce4bhk92rcd13ifvqgb0","pricing_plan_id":"cebpf4jnsgd1na2vs0mg"},{"bike_id":"07e76d55-d7b0-45c1-ba5a-51f83c06a785","system_id":"levelo_inurba_marseille","lat":43.29247,"lon":5.40911,"is_reserved":false,"is_disabled":false,"rental_uris":{"android":"levelo://app?vid=07e76d55-d7b0-45c1-ba5a-51f83c06a785","ios":"levelo://app?vid=07e76d55-d7b0-45c1-ba5a-51f83c06a785"},"vehicle_type_id":"4","last_reported":1747559364,"current_range_meters":12800,"station_id":"ce4bh192rcd13ifvqdc0","pricing_plan_id":"cebpf4jnsgd1na2vs0mg"},{"bike_id":"be2c3896-fa0c-4a27-a492-db322855c4b2","system_id":"levelo_inurba_marseille","lat":43.25111,"lon":5.40318,"is_reserved":false,"is_disabled":false,"rental_uris":{"android":"levelo://app?vid=be2c3896-fa0c-4a27-a492-db322855c4b2","ios":"levelo://app?vid=be2c3896-fa0c-4a27-a492-db322855c4b2"},"vehicle_type_id":"4","last_reported":1747559364,"current_range_meters":12800,"station_id":"ce4bhlh2rcd13ifvqgig","pricing_plan_id":"cebpf4jnsgd1na2vs0mg"},{"bike_id":"0c41b567-4f9c-4999-99bd-34d11159eb21","system_id":"levelo_inurba_marseille","lat":43.29512,"lon":5.37507,"is_reserved":false,"is_disabled":false,"rental_uris":{"android":"levelo://app?vid=0c41b567-4f9c-4999-99bd-34d11159eb21","ios":"levelo://app?vid=0c41b567-4f9c-4999-99bd-34d11159eb21"},"vehicle_type_id":"4","last_reported":1747559364,"current_range_meters":12400,"station_id":"ce4bgkp2rcd13ifvqbmg","pricing_plan_id":"cebpf4jnsgd1na2vs0mg"},{"bike_id":"d55f9225-e6ff-4e45-92e4-2cc2ba495a7c","system_id":"levelo_inurba_marseille","lat":43.30599,"lon":5.39085,"is_reserved":false,"is_disabled":false,"rental_uris":{"android":"levelo://app?vid=d55f9225-e6ff-4e45-92e4-2cc2ba495a7c","ios":"levelo://app?vid=d55f9225-e6ff-4e45-92e4-2cc2ba495a7c"},"vehicle_type_id":"4","last_reported":1747559364,"current_range_meters":12800,"station_id":"","pricing_plan_id":"cebpf4jnsgd1na2vs0mg"},{"bike_id":"8ea7d2ea-a955-4956-aa5b-31d5af6fefd7","system_id":"levelo_inurba_marseille","lat":43.301427,"lon":5.380727,"is_reserved":false,"is_disabled":false,"rental_uris":{"android":"levelo://app?vid=8ea7d2ea-a955-4956-aa5b-31d5af6fefd7","ios":"levelo://app?vid=8ea7d2ea-a955-4956-aa5b-31d5af6fefd7"},"vehicle_type_id":"4","last_reported":1747559364,"current_range_meters":12800,"station_id":"ce4bgjp2rcd13ifvqbh0","pricing_plan_id":"cebpf4jnsgd1na2vs0mg"},{"bike_id":"55982159-14b0-423d-a8c0-c157cf2770cd","system_id":"levelo_inurba_marseille","lat":43.277667,"lon":5.362265,"is_reserved":false,"is_disabled":false,"rental_uris":{"android":"levelo://app?vid=55982159-14b0-423d-a8c0-c157cf2770cd","ios":"levelo://app?vid=55982159-14b0-423d-a8c0-c157cf2770cd"},"vehicle_type_id":"4","last_reported":1747559364,"current_range_meters":13600,"station_id":"","pricing_plan_id":"cebpf4jnsgd1na2vs0mg"},{"bike_id":"b26a0dd7-cbdc-4ab7-8def-31c4b88b224a","system_id":"levelo_inurba_marseille","lat":43.312125,"lon":5.392469,"is_reserved":false,"is_disabled":false,"rental_uris":{"android":"levelo://app?vid=b26a0dd7-cbdc-4ab7-8def-31c4b88b224a","ios":"levelo://app?vid=b26a0dd7-cbdc-4ab7-8def-31c4b88b224a"},"vehicle_type_id":"4","last_reported":1747559364,"current_range_meters":13600,"station_id":"","pricing_plan_id":"cebpf4jnsgd1na2vs0mg"},{"bike_id":"4462e83f-f9da-46b7-b369-5dd2dc83114c","system_id":"levelo_inurba_marseille","lat":43.323359,"lon":5.406197,"is_reserved":false,"is_disabled":false,"rental_uris":{"android":"levelo://app?vid=4462e83f-f9da-46b7-b369-5dd2dc83114c","ios":"levelo://app?vid=4462e83f-f9da-46b7-b369-5dd2dc83114c"},"vehicle_type_id":"4","last_reported":1747559364,"current_range_meters":13600,"station_id":"ce4bhq92rcd13ifvqhjg","pricing_plan_id":"cebpf4jnsgd1na2vs0mg"},{"bike_id":"51a33848-f0f0-40ec-b6c6-8948c992d932","system_id":"levelo_inurba_marseille","lat":43.250874,"lon":5.395128,"is_reserved":false,"is_disabled":false,"rental_uris":{"android":"levelo://app?vid=51a33848-f0f0-40ec-b6c6-8948c992d932","ios":"levelo://app?vid=51a33848-f0f0-40ec-b6c6-8948c992d932"},"vehicle_type_id":"4","last_reported":1747559364,"current_range_meters":13600,"station_id":"ce4bhm12rcd13ifvqgkg","pricing_plan_id":"cebpf4jnsgd1na2vs0mg"},{"bike_id":"e8c092b6-ea1e-49b4-86f2-ae6140f06f6f","system_id":"levelo_inurba_marseille","lat":43.289192,"lon":5.383954,"is_reserved":false,"is_disabled":true,"rental_uris":{"android":"levelo://app?vid=e8c092b6-ea1e-49b4-86f2-ae6140f06f6f","ios":"levelo://app?vid=e8c092b6-ea1e-49b4-86f2-ae6140f06f6f"},"vehicle_type_id":"4","last_reported":1747559364,"current_range_meters":13600,"station_id":"","pricing_plan_id":"cebpf4jnsgd1na2vs0mg"},{"bike_id":"fdb76735-3824-4585-87d3-548c54753b54","system_id":"levelo_inurba_marseille","lat":43.2721,"lon":5.39179,"is_reserved":false,"is_disabled":false,"rental_uris":{"android":"levelo://app?vid=fdb76735-3824-4585-87d3-548c54753b54","ios":"levelo://app?vid=fdb76735-3824-4585-87d3-548c54753b54"},"vehicle_type_id":"4","last_reported":1747559364,"current_range_meters":12800,"station_id":"ce4bhhp2rcd13ifvqfm0","pricing_plan_id":"cebpf4jnsgd1na2vs0mg"},{"bike_id":"c934a9bd-ad77-4ffa-b6f1-1fbb06258610","system_id":"levelo_inurba_marseille","lat":43.23148,"lon":5.43722,"is_reserved":false,"is_disabled":false,"rental_uris":{"android":"levelo://app?vid=c934a9bd-ad77-4ffa-b6f1-1fbb06258610","ios":"levelo://app?vid=c934a9bd-ad77-4ffa-b6f1-1fbb06258610"},"vehicle_type_id":"4","last_reported":1747559364,"current_range_meters":12800,"station_id":"ce4bhmp2rcd13ifvqgog","pricing_plan_id":"cebpf4jnsgd1na2vs0mg"},{"bike_id":"aadae383-be2f-475c-98a4-19564db4b148","system_id":"levelo_inurba_marseille","lat":43.29226,"lon":5.36068,"is_reserved":false,"is_disabled":false,"rental_uris":{"android":"levelo://app?vid=aadae383-be2f-475c-98a4-19564db4b148","ios":"levelo://app?vid=aadae383-be2f-475c-98a4-19564db4b148"},"vehicle_type_id":"4","last_reported":1747559364,"current_range_meters":14000,"station_id":"","pricing_plan_id":"cebpf4jnsgd1na2vs0mg"},{"bike_id":"cbff0bd8-ab69-455f-978e-8e044433b1ea","system_id":"levelo_inurba_marseille","lat":43.30308,"lon":5.40427,"is_reserved":false,"is_disabled":false,"rental_uris":{"android":"levelo://app?vid=cbff0bd8-ab69-455f-978e-8e044433b1ea","ios":"levelo://app?vid=cbff0bd8-ab69-455f-978e-8e044433b1ea"},"vehicle_type_id":"4","last_reported":1747559364,"current_range_meters":14400,"station_id":"ce4bh012rcd13ifvqd10","pricing_plan_id":"cebpf4jnsgd1na2vs0mg"},{"bike_id":"3fafa752-771c-41e1-8514-a4009eb3276e","system_id":"levelo_inurba_marseille","lat":43.29974,"lon":5.37179,"is_reserved":false,"is_disabled":false,"rental_uris":{"android":"levelo://app?vid=3fafa752-771c-41e1-8514-a4009eb3276e","ios":"levelo://app?vid=3fafa752-771c-41e1-8514-a4009eb3276e"},"vehicle_type_id":"4","last_reported":1747559364,"current_range_meters":14800,"station_id":"ce4bgr92rcd13ifvqc7g","pricing_plan_id":"cebpf4jnsgd1na2vs0mg"},{"bike_id":"d8da70fb-a079-460a-9e23-65ed45fe0088","system_id":"levelo_inurba_marseille","lat":43.254921,"lon":5.376608,"is_reserved":false,"is_disabled":true,"rental_uris":{"android":"levelo://app?vid=d8da70fb-a079-460a-9e23-65ed45fe0088","ios":"levelo://app?vid=d8da70fb-a079-460a-9e23-65ed45fe0088"},"vehicle_type_id":"4","last_reported":1747559364,"current_range_meters":14800,"station_id":"ce4bhh12rcd13ifvqff0","pricing_plan_id":"cebpf4jnsgd1na2vs0mg"},{"bike_id":"1bbca78a-c83f-4de6-934f-aa529128ce36","system_id":"levelo_inurba_marseille","lat":43.241669,"lon":5.363902,"is_reserved":false,"is_disabled":false,"rental_uris":{"android":"levelo://app?vid=1bbca78a-c83f-4de6-934f-aa529128ce36","ios":"levelo://app?vid=1bbca78a-c83f-4de6-934f-aa529128ce36"},"vehicle_type_id":"4","last_reported":1747559364,"current_range_meters":14800,"station_id":"cpo36qri1sfpv3e86is0","pricing_plan_id":"cebpf4jnsgd1na2vs0mg"},{"bike_id":"0a672e4f-4d62-47b0-88d5-45b4c1c6a08c","system_id":"levelo_inurba_marseille","lat":43.29556,"lon":5.42289,"is_reserved":false,"is_disabled":false,"rental_uris":{"android":"levelo://app?vid=0a672e4f-4d62-47b0-88d5-45b4c1c6a08c","ios":"levelo://app?vid=0a672e4f-4d62-47b0-88d5-45b4c1c6a08c"},"vehicle_type_id":"4","last_reported":1747559364,"current_range_meters":14800,"station_id":"ce4bhph2rcd13ifvqhdg","pricing_plan_id":"cebpf4jnsgd1na2vs0mg"},{"bike_id":"7a31f435-63bc-4ff6-838b-d79912959956","system_id":"levelo_inurba_marseille","lat":43.26219,"lon":5.40454,"is_reserved":false,"is_disabled":false,"rental_uris":{"android":"levelo://app?vid=7a31f435-63bc-4ff6-838b-d79912959956","ios":"levelo://app?vid=7a31f435-63bc-4ff6-838b-d79912959956"},"vehicle_type_id":"4","last_reported":1747559364,"current_range_meters":14800,"station_id":"ce4bhmh2rcd13ifvqgmg","pricing_plan_id":"cebpf4jnsgd1na2vs0mg"},{"bike_id":"b947e013-2e44-4d3f-95bd-7fde4f81ce7e","system_id":"levelo_inurba_marseille","lat":43.323354,"lon":5.406217,"is_reserved":false,"is_disabled":false,"rental_uris":{"android":"levelo://app?vid=b947e013-2e44-4d3f-95bd-7fde4f81ce7e","ios":"levelo://app?vid=b947e013-2e44-4d3f-95bd-7fde4f81ce7e"},"vehicle_type_id":"4","last_reported":1747559364,"current_range_meters":14800,"station_id":"ce4bhq92rcd13ifvqhjg","pricing_plan_id":"cebpf4jnsgd1na2vs0mg"},{"bike_id":"0cdcc0c5-f180-48ea-9e75-b41f4ab15481","system_id":"levelo_inurba_marseille","lat":43.27204,"lon":5.39181,"is_reserved":false,"is_disabled":false,"rental_uris":{"android":"levelo://app?vid=0cdcc0c5-f180-48ea-9e75-b41f4ab15481","ios":"levelo://app?vid=0cdcc0c5-f180-48ea-9e75-b41f4ab15481"},"vehicle_type_id":"4","last_reported":1747559364,"current_range_meters":14800,"station_id":"ce4bhhp2rcd13ifvqfm0","pricing_plan_id":"cebpf4jnsgd1na2vs0mg"},{"bike_id":"168ff632-117e-4c12-8961-89fb008f2faf","system_id":"levelo_inurba_marseille","lat":43.27216,"lon":5.39183,"is_reserved":false,"is_disabled":true,"rental_uris":{"android":"levelo://app?vid=168ff632-117e-4c12-8961-89fb008f2faf","ios":"levelo://app?vid=168ff632-117e-4c12-8961-89fb008f2faf"},"vehicle_type_id":"4","last_reported":1747559364,"current_range_meters":15200,"station_id":"ce4bhhp2rcd13ifvqfm0","pricing_plan_id":"cebpf4jnsgd1na2vs0mg"},{"bike_id":"58887f66-7108-4294-a00e-551c17af804a","system_id":"levelo_inurba_marseille","lat":43.26226,"lon":5.40439,"is_reserved":false,"is_disabled":false,"rental_uris":{"android":"levelo://app?vid=58887f66-7108-4294-a00e-551c17af804a","ios":"levelo://app?vid=58887f66-7108-4294-a00e-551c17af804a"},"vehicle_type_id":"4","last_reported":1747559364,"current_range_meters":15200,"station_id":"ce4bhmh2rcd13ifvqgmg","pricing_plan_id":"cebpf4jnsgd1na2vs0mg"},{"bike_id":"1b586395-d7b7-480d-8921-ab9290352404","system_id":"levelo_inurba_marseille","lat":43.32362,"lon":5.36762,"is_reserved":false,"is_disabled":false,"rental_uris":{"android":"levelo://app?vid=1b586395-d7b7-480d-8921-ab9290352404","ios":"levelo://app?vid=1b586395-d7b7-480d-8921-ab9290352404"},"vehicle_type_id":"4","last_reported":1747559364,"current_range_meters":15200,"station_id":"ce4bhsh2rcd13ifvqi2g","pricing_plan_id":"cebpf4jnsgd1na2vs0mg"},{"bike_id":"a43eb44a-6763-4ee1-9b8c-4f7cf6fb7bec","system_id":"levelo_inurba_marseille","lat":43.300882,"lon":5.390801,"is_reserved":false,"is_disabled":false,"rental_uris":{"android":"levelo://app?vid=a43eb44a-6763-4ee1-9b8c-4f7cf6fb7bec","ios":"levelo://app?vid=a43eb44a-6763-4ee1-9b8c-4f7cf6fb7bec"},"vehicle_type_id":"4","last_reported":1747559364,"current_range_meters":14800,"station_id":"ce4bh192rcd13ifvqdb0","pricing_plan_id":"cebpf4jnsgd1na2vs0mg"},{"bike_id":"39fe4106-c10e-4efd-b2b9-e8819c3e0649","system_id":"levelo_inurba_marseille","lat":43.30599,"lon":5.37214,"is_reserved":false,"is_disabled":false,"rental_uris":{"android":"levelo://app?vid=39fe4106-c10e-4efd-b2b9-e8819c3e0649","ios":"levelo://app?vid=39fe4106-c10e-4efd-b2b9-e8819c3e0649"},"vehicle_type_id":"4","last_reported":1747559364,"current_range_meters":14800,"station_id":"ce4bgqh2rcd13ifvqc4g","pricing_plan_id":"cebpf4jnsgd1na2vs0mg"},{"bike_id":"ed34fad4-c48e-4c1a-b9b1-8eb1cd77d573","system_id":"levelo_inurba_marseille","lat":43.30943,"lon":5.38621,"is_reserved":false,"is_disabled":false,"rental_uris":{"android":"levelo://app?vid=ed34fad4-c48e-4c1a-b9b1-8eb1cd77d573","ios":"levelo://app?vid=ed34fad4-c48e-4c1a-b9b1-8eb1cd77d573"},"vehicle_type_id":"4","last_reported":1747559364,"current_range_meters":15200,"station_id":"ce4bgv12rcd13ifvqcp0","pricing_plan_id":"cebpf4jnsgd1na2vs0mg"},{"bike_id":"be2be7b2-37fa-4e7b-942f-4f786251b05f","system_id":"levelo_inurba_marseille","lat":43.31705,"lon":5.37754,"is_reserved":false,"is_disabled":false,"rental_uris":{"android":"levelo://app?vid=be2be7b2-37fa-4e7b-942f-4f786251b05f","ios":"levelo://app?vid=be2be7b2-37fa-4e7b-942f-4f786251b05f"},"vehicle_type_id":"4","last_reported":1747559364,"current_range_meters":15200,"station_id":"ce4bgth2rcd13ifvqch0","pricing_plan_id":"cebpf4jnsgd1na2vs0mg"},{"bike_id":"2d43dba1-6ff7-4289-91c8-c617d5aac932","system_id":"levelo_inurba_marseille","lat":43.29576,"lon":5.375058,"is_reserved":false,"is_disabled":true,"rental_uris":{"android":"levelo://app?vid=2d43dba1-6ff7-4289-91c8-c617d5aac932","ios":"levelo://app?vid=2d43dba1-6ff7-4289-91c8-c617d5aac932"},"vehicle_type_id":"4","last_reported":1747559364,"current_range_meters":16000,"station_id":"ce4bgh92rcd13ifvqb50","pricing_plan_id":"cebpf4jnsgd1na2vs0mg"},{"bike_id":"3812098f-f79e-4494-b092-9699fb507498","system_id":"levelo_inurba_marseille","lat":43.29076,"lon":5.37171,"is_reserved":false,"is_disabled":true,"rental_uris":{"android":"levelo://app?vid=3812098f-f79e-4494-b092-9699fb507498","ios":"levelo://app?vid=3812098f-f79e-4494-b092-9699fb507498"},"vehicle_type_id":"4","last_reported":1747559364,"current_range_meters":15200,"station_id":"ce4bh5p2rcd13ifvqe4g","pricing_plan_id":"cebpf4jnsgd1na2vs0mg"},{"bike_id":"563abd07-28c4-473c-a3bc-3f7fe27e1ba3","system_id":"levelo_inurba_marseille","lat":43.30295,"lon":5.38456,"is_reserved":false,"is_disabled":false,"rental_uris":{"android":"levelo://app?vid=563abd07-28c4-473c-a3bc-3f7fe27e1ba3","ios":"levelo://app?vid=563abd07-28c4-473c-a3bc-3f7fe27e1ba3"},"vehicle_type_id":"4","last_reported":1747559364,"current_range_meters":16000,"station_id":"","pricing_plan_id":"cebpf4jnsgd1na2vs0mg"},{"bike_id":"7e51c783-7282-47be-b939-67f3cf3f0703","system_id":"levelo_inurba_marseille","lat":43.25116,"lon":5.40332,"is_reserved":false,"is_disabled":false,"rental_uris":{"android":"levelo://app?vid=7e51c783-7282-47be-b939-67f3cf3f0703","ios":"levelo://app?vid=7e51c783-7282-47be-b939-67f3cf3f0703"},"vehicle_type_id":"4","last_reported":1747559364,"current_range_meters":16000,"station_id":"ce4bhlh2rcd13ifvqgig","pricing_plan_id":"cebpf4jnsgd1na2vs0mg"},{"bike_id":"c38c0434-7c0b-4918-a236-1841e549db1d","system_id":"levelo_inurba_marseille","lat":43.25114,"lon":5.40327,"is_reserved":false,"is_disabled":false,"rental_uris":{"android":"levelo://app?vid=c38c0434-7c0b-4918-a236-1841e549db1d","ios":"levelo://app?vid=c38c0434-7c0b-4918-a236-1841e549db1d"},"vehicle_type_id":"4","last_reported":1747559364,"current_range_meters":16000,"station_id":"ce4bhlh2rcd13ifvqgig","pricing_plan_id":"cebpf4jnsgd1na2vs0mg"},{"bike_id":"63ee7651-d7fc-446f-b34b-5f1be0f0febd","system_id":"levelo_inurba_marseille","lat":43.32346,"lon":5.40626,"is_reserved":false,"is_disabled":false,"rental_uris":{"android":"levelo://app?vid=63ee7651-d7fc-446f-b34b-5f1be0f0febd","ios":"levelo://app?vid=63ee7651-d7fc-446f-b34b-5f1be0f0febd"},"vehicle_type_id":"4","last_reported":1747559364,"current_range_meters":16000,"station_id":"ce4bhq92rcd13ifvqhjg","pricing_plan_id":"cebpf4jnsgd1na2vs0mg"},{"bike_id":"55074562-456f-4265-9165-ff017bb29e09","system_id":"levelo_inurba_marseille","lat":43.26584,"lon":5.37298,"is_reserved":false,"is_disabled":false,"rental_uris":{"android":"levelo://app?vid=55074562-456f-4265-9165-ff017bb29e09","ios":"levelo://app?vid=55074562-456f-4265-9165-ff017bb29e09"},"vehicle_type_id":"4","last_reported":1747559364,"current_range_meters":16400,"station_id":"ce4bhg12rcd13ifvqf70","pricing_plan_id":"cebpf4jnsgd1na2vs0mg"},{"bike_id":"19456222-7d38-48cf-a950-06daadd07927","system_id":"levelo_inurba_marseille","lat":43.25019,"lon":5.37537,"is_reserved":false,"is_disabled":false,"rental_uris":{"android":"levelo://app?vid=19456222-7d38-48cf-a950-06daadd07927","ios":"levelo://app?vid=19456222-7d38-48cf-a950-06daadd07927"},"vehicle_type_id":"4","last_reported":1747559364,"current_range_meters":16400,"station_id":"","pricing_plan_id":"cebpf4jnsgd1na2vs0mg"},{"bike_id":"6a4787de-814f-479e-94ae-e23203d9be72","system_id":"levelo_inurba_marseille","lat":43.2904,"lon":5.35917,"is_reserved":false,"is_disabled":false,"rental_uris":{"android":"levelo://app?vid=6a4787de-814f-479e-94ae-e23203d9be72","ios":"levelo://app?vid=6a4787de-814f-479e-94ae-e23203d9be72"},"vehicle_type_id":"4","last_reported":1747559364,"current_range_meters":16000,"station_id":"ce4bha92rcd13ifvqeg0","pricing_plan_id":"cebpf4jnsgd1na2vs0mg"},{"bike_id":"1628171c-f250-4a3d-80a6-7faa3531168a","system_id":"levelo_inurba_marseille","lat":43.25502,"lon":5.37649,"is_reserved":false,"is_disabled":false,"rental_uris":{"android":"levelo://app?vid=1628171c-f250-4a3d-80a6-7faa3531168a","ios":"levelo://app?vid=1628171c-f250-4a3d-80a6-7faa3531168a"},"vehicle_type_id":"4","last_reported":1747559364,"current_range_meters":16400,"station_id":"ce4bhh12rcd13ifvqff0","pricing_plan_id":"cebpf4jnsgd1na2vs0mg"},{"bike_id":"db647a88-7197-40ac-aeb0-6195ce252bd5","system_id":"levelo_inurba_marseille","lat":43.31101,"lon":5.42455,"is_reserved":false,"is_disabled":false,"rental_uris":{"android":"levelo://app?vid=db647a88-7197-40ac-aeb0-6195ce252bd5","ios":"levelo://app?vid=db647a88-7197-40ac-aeb0-6195ce252bd5"},"vehicle_type_id":"4","last_reported":1747559364,"current_range_meters":16400,"station_id":"ce4bhp92rcd13ifvqhag","pricing_plan_id":"cebpf4jnsgd1na2vs0mg"},{"bike_id":"e6b0b87a-2af3-4f67-921e-620bda3838e7","system_id":"levelo_inurba_marseille","lat":43.26196,"lon":5.37934,"is_reserved":false,"is_disabled":false,"rental_uris":{"android":"levelo://app?vid=e6b0b87a-2af3-4f67-921e-620bda3838e7","ios":"levelo://app?vid=e6b0b87a-2af3-4f67-921e-620bda3838e7"},"vehicle_type_id":"4","last_reported":1747559364,"current_range_meters":16400,"station_id":"ce4bhjp2rcd13ifvqg90","pricing_plan_id":"cebpf4jnsgd1na2vs0mg"},{"bike_id":"a675f4e5-fc13-43cf-92f6-6acfa57913c0","system_id":"levelo_inurba_marseille","lat":43.290195,"lon":5.381369,"is_reserved":false,"is_disabled":true,"rental_uris":{"android":"levelo://app?vid=a675f4e5-fc13-43cf-92f6-6acfa57913c0","ios":"levelo://app?vid=a675f4e5-fc13-43cf-92f6-6acfa57913c0"},"vehicle_type_id":"4","last_reported":1747559364,"current_range_meters":16400,"station_id":"ce4bh4p2rcd13ifvqe1g","pricing_plan_id":"cebpf4jnsgd1na2vs0mg"},{"bike_id":"ee75602a-f143-4ba1-b3de-330c8991247c","system_id":"levelo_inurba_marseille","lat":43.314779,"lon":5.37305,"is_reserved":false,"is_disabled":false,"rental_uris":{"android":"levelo://app?vid=ee75602a-f143-4ba1-b3de-330c8991247c","ios":"levelo://app?vid=ee75602a-f143-4ba1-b3de-330c8991247c"},"vehicle_type_id":"4","last_reported":1747559364,"current_range_meters":16400,"station_id":"ce4bgt12rcd13ifvqcd0","pricing_plan_id":"cebpf4jnsgd1na2vs0mg"},{"bike_id":"bf2b2bfb-9733-4bda-908d-03391ae976cc","system_id":"levelo_inurba_marseille","lat":43.311929,"lon":5.416103,"is_reserved":false,"is_disabled":false,"rental_uris":{"android":"levelo://app?vid=bf2b2bfb-9733-4bda-908d-03391ae976cc","ios":"levelo://app?vid=bf2b2bfb-9733-4bda-908d-03391ae976cc"},"vehicle_type_id":"4","last_reported":1747559364,"current_range_meters":16400,"station_id":"","pricing_plan_id":"cebpf4jnsgd1na2vs0mg"},{"bike_id":"a0869ad5-e57d-4757-9e0c-87b965585234","system_id":"levelo_inurba_marseille","lat":43.32341,"lon":5.40608,"is_reserved":false,"is_disabled":false,"rental_uris":{"android":"levelo://app?vid=a0869ad5-e57d-4757-9e0c-87b965585234","ios":"levelo://app?vid=a0869ad5-e57d-4757-9e0c-87b965585234"},"vehicle_type_id":"4","last_reported":1747559364,"current_range_meters":16400,"station_id":"ce4bhq92rcd13ifvqhjg","pricing_plan_id":"cebpf4jnsgd1na2vs0mg"},{"bike_id":"8d43490f-761a-4e4c-98ee-95097b6c2d47","system_id":"levelo_inurba_marseille","lat":43.231897,"lon":5.355453,"is_reserved":false,"is_disabled":false,"rental_uris":{"android":"levelo://app?vid=8d43490f-761a-4e4c-98ee-95097b6c2d47","ios":"levelo://app?vid=8d43490f-761a-4e4c-98ee-95097b6c2d47"},"vehicle_type_id":"4","last_reported":1747559364,"current_range_meters":16400,"station_id":"ce4bhu92rcd13ifvqi70","pricing_plan_id":"cebpf4jnsgd1na2vs0mg"},{"bike_id":"86603db7-b462-4e72-8622-a2dee8bb2920","system_id":"levelo_inurba_marseille","lat":43.337444,"lon":5.374475,"is_reserved":false,"is_disabled":false,"rental_uris":{"android":"levelo://app?vid=86603db7-b462-4e72-8622-a2dee8bb2920","ios":"levelo://app?vid=86603db7-b462-4e72-8622-a2dee8bb2920"},"vehicle_type_id":"4","last_reported":1747559364,"current_range_meters":16400,"station_id":"","pricing_plan_id":"cebpf4jnsgd1na2vs0mg"},{"bike_id":"bcbdbd69-7be8-42f8-a855-a4358565de8f","system_id":"levelo_inurba_marseille","lat":43.277397,"lon":5.414119,"is_reserved":false,"is_disabled":false,"rental_uris":{"android":"levelo://app?vid=bcbdbd69-7be8-42f8-a855-a4358565de8f","ios":"levelo://app?vid=bcbdbd69-7be8-42f8-a855-a4358565de8f"},"vehicle_type_id":"4","last_reported":1747559364,"current_range_meters":16800,"station_id":"","pricing_plan_id":"cebpf4jnsgd1na2vs0mg"},{"bike_id":"b96a4e7c-0de7-41da-b086-8b5a8e70a687","system_id":"levelo_inurba_marseille","lat":43.27198,"lon":5.39192,"is_reserved":false,"is_disabled":true,"rental_uris":{"android":"levelo://app?vid=b96a4e7c-0de7-41da-b086-8b5a8e70a687","ios":"levelo://app?vid=b96a4e7c-0de7-41da-b086-8b5a8e70a687"},"vehicle_type_id":"4","last_reported":1747559364,"current_range_meters":12400,"station_id":"ce4bhhp2rcd13ifvqfm0","pricing_plan_id":"cebpf4jnsgd1na2vs0mg"},{"bike_id":"cf99a182-05bd-4cbc-b6a6-6a33541bdb08","system_id":"levelo_inurba_marseille","lat":43.2512,"lon":5.40333,"is_reserved":false,"is_disabled":false,"rental_uris":{"android":"levelo://app?vid=cf99a182-05bd-4cbc-b6a6-6a33541bdb08","ios":"levelo://app?vid=cf99a182-05bd-4cbc-b6a6-6a33541bdb08"},"vehicle_type_id":"4","last_reported":1747559364,"current_range_meters":16800,"station_id":"ce4bhlh2rcd13ifvqgig","pricing_plan_id":"cebpf4jnsgd1na2vs0mg"},{"bike_id":"8a97bfc0-84ea-4609-9f84-31dc5331b6af","system_id":"levelo_inurba_marseille","lat":43.30546,"lon":5.36517,"is_reserved":false,"is_disabled":false,"rental_uris":{"android":"levelo://app?vid=8a97bfc0-84ea-4609-9f84-31dc5331b6af","ios":"levelo://app?vid=8a97bfc0-84ea-4609-9f84-31dc5331b6af"},"vehicle_type_id":"4","last_reported":1747559364,"current_range_meters":16800,"station_id":"ce4bgs12rcd13ifvqcag","pricing_plan_id":"cebpf4jnsgd1na2vs0mg"},{"bike_id":"c8fa539b-4976-4f2e-bb3d-58fb999b235f","system_id":"levelo_inurba_marseille","lat":43.29076,"lon":5.37167,"is_reserved":false,"is_disabled":false,"rental_uris":{"android":"levelo://app?vid=c8fa539b-4976-4f2e-bb3d-58fb999b235f","ios":"levelo://app?vid=c8fa539b-4976-4f2e-bb3d-58fb999b235f"},"vehicle_type_id":"4","last_reported":1747559364,"current_range_meters":16800,"station_id":"ce4bh5p2rcd13ifvqe4g","pricing_plan_id":"cebpf4jnsgd1na2vs0mg"},{"bike_id":"73b83a1a-3752-4721-8b24-0d101cb37ea7","system_id":"levelo_inurba_marseille","lat":43.31312,"lon":5.39704,"is_reserved":false,"is_disabled":false,"rental_uris":{"android":"levelo://app?vid=73b83a1a-3752-4721-8b24-0d101cb37ea7","ios":"levelo://app?vid=73b83a1a-3752-4721-8b24-0d101cb37ea7"},"vehicle_type_id":"4","last_reported":1747559364,"current_range_meters":17200,"station_id":"ce4bgvp2rcd13ifvqcu0","pricing_plan_id":"cebpf4jnsgd1na2vs0mg"},{"bike_id":"67f72f62-eb9d-4994-bbcf-c10b28dd838c","system_id":"levelo_inurba_marseille","lat":43.26599,"lon":5.39331,"is_reserved":false,"is_disabled":false,"rental_uris":{"android":"levelo://app?vid=67f72f62-eb9d-4994-bbcf-c10b28dd838c","ios":"levelo://app?vid=67f72f62-eb9d-4994-bbcf-c10b28dd838c"},"vehicle_type_id":"4","last_reported":1747559364,"current_range_meters":17200,"station_id":"","pricing_plan_id":"cebpf4jnsgd1na2vs0mg"},{"bike_id":"26ae3f71-446b-4d48-9715-d0cb78472fbf","system_id":"levelo_inurba_marseille","lat":43.31169,"lon":5.36995,"is_reserved":false,"is_disabled":false,"rental_uris":{"android":"levelo://app?vid=26ae3f71-446b-4d48-9715-d0cb78472fbf","ios":"levelo://app?vid=26ae3f71-446b-4d48-9715-d0cb78472fbf"},"vehicle_type_id":"4","last_reported":1747559364,"current_range_meters":17200,"station_id":"","pricing_plan_id":"cebpf4jnsgd1na2vs0mg"},{"bike_id":"b608ee5d-bf23-4ce8-a2bd-64e717b2445e","system_id":"levelo_inurba_marseille","lat":43.30376,"lon":5.42484,"is_reserved":false,"is_disabled":false,"rental_uris":{"android":"levelo://app?vid=b608ee5d-bf23-4ce8-a2bd-64e717b2445e","ios":"levelo://app?vid=b608ee5d-bf23-4ce8-a2bd-64e717b2445e"},"vehicle_type_id":"4","last_reported":1747559364,"current_range_meters":17200,"station_id":"ce4bhoh2rcd13ifvqh6g","pricing_plan_id":"cebpf4jnsgd1na2vs0mg"},{"bike_id":"b7bdf707-c37d-4bb4-b8bf-d5fd581bcd2e","system_id":"levelo_inurba_marseille","lat":43.27668,"lon":5.38869,"is_reserved":false,"is_disabled":false,"rental_uris":{"android":"levelo://app?vid=b7bdf707-c37d-4bb4-b8bf-d5fd581bcd2e","ios":"levelo://app?vid=b7bdf707-c37d-4bb4-b8bf-d5fd581bcd2e"},"vehicle_type_id":"4","last_reported":1747559364,"current_range_meters":17600,"station_id":"ce4bhi12rcd13ifvqfo0","pricing_plan_id":"cebpf4jnsgd1na2vs0mg"},{"bike_id":"5b2683ba-111a-4e84-bff7-82b5caa90717","system_id":"levelo_inurba_marseille","lat":43.279432,"lon":5.410469,"is_reserved":false,"is_disabled":false,"rental_uris":{"android":"levelo://app?vid=5b2683ba-111a-4e84-bff7-82b5caa90717","ios":"levelo://app?vid=5b2683ba-111a-4e84-bff7-82b5caa90717"},"vehicle_type_id":"4","last_reported":1747559364,"current_range_meters":17600,"station_id":"ce4bhnp2rcd13ifvqh0g","pricing_plan_id":"cebpf4jnsgd1na2vs0mg"},{"bike_id":"cbf22af3-6c8f-4023-8971-3961263cafe8","system_id":"levelo_inurba_marseille","lat":43.28703,"lon":5.374065,"is_reserved":false,"is_disabled":true,"rental_uris":{"android":"levelo://app?vid=cbf22af3-6c8f-4023-8971-3961263cafe8","ios":"levelo://app?vid=cbf22af3-6c8f-4023-8971-3961263cafe8"},"vehicle_type_id":"4","last_reported":1747559364,"current_range_meters":17600,"station_id":"ce4bh3p2rcd13ifvqdq0","pricing_plan_id":"cebpf4jnsgd1na2vs0mg"},{"bike_id":"8a1ea502-ddde-4a89-ace9-f709312f1262","system_id":"levelo_inurba_marseille","lat":43.29609,"lon":5.37722,"is_reserved":false,"is_disabled":false,"rental_uris":{"android":"levelo://app?vid=8a1ea502-ddde-4a89-ace9-f709312f1262","ios":"levelo://app?vid=8a1ea502-ddde-4a89-ace9-f709312f1262"},"vehicle_type_id":"4","last_reported":1747559364,"current_range_meters":18000,"station_id":"ce4bgi92rcd13ifvqb90","pricing_plan_id":"cebpf4jnsgd1na2vs0mg"},{"bike_id":"be3ec35b-7e11-40c2-8533-efbf69bf1bbb","system_id":"levelo_inurba_marseille","lat":43.26066,"lon":5.39395,"is_reserved":false,"is_disabled":true,"rental_uris":{"android":"levelo://app?vid=be3ec35b-7e11-40c2-8533-efbf69bf1bbb","ios":"levelo://app?vid=be3ec35b-7e11-40c2-8533-efbf69bf1bbb"},"vehicle_type_id":"4","last_reported":1747559364,"current_range_meters":18000,"station_id":"ce4bhh92rcd13ifvqfj0","pricing_plan_id":"cebpf4jnsgd1na2vs0mg"},{"bike_id":"25a6ab0d-3d76-40d0-bc6c-e1f216493645","system_id":"levelo_inurba_marseille","lat":43.21751,"lon":5.34599,"is_reserved":false,"is_disabled":false,"rental_uris":{"android":"levelo://app?vid=25a6ab0d-3d76-40d0-bc6c-e1f216493645","ios":"levelo://app?vid=25a6ab0d-3d76-40d0-bc6c-e1f216493645"},"vehicle_type_id":"4","last_reported":1747559364,"current_range_meters":18000,"station_id":"st_cvj6r9ubvosntc0bgbag","pricing_plan_id":"cebpf4jnsgd1na2vs0mg"},{"bike_id":"e02af135-527e-4f04-b463-540aa971dcbc","system_id":"levelo_inurba_marseille","lat":43.3092,"lon":5.4016,"is_reserved":false,"is_disabled":false,"rental_uris":{"android":"levelo://app?vid=e02af135-527e-4f04-b463-540aa971dcbc","ios":"levelo://app?vid=e02af135-527e-4f04-b463-540aa971dcbc"},"vehicle_type_id":"4","last_reported":1747559364,"current_range_meters":18000,"station_id":"ce4bgvp2rcd13ifvqct0","pricing_plan_id":"cebpf4jnsgd1na2vs0mg"},{"bike_id":"6dc4994d-fbf2-4437-9780-df64f10a3867","system_id":"levelo_inurba_marseille","lat":43.29282,"lon":5.40125,"is_reserved":false,"is_disabled":false,"rental_uris":{"android":"levelo://app?vid=6dc4994d-fbf2-4437-9780-df64f10a3867","ios":"levelo://app?vid=6dc4994d-fbf2-4437-9780-df64f10a3867"},"vehicle_type_id":"4","last_reported":1747559364,"current_range_meters":18000,"station_id":"ce4bh312rcd13ifvqdk0","pricing_plan_id":"cebpf4jnsgd1na2vs0mg"},{"bike_id":"188c0480-8788-40d0-af36-4aa2d4838ea7","system_id":"levelo_inurba_marseille","lat":43.26571,"lon":5.39046,"is_reserved":false,"is_disabled":false,"rental_uris":{"android":"levelo://app?vid=188c0480-8788-40d0-af36-4aa2d4838ea7","ios":"levelo://app?vid=188c0480-8788-40d0-af36-4aa2d4838ea7"},"vehicle_type_id":"4","last_reported":1747559364,"current_range_meters":18000,"station_id":"ce4bhe12rcd13ifvqf30","pricing_plan_id":"cebpf4jnsgd1na2vs0mg"},{"bike_id":"09ce2cb9-244b-4c1a-90f3-24693dfa819d","system_id":"levelo_inurba_marseille","lat":43.26562,"lon":5.37274,"is_reserved":false,"is_disabled":false,"rental_uris":{"android":"levelo://app?vid=09ce2cb9-244b-4c1a-90f3-24693dfa819d","ios":"levelo://app?vid=09ce2cb9-244b-4c1a-90f3-24693dfa819d"},"vehicle_type_id":"4","last_reported":1747559364,"current_range_meters":18000,"station_id":"ce4bhg12rcd13ifvqf70","pricing_plan_id":"cebpf4jnsgd1na2vs0mg"},{"bike_id":"d865a447-416c-484d-af0b-8be9ad6ced14","system_id":"levelo_inurba_marseille","lat":43.25499,"lon":5.37652,"is_reserved":false,"is_disabled":false,"rental_uris":{"android":"levelo://app?vid=d865a447-416c-484d-af0b-8be9ad6ced14","ios":"levelo://app?vid=d865a447-416c-484d-af0b-8be9ad6ced14"},"vehicle_type_id":"4","last_reported":1747559364,"current_range_meters":18000,"station_id":"ce4bhh12rcd13ifvqff0","pricing_plan_id":"cebpf4jnsgd1na2vs0mg"},{"bike_id":"6fbd5d4b-3ac0-49e5-8785-b645d18c78bb","system_id":"levelo_inurba_marseille","lat":43.310845,"lon":5.424423,"is_reserved":false,"is_disabled":false,"rental_uris":{"android":"levelo://app?vid=6fbd5d4b-3ac0-49e5-8785-b645d18c78bb","ios":"levelo://app?vid=6fbd5d4b-3ac0-49e5-8785-b645d18c78bb"},"vehicle_type_id":"4","last_reported":1747559364,"current_range_meters":18000,"station_id":"ce4bhp92rcd13ifvqhag","pricing_plan_id":"cebpf4jnsgd1na2vs0mg"},{"bike_id":"41389e7c-6f3c-410d-88e7-f591b55a002a","system_id":"levelo_inurba_marseille","lat":43.24068,"lon":5.37766,"is_reserved":false,"is_disabled":false,"rental_uris":{"android":"levelo://app?vid=41389e7c-6f3c-410d-88e7-f591b55a002a","ios":"levelo://app?vid=41389e7c-6f3c-410d-88e7-f591b55a002a"},"vehicle_type_id":"4","last_reported":1747559364,"current_range_meters":18800,"station_id":"ce4bhnp2rcd13ifvqgvg","pricing_plan_id":"cebpf4jnsgd1na2vs0mg"},{"bike_id":"d39cae16-34b5-4b82-8fc6-cac28c889070","system_id":"levelo_inurba_marseille","lat":43.29456,"lon":5.3868,"is_reserved":false,"is_disabled":true,"rental_uris":{"android":"levelo://app?vid=d39cae16-34b5-4b82-8fc6-cac28c889070","ios":"levelo://app?vid=d39cae16-34b5-4b82-8fc6-cac28c889070"},"vehicle_type_id":"4","last_reported":1747559364,"current_range_meters":18800,"station_id":"","pricing_plan_id":"cebpf4jnsgd1na2vs0mg"},{"bike_id":"b3594d0a-6267-4611-9097-5bb94a2ba24f","system_id":"levelo_inurba_marseille","lat":43.31131,"lon":5.37022,"is_reserved":false,"is_disabled":false,"rental_uris":{"android":"levelo://app?vid=b3594d0a-6267-4611-9097-5bb94a2ba24f","ios":"levelo://app?vid=b3594d0a-6267-4611-9097-5bb94a2ba24f"},"vehicle_type_id":"4","last_reported":1747559364,"current_range_meters":18800,"station_id":"","pricing_plan_id":"cebpf4jnsgd1na2vs0mg"},{"bike_id":"ab731ec6-1caa-4aa0-9a34-5f1e8fea1f39","system_id":"levelo_inurba_marseille","lat":43.288605,"lon":5.358456,"is_reserved":false,"is_disabled":false,"rental_uris":{"android":"levelo://app?vid=ab731ec6-1caa-4aa0-9a34-5f1e8fea1f39","ios":"levelo://app?vid=ab731ec6-1caa-4aa0-9a34-5f1e8fea1f39"},"vehicle_type_id":"4","last_reported":1747559364,"current_range_meters":18800,"station_id":"ce4bhb12rcd13ifvqem0","pricing_plan_id":"cebpf4jnsgd1na2vs0mg"},{"bike_id":"74779d32-87cf-4f23-b047-7955c944ddd2","system_id":"levelo_inurba_marseille","lat":43.29781,"lon":5.381165,"is_reserved":false,"is_disabled":true,"rental_uris":{"android":"levelo://app?vid=74779d32-87cf-4f23-b047-7955c944ddd2","ios":"levelo://app?vid=74779d32-87cf-4f23-b047-7955c944ddd2"},"vehicle_type_id":"4","last_reported":1747559364,"current_range_meters":18800,"station_id":"ce4bgip2rcd13ifvqbb0","pricing_plan_id":"cebpf4jnsgd1na2vs0mg"},{"bike_id":"45afbdbc-3084-4c8b-8a70-66a413b968af","system_id":"levelo_inurba_marseille","lat":43.29016,"lon":5.35616,"is_reserved":false,"is_disabled":false,"rental_uris":{"android":"levelo://app?vid=45afbdbc-3084-4c8b-8a70-66a413b968af","ios":"levelo://app?vid=45afbdbc-3084-4c8b-8a70-66a413b968af"},"vehicle_type_id":"4","last_reported":1747559364,"current_range_meters":18800,"station_id":"ce4bhb92rcd13ifvqen0","pricing_plan_id":"cebpf4jnsgd1na2vs0mg"},{"bike_id":"93bb0e99-2bb8-4c61-90e7-ea7c7adfa993","system_id":"levelo_inurba_marseille","lat":43.29951,"lon":5.3651,"is_reserved":false,"is_disabled":true,"rental_uris":{"android":"levelo://app?vid=93bb0e99-2bb8-4c61-90e7-ea7c7adfa993","ios":"levelo://app?vid=93bb0e99-2bb8-4c61-90e7-ea7c7adfa993"},"vehicle_type_id":"4","last_reported":1747559364,"current_range_meters":19200,"station_id":"ce4bgm92rcd13ifvqbr0","pricing_plan_id":"cebpf4jnsgd1na2vs0mg"},{"bike_id":"2d8e7071-6ffa-4dc6-8402-96d258f1bb66","system_id":"levelo_inurba_marseille","lat":43.25723,"lon":5.41118,"is_reserved":false,"is_disabled":false,"rental_uris":{"android":"levelo://app?vid=2d8e7071-6ffa-4dc6-8402-96d258f1bb66","ios":"levelo://app?vid=2d8e7071-6ffa-4dc6-8402-96d258f1bb66"},"vehicle_type_id":"4","last_reported":1747559364,"current_range_meters":19200,"station_id":"ce4bhkp2rcd13ifvqgd0","pricing_plan_id":"cebpf4jnsgd1na2vs0mg"},{"bike_id":"e7ceca93-0300-4e34-b71a-1117e90c8e55","system_id":"levelo_inurba_marseille","lat":43.272879,"lon":5.390836,"is_reserved":false,"is_disabled":false,"rental_uris":{"android":"levelo://app?vid=e7ceca93-0300-4e34-b71a-1117e90c8e55","ios":"levelo://app?vid=e7ceca93-0300-4e34-b71a-1117e90c8e55"},"vehicle_type_id":"4","last_reported":1747559364,"current_range_meters":18800,"station_id":"ce4bhgp2rcd13ifvqfe0","pricing_plan_id":"cebpf4jnsgd1na2vs0mg"},{"bike_id":"5d140f7b-8225-4b01-9103-f17b88333a52","system_id":"levelo_inurba_marseille","lat":43.28468,"lon":5.38536,"is_reserved":false,"is_disabled":false,"rental_uris":{"android":"levelo://app?vid=5d140f7b-8225-4b01-9103-f17b88333a52","ios":"levelo://app?vid=5d140f7b-8225-4b01-9103-f17b88333a52"},"vehicle_type_id":"4","last_reported":1747559364,"current_range_meters":19200,"station_id":"ce4bh8p2rcd13ifvqeb0","pricing_plan_id":"cebpf4jnsgd1na2vs0mg"},{"bike_id":"350406a6-5a93-4a9c-a2fe-0240a79e7348","system_id":"levelo_inurba_marseille","lat":43.28928,"lon":5.38409,"is_reserved":false,"is_disabled":false,"rental_uris":{"android":"levelo://app?vid=350406a6-5a93-4a9c-a2fe-0240a79e7348","ios":"levelo://app?vid=350406a6-5a93-4a9c-a2fe-0240a79e7348"},"vehicle_type_id":"4","last_reported":1747559364,"current_range_meters":19200,"station_id":"ce4bh612rcd13ifvqe6g","pricing_plan_id":"cebpf4jnsgd1na2vs0mg"},{"bike_id":"710241c1-46a3-4954-9e50-bd4b0b3c4335","system_id":"levelo_inurba_marseille","lat":43.31359,"lon":5.38499,"is_reserved":false,"is_disabled":true,"rental_uris":{"android":"levelo://app?vid=710241c1-46a3-4954-9e50-bd4b0b3c4335","ios":"levelo://app?vid=710241c1-46a3-4954-9e50-bd4b0b3c4335"},"vehicle_type_id":"4","last_reported":1747559364,"current_range_meters":19600,"station_id":"ce4bgt92rcd13ifvqcf0","pricing_plan_id":"cebpf4jnsgd1na2vs0mg"},{"bike_id":"14d6c000-a163-4aed-a8a8-a64703e47325","system_id":"levelo_inurba_marseille","lat":43.292543,"lon":5.38437,"is_reserved":false,"is_disabled":true,"rental_uris":{"android":"levelo://app?vid=14d6c000-a163-4aed-a8a8-a64703e47325","ios":"levelo://app?vid=14d6c000-a163-4aed-a8a8-a64703e47325"},"vehicle_type_id":"4","last_reported":1747559364,"current_range_meters":19600,"station_id":"ce4bh692rcd13ifvqea0","pricing_plan_id":"cebpf4jnsgd1na2vs0mg"},{"bike_id":"8a7e84fe-2685-40a6-b684-1f69d51630ec","system_id":"levelo_inurba_marseille","lat":43.28472,"lon":5.38431,"is_reserved":false,"is_disabled":true,"rental_uris":{"android":"levelo://app?vid=8a7e84fe-2685-40a6-b684-1f69d51630ec","ios":"levelo://app?vid=8a7e84fe-2685-40a6-b684-1f69d51630ec"},"vehicle_type_id":"4","last_reported":1747559364,"current_range_meters":19600,"station_id":"ce4bh512rcd13ifvqe3g","pricing_plan_id":"cebpf4jnsgd1na2vs0mg"},{"bike_id":"4f4a09e7-d078-4a3a-8226-fc2d8e2d9024","system_id":"levelo_inurba_marseille","lat":43.31221,"lon":5.368791,"is_reserved":false,"is_disabled":true,"rental_uris":{"android":"levelo://app?vid=4f4a09e7-d078-4a3a-8226-fc2d8e2d9024","ios":"levelo://app?vid=4f4a09e7-d078-4a3a-8226-fc2d8e2d9024"},"vehicle_type_id":"4","last_reported":1747559364,"current_range_meters":20000,"station_id":"ce4bgl92rcd13ifvqbq0","pricing_plan_id":"cebpf4jnsgd1na2vs0mg"},{"bike_id":"0c4661ab-673d-4c6c-a451-f3a64ac76d71","system_id":"levelo_inurba_marseille","lat":43.282297,"lon":5.391096,"is_reserved":false,"is_disabled":false,"rental_uris":{"android":"levelo://app?vid=0c4661ab-673d-4c6c-a451-f3a64ac76d71","ios":"levelo://app?vid=0c4661ab-673d-4c6c-a451-f3a64ac76d71"},"vehicle_type_id":"4","last_reported":1747559364,"current_range_meters":20000,"station_id":"","pricing_plan_id":"cebpf4jnsgd1na2vs0mg"},{"bike_id":"bed62950-6e37-4e1b-841e-3146778e769a","system_id":"levelo_inurba_marseille","lat":43.26033,"lon":5.3755,"is_reserved":false,"is_disabled":false,"rental_uris":{"android":"levelo://app?vid=bed62950-6e37-4e1b-841e-3146778e769a","ios":"levelo://app?vid=bed62950-6e37-4e1b-841e-3146778e769a"},"vehicle_type_id":"4","last_reported":1747559364,"current_range_meters":20000,"station_id":"ce4bhgh2rcd13ifvqfa0","pricing_plan_id":"cebpf4jnsgd1na2vs0mg"},{"bike_id":"62da95b8-6be8-4e8b-b8b9-c4540707d807","system_id":"levelo_inurba_marseille","lat":43.26237,"lon":5.40469,"is_reserved":false,"is_disabled":false,"rental_uris":{"android":"levelo://app?vid=62da95b8-6be8-4e8b-b8b9-c4540707d807","ios":"levelo://app?vid=62da95b8-6be8-4e8b-b8b9-c4540707d807"},"vehicle_type_id":"4","last_reported":1747559364,"current_range_meters":20000,"station_id":"ce4bhmh2rcd13ifvqgmg","pricing_plan_id":"cebpf4jnsgd1na2vs0mg"},{"bike_id":"60ceee7a-18b0-4403-b7a9-1bb8b24dda79","system_id":"levelo_inurba_marseille","lat":43.25853,"lon":5.3992,"is_reserved":false,"is_disabled":false,"rental_uris":{"android":"levelo://app?vid=60ceee7a-18b0-4403-b7a9-1bb8b24dda79","ios":"levelo://app?vid=60ceee7a-18b0-4403-b7a9-1bb8b24dda79"},"vehicle_type_id":"4","last_reported":1747559364,"current_range_meters":20000,"station_id":"ce4bhl92rcd13ifvqghg","pricing_plan_id":"cebpf4jnsgd1na2vs0mg"},{"bike_id":"e0096c0e-ae04-4692-a9c5-b96e8c7da2b4","system_id":"levelo_inurba_marseille","lat":43.28497,"lon":5.38579,"is_reserved":false,"is_disabled":false,"rental_uris":{"android":"levelo://app?vid=e0096c0e-ae04-4692-a9c5-b96e8c7da2b4","ios":"levelo://app?vid=e0096c0e-ae04-4692-a9c5-b96e8c7da2b4"},"vehicle_type_id":"4","last_reported":1747559364,"current_range_meters":20000,"station_id":"ce4bh8p2rcd13ifvqeb0","pricing_plan_id":"cebpf4jnsgd1na2vs0mg"},{"bike_id":"5a3840e5-8585-4fa0-b278-32fc329a1f37","system_id":"levelo_inurba_marseille","lat":43.26564,"lon":5.39007,"is_reserved":false,"is_disabled":false,"rental_uris":{"android":"levelo://app?vid=5a3840e5-8585-4fa0-b278-32fc329a1f37","ios":"levelo://app?vid=5a3840e5-8585-4fa0-b278-32fc329a1f37"},"vehicle_type_id":"4","last_reported":1747559364,"current_range_meters":20000,"station_id":"ce4bhe12rcd13ifvqf30","pricing_plan_id":"cebpf4jnsgd1na2vs0mg"},{"bike_id":"043398bc-ecb6-4cda-9661-4f8a0771edaf","system_id":"levelo_inurba_marseille","lat":43.299662,"lon":5.371716,"is_reserved":false,"is_disabled":false,"rental_uris":{"android":"levelo://app?vid=043398bc-ecb6-4cda-9661-4f8a0771edaf","ios":"levelo://app?vid=043398bc-ecb6-4cda-9661-4f8a0771edaf"},"vehicle_type_id":"4","last_reported":1747559364,"current_range_meters":20000,"station_id":"ce4bgr92rcd13ifvqc7g","pricing_plan_id":"cebpf4jnsgd1na2vs0mg"},{"bike_id":"c783fec5-cf58-49ab-8644-22d608481e3d","system_id":"levelo_inurba_marseille","lat":43.324784,"lon":5.365672,"is_reserved":false,"is_disabled":false,"rental_uris":{"android":"levelo://app?vid=c783fec5-cf58-49ab-8644-22d608481e3d","ios":"levelo://app?vid=c783fec5-cf58-49ab-8644-22d608481e3d"},"vehicle_type_id":"4","last_reported":1747559364,"current_range_meters":20400,"station_id":"ce4bhs12rcd13ifvqhvg","pricing_plan_id":"cebpf4jnsgd1na2vs0mg"},{"bike_id":"7f924a34-243b-45d5-b434-9f01b67a945a","system_id":"levelo_inurba_marseille","lat":43.30475,"lon":5.37909,"is_reserved":false,"is_disabled":false,"rental_uris":{"android":"levelo://app?vid=7f924a34-243b-45d5-b434-9f01b67a945a","ios":"levelo://app?vid=7f924a34-243b-45d5-b434-9f01b67a945a"},"vehicle_type_id":"4","last_reported":1747559364,"current_range_meters":20000,"station_id":"ce4bgup2rcd13ifvqcn0","pricing_plan_id":"cebpf4jnsgd1na2vs0mg"},{"bike_id":"f198f61c-140a-45ab-9df5-fbdfbf1e2560","system_id":"levelo_inurba_marseille","lat":43.32004,"lon":5.38162,"is_reserved":false,"is_disabled":true,"rental_uris":{"android":"levelo://app?vid=f198f61c-140a-45ab-9df5-fbdfbf1e2560","ios":"levelo://app?vid=f198f61c-140a-45ab-9df5-fbdfbf1e2560"},"vehicle_type_id":"4","last_reported":1747559364,"current_range_meters":20400,"station_id":"ce4bhr12rcd13ifvqhpg","pricing_plan_id":"cebpf4jnsgd1na2vs0mg"},{"bike_id":"8bd7a7d1-6ecb-4d12-ba98-8e7766a3e790","system_id":"levelo_inurba_marseille","lat":43.28699,"lon":5.37398,"is_reserved":false,"is_disabled":false,"rental_uris":{"android":"levelo://app?vid=8bd7a7d1-6ecb-4d12-ba98-8e7766a3e790","ios":"levelo://app?vid=8bd7a7d1-6ecb-4d12-ba98-8e7766a3e790"},"vehicle_type_id":"4","last_reported":1747559364,"current_range_meters":20800,"station_id":"ce4bh3p2rcd13ifvqdq0","pricing_plan_id":"cebpf4jnsgd1na2vs0mg"},{"bike_id":"37a5e5d6-b26c-4043-a5f8-b6bab9d12b09","system_id":"levelo_inurba_marseille","lat":43.28157,"lon":5.42643,"is_reserved":false,"is_disabled":false,"rental_uris":{"android":"levelo://app?vid=37a5e5d6-b26c-4043-a5f8-b6bab9d12b09","ios":"levelo://app?vid=37a5e5d6-b26c-4043-a5f8-b6bab9d12b09"},"vehicle_type_id":"4","last_reported":1747559364,"current_range_meters":20800,"station_id":"ce4bhnh2rcd13ifvqgug","pricing_plan_id":"cebpf4jnsgd1na2vs0mg"},{"bike_id":"f54954c7-c1a8-40ba-bda3-43f86cfcfe6b","system_id":"levelo_inurba_marseille","lat":43.3061,"lon":5.38297,"is_reserved":false,"is_disabled":false,"rental_uris":{"android":"levelo://app?vid=f54954c7-c1a8-40ba-bda3-43f86cfcfe6b","ios":"levelo://app?vid=f54954c7-c1a8-40ba-bda3-43f86cfcfe6b"},"vehicle_type_id":"4","last_reported":1747559364,"current_range_meters":20800,"station_id":"","pricing_plan_id":"cebpf4jnsgd1na2vs0mg"},{"bike_id":"c72a5d3e-b3db-49f5-aebc-8781a4c4dcd1","system_id":"levelo_inurba_marseille","lat":43.28661,"lon":5.36354,"is_reserved":false,"is_disabled":false,"rental_uris":{"android":"levelo://app?vid=c72a5d3e-b3db-49f5-aebc-8781a4c4dcd1","ios":"levelo://app?vid=c72a5d3e-b3db-49f5-aebc-8781a4c4dcd1"},"vehicle_type_id":"4","last_reported":1747559364,"current_range_meters":20800,"station_id":"ce4bhah2rcd13ifvqej0","pricing_plan_id":"cebpf4jnsgd1na2vs0mg"},{"bike_id":"22f22bf9-74de-4825-bf0a-7396147c0ded","system_id":"levelo_inurba_marseille","lat":43.29865,"lon":5.39736,"is_reserved":false,"is_disabled":false,"rental_uris":{"android":"levelo://app?vid=22f22bf9-74de-4825-bf0a-7396147c0ded","ios":"levelo://app?vid=22f22bf9-74de-4825-bf0a-7396147c0ded"},"vehicle_type_id":"4","last_reported":1747559364,"current_range_meters":21600,"station_id":"ce4bh0h2rcd13ifvqd50","pricing_plan_id":"cebpf4jnsgd1na2vs0mg"},{"bike_id":"e8162579-a5ad-485f-ad83-fec8a2ebe7e1","system_id":"levelo_inurba_marseille","lat":43.26826,"lon":5.39099,"is_reserved":false,"is_disabled":false,"rental_uris":{"android":"levelo://app?vid=e8162579-a5ad-485f-ad83-fec8a2ebe7e1","ios":"levelo://app?vid=e8162579-a5ad-485f-ad83-fec8a2ebe7e1"},"vehicle_type_id":"4","last_reported":1747559364,"current_range_meters":21600,"station_id":"","pricing_plan_id":"cebpf4jnsgd1na2vs0mg"},{"bike_id":"0d3e7f6d-c78a-497d-84c8-9c1ac9cdb3f6","system_id":"levelo_inurba_marseille","lat":43.25115,"lon":5.4032,"is_reserved":false,"is_disabled":false,"rental_uris":{"android":"levelo://app?vid=0d3e7f6d-c78a-497d-84c8-9c1ac9cdb3f6","ios":"levelo://app?vid=0d3e7f6d-c78a-497d-84c8-9c1ac9cdb3f6"},"vehicle_type_id":"4","last_reported":1747559364,"current_range_meters":21600,"station_id":"ce4bhlh2rcd13ifvqgig","pricing_plan_id":"cebpf4jnsgd1na2vs0mg"},{"bike_id":"1ef05c2f-1395-4821-b79c-d7c2cdc7602b","system_id":"levelo_inurba_marseille","lat":43.24542,"lon":5.3954,"is_reserved":false,"is_disabled":false,"rental_uris":{"android":"levelo://app?vid=1ef05c2f-1395-4821-b79c-d7c2cdc7602b","ios":"levelo://app?vid=1ef05c2f-1395-4821-b79c-d7c2cdc7602b"},"vehicle_type_id":"4","last_reported":1747559364,"current_range_meters":21600,"station_id":"ce4bhlp2rcd13ifvqgjg","pricing_plan_id":"cebpf4jnsgd1na2vs0mg"},{"bike_id":"b49e4efd-6938-4ecb-a675-e236e5f487c2","system_id":"levelo_inurba_marseille","lat":43.2552,"lon":5.41039,"is_reserved":false,"is_disabled":false,"rental_uris":{"android":"levelo://app?vid=b49e4efd-6938-4ecb-a675-e236e5f487c2","ios":"levelo://app?vid=b49e4efd-6938-4ecb-a675-e236e5f487c2"},"vehicle_type_id":"4","last_reported":1747559364,"current_range_meters":21600,"station_id":"","pricing_plan_id":"cebpf4jnsgd1na2vs0mg"},{"bike_id":"47e27a4b-d136-4ed2-bd7a-6a16cf437d1a","system_id":"levelo_inurba_marseille","lat":43.309266,"lon":5.401478,"is_reserved":false,"is_disabled":false,"rental_uris":{"android":"levelo://app?vid=47e27a4b-d136-4ed2-bd7a-6a16cf437d1a","ios":"levelo://app?vid=47e27a4b-d136-4ed2-bd7a-6a16cf437d1a"},"vehicle_type_id":"4","last_reported":1747559364,"current_range_meters":21600,"station_id":"ce4bgvp2rcd13ifvqct0","pricing_plan_id":"cebpf4jnsgd1na2vs0mg"},{"bike_id":"2fa247e6-2625-488c-a0e3-895709befc89","system_id":"levelo_inurba_marseille","lat":43.258203,"lon":5.394387,"is_reserved":false,"is_disabled":false,"rental_uris":{"android":"levelo://app?vid=2fa247e6-2625-488c-a0e3-895709befc89","ios":"levelo://app?vid=2fa247e6-2625-488c-a0e3-895709befc89"},"vehicle_type_id":"4","last_reported":1747559364,"current_range_meters":21600,"station_id":"","pricing_plan_id":"cebpf4jnsgd1na2vs0mg"},{"bike_id":"4ead2f03-aeb6-4e2f-8b18-1a17073643c6","system_id":"levelo_inurba_marseille","lat":43.27452,"lon":5.36049,"is_reserved":false,"is_disabled":false,"rental_uris":{"android":"levelo://app?vid=4ead2f03-aeb6-4e2f-8b18-1a17073643c6","ios":"levelo://app?vid=4ead2f03-aeb6-4e2f-8b18-1a17073643c6"},"vehicle_type_id":"4","last_reported":1747559364,"current_range_meters":21600,"station_id":"","pricing_plan_id":"cebpf4jnsgd1na2vs0mg"},{"bike_id":"ce5a2d3a-60b6-42c2-98bb-5bd668f227ae","system_id":"levelo_inurba_marseille","lat":43.309381,"lon":5.401564,"is_reserved":false,"is_disabled":false,"rental_uris":{"android":"levelo://app?vid=ce5a2d3a-60b6-42c2-98bb-5bd668f227ae","ios":"levelo://app?vid=ce5a2d3a-60b6-42c2-98bb-5bd668f227ae"},"vehicle_type_id":"4","last_reported":1747559364,"current_range_meters":21600,"station_id":"ce4bgvp2rcd13ifvqct0","pricing_plan_id":"cebpf4jnsgd1na2vs0mg"},{"bike_id":"805fe270-d3eb-460d-ba51-b071bebaca17","system_id":"levelo_inurba_marseille","lat":43.29006,"lon":5.35616,"is_reserved":false,"is_disabled":false,"rental_uris":{"android":"levelo://app?vid=805fe270-d3eb-460d-ba51-b071bebaca17","ios":"levelo://app?vid=805fe270-d3eb-460d-ba51-b071bebaca17"},"vehicle_type_id":"4","last_reported":1747559364,"current_range_meters":22000,"station_id":"ce4bhb92rcd13ifvqen0","pricing_plan_id":"cebpf4jnsgd1na2vs0mg"},{"bike_id":"5eee1e31-81ab-4170-84c0-e64528937feb","system_id":"levelo_inurba_marseille","lat":43.28616,"lon":5.35125,"is_reserved":false,"is_disabled":false,"rental_uris":{"android":"levelo://app?vid=5eee1e31-81ab-4170-84c0-e64528937feb","ios":"levelo://app?vid=5eee1e31-81ab-4170-84c0-e64528937feb"},"vehicle_type_id":"4","last_reported":1747559364,"current_range_meters":22000,"station_id":"ce4bhch2rcd13ifvqeug","pricing_plan_id":"cebpf4jnsgd1na2vs0mg"},