{"last_updated":1742192056,"ttl":60,"version":"2.2","data":{"bikes":[{"bike_id":"230395ba-0d17-4fd0-bf32-da69ca8c7d56","system_id":"levelo_inurba_marseille","lat":43.3013,"lon":5.38073,"is_reserved":false,"is_disabled":false,"rental_uris":{"android":"levelo://app?vid=230395ba-0d17-4fd0-bf32-da69ca8c7d56","ios":"levelo://app?vid=230395ba-0d17-4fd0-bf32-da69ca8c7d56"},"vehicle_type_id":"4","last_reported":1742192056,"current_range_meters":2800,"station_id":"ce4bgjp2rcd13ifvqbh0","pricing_plan_id":"cebpf4jnsgd1na2vs0mg"},{"bike_id":"a0077075-129c-41b6-a008-934f22aa9c2b","system_id":"levelo_inurba_marseille","lat":43.2619,"lon":5.37454,"is_reserved":false,"is_disabled":true,"rental_uris":{"android":"levelo://app?vid=a0077075-129c-41b6-a008-934f22aa9c2b","ios":"levelo://app?vid=a0077075-129c-41b6-a008-934f22aa9c2b"},"vehicle_type_id":"4","last_reported":1742192056,"current_range_meters":2800,"station_id":"ce4bhgp2rcd13ifvqfc0","pricing_plan_id":"cebpf4jnsgd1na2vs0mg"},{"bike_id":"fb40bcca-92b3-424a-8389-10870f52798a","system_id":"levelo_inurba_marseille","lat":43.26168,"lon":5.3878,"is_reserved":false,"is_disabled":false,"rental_uris":{"android":"levelo://app?vid=fb40bcca-92b3-424a-8389-10870f52798a","ios":"levelo://app?vid=fb40bcca-92b3-424a-8389-10870f52798a"},"vehicle_type_id":"4","last_reported":1742192056,"current_range_meters":2800,"station_id":"","pricing_plan_id":"cebpf4jnsgd1na2vs0mg"},{"bike_id":"1ac0ebad-6828-4242-99b2-14a9f8209f79","system_id":"levelo_inurba_marseille","lat":43.23183,"lon":5.35579,"is_reserved":false,"is_disabled":false,"rental_uris":{"android":"levelo://app?vid=1ac0ebad-6828-4242-99b2-14a9f8209f79","ios":"levelo://app?vid=1ac0ebad-6828-4242-99b2-14a9f8209f79"},"vehicle_type_id":"4","last_reported":1742192056,"current_range_meters":3200,"station_id":"ce4bhu92rcd13ifvqi70","pricing_plan_id":"cebpf4jnsgd1na2vs0mg"},{"bike_id":"76837955-312a-4300-a00b-4a15c94e44b9","system_id":"levelo_inurba_marseille","lat":43.26566,"lon":5.37292,"is_reserved":false,"is_disabled":false,"rental_uris":{"android":"levelo://app?vid=76837955-312a-4300-a00b-4a15c94e44b9","ios":"levelo://app?vid=76837955-312a-4300-a00b-4a15c94e44b9"},"vehicle_type_id":"4","last_reported":1742192056,"current_range_meters":3600,"station_id":"ce4bhg12rcd13ifvqf70","pricing_plan_id":"cebpf4jnsgd1na2vs0mg"},{"bike_id":"6cff3099-fc62-4212-a5e6-1cc54ed7cc41","system_id":"levelo_inurba_marseille","lat":43.250054,"lon":5.389135,"is_reserved":false,"is_disabled":false,"rental_uris":{"android":"levelo://app?vid=6cff3099-fc62-4212-a5e6-1cc54ed7cc41","ios":"levelo://app?vid=6cff3099-fc62-4212-a5e6-1cc54ed7cc41"},"vehicle_type_id":"4","last_reported":1742192056,"current_range_meters":3600,"station_id":"ce4bhgp2rcd13ifvqfd0","pricing_plan_id":"cebpf4jnsgd1na2vs0mg"},{"bike_id":"82465aa7-55ed-4055-9cc8-5fdee15ebdd8","system_id":"levelo_inurba_marseille","lat":43.2762,"lon":5.41901,"is_reserved":false,"is_disabled":false,"rental_uris":{"android":"levelo://app?vid=82465aa7-55ed-4055-9cc8-5fdee15ebdd8","ios":"levelo://app?vid=82465aa7-55ed-4055-9cc8-5fdee15ebdd8"},"vehicle_type_id":"4","last_reported":1742192056,"current_range_meters":3600,"station_id":"","pricing_plan_id":"cebpf4jnsgd1na2vs0mg"},{"bike_id":"7740e4b9-397d-4902-9378-ffe84fbaafdf","system_id":"levelo_inurba_marseille","lat":43.30532,"lon":5.36554,"is_reserved":false,"is_disabled":false,"rental_uris":{"android":"levelo://app?vid=7740e4b9-397d-4902-9378-ffe84fbaafdf","ios":"levelo://app?vid=7740e4b9-397d-4902-9378-ffe84fbaafdf"},"vehicle_type_id":"4","last_reported":1742192056,"current_range_meters":3600,"station_id":"ce4bgs12rcd13ifvqcag","pricing_plan_id":"cebpf4jnsgd1na2vs0mg"},{"bike_id":"efb53dda-871b-483c-8dec-e716116f9234","system_id":"levelo_inurba_marseille","lat":43.31089,"lon":5.36791,"is_reserved":false,"is_disabled":false,"rental_uris":{"android":"levelo://app?vid=efb53dda-871b-483c-8dec-e716116f9234","ios":"levelo://app?vid=efb53dda-871b-483c-8dec-e716116f9234"},"vehicle_type_id":"4","last_reported":1742192056,"current_range_meters":3600,"station_id":"","pricing_plan_id":"cebpf4jnsgd1na2vs0mg"},{"bike_id":"a5d9a2f8-11e2-445b-9946-70463938f681","system_id":"levelo_inurba_marseille","lat":43.31153,"lon":5.38142,"is_reserved":false,"is_disabled":false,"rental_uris":{"android":"levelo://app?vid=a5d9a2f8-11e2-445b-9946-70463938f681","ios":"levelo://app?vid=a5d9a2f8-11e2-445b-9946-70463938f681"},"vehicle_type_id":"4","last_reported":1742192056,"current_range_meters":4000,"station_id":"","pricing_plan_id":"cebpf4jnsgd1na2vs0mg"},{"bike_id":"ae25fe52-db37-435e-90b0-0d9ecc4e1c43","system_id":"levelo_inurba_marseille","lat":43.2785,"lon":5.39214,"is_reserved":false,"is_disabled":false,"rental_uris":{"android":"levelo://app?vid=ae25fe52-db37-435e-90b0-0d9ecc4e1c43","ios":"levelo://app?vid=ae25fe52-db37-435e-90b0-0d9ecc4e1c43"},"vehicle_type_id":"4","last_reported":1742192056,"current_range_meters":4000,"station_id":"ce4bhjp2rcd13ifvqga0","pricing_plan_id":"cebpf4jnsgd1na2vs0mg"},{"bike_id":"71d6b220-48b3-44b0-9feb-d7bbfca6b232","system_id":"levelo_inurba_marseille","lat":43.254924,"lon":5.376489,"is_reserved":false,"is_disabled":true,"rental_uris":{"android":"levelo://app?vid=71d6b220-48b3-44b0-9feb-d7bbfca6b232","ios":"levelo://app?vid=71d6b220-48b3-44b0-9feb-d7bbfca6b232"},"vehicle_type_id":"4","last_reported":1742192056,"current_range_meters":4000,"station_id":"ce4bhh12rcd13ifvqff0","pricing_plan_id":"cebpf4jnsgd1na2vs0mg"},{"bike_id":"ad7bc4ad-71aa-46af-9805-0c592387090d","system_id":"levelo_inurba_marseille","lat":43.2909,"lon":5.38106,"is_reserved":false,"is_disabled":false,"rental_uris":{"android":"levelo://app?vid=ad7bc4ad-71aa-46af-9805-0c592387090d","ios":"levelo://app?vid=ad7bc4ad-71aa-46af-9805-0c592387090d"},"vehicle_type_id":"4","last_reported":1742192056,"current_range_meters":4000,"station_id":"ce4bh512rcd13ifvqe2g","pricing_plan_id":"cebpf4jnsgd1na2vs0mg"},{"bike_id":"fb85c8b5-4f02-498a-a3a4-0beb3162e885","system_id":"levelo_inurba_marseille","lat":43.30147,"lon":5.37429,"is_reserved":false,"is_disabled":false,"rental_uris":{"android":"levelo://app?vid=fb85c8b5-4f02-498a-a3a4-0beb3162e885","ios":"levelo://app?vid=fb85c8b5-4f02-498a-a3a4-0beb3162e885"},"vehicle_type_id":"4","last_reported":1742192056,"current_range_meters":4400,"station_id":"ce4bgs92rcd13ifvqcc0","pricing_plan_id":"cebpf4jnsgd1na2vs0mg"},{"bike_id":"2127c283-3bf3-4081-9791-ba201cf5a542","system_id":"levelo_inurba_marseille","lat":43.30475,"lon":5.37347,"is_reserved":false,"is_disabled":true,"rental_uris":{"android":"levelo://app?vid=2127c283-3bf3-4081-9791-ba201cf5a542","ios":"levelo://app?vid=2127c283-3bf3-4081-9791-ba201cf5a542"},"vehicle_type_id":"4","last_reported":1742192056,"current_range_meters":4400,"station_id":"","pricing_plan_id":"cebpf4jnsgd1na2vs0mg"},{"bike_id":"19705e0d-3ab1-4385-878f-e702cd54fbac","system_id":"levelo_inurba_marseille","lat":43.24686,"lon":5.38169,"is_reserved":false,"is_disabled":false,"rental_uris":{"android":"levelo://app?vid=19705e0d-3ab1-4385-878f-e702cd54fbac","ios":"levelo://app?vid=19705e0d-3ab1-4385-878f-e702cd54fbac"},"vehicle_type_id":"4","last_reported":1742192056,"current_range_meters":4400,"station_id":"ce4bhih2rcd13ifvqfr0","pricing_plan_id":"cebpf4jnsgd1na2vs0mg"},{"bike_id":"7dd769be-a96c-41b3-8a44-6973fc831e5b","system_id":"levelo_inurba_marseille","lat":43.25488,"lon":5.37666,"is_reserved":false,"is_disabled":true,"rental_uris":{"android":"levelo://app?vid=7dd769be-a96c-41b3-8a44-6973fc831e5b","ios":"levelo://app?vid=7dd769be-a96c-41b3-8a44-6973fc831e5b"},"vehicle_type_id":"4","last_reported":1742192056,"current_range_meters":4400,"station_id":"ce4bhh12rcd13ifvqff0","pricing_plan_id":"cebpf4jnsgd1na2vs0mg"},{"bike_id":"8ac36ff0-95fa-4664-8e37-a03afd0a16e1","system_id":"levelo_inurba_marseille","lat":43.289743,"lon":5.37834,"is_reserved":false,"is_disabled":true,"rental_uris":{"android":"levelo://app?vid=8ac36ff0-95fa-4664-8e37-a03afd0a16e1","ios":"levelo://app?vid=8ac36ff0-95fa-4664-8e37-a03afd0a16e1"},"vehicle_type_id":"4","last_reported":1742192056,"current_range_meters":4400,"station_id":"ce4bh9p2rcd13ifvqed0","pricing_plan_id":"cebpf4jnsgd1na2vs0mg"},{"bike_id":"d378659a-b095-4d28-a820-d3bacca7d8f8","system_id":"levelo_inurba_marseille","lat":43.276167,"lon":5.360976,"is_reserved":false,"is_disabled":false,"rental_uris":{"android":"levelo://app?vid=d378659a-b095-4d28-a820-d3bacca7d8f8","ios":"levelo://app?vid=d378659a-b095-4d28-a820-d3bacca7d8f8"},"vehicle_type_id":"4","last_reported":1742192056,"current_range_meters":4800,"station_id":"ce4bgj92rcd13ifvqbe0","pricing_plan_id":"cebpf4jnsgd1na2vs0mg"},{"bike_id":"f2b7b04e-8089-4d6c-9db8-5e21bca75c26","system_id":"levelo_inurba_marseille","lat":43.27825,"lon":5.39212,"is_reserved":false,"is_disabled":true,"rental_uris":{"android":"levelo://app?vid=f2b7b04e-8089-4d6c-9db8-5e21bca75c26","ios":"levelo://app?vid=f2b7b04e-8089-4d6c-9db8-5e21bca75c26"},"vehicle_type_id":"4","last_reported":1742192056,"current_range_meters":4800,"station_id":"ce4bhjp2rcd13ifvqga0","pricing_plan_id":"cebpf4jnsgd1na2vs0mg"},{"bike_id":"61ea1968-2790-4970-9685-8a749d4e6df8","system_id":"levelo_inurba_marseille","lat":43.31115,"lon":5.37765,"is_reserved":false,"is_disabled":false,"rental_uris":{"android":"levelo://app?vid=61ea1968-2790-4970-9685-8a749d4e6df8","ios":"levelo://app?vid=61ea1968-2790-4970-9685-8a749d4e6df8"},"vehicle_type_id":"4","last_reported":1742192056,"current_range_meters":4800,"station_id":"ce4bgt92rcd13ifvqcg0","pricing_plan_id":"cebpf4jnsgd1na2vs0mg"},{"bike_id":"50977077-b0a1-4750-bfd7-556b151a7c52","system_id":"levelo_inurba_marseille","lat":43.308804,"lon":5.396456,"is_reserved":false,"is_disabled":false,"rental_uris":{"android":"levelo://app?vid=50977077-b0a1-4750-bfd7-556b151a7c52","ios":"levelo://app?vid=50977077-b0a1-4750-bfd7-556b151a7c52"},"vehicle_type_id":"4","last_reported":1742192056,"current_range_meters":4800,"station_id":"ce4bh012rcd13ifvqcv0","pricing_plan_id":"cebpf4jnsgd1na2vs0mg"},{"bike_id":"226bfa8c-468a-4f7f-bbde-f46c7fc50809","system_id":"levelo_inurba_marseille","lat":43.25717,"lon":5.41111,"is_reserved":false,"is_disabled":false,"rental_uris":{"android":"levelo://app?vid=226bfa8c-468a-4f7f-bbde-f46c7fc50809","ios":"levelo://app?vid=226bfa8c-468a-4f7f-bbde-f46c7fc50809"},"vehicle_type_id":"4","last_reported":1742192056,"current_range_meters":5600,"station_id":"ce4bhkp2rcd13ifvqgd0","pricing_plan_id":"cebpf4jnsgd1na2vs0mg"},{"bike_id":"af004255-93b1-4617-8c69-428414d7ebe9","system_id":"levelo_inurba_marseille","lat":43.25011,"lon":5.38919,"is_reserved":false,"is_disabled":false,"rental_uris":{"android":"levelo://app?vid=af004255-93b1-4617-8c69-428414d7ebe9","ios":"levelo://app?vid=af004255-93b1-4617-8c69-428414d7ebe9"},"vehicle_type_id":"4","last_reported":1742192056,"current_range_meters":5600,"station_id":"ce4bhgp2rcd13ifvqfd0","pricing_plan_id":"cebpf4jnsgd1na2vs0mg"},{"bike_id":"e3acbff3-15e0-47b5-80be-e0b4d7c85f89","system_id":"levelo_inurba_marseille","lat":43.23957,"lon":5.36629,"is_reserved":false,"is_disabled":false,"rental_uris":{"android":"levelo://app?vid=e3acbff3-15e0-47b5-80be-e0b4d7c85f89","ios":"levelo://app?vid=e3acbff3-15e0-47b5-80be-e0b4d7c85f89"},"vehicle_type_id":"4","last_reported":1742192056,"current_range_meters":5600,"station_id":"ce4bhi12rcd13ifvqfp0","pricing_plan_id":"cebpf4jnsgd1na2vs0mg"},{"bike_id":"09384f0e-0fdc-40bd-be41-764e8826ab95","system_id":"levelo_inurba_marseille","lat":43.261958,"lon":5.374442,"is_reserved":false,"is_disabled":false,"rental_uris":{"android":"levelo://app?vid=09384f0e-0fdc-40bd-be41-764e8826ab95","ios":"levelo://app?vid=09384f0e-0fdc-40bd-be41-764e8826ab95"},"vehicle_type_id":"4","last_reported":1742192056,"current_range_meters":5600,"station_id":"ce4bhgp2rcd13ifvqfc0","pricing_plan_id":"cebpf4jnsgd1na2vs0mg"},{"bike_id":"ae2538dc-3b0b-4b98-8b04-c8d59f425822","system_id":"levelo_inurba_marseille","lat":43.30805,"lon":5.38173,"is_reserved":false,"is_disabled":false,"rental_uris":{"android":"levelo://app?vid=ae2538dc-3b0b-4b98-8b04-c8d59f425822","ios":"levelo://app?vid=ae2538dc-3b0b-4b98-8b04-c8d59f425822"},"vehicle_type_id":"4","last_reported":1742192056,"current_range_meters":5600,"station_id":"ce4bgt12rcd13ifvqce0","pricing_plan_id":"cebpf4jnsgd1na2vs0mg"},{"bike_id":"743c9fbf-42df-4986-bc8c-9b4a2bc386be","system_id":"levelo_inurba_marseille","lat":43.24069,"lon":5.37768,"is_reserved":false,"is_disabled":false,"rental_uris":{"android":"levelo://app?vid=743c9fbf-42df-4986-bc8c-9b4a2bc386be","ios":"levelo://app?vid=743c9fbf-42df-4986-bc8c-9b4a2bc386be"},"vehicle_type_id":"4","last_reported":1742192056,"current_range_meters":5600,"station_id":"ce4bhnp2rcd13ifvqgvg","pricing_plan_id":"cebpf4jnsgd1na2vs0mg"},{"bike_id":"c5ff76ac-c5f0-4e6d-872b-0339d85f51aa","system_id":"levelo_inurba_marseille","lat":43.24062,"lon":5.37775,"is_reserved":false,"is_disabled":false,"rental_uris":{"android":"levelo://app?vid=c5ff76ac-c5f0-4e6d-872b-0339d85f51aa","ios":"levelo://app?vid=c5ff76ac-c5f0-4e6d-872b-0339d85f51aa"},"vehicle_type_id":"4","last_reported":1742192056,"current_range_meters":5600,"station_id":"ce4bhnp2rcd13ifvqgvg","pricing_plan_id":"cebpf4jnsgd1na2vs0mg"},{"bike_id":"68f3bcfe-e20f-4ad8-9579-f569150feb8a","system_id":"levelo_inurba_marseille","lat":43.27625,"lon":5.36101,"is_reserved":false,"is_disabled":false,"rental_uris":{"android":"levelo://app?vid=68f3bcfe-e20f-4ad8-9579-f569150feb8a","ios":"levelo://app?vid=68f3bcfe-e20f-4ad8-9579-f569150feb8a"},"vehicle_type_id":"4","last_reported":1742192056,"current_range_meters":6000,"station_id":"ce4bgj92rcd13ifvqbe0","pricing_plan_id":"cebpf4jnsgd1na2vs0mg"},{"bike_id":"75fe710d-59d7-4360-ad6d-acf41a03287f","system_id":"levelo_inurba_marseille","lat":43.31478,"lon":5.36859,"is_reserved":false,"is_disabled":false,"rental_uris":{"android":"levelo://app?vid=75fe710d-59d7-4360-ad6d-acf41a03287f","ios":"levelo://app?vid=75fe710d-59d7-4360-ad6d-acf41a03287f"},"vehicle_type_id":"4","last_reported":1742192056,"current_range_meters":6000,"station_id":"","pricing_plan_id":"cebpf4jnsgd1na2vs0mg"},{"bike_id":"a17866dc-3074-49fc-9a89-48869866e9d8","system_id":"levelo_inurba_marseille","lat":43.27217,"lon":5.391963,"is_reserved":false,"is_disabled":true,"rental_uris":{"android":"levelo://app?vid=a17866dc-3074-49fc-9a89-48869866e9d8","ios":"levelo://app?vid=a17866dc-3074-49fc-9a89-48869866e9d8"},"vehicle_type_id":"4","last_reported":1742192056,"current_range_meters":6000,"station_id":"ce4bhhp2rcd13ifvqfm0","pricing_plan_id":"cebpf4jnsgd1na2vs0mg"},{"bike_id":"82e4859a-e942-44b1-82e8-bca3ed8730b3","system_id":"levelo_inurba_marseille","lat":43.24805,"lon":5.37484,"is_reserved":false,"is_disabled":false,"rental_uris":{"android":"levelo://app?vid=82e4859a-e942-44b1-82e8-bca3ed8730b3","ios":"levelo://app?vid=82e4859a-e942-44b1-82e8-bca3ed8730b3"},"vehicle_type_id":"4","last_reported":1742192056,"current_range_meters":6000,"station_id":"ce4bhgh2rcd13ifvqfb0","pricing_plan_id":"cebpf4jnsgd1na2vs0mg"},{"bike_id":"66d32bc0-87bc-4009-b362-232cd68bde0e","system_id":"levelo_inurba_marseille","lat":43.25083,"lon":5.39523,"is_reserved":false,"is_disabled":false,"rental_uris":{"android":"levelo://app?vid=66d32bc0-87bc-4009-b362-232cd68bde0e","ios":"levelo://app?vid=66d32bc0-87bc-4009-b362-232cd68bde0e"},"vehicle_type_id":"4","last_reported":1742192056,"current_range_meters":6000,"station_id":"ce4bhm12rcd13ifvqgkg","pricing_plan_id":"cebpf4jnsgd1na2vs0mg"},{"bike_id":"d3bd0ca2-58e0-4f19-bd33-980724ab7a39","system_id":"levelo_inurba_marseille","lat":43.30885,"lon":5.39657,"is_reserved":false,"is_disabled":true,"rental_uris":{"android":"levelo://app?vid=d3bd0ca2-58e0-4f19-bd33-980724ab7a39","ios":"levelo://app?vid=d3bd0ca2-58e0-4f19-bd33-980724ab7a39"},"vehicle_type_id":"4","last_reported":1742192056,"current_range_meters":6000,"station_id":"ce4bh012rcd13ifvqcv0","pricing_plan_id":"cebpf4jnsgd1na2vs0mg"},{"bike_id":"31710fca-ccfa-43a5-ac6f-5ec923018ebf","system_id":"levelo_inurba_marseille","lat":43.27401,"lon":5.42048,"is_reserved":false,"is_disabled":false,"rental_uris":{"android":"levelo://app?vid=31710fca-ccfa-43a5-ac6f-5ec923018ebf","ios":"levelo://app?vid=31710fca-ccfa-43a5-ac6f-5ec923018ebf"},"vehicle_type_id":"4","last_reported":1742192056,"current_range_meters":6000,"station_id":"","pricing_plan_id":"cebpf4jnsgd1na2vs0mg"},{"bike_id":"5d9a22e0-3e63-4043-aae3-272336597850","system_id":"levelo_inurba_marseille","lat":43.2969,"lon":5.36632,"is_reserved":false,"is_disabled":false,"rental_uris":{"android":"levelo://app?vid=5d9a22e0-3e63-4043-aae3-272336597850","ios":"levelo://app?vid=5d9a22e0-3e63-4043-aae3-272336597850"},"vehicle_type_id":"4","last_reported":1742192056,"current_range_meters":6400,"station_id":"ce4bgn12rcd13ifvqbt0","pricing_plan_id":"cebpf4jnsgd1na2vs0mg"},{"bike_id":"2c2b70e5-e895-43c6-973c-cdd69db920eb","system_id":"levelo_inurba_marseille","lat":43.27935,"lon":5.4105,"is_reserved":false,"is_disabled":false,"rental_uris":{"android":"levelo://app?vid=2c2b70e5-e895-43c6-973c-cdd69db920eb","ios":"levelo://app?vid=2c2b70e5-e895-43c6-973c-cdd69db920eb"},"vehicle_type_id":"4","last_reported":1742192056,"current_range_meters":6400,"station_id":"ce4bhnp2rcd13ifvqh0g","pricing_plan_id":"cebpf4jnsgd1na2vs0mg"},{"bike_id":"0102a975-ca16-4d1e-8694-d919e87a2584","system_id":"levelo_inurba_marseille","lat":43.29551,"lon":5.42278,"is_reserved":false,"is_disabled":false,"rental_uris":{"android":"levelo://app?vid=0102a975-ca16-4d1e-8694-d919e87a2584","ios":"levelo://app?vid=0102a975-ca16-4d1e-8694-d919e87a2584"},"vehicle_type_id":"4","last_reported":1742192056,"current_range_meters":6400,"station_id":"ce4bhph2rcd13ifvqhdg","pricing_plan_id":"cebpf4jnsgd1na2vs0mg"},{"bike_id":"8bf2e89b-2ebd-4f34-a419-e5c65583077b","system_id":"levelo_inurba_marseille","lat":43.28126,"lon":5.44596,"is_reserved":false,"is_disabled":false,"rental_uris":{"android":"levelo://app?vid=8bf2e89b-2ebd-4f34-a419-e5c65583077b","ios":"levelo://app?vid=8bf2e89b-2ebd-4f34-a419-e5c65583077b"},"vehicle_type_id":"4","last_reported":1742192056,"current_range_meters":6400,"station_id":"","pricing_plan_id":"cebpf4jnsgd1na2vs0mg"},{"bike_id":"dfa76b7e-741a-4edb-9a75-5948b5933f81","system_id":"levelo_inurba_marseille","lat":43.24879,"lon":5.40903,"is_reserved":false,"is_disabled":false,"rental_uris":{"android":"levelo://app?vid=dfa76b7e-741a-4edb-9a75-5948b5933f81","ios":"levelo://app?vid=dfa76b7e-741a-4edb-9a75-5948b5933f81"},"vehicle_type_id":"4","last_reported":1742192056,"current_range_meters":6400,"station_id":"","pricing_plan_id":"cebpf4jnsgd1na2vs0mg"},{"bike_id":"3f23f4ce-3922-4172-96ed-bf44b4d6f9f5","system_id":"levelo_inurba_marseille","lat":43.2655,"lon":5.37305,"is_reserved":false,"is_disabled":false,"rental_uris":{"android":"levelo://app?vid=3f23f4ce-3922-4172-96ed-bf44b4d6f9f5","ios":"levelo://app?vid=3f23f4ce-3922-4172-96ed-bf44b4d6f9f5"},"vehicle_type_id":"4","last_reported":1742192056,"current_range_meters":6400,"station_id":"ce4bhg12rcd13ifvqf70","pricing_plan_id":"cebpf4jnsgd1na2vs0mg"},{"bike_id":"92a87166-e8ac-4802-bf3c-9bd2f121e869","system_id":"levelo_inurba_marseille","lat":43.31495,"lon":5.37282,"is_reserved":false,"is_disabled":false,"rental_uris":{"android":"levelo://app?vid=92a87166-e8ac-4802-bf3c-9bd2f121e869","ios":"levelo://app?vid=92a87166-e8ac-4802-bf3c-9bd2f121e869"},"vehicle_type_id":"4","last_reported":1742192056,"current_range_meters":6400,"station_id":"ce4bgt12rcd13ifvqcd0","pricing_plan_id":"cebpf4jnsgd1na2vs0mg"},{"bike_id":"25bb2ded-fba6-47cc-8f36-5c53dcdeec58","system_id":"levelo_inurba_marseille","lat":43.241809,"lon":5.397182,"is_reserved":false,"is_disabled":false,"rental_uris":{"android":"levelo://app?vid=25bb2ded-fba6-47cc-8f36-5c53dcdeec58","ios":"levelo://app?vid=25bb2ded-fba6-47cc-8f36-5c53dcdeec58"},"vehicle_type_id":"4","last_reported":1742192056,"current_range_meters":6400,"station_id":"ce4bhn12rcd13ifvqgpg","pricing_plan_id":"cebpf4jnsgd1na2vs0mg"},{"bike_id":"3a766561-d5df-4bb1-accb-85c347f27a70","system_id":"levelo_inurba_marseille","lat":43.33699,"lon":5.39209,"is_reserved":false,"is_disabled":false,"rental_uris":{"android":"levelo://app?vid=3a766561-d5df-4bb1-accb-85c347f27a70","ios":"levelo://app?vid=3a766561-d5df-4bb1-accb-85c347f27a70"},"vehicle_type_id":"4","last_reported":1742192056,"current_range_meters":6400,"station_id":"ce4bhr92rcd13ifvqhsg","pricing_plan_id":"cebpf4jnsgd1na2vs0mg"},{"bike_id":"c1ccf9ca-98f0-4eaf-9c83-bb7b5133d125","system_id":"levelo_inurba_marseille","lat":43.32125,"lon":5.36759,"is_reserved":false,"is_disabled":false,"rental_uris":{"android":"levelo://app?vid=c1ccf9ca-98f0-4eaf-9c83-bb7b5133d125","ios":"levelo://app?vid=c1ccf9ca-98f0-4eaf-9c83-bb7b5133d125"},"vehicle_type_id":"4","last_reported":1742192056,"current_range_meters":6400,"station_id":"ce4bhrh2rcd13ifvqhug","pricing_plan_id":"cebpf4jnsgd1na2vs0mg"},{"bike_id":"5f813939-abd0-4724-aebe-15fd911368cc","system_id":"levelo_inurba_marseille","lat":43.232002,"lon":5.355491,"is_reserved":false,"is_disabled":false,"rental_uris":{"android":"levelo://app?vid=5f813939-abd0-4724-aebe-15fd911368cc","ios":"levelo://app?vid=5f813939-abd0-4724-aebe-15fd911368cc"},"vehicle_type_id":"4","last_reported":1742192056,"current_range_meters":6400,"station_id":"ce4bhu92rcd13ifvqi70","pricing_plan_id":"cebpf4jnsgd1na2vs0mg"},{"bike_id":"23f402d9-dfb0-47f6-9db8-b03d1756c728","system_id":"levelo_inurba_marseille","lat":43.23146,"lon":5.43725,"is_reserved":false,"is_disabled":false,"rental_uris":{"android":"levelo://app?vid=23f402d9-dfb0-47f6-9db8-b03d1756c728","ios":"levelo://app?vid=23f402d9-dfb0-47f6-9db8-b03d1756c728"},"vehicle_type_id":"4","last_reported":1742192056,"current_range_meters":6800,"station_id":"ce4bhmp2rcd13ifvqgog","pricing_plan_id":"cebpf4jnsgd1na2vs0mg"},{"bike_id":"555bf458-d1d6-4a2e-8876-071970d88ebd","system_id":"levelo_inurba_marseille","lat":43.26555,"lon":5.39047,"is_reserved":false,"is_disabled":false,"rental_uris":{"android":"levelo://app?vid=555bf458-d1d6-4a2e-8876-071970d88ebd","ios":"levelo://app?vid=555bf458-d1d6-4a2e-8876-071970d88ebd"},"vehicle_type_id":"4","last_reported":1742192056,"current_range_meters":6800,"station_id":"ce4bhe12rcd13ifvqf30","pricing_plan_id":"cebpf4jnsgd1na2vs0mg"},{"bike_id":"3fb590e8-1c38-4b01-b532-afad17657030","system_id":"levelo_inurba_marseille","lat":43.31167,"lon":5.38721,"is_reserved":false,"is_disabled":false,"rental_uris":{"android":"levelo://app?vid=3fb590e8-1c38-4b01-b532-afad17657030","ios":"levelo://app?vid=3fb590e8-1c38-4b01-b532-afad17657030"},"vehicle_type_id":"4","last_reported":1742192056,"current_range_meters":6800,"station_id":"ce4bgv12rcd13ifvqcp0","pricing_plan_id":"cebpf4jnsgd1na2vs0mg"},{"bike_id":"71b342b8-694b-40d5-99e8-310baf77a970","system_id":"levelo_inurba_marseille","lat":43.2306,"lon":5.35485,"is_reserved":false,"is_disabled":false,"rental_uris":{"android":"levelo://app?vid=71b342b8-694b-40d5-99e8-310baf77a970","ios":"levelo://app?vid=71b342b8-694b-40d5-99e8-310baf77a970"},"vehicle_type_id":"4","last_reported":1742192056,"current_range_meters":6800,"station_id":"cpo3342slgdg3j2ifvpg","pricing_plan_id":"cebpf4jnsgd1na2vs0mg"},{"bike_id":"6582e7c2-5aa5-4e6a-abc5-fa241e74aeb6","system_id":"levelo_inurba_marseille","lat":43.298985,"lon":5.436587,"is_reserved":false,"is_disabled":false,"rental_uris":{"android":"levelo://app?vid=6582e7c2-5aa5-4e6a-abc5-fa241e74aeb6","ios":"levelo://app?vid=6582e7c2-5aa5-4e6a-abc5-fa241e74aeb6"},"vehicle_type_id":"4","last_reported":1742192056,"current_range_meters":6800,"station_id":"ce4bhpp2rcd13ifvqhfg","pricing_plan_id":"cebpf4jnsgd1na2vs0mg"},{"bike_id":"af0e35b3-8dbd-46c7-96d1-8852cbb490f2","system_id":"levelo_inurba_marseille","lat":43.26529,"lon":5.373,"is_reserved":false,"is_disabled":false,"rental_uris":{"android":"levelo://app?vid=af0e35b3-8dbd-46c7-96d1-8852cbb490f2","ios":"levelo://app?vid=af0e35b3-8dbd-46c7-96d1-8852cbb490f2"},"vehicle_type_id":"4","last_reported":1742192056,"current_range_meters":6800,"station_id":"ce4bhg12rcd13ifvqf70","pricing_plan_id":"cebpf4jnsgd1na2vs0mg"},{"bike_id":"5ae06dd0-2755-4738-8859-9c7788b1c03e","system_id":"levelo_inurba_marseille","lat":43.279903,"lon":5.416596,"is_reserved":false,"is_disabled":false,"rental_uris":{"android":"levelo://app?vid=5ae06dd0-2755-4738-8859-9c7788b1c03e","ios":"levelo://app?vid=5ae06dd0-2755-4738-8859-9c7788b1c03e"},"vehicle_type_id":"4","last_reported":1742192056,"current_range_meters":6800,"station_id":"ce4bho12rcd13ifvqh1g","pricing_plan_id":"cebpf4jnsgd1na2vs0mg"},{"bike_id":"563d178a-967a-4247-8d09-4a4bd8dce5c0","system_id":"levelo_inurba_marseille","lat":43.31074,"lon":5.38348,"is_reserved":false,"is_disabled":false,"rental_uris":{"android":"levelo://app?vid=563d178a-967a-4247-8d09-4a4bd8dce5c0","ios":"levelo://app?vid=563d178a-967a-4247-8d09-4a4bd8dce5c0"},"vehicle_type_id":"4","last_reported":1742192056,"current_range_meters":6800,"station_id":"ce4bgv92rcd13ifvqcr0","pricing_plan_id":"cebpf4jnsgd1na2vs0mg"},{"bike_id":"016dade5-305c-413b-b4da-d6bf6dde41c7","system_id":"levelo_inurba_marseille","lat":43.35824,"lon":5.35906,"is_reserved":false,"is_disabled":false,"rental_uris":{"android":"levelo://app?vid=016dade5-305c-413b-b4da-d6bf6dde41c7","ios":"levelo://app?vid=016dade5-305c-413b-b4da-d6bf6dde41c7"},"vehicle_type_id":"4","last_reported":1742192056,"current_range_meters":6800,"station_id":"","pricing_plan_id":"cebpf4jnsgd1na2vs0mg"},{"bike_id":"f876773a-fec2-4503-8f9a-c65b00603ae5","system_id":"levelo_inurba_marseille","lat":43.24069,"lon":5.37753,"is_reserved":false,"is_disabled":false,"rental_uris":{"android":"levelo://app?vid=f876773a-fec2-4503-8f9a-c65b00603ae5","ios":"levelo://app?vid=f876773a-fec2-4503-8f9a-c65b00603ae5"},"vehicle_type_id":"4","last_reported":1742192056,"current_range_meters":7200,"station_id":"ce4bhnp2rcd13ifvqgvg","pricing_plan_id":"cebpf4jnsgd1na2vs0mg"},{"bike_id":"fc071de1-2cc0-488a-a43e-f8037a5a9a49","system_id":"levelo_inurba_marseille","lat":43.23064,"lon":5.35497,"is_reserved":false,"is_disabled":false,"rental_uris":{"android":"levelo://app?vid=fc071de1-2cc0-488a-a43e-f8037a5a9a49","ios":"levelo://app?vid=fc071de1-2cc0-488a-a43e-f8037a5a9a49"},"vehicle_type_id":"4","last_reported":1742192056,"current_range_meters":7200,"station_id":"cpo3342slgdg3j2ifvpg","pricing_plan_id":"cebpf4jnsgd1na2vs0mg"},{"bike_id":"c4c002d3-8c70-4b36-8c7f-5d4af5808201","system_id":"levelo_inurba_marseille","lat":43.29195,"lon":5.3933,"is_reserved":false,"is_disabled":true,"rental_uris":{"android":"levelo://app?vid=c4c002d3-8c70-4b36-8c7f-5d4af5808201","ios":"levelo://app?vid=c4c002d3-8c70-4b36-8c7f-5d4af5808201"},"vehicle_type_id":"4","last_reported":1742192056,"current_range_meters":7200,"station_id":"ce4bh192rcd13ifvqdd0","pricing_plan_id":"cebpf4jnsgd1na2vs0mg"},{"bike_id":"174c9c66-b172-484e-b7f9-5752aa18aabf","system_id":"levelo_inurba_marseille","lat":43.230661,"lon":5.354988,"is_reserved":false,"is_disabled":false,"rental_uris":{"android":"levelo://app?vid=174c9c66-b172-484e-b7f9-5752aa18aabf","ios":"levelo://app?vid=174c9c66-b172-484e-b7f9-5752aa18aabf"},"vehicle_type_id":"4","last_reported":1742192056,"current_range_meters":7200,"station_id":"cpo3342slgdg3j2ifvpg","pricing_plan_id":"cebpf4jnsgd1na2vs0mg"},{"bike_id":"dd0e576d-74e2-413f-88a4-0de58301e2c5","system_id":"levelo_inurba_marseille","lat":43.32365,"lon":5.38895,"is_reserved":false,"is_disabled":false,"rental_uris":{"android":"levelo://app?vid=dd0e576d-74e2-413f-88a4-0de58301e2c5","ios":"levelo://app?vid=dd0e576d-74e2-413f-88a4-0de58301e2c5"},"vehicle_type_id":"4","last_reported":1742192056,"current_range_meters":7200,"station_id":"ce4bhqp2rcd13ifvqhog","pricing_plan_id":"cebpf4jnsgd1na2vs0mg"},{"bike_id":"d52f4dcf-4eb5-4fdd-8e1f-04b5309200a8","system_id":"levelo_inurba_marseille","lat":43.25867,"lon":5.39853,"is_reserved":false,"is_disabled":false,"rental_uris":{"android":"levelo://app?vid=d52f4dcf-4eb5-4fdd-8e1f-04b5309200a8","ios":"levelo://app?vid=d52f4dcf-4eb5-4fdd-8e1f-04b5309200a8"},"vehicle_type_id":"4","last_reported":1742192056,"current_range_meters":7200,"station_id":"ce4bhl92rcd13ifvqghg","pricing_plan_id":"cebpf4jnsgd1na2vs0mg"},{"bike_id":"3e2e14c7-f5ed-4573-bf2b-84d788bc9968","system_id":"levelo_inurba_marseille","lat":43.337063,"lon":5.421047,"is_reserved":false,"is_disabled":false,"rental_uris":{"android":"levelo://app?vid=3e2e14c7-f5ed-4573-bf2b-84d788bc9968","ios":"levelo://app?vid=3e2e14c7-f5ed-4573-bf2b-84d788bc9968"},"vehicle_type_id":"4","last_reported":1742192056,"current_range_meters":7200,"station_id":"","pricing_plan_id":"cebpf4jnsgd1na2vs0mg"},{"bike_id":"c0d14a55-0953-4c59-b0cd-c76953277ffe","system_id":"levelo_inurba_marseille","lat":43.29718,"lon":5.44782,"is_reserved":false,"is_disabled":false,"rental_uris":{"android":"levelo://app?vid=c0d14a55-0953-4c59-b0cd-c76953277ffe","ios":"levelo://app?vid=c0d14a55-0953-4c59-b0cd-c76953277ffe"},"vehicle_type_id":"4","last_reported":1742192056,"current_range_meters":7200,"station_id":"","pricing_plan_id":"cebpf4jnsgd1na2vs0mg"},{"bike_id":"4ecd0338-07bc-4df0-962c-ae8b71424d53","system_id":"levelo_inurba_marseille","lat":43.26495,"lon":5.39554,"is_reserved":false,"is_disabled":false,"rental_uris":{"android":"levelo://app?vid=4ecd0338-07bc-4df0-962c-ae8b71424d53","ios":"levelo://app?vid=4ecd0338-07bc-4df0-962c-ae8b71424d53"},"vehicle_type_id":"4","last_reported":1742192056,"current_range_meters":7200,"station_id":"ce4bhi12rcd13ifvqfq0","pricing_plan_id":"cebpf4jnsgd1na2vs0mg"},{"bike_id":"8d29365b-5655-4bfc-a8f0-ace891308f58","system_id":"levelo_inurba_marseille","lat":43.30458,"lon":5.37912,"is_reserved":false,"is_disabled":false,"rental_uris":{"android":"levelo://app?vid=8d29365b-5655-4bfc-a8f0-ace891308f58","ios":"levelo://app?vid=8d29365b-5655-4bfc-a8f0-ace891308f58"},"vehicle_type_id":"4","last_reported":1742192056,"current_range_meters":8000,"station_id":"ce4bgup2rcd13ifvqcn0","pricing_plan_id":"cebpf4jnsgd1na2vs0mg"},{"bike_id":"30a3f5aa-8adb-417a-a2c9-dedb0fb285b3","system_id":"levelo_inurba_marseille","lat":43.289764,"lon":5.378396,"is_reserved":false,"is_disabled":true,"rental_uris":{"android":"levelo://app?vid=30a3f5aa-8adb-417a-a2c9-dedb0fb285b3","ios":"levelo://app?vid=30a3f5aa-8adb-417a-a2c9-dedb0fb285b3"},"vehicle_type_id":"4","last_reported":1742192056,"current_range_meters":8000,"station_id":"ce4bh9p2rcd13ifvqed0","pricing_plan_id":"cebpf4jnsgd1na2vs0mg"},{"bike_id":"f4806f6b-90cc-4357-8538-1ba6d4b0b5e4","system_id":"levelo_inurba_marseille","lat":43.23173,"lon":5.35574,"is_reserved":false,"is_disabled":false,"rental_uris":{"android":"levelo://app?vid=f4806f6b-90cc-4357-8538-1ba6d4b0b5e4","ios":"levelo://app?vid=f4806f6b-90cc-4357-8538-1ba6d4b0b5e4"},"vehicle_type_id":"4","last_reported":1742192056,"current_range_meters":8000,"station_id":"ce4bhu92rcd13ifvqi70","pricing_plan_id":"cebpf4jnsgd1na2vs0mg"},{"bike_id":"0a75b9be-4843-49b8-b389-4ce031569179","system_id":"levelo_inurba_marseille","lat":43.279448,"lon":5.407949,"is_reserved":false,"is_disabled":false,"rental_uris":{"android":"levelo://app?vid=0a75b9be-4843-49b8-b389-4ce031569179","ios":"levelo://app?vid=0a75b9be-4843-49b8-b389-4ce031569179"},"vehicle_type_id":"4","last_reported":1742192056,"current_range_meters":8000,"station_id":"","pricing_plan_id":"cebpf4jnsgd1na2vs0mg"},{"bike_id":"9e6dd499-ef79-469a-9c98-e4d20013679e","system_id":"levelo_inurba_marseille","lat":43.26797,"lon":5.40267,"is_reserved":false,"is_disabled":false,"rental_uris":{"android":"levelo://app?vid=9e6dd499-ef79-469a-9c98-e4d20013679e","ios":"levelo://app?vid=9e6dd499-ef79-469a-9c98-e4d20013679e"},"vehicle_type_id":"4","last_reported":1742192056,"current_range_meters":8000,"station_id":"ce501612rcd8frsf0b60","pricing_plan_id":"cebpf4jnsgd1na2vs0mg"},{"bike_id":"c46bec50-c693-405c-875f-3f20e5871328","system_id":"levelo_inurba_marseille","lat":43.24174,"lon":5.39732,"is_reserved":false,"is_disabled":false,"rental_uris":{"android":"levelo://app?vid=c46bec50-c693-405c-875f-3f20e5871328","ios":"levelo://app?vid=c46bec50-c693-405c-875f-3f20e5871328"},"vehicle_type_id":"4","last_reported":1742192056,"current_range_meters":8000,"station_id":"ce4bhn12rcd13ifvqgpg","pricing_plan_id":"cebpf4jnsgd1na2vs0mg"},{"bike_id":"ec4c8fc9-399f-4f5a-b345-e19e03d811c3","system_id":"levelo_inurba_marseille","lat":43.27193,"lon":5.41019,"is_reserved":false,"is_disabled":true,"rental_uris":{"android":"levelo://app?vid=ec4c8fc9-399f-4f5a-b345-e19e03d811c3","ios":"levelo://app?vid=ec4c8fc9-399f-4f5a-b345-e19e03d811c3"},"vehicle_type_id":"4","last_reported":1742192056,"current_range_meters":8000,"station_id":"ce4bhl12rcd13ifvqgf0","pricing_plan_id":"cebpf4jnsgd1na2vs0mg"},{"bike_id":"cfca55c0-fecd-4bcd-8dab-5697f0a3af12","system_id":"levelo_inurba_marseille","lat":43.30483,"lon":5.37911,"is_reserved":false,"is_disabled":false,"rental_uris":{"android":"levelo://app?vid=cfca55c0-fecd-4bcd-8dab-5697f0a3af12","ios":"levelo://app?vid=cfca55c0-fecd-4bcd-8dab-5697f0a3af12"},"vehicle_type_id":"4","last_reported":1742192056,"current_range_meters":8000,"station_id":"ce4bgup2rcd13ifvqcn0","pricing_plan_id":"cebpf4jnsgd1na2vs0mg"},{"bike_id":"63ccaa1b-7302-45e3-82a8-d904a69351b6","system_id":"levelo_inurba_marseille","lat":43.239609,"lon":5.366267,"is_reserved":false,"is_disabled":true,"rental_uris":{"android":"levelo://app?vid=63ccaa1b-7302-45e3-82a8-d904a69351b6","ios":"levelo://app?vid=63ccaa1b-7302-45e3-82a8-d904a69351b6"},"vehicle_type_id":"4","last_reported":1742192056,"current_range_meters":8000,"station_id":"ce4bhi12rcd13ifvqfp0","pricing_plan_id":"cebpf4jnsgd1na2vs0mg"},{"bike_id":"02903d83-44bb-40cf-a804-6798606e7bc6","system_id":"levelo_inurba_marseille","lat":43.24812,"lon":5.37462,"is_reserved":false,"is_disabled":false,"rental_uris":{"android":"levelo://app?vid=02903d83-44bb-40cf-a804-6798606e7bc6","ios":"levelo://app?vid=02903d83-44bb-40cf-a804-6798606e7bc6"},"vehicle_type_id":"4","last_reported":1742192056,"current_range_meters":8000,"station_id":"ce4bhgh2rcd13ifvqfb0","pricing_plan_id":"cebpf4jnsgd1na2vs0mg"},{"bike_id":"38de9398-607b-4e38-b181-28a0e85a0172","system_id":"levelo_inurba_marseille","lat":43.290276,"lon":5.386468,"is_reserved":false,"is_disabled":true,"rental_uris":{"android":"levelo://app?vid=38de9398-607b-4e38-b181-28a0e85a0172","ios":"levelo://app?vid=38de9398-607b-4e38-b181-28a0e85a0172"},"vehicle_type_id":"4","last_reported":1742192056,"current_range_meters":8000,"station_id":"ce4bh4p2rcd13ifvqe0g","pricing_plan_id":"cebpf4jnsgd1na2vs0mg"},{"bike_id":"7099c38a-2986-4dc9-9398-307b562f7d30","system_id":"levelo_inurba_marseille","lat":43.25941,"lon":5.40905,"is_reserved":false,"is_disabled":false,"rental_uris":{"android":"levelo://app?vid=7099c38a-2986-4dc9-9398-307b562f7d30","ios":"levelo://app?vid=7099c38a-2986-4dc9-9398-307b562f7d30"},"vehicle_type_id":"4","last_reported":1742192056,"current_range_meters":8000,"station_id":"ce4bhm92rcd13ifvqglg","pricing_plan_id":"cebpf4jnsgd1na2vs0mg"},{"bike_id":"9fbd07b4-f8ec-47c8-8b77-af3d624fa697","system_id":"levelo_inurba_marseille","lat":43.29899,"lon":5.43655,"is_reserved":false,"is_disabled":false,"rental_uris":{"android":"levelo://app?vid=9fbd07b4-f8ec-47c8-8b77-af3d624fa697","ios":"levelo://app?vid=9fbd07b4-f8ec-47c8-8b77-af3d624fa697"},"vehicle_type_id":"4","last_reported":1742192056,"current_range_meters":8000,"station_id":"ce4bhpp2rcd13ifvqhfg","pricing_plan_id":"cebpf4jnsgd1na2vs0mg"},{"bike_id":"d2140e8e-fc46-4fb8-a675-866428dbf6bb","system_id":"levelo_inurba_marseille","lat":43.23056,"lon":5.3552,"is_reserved":false,"is_disabled":false,"rental_uris":{"android":"levelo://app?vid=d2140e8e-fc46-4fb8-a675-866428dbf6bb","ios":"levelo://app?vid=d2140e8e-fc46-4fb8-a675-866428dbf6bb"},"vehicle_type_id":"4","last_reported":1742192056,"current_range_meters":8000,"station_id":"cpo3342slgdg3j2ifvpg","pricing_plan_id":"cebpf4jnsgd1na2vs0mg"},{"bike_id":"2e93b8fd-3cc5-47fd-be6f-2a7e66fa1616","system_id":"levelo_inurba_marseille","lat":43.26548,"lon":5.39047,"is_reserved":false,"is_disabled":false,"rental_uris":{"android":"levelo://app?vid=2e93b8fd-3cc5-47fd-be6f-2a7e66fa1616","ios":"levelo://app?vid=2e93b8fd-3cc5-47fd-be6f-2a7e66fa1616"},"vehicle_type_id":"4","last_reported":1742192056,"current_range_meters":8000,"station_id":"ce4bhe12rcd13ifvqf30","pricing_plan_id":"cebpf4jnsgd1na2vs0mg"},{"bike_id":"ab56b08b-bd30-4452-9154-c93ed0756dd8","system_id":"levelo_inurba_marseille","lat":43.27493,"lon":5.42456,"is_reserved":false,"is_disabled":false,"rental_uris":{"android":"levelo://app?vid=ab56b08b-bd30-4452-9154-c93ed0756dd8","ios":"levelo://app?vid=ab56b08b-bd30-4452-9154-c93ed0756dd8"},"vehicle_type_id":"4","last_reported":1742192056,"current_range_meters":8000,"station_id":"ce4bhn92rcd13ifvqgrg","pricing_plan_id":"cebpf4jnsgd1na2vs0mg"},{"bike_id":"886b1561-ec94-4994-aa50-d2b92f6f05ff","system_id":"levelo_inurba_marseille","lat":43.24959,"lon":5.38956,"is_reserved":false,"is_disabled":false,"rental_uris":{"android":"levelo://app?vid=886b1561-ec94-4994-aa50-d2b92f6f05ff","ios":"levelo://app?vid=886b1561-ec94-4994-aa50-d2b92f6f05ff"},"vehicle_type_id":"4","last_reported":1742192056,"current_range_meters":8400,"station_id":"ce4bhgp2rcd13ifvqfd0","pricing_plan_id":"cebpf4jnsgd1na2vs0mg"},{"bike_id":"2e6c3038-6eb8-46ce-bd43-53f0733e5db9","system_id":"levelo_inurba_marseille","lat":43.32113,"lon":5.36789,"is_reserved":false,"is_disabled":false,"rental_uris":{"android":"levelo://app?vid=2e6c3038-6eb8-46ce-bd43-53f0733e5db9","ios":"levelo://app?vid=2e6c3038-6eb8-46ce-bd43-53f0733e5db9"},"vehicle_type_id":"4","last_reported":1742192056,"current_range_meters":8400,"station_id":"ce4bhrh2rcd13ifvqhug","pricing_plan_id":"cebpf4jnsgd1na2vs0mg"},{"bike_id":"10a5dfbf-3aa3-4cf3-ac17-cd4d12fd6782","system_id":"levelo_inurba_marseille","lat":43.32315,"lon":5.36626,"is_reserved":false,"is_disabled":false,"rental_uris":{"android":"levelo://app?vid=10a5dfbf-3aa3-4cf3-ac17-cd4d12fd6782","ios":"levelo://app?vid=10a5dfbf-3aa3-4cf3-ac17-cd4d12fd6782"},"vehicle_type_id":"4","last_reported":1742192056,"current_range_meters":8400,"station_id":"","pricing_plan_id":"cebpf4jnsgd1na2vs0mg"},{"bike_id":"4b1426cb-648f-45df-a095-ae89ed465b04","system_id":"levelo_inurba_marseille","lat":43.25005,"lon":5.38918,"is_reserved":false,"is_disabled":false,"rental_uris":{"android":"levelo://app?vid=4b1426cb-648f-45df-a095-ae89ed465b04","ios":"levelo://app?vid=4b1426cb-648f-45df-a095-ae89ed465b04"},"vehicle_type_id":"4","last_reported":1742192056,"current_range_meters":8400,"station_id":"ce4bhgp2rcd13ifvqfd0","pricing_plan_id":"cebpf4jnsgd1na2vs0mg"},{"bike_id":"18f33ae7-3acb-407d-a5a7-4c104a302f2a","system_id":"levelo_inurba_marseille","lat":43.27611,"lon":5.36158,"is_reserved":false,"is_disabled":false,"rental_uris":{"android":"levelo://app?vid=18f33ae7-3acb-407d-a5a7-4c104a302f2a","ios":"levelo://app?vid=18f33ae7-3acb-407d-a5a7-4c104a302f2a"},"vehicle_type_id":"4","last_reported":1742192056,"current_range_meters":8400,"station_id":"ce4bgj92rcd13ifvqbe0","pricing_plan_id":"cebpf4jnsgd1na2vs0mg"},{"bike_id":"41d856e8-014d-42b4-85e9-2a0a980f469f","system_id":"levelo_inurba_marseille","lat":43.23195,"lon":5.35558,"is_reserved":false,"is_disabled":false,"rental_uris":{"android":"levelo://app?vid=41d856e8-014d-42b4-85e9-2a0a980f469f","ios":"levelo://app?vid=41d856e8-014d-42b4-85e9-2a0a980f469f"},"vehicle_type_id":"4","last_reported":1742192056,"current_range_meters":8800,"station_id":"ce4bhu92rcd13ifvqi70","pricing_plan_id":"cebpf4jnsgd1na2vs0mg"},{"bike_id":"65e84329-b6e0-4d39-a9b4-54ee9595fc9d","system_id":"levelo_inurba_marseille","lat":43.30156,"lon":5.3808,"is_reserved":false,"is_disabled":false,"rental_uris":{"android":"levelo://app?vid=65e84329-b6e0-4d39-a9b4-54ee9595fc9d","ios":"levelo://app?vid=65e84329-b6e0-4d39-a9b4-54ee9595fc9d"},"vehicle_type_id":"4","last_reported":1742192056,"current_range_meters":8800,"station_id":"ce4bgjp2rcd13ifvqbh0","pricing_plan_id":"cebpf4jnsgd1na2vs0mg"},{"bike_id":"58c3ba92-114c-4adc-b3e0-d5cd6fe1be6a","system_id":"levelo_inurba_marseille","lat":43.28489,"lon":5.38556,"is_reserved":false,"is_disabled":false,"rental_uris":{"android":"levelo://app?vid=58c3ba92-114c-4adc-b3e0-d5cd6fe1be6a","ios":"levelo://app?vid=58c3ba92-114c-4adc-b3e0-d5cd6fe1be6a"},"vehicle_type_id":"4","last_reported":1742192056,"current_range_meters":8800,"station_id":"ce4bh8p2rcd13ifvqeb0","pricing_plan_id":"cebpf4jnsgd1na2vs0mg"},{"bike_id":"b881a216-a8e0-47ad-9c6d-ce879391627c","system_id":"levelo_inurba_marseille","lat":43.299456,"lon":5.365456,"is_reserved":false,"is_disabled":true,"rental_uris":{"android":"levelo://app?vid=b881a216-a8e0-47ad-9c6d-ce879391627c","ios":"levelo://app?vid=b881a216-a8e0-47ad-9c6d-ce879391627c"},"vehicle_type_id":"4","last_reported":1742192056,"current_range_meters":8800,"station_id":"ce4bgm92rcd13ifvqbr0","pricing_plan_id":"cebpf4jnsgd1na2vs0mg"},{"bike_id":"b0d2cd6b-a9b2-49f5-b582-3051ba923f33","system_id":"levelo_inurba_marseille","lat":43.250835,"lon":5.395147,"is_reserved":false,"is_disabled":false,"rental_uris":{"android":"levelo://app?vid=b0d2cd6b-a9b2-49f5-b582-3051ba923f33","ios":"levelo://app?vid=b0d2cd6b-a9b2-49f5-b582-3051ba923f33"},"vehicle_type_id":"4","last_reported":1742192056,"current_range_meters":8800,"station_id":"ce4bhm12rcd13ifvqgkg","pricing_plan_id":"cebpf4jnsgd1na2vs0mg"},{"bike_id":"d6cd0df4-ca0d-407c-ac60-8420479f0dd1","system_id":"levelo_inurba_marseille","lat":43.23069,"lon":5.35512,"is_reserved":false,"is_disabled":false,"rental_uris":{"android":"levelo://app?vid=d6cd0df4-ca0d-407c-ac60-8420479f0dd1","ios":"levelo://app?vid=d6cd0df4-ca0d-407c-ac60-8420479f0dd1"},"vehicle_type_id":"4","last_reported":1742192056,"current_range_meters":8800,"station_id":"cpo3342slgdg3j2ifvpg","pricing_plan_id":"cebpf4jnsgd1na2vs0mg"},{"bike_id":"23d4689b-80a0-4957-9106-f572be80fe0e","system_id":"levelo_inurba_marseille","lat":43.27498,"lon":5.42449,"is_reserved":false,"is_disabled":false,"rental_uris":{"android":"levelo://app?vid=23d4689b-80a0-4957-9106-f572be80fe0e","ios":"levelo://app?vid=23d4689b-80a0-4957-9106-f572be80fe0e"},"vehicle_type_id":"4","last_reported":1742192056,"current_range_meters":8800,"station_id":"ce4bhn92rcd13ifvqgrg","pricing_plan_id":"cebpf4jnsgd1na2vs0mg"},{"bike_id":"7fdaba83-9e71-4d79-962d-8e9bcb4ba61b","system_id":"levelo_inurba_marseille","lat":43.23186,"lon":5.35569,"is_reserved":false,"is_disabled":false,"rental_uris":{"android":"levelo://app?vid=7fdaba83-9e71-4d79-962d-8e9bcb4ba61b","ios":"levelo://app?vid=7fdaba83-9e71-4d79-962d-8e9bcb4ba61b"},"vehicle_type_id":"4","last_reported":1742192056,"current_range_meters":8800,"station_id":"ce4bhu92rcd13ifvqi70","pricing_plan_id":"cebpf4jnsgd1na2vs0mg"},{"bike_id":"33270d2d-2b6e-4bf5-9197-25a19f6a5b28","system_id":"levelo_inurba_marseille","lat":43.31356,"lon":5.385,"is_reserved":false,"is_disabled":false,"rental_uris":{"android":"levelo://app?vid=33270d2d-2b6e-4bf5-9197-25a19f6a5b28","ios":"levelo://app?vid=33270d2d-2b6e-4bf5-9197-25a19f6a5b28"},"vehicle_type_id":"4","last_reported":1742192056,"current_range_meters":8800,"station_id":"ce4bgt92rcd13ifvqcf0","pricing_plan_id":"cebpf4jnsgd1na2vs0mg"},{"bike_id":"7744a398-14ee-4b67-a148-5c9c6471def4","system_id":"levelo_inurba_marseille","lat":43.254895,"lon":5.376539,"is_reserved":false,"is_disabled":true,"rental_uris":{"android":"levelo://app?vid=7744a398-14ee-4b67-a148-5c9c6471def4","ios":"levelo://app?vid=7744a398-14ee-4b67-a148-5c9c6471def4"},"vehicle_type_id":"4","last_reported":1742192056,"current_range_meters":8800,"station_id":"ce4bhh12rcd13ifvqff0","pricing_plan_id":"cebpf4jnsgd1na2vs0mg"},{"bike_id":"801a9631-aa14-450a-a1ac-5b280d35cdcb","system_id":"levelo_inurba_marseille","lat":43.287,"lon":5.39979,"is_reserved":false,"is_disabled":false,"rental_uris":{"android":"levelo://app?vid=801a9631-aa14-450a-a1ac-5b280d35cdcb","ios":"levelo://app?vid=801a9631-aa14-450a-a1ac-5b280d35cdcb"},"vehicle_type_id":"4","last_reported":1742192056,"current_range_meters":8800,"station_id":"ce4bho92rcd13ifvqh3g","pricing_plan_id":"cebpf4jnsgd1na2vs0mg"},{"bike_id":"f729313d-475c-4abc-9b78-2247a6eccbeb","system_id":"levelo_inurba_marseille","lat":43.246466,"lon":5.388753,"is_reserved":false,"is_disabled":false,"rental_uris":{"android":"levelo://app?vid=f729313d-475c-4abc-9b78-2247a6eccbeb","ios":"levelo://app?vid=f729313d-475c-4abc-9b78-2247a6eccbeb"},"vehicle_type_id":"4","last_reported":1742192056,"current_range_meters":8800,"station_id":"ce4bhlp2rcd13ifvqgjg","pricing_plan_id":"cebpf4jnsgd1na2vs0mg"},{"bike_id":"1f9a9668-f20a-4b32-9dce-dfb024996834","system_id":"levelo_inurba_marseille","lat":43.2901,"lon":5.38652,"is_reserved":false,"is_disabled":true,"rental_uris":{"android":"levelo://app?vid=1f9a9668-f20a-4b32-9dce-dfb024996834","ios":"levelo://app?vid=1f9a9668-f20a-4b32-9dce-dfb024996834"},"vehicle_type_id":"4","last_reported":1742192056,"current_range_meters":8800,"station_id":"ce4bh4p2rcd13ifvqe0g","pricing_plan_id":"cebpf4jnsgd1na2vs0mg"},{"bike_id":"2f97e577-a7f2-47bf-ab29-204992553693","system_id":"levelo_inurba_marseille","lat":43.24077,"lon":5.377409,"is_reserved":false,"is_disabled":false,"rental_uris":{"android":"levelo://app?vid=2f97e577-a7f2-47bf-ab29-204992553693","ios":"levelo://app?vid=2f97e577-a7f2-47bf-ab29-204992553693"},"vehicle_type_id":"4","last_reported":1742192056,"current_range_meters":8800,"station_id":"ce4bhnp2rcd13ifvqgvg","pricing_plan_id":"cebpf4jnsgd1na2vs0mg"},{"bike_id":"49fea2c2-9361-4fb5-954f-b44bbf354e43","system_id":"levelo_inurba_marseille","lat":43.323588,"lon":5.367555,"is_reserved":false,"is_disabled":false,"rental_uris":{"android":"levelo://app?vid=49fea2c2-9361-4fb5-954f-b44bbf354e43","ios":"levelo://app?vid=49fea2c2-9361-4fb5-954f-b44bbf354e43"},"vehicle_type_id":"4","last_reported":1742192056,"current_range_meters":8800,"station_id":"ce4bhsh2rcd13ifvqi2g","pricing_plan_id":"cebpf4jnsgd1na2vs0mg"},{"bike_id":"5a61a616-683f-484d-83ae-d7f61143d634","system_id":"levelo_inurba_marseille","lat":43.29515,"lon":5.42487,"is_reserved":false,"is_disabled":false,"rental_uris":{"android":"levelo://app?vid=5a61a616-683f-484d-83ae-d7f61143d634","ios":"levelo://app?vid=5a61a616-683f-484d-83ae-d7f61143d634"},"vehicle_type_id":"4","last_reported":1742192056,"current_range_meters":9200,"station_id":"","pricing_plan_id":"cebpf4jnsgd1na2vs0mg"},{"bike_id":"c551f2e0-5f8e-4cc9-9464-06b9d0710638","system_id":"levelo_inurba_marseille","lat":43.23149,"lon":5.43704,"is_reserved":false,"is_disabled":false,"rental_uris":{"android":"levelo://app?vid=c551f2e0-5f8e-4cc9-9464-06b9d0710638","ios":"levelo://app?vid=c551f2e0-5f8e-4cc9-9464-06b9d0710638"},"vehicle_type_id":"4","last_reported":1742192056,"current_range_meters":9200,"station_id":"ce4bhmp2rcd13ifvqgog","pricing_plan_id":"cebpf4jnsgd1na2vs0mg"},{"bike_id":"ce157c99-2b38-44c1-b6a5-db708ae225d5","system_id":"levelo_inurba_marseille","lat":43.240771,"lon":5.377439,"is_reserved":false,"is_disabled":false,"rental_uris":{"android":"levelo://app?vid=ce157c99-2b38-44c1-b6a5-db708ae225d5","ios":"levelo://app?vid=ce157c99-2b38-44c1-b6a5-db708ae225d5"},"vehicle_type_id":"4","last_reported":1742192056,"current_range_meters":9200,"station_id":"ce4bhnp2rcd13ifvqgvg","pricing_plan_id":"cebpf4jnsgd1na2vs0mg"},{"bike_id":"079be2be-a608-46fe-887d-3f85252cbb7f","system_id":"levelo_inurba_marseille","lat":43.2861,"lon":5.35136,"is_reserved":false,"is_disabled":false,"rental_uris":{"android":"levelo://app?vid=079be2be-a608-46fe-887d-3f85252cbb7f","ios":"levelo://app?vid=079be2be-a608-46fe-887d-3f85252cbb7f"},"vehicle_type_id":"4","last_reported":1742192056,"current_range_meters":9200,"station_id":"ce4bhch2rcd13ifvqeug","pricing_plan_id":"cebpf4jnsgd1na2vs0mg"},{"bike_id":"502a3b3e-8957-45c1-a4dd-1cb7cf5ee2e2","system_id":"levelo_inurba_marseille","lat":43.321136,"lon":5.367857,"is_reserved":false,"is_disabled":false,"rental_uris":{"android":"levelo://app?vid=502a3b3e-8957-45c1-a4dd-1cb7cf5ee2e2","ios":"levelo://app?vid=502a3b3e-8957-45c1-a4dd-1cb7cf5ee2e2"},"vehicle_type_id":"4","last_reported":1742192056,"current_range_meters":9200,"station_id":"ce4bhrh2rcd13ifvqhug","pricing_plan_id":"cebpf4jnsgd1na2vs0mg"},{"bike_id":"659cfc6c-f2ba-4758-b6de-6943e7c2dc48","system_id":"levelo_inurba_marseille","lat":43.28683,"lon":5.3742,"is_reserved":false,"is_disabled":true,"rental_uris":{"android":"levelo://app?vid=659cfc6c-f2ba-4758-b6de-6943e7c2dc48","ios":"levelo://app?vid=659cfc6c-f2ba-4758-b6de-6943e7c2dc48"},"vehicle_type_id":"4","last_reported":1742192056,"current_range_meters":9200,"station_id":"ce4bh3p2rcd13ifvqdq0","pricing_plan_id":"cebpf4jnsgd1na2vs0mg"},{"bike_id":"8fa7ea8d-156d-42f2-95b3-ae3567fc37ee","system_id":"levelo_inurba_marseille","lat":43.23195,"lon":5.39976,"is_reserved":false,"is_disabled":false,"rental_uris":{"android":"levelo://app?vid=8fa7ea8d-156d-42f2-95b3-ae3567fc37ee","ios":"levelo://app?vid=8fa7ea8d-156d-42f2-95b3-ae3567fc37ee"},"vehicle_type_id":"4","last_reported":1742192056,"current_range_meters":9200,"station_id":"ce4bhn12rcd13ifvqgqg","pricing_plan_id":"cebpf4jnsgd1na2vs0mg"},{"bike_id":"b12504a2-a649-4e69-8759-4dc56a1cd8bd","system_id":"levelo_inurba_marseille","lat":43.27893,"lon":5.38258,"is_reserved":false,"is_disabled":false,"rental_uris":{"android":"levelo://app?vid=b12504a2-a649-4e69-8759-4dc56a1cd8bd","ios":"levelo://app?vid=b12504a2-a649-4e69-8759-4dc56a1cd8bd"},"vehicle_type_id":"4","last_reported":1742192056,"current_range_meters":9200,"station_id":"","pricing_plan_id":"cebpf4jnsgd1na2vs0mg"},{"bike_id":"fc137773-94c5-4c85-b362-abc199012fb6","system_id":"levelo_inurba_marseille","lat":43.27618,"lon":5.36146,"is_reserved":false,"is_disabled":false,"rental_uris":{"android":"levelo://app?vid=fc137773-94c5-4c85-b362-abc199012fb6","ios":"levelo://app?vid=fc137773-94c5-4c85-b362-abc199012fb6"},"vehicle_type_id":"4","last_reported":1742192056,"current_range_meters":9200,"station_id":"ce4bgj92rcd13ifvqbe0","pricing_plan_id":"cebpf4jnsgd1na2vs0mg"},{"bike_id":"a8feeff1-ea1a-4525-810d-d35e5f3e0edd","system_id":"levelo_inurba_marseille","lat":43.25863,"lon":5.39923,"is_reserved":false,"is_disabled":false,"rental_uris":{"android":"levelo://app?vid=a8feeff1-ea1a-4525-810d-d35e5f3e0edd","ios":"levelo://app?vid=a8feeff1-ea1a-4525-810d-d35e5f3e0edd"},"vehicle_type_id":"4","last_reported":1742192056,"current_range_meters":9200,"station_id":"ce4bhl92rcd13ifvqghg","pricing_plan_id":"cebpf4jnsgd1na2vs0mg"},{"bike_id":"ec9d1174-e42a-443d-b0b1-7488f75aa02a","system_id":"levelo_inurba_marseille","lat":43.258633,"lon":5.399224,"is_reserved":false,"is_disabled":false,"rental_uris":{"android":"levelo://app?vid=ec9d1174-e42a-443d-b0b1-7488f75aa02a","ios":"levelo://app?vid=ec9d1174-e42a-443d-b0b1-7488f75aa02a"},"vehicle_type_id":"4","last_reported":1742192056,"current_range_meters":9600,"station_id":"ce4bhl92rcd13ifvqghg","pricing_plan_id":"cebpf4jnsgd1na2vs0mg"},{"bike_id":"e789255e-840e-4e9d-926a-462347b0eff9","system_id":"levelo_inurba_marseille","lat":43.287048,"lon":5.399893,"is_reserved":false,"is_disabled":false,"rental_uris":{"android":"levelo://app?vid=e789255e-840e-4e9d-926a-462347b0eff9","ios":"levelo://app?vid=e789255e-840e-4e9d-926a-462347b0eff9"},"vehicle_type_id":"4","last_reported":1742192056,"current_range_meters":9600,"station_id":"ce4bho92rcd13ifvqh3g","pricing_plan_id":"cebpf4jnsgd1na2vs0mg"},{"bike_id":"dc361c07-533b-4914-b8db-6c401e1e37b4","system_id":"levelo_inurba_marseille","lat":43.306403,"lon":5.400721,"is_reserved":false,"is_disabled":false,"rental_uris":{"android":"levelo://app?vid=dc361c07-533b-4914-b8db-6c401e1e37b4","ios":"levelo://app?vid=dc361c07-533b-4914-b8db-6c401e1e37b4"},"vehicle_type_id":"4","last_reported":1742192056,"current_range_meters":9600,"station_id":"ce4bh112rcd13ifvqda0","pricing_plan_id":"cebpf4jnsgd1na2vs0mg"},{"bike_id":"eb9eafbf-18d1-4f66-b457-7c8dee269ad7","system_id":"levelo_inurba_marseille","lat":43.27619,"lon":5.36134,"is_reserved":false,"is_disabled":false,"rental_uris":{"android":"levelo://app?vid=eb9eafbf-18d1-4f66-b457-7c8dee269ad7","ios":"levelo://app?vid=eb9eafbf-18d1-4f66-b457-7c8dee269ad7"},"vehicle_type_id":"4","last_reported":1742192056,"current_range_meters":9600,"station_id":"ce4bgj92rcd13ifvqbe0","pricing_plan_id":"cebpf4jnsgd1na2vs0mg"},{"bike_id":"9de38d72-396a-428c-a1ae-76d0819616e3","system_id":"levelo_inurba_marseille","lat":43.28459,"lon":5.35889,"is_reserved":false,"is_disabled":false,"rental_uris":{"android":"levelo://app?vid=9de38d72-396a-428c-a1ae-76d0819616e3","ios":"levelo://app?vid=9de38d72-396a-428c-a1ae-76d0819616e3"},"vehicle_type_id":"4","last_reported":1742192056,"current_range_meters":9600,"station_id":"ce4bhah2rcd13ifvqei0","pricing_plan_id":"cebpf4jnsgd1na2vs0mg"},{"bike_id":"d258768a-f24f-4c44-97f2-bb4dadff68d3","system_id":"levelo_inurba_marseille","lat":43.31164,"lon":5.38727,"is_reserved":false,"is_disabled":false,"rental_uris":{"android":"levelo://app?vid=d258768a-f24f-4c44-97f2-bb4dadff68d3","ios":"levelo://app?vid=d258768a-f24f-4c44-97f2-bb4dadff68d3"},"vehicle_type_id":"4","last_reported":1742192056,"current_range_meters":9600,"station_id":"ce4bgv12rcd13ifvqcp0","pricing_plan_id":"cebpf4jnsgd1na2vs0mg"},{"bike_id":"5f3ca911-1fe6-4037-ac11-b79d6d514daf","system_id":"levelo_inurba_marseille","lat":43.30927,"lon":5.40189,"is_reserved":false,"is_disabled":false,"rental_uris":{"android":"levelo://app?vid=5f3ca911-1fe6-4037-ac11-b79d6d514daf","ios":"levelo://app?vid=5f3ca911-1fe6-4037-ac11-b79d6d514daf"},"vehicle_type_id":"4","last_reported":1742192056,"current_range_meters":9600,"station_id":"ce4bgvp2rcd13ifvqct0","pricing_plan_id":"cebpf4jnsgd1na2vs0mg"},{"bike_id":"ea3faa2e-2727-4cd3-a354-57574da4893b","system_id":"levelo_inurba_marseille","lat":43.24168,"lon":5.36395,"is_reserved":false,"is_disabled":false,"rental_uris":{"android":"levelo://app?vid=ea3faa2e-2727-4cd3-a354-57574da4893b","ios":"levelo://app?vid=ea3faa2e-2727-4cd3-a354-57574da4893b"},"vehicle_type_id":"4","last_reported":1742192056,"current_range_meters":9600,"station_id":"cpo36qri1sfpv3e86is0","pricing_plan_id":"cebpf4jnsgd1na2vs0mg"},{"bike_id":"845d5ebc-e22c-4e30-b410-77f73d55732a","system_id":"levelo_inurba_marseille","lat":43.29747,"lon":5.44727,"is_reserved":false,"is_disabled":false,"rental_uris":{"android":"levelo://app?vid=845d5ebc-e22c-4e30-b410-77f73d55732a","ios":"levelo://app?vid=845d5ebc-e22c-4e30-b410-77f73d55732a"},"vehicle_type_id":"4","last_reported":1742192056,"current_range_meters":9600,"station_id":"","pricing_plan_id":"cebpf4jnsgd1na2vs0mg"},{"bike_id":"5189287a-880a-46a1-bc5e-d4c1d9f06a31","system_id":"levelo_inurba_marseille","lat":43.240779,"lon":5.377523,"is_reserved":false,"is_disabled":false,"rental_uris":{"android":"levelo://app?vid=5189287a-880a-46a1-bc5e-d4c1d9f06a31","ios":"levelo://app?vid=5189287a-880a-46a1-bc5e-d4c1d9f06a31"},"vehicle_type_id":"4","last_reported":1742192056,"current_range_meters":9600,"station_id":"ce4bhnp2rcd13ifvqgvg","pricing_plan_id":"cebpf4jnsgd1na2vs0mg"},{"bike_id":"db819791-27c1-48de-91ad-79208088cf91","system_id":"levelo_inurba_marseille","lat":43.23192,"lon":5.39974,"is_reserved":false,"is_disabled":false,"rental_uris":{"android":"levelo://app?vid=db819791-27c1-48de-91ad-79208088cf91","ios":"levelo://app?vid=db819791-27c1-48de-91ad-79208088cf91"},"vehicle_type_id":"4","last_reported":1742192056,"current_range_meters":9600,"station_id":"ce4bhn12rcd13ifvqgqg","pricing_plan_id":"cebpf4jnsgd1na2vs0mg"},{"bike_id":"dba0ecfc-0bb7-4670-ab8e-e4c122a8d90e","system_id":"levelo_inurba_marseille","lat":43.27562,"lon":5.42571,"is_reserved":false,"is_disabled":false,"rental_uris":{"android":"levelo://app?vid=dba0ecfc-0bb7-4670-ab8e-e4c122a8d90e","ios":"levelo://app?vid=dba0ecfc-0bb7-4670-ab8e-e4c122a8d90e"},"vehicle_type_id":"4","last_reported":1742192056,"current_range_meters":9600,"station_id":"","pricing_plan_id":"cebpf4jnsgd1na2vs0mg"},{"bike_id":"ef73c0a8-9f79-486c-afc3-8c0a9b5935ab","system_id":"levelo_inurba_marseille","lat":43.29546,"lon":5.42296,"is_reserved":false,"is_disabled":false,"rental_uris":{"android":"levelo://app?vid=ef73c0a8-9f79-486c-afc3-8c0a9b5935ab","ios":"levelo://app?vid=ef73c0a8-9f79-486c-afc3-8c0a9b5935ab"},"vehicle_type_id":"4","last_reported":1742192056,"current_range_meters":9600,"station_id":"ce4bhph2rcd13ifvqhdg","pricing_plan_id":"cebpf4jnsgd1na2vs0mg"},{"bike_id":"024afde3-4c7e-4c72-9b6e-ff99a57526a9","system_id":"levelo_inurba_marseille","lat":43.2306,"lon":5.35519,"is_reserved":false,"is_disabled":false,"rental_uris":{"android":"levelo://app?vid=024afde3-4c7e-4c72-9b6e-ff99a57526a9","ios":"levelo://app?vid=024afde3-4c7e-4c72-9b6e-ff99a57526a9"},"vehicle_type_id":"4","last_reported":1742192056,"current_range_meters":10000,"station_id":"cpo3342slgdg3j2ifvpg","pricing_plan_id":"cebpf4jnsgd1na2vs0mg"},{"bike_id":"260688aa-bac6-4d40-9506-344609b87a60","system_id":"levelo_inurba_marseille","lat":43.30149,"lon":5.38097,"is_reserved":false,"is_disabled":false,"rental_uris":{"android":"levelo://app?vid=260688aa-bac6-4d40-9506-344609b87a60","ios":"levelo://app?vid=260688aa-bac6-4d40-9506-344609b87a60"},"vehicle_type_id":"4","last_reported":1742192056,"current_range_meters":10000,"station_id":"ce4bgjp2rcd13ifvqbh0","pricing_plan_id":"cebpf4jnsgd1na2vs0mg"},{"bike_id":"f6ea2adf-076d-4022-9ca9-c0c59511cfd5","system_id":"levelo_inurba_marseille","lat":43.23184,"lon":5.35587,"is_reserved":false,"is_disabled":false,"rental_uris":{"android":"levelo://app?vid=f6ea2adf-076d-4022-9ca9-c0c59511cfd5","ios":"levelo://app?vid=f6ea2adf-076d-4022-9ca9-c0c59511cfd5"},"vehicle_type_id":"4","last_reported":1742192056,"current_range_meters":10000,"station_id":"ce4bhu92rcd13ifvqi70","pricing_plan_id":"cebpf4jnsgd1na2vs0mg"},{"bike_id":"13e278b3-c9cb-4550-ad8b-8b4c511558ae","system_id":"levelo_inurba_marseille","lat":43.2746,"lon":5.40908,"is_reserved":false,"is_disabled":false,"rental_uris":{"android":"levelo://app?vid=13e278b3-c9cb-4550-ad8b-8b4c511558ae","ios":"levelo://app?vid=13e278b3-c9cb-4550-ad8b-8b4c511558ae"},"vehicle_type_id":"4","last_reported":1742192056,"current_range_meters":10000,"station_id":"","pricing_plan_id":"cebpf4jnsgd1na2vs0mg"},{"bike_id":"6f8b888a-d892-4e9f-978c-a9ff267ad17f","system_id":"levelo_inurba_marseille","lat":43.30462,"lon":5.3791,"is_reserved":false,"is_disabled":false,"rental_uris":{"android":"levelo://app?vid=6f8b888a-d892-4e9f-978c-a9ff267ad17f","ios":"levelo://app?vid=6f8b888a-d892-4e9f-978c-a9ff267ad17f"},"vehicle_type_id":"4","last_reported":1742192056,"current_range_meters":10000,"station_id":"ce4bgup2rcd13ifvqcn0","pricing_plan_id":"cebpf4jnsgd1na2vs0mg"},{"bike_id":"77cde221-2746-4ce8-9bb2-82c3a2d59de7","system_id":"levelo_inurba_marseille","lat":43.29881,"lon":5.38159,"is_reserved":false,"is_disabled":true,"rental_uris":{"android":"levelo://app?vid=77cde221-2746-4ce8-9bb2-82c3a2d59de7","ios":"levelo://app?vid=77cde221-2746-4ce8-9bb2-82c3a2d59de7"},"vehicle_type_id":"4","last_reported":1742192056,"current_range_meters":10000,"station_id":"ce4bgj12rcd13ifvqbc0","pricing_plan_id":"cebpf4jnsgd1na2vs0mg"},{"bike_id":"dd98f38e-cdd6-4a77-a161-2adc7415e16c","system_id":"levelo_inurba_marseille","lat":43.2829,"lon":5.43127,"is_reserved":false,"is_disabled":false,"rental_uris":{"android":"levelo://app?vid=dd98f38e-cdd6-4a77-a161-2adc7415e16c","ios":"levelo://app?vid=dd98f38e-cdd6-4a77-a161-2adc7415e16c"},"vehicle_type_id":"4","last_reported":1742192056,"current_range_meters":10000,"station_id":"","pricing_plan_id":"cebpf4jnsgd1na2vs0mg"},{"bike_id":"a03e208e-94c1-4a5f-9d61-9150c74ebe8c","system_id":"levelo_inurba_marseille","lat":43.32336,"lon":5.36661,"is_reserved":false,"is_disabled":false,"rental_uris":{"android":"levelo://app?vid=a03e208e-94c1-4a5f-9d61-9150c74ebe8c","ios":"levelo://app?vid=a03e208e-94c1-4a5f-9d61-9150c74ebe8c"},"vehicle_type_id":"4","last_reported":1742192056,"current_range_meters":10000,"station_id":"","pricing_plan_id":"cebpf4jnsgd1na2vs0mg"},{"bike_id":"a0226cb6-2cfc-439f-8908-87824371f5c4","system_id":"levelo_inurba_marseille","lat":43.270646,"lon":5.42288,"is_reserved":false,"is_disabled":false,"rental_uris":{"android":"levelo://app?vid=a0226cb6-2cfc-439f-8908-87824371f5c4","ios":"levelo://app?vid=a0226cb6-2cfc-439f-8908-87824371f5c4"},"vehicle_type_id":"4","last_reported":1742192056,"current_range_meters":10000,"station_id":"ce4bhk92rcd13ifvqgb0","pricing_plan_id":"cebpf4jnsgd1na2vs0mg"},{"bike_id":"e39aff96-0142-46d0-807b-703830dfcf78","system_id":"levelo_inurba_marseille","lat":43.286136,"lon":5.35108,"is_reserved":false,"is_disabled":true,"rental_uris":{"android":"levelo://app?vid=e39aff96-0142-46d0-807b-703830dfcf78","ios":"levelo://app?vid=e39aff96-0142-46d0-807b-703830dfcf78"},"vehicle_type_id":"4","last_reported":1742192056,"current_range_meters":10000,"station_id":"","pricing_plan_id":"cebpf4jnsgd1na2vs0mg"},{"bike_id":"19452eed-d82c-486d-9e09-02ab2b36db5b","system_id":"levelo_inurba_marseille","lat":43.29242,"lon":5.40907,"is_reserved":false,"is_disabled":true,"rental_uris":{"android":"levelo://app?vid=19452eed-d82c-486d-9e09-02ab2b36db5b","ios":"levelo://app?vid=19452eed-d82c-486d-9e09-02ab2b36db5b"},"vehicle_type_id":"4","last_reported":1742192056,"current_range_meters":10800,"station_id":"ce4bh192rcd13ifvqdc0","pricing_plan_id":"cebpf4jnsgd1na2vs0mg"},{"bike_id":"a80b708e-9960-477b-bb7d-a21f3fdfea6d","system_id":"levelo_inurba_marseille","lat":43.23192,"lon":5.39983,"is_reserved":false,"is_disabled":false,"rental_uris":{"android":"levelo://app?vid=a80b708e-9960-477b-bb7d-a21f3fdfea6d","ios":"levelo://app?vid=a80b708e-9960-477b-bb7d-a21f3fdfea6d"},"vehicle_type_id":"4","last_reported":1742192056,"current_range_meters":10800,"station_id":"ce4bhn12rcd13ifvqgqg","pricing_plan_id":"cebpf4jnsgd1na2vs0mg"},{"bike_id":"0dba11c1-db3c-4349-bd60-4c1ec38c51b3","system_id":"levelo_inurba_marseille","lat":43.232,"lon":5.35556,"is_reserved":false,"is_disabled":false,"rental_uris":{"android":"levelo://app?vid=0dba11c1-db3c-4349-bd60-4c1ec38c51b3","ios":"levelo://app?vid=0dba11c1-db3c-4349-bd60-4c1ec38c51b3"},"vehicle_type_id":"4","last_reported":1742192056,"current_range_meters":10800,"station_id":"ce4bhu92rcd13ifvqi70","pricing_plan_id":"cebpf4jnsgd1na2vs0mg"},{"bike_id":"a6b0a040-07e7-4faa-a4d4-f0ae30938573","system_id":"levelo_inurba_marseille","lat":43.2439,"lon":5.37065,"is_reserved":false,"is_disabled":false,"rental_uris":{"android":"levelo://app?vid=a6b0a040-07e7-4faa-a4d4-f0ae30938573","ios":"levelo://app?vid=a6b0a040-07e7-4faa-a4d4-f0ae30938573"},"vehicle_type_id":"4","last_reported":1742192056,"current_range_meters":10800,"station_id":"ce4bhhh2rcd13ifvqfk0","pricing_plan_id":"cebpf4jnsgd1na2vs0mg"},{"bike_id":"840483eb-dec7-490f-b669-ee3773ac063c","system_id":"levelo_inurba_marseille","lat":43.292675,"lon":5.368409,"is_reserved":false,"is_disabled":true,"rental_uris":{"android":"levelo://app?vid=840483eb-dec7-490f-b669-ee3773ac063c","ios":"levelo://app?vid=840483eb-dec7-490f-b669-ee3773ac063c"},"vehicle_type_id":"4","last_reported":1742192056,"current_range_meters":10800,"station_id":"ce4bhbp2rcd13ifvqesg","pricing_plan_id":"cebpf4jnsgd1na2vs0mg"},{"bike_id":"5a4a7d35-0ef8-41e9-9195-6b8c171d9e40","system_id":"levelo_inurba_marseille","lat":43.25943,"lon":5.40891,"is_reserved":false,"is_disabled":false,"rental_uris":{"android":"levelo://app?vid=5a4a7d35-0ef8-41e9-9195-6b8c171d9e40","ios":"levelo://app?vid=5a4a7d35-0ef8-41e9-9195-6b8c171d9e40"},"vehicle_type_id":"4","last_reported":1742192056,"current_range_meters":10800,"station_id":"ce4bhm92rcd13ifvqglg","pricing_plan_id":"cebpf4jnsgd1na2vs0mg"},{"bike_id":"acae015a-47e9-488b-96c7-da5370995513","system_id":"levelo_inurba_marseille","lat":43.231941,"lon":5.355629,"is_reserved":false,"is_disabled":false,"rental_uris":{"android":"levelo://app?vid=acae015a-47e9-488b-96c7-da5370995513","ios":"levelo://app?vid=acae015a-47e9-488b-96c7-da5370995513"},"vehicle_type_id":"4","last_reported":1742192056,"current_range_meters":10800,"station_id":"ce4bhu92rcd13ifvqi70","pricing_plan_id":"cebpf4jnsgd1na2vs0mg"},{"bike_id":"76e764b8-1adb-4231-8a1e-b8c7fcf6487a","system_id":"levelo_inurba_marseille","lat":43.31707,"lon":5.37761,"is_reserved":false,"is_disabled":false,"rental_uris":{"android":"levelo://app?vid=76e764b8-1adb-4231-8a1e-b8c7fcf6487a","ios":"levelo://app?vid=76e764b8-1adb-4231-8a1e-b8c7fcf6487a"},"vehicle_type_id":"4","last_reported":1742192056,"current_range_meters":10800,"station_id":"ce4bgth2rcd13ifvqch0","pricing_plan_id":"cebpf4jnsgd1na2vs0mg"},{"bike_id":"8582a594-232f-4ecd-9ce1-980b2fb12fee","system_id":"levelo_inurba_marseille","lat":43.295578,"lon":5.422834,"is_reserved":false,"is_disabled":false,"rental_uris":{"android":"levelo://app?vid=8582a594-232f-4ecd-9ce1-980b2fb12fee","ios":"levelo://app?vid=8582a594-232f-4ecd-9ce1-980b2fb12fee"},"vehicle_type_id":"4","last_reported":1742192056,"current_range_meters":10800,"station_id":"ce4bhph2rcd13ifvqhdg","pricing_plan_id":"cebpf4jnsgd1na2vs0mg"},{"bike_id":"39337130-be29-4abf-92aa-a979db3701f0","system_id":"levelo_inurba_marseille","lat":43.28729,"lon":5.36084,"is_reserved":false,"is_disabled":false,"rental_uris":{"android":"levelo://app?vid=39337130-be29-4abf-92aa-a979db3701f0","ios":"levelo://app?vid=39337130-be29-4abf-92aa-a979db3701f0"},"vehicle_type_id":"4","last_reported":1742192056,"current_range_meters":10800,"station_id":"cki0cbj6b192h4jlfktg","pricing_plan_id":"cebpf4jnsgd1na2vs0mg"},{"bike_id":"859f60fc-e905-43d1-b79d-c375474a6202","system_id":"levelo_inurba_marseille","lat":43.29558,"lon":5.42291,"is_reserved":false,"is_disabled":false,"rental_uris":{"android":"levelo://app?vid=859f60fc-e905-43d1-b79d-c375474a6202","ios":"levelo://app?vid=859f60fc-e905-43d1-b79d-c375474a6202"},"vehicle_type_id":"4","last_reported":1742192056,"current_range_meters":10800,"station_id":"ce4bhph2rcd13ifvqhdg","pricing_plan_id":"cebpf4jnsgd1na2vs0mg"},{"bike_id":"1506d237-8faf-4a03-a6bb-8cd76379d6d7","system_id":"levelo_inurba_marseille","lat":43.30459,"lon":5.3789,"is_reserved":false,"is_disabled":false,"rental_uris":{"android":"levelo://app?vid=1506d237-8faf-4a03-a6bb-8cd76379d6d7","ios":"levelo://app?vid=1506d237-8faf-4a03-a6bb-8cd76379d6d7"},"vehicle_type_id":"4","last_reported":1742192056,"current_range_meters":10800,"station_id":"ce4bgup2rcd13ifvqcn0","pricing_plan_id":"cebpf4jnsgd1na2vs0mg"},{"bike_id":"24dd4337-618b-4771-83f7-03578c7756e5","system_id":"levelo_inurba_marseille","lat":43.29732,"lon":5.37679,"is_reserved":false,"is_disabled":true,"rental_uris":{"android":"levelo://app?vid=24dd4337-618b-4771-83f7-03578c7756e5","ios":"levelo://app?vid=24dd4337-618b-4771-83f7-03578c7756e5"},"vehicle_type_id":"4","last_reported":1742192056,"current_range_meters":10800,"station_id":"ce4bgkh2rcd13ifvqbl0","pricing_plan_id":"cebpf4jnsgd1na2vs0mg"},{"bike_id":"15114da5-30fb-4fb1-9632-866a9f4be863","system_id":"levelo_inurba_marseille","lat":43.29652,"lon":5.36535,"is_reserved":false,"is_disabled":false,"rental_uris":{"android":"levelo://app?vid=15114da5-30fb-4fb1-9632-866a9f4be863","ios":"levelo://app?vid=15114da5-30fb-4fb1-9632-866a9f4be863"},"vehicle_type_id":"4","last_reported":1742192056,"current_range_meters":10800,"station_id":"","pricing_plan_id":"cebpf4jnsgd1na2vs0mg"},{"bike_id":"a4e011c7-6f19-4681-84ea-4262f143037e","system_id":"levelo_inurba_marseille","lat":43.323636,"lon":5.367474,"is_reserved":false,"is_disabled":false,"rental_uris":{"android":"levelo://app?vid=a4e011c7-6f19-4681-84ea-4262f143037e","ios":"levelo://app?vid=a4e011c7-6f19-4681-84ea-4262f143037e"},"vehicle_type_id":"4","last_reported":1742192056,"current_range_meters":10800,"station_id":"ce4bhsh2rcd13ifvqi2g","pricing_plan_id":"cebpf4jnsgd1na2vs0mg"},{"bike_id":"2f42e19e-22f1-4965-ad6e-662af5324e76","system_id":"levelo_inurba_marseille","lat":43.23189,"lon":5.35576,"is_reserved":false,"is_disabled":false,"rental_uris":{"android":"levelo://app?vid=2f42e19e-22f1-4965-ad6e-662af5324e76","ios":"levelo://app?vid=2f42e19e-22f1-4965-ad6e-662af5324e76"},"vehicle_type_id":"4","last_reported":1742192056,"current_range_meters":11200,"station_id":"ce4bhu92rcd13ifvqi70","pricing_plan_id":"cebpf4jnsgd1na2vs0mg"},{"bike_id":"6d7aba10-2ad7-403b-88bc-52c92007007a","system_id":"levelo_inurba_marseille","lat":43.29008,"lon":5.38152,"is_reserved":false,"is_disabled":true,"rental_uris":{"android":"levelo://app?vid=6d7aba10-2ad7-403b-88bc-52c92007007a","ios":"levelo://app?vid=6d7aba10-2ad7-403b-88bc-52c92007007a"},"vehicle_type_id":"4","last_reported":1742192056,"current_range_meters":11200,"station_id":"ce4bh4p2rcd13ifvqe1g","pricing_plan_id":"cebpf4jnsgd1na2vs0mg"},{"bike_id":"87441797-c96f-4aec-9920-16ee49264c38","system_id":"levelo_inurba_marseille","lat":43.28824,"lon":5.35879,"is_reserved":false,"is_disabled":false,"rental_uris":{"android":"levelo://app?vid=87441797-c96f-4aec-9920-16ee49264c38","ios":"levelo://app?vid=87441797-c96f-4aec-9920-16ee49264c38"},"vehicle_type_id":"4","last_reported":1742192056,"current_range_meters":11200,"station_id":"ce4bhb12rcd13ifvqem0","pricing_plan_id":"cebpf4jnsgd1na2vs0mg"},{"bike_id":"f56c7c5e-eda8-494d-9ab8-b4c027672166","system_id":"levelo_inurba_marseille","lat":43.28246,"lon":5.44381,"is_reserved":false,"is_disabled":false,"rental_uris":{"android":"levelo://app?vid=f56c7c5e-eda8-494d-9ab8-b4c027672166","ios":"levelo://app?vid=f56c7c5e-eda8-494d-9ab8-b4c027672166"},"vehicle_type_id":"4","last_reported":1742192056,"current_range_meters":11200,"station_id":"","pricing_plan_id":"cebpf4jnsgd1na2vs0mg"},{"bike_id":"ca40f8d9-4c74-45e9-8112-b26b76ca6ffe","system_id":"levelo_inurba_marseille","lat":43.28703,"lon":5.37403,"is_reserved":false,"is_disabled":true,"rental_uris":{"android":"levelo://app?vid=ca40f8d9-4c74-45e9-8112-b26b76ca6ffe","ios":"levelo://app?vid=ca40f8d9-4c74-45e9-8112-b26b76ca6ffe"},"vehicle_type_id":"4","last_reported":1742192056,"current_range_meters":11200,"station_id":"ce4bh3p2rcd13ifvqdq0","pricing_plan_id":"cebpf4jnsgd1na2vs0mg"},{"bike_id":"982c294b-cc72-4157-a4eb-2a427229807d","system_id":"levelo_inurba_marseille","lat":43.28716,"lon":5.36102,"is_reserved":false,"is_disabled":false,"rental_uris":{"android":"levelo://app?vid=982c294b-cc72-4157-a4eb-2a427229807d","ios":"levelo://app?vid=982c294b-cc72-4157-a4eb-2a427229807d"},"vehicle_type_id":"4","last_reported":1742192056,"current_range_meters":11200,"station_id":"cki0cbj6b192h4jlfktg","pricing_plan_id":"cebpf4jnsgd1na2vs0mg"},{"bike_id":"c1a5a6c0-c1ea-4bb3-8a09-43399f8c464b","system_id":"levelo_inurba_marseille","lat":43.28716,"lon":5.3735,"is_reserved":false,"is_disabled":false,"rental_uris":{"android":"levelo://app?vid=c1a5a6c0-c1ea-4bb3-8a09-43399f8c464b","ios":"levelo://app?vid=c1a5a6c0-c1ea-4bb3-8a09-43399f8c464b"},"vehicle_type_id":"4","last_reported":1742192056,"current_range_meters":11200,"station_id":"ce4bh3p2rcd13ifvqdq0","pricing_plan_id":"cebpf4jnsgd1na2vs0mg"},{"bike_id":"c2f488d4-1fa5-41e3-8797-f7db6ced0af9","system_id":"levelo_inurba_marseille","lat":43.28931,"lon":5.36657,"is_reserved":false,"is_disabled":false,"rental_uris":{"android":"levelo://app?vid=c2f488d4-1fa5-41e3-8797-f7db6ced0af9","ios":"levelo://app?vid=c2f488d4-1fa5-41e3-8797-f7db6ced0af9"},"vehicle_type_id":"4","last_reported":1742192056,"current_range_meters":11200,"station_id":"ce4bhap2rcd13ifvqek0","pricing_plan_id":"cebpf4jnsgd1na2vs0mg"},{"bike_id":"8a5886bb-0112-468a-bdb1-2d9d5a03e0c1","system_id":"levelo_inurba_marseille","lat":43.278178,"lon":5.407148,"is_reserved":false,"is_disabled":false,"rental_uris":{"android":"levelo://app?vid=8a5886bb-0112-468a-bdb1-2d9d5a03e0c1","ios":"levelo://app?vid=8a5886bb-0112-468a-bdb1-2d9d5a03e0c1"},"vehicle_type_id":"4","last_reported":1742192056,"current_range_meters":11600,"station_id":"ce4bhnh2rcd13ifvqgtg","pricing_plan_id":"cebpf4jnsgd1na2vs0mg"},{"bike_id":"26bffbf6-789c-417e-b283-e9182420cd62","system_id":"levelo_inurba_marseille","lat":43.28934,"lon":5.36407,"is_reserved":false,"is_disabled":false,"rental_uris":{"android":"levelo://app?vid=26bffbf6-789c-417e-b283-e9182420cd62","ios":"levelo://app?vid=26bffbf6-789c-417e-b283-e9182420cd62"},"vehicle_type_id":"4","last_reported":1742192056,"current_range_meters":11600,"station_id":"ce4bhc92rcd13ifvqetg","pricing_plan_id":"cebpf4jnsgd1na2vs0mg"},{"bike_id":"573143ae-3ef9-4f10-a482-9b6f457a06c2","system_id":"levelo_inurba_marseille","lat":43.23964,"lon":5.36633,"is_reserved":false,"is_disabled":false,"rental_uris":{"android":"levelo://app?vid=573143ae-3ef9-4f10-a482-9b6f457a06c2","ios":"levelo://app?vid=573143ae-3ef9-4f10-a482-9b6f457a06c2"},"vehicle_type_id":"4","last_reported":1742192056,"current_range_meters":11600,"station_id":"ce4bhi12rcd13ifvqfp0","pricing_plan_id":"cebpf4jnsgd1na2vs0mg"},{"bike_id":"20c5e275-c004-4fea-84eb-5e6a013c0e40","system_id":"levelo_inurba_marseille","lat":43.29981,"lon":5.37215,"is_reserved":false,"is_disabled":true,"rental_uris":{"android":"levelo://app?vid=20c5e275-c004-4fea-84eb-5e6a013c0e40","ios":"levelo://app?vid=20c5e275-c004-4fea-84eb-5e6a013c0e40"},"vehicle_type_id":"4","last_reported":1742192056,"current_range_meters":11600,"station_id":"ce4bgr92rcd13ifvqc7g","pricing_plan_id":"cebpf4jnsgd1na2vs0mg"},{"bike_id":"7d6435a8-393e-49c0-b3db-8321af7fabde","system_id":"levelo_inurba_marseille","lat":43.31322,"lon":5.38609,"is_reserved":false,"is_disabled":false,"rental_uris":{"android":"levelo://app?vid=7d6435a8-393e-49c0-b3db-8321af7fabde","ios":"levelo://app?vid=7d6435a8-393e-49c0-b3db-8321af7fabde"},"vehicle_type_id":"4","last_reported":1742192056,"current_range_meters":12000,"station_id":"","pricing_plan_id":"cebpf4jnsgd1na2vs0mg"},{"bike_id":"0c8237b6-b887-4fb3-8bfc-d84cb8935c7a","system_id":"levelo_inurba_marseille","lat":43.281528,"lon":5.426358,"is_reserved":false,"is_disabled":false,"rental_uris":{"android":"levelo://app?vid=0c8237b6-b887-4fb3-8bfc-d84cb8935c7a","ios":"levelo://app?vid=0c8237b6-b887-4fb3-8bfc-d84cb8935c7a"},"vehicle_type_id":"4","last_reported":1742192056,"current_range_meters":12000,"station_id":"ce4bhnh2rcd13ifvqgug","pricing_plan_id":"cebpf4jnsgd1na2vs0mg"},{"bike_id":"54d44332-57ce-4ae1-b078-2a5204f6f497","system_id":"levelo_inurba_marseille","lat":43.27612,"lon":5.36112,"is_reserved":false,"is_disabled":false,"rental_uris":{"android":"levelo://app?vid=54d44332-57ce-4ae1-b078-2a5204f6f497","ios":"levelo://app?vid=54d44332-57ce-4ae1-b078-2a5204f6f497"},"vehicle_type_id":"4","last_reported":1742192056,"current_range_meters":12000,"station_id":"ce4bgj92rcd13ifvqbe0","pricing_plan_id":"cebpf4jnsgd1na2vs0mg"},{"bike_id":"d4832a2f-ed76-4523-b91d-faee2198096b","system_id":"levelo_inurba_marseille","lat":43.25861,"lon":5.39912,"is_reserved":false,"is_disabled":false,"rental_uris":{"android":"levelo://app?vid=d4832a2f-ed76-4523-b91d-faee2198096b","ios":"levelo://app?vid=d4832a2f-ed76-4523-b91d-faee2198096b"},"vehicle_type_id":"4","last_reported":1742192056,"current_range_meters":12000,"station_id":"ce4bhl92rcd13ifvqghg","pricing_plan_id":"cebpf4jnsgd1na2vs0mg"},{"bike_id":"14a072e7-0a56-4aa4-9518-65aaaa98cae6","system_id":"levelo_inurba_marseille","lat":43.27952,"lon":5.41032,"is_reserved":false,"is_disabled":false,"rental_uris":{"android":"levelo://app?vid=14a072e7-0a56-4aa4-9518-65aaaa98cae6","ios":"levelo://app?vid=14a072e7-0a56-4aa4-9518-65aaaa98cae6"},"vehicle_type_id":"4","last_reported":1742192056,"current_range_meters":12000,"station_id":"ce4bhnp2rcd13ifvqh0g","pricing_plan_id":"cebpf4jnsgd1na2vs0mg"},{"bike_id":"ab390a76-0a57-4543-a76e-6d96e1e77958","system_id":"levelo_inurba_marseille","lat":43.23055,"lon":5.355,"is_reserved":false,"is_disabled":false,"rental_uris":{"android":"levelo://app?vid=ab390a76-0a57-4543-a76e-6d96e1e77958","ios":"levelo://app?vid=ab390a76-0a57-4543-a76e-6d96e1e77958"},"vehicle_type_id":"4","last_reported":1742192056,"current_range_meters":12000,"station_id":"cpo3342slgdg3j2ifvpg","pricing_plan_id":"cebpf4jnsgd1na2vs0mg"},{"bike_id":"061c3eab-ebbd-4760-8917-2528d6e29cbc","system_id":"levelo_inurba_marseille","lat":43.27063,"lon":5.42297,"is_reserved":false,"is_disabled":true,"rental_uris":{"android":"levelo://app?vid=061c3eab-ebbd-4760-8917-2528d6e29cbc","ios":"levelo://app?vid=061c3eab-ebbd-4760-8917-2528d6e29cbc"},"vehicle_type_id":"4","last_reported":1742192056,"current_range_meters":12000,"station_id":"ce4bhk92rcd13ifvqgb0","pricing_plan_id":"cebpf4jnsgd1na2vs0mg"},{"bike_id":"d969f8c5-0523-4729-9dfb-7374ac3ef158","system_id":"levelo_inurba_marseille","lat":43.28506,"lon":5.38577,"is_reserved":false,"is_disabled":false,"rental_uris":{"android":"levelo://app?vid=d969f8c5-0523-4729-9dfb-7374ac3ef158","ios":"levelo://app?vid=d969f8c5-0523-4729-9dfb-7374ac3ef158"},"vehicle_type_id":"4","last_reported":1742192056,"current_range_meters":12000,"station_id":"ce4bh8p2rcd13ifvqeb0","pricing_plan_id":"cebpf4jnsgd1na2vs0mg"},{"bike_id":"dcbc9e2d-1eeb-4373-bc45-b0cca4c80eca","system_id":"levelo_inurba_marseille","lat":43.2814,"lon":5.44312,"is_reserved":false,"is_disabled":false,"rental_uris":{"android":"levelo://app?vid=dcbc9e2d-1eeb-4373-bc45-b0cca4c80eca","ios":"levelo://app?vid=dcbc9e2d-1eeb-4373-bc45-b0cca4c80eca"},"vehicle_type_id":"4","last_reported":1742192056,"current_range_meters":12000,"station_id":"","pricing_plan_id":"cebpf4jnsgd1na2vs0mg"},{"bike_id":"7cd200a6-fcbe-4a17-a043-4d9feb6708b3","system_id":"levelo_inurba_marseille","lat":43.27053,"lon":5.40263,"is_reserved":false,"is_disabled":false,"rental_uris":{"android":"levelo://app?vid=7cd200a6-fcbe-4a17-a043-4d9feb6708b3","ios":"levelo://app?vid=7cd200a6-fcbe-4a17-a043-4d9feb6708b3"},"vehicle_type_id":"4","last_reported":1742192056,"current_range_meters":12000,"station_id":"ce4bhk92rcd13ifvqgc0","pricing_plan_id":"cebpf4jnsgd1na2vs0mg"},{"bike_id":"f9eda727-bee7-40df-86c3-742de5d38771","system_id":"levelo_inurba_marseille","lat":43.302025,"lon":5.394631,"is_reserved":false,"is_disabled":true,"rental_uris":{"android":"levelo://app?vid=f9eda727-bee7-40df-86c3-742de5d38771","ios":"levelo://app?vid=f9eda727-bee7-40df-86c3-742de5d38771"},"vehicle_type_id":"4","last_reported":1742192056,"current_range_meters":12000,"station_id":"ce4bh0p2rcd13ifvqd70","pricing_plan_id":"cebpf4jnsgd1na2vs0mg"},{"bike_id":"566808e3-51b3-494e-8d76-599f011d8740","system_id":"levelo_inurba_marseille","lat":43.25863,"lon":5.39899,"is_reserved":false,"is_disabled":false,"rental_uris":{"android":"levelo://app?vid=566808e3-51b3-494e-8d76-599f011d8740","ios":"levelo://app?vid=566808e3-51b3-494e-8d76-599f011d8740"},"vehicle_type_id":"4","last_reported":1742192056,"current_range_meters":12000,"station_id":"ce4bhl92rcd13ifvqghg","pricing_plan_id":"cebpf4jnsgd1na2vs0mg"},{"bike_id":"f93f0d14-91b9-41fc-a4f1-6134ed03420c","system_id":"levelo_inurba_marseille","lat":43.29683,"lon":5.36616,"is_reserved":false,"is_disabled":false,"rental_uris":{"android":"levelo://app?vid=f93f0d14-91b9-41fc-a4f1-6134ed03420c","ios":"levelo://app?vid=f93f0d14-91b9-41fc-a4f1-6134ed03420c"},"vehicle_type_id":"4","last_reported":1742192056,"current_range_meters":12000,"station_id":"ce4bgn12rcd13ifvqbt0","pricing_plan_id":"cebpf4jnsgd1na2vs0mg"},{"bike_id":"a110c3e8-a146-4d68-a9ad-64c5ddcb51fe","system_id":"levelo_inurba_marseille","lat":43.23142,"lon":5.43722,"is_reserved":false,"is_disabled":false,"rental_uris":{"android":"levelo://app?vid=a110c3e8-a146-4d68-a9ad-64c5ddcb51fe","ios":"levelo://app?vid=a110c3e8-a146-4d68-a9ad-64c5ddcb51fe"},"vehicle_type_id":"4","last_reported":1742192056,"current_range_meters":12000,"station_id":"ce4bhmp2rcd13ifvqgog","pricing_plan_id":"cebpf4jnsgd1na2vs0mg"},{"bike_id":"f8448f78-a39d-491e-a4a8-5b2b39ba3b73","system_id":"levelo_inurba_marseille","lat":43.31032,"lon":5.37184,"is_reserved":false,"is_disabled":false,"rental_uris":{"android":"levelo://app?vid=f8448f78-a39d-491e-a4a8-5b2b39ba3b73","ios":"levelo://app?vid=f8448f78-a39d-491e-a4a8-5b2b39ba3b73"},"vehicle_type_id":"4","last_reported":1742192056,"current_range_meters":12400,"station_id":"","pricing_plan_id":"cebpf4jnsgd1na2vs0mg"},{"bike_id":"6e46b814-3eb3-4bc5-8438-aff0326ba365","system_id":"levelo_inurba_marseille","lat":43.240738,"lon":5.377588,"is_reserved":false,"is_disabled":false,"rental_uris":{"android":"levelo://app?vid=6e46b814-3eb3-4bc5-8438-aff0326ba365","ios":"levelo://app?vid=6e46b814-3eb3-4bc5-8438-aff0326ba365"},"vehicle_type_id":"4","last_reported":1742192056,"current_range_meters":12400,"station_id":"ce4bhnp2rcd13ifvqgvg","pricing_plan_id":"cebpf4jnsgd1na2vs0mg"},{"bike_id":"da13238e-d41c-45e1-a56d-699763e37342","system_id":"levelo_inurba_marseille","lat":43.27497,"lon":5.42468,"is_reserved":false,"is_disabled":false,"rental_uris":{"android":"levelo://app?vid=da13238e-d41c-45e1-a56d-699763e37342","ios":"levelo://app?vid=da13238e-d41c-45e1-a56d-699763e37342"},"vehicle_type_id":"4","last_reported":1742192056,"current_range_meters":12400,"station_id":"ce4bhn92rcd13ifvqgrg","pricing_plan_id":"cebpf4jnsgd1na2vs0mg"},{"bike_id":"b763467b-fcb1-47ab-9842-1db9f33d174c","system_id":"levelo_inurba_marseille","lat":43.23185,"lon":5.3556,"is_reserved":false,"is_disabled":false,"rental_uris":{"android":"levelo://app?vid=b763467b-fcb1-47ab-9842-1db9f33d174c","ios":"levelo://app?vid=b763467b-fcb1-47ab-9842-1db9f33d174c"},"vehicle_type_id":"4","last_reported":1742192056,"current_range_meters":12000,"station_id":"ce4bhu92rcd13ifvqi70","pricing_plan_id":"cebpf4jnsgd1na2vs0mg"},{"bike_id":"f6d26e90-c8a6-4832-a1c5-767d58aee5bc","system_id":"levelo_inurba_marseille","lat":43.231463,"lon":5.437057,"is_reserved":false,"is_disabled":false,"rental_uris":{"android":"levelo://app?vid=f6d26e90-c8a6-4832-a1c5-767d58aee5bc","ios":"levelo://app?vid=f6d26e90-c8a6-4832-a1c5-767d58aee5bc"},"vehicle_type_id":"4","last_reported":1742192056,"current_range_meters":12400,"station_id":"ce4bhmp2rcd13ifvqgog","pricing_plan_id":"cebpf4jnsgd1na2vs0mg"},{"bike_id":"42f82327-8755-4aa4-8490-c963aacca92c","system_id":"levelo_inurba_marseille","lat":43.26798,"lon":5.40245,"is_reserved":false,"is_disabled":false,"rental_uris":{"android":"levelo://app?vid=42f82327-8755-4aa4-8490-c963aacca92c","ios":"levelo://app?vid=42f82327-8755-4aa4-8490-c963aacca92c"},"vehicle_type_id":"4","last_reported":1742192056,"current_range_meters":12400,"station_id":"ce501612rcd8frsf0b60","pricing_plan_id":"cebpf4jnsgd1na2vs0mg"},{"bike_id":"4ee66709-29b2-40f6-8f6f-ebc9370d1671","system_id":"levelo_inurba_marseille","lat":43.2928,"lon":5.42756,"is_reserved":false,"is_disabled":false,"rental_uris":{"android":"levelo://app?vid=4ee66709-29b2-40f6-8f6f-ebc9370d1671","ios":"levelo://app?vid=4ee66709-29b2-40f6-8f6f-ebc9370d1671"},"vehicle_type_id":"4","last_reported":1742192056,"current_range_meters":12400,"station_id":"","pricing_plan_id":"cebpf4jnsgd1na2vs0mg"},{"bike_id":"aab95aeb-f5d4-4bef-bcdc-d835ba6c3583","system_id":"levelo_inurba_marseille","lat":43.23064,"lon":5.35491,"is_reserved":false,"is_disabled":false,"rental_uris":{"android":"levelo://app?vid=aab95aeb-f5d4-4bef-bcdc-d835ba6c3583","ios":"levelo://app?vid=aab95aeb-f5d4-4bef-bcdc-d835ba6c3583"},"vehicle_type_id":"4","last_reported":1742192056,"current_range_meters":12800,"station_id":"cpo3342slgdg3j2ifvpg","pricing_plan_id":"cebpf4jnsgd1na2vs0mg"},{"bike_id":"8bbd1e87-2f18-4bbe-8e92-af8b00ffc8de","system_id":"levelo_inurba_marseille","lat":43.30156,"lon":5.38086,"is_reserved":false,"is_disabled":false,"rental_uris":{"android":"levelo://app?vid=8bbd1e87-2f18-4bbe-8e92-af8b00ffc8de","ios":"levelo://app?vid=8bbd1e87-2f18-4bbe-8e92-af8b00ffc8de"},"vehicle_type_id":"4","last_reported":1742192056,"current_range_meters":12800,"station_id":"ce4bgjp2rcd13ifvqbh0","pricing_plan_id":"cebpf4jnsgd1na2vs0mg"},{"bike_id":"7678d4fe-044b-415e-bbb6-5f97a0548a0c","system_id":"levelo_inurba_marseille","lat":43.23187,"lon":5.40013,"is_reserved":false,"is_disabled":true,"rental_uris":{"android":"levelo://app?vid=7678d4fe-044b-415e-bbb6-5f97a0548a0c","ios":"levelo://app?vid=7678d4fe-044b-415e-bbb6-5f97a0548a0c"},"vehicle_type_id":"4","last_reported":1742192056,"current_range_meters":12800,"station_id":"ce4bhn12rcd13ifvqgqg","pricing_plan_id":"cebpf4jnsgd1na2vs0mg"},{"bike_id":"0b2c588e-ad18-4b5f-909d-2d111e78fbae","system_id":"levelo_inurba_marseille","lat":43.28467,"lon":5.38444,"is_reserved":false,"is_disabled":true,"rental_uris":{"android":"levelo://app?vid=0b2c588e-ad18-4b5f-909d-2d111e78fbae","ios":"levelo://app?vid=0b2c588e-ad18-4b5f-909d-2d111e78fbae"},"vehicle_type_id":"4","last_reported":1742192056,"current_range_meters":12800,"station_id":"ce4bh512rcd13ifvqe3g","pricing_plan_id":"cebpf4jnsgd1na2vs0mg"},{"bike_id":"eb68e8b7-38f3-4b46-bcf2-645e79c2103b","system_id":"levelo_inurba_marseille","lat":43.26556,"lon":5.38649,"is_reserved":false,"is_disabled":false,"rental_uris":{"android":"levelo://app?vid=eb68e8b7-38f3-4b46-bcf2-645e79c2103b","ios":"levelo://app?vid=eb68e8b7-38f3-4b46-bcf2-645e79c2103b"},"vehicle_type_id":"4","last_reported":1742192056,"current_range_meters":12800,"station_id":"","pricing_plan_id":"cebpf4jnsgd1na2vs0mg"},{"bike_id":"fc99c4f7-f533-418c-863e-4a1ac01f076c","system_id":"levelo_inurba_marseille","lat":43.2888,"lon":5.35817,"is_reserved":false,"is_disabled":false,"rental_uris":{"android":"levelo://app?vid=fc99c4f7-f533-418c-863e-4a1ac01f076c","ios":"levelo://app?vid=fc99c4f7-f533-418c-863e-4a1ac01f076c"},"vehicle_type_id":"4","last_reported":1742192056,"current_range_meters":12800,"station_id":"ce4bhb12rcd13ifvqem0","pricing_plan_id":"cebpf4jnsgd1na2vs0mg"},{"bike_id":"04779c95-09a2-425e-927f-fb9e05ab6347","system_id":"levelo_inurba_marseille","lat":43.33761,"lon":5.37489,"is_reserved":false,"is_disabled":false,"rental_uris":{"android":"levelo://app?vid=04779c95-09a2-425e-927f-fb9e05ab6347","ios":"levelo://app?vid=04779c95-09a2-425e-927f-fb9e05ab6347"},"vehicle_type_id":"4","last_reported":1742192056,"current_range_meters":12800,"station_id":"","pricing_plan_id":"cebpf4jnsgd1na2vs0mg"},{"bike_id":"077e9534-45a7-4b95-a8e7-f700d2452622","system_id":"levelo_inurba_marseille","lat":43.31352,"lon":5.38484,"is_reserved":false,"is_disabled":false,"rental_uris":{"android":"levelo://app?vid=077e9534-45a7-4b95-a8e7-f700d2452622","ios":"levelo://app?vid=077e9534-45a7-4b95-a8e7-f700d2452622"},"vehicle_type_id":"4","last_reported":1742192056,"current_range_meters":12800,"station_id":"ce4bgt92rcd13ifvqcf0","pricing_plan_id":"cebpf4jnsgd1na2vs0mg"},{"bike_id":"1ccb4900-830f-4b12-b760-e3efc533b26a","system_id":"levelo_inurba_marseille","lat":43.330208,"lon":5.39058,"is_reserved":false,"is_disabled":false,"rental_uris":{"android":"levelo://app?vid=1ccb4900-830f-4b12-b760-e3efc533b26a","ios":"levelo://app?vid=1ccb4900-830f-4b12-b760-e3efc533b26a"},"vehicle_type_id":"4","last_reported":1742192056,"current_range_meters":12800,"station_id":"ce4bhr92rcd13ifvqhrg","pricing_plan_id":"cebpf4jnsgd1na2vs0mg"},{"bike_id":"84cfc446-bf14-431e-a684-b664920352f0","system_id":"levelo_inurba_marseille","lat":43.24171,"lon":5.36427,"is_reserved":false,"is_disabled":true,"rental_uris":{"android":"levelo://app?vid=84cfc446-bf14-431e-a684-b664920352f0","ios":"levelo://app?vid=84cfc446-bf14-431e-a684-b664920352f0"},"vehicle_type_id":"4","last_reported":1742192056,"current_range_meters":12800,"station_id":"cpo36qri1sfpv3e86is0","pricing_plan_id":"cebpf4jnsgd1na2vs0mg"},{"bike_id":"8cc8ed01-839f-4b86-abcf-a00c49463ec3","system_id":"levelo_inurba_marseille","lat":43.30124,"lon":5.38094,"is_reserved":false,"is_disabled":false,"rental_uris":{"android":"levelo://app?vid=8cc8ed01-839f-4b86-abcf-a00c49463ec3","ios":"levelo://app?vid=8cc8ed01-839f-4b86-abcf-a00c49463ec3"},"vehicle_type_id":"4","last_reported":1742192056,"current_range_meters":12800,"station_id":"ce4bgjp2rcd13ifvqbh0","pricing_plan_id":"cebpf4jnsgd1na2vs0mg"},{"bike_id":"c735a41e-8707-4425-9245-f2bfffe653b8","system_id":"levelo_inurba_marseille","lat":43.25936,"lon":5.40906,"is_reserved":false,"is_disabled":false,"rental_uris":{"android":"levelo://app?vid=c735a41e-8707-4425-9245-f2bfffe653b8","ios":"levelo://app?vid=c735a41e-8707-4425-9245-f2bfffe653b8"},"vehicle_type_id":"4","last_reported":1742192056,"current_range_meters":12800,"station_id":"ce4bhm92rcd13ifvqglg","pricing_plan_id":"cebpf4jnsgd1na2vs0mg"},{"bike_id":"5c7d3af7-81c2-462c-80cb-d705f57b5e51","system_id":"levelo_inurba_marseille","lat":43.25719,"lon":5.41116,"is_reserved":false,"is_disabled":true,"rental_uris":{"android":"levelo://app?vid=5c7d3af7-81c2-462c-80cb-d705f57b5e51","ios":"levelo://app?vid=5c7d3af7-81c2-462c-80cb-d705f57b5e51"},"vehicle_type_id":"4","last_reported":1742192056,"current_range_meters":12800,"station_id":"ce4bhkp2rcd13ifvqgd0","pricing_plan_id":"cebpf4jnsgd1na2vs0mg"},{"bike_id":"fdddf651-a4ce-4fda-974f-fb9d93459460","system_id":"levelo_inurba_marseille","lat":43.23188,"lon":5.35561,"is_reserved":false,"is_disabled":false,"rental_uris":{"android":"levelo://app?vid=fdddf651-a4ce-4fda-974f-fb9d93459460","ios":"levelo://app?vid=fdddf651-a4ce-4fda-974f-fb9d93459460"},"vehicle_type_id":"4","last_reported":1742192056,"current_range_meters":12800,"station_id":"ce4bhu92rcd13ifvqi70","pricing_plan_id":"cebpf4jnsgd1na2vs0mg"},{"bike_id":"986cbafe-57e2-4522-bc1b-a99a1ba08f95","system_id":"levelo_inurba_marseille","lat":43.30941,"lon":5.40171,"is_reserved":false,"is_disabled":false,"rental_uris":{"android":"levelo://app?vid=986cbafe-57e2-4522-bc1b-a99a1ba08f95","ios":"levelo://app?vid=986cbafe-57e2-4522-bc1b-a99a1ba08f95"},"vehicle_type_id":"4","last_reported":1742192056,"current_range_meters":13600,"station_id":"ce4bgvp2rcd13ifvqct0","pricing_plan_id":"cebpf4jnsgd1na2vs0mg"},{"bike_id":"611e1d18-f8ac-41a1-ace3-de54f198d91d","system_id":"levelo_inurba_marseille","lat":43.28852,"lon":5.35825,"is_reserved":false,"is_disabled":true,"rental_uris":{"android":"levelo://app?vid=611e1d18-f8ac-41a1-ace3-de54f198d91d","ios":"levelo://app?vid=611e1d18-f8ac-41a1-ace3-de54f198d91d"},"vehicle_type_id":"4","last_reported":1742192056,"current_range_meters":13600,"station_id":"ce4bhb12rcd13ifvqem0","pricing_plan_id":"cebpf4jnsgd1na2vs0mg"},{"bike_id":"24a479cc-374a-418f-9144-dac66f4aa10b","system_id":"levelo_inurba_marseille","lat":43.28446,"lon":5.35932,"is_reserved":false,"is_disabled":true,"rental_uris":{"android":"levelo://app?vid=24a479cc-374a-418f-9144-dac66f4aa10b","ios":"levelo://app?vid=24a479cc-374a-418f-9144-dac66f4aa10b"},"vehicle_type_id":"4","last_reported":1742192056,"current_range_meters":14000,"station_id":"","pricing_plan_id":"cebpf4jnsgd1na2vs0mg"},{"bike_id":"f3b6156c-2087-4f03-a6ba-2a9b58eef4d8","system_id":"levelo_inurba_marseille","lat":43.24089,"lon":5.37759,"is_reserved":false,"is_disabled":false,"rental_uris":{"android":"levelo://app?vid=f3b6156c-2087-4f03-a6ba-2a9b58eef4d8","ios":"levelo://app?vid=f3b6156c-2087-4f03-a6ba-2a9b58eef4d8"},"vehicle_type_id":"4","last_reported":1742192056,"current_range_meters":14000,"station_id":"ce4bhnp2rcd13ifvqgvg","pricing_plan_id":"cebpf4jnsgd1na2vs0mg"},{"bike_id":"425e256a-56dd-4092-91ae-c8c49ae7ee99","system_id":"levelo_inurba_marseille","lat":43.30886,"lon":5.39665,"is_reserved":false,"is_disabled":false,"rental_uris":{"android":"levelo://app?vid=425e256a-56dd-4092-91ae-c8c49ae7ee99","ios":"levelo://app?vid=425e256a-56dd-4092-91ae-c8c49ae7ee99"},"vehicle_type_id":"4","last_reported":1742192056,"current_range_meters":14000,"station_id":"ce4bh012rcd13ifvqcv0","pricing_plan_id":"cebpf4jnsgd1na2vs0mg"},{"bike_id":"3c0a0b9d-ab1b-4ecc-a265-5e422decaa33","system_id":"levelo_inurba_marseille","lat":43.2737,"lon":5.36256,"is_reserved":false,"is_disabled":true,"rental_uris":{"android":"levelo://app?vid=3c0a0b9d-ab1b-4ecc-a265-5e422decaa33","ios":"levelo://app?vid=3c0a0b9d-ab1b-4ecc-a265-5e422decaa33"},"vehicle_type_id":"4","last_reported":1742192056,"current_range_meters":14000,"station_id":"ce4bhbh2rcd13ifvqeo0","pricing_plan_id":"cebpf4jnsgd1na2vs0mg"},{"bike_id":"f48f1c5a-2070-4919-8ff4-122819d10d1f","system_id":"levelo_inurba_marseille","lat":43.31103,"lon":5.37788,"is_reserved":false,"is_disabled":false,"rental_uris":{"android":"levelo://app?vid=f48f1c5a-2070-4919-8ff4-122819d10d1f","ios":"levelo://app?vid=f48f1c5a-2070-4919-8ff4-122819d10d1f"},"vehicle_type_id":"4","last_reported":1742192056,"current_range_meters":14000,"station_id":"ce4bgt92rcd13ifvqcg0","pricing_plan_id":"cebpf4jnsgd1na2vs0mg"},{"bike_id":"421ffe78-25bf-4527-9fb4-a76483712f90","system_id":"levelo_inurba_marseille","lat":43.229335,"lon":5.353743,"is_reserved":false,"is_disabled":false,"rental_uris":{"android":"levelo://app?vid=421ffe78-25bf-4527-9fb4-a76483712f90","ios":"levelo://app?vid=421ffe78-25bf-4527-9fb4-a76483712f90"},"vehicle_type_id":"4","last_reported":1742192056,"current_range_meters":14000,"station_id":"cpo3532slgdg3j2ikp40","pricing_plan_id":"cebpf4jnsgd1na2vs0mg"},{"bike_id":"62f04d62-7a6c-4336-93a2-423f52c0b161","system_id":"levelo_inurba_marseille","lat":43.28708,"lon":5.39987,"is_reserved":false,"is_disabled":false,"rental_uris":{"android":"levelo://app?vid=62f04d62-7a6c-4336-93a2-423f52c0b161","ios":"levelo://app?vid=62f04d62-7a6c-4336-93a2-423f52c0b161"},"vehicle_type_id":"4","last_reported":1742192056,"current_range_meters":14400,"station_id":"ce4bho92rcd13ifvqh3g","pricing_plan_id":"cebpf4jnsgd1na2vs0mg"},{"bike_id":"8f3bcdc7-a0d0-4c5e-9648-b786ac438d59","system_id":"levelo_inurba_marseille","lat":43.30471,"lon":5.37907,"is_reserved":false,"is_disabled":false,"rental_uris":{"android":"levelo://app?vid=8f3bcdc7-a0d0-4c5e-9648-b786ac438d59","ios":"levelo://app?vid=8f3bcdc7-a0d0-4c5e-9648-b786ac438d59"},"vehicle_type_id":"4","last_reported":1742192056,"current_range_meters":14400,"station_id":"ce4bgup2rcd13ifvqcn0","pricing_plan_id":"cebpf4jnsgd1na2vs0mg"},{"bike_id":"9c88cbe5-3617-4fe4-8bfd-243334d7fe47","system_id":"levelo_inurba_marseille","lat":43.24686,"lon":5.38145,"is_reserved":false,"is_disabled":false,"rental_uris":{"android":"levelo://app?vid=9c88cbe5-3617-4fe4-8bfd-243334d7fe47","ios":"levelo://app?vid=9c88cbe5-3617-4fe4-8bfd-243334d7fe47"},"vehicle_type_id":"4","last_reported":1742192056,"current_range_meters":14400,"station_id":"ce4bhih2rcd13ifvqfr0","pricing_plan_id":"cebpf4jnsgd1na2vs0mg"},{"bike_id":"75e009c4-ea5f-4e47-b8c6-5ec12f7ca4b1","system_id":"levelo_inurba_marseille","lat":43.2319,"lon":5.39996,"is_reserved":false,"is_disabled":false,"rental_uris":{"android":"levelo://app?vid=75e009c4-ea5f-4e47-b8c6-5ec12f7ca4b1","ios":"levelo://app?vid=75e009c4-ea5f-4e47-b8c6-5ec12f7ca4b1"},"vehicle_type_id":"4","last_reported":1742192056,"current_range_meters":14800,"station_id":"ce4bhn12rcd13ifvqgqg","pricing_plan_id":"cebpf4jnsgd1na2vs0mg"},{"bike_id":"4ca520c7-7401-45c7-943c-91512e5ccdbb","system_id":"levelo_inurba_marseille","lat":43.31211,"lon":5.36878,"is_reserved":false,"is_disabled":false,"rental_uris":{"android":"levelo://app?vid=4ca520c7-7401-45c7-943c-91512e5ccdbb","ios":"levelo://app?vid=4ca520c7-7401-45c7-943c-91512e5ccdbb"},"vehicle_type_id":"4","last_reported":1742192056,"current_range_meters":15200,"station_id":"ce4bgl92rcd13ifvqbq0","pricing_plan_id":"cebpf4jnsgd1na2vs0mg"},{"bike_id":"f94de7fa-5e4f-4999-99c8-9c98dc8c7305","system_id":"levelo_inurba_marseille","lat":43.249979,"lon":5.38933,"is_reserved":false,"is_disabled":false,"rental_uris":{"android":"levelo://app?vid=f94de7fa-5e4f-4999-99c8-9c98dc8c7305","ios":"levelo://app?vid=f94de7fa-5e4f-4999-99c8-9c98dc8c7305"},"vehicle_type_id":"4","last_reported":1742192056,"current_range_meters":14800,"station_id":"ce4bhgp2rcd13ifvqfd0","pricing_plan_id":"cebpf4jnsgd1na2vs0mg"},{"bike_id":"0977ec3e-6541-46a2-929f-74c4731521ab","system_id":"levelo_inurba_marseille","lat":43.24071,"lon":5.37746,"is_reserved":false,"is_disabled":false,"rental_uris":{"android":"levelo://app?vid=0977ec3e-6541-46a2-929f-74c4731521ab","ios":"levelo://app?vid=0977ec3e-6541-46a2-929f-74c4731521ab"},"vehicle_type_id":"4","last_reported":1742192056,"current_range_meters":14800,"station_id":"ce4bhnp2rcd13ifvqgvg","pricing_plan_id":"cebpf4jnsgd1na2vs0mg"},{"bike_id":"7c66673a-04c3-4d32-a675-3d59fed633d9","system_id":"levelo_inurba_marseille","lat":43.23183,"lon":5.35561,"is_reserved":false,"is_disabled":false,"rental_uris":{"android":"levelo://app?vid=7c66673a-04c3-4d32-a675-3d59fed633d9","ios":"levelo://app?vid=7c66673a-04c3-4d32-a675-3d59fed633d9"},"vehicle_type_id":"4","last_reported":1742192056,"current_range_meters":14800,"station_id":"ce4bhu92rcd13ifvqi70","pricing_plan_id":"cebpf4jnsgd1na2vs0mg"},{"bike_id":"92e08434-b01c-4bc3-875d-ec8db8b3f4a0","system_id":"levelo_inurba_marseille","lat":43.31082,"lon":5.38342,"is_reserved":false,"is_disabled":false,"rental_uris":{"android":"levelo://app?vid=92e08434-b01c-4bc3-875d-ec8db8b3f4a0","ios":"levelo://app?vid=92e08434-b01c-4bc3-875d-ec8db8b3f4a0"},"vehicle_type_id":"4","last_reported":1742192056,"current_range_meters":14800,"station_id":"ce4bgv92rcd13ifvqcr0","pricing_plan_id":"cebpf4jnsgd1na2vs0mg"},{"bike_id":"f39a9551-cdb5-459a-997a-57b76880a5a5","system_id":"levelo_inurba_marseille","lat":43.27827,"lon":5.3921,"is_reserved":false,"is_disabled":true,"rental_uris":{"android":"levelo://app?vid=f39a9551-cdb5-459a-997a-57b76880a5a5","ios":"levelo://app?vid=f39a9551-cdb5-459a-997a-57b76880a5a5"},"vehicle_type_id":"4","last_reported":1742192056,"current_range_meters":14800,"station_id":"ce4bhjp2rcd13ifvqga0","pricing_plan_id":"cebpf4jnsgd1na2vs0mg"},{"bike_id":"493245d2-5b57-48a5-904f-c9d1657dd165","system_id":"levelo_inurba_marseille","lat":43.2873,"lon":5.36086,"is_reserved":false,"is_disabled":false,"rental_uris":{"android":"levelo://app?vid=493245d2-5b57-48a5-904f-c9d1657dd165","ios":"levelo://app?vid=493245d2-5b57-48a5-904f-c9d1657dd165"},"vehicle_type_id":"4","last_reported":1742192056,"current_range_meters":15200,"station_id":"cki0cbj6b192h4jlfktg","pricing_plan_id":"cebpf4jnsgd1na2vs0mg"},{"bike_id":"63d40b2b-3511-429c-a294-29d305f6c8a2","system_id":"levelo_inurba_marseille","lat":43.25683,"lon":5.41107,"is_reserved":false,"is_disabled":false,"rental_uris":{"android":"levelo://app?vid=63d40b2b-3511-429c-a294-29d305f6c8a2","ios":"levelo://app?vid=63d40b2b-3511-429c-a294-29d305f6c8a2"},"vehicle_type_id":"4","last_reported":1742192056,"current_range_meters":14800,"station_id":"ce4bhkp2rcd13ifvqgd0","pricing_plan_id":"cebpf4jnsgd1na2vs0mg"},{"bike_id":"cabd52bd-50db-4e11-8830-bdda486c0bac","system_id":"levelo_inurba_marseille","lat":43.26182,"lon":5.42076,"is_reserved":false,"is_disabled":false,"rental_uris":{"android":"levelo://app?vid=cabd52bd-50db-4e11-8830-bdda486c0bac","ios":"levelo://app?vid=cabd52bd-50db-4e11-8830-bdda486c0bac"},"vehicle_type_id":"4","last_reported":1742192056,"current_range_meters":15200,"station_id":"","pricing_plan_id":"cebpf4jnsgd1na2vs0mg"},{"bike_id":"6e193a03-0e16-4a77-98bc-c467932cc93f","system_id":"levelo_inurba_marseille","lat":43.28102,"lon":5.39856,"is_reserved":false,"is_disabled":false,"rental_uris":{"android":"levelo://app?vid=6e193a03-0e16-4a77-98bc-c467932cc93f","ios":"levelo://app?vid=6e193a03-0e16-4a77-98bc-c467932cc93f"},"vehicle_type_id":"4","last_reported":1742192056,"current_range_meters":15200,"station_id":"","pricing_plan_id":"cebpf4jnsgd1na2vs0mg"},{"bike_id":"d0f7230d-0eef-4b0d-acb8-0fff4b849ea6","system_id":"levelo_inurba_marseille","lat":43.28599,"lon":5.37075,"is_reserved":false,"is_disabled":false,"rental_uris":{"android":"levelo://app?vid=d0f7230d-0eef-4b0d-acb8-0fff4b849ea6","ios":"levelo://app?vid=d0f7230d-0eef-4b0d-acb8-0fff4b849ea6"},"vehicle_type_id":"4","last_reported":1742192056,"current_range_meters":15200,"station_id":"ce4bht12rcd13ifvqi60","pricing_plan_id":"cebpf4jnsgd1na2vs0mg"},{"bike_id":"c4cdbc81-7916-4b9a-b37b-9124d46cbc3f","system_id":"levelo_inurba_marseille","lat":43.30638,"lon":5.40107,"is_reserved":false,"is_disabled":false,"rental_uris":{"android":"levelo://app?vid=c4cdbc81-7916-4b9a-b37b-9124d46cbc3f","ios":"levelo://app?vid=c4cdbc81-7916-4b9a-b37b-9124d46cbc3f"},"vehicle_type_id":"4","last_reported":1742192056,"current_range_meters":15200,"station_id":"ce4bh112rcd13ifvqda0","pricing_plan_id":"cebpf4jnsgd1na2vs0mg"},