{"last_updated":1691255080,"ttl":30,"version":"2.2","data":{"bikes":[{"bike_id":"3f9f44c5-19b8-4b87-b198-0c2a0309261b","system_id":"levelo_inurba_marseille","lat":43.313391,"lon":5.36706,"is_reserved":false,"is_disabled":false,"rental_uris":{"android":"levelo://app?vid=3f9f44c5-19b8-4b87-b198-0c2a0309261b","ios":"levelo://app?vid=3f9f44c5-19b8-4b87-b198-0c2a0309261b"},"vehicle_type_id":"4","last_reported":1691255080,"current_range_meters":31600,"station_id":"ce4bgr92rcd13ifvqc6g","pricing_plan_id":"free"},{"bike_id":"964bd1ad-3b74-4968-adaf-519aedac0048","system_id":"levelo_inurba_marseille","lat":43.313391,"lon":5.36706,"is_reserved":false,"is_disabled":false,"rental_uris":{"android":"levelo://app?vid=964bd1ad-3b74-4968-adaf-519aedac0048","ios":"levelo://app?vid=964bd1ad-3b74-4968-adaf-519aedac0048"},"vehicle_type_id":"4","last_reported":1691255080,"current_range_meters":9200,"station_id":"ce4bgr92rcd13ifvqc6g","pricing_plan_id":"free"},{"bike_id":"6c412908-0044-4e9d-87e6-decbc7c1924a","system_id":"levelo_inurba_marseille","lat":43.312239,"lon":5.368562,"is_reserved":false,"is_disabled":false,"rental_uris":{"android":"levelo://app?vid=6c412908-0044-4e9d-87e6-decbc7c1924a","ios":"levelo://app?vid=6c412908-0044-4e9d-87e6-decbc7c1924a"},"vehicle_type_id":"4","last_reported":1691255080,"current_range_meters":30400,"station_id":"ce4bgl92rcd13ifvqbq0","pricing_plan_id":"free"},{"bike_id":"6763e042-4875-482c-bd25-c619a3e0d378","system_id":"levelo_inurba_marseille","lat":43.312239,"lon":5.368562,"is_reserved":false,"is_disabled":false,"rental_uris":{"android":"levelo://app?vid=6763e042-4875-482c-bd25-c619a3e0d378","ios":"levelo://app?vid=6763e042-4875-482c-bd25-c619a3e0d378"},"vehicle_type_id":"4","last_reported":1691255080,"current_range_meters":28800,"station_id":"ce4bgl92rcd13ifvqbq0","pricing_plan_id":"free"},{"bike_id":"f685fa6b-7958-45bb-a915-857e03c8a246","system_id":"levelo_inurba_marseille","lat":43.312239,"lon":5.368562,"is_reserved":false,"is_disabled":false,"rental_uris":{"android":"levelo://app?vid=f685fa6b-7958-45bb-a915-857e03c8a246","ios":"levelo://app?vid=f685fa6b-7958-45bb-a915-857e03c8a246"},"vehicle_type_id":"4","last_reported":1691255080,"current_range_meters":30000,"station_id":"ce4bgl92rcd13ifvqbq0","pricing_plan_id":"free"},{"bike_id":"20129286-b3d7-459b-92ef-a02b46297ed6","system_id":"levelo_inurba_marseille","lat":43.31232,"lon":5.36859,"is_reserved":false,"is_disabled":false,"rental_uris":{"android":"levelo://app?vid=20129286-b3d7-459b-92ef-a02b46297ed6","ios":"levelo://app?vid=20129286-b3d7-459b-92ef-a02b46297ed6"},"vehicle_type_id":"4","last_reported":1691255080,"current_range_meters":18000,"station_id":"ce4bgl92rcd13ifvqbq0","pricing_plan_id":"free"},{"bike_id":"b89b596b-28a7-48e8-8a21-e6acfb074156","system_id":"levelo_inurba_marseille","lat":43.31224,"lon":5.36869,"is_reserved":false,"is_disabled":false,"rental_uris":{"android":"levelo://app?vid=b89b596b-28a7-48e8-8a21-e6acfb074156","ios":"levelo://app?vid=b89b596b-28a7-48e8-8a21-e6acfb074156"},"vehicle_type_id":"4","last_reported":1691255080,"current_range_meters":11200,"station_id":"ce4bgl92rcd13ifvqbq0","pricing_plan_id":"free"},{"bike_id":"79c42ce6-52c9-48b8-a5aa-59e72c594458","system_id":"levelo_inurba_marseille","lat":43.31487,"lon":5.37303,"is_reserved":false,"is_disabled":false,"rental_uris":{"android":"levelo://app?vid=79c42ce6-52c9-48b8-a5aa-59e72c594458","ios":"levelo://app?vid=79c42ce6-52c9-48b8-a5aa-59e72c594458"},"vehicle_type_id":"4","last_reported":1691255080,"current_range_meters":30400,"station_id":"ce4bgt12rcd13ifvqcd0","pricing_plan_id":"free"},{"bike_id":"1c13d891-21d9-41b2-92da-7a15ad627ce6","system_id":"levelo_inurba_marseille","lat":43.31485,"lon":5.37307,"is_reserved":false,"is_disabled":false,"rental_uris":{"android":"levelo://app?vid=1c13d891-21d9-41b2-92da-7a15ad627ce6","ios":"levelo://app?vid=1c13d891-21d9-41b2-92da-7a15ad627ce6"},"vehicle_type_id":"4","last_reported":1691255080,"current_range_meters":24000,"station_id":"ce4bgt12rcd13ifvqcd0","pricing_plan_id":"free"},{"bike_id":"19c46335-3474-43ec-8b74-5241e717c692","system_id":"levelo_inurba_marseille","lat":43.314811,"lon":5.373103,"is_reserved":false,"is_disabled":false,"rental_uris":{"android":"levelo://app?vid=19c46335-3474-43ec-8b74-5241e717c692","ios":"levelo://app?vid=19c46335-3474-43ec-8b74-5241e717c692"},"vehicle_type_id":"4","last_reported":1691255080,"current_range_meters":22000,"station_id":"ce4bgt12rcd13ifvqcd0","pricing_plan_id":"free"},{"bike_id":"fe2ea216-37f7-4f9b-809a-1b65573fd70c","system_id":"levelo_inurba_marseille","lat":43.314811,"lon":5.373103,"is_reserved":false,"is_disabled":false,"rental_uris":{"android":"levelo://app?vid=fe2ea216-37f7-4f9b-809a-1b65573fd70c","ios":"levelo://app?vid=fe2ea216-37f7-4f9b-809a-1b65573fd70c"},"vehicle_type_id":"4","last_reported":1691255080,"current_range_meters":21200,"station_id":"ce4bgt12rcd13ifvqcd0","pricing_plan_id":"free"},{"bike_id":"84c2a162-559a-4aef-854b-45ee046c39c1","system_id":"levelo_inurba_marseille","lat":43.314811,"lon":5.373104,"is_reserved":false,"is_disabled":false,"rental_uris":{"android":"levelo://app?vid=84c2a162-559a-4aef-854b-45ee046c39c1","ios":"levelo://app?vid=84c2a162-559a-4aef-854b-45ee046c39c1"},"vehicle_type_id":"4","last_reported":1691255080,"current_range_meters":31200,"station_id":"ce4bgt12rcd13ifvqcd0","pricing_plan_id":"free"},{"bike_id":"272591e7-b4f8-45cf-bfcc-93c2daea1e43","system_id":"levelo_inurba_marseille","lat":43.314811,"lon":5.373103,"is_reserved":false,"is_disabled":false,"rental_uris":{"android":"levelo://app?vid=272591e7-b4f8-45cf-bfcc-93c2daea1e43","ios":"levelo://app?vid=272591e7-b4f8-45cf-bfcc-93c2daea1e43"},"vehicle_type_id":"4","last_reported":1691255080,"current_range_meters":13200,"station_id":"ce4bgt12rcd13ifvqcd0","pricing_plan_id":"free"},{"bike_id":"7cfb81a3-fd7f-41d1-987d-c1037b7c6b4a","system_id":"levelo_inurba_marseille","lat":43.31415,"lon":5.37435,"is_reserved":false,"is_disabled":false,"rental_uris":{"android":"levelo://app?vid=7cfb81a3-fd7f-41d1-987d-c1037b7c6b4a","ios":"levelo://app?vid=7cfb81a3-fd7f-41d1-987d-c1037b7c6b4a"},"vehicle_type_id":"4","last_reported":1691255080,"current_range_meters":12400,"station_id":"","pricing_plan_id":"free"},{"bike_id":"f20ea888-8740-440b-bfeb-8eb2a7c1f652","system_id":"levelo_inurba_marseille","lat":43.305989,"lon":5.37225,"is_reserved":false,"is_disabled":false,"rental_uris":{"android":"levelo://app?vid=f20ea888-8740-440b-bfeb-8eb2a7c1f652","ios":"levelo://app?vid=f20ea888-8740-440b-bfeb-8eb2a7c1f652"},"vehicle_type_id":"4","last_reported":1691255080,"current_range_meters":31200,"station_id":"ce4bgqh2rcd13ifvqc4g","pricing_plan_id":"free"},{"bike_id":"41df7a79-2498-4acc-8a99-45ae9271232f","system_id":"levelo_inurba_marseille","lat":43.305989,"lon":5.37225,"is_reserved":false,"is_disabled":false,"rental_uris":{"android":"levelo://app?vid=41df7a79-2498-4acc-8a99-45ae9271232f","ios":"levelo://app?vid=41df7a79-2498-4acc-8a99-45ae9271232f"},"vehicle_type_id":"4","last_reported":1691255080,"current_range_meters":9200,"station_id":"ce4bgqh2rcd13ifvqc4g","pricing_plan_id":"free"},{"bike_id":"ad72c232-31b3-4beb-b31b-7dd19196ad7c","system_id":"levelo_inurba_marseille","lat":43.305989,"lon":5.37225,"is_reserved":false,"is_disabled":false,"rental_uris":{"android":"levelo://app?vid=ad72c232-31b3-4beb-b31b-7dd19196ad7c","ios":"levelo://app?vid=ad72c232-31b3-4beb-b31b-7dd19196ad7c"},"vehicle_type_id":"4","last_reported":1691255080,"current_range_meters":5600,"station_id":"ce4bgqh2rcd13ifvqc4g","pricing_plan_id":"free"},{"bike_id":"feb399b5-2817-4b32-8ab4-fc09e0682c77","system_id":"levelo_inurba_marseille","lat":43.307945,"lon":5.376487,"is_reserved":false,"is_disabled":false,"rental_uris":{"android":"levelo://app?vid=feb399b5-2817-4b32-8ab4-fc09e0682c77","ios":"levelo://app?vid=feb399b5-2817-4b32-8ab4-fc09e0682c77"},"vehicle_type_id":"4","last_reported":1691255080,"current_range_meters":15200,"station_id":"ce4bgv92rcd13ifvqcq0","pricing_plan_id":"free"},{"bike_id":"0c1cd1aa-9b67-46a9-90d9-f542ff852f83","system_id":"levelo_inurba_marseille","lat":43.301939,"lon":5.366286,"is_reserved":false,"is_disabled":false,"rental_uris":{"android":"levelo://app?vid=0c1cd1aa-9b67-46a9-90d9-f542ff852f83","ios":"levelo://app?vid=0c1cd1aa-9b67-46a9-90d9-f542ff852f83"},"vehicle_type_id":"4","last_reported":1691255080,"current_range_meters":31600,"station_id":"ce4bgrh2rcd13ifvqc8g","pricing_plan_id":"free"},{"bike_id":"44eafa4b-2ea6-4892-b46f-8ceb27932b05","system_id":"levelo_inurba_marseille","lat":43.302784,"lon":5.377158,"is_reserved":false,"is_disabled":false,"rental_uris":{"android":"levelo://app?vid=44eafa4b-2ea6-4892-b46f-8ceb27932b05","ios":"levelo://app?vid=44eafa4b-2ea6-4892-b46f-8ceb27932b05"},"vehicle_type_id":"4","last_reported":1691255080,"current_range_meters":31600,"station_id":"ce4bguh2rcd13ifvqcj0","pricing_plan_id":"free"},{"bike_id":"1dd5f8d6-0436-44ff-9ecc-0ac6e643a123","system_id":"levelo_inurba_marseille","lat":43.301421,"lon":5.374229,"is_reserved":false,"is_disabled":false,"rental_uris":{"android":"levelo://app?vid=1dd5f8d6-0436-44ff-9ecc-0ac6e643a123","ios":"levelo://app?vid=1dd5f8d6-0436-44ff-9ecc-0ac6e643a123"},"vehicle_type_id":"4","last_reported":1691255080,"current_range_meters":18800,"station_id":"ce4bgs92rcd13ifvqcc0","pricing_plan_id":"free"},{"bike_id":"2ee7e6f7-6cae-45ec-99ff-b4f2ad9ee201","system_id":"levelo_inurba_marseille","lat":43.313571,"lon":5.384829,"is_reserved":false,"is_disabled":false,"rental_uris":{"android":"levelo://app?vid=2ee7e6f7-6cae-45ec-99ff-b4f2ad9ee201","ios":"levelo://app?vid=2ee7e6f7-6cae-45ec-99ff-b4f2ad9ee201"},"vehicle_type_id":"4","last_reported":1691255080,"current_range_meters":6000,"station_id":"ce4bgt92rcd13ifvqcf0","pricing_plan_id":"free"},{"bike_id":"3cb7fd70-121e-4eb5-9a01-ecc8718aa1bb","system_id":"levelo_inurba_marseille","lat":43.29935,"lon":5.36532,"is_reserved":false,"is_disabled":false,"rental_uris":{"android":"levelo://app?vid=3cb7fd70-121e-4eb5-9a01-ecc8718aa1bb","ios":"levelo://app?vid=3cb7fd70-121e-4eb5-9a01-ecc8718aa1bb"},"vehicle_type_id":"4","last_reported":1691255080,"current_range_meters":28800,"station_id":"ce4bgm92rcd13ifvqbr0","pricing_plan_id":"free"},{"bike_id":"30537d43-af02-4a10-b928-7b9b8cf633d2","system_id":"levelo_inurba_marseille","lat":43.30533,"lon":5.38411,"is_reserved":false,"is_disabled":false,"rental_uris":{"android":"levelo://app?vid=30537d43-af02-4a10-b928-7b9b8cf633d2","ios":"levelo://app?vid=30537d43-af02-4a10-b928-7b9b8cf633d2"},"vehicle_type_id":"4","last_reported":1691255080,"current_range_meters":29600,"station_id":"ce4bgg92rcd13ifvqb30","pricing_plan_id":"free"},{"bike_id":"15176f29-696e-4882-aa8f-55cd30d477cf","system_id":"levelo_inurba_marseille","lat":43.298433,"lon":5.362774,"is_reserved":false,"is_disabled":false,"rental_uris":{"android":"levelo://app?vid=15176f29-696e-4882-aa8f-55cd30d477cf","ios":"levelo://app?vid=15176f29-696e-4882-aa8f-55cd30d477cf"},"vehicle_type_id":"4","last_reported":1691255080,"current_range_meters":22400,"station_id":"ce4bgpp2rcd13ifvqc3g","pricing_plan_id":"free"},{"bike_id":"3709f9b9-8236-43c5-98cb-51c5f455d0cb","system_id":"levelo_inurba_marseille","lat":43.29848,"lon":5.36282,"is_reserved":false,"is_disabled":false,"rental_uris":{"android":"levelo://app?vid=3709f9b9-8236-43c5-98cb-51c5f455d0cb","ios":"levelo://app?vid=3709f9b9-8236-43c5-98cb-51c5f455d0cb"},"vehicle_type_id":"4","last_reported":1691255080,"current_range_meters":2400,"station_id":"ce4bgpp2rcd13ifvqc3g","pricing_plan_id":"free"},{"bike_id":"4616936f-694a-4be1-bddd-3f8c65ef7af4","system_id":"levelo_inurba_marseille","lat":43.298433,"lon":5.362774,"is_reserved":false,"is_disabled":false,"rental_uris":{"android":"levelo://app?vid=4616936f-694a-4be1-bddd-3f8c65ef7af4","ios":"levelo://app?vid=4616936f-694a-4be1-bddd-3f8c65ef7af4"},"vehicle_type_id":"4","last_reported":1691255080,"current_range_meters":0,"station_id":"ce4bgpp2rcd13ifvqc3g","pricing_plan_id":"free"},{"bike_id":"68fcd7fe-0edf-414e-9d55-9036ff1d4483","system_id":"levelo_inurba_marseille","lat":43.31168,"lon":5.38712,"is_reserved":false,"is_disabled":false,"rental_uris":{"android":"levelo://app?vid=68fcd7fe-0edf-414e-9d55-9036ff1d4483","ios":"levelo://app?vid=68fcd7fe-0edf-414e-9d55-9036ff1d4483"},"vehicle_type_id":"4","last_reported":1691255080,"current_range_meters":12000,"station_id":"ce4bgv12rcd13ifvqcp0","pricing_plan_id":"free"},{"bike_id":"8adc8fcd-c371-472f-9a1f-299dde5e3bda","system_id":"levelo_inurba_marseille","lat":43.31165,"lon":5.38717,"is_reserved":false,"is_disabled":false,"rental_uris":{"android":"levelo://app?vid=8adc8fcd-c371-472f-9a1f-299dde5e3bda","ios":"levelo://app?vid=8adc8fcd-c371-472f-9a1f-299dde5e3bda"},"vehicle_type_id":"4","last_reported":1691255080,"current_range_meters":22000,"station_id":"ce4bgv12rcd13ifvqcp0","pricing_plan_id":"free"},{"bike_id":"c2ebcd1c-e026-426e-b47e-2f2475fd04e8","system_id":"levelo_inurba_marseille","lat":43.297794,"lon":5.370888,"is_reserved":false,"is_disabled":false,"rental_uris":{"android":"levelo://app?vid=c2ebcd1c-e026-426e-b47e-2f2475fd04e8","ios":"levelo://app?vid=c2ebcd1c-e026-426e-b47e-2f2475fd04e8"},"vehicle_type_id":"4","last_reported":1691255080,"current_range_meters":6000,"station_id":"ce4bgop2rcd13ifvqc1g","pricing_plan_id":"free"},{"bike_id":"4711f823-9a36-491d-a201-28215b8e5924","system_id":"levelo_inurba_marseille","lat":43.32289,"lon":5.38262,"is_reserved":false,"is_disabled":false,"rental_uris":{"android":"levelo://app?vid=4711f823-9a36-491d-a201-28215b8e5924","ios":"levelo://app?vid=4711f823-9a36-491d-a201-28215b8e5924"},"vehicle_type_id":"4","last_reported":1691255080,"current_range_meters":16400,"station_id":"ce4bhr12rcd13ifvqhqg","pricing_plan_id":"free"},{"bike_id":"3235488a-5abe-4f27-a56a-50e7b9989127","system_id":"levelo_inurba_marseille","lat":43.32287,"lon":5.38266,"is_reserved":false,"is_disabled":false,"rental_uris":{"android":"levelo://app?vid=3235488a-5abe-4f27-a56a-50e7b9989127","ios":"levelo://app?vid=3235488a-5abe-4f27-a56a-50e7b9989127"},"vehicle_type_id":"4","last_reported":1691255080,"current_range_meters":30800,"station_id":"ce4bhr12rcd13ifvqhqg","pricing_plan_id":"free"},{"bike_id":"0963bae3-5b20-4e80-bff4-aafb7af6f51f","system_id":"levelo_inurba_marseille","lat":43.32822,"lon":5.36685,"is_reserved":false,"is_disabled":false,"rental_uris":{"android":"levelo://app?vid=0963bae3-5b20-4e80-bff4-aafb7af6f51f","ios":"levelo://app?vid=0963bae3-5b20-4e80-bff4-aafb7af6f51f"},"vehicle_type_id":"4","last_reported":1691255080,"current_range_meters":11600,"station_id":"ce4bhs92rcd13ifvqi0g","pricing_plan_id":"free"},{"bike_id":"268db224-141b-439d-90ff-927b3c861c0e","system_id":"levelo_inurba_marseille","lat":43.32823,"lon":5.3669,"is_reserved":false,"is_disabled":false,"rental_uris":{"android":"levelo://app?vid=268db224-141b-439d-90ff-927b3c861c0e","ios":"levelo://app?vid=268db224-141b-439d-90ff-927b3c861c0e"},"vehicle_type_id":"4","last_reported":1691255080,"current_range_meters":9200,"station_id":"ce4bhs92rcd13ifvqi0g","pricing_plan_id":"free"},{"bike_id":"b817d5ed-7bfc-4b4f-ab91-d197cc36525d","system_id":"levelo_inurba_marseille","lat":43.328371,"lon":5.366909,"is_reserved":false,"is_disabled":false,"rental_uris":{"android":"levelo://app?vid=b817d5ed-7bfc-4b4f-ab91-d197cc36525d","ios":"levelo://app?vid=b817d5ed-7bfc-4b4f-ab91-d197cc36525d"},"vehicle_type_id":"4","last_reported":1691255080,"current_range_meters":28000,"station_id":"ce4bhs92rcd13ifvqi0g","pricing_plan_id":"free"},{"bike_id":"1978f8e7-0ba9-4d32-8a0a-3849b4985817","system_id":"levelo_inurba_marseille","lat":43.328371,"lon":5.366909,"is_reserved":false,"is_disabled":false,"rental_uris":{"android":"levelo://app?vid=1978f8e7-0ba9-4d32-8a0a-3849b4985817","ios":"levelo://app?vid=1978f8e7-0ba9-4d32-8a0a-3849b4985817"},"vehicle_type_id":"4","last_reported":1691255080,"current_range_meters":9200,"station_id":"ce4bhs92rcd13ifvqi0g","pricing_plan_id":"free"},{"bike_id":"8ae2a292-4b68-4114-8267-e4d284ceb76e","system_id":"levelo_inurba_marseille","lat":43.32825,"lon":5.36677,"is_reserved":false,"is_disabled":false,"rental_uris":{"android":"levelo://app?vid=8ae2a292-4b68-4114-8267-e4d284ceb76e","ios":"levelo://app?vid=8ae2a292-4b68-4114-8267-e4d284ceb76e"},"vehicle_type_id":"4","last_reported":1691255080,"current_range_meters":22400,"station_id":"ce4bhs92rcd13ifvqi0g","pricing_plan_id":"free"},{"bike_id":"70df08ad-aacf-44be-9921-61b46d710b54","system_id":"levelo_inurba_marseille","lat":43.328371,"lon":5.366909,"is_reserved":false,"is_disabled":false,"rental_uris":{"android":"levelo://app?vid=70df08ad-aacf-44be-9921-61b46d710b54","ios":"levelo://app?vid=70df08ad-aacf-44be-9921-61b46d710b54"},"vehicle_type_id":"4","last_reported":1691255080,"current_range_meters":28800,"station_id":"ce4bhs92rcd13ifvqi0g","pricing_plan_id":"free"},{"bike_id":"bfcdc805-c177-4202-89f2-5e9744440523","system_id":"levelo_inurba_marseille","lat":43.3283,"lon":5.36673,"is_reserved":false,"is_disabled":false,"rental_uris":{"android":"levelo://app?vid=bfcdc805-c177-4202-89f2-5e9744440523","ios":"levelo://app?vid=bfcdc805-c177-4202-89f2-5e9744440523"},"vehicle_type_id":"4","last_reported":1691255080,"current_range_meters":30800,"station_id":"ce4bhs92rcd13ifvqi0g","pricing_plan_id":"free"},{"bike_id":"21123ab0-af94-4861-a373-dcbcf04105b5","system_id":"levelo_inurba_marseille","lat":43.32832,"lon":5.36683,"is_reserved":false,"is_disabled":false,"rental_uris":{"android":"levelo://app?vid=21123ab0-af94-4861-a373-dcbcf04105b5","ios":"levelo://app?vid=21123ab0-af94-4861-a373-dcbcf04105b5"},"vehicle_type_id":"4","last_reported":1691255080,"current_range_meters":30800,"station_id":"ce4bhs92rcd13ifvqi0g","pricing_plan_id":"free"},{"bike_id":"dc0d3889-70c4-4dba-8f83-071e4628efeb","system_id":"levelo_inurba_marseille","lat":43.32832,"lon":5.36682,"is_reserved":false,"is_disabled":false,"rental_uris":{"android":"levelo://app?vid=dc0d3889-70c4-4dba-8f83-071e4628efeb","ios":"levelo://app?vid=dc0d3889-70c4-4dba-8f83-071e4628efeb"},"vehicle_type_id":"4","last_reported":1691255080,"current_range_meters":30800,"station_id":"ce4bhs92rcd13ifvqi0g","pricing_plan_id":"free"},{"bike_id":"925d80fe-dd88-4a52-a938-71d3f7293e55","system_id":"levelo_inurba_marseille","lat":43.32833,"lon":5.3668,"is_reserved":false,"is_disabled":false,"rental_uris":{"android":"levelo://app?vid=925d80fe-dd88-4a52-a938-71d3f7293e55","ios":"levelo://app?vid=925d80fe-dd88-4a52-a938-71d3f7293e55"},"vehicle_type_id":"4","last_reported":1691255080,"current_range_meters":14000,"station_id":"ce4bhs92rcd13ifvqi0g","pricing_plan_id":"free"},{"bike_id":"dd789220-e7b5-42c1-b9dc-dc4243148021","system_id":"levelo_inurba_marseille","lat":43.297163,"lon":5.365866,"is_reserved":false,"is_disabled":false,"rental_uris":{"android":"levelo://app?vid=dd789220-e7b5-42c1-b9dc-dc4243148021","ios":"levelo://app?vid=dd789220-e7b5-42c1-b9dc-dc4243148021"},"vehicle_type_id":"4","last_reported":1691255080,"current_range_meters":31200,"station_id":"ce4bgn12rcd13ifvqbt0","pricing_plan_id":"free"},{"bike_id":"c16e3179-9d05-4202-ac2b-43c691cc153c","system_id":"levelo_inurba_marseille","lat":43.296131,"lon":5.370773,"is_reserved":false,"is_disabled":false,"rental_uris":{"android":"levelo://app?vid=c16e3179-9d05-4202-ac2b-43c691cc153c","ios":"levelo://app?vid=c16e3179-9d05-4202-ac2b-43c691cc153c"},"vehicle_type_id":"4","last_reported":1691255080,"current_range_meters":20400,"station_id":"ce4bgnh2rcd13ifvqc0g","pricing_plan_id":"free"},{"bike_id":"b057068a-4b3f-4ea4-972d-7a13f216c7ef","system_id":"levelo_inurba_marseille","lat":43.296131,"lon":5.370773,"is_reserved":false,"is_disabled":false,"rental_uris":{"android":"levelo://app?vid=b057068a-4b3f-4ea4-972d-7a13f216c7ef","ios":"levelo://app?vid=b057068a-4b3f-4ea4-972d-7a13f216c7ef"},"vehicle_type_id":"4","last_reported":1691255080,"current_range_meters":31200,"station_id":"ce4bgnh2rcd13ifvqc0g","pricing_plan_id":"free"},{"bike_id":"1f223722-190b-48e5-baab-4ef73bb8fdde","system_id":"levelo_inurba_marseille","lat":43.30947,"lon":5.39036,"is_reserved":false,"is_disabled":false,"rental_uris":{"android":"levelo://app?vid=1f223722-190b-48e5-baab-4ef73bb8fdde","ios":"levelo://app?vid=1f223722-190b-48e5-baab-4ef73bb8fdde"},"vehicle_type_id":"4","last_reported":1691255080,"current_range_meters":18000,"station_id":"ce4bgup2rcd13ifvqco0","pricing_plan_id":"free"},{"bike_id":"f0b1921d-8fc5-42f6-8214-26455e772ce5","system_id":"levelo_inurba_marseille","lat":43.309589,"lon":5.390258,"is_reserved":false,"is_disabled":false,"rental_uris":{"android":"levelo://app?vid=f0b1921d-8fc5-42f6-8214-26455e772ce5","ios":"levelo://app?vid=f0b1921d-8fc5-42f6-8214-26455e772ce5"},"vehicle_type_id":"4","last_reported":1691255080,"current_range_meters":25600,"station_id":"ce4bgup2rcd13ifvqco0","pricing_plan_id":"free"},{"bike_id":"fa6bc584-cf09-4409-9009-8eb9b42b181d","system_id":"levelo_inurba_marseille","lat":43.317557,"lon":5.390173,"is_reserved":false,"is_disabled":false,"rental_uris":{"android":"levelo://app?vid=fa6bc584-cf09-4409-9009-8eb9b42b181d","ios":"levelo://app?vid=fa6bc584-cf09-4409-9009-8eb9b42b181d"},"vehicle_type_id":"4","last_reported":1691255080,"current_range_meters":13200,"station_id":"ce4bhqp2rcd13ifvqhng","pricing_plan_id":"free"},{"bike_id":"ffe83563-fe7b-4abd-90a1-b737e09347c0","system_id":"levelo_inurba_marseille","lat":43.317557,"lon":5.390173,"is_reserved":false,"is_disabled":false,"rental_uris":{"android":"levelo://app?vid=ffe83563-fe7b-4abd-90a1-b737e09347c0","ios":"levelo://app?vid=ffe83563-fe7b-4abd-90a1-b737e09347c0"},"vehicle_type_id":"4","last_reported":1691255080,"current_range_meters":31600,"station_id":"ce4bhqp2rcd13ifvqhng","pricing_plan_id":"free"},{"bike_id":"90569ba5-8bb9-4d2d-b876-dc35e42f9a0c","system_id":"levelo_inurba_marseille","lat":43.317557,"lon":5.390173,"is_reserved":false,"is_disabled":false,"rental_uris":{"android":"levelo://app?vid=90569ba5-8bb9-4d2d-b876-dc35e42f9a0c","ios":"levelo://app?vid=90569ba5-8bb9-4d2d-b876-dc35e42f9a0c"},"vehicle_type_id":"4","last_reported":1691255080,"current_range_meters":32000,"station_id":"ce4bhqp2rcd13ifvqhng","pricing_plan_id":"free"},{"bike_id":"37440da6-a52c-4d8b-bad8-8479cc4c329c","system_id":"levelo_inurba_marseille","lat":43.317557,"lon":5.390173,"is_reserved":false,"is_disabled":false,"rental_uris":{"android":"levelo://app?vid=37440da6-a52c-4d8b-bad8-8479cc4c329c","ios":"levelo://app?vid=37440da6-a52c-4d8b-bad8-8479cc4c329c"},"vehicle_type_id":"4","last_reported":1691255080,"current_range_meters":30000,"station_id":"ce4bhqp2rcd13ifvqhng","pricing_plan_id":"free"},{"bike_id":"c070a522-6c17-4333-a9ee-bbef4dc643ed","system_id":"levelo_inurba_marseille","lat":43.317557,"lon":5.390173,"is_reserved":false,"is_disabled":false,"rental_uris":{"android":"levelo://app?vid=c070a522-6c17-4333-a9ee-bbef4dc643ed","ios":"levelo://app?vid=c070a522-6c17-4333-a9ee-bbef4dc643ed"},"vehicle_type_id":"4","last_reported":1691255080,"current_range_meters":31200,"station_id":"ce4bhqp2rcd13ifvqhng","pricing_plan_id":"free"},{"bike_id":"33289ce5-1059-4419-aac6-0b635209ed94","system_id":"levelo_inurba_marseille","lat":43.317557,"lon":5.390173,"is_reserved":false,"is_disabled":false,"rental_uris":{"android":"levelo://app?vid=33289ce5-1059-4419-aac6-0b635209ed94","ios":"levelo://app?vid=33289ce5-1059-4419-aac6-0b635209ed94"},"vehicle_type_id":"4","last_reported":1691255080,"current_range_meters":22000,"station_id":"ce4bhqp2rcd13ifvqhng","pricing_plan_id":"free"},{"bike_id":"ea01d5ca-46b8-4e12-9d73-863370000a06","system_id":"levelo_inurba_marseille","lat":43.317557,"lon":5.390173,"is_reserved":false,"is_disabled":false,"rental_uris":{"android":"levelo://app?vid=ea01d5ca-46b8-4e12-9d73-863370000a06","ios":"levelo://app?vid=ea01d5ca-46b8-4e12-9d73-863370000a06"},"vehicle_type_id":"4","last_reported":1691255080,"current_range_meters":32000,"station_id":"ce4bhqp2rcd13ifvqhng","pricing_plan_id":"free"},{"bike_id":"4879b09e-5533-49cc-808c-be115b214b19","system_id":"levelo_inurba_marseille","lat":43.317557,"lon":5.390173,"is_reserved":false,"is_disabled":false,"rental_uris":{"android":"levelo://app?vid=4879b09e-5533-49cc-808c-be115b214b19","ios":"levelo://app?vid=4879b09e-5533-49cc-808c-be115b214b19"},"vehicle_type_id":"4","last_reported":1691255080,"current_range_meters":31200,"station_id":"ce4bhqp2rcd13ifvqhng","pricing_plan_id":"free"},{"bike_id":"fb5d1b63-b2f2-4d34-b700-b062bf6b4e69","system_id":"levelo_inurba_marseille","lat":43.317557,"lon":5.390173,"is_reserved":false,"is_disabled":false,"rental_uris":{"android":"levelo://app?vid=fb5d1b63-b2f2-4d34-b700-b062bf6b4e69","ios":"levelo://app?vid=fb5d1b63-b2f2-4d34-b700-b062bf6b4e69"},"vehicle_type_id":"4","last_reported":1691255080,"current_range_meters":31200,"station_id":"ce4bhqp2rcd13ifvqhng","pricing_plan_id":"free"},{"bike_id":"a4df99ce-0488-49dd-a888-94686f562e88","system_id":"levelo_inurba_marseille","lat":43.2957,"lon":5.37495,"is_reserved":false,"is_disabled":false,"rental_uris":{"android":"levelo://app?vid=a4df99ce-0488-49dd-a888-94686f562e88","ios":"levelo://app?vid=a4df99ce-0488-49dd-a888-94686f562e88"},"vehicle_type_id":"4","last_reported":1691255080,"current_range_meters":23600,"station_id":"ce4bgh92rcd13ifvqb50","pricing_plan_id":"free"},{"bike_id":"9862bb36-378c-416f-81c8-911f6a1436ac","system_id":"levelo_inurba_marseille","lat":43.295279,"lon":5.375048,"is_reserved":false,"is_disabled":false,"rental_uris":{"android":"levelo://app?vid=9862bb36-378c-416f-81c8-911f6a1436ac","ios":"levelo://app?vid=9862bb36-378c-416f-81c8-911f6a1436ac"},"vehicle_type_id":"4","last_reported":1691255080,"current_range_meters":14400,"station_id":"ce4bgkp2rcd13ifvqbmg","pricing_plan_id":"free"},{"bike_id":"6832570d-1757-4768-80a1-e0ceb1486dcb","system_id":"levelo_inurba_marseille","lat":43.299717,"lon":5.384845,"is_reserved":false,"is_disabled":false,"rental_uris":{"android":"levelo://app?vid=6832570d-1757-4768-80a1-e0ceb1486dcb","ios":"levelo://app?vid=6832570d-1757-4768-80a1-e0ceb1486dcb"},"vehicle_type_id":"4","last_reported":1691255080,"current_range_meters":22400,"station_id":"ce4bgj92rcd13ifvqbd0","pricing_plan_id":"free"},{"bike_id":"9f46f6cf-6086-46d3-b737-bc7cd1ad157e","system_id":"levelo_inurba_marseille","lat":43.299717,"lon":5.384845,"is_reserved":false,"is_disabled":false,"rental_uris":{"android":"levelo://app?vid=9f46f6cf-6086-46d3-b737-bc7cd1ad157e","ios":"levelo://app?vid=9f46f6cf-6086-46d3-b737-bc7cd1ad157e"},"vehicle_type_id":"4","last_reported":1691255080,"current_range_meters":25600,"station_id":"ce4bgj92rcd13ifvqbd0","pricing_plan_id":"free"},{"bike_id":"34ef5601-8765-4b80-bdc1-e9818152ffab","system_id":"levelo_inurba_marseille","lat":43.32367,"lon":5.388836,"is_reserved":false,"is_disabled":false,"rental_uris":{"android":"levelo://app?vid=34ef5601-8765-4b80-bdc1-e9818152ffab","ios":"levelo://app?vid=34ef5601-8765-4b80-bdc1-e9818152ffab"},"vehicle_type_id":"4","last_reported":1691255080,"current_range_meters":24400,"station_id":"ce4bhqp2rcd13ifvqhog","pricing_plan_id":"free"},{"bike_id":"51a94a8b-791c-4738-b220-ee8689f99230","system_id":"levelo_inurba_marseille","lat":43.32367,"lon":5.38873,"is_reserved":false,"is_disabled":false,"rental_uris":{"android":"levelo://app?vid=51a94a8b-791c-4738-b220-ee8689f99230","ios":"levelo://app?vid=51a94a8b-791c-4738-b220-ee8689f99230"},"vehicle_type_id":"4","last_reported":1691255080,"current_range_meters":1600,"station_id":"ce4bhqp2rcd13ifvqhog","pricing_plan_id":"free"},{"bike_id":"fbc3a92c-f948-48e9-a3fc-f0e8af1a9259","system_id":"levelo_inurba_marseille","lat":43.32364,"lon":5.38877,"is_reserved":false,"is_disabled":false,"rental_uris":{"android":"levelo://app?vid=fbc3a92c-f948-48e9-a3fc-f0e8af1a9259","ios":"levelo://app?vid=fbc3a92c-f948-48e9-a3fc-f0e8af1a9259"},"vehicle_type_id":"4","last_reported":1691255080,"current_range_meters":29600,"station_id":"ce4bhqp2rcd13ifvqhog","pricing_plan_id":"free"},{"bike_id":"31c4ebe8-2a4f-41b7-966a-7ad502ff3d8a","system_id":"levelo_inurba_marseille","lat":43.32367,"lon":5.388836,"is_reserved":false,"is_disabled":false,"rental_uris":{"android":"levelo://app?vid=31c4ebe8-2a4f-41b7-966a-7ad502ff3d8a","ios":"levelo://app?vid=31c4ebe8-2a4f-41b7-966a-7ad502ff3d8a"},"vehicle_type_id":"4","last_reported":1691255080,"current_range_meters":18800,"station_id":"ce4bhqp2rcd13ifvqhog","pricing_plan_id":"free"},{"bike_id":"5f1c231d-5549-420b-a974-1b1406435a60","system_id":"levelo_inurba_marseille","lat":43.32364,"lon":5.3888,"is_reserved":false,"is_disabled":false,"rental_uris":{"android":"levelo://app?vid=5f1c231d-5549-420b-a974-1b1406435a60","ios":"levelo://app?vid=5f1c231d-5549-420b-a974-1b1406435a60"},"vehicle_type_id":"4","last_reported":1691255080,"current_range_meters":20800,"station_id":"ce4bhqp2rcd13ifvqhog","pricing_plan_id":"free"},{"bike_id":"ed5b971a-2b8a-4f89-9487-7e8342d0b66b","system_id":"levelo_inurba_marseille","lat":43.32365,"lon":5.38882,"is_reserved":false,"is_disabled":false,"rental_uris":{"android":"levelo://app?vid=ed5b971a-2b8a-4f89-9487-7e8342d0b66b","ios":"levelo://app?vid=ed5b971a-2b8a-4f89-9487-7e8342d0b66b"},"vehicle_type_id":"4","last_reported":1691255080,"current_range_meters":20800,"station_id":"ce4bhqp2rcd13ifvqhog","pricing_plan_id":"free"},{"bike_id":"5bdf8c20-9c72-47ab-afc6-2b84567e0617","system_id":"levelo_inurba_marseille","lat":43.32364,"lon":5.38883,"is_reserved":false,"is_disabled":false,"rental_uris":{"android":"levelo://app?vid=5bdf8c20-9c72-47ab-afc6-2b84567e0617","ios":"levelo://app?vid=5bdf8c20-9c72-47ab-afc6-2b84567e0617"},"vehicle_type_id":"4","last_reported":1691255080,"current_range_meters":18800,"station_id":"ce4bhqp2rcd13ifvqhog","pricing_plan_id":"free"},{"bike_id":"153806a9-c106-4acb-8efe-f81ba29b58d3","system_id":"levelo_inurba_marseille","lat":43.32367,"lon":5.388836,"is_reserved":false,"is_disabled":false,"rental_uris":{"android":"levelo://app?vid=153806a9-c106-4acb-8efe-f81ba29b58d3","ios":"levelo://app?vid=153806a9-c106-4acb-8efe-f81ba29b58d3"},"vehicle_type_id":"4","last_reported":1691255080,"current_range_meters":23200,"station_id":"ce4bhqp2rcd13ifvqhog","pricing_plan_id":"free"},{"bike_id":"b47ca02a-40ba-4dc8-abeb-b1a2c4b62cd0","system_id":"levelo_inurba_marseille","lat":43.32364,"lon":5.38886,"is_reserved":false,"is_disabled":false,"rental_uris":{"android":"levelo://app?vid=b47ca02a-40ba-4dc8-abeb-b1a2c4b62cd0","ios":"levelo://app?vid=b47ca02a-40ba-4dc8-abeb-b1a2c4b62cd0"},"vehicle_type_id":"4","last_reported":1691255080,"current_range_meters":29200,"station_id":"ce4bhqp2rcd13ifvqhog","pricing_plan_id":"free"},{"bike_id":"6be534a9-96c6-4989-b3bb-e9dea76376c4","system_id":"levelo_inurba_marseille","lat":43.32369,"lon":5.38883,"is_reserved":false,"is_disabled":false,"rental_uris":{"android":"levelo://app?vid=6be534a9-96c6-4989-b3bb-e9dea76376c4","ios":"levelo://app?vid=6be534a9-96c6-4989-b3bb-e9dea76376c4"},"vehicle_type_id":"4","last_reported":1691255080,"current_range_meters":30800,"station_id":"ce4bhqp2rcd13ifvqhog","pricing_plan_id":"free"},{"bike_id":"696ed9b6-9beb-423c-9d06-defcf66f30b9","system_id":"levelo_inurba_marseille","lat":43.32367,"lon":5.388836,"is_reserved":false,"is_disabled":false,"rental_uris":{"android":"levelo://app?vid=696ed9b6-9beb-423c-9d06-defcf66f30b9","ios":"levelo://app?vid=696ed9b6-9beb-423c-9d06-defcf66f30b9"},"vehicle_type_id":"4","last_reported":1691255080,"current_range_meters":10000,"station_id":"ce4bhqp2rcd13ifvqhog","pricing_plan_id":"free"},{"bike_id":"2470dd8f-c827-4853-b934-85b076350e44","system_id":"levelo_inurba_marseille","lat":43.293074,"lon":5.371802,"is_reserved":false,"is_disabled":false,"rental_uris":{"android":"levelo://app?vid=2470dd8f-c827-4853-b934-85b076350e44","ios":"levelo://app?vid=2470dd8f-c827-4853-b934-85b076350e44"},"vehicle_type_id":"4","last_reported":1691255080,"current_range_meters":0,"station_id":"ce4bgh92rcd13ifvqb40","pricing_plan_id":"free"},{"bike_id":"2bbba99a-2de1-4080-a570-09782c2d7056","system_id":"levelo_inurba_marseille","lat":43.292747,"lon":5.36837,"is_reserved":false,"is_disabled":false,"rental_uris":{"android":"levelo://app?vid=2bbba99a-2de1-4080-a570-09782c2d7056","ios":"levelo://app?vid=2bbba99a-2de1-4080-a570-09782c2d7056"},"vehicle_type_id":"4","last_reported":1691255080,"current_range_meters":800,"station_id":"ce4bhbp2rcd13ifvqesg","pricing_plan_id":"free"},{"bike_id":"2deded81-9363-434e-9a46-fb8ec1e32a66","system_id":"levelo_inurba_marseille","lat":43.292749,"lon":5.368398,"is_reserved":false,"is_disabled":false,"rental_uris":{"android":"levelo://app?vid=2deded81-9363-434e-9a46-fb8ec1e32a66","ios":"levelo://app?vid=2deded81-9363-434e-9a46-fb8ec1e32a66"},"vehicle_type_id":"4","last_reported":1691255080,"current_range_meters":12000,"station_id":"ce4bhbp2rcd13ifvqesg","pricing_plan_id":"free"},{"bike_id":"0357894b-7855-4488-97ab-a6bac87069a3","system_id":"levelo_inurba_marseille","lat":43.292749,"lon":5.368402,"is_reserved":false,"is_disabled":false,"rental_uris":{"android":"levelo://app?vid=0357894b-7855-4488-97ab-a6bac87069a3","ios":"levelo://app?vid=0357894b-7855-4488-97ab-a6bac87069a3"},"vehicle_type_id":"4","last_reported":1691255080,"current_range_meters":24400,"station_id":"ce4bhbp2rcd13ifvqesg","pricing_plan_id":"free"},{"bike_id":"04ce7204-785e-4650-8cdf-18d6e5890126","system_id":"levelo_inurba_marseille","lat":43.29266,"lon":5.36838,"is_reserved":false,"is_disabled":false,"rental_uris":{"android":"levelo://app?vid=04ce7204-785e-4650-8cdf-18d6e5890126","ios":"levelo://app?vid=04ce7204-785e-4650-8cdf-18d6e5890126"},"vehicle_type_id":"4","last_reported":1691255080,"current_range_meters":11600,"station_id":"ce4bhbp2rcd13ifvqesg","pricing_plan_id":"free"},{"bike_id":"373f4ef1-e90e-4784-832f-1a7eae5c29d5","system_id":"levelo_inurba_marseille","lat":43.293009,"lon":5.374584,"is_reserved":false,"is_disabled":false,"rental_uris":{"android":"levelo://app?vid=373f4ef1-e90e-4784-832f-1a7eae5c29d5","ios":"levelo://app?vid=373f4ef1-e90e-4784-832f-1a7eae5c29d5"},"vehicle_type_id":"4","last_reported":1691255080,"current_range_meters":4000,"station_id":"ce4bgi12rcd13ifvqb70","pricing_plan_id":"free"},{"bike_id":"01ace228-d1bb-4722-903e-d61377cd35be","system_id":"levelo_inurba_marseille","lat":43.2936,"lon":5.37835,"is_reserved":false,"is_disabled":false,"rental_uris":{"android":"levelo://app?vid=01ace228-d1bb-4722-903e-d61377cd35be","ios":"levelo://app?vid=01ace228-d1bb-4722-903e-d61377cd35be"},"vehicle_type_id":"4","last_reported":1691255080,"current_range_meters":14400,"station_id":"ce4bgjh2rcd13ifvqbf0","pricing_plan_id":"free"},{"bike_id":"22706cfb-accf-4e33-a937-5295421d6538","system_id":"levelo_inurba_marseille","lat":43.29892,"lon":5.38891,"is_reserved":false,"is_disabled":false,"rental_uris":{"android":"levelo://app?vid=22706cfb-accf-4e33-a937-5295421d6538","ios":"levelo://app?vid=22706cfb-accf-4e33-a937-5295421d6538"},"vehicle_type_id":"4","last_reported":1691255080,"current_range_meters":5600,"station_id":"ce4bh392rcd13ifvqdl0","pricing_plan_id":"free"},{"bike_id":"dda4c688-aed2-486a-89a3-8d6d4f8a4449","system_id":"levelo_inurba_marseille","lat":43.298764,"lon":5.388973,"is_reserved":false,"is_disabled":false,"rental_uris":{"android":"levelo://app?vid=dda4c688-aed2-486a-89a3-8d6d4f8a4449","ios":"levelo://app?vid=dda4c688-aed2-486a-89a3-8d6d4f8a4449"},"vehicle_type_id":"4","last_reported":1691255080,"current_range_meters":7200,"station_id":"ce4bh392rcd13ifvqdl0","pricing_plan_id":"free"},{"bike_id":"3c4dd1b0-7a14-45aa-9ba4-cfd2f6dd205d","system_id":"levelo_inurba_marseille","lat":43.298764,"lon":5.388973,"is_reserved":false,"is_disabled":false,"rental_uris":{"android":"levelo://app?vid=3c4dd1b0-7a14-45aa-9ba4-cfd2f6dd205d","ios":"levelo://app?vid=3c4dd1b0-7a14-45aa-9ba4-cfd2f6dd205d"},"vehicle_type_id":"4","last_reported":1691255080,"current_range_meters":28400,"station_id":"ce4bh392rcd13ifvqdl0","pricing_plan_id":"free"},{"bike_id":"b7607f28-1e85-49a9-b126-379342c8ffd6","system_id":"levelo_inurba_marseille","lat":43.29879,"lon":5.38902,"is_reserved":false,"is_disabled":false,"rental_uris":{"android":"levelo://app?vid=b7607f28-1e85-49a9-b126-379342c8ffd6","ios":"levelo://app?vid=b7607f28-1e85-49a9-b126-379342c8ffd6"},"vehicle_type_id":"4","last_reported":1691255080,"current_range_meters":20000,"station_id":"ce4bh392rcd13ifvqdl0","pricing_plan_id":"free"},{"bike_id":"51471b72-8a7f-4e58-ab6a-69e042f71b55","system_id":"levelo_inurba_marseille","lat":43.298764,"lon":5.388973,"is_reserved":false,"is_disabled":false,"rental_uris":{"android":"levelo://app?vid=51471b72-8a7f-4e58-ab6a-69e042f71b55","ios":"levelo://app?vid=51471b72-8a7f-4e58-ab6a-69e042f71b55"},"vehicle_type_id":"4","last_reported":1691255080,"current_range_meters":16400,"station_id":"ce4bh392rcd13ifvqdl0","pricing_plan_id":"free"},{"bike_id":"68b7441d-e80f-43b2-ab3e-85bbc7f929bb","system_id":"levelo_inurba_marseille","lat":43.3088,"lon":5.3963,"is_reserved":false,"is_disabled":false,"rental_uris":{"android":"levelo://app?vid=68b7441d-e80f-43b2-ab3e-85bbc7f929bb","ios":"levelo://app?vid=68b7441d-e80f-43b2-ab3e-85bbc7f929bb"},"vehicle_type_id":"4","last_reported":1691255080,"current_range_meters":21600,"station_id":"ce4bh012rcd13ifvqcv0","pricing_plan_id":"free"},{"bike_id":"d47405f8-1fe3-4f38-8990-95cb6f3b8bf6","system_id":"levelo_inurba_marseille","lat":43.29192,"lon":5.35808,"is_reserved":false,"is_disabled":false,"rental_uris":{"android":"levelo://app?vid=d47405f8-1fe3-4f38-8990-95cb6f3b8bf6","ios":"levelo://app?vid=d47405f8-1fe3-4f38-8990-95cb6f3b8bf6"},"vehicle_type_id":"4","last_reported":1691255080,"current_range_meters":23200,"station_id":"ce4bhb12rcd13ifvqel0","pricing_plan_id":"free"},{"bike_id":"6bf6bfc6-351a-4103-82bc-0b9e0e553956","system_id":"levelo_inurba_marseille","lat":43.31328,"lon":5.39688,"is_reserved":false,"is_disabled":false,"rental_uris":{"android":"levelo://app?vid=6bf6bfc6-351a-4103-82bc-0b9e0e553956","ios":"levelo://app?vid=6bf6bfc6-351a-4103-82bc-0b9e0e553956"},"vehicle_type_id":"4","last_reported":1691255080,"current_range_meters":18000,"station_id":"ce4bgvp2rcd13ifvqcu0","pricing_plan_id":"free"},{"bike_id":"ebbf0889-294e-4a97-b816-80e14ee272d5","system_id":"levelo_inurba_marseille","lat":43.31327,"lon":5.39691,"is_reserved":false,"is_disabled":false,"rental_uris":{"android":"levelo://app?vid=ebbf0889-294e-4a97-b816-80e14ee272d5","ios":"levelo://app?vid=ebbf0889-294e-4a97-b816-80e14ee272d5"},"vehicle_type_id":"4","last_reported":1691255080,"current_range_meters":22400,"station_id":"ce4bgvp2rcd13ifvqcu0","pricing_plan_id":"free"},{"bike_id":"8c2611bc-c873-4d00-b3f8-c1e98ba7946a","system_id":"levelo_inurba_marseille","lat":43.313291,"lon":5.396838,"is_reserved":false,"is_disabled":false,"rental_uris":{"android":"levelo://app?vid=8c2611bc-c873-4d00-b3f8-c1e98ba7946a","ios":"levelo://app?vid=8c2611bc-c873-4d00-b3f8-c1e98ba7946a"},"vehicle_type_id":"4","last_reported":1691255080,"current_range_meters":4800,"station_id":"ce4bgvp2rcd13ifvqcu0","pricing_plan_id":"free"},{"bike_id":"d59cd80a-fcb3-4e3d-abbe-8ec073ed2fc7","system_id":"levelo_inurba_marseille","lat":43.31327,"lon":5.39693,"is_reserved":false,"is_disabled":false,"rental_uris":{"android":"levelo://app?vid=d59cd80a-fcb3-4e3d-abbe-8ec073ed2fc7","ios":"levelo://app?vid=d59cd80a-fcb3-4e3d-abbe-8ec073ed2fc7"},"vehicle_type_id":"4","last_reported":1691255080,"current_range_meters":8400,"station_id":"ce4bgvp2rcd13ifvqcu0","pricing_plan_id":"free"},{"bike_id":"63b2982f-6414-4604-bb2d-51081bacfdf9","system_id":"levelo_inurba_marseille","lat":43.309038,"lon":5.396546,"is_reserved":false,"is_disabled":false,"rental_uris":{"android":"levelo://app?vid=63b2982f-6414-4604-bb2d-51081bacfdf9","ios":"levelo://app?vid=63b2982f-6414-4604-bb2d-51081bacfdf9"},"vehicle_type_id":"4","last_reported":1691255080,"current_range_meters":22800,"station_id":"ce4bh012rcd13ifvqcv0","pricing_plan_id":"free"},{"bike_id":"af9ed230-1b46-455e-978a-bcb043082fdc","system_id":"levelo_inurba_marseille","lat":43.31323,"lon":5.39694,"is_reserved":false,"is_disabled":false,"rental_uris":{"android":"levelo://app?vid=af9ed230-1b46-455e-978a-bcb043082fdc","ios":"levelo://app?vid=af9ed230-1b46-455e-978a-bcb043082fdc"},"vehicle_type_id":"4","last_reported":1691255080,"current_range_meters":4000,"station_id":"ce4bgvp2rcd13ifvqcu0","pricing_plan_id":"free"},{"bike_id":"cd8be3ea-fa71-4524-89a8-1d3e4f2ea822","system_id":"levelo_inurba_marseille","lat":43.30883,"lon":5.39647,"is_reserved":false,"is_disabled":false,"rental_uris":{"android":"levelo://app?vid=cd8be3ea-fa71-4524-89a8-1d3e4f2ea822","ios":"levelo://app?vid=cd8be3ea-fa71-4524-89a8-1d3e4f2ea822"},"vehicle_type_id":"4","last_reported":1691255080,"current_range_meters":18000,"station_id":"ce4bh012rcd13ifvqcv0","pricing_plan_id":"free"},{"bike_id":"0af3fe36-e418-4c0c-912f-8afc13cc777b","system_id":"levelo_inurba_marseille","lat":43.31327,"lon":5.39695,"is_reserved":false,"is_disabled":false,"rental_uris":{"android":"levelo://app?vid=0af3fe36-e418-4c0c-912f-8afc13cc777b","ios":"levelo://app?vid=0af3fe36-e418-4c0c-912f-8afc13cc777b"},"vehicle_type_id":"4","last_reported":1691255080,"current_range_meters":22800,"station_id":"ce4bgvp2rcd13ifvqcu0","pricing_plan_id":"free"},{"bike_id":"40b0dbf0-87f6-4363-b8e9-d1cac15b6861","system_id":"levelo_inurba_marseille","lat":43.31324,"lon":5.39697,"is_reserved":false,"is_disabled":false,"rental_uris":{"android":"levelo://app?vid=40b0dbf0-87f6-4363-b8e9-d1cac15b6861","ios":"levelo://app?vid=40b0dbf0-87f6-4363-b8e9-d1cac15b6861"},"vehicle_type_id":"4","last_reported":1691255080,"current_range_meters":25200,"station_id":"ce4bgvp2rcd13ifvqcu0","pricing_plan_id":"free"},{"bike_id":"39eef234-3c0b-437c-bacb-f450b37d33c8","system_id":"levelo_inurba_marseille","lat":43.30886,"lon":5.39652,"is_reserved":false,"is_disabled":false,"rental_uris":{"android":"levelo://app?vid=39eef234-3c0b-437c-bacb-f450b37d33c8","ios":"levelo://app?vid=39eef234-3c0b-437c-bacb-f450b37d33c8"},"vehicle_type_id":"4","last_reported":1691255080,"current_range_meters":4000,"station_id":"ce4bh012rcd13ifvqcv0","pricing_plan_id":"free"},{"bike_id":"daf4f0c8-38fa-466c-9c25-8685a7ce5ca0","system_id":"levelo_inurba_marseille","lat":43.309038,"lon":5.396546,"is_reserved":false,"is_disabled":false,"rental_uris":{"android":"levelo://app?vid=daf4f0c8-38fa-466c-9c25-8685a7ce5ca0","ios":"levelo://app?vid=daf4f0c8-38fa-466c-9c25-8685a7ce5ca0"},"vehicle_type_id":"4","last_reported":1691255080,"current_range_meters":9600,"station_id":"ce4bh012rcd13ifvqcv0","pricing_plan_id":"free"},{"bike_id":"7f82be7d-f95a-4e7f-a067-cfe20fcb5ff9","system_id":"levelo_inurba_marseille","lat":43.29529,"lon":5.385581,"is_reserved":false,"is_disabled":false,"rental_uris":{"android":"levelo://app?vid=7f82be7d-f95a-4e7f-a067-cfe20fcb5ff9","ios":"levelo://app?vid=7f82be7d-f95a-4e7f-a067-cfe20fcb5ff9"},"vehicle_type_id":"4","last_reported":1691255080,"current_range_meters":25200,"station_id":"ce4bgih2rcd13ifvqba0","pricing_plan_id":"free"},{"bike_id":"f66c67c6-cd7f-4189-924f-dede05df6c77","system_id":"levelo_inurba_marseille","lat":43.294162,"lon":5.386292,"is_reserved":false,"is_disabled":false,"rental_uris":{"android":"levelo://app?vid=f66c67c6-cd7f-4189-924f-dede05df6c77","ios":"levelo://app?vid=f66c67c6-cd7f-4189-924f-dede05df6c77"},"vehicle_type_id":"4","last_reported":1691255080,"current_range_meters":17600,"station_id":"ce4bh2h2rcd13ifvqdh0","pricing_plan_id":"free"},{"bike_id":"aad7b833-d053-427d-b2c8-a439233e0b51","system_id":"levelo_inurba_marseille","lat":43.294162,"lon":5.386292,"is_reserved":false,"is_disabled":false,"rental_uris":{"android":"levelo://app?vid=aad7b833-d053-427d-b2c8-a439233e0b51","ios":"levelo://app?vid=aad7b833-d053-427d-b2c8-a439233e0b51"},"vehicle_type_id":"4","last_reported":1691255080,"current_range_meters":31600,"station_id":"ce4bh2h2rcd13ifvqdh0","pricing_plan_id":"free"},{"bike_id":"75637384-3833-4f4d-9131-12ccc9bc0dae","system_id":"levelo_inurba_marseille","lat":43.290327,"lon":5.375711,"is_reserved":false,"is_disabled":false,"rental_uris":{"android":"levelo://app?vid=75637384-3833-4f4d-9131-12ccc9bc0dae","ios":"levelo://app?vid=75637384-3833-4f4d-9131-12ccc9bc0dae"},"vehicle_type_id":"4","last_reported":1691255080,"current_range_meters":800,"station_id":"ce4bh692rcd13ifvqe90","pricing_plan_id":"free"},{"bike_id":"759188e5-b30d-4736-82d0-23eae35e434c","system_id":"levelo_inurba_marseille","lat":43.28942,"lon":5.36624,"is_reserved":false,"is_disabled":false,"rental_uris":{"android":"levelo://app?vid=759188e5-b30d-4736-82d0-23eae35e434c","ios":"levelo://app?vid=759188e5-b30d-4736-82d0-23eae35e434c"},"vehicle_type_id":"4","last_reported":1691255080,"current_range_meters":31200,"station_id":"ce4bhap2rcd13ifvqek0","pricing_plan_id":"free"},{"bike_id":"c7bd8b0b-3c4f-4748-a643-936126d1e05d","system_id":"levelo_inurba_marseille","lat":43.28937,"lon":5.3663,"is_reserved":false,"is_disabled":false,"rental_uris":{"android":"levelo://app?vid=c7bd8b0b-3c4f-4748-a643-936126d1e05d","ios":"levelo://app?vid=c7bd8b0b-3c4f-4748-a643-936126d1e05d"},"vehicle_type_id":"4","last_reported":1691255080,"current_range_meters":31200,"station_id":"ce4bhap2rcd13ifvqek0","pricing_plan_id":"free"},{"bike_id":"537c39b3-9fe0-4989-b0f7-9fe98ccc07f6","system_id":"levelo_inurba_marseille","lat":43.28932,"lon":5.3664,"is_reserved":false,"is_disabled":false,"rental_uris":{"android":"levelo://app?vid=537c39b3-9fe0-4989-b0f7-9fe98ccc07f6","ios":"levelo://app?vid=537c39b3-9fe0-4989-b0f7-9fe98ccc07f6"},"vehicle_type_id":"4","last_reported":1691255080,"current_range_meters":12800,"station_id":"ce4bhap2rcd13ifvqek0","pricing_plan_id":"free"},{"bike_id":"fb647d96-c019-426f-af16-d31d091d516a","system_id":"levelo_inurba_marseille","lat":43.292644,"lon":5.384257,"is_reserved":false,"is_disabled":false,"rental_uris":{"android":"levelo://app?vid=fb647d96-c019-426f-af16-d31d091d516a","ios":"levelo://app?vid=fb647d96-c019-426f-af16-d31d091d516a"},"vehicle_type_id":"4","last_reported":1691255080,"current_range_meters":26800,"station_id":"ce4bh692rcd13ifvqea0","pricing_plan_id":"free"},{"bike_id":"79a68400-afa6-48b2-bd4b-45482a6d1675","system_id":"levelo_inurba_marseille","lat":43.292642,"lon":5.384254,"is_reserved":false,"is_disabled":false,"rental_uris":{"android":"levelo://app?vid=79a68400-afa6-48b2-bd4b-45482a6d1675","ios":"levelo://app?vid=79a68400-afa6-48b2-bd4b-45482a6d1675"},"vehicle_type_id":"4","last_reported":1691255080,"current_range_meters":9600,"station_id":"ce4bh692rcd13ifvqea0","pricing_plan_id":"free"},{"bike_id":"1115cb4b-19b0-4a17-9bd1-fb4570c68d4e","system_id":"levelo_inurba_marseille","lat":43.292644,"lon":5.384257,"is_reserved":false,"is_disabled":false,"rental_uris":{"android":"levelo://app?vid=1115cb4b-19b0-4a17-9bd1-fb4570c68d4e","ios":"levelo://app?vid=1115cb4b-19b0-4a17-9bd1-fb4570c68d4e"},"vehicle_type_id":"4","last_reported":1691255080,"current_range_meters":31600,"station_id":"ce4bh692rcd13ifvqea0","pricing_plan_id":"free"},{"bike_id":"73399446-6bdb-49c3-a9ec-2e058cf26023","system_id":"levelo_inurba_marseille","lat":43.29259,"lon":5.38441,"is_reserved":false,"is_disabled":false,"rental_uris":{"android":"levelo://app?vid=73399446-6bdb-49c3-a9ec-2e058cf26023","ios":"levelo://app?vid=73399446-6bdb-49c3-a9ec-2e058cf26023"},"vehicle_type_id":"4","last_reported":1691255080,"current_range_meters":20400,"station_id":"ce4bh692rcd13ifvqea0","pricing_plan_id":"free"},{"bike_id":"7a950cce-c6a9-45bd-b7b0-94b1bc42690f","system_id":"levelo_inurba_marseille","lat":43.292644,"lon":5.384257,"is_reserved":false,"is_disabled":false,"rental_uris":{"android":"levelo://app?vid=7a950cce-c6a9-45bd-b7b0-94b1bc42690f","ios":"levelo://app?vid=7a950cce-c6a9-45bd-b7b0-94b1bc42690f"},"vehicle_type_id":"4","last_reported":1691255080,"current_range_meters":5200,"station_id":"ce4bh692rcd13ifvqea0","pricing_plan_id":"free"},{"bike_id":"137511ea-190b-4eec-a4a5-9d3530f5e529","system_id":"levelo_inurba_marseille","lat":43.290104,"lon":5.356111,"is_reserved":false,"is_disabled":false,"rental_uris":{"android":"levelo://app?vid=137511ea-190b-4eec-a4a5-9d3530f5e529","ios":"levelo://app?vid=137511ea-190b-4eec-a4a5-9d3530f5e529"},"vehicle_type_id":"4","last_reported":1691255080,"current_range_meters":12000,"station_id":"ce4bhb92rcd13ifvqen0","pricing_plan_id":"free"},{"bike_id":"2dba05d3-f7a4-4dcc-9133-7e306f42ddbb","system_id":"levelo_inurba_marseille","lat":43.3304,"lon":5.38912,"is_reserved":false,"is_disabled":false,"rental_uris":{"android":"levelo://app?vid=2dba05d3-f7a4-4dcc-9133-7e306f42ddbb","ios":"levelo://app?vid=2dba05d3-f7a4-4dcc-9133-7e306f42ddbb"},"vehicle_type_id":"4","last_reported":1691255080,"current_range_meters":30000,"station_id":"ce4bhr92rcd13ifvqhrg","pricing_plan_id":"free"},{"bike_id":"20cf3f6d-acf4-4653-bf24-baa04253f77a","system_id":"levelo_inurba_marseille","lat":43.33041,"lon":5.38915,"is_reserved":false,"is_disabled":false,"rental_uris":{"android":"levelo://app?vid=20cf3f6d-acf4-4653-bf24-baa04253f77a","ios":"levelo://app?vid=20cf3f6d-acf4-4653-bf24-baa04253f77a"},"vehicle_type_id":"4","last_reported":1691255080,"current_range_meters":13600,"station_id":"ce4bhr92rcd13ifvqhrg","pricing_plan_id":"free"},{"bike_id":"f7f47a10-b484-4caa-94e5-704794ddc4a0","system_id":"levelo_inurba_marseille","lat":43.290103,"lon":5.356114,"is_reserved":false,"is_disabled":false,"rental_uris":{"android":"levelo://app?vid=f7f47a10-b484-4caa-94e5-704794ddc4a0","ios":"levelo://app?vid=f7f47a10-b484-4caa-94e5-704794ddc4a0"},"vehicle_type_id":"4","last_reported":1691255080,"current_range_meters":22800,"station_id":"ce4bhb92rcd13ifvqen0","pricing_plan_id":"free"},{"bike_id":"e6c6e4e8-edee-449e-8936-76c8ef3752c4","system_id":"levelo_inurba_marseille","lat":43.33041,"lon":5.38916,"is_reserved":false,"is_disabled":false,"rental_uris":{"android":"levelo://app?vid=e6c6e4e8-edee-449e-8936-76c8ef3752c4","ios":"levelo://app?vid=e6c6e4e8-edee-449e-8936-76c8ef3752c4"},"vehicle_type_id":"4","last_reported":1691255080,"current_range_meters":19200,"station_id":"ce4bhr92rcd13ifvqhrg","pricing_plan_id":"free"},{"bike_id":"98f910d2-52f4-4465-977e-10142d8cca43","system_id":"levelo_inurba_marseille","lat":43.3304,"lon":5.38918,"is_reserved":false,"is_disabled":false,"rental_uris":{"android":"levelo://app?vid=98f910d2-52f4-4465-977e-10142d8cca43","ios":"levelo://app?vid=98f910d2-52f4-4465-977e-10142d8cca43"},"vehicle_type_id":"4","last_reported":1691255080,"current_range_meters":16000,"station_id":"ce4bhr92rcd13ifvqhrg","pricing_plan_id":"free"},{"bike_id":"b844285f-873d-4c9a-aef9-0fe9d2bdf35d","system_id":"levelo_inurba_marseille","lat":43.290104,"lon":5.356111,"is_reserved":false,"is_disabled":false,"rental_uris":{"android":"levelo://app?vid=b844285f-873d-4c9a-aef9-0fe9d2bdf35d","ios":"levelo://app?vid=b844285f-873d-4c9a-aef9-0fe9d2bdf35d"},"vehicle_type_id":"4","last_reported":1691255080,"current_range_meters":5200,"station_id":"ce4bhb92rcd13ifvqen0","pricing_plan_id":"free"},{"bike_id":"cedbc9c4-3cd8-4974-be60-104359550a71","system_id":"levelo_inurba_marseille","lat":43.33048,"lon":5.3891,"is_reserved":false,"is_disabled":false,"rental_uris":{"android":"levelo://app?vid=cedbc9c4-3cd8-4974-be60-104359550a71","ios":"levelo://app?vid=cedbc9c4-3cd8-4974-be60-104359550a71"},"vehicle_type_id":"4","last_reported":1691255080,"current_range_meters":30800,"station_id":"ce4bhr92rcd13ifvqhrg","pricing_plan_id":"free"},{"bike_id":"3468d6ee-41ad-4796-b726-52055f3c03fd","system_id":"levelo_inurba_marseille","lat":43.33045,"lon":5.38915,"is_reserved":false,"is_disabled":false,"rental_uris":{"android":"levelo://app?vid=3468d6ee-41ad-4796-b726-52055f3c03fd","ios":"levelo://app?vid=3468d6ee-41ad-4796-b726-52055f3c03fd"},"vehicle_type_id":"4","last_reported":1691255080,"current_range_meters":27200,"station_id":"ce4bhr92rcd13ifvqhrg","pricing_plan_id":"free"},{"bike_id":"976f718a-bfdb-4480-a757-e5b9a5d1a5d6","system_id":"levelo_inurba_marseille","lat":43.33045,"lon":5.38916,"is_reserved":false,"is_disabled":false,"rental_uris":{"android":"levelo://app?vid=976f718a-bfdb-4480-a757-e5b9a5d1a5d6","ios":"levelo://app?vid=976f718a-bfdb-4480-a757-e5b9a5d1a5d6"},"vehicle_type_id":"4","last_reported":1691255080,"current_range_meters":24400,"station_id":"ce4bhr92rcd13ifvqhrg","pricing_plan_id":"free"},{"bike_id":"34fc0bae-b089-42d1-99d0-10d5b39f2b41","system_id":"levelo_inurba_marseille","lat":43.33041,"lon":5.38923,"is_reserved":false,"is_disabled":false,"rental_uris":{"android":"levelo://app?vid=34fc0bae-b089-42d1-99d0-10d5b39f2b41","ios":"levelo://app?vid=34fc0bae-b089-42d1-99d0-10d5b39f2b41"},"vehicle_type_id":"4","last_reported":1691255080,"current_range_meters":22000,"station_id":"ce4bhr92rcd13ifvqhrg","pricing_plan_id":"free"},{"bike_id":"f67edc25-bcc7-41fb-8431-1add679b0933","system_id":"levelo_inurba_marseille","lat":43.33045,"lon":5.38918,"is_reserved":false,"is_disabled":false,"rental_uris":{"android":"levelo://app?vid=f67edc25-bcc7-41fb-8431-1add679b0933","ios":"levelo://app?vid=f67edc25-bcc7-41fb-8431-1add679b0933"},"vehicle_type_id":"4","last_reported":1691255080,"current_range_meters":15200,"station_id":"ce4bhr92rcd13ifvqhrg","pricing_plan_id":"free"},{"bike_id":"38c1adea-6867-4940-9699-a628b1958570","system_id":"levelo_inurba_marseille","lat":43.33047,"lon":5.38915,"is_reserved":false,"is_disabled":false,"rental_uris":{"android":"levelo://app?vid=38c1adea-6867-4940-9699-a628b1958570","ios":"levelo://app?vid=38c1adea-6867-4940-9699-a628b1958570"},"vehicle_type_id":"4","last_reported":1691255080,"current_range_meters":27600,"station_id":"ce4bhr92rcd13ifvqhrg","pricing_plan_id":"free"},{"bike_id":"2f2d42a2-8de0-405f-9429-d3eae654394c","system_id":"levelo_inurba_marseille","lat":43.33045,"lon":5.38919,"is_reserved":false,"is_disabled":false,"rental_uris":{"android":"levelo://app?vid=2f2d42a2-8de0-405f-9429-d3eae654394c","ios":"levelo://app?vid=2f2d42a2-8de0-405f-9429-d3eae654394c"},"vehicle_type_id":"4","last_reported":1691255080,"current_range_meters":16400,"station_id":"ce4bhr92rcd13ifvqhrg","pricing_plan_id":"free"},{"bike_id":"37fde894-3336-4087-bf88-b0989bbc514a","system_id":"levelo_inurba_marseille","lat":43.33047,"lon":5.38917,"is_reserved":false,"is_disabled":false,"rental_uris":{"android":"levelo://app?vid=37fde894-3336-4087-bf88-b0989bbc514a","ios":"levelo://app?vid=37fde894-3336-4087-bf88-b0989bbc514a"},"vehicle_type_id":"4","last_reported":1691255080,"current_range_meters":31200,"station_id":"ce4bhr92rcd13ifvqhrg","pricing_plan_id":"free"},{"bike_id":"00b2dcdc-2882-40a1-9132-89c3ec15cf18","system_id":"levelo_inurba_marseille","lat":43.33046,"lon":5.38919,"is_reserved":false,"is_disabled":false,"rental_uris":{"android":"levelo://app?vid=00b2dcdc-2882-40a1-9132-89c3ec15cf18","ios":"levelo://app?vid=00b2dcdc-2882-40a1-9132-89c3ec15cf18"},"vehicle_type_id":"4","last_reported":1691255080,"current_range_meters":14000,"station_id":"ce4bhr92rcd13ifvqhrg","pricing_plan_id":"free"},{"bike_id":"1c48a8ed-6b66-4e94-a1ca-62fc40556511","system_id":"levelo_inurba_marseille","lat":43.290104,"lon":5.356111,"is_reserved":false,"is_disabled":false,"rental_uris":{"android":"levelo://app?vid=1c48a8ed-6b66-4e94-a1ca-62fc40556511","ios":"levelo://app?vid=1c48a8ed-6b66-4e94-a1ca-62fc40556511"},"vehicle_type_id":"4","last_reported":1691255080,"current_range_meters":18800,"station_id":"ce4bhb92rcd13ifvqen0","pricing_plan_id":"free"},{"bike_id":"bf5f718a-7558-4cfc-a7d8-d60103e3079e","system_id":"levelo_inurba_marseille","lat":43.290103,"lon":5.356114,"is_reserved":false,"is_disabled":false,"rental_uris":{"android":"levelo://app?vid=bf5f718a-7558-4cfc-a7d8-d60103e3079e","ios":"levelo://app?vid=bf5f718a-7558-4cfc-a7d8-d60103e3079e"},"vehicle_type_id":"4","last_reported":1691255080,"current_range_meters":11600,"station_id":"ce4bhb92rcd13ifvqen0","pricing_plan_id":"free"},{"bike_id":"a60932e9-7b80-438b-89ff-967a27c7e8ed","system_id":"levelo_inurba_marseille","lat":43.290103,"lon":5.356114,"is_reserved":false,"is_disabled":false,"rental_uris":{"android":"levelo://app?vid=a60932e9-7b80-438b-89ff-967a27c7e8ed","ios":"levelo://app?vid=a60932e9-7b80-438b-89ff-967a27c7e8ed"},"vehicle_type_id":"4","last_reported":1691255080,"current_range_meters":31600,"station_id":"ce4bhb92rcd13ifvqen0","pricing_plan_id":"free"},{"bike_id":"498fc5a0-6a3c-4ac2-9d1c-ba7bca6a8b4a","system_id":"levelo_inurba_marseille","lat":43.290104,"lon":5.356111,"is_reserved":false,"is_disabled":false,"rental_uris":{"android":"levelo://app?vid=498fc5a0-6a3c-4ac2-9d1c-ba7bca6a8b4a","ios":"levelo://app?vid=498fc5a0-6a3c-4ac2-9d1c-ba7bca6a8b4a"},"vehicle_type_id":"4","last_reported":1691255080,"current_range_meters":4000,"station_id":"ce4bhb92rcd13ifvqen0","pricing_plan_id":"free"},{"bike_id":"9ce62819-7d94-47c9-aff2-f56e39f0ba59","system_id":"levelo_inurba_marseille","lat":43.33046,"lon":5.38928,"is_reserved":false,"is_disabled":false,"rental_uris":{"android":"levelo://app?vid=9ce62819-7d94-47c9-aff2-f56e39f0ba59","ios":"levelo://app?vid=9ce62819-7d94-47c9-aff2-f56e39f0ba59"},"vehicle_type_id":"4","last_reported":1691255080,"current_range_meters":27200,"station_id":"ce4bhr92rcd13ifvqhrg","pricing_plan_id":"free"},{"bike_id":"05bf2cc0-c80b-4d3b-9303-5cea93148e89","system_id":"levelo_inurba_marseille","lat":43.290995,"lon":5.381361,"is_reserved":false,"is_disabled":false,"rental_uris":{"android":"levelo://app?vid=05bf2cc0-c80b-4d3b-9303-5cea93148e89","ios":"levelo://app?vid=05bf2cc0-c80b-4d3b-9303-5cea93148e89"},"vehicle_type_id":"4","last_reported":1691255080,"current_range_meters":29200,"station_id":"ce4bh512rcd13ifvqe2g","pricing_plan_id":"free"},{"bike_id":"1b87240c-d07d-4b9a-9454-aab0fd060d6c","system_id":"levelo_inurba_marseille","lat":43.290995,"lon":5.381361,"is_reserved":false,"is_disabled":false,"rental_uris":{"android":"levelo://app?vid=1b87240c-d07d-4b9a-9454-aab0fd060d6c","ios":"levelo://app?vid=1b87240c-d07d-4b9a-9454-aab0fd060d6c"},"vehicle_type_id":"4","last_reported":1691255080,"current_range_meters":3200,"station_id":"ce4bh512rcd13ifvqe2g","pricing_plan_id":"free"},{"bike_id":"e08dcb7f-f33f-4e29-a3cc-d06a502a908a","system_id":"levelo_inurba_marseille","lat":43.297815,"lon":5.393548,"is_reserved":false,"is_disabled":false,"rental_uris":{"android":"levelo://app?vid=e08dcb7f-f33f-4e29-a3cc-d06a502a908a","ios":"levelo://app?vid=e08dcb7f-f33f-4e29-a3cc-d06a502a908a"},"vehicle_type_id":"4","last_reported":1691255080,"current_range_meters":2400,"station_id":"chh1huq6cuj3fo74tm60","pricing_plan_id":"free"},{"bike_id":"33fa619f-fad1-4474-97ac-dd824d19bed8","system_id":"levelo_inurba_marseille","lat":43.29782,"lon":5.39345,"is_reserved":false,"is_disabled":false,"rental_uris":{"android":"levelo://app?vid=33fa619f-fad1-4474-97ac-dd824d19bed8","ios":"levelo://app?vid=33fa619f-fad1-4474-97ac-dd824d19bed8"},"vehicle_type_id":"4","last_reported":1691255080,"current_range_meters":19200,"station_id":"","pricing_plan_id":"free"},{"bike_id":"ac84f83f-e8d6-4903-80a4-a3914de5b3fd","system_id":"levelo_inurba_marseille","lat":43.295169,"lon":5.390426,"is_reserved":false,"is_disabled":false,"rental_uris":{"android":"levelo://app?vid=ac84f83f-e8d6-4903-80a4-a3914de5b3fd","ios":"levelo://app?vid=ac84f83f-e8d6-4903-80a4-a3914de5b3fd"},"vehicle_type_id":"4","last_reported":1691255080,"current_range_meters":8800,"station_id":"ce4bh3p2rcd13ifvqdp0","pricing_plan_id":"free"},{"bike_id":"abf3c42b-08ce-45eb-9a97-3e21a3f16c30","system_id":"levelo_inurba_marseille","lat":43.28856,"lon":5.358371,"is_reserved":false,"is_disabled":false,"rental_uris":{"android":"levelo://app?vid=abf3c42b-08ce-45eb-9a97-3e21a3f16c30","ios":"levelo://app?vid=abf3c42b-08ce-45eb-9a97-3e21a3f16c30"},"vehicle_type_id":"4","last_reported":1691255080,"current_range_meters":10400,"station_id":"ce4bhb12rcd13ifvqem0","pricing_plan_id":"free"},{"bike_id":"0e2a5a7f-b77d-4271-8571-e1d92dafd1eb","system_id":"levelo_inurba_marseille","lat":43.33741,"lon":5.37445,"is_reserved":false,"is_disabled":false,"rental_uris":{"android":"levelo://app?vid=0e2a5a7f-b77d-4271-8571-e1d92dafd1eb","ios":"levelo://app?vid=0e2a5a7f-b77d-4271-8571-e1d92dafd1eb"},"vehicle_type_id":"4","last_reported":1691255080,"current_range_meters":29200,"station_id":"","pricing_plan_id":"free"},{"bike_id":"8c6f0bb9-fd92-422e-baff-0bb812929630","system_id":"levelo_inurba_marseille","lat":43.30929,"lon":5.40136,"is_reserved":false,"is_disabled":false,"rental_uris":{"android":"levelo://app?vid=8c6f0bb9-fd92-422e-baff-0bb812929630","ios":"levelo://app?vid=8c6f0bb9-fd92-422e-baff-0bb812929630"},"vehicle_type_id":"4","last_reported":1691255080,"current_range_meters":14000,"station_id":"ce4bgvp2rcd13ifvqct0","pricing_plan_id":"free"},{"bike_id":"70189926-9fcc-40e9-b471-eb3293b8f187","system_id":"levelo_inurba_marseille","lat":43.30929,"lon":5.40139,"is_reserved":false,"is_disabled":false,"rental_uris":{"android":"levelo://app?vid=70189926-9fcc-40e9-b471-eb3293b8f187","ios":"levelo://app?vid=70189926-9fcc-40e9-b471-eb3293b8f187"},"vehicle_type_id":"4","last_reported":1691255080,"current_range_meters":12400,"station_id":"ce4bgvp2rcd13ifvqct0","pricing_plan_id":"free"},{"bike_id":"4c6f3988-77a8-43ac-9e5a-f885f0477a97","system_id":"levelo_inurba_marseille","lat":43.30935,"lon":5.40141,"is_reserved":false,"is_disabled":false,"rental_uris":{"android":"levelo://app?vid=4c6f3988-77a8-43ac-9e5a-f885f0477a97","ios":"levelo://app?vid=4c6f3988-77a8-43ac-9e5a-f885f0477a97"},"vehicle_type_id":"4","last_reported":1691255080,"current_range_meters":17200,"station_id":"ce4bgvp2rcd13ifvqct0","pricing_plan_id":"free"},{"bike_id":"27afc949-0a96-456c-b059-2d4cb45b8171","system_id":"levelo_inurba_marseille","lat":43.301117,"lon":5.398795,"is_reserved":false,"is_disabled":false,"rental_uris":{"android":"levelo://app?vid=27afc949-0a96-456c-b059-2d4cb45b8171","ios":"levelo://app?vid=27afc949-0a96-456c-b059-2d4cb45b8171"},"vehicle_type_id":"4","last_reported":1691255080,"current_range_meters":21600,"station_id":"ce4bh0h2rcd13ifvqd40","pricing_plan_id":"free"},{"bike_id":"707d97aa-e043-44d5-bd1a-76ef06f7f3ee","system_id":"levelo_inurba_marseille","lat":43.286593,"lon":5.363346,"is_reserved":false,"is_disabled":false,"rental_uris":{"android":"levelo://app?vid=707d97aa-e043-44d5-bd1a-76ef06f7f3ee","ios":"levelo://app?vid=707d97aa-e043-44d5-bd1a-76ef06f7f3ee"},"vehicle_type_id":"4","last_reported":1691255080,"current_range_meters":18000,"station_id":"ce4bhah2rcd13ifvqej0","pricing_plan_id":"free"},{"bike_id":"a1b61fb0-4219-4038-87d7-3ee3494a08ef","system_id":"levelo_inurba_marseille","lat":43.298681,"lon":5.397225,"is_reserved":false,"is_disabled":false,"rental_uris":{"android":"levelo://app?vid=a1b61fb0-4219-4038-87d7-3ee3494a08ef","ios":"levelo://app?vid=a1b61fb0-4219-4038-87d7-3ee3494a08ef"},"vehicle_type_id":"4","last_reported":1691255080,"current_range_meters":20800,"station_id":"ce4bh0h2rcd13ifvqd50","pricing_plan_id":"free"},{"bike_id":"75199276-b705-4ad7-b6a9-49aeaa84628a","system_id":"levelo_inurba_marseille","lat":43.286591,"lon":5.363346,"is_reserved":false,"is_disabled":false,"rental_uris":{"android":"levelo://app?vid=75199276-b705-4ad7-b6a9-49aeaa84628a","ios":"levelo://app?vid=75199276-b705-4ad7-b6a9-49aeaa84628a"},"vehicle_type_id":"4","last_reported":1691255080,"current_range_meters":31200,"station_id":"ce4bhah2rcd13ifvqej0","pricing_plan_id":"free"},{"bike_id":"f6228b5f-f963-45e0-b3be-79a576b2db0a","system_id":"levelo_inurba_marseille","lat":43.295194,"lon":5.39397,"is_reserved":false,"is_disabled":false,"rental_uris":{"android":"levelo://app?vid=f6228b5f-f963-45e0-b3be-79a576b2db0a","ios":"levelo://app?vid=f6228b5f-f963-45e0-b3be-79a576b2db0a"},"vehicle_type_id":"4","last_reported":1691255080,"current_range_meters":5600,"station_id":"ce4bh292rcd13ifvqdf0","pricing_plan_id":"free"},{"bike_id":"b9891201-fd92-4ba1-8624-0241747cf507","system_id":"levelo_inurba_marseille","lat":43.295196,"lon":5.39397,"is_reserved":false,"is_disabled":false,"rental_uris":{"android":"levelo://app?vid=b9891201-fd92-4ba1-8624-0241747cf507","ios":"levelo://app?vid=b9891201-fd92-4ba1-8624-0241747cf507"},"vehicle_type_id":"4","last_reported":1691255080,"current_range_meters":0,"station_id":"ce4bh292rcd13ifvqdf0","pricing_plan_id":"free"},{"bike_id":"4682ba71-5391-4373-99d8-70f0955b8f2f","system_id":"levelo_inurba_marseille","lat":43.295194,"lon":5.39397,"is_reserved":false,"is_disabled":false,"rental_uris":{"android":"levelo://app?vid=4682ba71-5391-4373-99d8-70f0955b8f2f","ios":"levelo://app?vid=4682ba71-5391-4373-99d8-70f0955b8f2f"},"vehicle_type_id":"4","last_reported":1691255080,"current_range_meters":15600,"station_id":"ce4bh292rcd13ifvqdf0","pricing_plan_id":"free"},{"bike_id":"7b9e2d57-7c2f-4652-8ec0-ee4d147afe24","system_id":"levelo_inurba_marseille","lat":43.302548,"lon":5.400568,"is_reserved":false,"is_disabled":false,"rental_uris":{"android":"levelo://app?vid=7b9e2d57-7c2f-4652-8ec0-ee4d147afe24","ios":"levelo://app?vid=7b9e2d57-7c2f-4652-8ec0-ee4d147afe24"},"vehicle_type_id":"4","last_reported":1691255080,"current_range_meters":10400,"station_id":"","pricing_plan_id":"free"},{"bike_id":"4dfadc0b-e8c8-4474-9ab6-fd130b442e1c","system_id":"levelo_inurba_marseille","lat":43.302759,"lon":5.400793,"is_reserved":false,"is_disabled":false,"rental_uris":{"android":"levelo://app?vid=4dfadc0b-e8c8-4474-9ab6-fd130b442e1c","ios":"levelo://app?vid=4dfadc0b-e8c8-4474-9ab6-fd130b442e1c"},"vehicle_type_id":"4","last_reported":1691255080,"current_range_meters":9200,"station_id":"ce4bgvh2rcd13ifvqcs0","pricing_plan_id":"free"},{"bike_id":"2015f0ad-3f07-4c7d-bbd3-e24db96f9e84","system_id":"levelo_inurba_marseille","lat":43.302759,"lon":5.400793,"is_reserved":false,"is_disabled":false,"rental_uris":{"android":"levelo://app?vid=2015f0ad-3f07-4c7d-bbd3-e24db96f9e84","ios":"levelo://app?vid=2015f0ad-3f07-4c7d-bbd3-e24db96f9e84"},"vehicle_type_id":"4","last_reported":1691255080,"current_range_meters":15600,"station_id":"ce4bgvh2rcd13ifvqcs0","pricing_plan_id":"free"},{"bike_id":"caef9ef1-a76f-4172-bbc9-961ea14b717c","system_id":"levelo_inurba_marseille","lat":43.302759,"lon":5.400793,"is_reserved":false,"is_disabled":false,"rental_uris":{"android":"levelo://app?vid=caef9ef1-a76f-4172-bbc9-961ea14b717c","ios":"levelo://app?vid=caef9ef1-a76f-4172-bbc9-961ea14b717c"},"vehicle_type_id":"4","last_reported":1691255080,"current_range_meters":15600,"station_id":"ce4bgvh2rcd13ifvqcs0","pricing_plan_id":"free"},{"bike_id":"6f266c17-787d-45c2-8aee-a2336141d5de","system_id":"levelo_inurba_marseille","lat":43.290236,"lon":5.386497,"is_reserved":false,"is_disabled":false,"rental_uris":{"android":"levelo://app?vid=6f266c17-787d-45c2-8aee-a2336141d5de","ios":"levelo://app?vid=6f266c17-787d-45c2-8aee-a2336141d5de"},"vehicle_type_id":"4","last_reported":1691255080,"current_range_meters":0,"station_id":"ce4bh4p2rcd13ifvqe0g","pricing_plan_id":"free"},{"bike_id":"c170175a-fe16-4309-9588-28cdd8150890","system_id":"levelo_inurba_marseille","lat":43.302759,"lon":5.400793,"is_reserved":false,"is_disabled":false,"rental_uris":{"android":"levelo://app?vid=c170175a-fe16-4309-9588-28cdd8150890","ios":"levelo://app?vid=c170175a-fe16-4309-9588-28cdd8150890"},"vehicle_type_id":"4","last_reported":1691255080,"current_range_meters":10000,"station_id":"ce4bgvh2rcd13ifvqcs0","pricing_plan_id":"free"},{"bike_id":"db2fd480-be11-40f2-8a90-376ed1eb3dd3","system_id":"levelo_inurba_marseille","lat":43.302759,"lon":5.400793,"is_reserved":false,"is_disabled":false,"rental_uris":{"android":"levelo://app?vid=db2fd480-be11-40f2-8a90-376ed1eb3dd3","ios":"levelo://app?vid=db2fd480-be11-40f2-8a90-376ed1eb3dd3"},"vehicle_type_id":"4","last_reported":1691255080,"current_range_meters":14000,"station_id":"ce4bgvh2rcd13ifvqcs0","pricing_plan_id":"free"},{"bike_id":"94c6d184-820a-46db-b366-2b0007d9a9da","system_id":"levelo_inurba_marseille","lat":43.302759,"lon":5.400793,"is_reserved":false,"is_disabled":false,"rental_uris":{"android":"levelo://app?vid=94c6d184-820a-46db-b366-2b0007d9a9da","ios":"levelo://app?vid=94c6d184-820a-46db-b366-2b0007d9a9da"},"vehicle_type_id":"4","last_reported":1691255080,"current_range_meters":4000,"station_id":"ce4bgvh2rcd13ifvqcs0","pricing_plan_id":"free"},{"bike_id":"a40d26eb-12f0-4391-b6a1-9d17b8bb1b29","system_id":"levelo_inurba_marseille","lat":43.302759,"lon":5.400793,"is_reserved":false,"is_disabled":false,"rental_uris":{"android":"levelo://app?vid=a40d26eb-12f0-4391-b6a1-9d17b8bb1b29","ios":"levelo://app?vid=a40d26eb-12f0-4391-b6a1-9d17b8bb1b29"},"vehicle_type_id":"4","last_reported":1691255080,"current_range_meters":14400,"station_id":"ce4bgvh2rcd13ifvqcs0","pricing_plan_id":"free"},{"bike_id":"42100a72-4e91-4453-a1f8-a05372468574","system_id":"levelo_inurba_marseille","lat":43.286039,"lon":5.370681,"is_reserved":false,"is_disabled":false,"rental_uris":{"android":"levelo://app?vid=42100a72-4e91-4453-a1f8-a05372468574","ios":"levelo://app?vid=42100a72-4e91-4453-a1f8-a05372468574"},"vehicle_type_id":"4","last_reported":1691255080,"current_range_meters":21600,"station_id":"ce4bht12rcd13ifvqi60","pricing_plan_id":"free"},{"bike_id":"4525ddb2-f47e-44bf-9e1a-c1c4c206976d","system_id":"levelo_inurba_marseille","lat":43.286039,"lon":5.370681,"is_reserved":false,"is_disabled":false,"rental_uris":{"android":"levelo://app?vid=4525ddb2-f47e-44bf-9e1a-c1c4c206976d","ios":"levelo://app?vid=4525ddb2-f47e-44bf-9e1a-c1c4c206976d"},"vehicle_type_id":"4","last_reported":1691255080,"current_range_meters":23600,"station_id":"ce4bht12rcd13ifvqi60","pricing_plan_id":"free"},{"bike_id":"6f55646d-c5a1-40ed-8c7b-27081eb80385","system_id":"levelo_inurba_marseille","lat":43.29363,"lon":5.39282,"is_reserved":false,"is_disabled":false,"rental_uris":{"android":"levelo://app?vid=6f55646d-c5a1-40ed-8c7b-27081eb80385","ios":"levelo://app?vid=6f55646d-c5a1-40ed-8c7b-27081eb80385"},"vehicle_type_id":"4","last_reported":1691255080,"current_range_meters":17600,"station_id":"","pricing_plan_id":"free"},{"bike_id":"aaeb4753-7155-40b3-b5cf-921c8e7c8725","system_id":"levelo_inurba_marseille","lat":43.316523,"lon":5.404367,"is_reserved":false,"is_disabled":false,"rental_uris":{"android":"levelo://app?vid=aaeb4753-7155-40b3-b5cf-921c8e7c8725","ios":"levelo://app?vid=aaeb4753-7155-40b3-b5cf-921c8e7c8725"},"vehicle_type_id":"4","last_reported":1691255080,"current_range_meters":2400,"station_id":"ce4bh012rcd13ifvqd00","pricing_plan_id":"free"},{"bike_id":"7b78d55e-e99c-4fa7-968a-c672d6912f00","system_id":"levelo_inurba_marseille","lat":43.284534,"lon":5.358662,"is_reserved":false,"is_disabled":false,"rental_uris":{"android":"levelo://app?vid=7b78d55e-e99c-4fa7-968a-c672d6912f00","ios":"levelo://app?vid=7b78d55e-e99c-4fa7-968a-c672d6912f00"},"vehicle_type_id":"4","last_reported":1691255080,"current_range_meters":31200,"station_id":"ce4bhah2rcd13ifvqei0","pricing_plan_id":"free"},{"bike_id":"daabc7da-57dd-4649-a754-5c9076f425d0","system_id":"levelo_inurba_marseille","lat":43.28622,"lon":5.35104,"is_reserved":false,"is_disabled":false,"rental_uris":{"android":"levelo://app?vid=daabc7da-57dd-4649-a754-5c9076f425d0","ios":"levelo://app?vid=daabc7da-57dd-4649-a754-5c9076f425d0"},"vehicle_type_id":"4","last_reported":1691255080,"current_range_meters":28000,"station_id":"ce4bhch2rcd13ifvqeug","pricing_plan_id":"free"},{"bike_id":"d7c750dc-4241-4adc-a615-ebf6445b8a77","system_id":"levelo_inurba_marseille","lat":43.28617,"lon":5.35109,"is_reserved":false,"is_disabled":false,"rental_uris":{"android":"levelo://app?vid=d7c750dc-4241-4adc-a615-ebf6445b8a77","ios":"levelo://app?vid=d7c750dc-4241-4adc-a615-ebf6445b8a77"},"vehicle_type_id":"4","last_reported":1691255080,"current_range_meters":10800,"station_id":"ce4bhch2rcd13ifvqeug","pricing_plan_id":"free"},{"bike_id":"21a91f06-23fa-46ca-8bc5-a0b20dd580aa","system_id":"levelo_inurba_marseille","lat":43.28616,"lon":5.35106,"is_reserved":false,"is_disabled":false,"rental_uris":{"android":"levelo://app?vid=21a91f06-23fa-46ca-8bc5-a0b20dd580aa","ios":"levelo://app?vid=21a91f06-23fa-46ca-8bc5-a0b20dd580aa"},"vehicle_type_id":"4","last_reported":1691255080,"current_range_meters":31200,"station_id":"ce4bhch2rcd13ifvqeug","pricing_plan_id":"free"},{"bike_id":"cdf78fbc-b727-4350-8c01-23b712e8faf2","system_id":"levelo_inurba_marseille","lat":43.28613,"lon":5.35112,"is_reserved":false,"is_disabled":false,"rental_uris":{"android":"levelo://app?vid=cdf78fbc-b727-4350-8c01-23b712e8faf2","ios":"levelo://app?vid=cdf78fbc-b727-4350-8c01-23b712e8faf2"},"vehicle_type_id":"4","last_reported":1691255080,"current_range_meters":9200,"station_id":"ce4bhch2rcd13ifvqeug","pricing_plan_id":"free"},{"bike_id":"8a2f068a-6195-4d98-814e-54403e1184d8","system_id":"levelo_inurba_marseille","lat":43.28616,"lon":5.35101,"is_reserved":false,"is_disabled":false,"rental_uris":{"android":"levelo://app?vid=8a2f068a-6195-4d98-814e-54403e1184d8","ios":"levelo://app?vid=8a2f068a-6195-4d98-814e-54403e1184d8"},"vehicle_type_id":"4","last_reported":1691255080,"current_range_meters":24800,"station_id":"ce4bhch2rcd13ifvqeug","pricing_plan_id":"free"},{"bike_id":"9de85def-13fe-454c-a86e-67c49fad86de","system_id":"levelo_inurba_marseille","lat":43.28614,"lon":5.35103,"is_reserved":false,"is_disabled":false,"rental_uris":{"android":"levelo://app?vid=9de85def-13fe-454c-a86e-67c49fad86de","ios":"levelo://app?vid=9de85def-13fe-454c-a86e-67c49fad86de"},"vehicle_type_id":"4","last_reported":1691255080,"current_range_meters":26000,"station_id":"ce4bhch2rcd13ifvqeug","pricing_plan_id":"free"},{"bike_id":"826d63ed-c8ce-4dd0-9b0c-a95beffb957c","system_id":"levelo_inurba_marseille","lat":43.28613,"lon":5.35106,"is_reserved":false,"is_disabled":false,"rental_uris":{"android":"levelo://app?vid=826d63ed-c8ce-4dd0-9b0c-a95beffb957c","ios":"levelo://app?vid=826d63ed-c8ce-4dd0-9b0c-a95beffb957c"},"vehicle_type_id":"4","last_reported":1691255080,"current_range_meters":12800,"station_id":"ce4bhch2rcd13ifvqeug","pricing_plan_id":"free"},{"bike_id":"0dd6cd48-c9ad-4924-b4ff-44d4aa4e5529","system_id":"levelo_inurba_marseille","lat":43.28613,"lon":5.35106,"is_reserved":false,"is_disabled":false,"rental_uris":{"android":"levelo://app?vid=0dd6cd48-c9ad-4924-b4ff-44d4aa4e5529","ios":"levelo://app?vid=0dd6cd48-c9ad-4924-b4ff-44d4aa4e5529"},"vehicle_type_id":"4","last_reported":1691255080,"current_range_meters":22400,"station_id":"ce4bhch2rcd13ifvqeug","pricing_plan_id":"free"},{"bike_id":"e431f523-df62-41e2-bd37-dfc917fd59a0","system_id":"levelo_inurba_marseille","lat":43.285856,"lon":5.350771,"is_reserved":false,"is_disabled":false,"rental_uris":{"android":"levelo://app?vid=e431f523-df62-41e2-bd37-dfc917fd59a0","ios":"levelo://app?vid=e431f523-df62-41e2-bd37-dfc917fd59a0"},"vehicle_type_id":"4","last_reported":1691255080,"current_range_meters":22400,"station_id":"ce4bhch2rcd13ifvqeug","pricing_plan_id":"free"},{"bike_id":"5f9cd16f-2eec-4870-a3f4-9c5c019c53e8","system_id":"levelo_inurba_marseille","lat":43.28614,"lon":5.35102,"is_reserved":false,"is_disabled":false,"rental_uris":{"android":"levelo://app?vid=5f9cd16f-2eec-4870-a3f4-9c5c019c53e8","ios":"levelo://app?vid=5f9cd16f-2eec-4870-a3f4-9c5c019c53e8"},"vehicle_type_id":"4","last_reported":1691255080,"current_range_meters":2000,"station_id":"ce4bhch2rcd13ifvqeug","pricing_plan_id":"free"},{"bike_id":"f162fc97-e5ad-4213-bf2d-00f486fc23a4","system_id":"levelo_inurba_marseille","lat":43.28614,"lon":5.35099,"is_reserved":false,"is_disabled":false,"rental_uris":{"android":"levelo://app?vid=f162fc97-e5ad-4213-bf2d-00f486fc23a4","ios":"levelo://app?vid=f162fc97-e5ad-4213-bf2d-00f486fc23a4"},"vehicle_type_id":"4","last_reported":1691255080,"current_range_meters":25200,"station_id":"ce4bhch2rcd13ifvqeug","pricing_plan_id":"free"},{"bike_id":"c5b7fca3-e3d2-48c7-9a26-207f07189c9f","system_id":"levelo_inurba_marseille","lat":43.28612,"lon":5.35104,"is_reserved":false,"is_disabled":false,"rental_uris":{"android":"levelo://app?vid=c5b7fca3-e3d2-48c7-9a26-207f07189c9f","ios":"levelo://app?vid=c5b7fca3-e3d2-48c7-9a26-207f07189c9f"},"vehicle_type_id":"4","last_reported":1691255080,"current_range_meters":31200,"station_id":"ce4bhch2rcd13ifvqeug","pricing_plan_id":"free"},{"bike_id":"c6076a00-007e-445d-a238-41d464260c23","system_id":"levelo_inurba_marseille","lat":43.2861,"lon":5.35108,"is_reserved":false,"is_disabled":false,"rental_uris":{"android":"levelo://app?vid=c6076a00-007e-445d-a238-41d464260c23","ios":"levelo://app?vid=c6076a00-007e-445d-a238-41d464260c23"},"vehicle_type_id":"4","last_reported":1691255080,"current_range_meters":17600,"station_id":"ce4bhch2rcd13ifvqeug","pricing_plan_id":"free"},{"bike_id":"346d7e21-a9c6-487c-ad8b-b0b65d549fdf","system_id":"levelo_inurba_marseille","lat":43.28614,"lon":5.35094,"is_reserved":false,"is_disabled":false,"rental_uris":{"android":"levelo://app?vid=346d7e21-a9c6-487c-ad8b-b0b65d549fdf","ios":"levelo://app?vid=346d7e21-a9c6-487c-ad8b-b0b65d549fdf"},"vehicle_type_id":"4","last_reported":1691255080,"current_range_meters":1600,"station_id":"ce4bhch2rcd13ifvqeug","pricing_plan_id":"free"},{"bike_id":"bbd13f55-12c2-40b4-90d3-ce7dc7beb321","system_id":"levelo_inurba_marseille","lat":43.285856,"lon":5.350771,"is_reserved":false,"is_disabled":false,"rental_uris":{"android":"levelo://app?vid=bbd13f55-12c2-40b4-90d3-ce7dc7beb321","ios":"levelo://app?vid=bbd13f55-12c2-40b4-90d3-ce7dc7beb321"},"vehicle_type_id":"4","last_reported":1691255080,"current_range_meters":29200,"station_id":"ce4bhch2rcd13ifvqeug","pricing_plan_id":"free"},{"bike_id":"095911da-4ce8-4e6d-bdba-81c7247c01a4","system_id":"levelo_inurba_marseille","lat":43.28611,"lon":5.351,"is_reserved":false,"is_disabled":false,"rental_uris":{"android":"levelo://app?vid=095911da-4ce8-4e6d-bdba-81c7247c01a4","ios":"levelo://app?vid=095911da-4ce8-4e6d-bdba-81c7247c01a4"},"vehicle_type_id":"4","last_reported":1691255080,"current_range_meters":24800,"station_id":"ce4bhch2rcd13ifvqeug","pricing_plan_id":"free"},{"bike_id":"3d7a131d-0062-49b0-a757-174d430c1df0","system_id":"levelo_inurba_marseille","lat":43.302759,"lon":5.400793,"is_reserved":false,"is_disabled":false,"rental_uris":{"android":"levelo://app?vid=3d7a131d-0062-49b0-a757-174d430c1df0","ios":"levelo://app?vid=3d7a131d-0062-49b0-a757-174d430c1df0"},"vehicle_type_id":"4","last_reported":1691255080,"current_range_meters":400,"station_id":"ce4bgvh2rcd13ifvqcs0","pricing_plan_id":"free"},{"bike_id":"436460b2-55e4-413f-b795-729cf45bfdaf","system_id":"levelo_inurba_marseille","lat":43.283998,"lon":5.375062,"is_reserved":false,"is_disabled":false,"rental_uris":{"android":"levelo://app?vid=436460b2-55e4-413f-b795-729cf45bfdaf","ios":"levelo://app?vid=436460b2-55e4-413f-b795-729cf45bfdaf"},"vehicle_type_id":"4","last_reported":1691255080,"current_range_meters":13600,"station_id":"ce4bh412rcd13ifvqds0","pricing_plan_id":"free"},{"bike_id":"2176264a-58a8-4307-bcd0-22003ce1aca2","system_id":"levelo_inurba_marseille","lat":43.283998,"lon":5.375062,"is_reserved":false,"is_disabled":false,"rental_uris":{"android":"levelo://app?vid=2176264a-58a8-4307-bcd0-22003ce1aca2","ios":"levelo://app?vid=2176264a-58a8-4307-bcd0-22003ce1aca2"},"vehicle_type_id":"4","last_reported":1691255080,"current_range_meters":8800,"station_id":"ce4bh412rcd13ifvqds0","pricing_plan_id":"free"},{"bike_id":"2ea6657b-88e0-4490-82c9-09eb5391100d","system_id":"levelo_inurba_marseille","lat":43.283998,"lon":5.375062,"is_reserved":false,"is_disabled":false,"rental_uris":{"android":"levelo://app?vid=2ea6657b-88e0-4490-82c9-09eb5391100d","ios":"levelo://app?vid=2ea6657b-88e0-4490-82c9-09eb5391100d"},"vehicle_type_id":"4","last_reported":1691255080,"current_range_meters":11600,"station_id":"ce4bh412rcd13ifvqds0","pricing_plan_id":"free"},{"bike_id":"283ccede-73c3-49f4-8357-44082b547d2f","system_id":"levelo_inurba_marseille","lat":43.283998,"lon":5.375062,"is_reserved":false,"is_disabled":false,"rental_uris":{"android":"levelo://app?vid=283ccede-73c3-49f4-8357-44082b547d2f","ios":"levelo://app?vid=283ccede-73c3-49f4-8357-44082b547d2f"},"vehicle_type_id":"4","last_reported":1691255080,"current_range_meters":11600,"station_id":"ce4bh412rcd13ifvqds0","pricing_plan_id":"free"},{"bike_id":"41e2c979-7f3b-4ada-a5e4-108358f20f84","system_id":"levelo_inurba_marseille","lat":43.283998,"lon":5.375062,"is_reserved":false,"is_disabled":false,"rental_uris":{"android":"levelo://app?vid=41e2c979-7f3b-4ada-a5e4-108358f20f84","ios":"levelo://app?vid=41e2c979-7f3b-4ada-a5e4-108358f20f84"},"vehicle_type_id":"4","last_reported":1691255080,"current_range_meters":3200,"station_id":"ce4bh412rcd13ifvqds0","pricing_plan_id":"free"},{"bike_id":"a2989afd-34dc-47c7-8e05-80d48dccf8c6","system_id":"levelo_inurba_marseille","lat":43.283998,"lon":5.375062,"is_reserved":false,"is_disabled":false,"rental_uris":{"android":"levelo://app?vid=a2989afd-34dc-47c7-8e05-80d48dccf8c6","ios":"levelo://app?vid=a2989afd-34dc-47c7-8e05-80d48dccf8c6"},"vehicle_type_id":"4","last_reported":1691255080,"current_range_meters":16400,"station_id":"ce4bh412rcd13ifvqds0","pricing_plan_id":"free"},{"bike_id":"75ae4b47-97a2-4652-994d-398c5d7e8606","system_id":"levelo_inurba_marseille","lat":43.283998,"lon":5.375062,"is_reserved":false,"is_disabled":false,"rental_uris":{"android":"levelo://app?vid=75ae4b47-97a2-4652-994d-398c5d7e8606","ios":"levelo://app?vid=75ae4b47-97a2-4652-994d-398c5d7e8606"},"vehicle_type_id":"4","last_reported":1691255080,"current_range_meters":10400,"station_id":"ce4bh412rcd13ifvqds0","pricing_plan_id":"free"},{"bike_id":"3a8cd721-d693-4a0e-9506-6e21decbd11f","system_id":"levelo_inurba_marseille","lat":43.31886,"lon":5.40727,"is_reserved":false,"is_disabled":false,"rental_uris":{"android":"levelo://app?vid=3a8cd721-d693-4a0e-9506-6e21decbd11f","ios":"levelo://app?vid=3a8cd721-d693-4a0e-9506-6e21decbd11f"},"vehicle_type_id":"4","last_reported":1691255080,"current_range_meters":0,"station_id":"","pricing_plan_id":"free"},{"bike_id":"8a68b422-727e-4822-aaae-cc830c57c7e3","system_id":"levelo_inurba_marseille","lat":43.319179,"lon":5.407725,"is_reserved":false,"is_disabled":false,"rental_uris":{"android":"levelo://app?vid=8a68b422-727e-4822-aaae-cc830c57c7e3","ios":"levelo://app?vid=8a68b422-727e-4822-aaae-cc830c57c7e3"},"vehicle_type_id":"4","last_reported":1691255080,"current_range_meters":12000,"station_id":"ce4bhq12rcd13ifvqhig","pricing_plan_id":"free"},{"bike_id":"c59f30af-b7c9-4762-b544-56156d6a8a97","system_id":"levelo_inurba_marseille","lat":43.33719,"lon":5.39174,"is_reserved":false,"is_disabled":false,"rental_uris":{"android":"levelo://app?vid=c59f30af-b7c9-4762-b544-56156d6a8a97","ios":"levelo://app?vid=c59f30af-b7c9-4762-b544-56156d6a8a97"},"vehicle_type_id":"4","last_reported":1691255080,"current_range_meters":16000,"station_id":"ce4bhr92rcd13ifvqhsg","pricing_plan_id":"free"},{"bike_id":"a9671d69-2a62-4abb-9d98-78ee12b6b2d8","system_id":"levelo_inurba_marseille","lat":43.33721,"lon":5.39177,"is_reserved":false,"is_disabled":false,"rental_uris":{"android":"levelo://app?vid=a9671d69-2a62-4abb-9d98-78ee12b6b2d8","ios":"levelo://app?vid=a9671d69-2a62-4abb-9d98-78ee12b6b2d8"},"vehicle_type_id":"4","last_reported":1691255080,"current_range_meters":28800,"station_id":"ce4bhr92rcd13ifvqhsg","pricing_plan_id":"free"},{"bike_id":"1f5722b0-5667-43f6-9dad-3a3b818c5a69","system_id":"levelo_inurba_marseille","lat":43.337168,"lon":5.391825,"is_reserved":false,"is_disabled":false,"rental_uris":{"android":"levelo://app?vid=1f5722b0-5667-43f6-9dad-3a3b818c5a69","ios":"levelo://app?vid=1f5722b0-5667-43f6-9dad-3a3b818c5a69"},"vehicle_type_id":"4","last_reported":1691255080,"current_range_meters":26800,"station_id":"ce4bhr92rcd13ifvqhsg","pricing_plan_id":"free"},{"bike_id":"c09b5daa-f708-45a8-b32c-23101564ac3a","system_id":"levelo_inurba_marseille","lat":43.33721,"lon":5.39182,"is_reserved":false,"is_disabled":false,"rental_uris":{"android":"levelo://app?vid=c09b5daa-f708-45a8-b32c-23101564ac3a","ios":"levelo://app?vid=c09b5daa-f708-45a8-b32c-23101564ac3a"},"vehicle_type_id":"4","last_reported":1691255080,"current_range_meters":30000,"station_id":"ce4bhr92rcd13ifvqhsg","pricing_plan_id":"free"},{"bike_id":"e738aeff-38af-43b6-b02b-eeb93b6490b5","system_id":"levelo_inurba_marseille","lat":43.323464,"lon":5.406297,"is_reserved":false,"is_disabled":false,"rental_uris":{"android":"levelo://app?vid=e738aeff-38af-43b6-b02b-eeb93b6490b5","ios":"levelo://app?vid=e738aeff-38af-43b6-b02b-eeb93b6490b5"},"vehicle_type_id":"4","last_reported":1691255080,"current_range_meters":28800,"station_id":"ce4bhq92rcd13ifvqhjg","pricing_plan_id":"free"},{"bike_id":"3e563380-a985-451c-801d-2783d7714294","system_id":"levelo_inurba_marseille","lat":43.337168,"lon":5.391825,"is_reserved":false,"is_disabled":false,"rental_uris":{"android":"levelo://app?vid=3e563380-a985-451c-801d-2783d7714294","ios":"levelo://app?vid=3e563380-a985-451c-801d-2783d7714294"},"vehicle_type_id":"4","last_reported":1691255080,"current_range_meters":30400,"station_id":"ce4bhr92rcd13ifvqhsg","pricing_plan_id":"free"},{"bike_id":"e65494e0-d3c7-4810-9c29-a550d7a2a693","system_id":"levelo_inurba_marseille","lat":43.323464,"lon":5.406297,"is_reserved":false,"is_disabled":false,"rental_uris":{"android":"levelo://app?vid=e65494e0-d3c7-4810-9c29-a550d7a2a693","ios":"levelo://app?vid=e65494e0-d3c7-4810-9c29-a550d7a2a693"},"vehicle_type_id":"4","last_reported":1691255080,"current_range_meters":31200,"station_id":"ce4bhq92rcd13ifvqhjg","pricing_plan_id":"free"},{"bike_id":"9ed5c8cd-5716-467d-9a0b-e5002dcb5a2c","system_id":"levelo_inurba_marseille","lat":43.33724,"lon":5.39185,"is_reserved":false,"is_disabled":false,"rental_uris":{"android":"levelo://app?vid=9ed5c8cd-5716-467d-9a0b-e5002dcb5a2c","ios":"levelo://app?vid=9ed5c8cd-5716-467d-9a0b-e5002dcb5a2c"},"vehicle_type_id":"4","last_reported":1691255080,"current_range_meters":25200,"station_id":"ce4bhr92rcd13ifvqhsg","pricing_plan_id":"free"},{"bike_id":"9d8dc018-8295-487e-aae9-79ce0f469cdf","system_id":"levelo_inurba_marseille","lat":43.3373,"lon":5.39174,"is_reserved":false,"is_disabled":false,"rental_uris":{"android":"levelo://app?vid=9d8dc018-8295-487e-aae9-79ce0f469cdf","ios":"levelo://app?vid=9d8dc018-8295-487e-aae9-79ce0f469cdf"},"vehicle_type_id":"4","last_reported":1691255080,"current_range_meters":20000,"station_id":"ce4bhr92rcd13ifvqhsg","pricing_plan_id":"free"},{"bike_id":"df82d2f9-f688-4670-ac84-3e543122cedb","system_id":"levelo_inurba_marseille","lat":43.33727,"lon":5.3918,"is_reserved":false,"is_disabled":false,"rental_uris":{"android":"levelo://app?vid=df82d2f9-f688-4670-ac84-3e543122cedb","ios":"levelo://app?vid=df82d2f9-f688-4670-ac84-3e543122cedb"},"vehicle_type_id":"4","last_reported":1691255080,"current_range_meters":27600,"station_id":"ce4bhr92rcd13ifvqhsg","pricing_plan_id":"free"},{"bike_id":"f18b4051-8145-4f33-aee1-6f539e29d721","system_id":"levelo_inurba_marseille","lat":43.33728,"lon":5.39181,"is_reserved":false,"is_disabled":false,"rental_uris":{"android":"levelo://app?vid=f18b4051-8145-4f33-aee1-6f539e29d721","ios":"levelo://app?vid=f18b4051-8145-4f33-aee1-6f539e29d721"},"vehicle_type_id":"4","last_reported":1691255080,"current_range_meters":30000,"station_id":"ce4bhr92rcd13ifvqhsg","pricing_plan_id":"free"},{"bike_id":"099dab48-d62e-478f-b2f9-87c50aba59e7","system_id":"levelo_inurba_marseille","lat":43.323464,"lon":5.406297,"is_reserved":false,"is_disabled":false,"rental_uris":{"android":"levelo://app?vid=099dab48-d62e-478f-b2f9-87c50aba59e7","ios":"levelo://app?vid=099dab48-d62e-478f-b2f9-87c50aba59e7"},"vehicle_type_id":"4","last_reported":1691255080,"current_range_meters":29600,"station_id":"ce4bhq92rcd13ifvqhjg","pricing_plan_id":"free"},{"bike_id":"939edbe6-adcc-4f97-ad69-99748df4073d","system_id":"levelo_inurba_marseille","lat":43.33727,"lon":5.39186,"is_reserved":false,"is_disabled":false,"rental_uris":{"android":"levelo://app?vid=939edbe6-adcc-4f97-ad69-99748df4073d","ios":"levelo://app?vid=939edbe6-adcc-4f97-ad69-99748df4073d"},"vehicle_type_id":"4","last_reported":1691255080,"current_range_meters":20000,"station_id":"ce4bhr92rcd13ifvqhsg","pricing_plan_id":"free"},{"bike_id":"65e7209e-43de-4472-85bf-edccad84c81f","system_id":"levelo_inurba_marseille","lat":43.33727,"lon":5.39188,"is_reserved":false,"is_disabled":false,"rental_uris":{"android":"levelo://app?vid=65e7209e-43de-4472-85bf-edccad84c81f","ios":"levelo://app?vid=65e7209e-43de-4472-85bf-edccad84c81f"},"vehicle_type_id":"4","last_reported":1691255080,"current_range_meters":21600,"station_id":"ce4bhr92rcd13ifvqhsg","pricing_plan_id":"free"},{"bike_id":"c18f778a-412b-4e65-93bd-c84b43f31b06","system_id":"levelo_inurba_marseille","lat":43.33732,"lon":5.39179,"is_reserved":false,"is_disabled":false,"rental_uris":{"android":"levelo://app?vid=c18f778a-412b-4e65-93bd-c84b43f31b06","ios":"levelo://app?vid=c18f778a-412b-4e65-93bd-c84b43f31b06"},"vehicle_type_id":"4","last_reported":1691255080,"current_range_meters":30400,"station_id":"ce4bhr92rcd13ifvqhsg","pricing_plan_id":"free"},{"bike_id":"8e4ab4c7-b2dc-4e74-b07d-1ff49a416721","system_id":"levelo_inurba_marseille","lat":43.3373,"lon":5.39183,"is_reserved":false,"is_disabled":false,"rental_uris":{"android":"levelo://app?vid=8e4ab4c7-b2dc-4e74-b07d-1ff49a416721","ios":"levelo://app?vid=8e4ab4c7-b2dc-4e74-b07d-1ff49a416721"},"vehicle_type_id":"4","last_reported":1691255080,"current_range_meters":13600,"station_id":"ce4bhr92rcd13ifvqhsg","pricing_plan_id":"free"},{"bike_id":"dbada9f9-e33c-4a7d-ab43-1cac4e571e70","system_id":"levelo_inurba_marseille","lat":43.28483,"lon":5.38437,"is_reserved":false,"is_disabled":false,"rental_uris":{"android":"levelo://app?vid=dbada9f9-e33c-4a7d-ab43-1cac4e571e70","ios":"levelo://app?vid=dbada9f9-e33c-4a7d-ab43-1cac4e571e70"},"vehicle_type_id":"4","last_reported":1691255080,"current_range_meters":28800,"station_id":"ce4bh512rcd13ifvqe3g","pricing_plan_id":"free"},{"bike_id":"9dd9551d-bad8-43de-8fd5-5aac65df9739","system_id":"levelo_inurba_marseille","lat":43.284787,"lon":5.384116,"is_reserved":false,"is_disabled":false,"rental_uris":{"android":"levelo://app?vid=9dd9551d-bad8-43de-8fd5-5aac65df9739","ios":"levelo://app?vid=9dd9551d-bad8-43de-8fd5-5aac65df9739"},"vehicle_type_id":"4","last_reported":1691255080,"current_range_meters":10400,"station_id":"ce4bh512rcd13ifvqe3g","pricing_plan_id":"free"},{"bike_id":"388494ef-5d05-4983-be38-5d32496cb012","system_id":"levelo_inurba_marseille","lat":43.288497,"lon":5.393089,"is_reserved":false,"is_disabled":false,"rental_uris":{"android":"levelo://app?vid=388494ef-5d05-4983-be38-5d32496cb012","ios":"levelo://app?vid=388494ef-5d05-4983-be38-5d32496cb012"},"vehicle_type_id":"4","last_reported":1691255080,"current_range_meters":25200,"station_id":"ce4bh2p2rcd13ifvqdi0","pricing_plan_id":"free"},{"bike_id":"e2d46ed7-bbec-403e-8028-b78787059d3e","system_id":"levelo_inurba_marseille","lat":43.288497,"lon":5.393089,"is_reserved":false,"is_disabled":false,"rental_uris":{"android":"levelo://app?vid=e2d46ed7-bbec-403e-8028-b78787059d3e","ios":"levelo://app?vid=e2d46ed7-bbec-403e-8028-b78787059d3e"},"vehicle_type_id":"4","last_reported":1691255080,"current_range_meters":17200,"station_id":"ce4bh2p2rcd13ifvqdi0","pricing_plan_id":"free"},{"bike_id":"648d8be2-de19-4d27-9824-9ac3381a38b2","system_id":"levelo_inurba_marseille","lat":43.288501,"lon":5.393087,"is_reserved":false,"is_disabled":false,"rental_uris":{"android":"levelo://app?vid=648d8be2-de19-4d27-9824-9ac3381a38b2","ios":"levelo://app?vid=648d8be2-de19-4d27-9824-9ac3381a38b2"},"vehicle_type_id":"4","last_reported":1691255080,"current_range_meters":19600,"station_id":"ce4bh2p2rcd13ifvqdi0","pricing_plan_id":"free"},{"bike_id":"e9ec3500-3923-4429-beaa-bfdec2411249","system_id":"levelo_inurba_marseille","lat":43.288501,"lon":5.393087,"is_reserved":false,"is_disabled":false,"rental_uris":{"android":"levelo://app?vid=e9ec3500-3923-4429-beaa-bfdec2411249","ios":"levelo://app?vid=e9ec3500-3923-4429-beaa-bfdec2411249"},"vehicle_type_id":"4","last_reported":1691255080,"current_range_meters":27200,"station_id":"ce4bh2p2rcd13ifvqdi0","pricing_plan_id":"free"},{"bike_id":"8a3ed4a5-cfab-4c6b-bcae-b177b4aaa18d","system_id":"levelo_inurba_marseille","lat":43.284219,"lon":5.3497,"is_reserved":false,"is_disabled":false,"rental_uris":{"android":"levelo://app?vid=8a3ed4a5-cfab-4c6b-bcae-b177b4aaa18d","ios":"levelo://app?vid=8a3ed4a5-cfab-4c6b-bcae-b177b4aaa18d"},"vehicle_type_id":"4","last_reported":1691255080,"current_range_meters":31600,"station_id":"ce4bhbh2rcd13ifvqepg","pricing_plan_id":"free"},{"bike_id":"ded422b2-7768-42c5-9ed9-f5450eb640a3","system_id":"levelo_inurba_marseille","lat":43.2842,"lon":5.34996,"is_reserved":false,"is_disabled":false,"rental_uris":{"android":"levelo://app?vid=ded422b2-7768-42c5-9ed9-f5450eb640a3","ios":"levelo://app?vid=ded422b2-7768-42c5-9ed9-f5450eb640a3"},"vehicle_type_id":"4","last_reported":1691255080,"current_range_meters":18400,"station_id":"ce4bhbh2rcd13ifvqepg","pricing_plan_id":"free"},{"bike_id":"7d9b7f3c-dd42-47d5-85ac-128083f141b9","system_id":"levelo_inurba_marseille","lat":43.284219,"lon":5.3497,"is_reserved":false,"is_disabled":false,"rental_uris":{"android":"levelo://app?vid=7d9b7f3c-dd42-47d5-85ac-128083f141b9","ios":"levelo://app?vid=7d9b7f3c-dd42-47d5-85ac-128083f141b9"},"vehicle_type_id":"4","last_reported":1691255080,"current_range_meters":21600,"station_id":"ce4bhbh2rcd13ifvqepg","pricing_plan_id":"free"},{"bike_id":"85cf140a-4e01-441e-94f4-659e0cae9f97","system_id":"levelo_inurba_marseille","lat":43.284219,"lon":5.3497,"is_reserved":false,"is_disabled":false,"rental_uris":{"android":"levelo://app?vid=85cf140a-4e01-441e-94f4-659e0cae9f97","ios":"levelo://app?vid=85cf140a-4e01-441e-94f4-659e0cae9f97"},"vehicle_type_id":"4","last_reported":1691255080,"current_range_meters":18400,"station_id":"ce4bhbh2rcd13ifvqepg","pricing_plan_id":"free"},{"bike_id":"7675f8bc-0ad5-45b3-8a5b-963834173dc3","system_id":"levelo_inurba_marseille","lat":43.284219,"lon":5.3497,"is_reserved":false,"is_disabled":false,"rental_uris":{"android":"levelo://app?vid=7675f8bc-0ad5-45b3-8a5b-963834173dc3","ios":"levelo://app?vid=7675f8bc-0ad5-45b3-8a5b-963834173dc3"},"vehicle_type_id":"4","last_reported":1691255080,"current_range_meters":30000,"station_id":"ce4bhbh2rcd13ifvqepg","pricing_plan_id":"free"},{"bike_id":"36bbe715-55ec-496e-8874-eedaeb143f07","system_id":"levelo_inurba_marseille","lat":43.284219,"lon":5.3497,"is_reserved":false,"is_disabled":false,"rental_uris":{"android":"levelo://app?vid=36bbe715-55ec-496e-8874-eedaeb143f07","ios":"levelo://app?vid=36bbe715-55ec-496e-8874-eedaeb143f07"},"vehicle_type_id":"4","last_reported":1691255080,"current_range_meters":22400,"station_id":"ce4bhbh2rcd13ifvqepg","pricing_plan_id":"free"},{"bike_id":"0651ff55-7dc8-4951-9f7a-53dcfa1f2147","system_id":"levelo_inurba_marseille","lat":43.28417,"lon":5.34991,"is_reserved":false,"is_disabled":false,"rental_uris":{"android":"levelo://app?vid=0651ff55-7dc8-4951-9f7a-53dcfa1f2147","ios":"levelo://app?vid=0651ff55-7dc8-4951-9f7a-53dcfa1f2147"},"vehicle_type_id":"4","last_reported":1691255080,"current_range_meters":22800,"station_id":"ce4bhbh2rcd13ifvqepg","pricing_plan_id":"free"},{"bike_id":"5f0bec31-4196-48cc-b999-93b33296f604","system_id":"levelo_inurba_marseille","lat":43.284219,"lon":5.3497,"is_reserved":false,"is_disabled":false,"rental_uris":{"android":"levelo://app?vid=5f0bec31-4196-48cc-b999-93b33296f604","ios":"levelo://app?vid=5f0bec31-4196-48cc-b999-93b33296f604"},"vehicle_type_id":"4","last_reported":1691255080,"current_range_meters":21200,"station_id":"ce4bhbh2rcd13ifvqepg","pricing_plan_id":"free"},{"bike_id":"c7e35164-bf02-4ae2-9ea3-6f6f27cd0c8f","system_id":"levelo_inurba_marseille","lat":43.284217,"lon":5.349697,"is_reserved":false,"is_disabled":false,"rental_uris":{"android":"levelo://app?vid=c7e35164-bf02-4ae2-9ea3-6f6f27cd0c8f","ios":"levelo://app?vid=c7e35164-bf02-4ae2-9ea3-6f6f27cd0c8f"},"vehicle_type_id":"4","last_reported":1691255080,"current_range_meters":30400,"station_id":"ce4bhbh2rcd13ifvqepg","pricing_plan_id":"free"},{"bike_id":"53c26e3b-d777-4608-a954-db9a12b5dc49","system_id":"levelo_inurba_marseille","lat":43.284219,"lon":5.3497,"is_reserved":false,"is_disabled":false,"rental_uris":{"android":"levelo://app?vid=53c26e3b-d777-4608-a954-db9a12b5dc49","ios":"levelo://app?vid=53c26e3b-d777-4608-a954-db9a12b5dc49"},"vehicle_type_id":"4","last_reported":1691255080,"current_range_meters":22400,"station_id":"ce4bhbh2rcd13ifvqepg","pricing_plan_id":"free"},{"bike_id":"3fcd5736-6adf-46c8-bcc1-a5322ac10ba9","system_id":"levelo_inurba_marseille","lat":43.28414,"lon":5.34996,"is_reserved":false,"is_disabled":false,"rental_uris":{"android":"levelo://app?vid=3fcd5736-6adf-46c8-bcc1-a5322ac10ba9","ios":"levelo://app?vid=3fcd5736-6adf-46c8-bcc1-a5322ac10ba9"},"vehicle_type_id":"4","last_reported":1691255080,"current_range_meters":24400,"station_id":"ce4bhbh2rcd13ifvqepg","pricing_plan_id":"free"},{"bike_id":"64b08f15-53b1-4f81-9260-515520346a13","system_id":"levelo_inurba_marseille","lat":43.284219,"lon":5.3497,"is_reserved":false,"is_disabled":false,"rental_uris":{"android":"levelo://app?vid=64b08f15-53b1-4f81-9260-515520346a13","ios":"levelo://app?vid=64b08f15-53b1-4f81-9260-515520346a13"},"vehicle_type_id":"4","last_reported":1691255080,"current_range_meters":19600,"station_id":"ce4bhbh2rcd13ifvqepg","pricing_plan_id":"free"},{"bike_id":"c48cf4ba-8fc6-49b4-91f1-659b56290da6","system_id":"levelo_inurba_marseille","lat":43.28416,"lon":5.34989,"is_reserved":false,"is_disabled":false,"rental_uris":{"android":"levelo://app?vid=c48cf4ba-8fc6-49b4-91f1-659b56290da6","ios":"levelo://app?vid=c48cf4ba-8fc6-49b4-91f1-659b56290da6"},"vehicle_type_id":"4","last_reported":1691255080,"current_range_meters":19200,"station_id":"ce4bhbh2rcd13ifvqepg","pricing_plan_id":"free"},{"bike_id":"d1fc8436-c2ba-45d5-809c-94e49f0da255","system_id":"levelo_inurba_marseille","lat":43.284219,"lon":5.3497,"is_reserved":false,"is_disabled":false,"rental_uris":{"android":"levelo://app?vid=d1fc8436-c2ba-45d5-809c-94e49f0da255","ios":"levelo://app?vid=d1fc8436-c2ba-45d5-809c-94e49f0da255"},"vehicle_type_id":"4","last_reported":1691255080,"current_range_meters":28400,"station_id":"ce4bhbh2rcd13ifvqepg","pricing_plan_id":"free"},{"bike_id":"c22568c2-fbe5-4a53-b43e-027d57abd94b","system_id":"levelo_inurba_marseille","lat":43.28415,"lon":5.3499,"is_reserved":false,"is_disabled":false,"rental_uris":{"android":"levelo://app?vid=c22568c2-fbe5-4a53-b43e-027d57abd94b","ios":"levelo://app?vid=c22568c2-fbe5-4a53-b43e-027d57abd94b"},"vehicle_type_id":"4","last_reported":1691255080,"current_range_meters":18400,"station_id":"ce4bhbh2rcd13ifvqepg","pricing_plan_id":"free"},{"bike_id":"40dfc828-d728-41dc-a62b-bc78bc08390e","system_id":"levelo_inurba_marseille","lat":43.284219,"lon":5.3497,"is_reserved":false,"is_disabled":false,"rental_uris":{"android":"levelo://app?vid=40dfc828-d728-41dc-a62b-bc78bc08390e","ios":"levelo://app?vid=40dfc828-d728-41dc-a62b-bc78bc08390e"},"vehicle_type_id":"4","last_reported":1691255080,"current_range_meters":25600,"station_id":"ce4bhbh2rcd13ifvqepg","pricing_plan_id":"free"},{"bike_id":"099b5257-d5ad-40e9-994a-75d98c3c80f8","system_id":"levelo_inurba_marseille","lat":43.284219,"lon":5.3497,"is_reserved":false,"is_disabled":false,"rental_uris":{"android":"levelo://app?vid=099b5257-d5ad-40e9-994a-75d98c3c80f8","ios":"levelo://app?vid=099b5257-d5ad-40e9-994a-75d98c3c80f8"},"vehicle_type_id":"4","last_reported":1691255080,"current_range_meters":19200,"station_id":"ce4bhbh2rcd13ifvqepg","pricing_plan_id":"free"},{"bike_id":"443ec611-e2c6-485a-b5ad-ac1d56d92e5e","system_id":"levelo_inurba_marseille","lat":43.284219,"lon":5.3497,"is_reserved":false,"is_disabled":false,"rental_uris":{"android":"levelo://app?vid=443ec611-e2c6-485a-b5ad-ac1d56d92e5e","ios":"levelo://app?vid=443ec611-e2c6-485a-b5ad-ac1d56d92e5e"},"vehicle_type_id":"4","last_reported":1691255080,"current_range_meters":31200,"station_id":"ce4bhbh2rcd13ifvqepg","pricing_plan_id":"free"},