{"last_updated":1726052943,"ttl":30,"version":"2.2","data":{"bikes":[{"bike_id":"48f985cb-f131-47d7-802e-18527d5284ef","system_id":"levelo_inurba_marseille","lat":43.244629,"lon":5.374242,"is_reserved":false,"is_disabled":false,"rental_uris":{"android":"levelo://app?vid=48f985cb-f131-47d7-802e-18527d5284ef","ios":"levelo://app?vid=48f985cb-f131-47d7-802e-18527d5284ef"},"vehicle_type_id":"4","last_reported":1726052943,"current_range_meters":20800,"station_id":"ce4bhf92rcd13ifvqf50","pricing_plan_id":"cebpf4jnsgd1na2vs0mg"},{"bike_id":"f56f0c93-bf77-4e54-9e0a-65b6b35b836b","system_id":"levelo_inurba_marseille","lat":43.25915,"lon":5.40873,"is_reserved":false,"is_disabled":false,"rental_uris":{"android":"levelo://app?vid=f56f0c93-bf77-4e54-9e0a-65b6b35b836b","ios":"levelo://app?vid=f56f0c93-bf77-4e54-9e0a-65b6b35b836b"},"vehicle_type_id":"4","last_reported":1726052943,"current_range_meters":11600,"station_id":"ce4bhm92rcd13ifvqglg","pricing_plan_id":"cebpf4jnsgd1na2vs0mg"},{"bike_id":"af5ebd69-067f-4372-a2f2-3d3f1b1c3e28","system_id":"levelo_inurba_marseille","lat":43.26807,"lon":5.40265,"is_reserved":false,"is_disabled":false,"rental_uris":{"android":"levelo://app?vid=af5ebd69-067f-4372-a2f2-3d3f1b1c3e28","ios":"levelo://app?vid=af5ebd69-067f-4372-a2f2-3d3f1b1c3e28"},"vehicle_type_id":"4","last_reported":1726052943,"current_range_meters":32000,"station_id":"ce501612rcd8frsf0b60","pricing_plan_id":"cebpf4jnsgd1na2vs0mg"},{"bike_id":"076eed2f-acff-49e1-939c-d0a4d7ec60c4","system_id":"levelo_inurba_marseille","lat":43.337444,"lon":5.374475,"is_reserved":false,"is_disabled":false,"rental_uris":{"android":"levelo://app?vid=076eed2f-acff-49e1-939c-d0a4d7ec60c4","ios":"levelo://app?vid=076eed2f-acff-49e1-939c-d0a4d7ec60c4"},"vehicle_type_id":"4","last_reported":1726052943,"current_range_meters":33600,"station_id":"ce4bhm12rcd13ifvqgkg","pricing_plan_id":"cebpf4jnsgd1na2vs0mg"},{"bike_id":"df309b89-5a78-43de-882f-97473f6ecfee","system_id":"levelo_inurba_marseille","lat":43.26202,"lon":5.37452,"is_reserved":false,"is_disabled":false,"rental_uris":{"android":"levelo://app?vid=df309b89-5a78-43de-882f-97473f6ecfee","ios":"levelo://app?vid=df309b89-5a78-43de-882f-97473f6ecfee"},"vehicle_type_id":"4","last_reported":1726052943,"current_range_meters":14000,"station_id":"ce4bhgp2rcd13ifvqfc0","pricing_plan_id":"cebpf4jnsgd1na2vs0mg"},{"bike_id":"a4171d59-c847-40ad-b231-2743d8708495","system_id":"levelo_inurba_marseille","lat":43.297918,"lon":5.382013,"is_reserved":false,"is_disabled":false,"rental_uris":{"android":"levelo://app?vid=a4171d59-c847-40ad-b231-2743d8708495","ios":"levelo://app?vid=a4171d59-c847-40ad-b231-2743d8708495"},"vehicle_type_id":"4","last_reported":1726052943,"current_range_meters":25600,"station_id":"ce4bgip2rcd13ifvqbb0","pricing_plan_id":"cebpf4jnsgd1na2vs0mg"},{"bike_id":"e3e51122-48a1-453a-a082-cb7d6579d717","system_id":"levelo_inurba_marseille","lat":43.29708,"lon":5.38139,"is_reserved":false,"is_disabled":false,"rental_uris":{"android":"levelo://app?vid=e3e51122-48a1-453a-a082-cb7d6579d717","ios":"levelo://app?vid=e3e51122-48a1-453a-a082-cb7d6579d717"},"vehicle_type_id":"4","last_reported":1726052943,"current_range_meters":36800,"station_id":"","pricing_plan_id":"cebpf4jnsgd1na2vs0mg"},{"bike_id":"93ff9b33-20dd-4ae4-a6b7-1cc7dab0baf3","system_id":"levelo_inurba_marseille","lat":43.2901,"lon":5.372669,"is_reserved":false,"is_disabled":false,"rental_uris":{"android":"levelo://app?vid=93ff9b33-20dd-4ae4-a6b7-1cc7dab0baf3","ios":"levelo://app?vid=93ff9b33-20dd-4ae4-a6b7-1cc7dab0baf3"},"vehicle_type_id":"4","last_reported":1726052943,"current_range_meters":24800,"station_id":"","pricing_plan_id":"cebpf4jnsgd1na2vs0mg"},{"bike_id":"ea2ddb7b-9622-4f69-a771-c53556b72d68","system_id":"levelo_inurba_marseille","lat":43.25083,"lon":5.39519,"is_reserved":false,"is_disabled":false,"rental_uris":{"android":"levelo://app?vid=ea2ddb7b-9622-4f69-a771-c53556b72d68","ios":"levelo://app?vid=ea2ddb7b-9622-4f69-a771-c53556b72d68"},"vehicle_type_id":"4","last_reported":1726052943,"current_range_meters":21600,"station_id":"ce4bhm12rcd13ifvqgkg","pricing_plan_id":"cebpf4jnsgd1na2vs0mg"},{"bike_id":"2fd862b8-b2e1-47f9-bebb-44e9e3518085","system_id":"levelo_inurba_marseille","lat":43.2956,"lon":5.42284,"is_reserved":false,"is_disabled":false,"rental_uris":{"android":"levelo://app?vid=2fd862b8-b2e1-47f9-bebb-44e9e3518085","ios":"levelo://app?vid=2fd862b8-b2e1-47f9-bebb-44e9e3518085"},"vehicle_type_id":"4","last_reported":1726052943,"current_range_meters":33600,"station_id":"ce4bhph2rcd13ifvqhdg","pricing_plan_id":"cebpf4jnsgd1na2vs0mg"},{"bike_id":"3d861359-aa19-4d0f-ac3e-56e7ed5f5f97","system_id":"levelo_inurba_marseille","lat":43.30896,"lon":5.37195,"is_reserved":false,"is_disabled":false,"rental_uris":{"android":"levelo://app?vid=3d861359-aa19-4d0f-ac3e-56e7ed5f5f97","ios":"levelo://app?vid=3d861359-aa19-4d0f-ac3e-56e7ed5f5f97"},"vehicle_type_id":"4","last_reported":1726052943,"current_range_meters":8400,"station_id":"ce4bguh2rcd13ifvqckg","pricing_plan_id":"cebpf4jnsgd1na2vs0mg"},{"bike_id":"343f8a7b-c84d-46f3-98b4-8253eb0833f1","system_id":"levelo_inurba_marseille","lat":43.29555,"lon":5.42285,"is_reserved":false,"is_disabled":false,"rental_uris":{"android":"levelo://app?vid=343f8a7b-c84d-46f3-98b4-8253eb0833f1","ios":"levelo://app?vid=343f8a7b-c84d-46f3-98b4-8253eb0833f1"},"vehicle_type_id":"4","last_reported":1726052943,"current_range_meters":6800,"station_id":"ce4bhph2rcd13ifvqhdg","pricing_plan_id":"cebpf4jnsgd1na2vs0mg"},{"bike_id":"12cebb0e-7cfd-4816-a1b2-6ce7ace2ec48","system_id":"levelo_inurba_marseille","lat":43.27068,"lon":5.42273,"is_reserved":false,"is_disabled":false,"rental_uris":{"android":"levelo://app?vid=12cebb0e-7cfd-4816-a1b2-6ce7ace2ec48","ios":"levelo://app?vid=12cebb0e-7cfd-4816-a1b2-6ce7ace2ec48"},"vehicle_type_id":"4","last_reported":1726052943,"current_range_meters":38800,"station_id":"ce4bhk92rcd13ifvqgb0","pricing_plan_id":"cebpf4jnsgd1na2vs0mg"},{"bike_id":"4f04a3e4-7133-4f37-8114-a8a5995bde4d","system_id":"levelo_inurba_marseille","lat":43.26189,"lon":5.37453,"is_reserved":false,"is_disabled":false,"rental_uris":{"android":"levelo://app?vid=4f04a3e4-7133-4f37-8114-a8a5995bde4d","ios":"levelo://app?vid=4f04a3e4-7133-4f37-8114-a8a5995bde4d"},"vehicle_type_id":"4","last_reported":1726052943,"current_range_meters":28800,"station_id":"ce4bhgp2rcd13ifvqfc0","pricing_plan_id":"cebpf4jnsgd1na2vs0mg"},{"bike_id":"43ad71ae-24fd-4ce2-bcc1-0b2dd873b341","system_id":"levelo_inurba_marseille","lat":43.30251,"lon":5.40076,"is_reserved":false,"is_disabled":false,"rental_uris":{"android":"levelo://app?vid=43ad71ae-24fd-4ce2-bcc1-0b2dd873b341","ios":"levelo://app?vid=43ad71ae-24fd-4ce2-bcc1-0b2dd873b341"},"vehicle_type_id":"4","last_reported":1726052943,"current_range_meters":27600,"station_id":"ce4bgvh2rcd13ifvqcs0","pricing_plan_id":"cebpf4jnsgd1na2vs0mg"},{"bike_id":"8d7e9568-fd6c-4580-9b57-b0ed1a872c81","system_id":"levelo_inurba_marseille","lat":43.3128,"lon":5.40186,"is_reserved":false,"is_disabled":false,"rental_uris":{"android":"levelo://app?vid=8d7e9568-fd6c-4580-9b57-b0ed1a872c81","ios":"levelo://app?vid=8d7e9568-fd6c-4580-9b57-b0ed1a872c81"},"vehicle_type_id":"4","last_reported":1726052943,"current_range_meters":28800,"station_id":"ce4bh092rcd13ifvqd30","pricing_plan_id":"cebpf4jnsgd1na2vs0mg"},{"bike_id":"99d633d7-3557-42a6-a763-a214f5851f3a","system_id":"levelo_inurba_marseille","lat":43.32369,"lon":5.38886,"is_reserved":false,"is_disabled":false,"rental_uris":{"android":"levelo://app?vid=99d633d7-3557-42a6-a763-a214f5851f3a","ios":"levelo://app?vid=99d633d7-3557-42a6-a763-a214f5851f3a"},"vehicle_type_id":"4","last_reported":1726052943,"current_range_meters":38400,"station_id":"ce4bhqp2rcd13ifvqhog","pricing_plan_id":"cebpf4jnsgd1na2vs0mg"},{"bike_id":"d02d6740-b6de-4487-a048-a0fcd35b8dee","system_id":"levelo_inurba_marseille","lat":43.23144,"lon":5.43712,"is_reserved":false,"is_disabled":false,"rental_uris":{"android":"levelo://app?vid=d02d6740-b6de-4487-a048-a0fcd35b8dee","ios":"levelo://app?vid=d02d6740-b6de-4487-a048-a0fcd35b8dee"},"vehicle_type_id":"4","last_reported":1726052943,"current_range_meters":39200,"station_id":"ce4bhmp2rcd13ifvqgog","pricing_plan_id":"cebpf4jnsgd1na2vs0mg"},{"bike_id":"25d5c37c-dd2d-4026-9a2d-3b77079af424","system_id":"levelo_inurba_marseille","lat":43.24179,"lon":5.39729,"is_reserved":false,"is_disabled":false,"rental_uris":{"android":"levelo://app?vid=25d5c37c-dd2d-4026-9a2d-3b77079af424","ios":"levelo://app?vid=25d5c37c-dd2d-4026-9a2d-3b77079af424"},"vehicle_type_id":"4","last_reported":1726052943,"current_range_meters":8000,"station_id":"ce4bhn12rcd13ifvqgpg","pricing_plan_id":"cebpf4jnsgd1na2vs0mg"},{"bike_id":"e705d9fb-2171-4281-8e32-77a497e36ec3","system_id":"levelo_inurba_marseille","lat":43.26947,"lon":5.40244,"is_reserved":false,"is_disabled":false,"rental_uris":{"android":"levelo://app?vid=e705d9fb-2171-4281-8e32-77a497e36ec3","ios":"levelo://app?vid=e705d9fb-2171-4281-8e32-77a497e36ec3"},"vehicle_type_id":"4","last_reported":1726052943,"current_range_meters":20800,"station_id":"cjm6bp8fraef2m0cb0m0","pricing_plan_id":"cebpf4jnsgd1na2vs0mg"},{"bike_id":"dc3db784-5305-4c2f-9b60-3b329bc1df65","system_id":"levelo_inurba_marseille","lat":43.29896,"lon":5.43673,"is_reserved":false,"is_disabled":false,"rental_uris":{"android":"levelo://app?vid=dc3db784-5305-4c2f-9b60-3b329bc1df65","ios":"levelo://app?vid=dc3db784-5305-4c2f-9b60-3b329bc1df65"},"vehicle_type_id":"4","last_reported":1726052943,"current_range_meters":25600,"station_id":"ce4bhpp2rcd13ifvqhfg","pricing_plan_id":"cebpf4jnsgd1na2vs0mg"},{"bike_id":"737a62c9-8425-473c-adbf-8668f2d21557","system_id":"levelo_inurba_marseille","lat":43.2587,"lon":5.39891,"is_reserved":false,"is_disabled":false,"rental_uris":{"android":"levelo://app?vid=737a62c9-8425-473c-adbf-8668f2d21557","ios":"levelo://app?vid=737a62c9-8425-473c-adbf-8668f2d21557"},"vehicle_type_id":"4","last_reported":1726052943,"current_range_meters":32400,"station_id":"ce4bhl92rcd13ifvqghg","pricing_plan_id":"cebpf4jnsgd1na2vs0mg"},{"bike_id":"06adf3a8-2c1e-4849-94c6-5664fa506492","system_id":"levelo_inurba_marseille","lat":43.30889,"lon":5.37191,"is_reserved":false,"is_disabled":false,"rental_uris":{"android":"levelo://app?vid=06adf3a8-2c1e-4849-94c6-5664fa506492","ios":"levelo://app?vid=06adf3a8-2c1e-4849-94c6-5664fa506492"},"vehicle_type_id":"4","last_reported":1726052943,"current_range_meters":8800,"station_id":"ce4bguh2rcd13ifvqckg","pricing_plan_id":"cebpf4jnsgd1na2vs0mg"},{"bike_id":"8a9f9138-0c10-41f3-8de2-e35c11ab3729","system_id":"levelo_inurba_marseille","lat":43.276855,"lon":5.383821,"is_reserved":false,"is_disabled":false,"rental_uris":{"android":"levelo://app?vid=8a9f9138-0c10-41f3-8de2-e35c11ab3729","ios":"levelo://app?vid=8a9f9138-0c10-41f3-8de2-e35c11ab3729"},"vehicle_type_id":"4","last_reported":1726052943,"current_range_meters":16400,"station_id":"","pricing_plan_id":"cebpf4jnsgd1na2vs0mg"},{"bike_id":"54142b50-ad3e-4911-adf3-caf86ff536dd","system_id":"levelo_inurba_marseille","lat":43.29578,"lon":5.3751,"is_reserved":false,"is_disabled":false,"rental_uris":{"android":"levelo://app?vid=54142b50-ad3e-4911-adf3-caf86ff536dd","ios":"levelo://app?vid=54142b50-ad3e-4911-adf3-caf86ff536dd"},"vehicle_type_id":"4","last_reported":1726052943,"current_range_meters":8400,"station_id":"ce4bgh92rcd13ifvqb50","pricing_plan_id":"cebpf4jnsgd1na2vs0mg"},{"bike_id":"2413a8c5-3673-44da-a30b-07a1465e7a31","system_id":"levelo_inurba_marseille","lat":43.24179,"lon":5.39722,"is_reserved":false,"is_disabled":false,"rental_uris":{"android":"levelo://app?vid=2413a8c5-3673-44da-a30b-07a1465e7a31","ios":"levelo://app?vid=2413a8c5-3673-44da-a30b-07a1465e7a31"},"vehicle_type_id":"4","last_reported":1726052943,"current_range_meters":4000,"station_id":"ce4bhn12rcd13ifvqgpg","pricing_plan_id":"cebpf4jnsgd1na2vs0mg"},{"bike_id":"98f8975b-1652-45a9-a84f-e0f8cf84af34","system_id":"levelo_inurba_marseille","lat":43.23153,"lon":5.4372,"is_reserved":false,"is_disabled":false,"rental_uris":{"android":"levelo://app?vid=98f8975b-1652-45a9-a84f-e0f8cf84af34","ios":"levelo://app?vid=98f8975b-1652-45a9-a84f-e0f8cf84af34"},"vehicle_type_id":"4","last_reported":1726052943,"current_range_meters":16000,"station_id":"ce4bhmp2rcd13ifvqgog","pricing_plan_id":"cebpf4jnsgd1na2vs0mg"},{"bike_id":"b413bc3e-6bbd-4e11-abff-54bb0b63b087","system_id":"levelo_inurba_marseille","lat":43.23971,"lon":5.36625,"is_reserved":false,"is_disabled":false,"rental_uris":{"android":"levelo://app?vid=b413bc3e-6bbd-4e11-abff-54bb0b63b087","ios":"levelo://app?vid=b413bc3e-6bbd-4e11-abff-54bb0b63b087"},"vehicle_type_id":"4","last_reported":1726052943,"current_range_meters":20000,"station_id":"ce4bhi12rcd13ifvqfp0","pricing_plan_id":"cebpf4jnsgd1na2vs0mg"},{"bike_id":"c418a0a3-69bc-4a59-97fd-7bc4eeb30394","system_id":"levelo_inurba_marseille","lat":43.3054,"lon":5.36554,"is_reserved":false,"is_disabled":false,"rental_uris":{"android":"levelo://app?vid=c418a0a3-69bc-4a59-97fd-7bc4eeb30394","ios":"levelo://app?vid=c418a0a3-69bc-4a59-97fd-7bc4eeb30394"},"vehicle_type_id":"4","last_reported":1726052943,"current_range_meters":38800,"station_id":"ce4bgs12rcd13ifvqcag","pricing_plan_id":"cebpf4jnsgd1na2vs0mg"},{"bike_id":"a4b6f6c8-c1fd-4611-b4cd-50165fc92afe","system_id":"levelo_inurba_marseille","lat":43.2796,"lon":5.41051,"is_reserved":false,"is_disabled":false,"rental_uris":{"android":"levelo://app?vid=a4b6f6c8-c1fd-4611-b4cd-50165fc92afe","ios":"levelo://app?vid=a4b6f6c8-c1fd-4611-b4cd-50165fc92afe"},"vehicle_type_id":"4","last_reported":1726052943,"current_range_meters":32000,"station_id":"ce4bhnp2rcd13ifvqh0g","pricing_plan_id":"cebpf4jnsgd1na2vs0mg"},{"bike_id":"7dbc66cb-8b3a-4559-899f-1fa91679ea9a","system_id":"levelo_inurba_marseille","lat":43.297761,"lon":5.381424,"is_reserved":false,"is_disabled":false,"rental_uris":{"android":"levelo://app?vid=7dbc66cb-8b3a-4559-899f-1fa91679ea9a","ios":"levelo://app?vid=7dbc66cb-8b3a-4559-899f-1fa91679ea9a"},"vehicle_type_id":"4","last_reported":1726052943,"current_range_meters":8800,"station_id":"ce4bgip2rcd13ifvqbb0","pricing_plan_id":"cebpf4jnsgd1na2vs0mg"},{"bike_id":"be8557a0-bbcf-4e69-beca-ca3cd6c27294","system_id":"levelo_inurba_marseille","lat":43.30891,"lon":5.39655,"is_reserved":false,"is_disabled":false,"rental_uris":{"android":"levelo://app?vid=be8557a0-bbcf-4e69-beca-ca3cd6c27294","ios":"levelo://app?vid=be8557a0-bbcf-4e69-beca-ca3cd6c27294"},"vehicle_type_id":"4","last_reported":1726052943,"current_range_meters":24800,"station_id":"ce4bh012rcd13ifvqcv0","pricing_plan_id":"cebpf4jnsgd1na2vs0mg"},{"bike_id":"1f98b9ef-5838-4b23-9534-ebf3100516cd","system_id":"levelo_inurba_marseille","lat":43.28269,"lon":5.35077,"is_reserved":false,"is_disabled":false,"rental_uris":{"android":"levelo://app?vid=1f98b9ef-5838-4b23-9534-ebf3100516cd","ios":"levelo://app?vid=1f98b9ef-5838-4b23-9534-ebf3100516cd"},"vehicle_type_id":"4","last_reported":1726052943,"current_range_meters":8000,"station_id":"ce4bhbp2rcd13ifvqerg","pricing_plan_id":"cebpf4jnsgd1na2vs0mg"},{"bike_id":"a21c3523-e07c-4797-b9a3-e320b570c062","system_id":"levelo_inurba_marseille","lat":43.24391,"lon":5.37056,"is_reserved":false,"is_disabled":false,"rental_uris":{"android":"levelo://app?vid=a21c3523-e07c-4797-b9a3-e320b570c062","ios":"levelo://app?vid=a21c3523-e07c-4797-b9a3-e320b570c062"},"vehicle_type_id":"4","last_reported":1726052943,"current_range_meters":31200,"station_id":"ce4bhhh2rcd13ifvqfk0","pricing_plan_id":"cebpf4jnsgd1na2vs0mg"},{"bike_id":"d413af54-434d-4282-a398-e7a5d4121b7c","system_id":"levelo_inurba_marseille","lat":43.30944,"lon":5.39011,"is_reserved":false,"is_disabled":false,"rental_uris":{"android":"levelo://app?vid=d413af54-434d-4282-a398-e7a5d4121b7c","ios":"levelo://app?vid=d413af54-434d-4282-a398-e7a5d4121b7c"},"vehicle_type_id":"4","last_reported":1726052943,"current_range_meters":26000,"station_id":"ce4bgup2rcd13ifvqco0","pricing_plan_id":"cebpf4jnsgd1na2vs0mg"},{"bike_id":"8528ea29-e445-4b26-b933-d67fba6523f7","system_id":"levelo_inurba_marseille","lat":43.25719,"lon":5.41121,"is_reserved":false,"is_disabled":false,"rental_uris":{"android":"levelo://app?vid=8528ea29-e445-4b26-b933-d67fba6523f7","ios":"levelo://app?vid=8528ea29-e445-4b26-b933-d67fba6523f7"},"vehicle_type_id":"4","last_reported":1726052943,"current_range_meters":14800,"station_id":"ce4bhkp2rcd13ifvqgd0","pricing_plan_id":"cebpf4jnsgd1na2vs0mg"},{"bike_id":"c1a7e1e3-ec07-4789-aee5-b72394de12c2","system_id":"levelo_inurba_marseille","lat":43.30781,"lon":5.37656,"is_reserved":false,"is_disabled":false,"rental_uris":{"android":"levelo://app?vid=c1a7e1e3-ec07-4789-aee5-b72394de12c2","ios":"levelo://app?vid=c1a7e1e3-ec07-4789-aee5-b72394de12c2"},"vehicle_type_id":"4","last_reported":1726052943,"current_range_meters":36800,"station_id":"ce4bgv92rcd13ifvqcq0","pricing_plan_id":"cebpf4jnsgd1na2vs0mg"},{"bike_id":"00115f0a-ac26-4e9a-986d-383b5654c372","system_id":"levelo_inurba_marseille","lat":43.26679,"lon":5.38266,"is_reserved":false,"is_disabled":false,"rental_uris":{"android":"levelo://app?vid=00115f0a-ac26-4e9a-986d-383b5654c372","ios":"levelo://app?vid=00115f0a-ac26-4e9a-986d-383b5654c372"},"vehicle_type_id":"4","last_reported":1726052943,"current_range_meters":24400,"station_id":"ce4bhg92rcd13ifvqf90","pricing_plan_id":"cebpf4jnsgd1na2vs0mg"},{"bike_id":"3119ce13-03a8-4683-b338-5af5af91c148","system_id":"levelo_inurba_marseille","lat":43.312722,"lon":5.401716,"is_reserved":false,"is_disabled":false,"rental_uris":{"android":"levelo://app?vid=3119ce13-03a8-4683-b338-5af5af91c148","ios":"levelo://app?vid=3119ce13-03a8-4683-b338-5af5af91c148"},"vehicle_type_id":"4","last_reported":1726052943,"current_range_meters":36400,"station_id":"ce4bh092rcd13ifvqd30","pricing_plan_id":"cebpf4jnsgd1na2vs0mg"},{"bike_id":"d6c2213f-6d29-49b1-948e-3c924ca6043c","system_id":"levelo_inurba_marseille","lat":43.28368,"lon":5.38632,"is_reserved":false,"is_disabled":false,"rental_uris":{"android":"levelo://app?vid=d6c2213f-6d29-49b1-948e-3c924ca6043c","ios":"levelo://app?vid=d6c2213f-6d29-49b1-948e-3c924ca6043c"},"vehicle_type_id":"4","last_reported":1726052943,"current_range_meters":3600,"station_id":"ce4bh492rcd13ifvqdvg","pricing_plan_id":"cebpf4jnsgd1na2vs0mg"},{"bike_id":"66f6bbee-c9ac-49c9-82d6-a0bb23dfc236","system_id":"levelo_inurba_marseille","lat":43.26678,"lon":5.38264,"is_reserved":false,"is_disabled":false,"rental_uris":{"android":"levelo://app?vid=66f6bbee-c9ac-49c9-82d6-a0bb23dfc236","ios":"levelo://app?vid=66f6bbee-c9ac-49c9-82d6-a0bb23dfc236"},"vehicle_type_id":"4","last_reported":1726052943,"current_range_meters":19200,"station_id":"ce4bhg92rcd13ifvqf90","pricing_plan_id":"cebpf4jnsgd1na2vs0mg"},{"bike_id":"7b2d150b-cb59-4b5e-b670-c8e1696b1385","system_id":"levelo_inurba_marseille","lat":43.279797,"lon":5.387396,"is_reserved":false,"is_disabled":false,"rental_uris":{"android":"levelo://app?vid=7b2d150b-cb59-4b5e-b670-c8e1696b1385","ios":"levelo://app?vid=7b2d150b-cb59-4b5e-b670-c8e1696b1385"},"vehicle_type_id":"4","last_reported":1726052943,"current_range_meters":4000,"station_id":"ce4bhg12rcd13ifvqf80","pricing_plan_id":"cebpf4jnsgd1na2vs0mg"},{"bike_id":"d3a8335f-7854-419a-a6f0-740e48886b33","system_id":"levelo_inurba_marseille","lat":43.29534,"lon":5.38538,"is_reserved":false,"is_disabled":false,"rental_uris":{"android":"levelo://app?vid=d3a8335f-7854-419a-a6f0-740e48886b33","ios":"levelo://app?vid=d3a8335f-7854-419a-a6f0-740e48886b33"},"vehicle_type_id":"4","last_reported":1726052943,"current_range_meters":35600,"station_id":"ce4bgih2rcd13ifvqba0","pricing_plan_id":"cebpf4jnsgd1na2vs0mg"},{"bike_id":"81b4f3f1-384b-4618-920f-8afb8394cabf","system_id":"levelo_inurba_marseille","lat":43.271736,"lon":5.409879,"is_reserved":false,"is_disabled":false,"rental_uris":{"android":"levelo://app?vid=81b4f3f1-384b-4618-920f-8afb8394cabf","ios":"levelo://app?vid=81b4f3f1-384b-4618-920f-8afb8394cabf"},"vehicle_type_id":"4","last_reported":1726052943,"current_range_meters":27600,"station_id":"ce4bhl12rcd13ifvqgf0","pricing_plan_id":"cebpf4jnsgd1na2vs0mg"},{"bike_id":"9dbf4882-289e-4171-bdea-bbea2cd2aa4a","system_id":"levelo_inurba_marseille","lat":43.25932,"lon":5.40907,"is_reserved":false,"is_disabled":false,"rental_uris":{"android":"levelo://app?vid=9dbf4882-289e-4171-bdea-bbea2cd2aa4a","ios":"levelo://app?vid=9dbf4882-289e-4171-bdea-bbea2cd2aa4a"},"vehicle_type_id":"4","last_reported":1726052943,"current_range_meters":19200,"station_id":"ce4bhm92rcd13ifvqglg","pricing_plan_id":"cebpf4jnsgd1na2vs0mg"},{"bike_id":"00ca710c-aa25-453d-b5eb-9286e939dc6d","system_id":"levelo_inurba_marseille","lat":43.29549,"lon":5.42275,"is_reserved":false,"is_disabled":false,"rental_uris":{"android":"levelo://app?vid=00ca710c-aa25-453d-b5eb-9286e939dc6d","ios":"levelo://app?vid=00ca710c-aa25-453d-b5eb-9286e939dc6d"},"vehicle_type_id":"4","last_reported":1726052943,"current_range_meters":39200,"station_id":"ce4bhph2rcd13ifvqhdg","pricing_plan_id":"cebpf4jnsgd1na2vs0mg"},{"bike_id":"b63cd219-a325-46a7-b551-57983cf6a940","system_id":"levelo_inurba_marseille","lat":43.26033,"lon":5.37546,"is_reserved":false,"is_disabled":false,"rental_uris":{"android":"levelo://app?vid=b63cd219-a325-46a7-b551-57983cf6a940","ios":"levelo://app?vid=b63cd219-a325-46a7-b551-57983cf6a940"},"vehicle_type_id":"4","last_reported":1726052943,"current_range_meters":31200,"station_id":"ce4bhgh2rcd13ifvqfa0","pricing_plan_id":"cebpf4jnsgd1na2vs0mg"},{"bike_id":"a36a6131-7175-4d21-afcf-16a3b952996a","system_id":"levelo_inurba_marseille","lat":43.3082,"lon":5.37658,"is_reserved":false,"is_disabled":false,"rental_uris":{"android":"levelo://app?vid=a36a6131-7175-4d21-afcf-16a3b952996a","ios":"levelo://app?vid=a36a6131-7175-4d21-afcf-16a3b952996a"},"vehicle_type_id":"4","last_reported":1726052943,"current_range_meters":10000,"station_id":"ce4bgv92rcd13ifvqcq0","pricing_plan_id":"cebpf4jnsgd1na2vs0mg"},{"bike_id":"3be19a4a-e7a2-4727-8522-bfdcc2f9851c","system_id":"levelo_inurba_marseille","lat":43.25505,"lon":5.3765,"is_reserved":false,"is_disabled":false,"rental_uris":{"android":"levelo://app?vid=3be19a4a-e7a2-4727-8522-bfdcc2f9851c","ios":"levelo://app?vid=3be19a4a-e7a2-4727-8522-bfdcc2f9851c"},"vehicle_type_id":"4","last_reported":1726052943,"current_range_meters":9600,"station_id":"ce4bhh12rcd13ifvqff0","pricing_plan_id":"cebpf4jnsgd1na2vs0mg"},{"bike_id":"4152bf0f-ed09-4266-8920-4adeb7d2712f","system_id":"levelo_inurba_marseille","lat":43.30316,"lon":5.36906,"is_reserved":false,"is_disabled":false,"rental_uris":{"android":"levelo://app?vid=4152bf0f-ed09-4266-8920-4adeb7d2712f","ios":"levelo://app?vid=4152bf0f-ed09-4266-8920-4adeb7d2712f"},"vehicle_type_id":"4","last_reported":1726052943,"current_range_meters":38000,"station_id":"ce4bgqh2rcd13ifvqc5g","pricing_plan_id":"cebpf4jnsgd1na2vs0mg"},{"bike_id":"e193415e-3db3-4686-9712-1fe45879b28b","system_id":"levelo_inurba_marseille","lat":43.23153,"lon":5.43718,"is_reserved":false,"is_disabled":false,"rental_uris":{"android":"levelo://app?vid=e193415e-3db3-4686-9712-1fe45879b28b","ios":"levelo://app?vid=e193415e-3db3-4686-9712-1fe45879b28b"},"vehicle_type_id":"4","last_reported":1726052943,"current_range_meters":26000,"station_id":"ce4bhmp2rcd13ifvqgog","pricing_plan_id":"cebpf4jnsgd1na2vs0mg"},{"bike_id":"8116ea2e-322b-48e8-b05c-193f9ba09a8f","system_id":"levelo_inurba_marseille","lat":43.2695,"lon":5.38628,"is_reserved":false,"is_disabled":false,"rental_uris":{"android":"levelo://app?vid=8116ea2e-322b-48e8-b05c-193f9ba09a8f","ios":"levelo://app?vid=8116ea2e-322b-48e8-b05c-193f9ba09a8f"},"vehicle_type_id":"4","last_reported":1726052943,"current_range_meters":25200,"station_id":"ce4bhh92rcd13ifvqfh0","pricing_plan_id":"cebpf4jnsgd1na2vs0mg"},{"bike_id":"2da0c76d-007c-4734-a55e-4ccff163e307","system_id":"levelo_inurba_marseille","lat":43.29533,"lon":5.39037,"is_reserved":false,"is_disabled":false,"rental_uris":{"android":"levelo://app?vid=2da0c76d-007c-4734-a55e-4ccff163e307","ios":"levelo://app?vid=2da0c76d-007c-4734-a55e-4ccff163e307"},"vehicle_type_id":"4","last_reported":1726052943,"current_range_meters":36000,"station_id":"ce4bh3p2rcd13ifvqdp0","pricing_plan_id":"cebpf4jnsgd1na2vs0mg"},{"bike_id":"7d379912-5512-4136-825f-f149378c51b0","system_id":"levelo_inurba_marseille","lat":43.29897,"lon":5.38293,"is_reserved":false,"is_disabled":false,"rental_uris":{"android":"levelo://app?vid=7d379912-5512-4136-825f-f149378c51b0","ios":"levelo://app?vid=7d379912-5512-4136-825f-f149378c51b0"},"vehicle_type_id":"4","last_reported":1726052943,"current_range_meters":28800,"station_id":"","pricing_plan_id":"cebpf4jnsgd1na2vs0mg"},{"bike_id":"2cb480b2-ca7a-4d87-9dbf-99e9884c34c6","system_id":"levelo_inurba_marseille","lat":43.28992,"lon":5.3781,"is_reserved":false,"is_disabled":false,"rental_uris":{"android":"levelo://app?vid=2cb480b2-ca7a-4d87-9dbf-99e9884c34c6","ios":"levelo://app?vid=2cb480b2-ca7a-4d87-9dbf-99e9884c34c6"},"vehicle_type_id":"4","last_reported":1726052943,"current_range_meters":36000,"station_id":"ce4bh9p2rcd13ifvqed0","pricing_plan_id":"cebpf4jnsgd1na2vs0mg"},{"bike_id":"3e71dd62-37f9-4fdf-b475-7d894230e08d","system_id":"levelo_inurba_marseille","lat":43.2315,"lon":5.43719,"is_reserved":false,"is_disabled":false,"rental_uris":{"android":"levelo://app?vid=3e71dd62-37f9-4fdf-b475-7d894230e08d","ios":"levelo://app?vid=3e71dd62-37f9-4fdf-b475-7d894230e08d"},"vehicle_type_id":"4","last_reported":1726052943,"current_range_meters":16800,"station_id":"ce4bhmp2rcd13ifvqgog","pricing_plan_id":"cebpf4jnsgd1na2vs0mg"},{"bike_id":"56869a21-d495-457c-915b-a1bdc2de613f","system_id":"levelo_inurba_marseille","lat":43.28859,"lon":5.35851,"is_reserved":false,"is_disabled":false,"rental_uris":{"android":"levelo://app?vid=56869a21-d495-457c-915b-a1bdc2de613f","ios":"levelo://app?vid=56869a21-d495-457c-915b-a1bdc2de613f"},"vehicle_type_id":"4","last_reported":1726052943,"current_range_meters":2800,"station_id":"ce4bhb12rcd13ifvqem0","pricing_plan_id":"cebpf4jnsgd1na2vs0mg"},{"bike_id":"4292abdb-d5f2-4b0c-ae28-266dba306c5a","system_id":"levelo_inurba_marseille","lat":43.31264,"lon":5.40173,"is_reserved":false,"is_disabled":false,"rental_uris":{"android":"levelo://app?vid=4292abdb-d5f2-4b0c-ae28-266dba306c5a","ios":"levelo://app?vid=4292abdb-d5f2-4b0c-ae28-266dba306c5a"},"vehicle_type_id":"4","last_reported":1726052943,"current_range_meters":34800,"station_id":"ce4bh092rcd13ifvqd30","pricing_plan_id":"cebpf4jnsgd1na2vs0mg"},{"bike_id":"c29e058a-51c1-41f1-97d0-105298dabbed","system_id":"levelo_inurba_marseille","lat":43.282735,"lon":5.350695,"is_reserved":false,"is_disabled":false,"rental_uris":{"android":"levelo://app?vid=c29e058a-51c1-41f1-97d0-105298dabbed","ios":"levelo://app?vid=c29e058a-51c1-41f1-97d0-105298dabbed"},"vehicle_type_id":"4","last_reported":1726052943,"current_range_meters":18000,"station_id":"ce4bhbp2rcd13ifvqerg","pricing_plan_id":"cebpf4jnsgd1na2vs0mg"},{"bike_id":"0287a7a2-cb1e-40e1-b9f0-5eccf1c36963","system_id":"levelo_inurba_marseille","lat":43.29544,"lon":5.3854,"is_reserved":false,"is_disabled":false,"rental_uris":{"android":"levelo://app?vid=0287a7a2-cb1e-40e1-b9f0-5eccf1c36963","ios":"levelo://app?vid=0287a7a2-cb1e-40e1-b9f0-5eccf1c36963"},"vehicle_type_id":"4","last_reported":1726052943,"current_range_meters":6400,"station_id":"ce4bgih2rcd13ifvqba0","pricing_plan_id":"cebpf4jnsgd1na2vs0mg"},{"bike_id":"3a430efe-13f8-49bd-813f-df2a34bdab7e","system_id":"levelo_inurba_marseille","lat":43.30455,"lon":5.38863,"is_reserved":false,"is_disabled":false,"rental_uris":{"android":"levelo://app?vid=3a430efe-13f8-49bd-813f-df2a34bdab7e","ios":"levelo://app?vid=3a430efe-13f8-49bd-813f-df2a34bdab7e"},"vehicle_type_id":"4","last_reported":1726052943,"current_range_meters":25600,"station_id":"ce4bgk12rcd13ifvqbi0","pricing_plan_id":"cebpf4jnsgd1na2vs0mg"},{"bike_id":"b57b7c50-b45e-48bf-80f1-5809fd7245ab","system_id":"levelo_inurba_marseille","lat":43.26685,"lon":5.3828,"is_reserved":false,"is_disabled":false,"rental_uris":{"android":"levelo://app?vid=b57b7c50-b45e-48bf-80f1-5809fd7245ab","ios":"levelo://app?vid=b57b7c50-b45e-48bf-80f1-5809fd7245ab"},"vehicle_type_id":"4","last_reported":1726052943,"current_range_meters":40000,"station_id":"ce4bhg92rcd13ifvqf90","pricing_plan_id":"cebpf4jnsgd1na2vs0mg"},{"bike_id":"6a9c17d3-0dd9-4151-b550-35cc3474f841","system_id":"levelo_inurba_marseille","lat":43.23966,"lon":5.36633,"is_reserved":false,"is_disabled":false,"rental_uris":{"android":"levelo://app?vid=6a9c17d3-0dd9-4151-b550-35cc3474f841","ios":"levelo://app?vid=6a9c17d3-0dd9-4151-b550-35cc3474f841"},"vehicle_type_id":"4","last_reported":1726052943,"current_range_meters":8400,"station_id":"ce4bhi12rcd13ifvqfp0","pricing_plan_id":"cebpf4jnsgd1na2vs0mg"},{"bike_id":"9734d854-1bee-4703-b105-c182cf679f1a","system_id":"levelo_inurba_marseille","lat":43.25934,"lon":5.40906,"is_reserved":false,"is_disabled":false,"rental_uris":{"android":"levelo://app?vid=9734d854-1bee-4703-b105-c182cf679f1a","ios":"levelo://app?vid=9734d854-1bee-4703-b105-c182cf679f1a"},"vehicle_type_id":"4","last_reported":1726052943,"current_range_meters":19200,"station_id":"ce4bhm92rcd13ifvqglg","pricing_plan_id":"cebpf4jnsgd1na2vs0mg"},{"bike_id":"1b8e2124-c9b2-450b-8e12-e90ed145db35","system_id":"levelo_inurba_marseille","lat":43.29842,"lon":5.36259,"is_reserved":false,"is_disabled":false,"rental_uris":{"android":"levelo://app?vid=1b8e2124-c9b2-450b-8e12-e90ed145db35","ios":"levelo://app?vid=1b8e2124-c9b2-450b-8e12-e90ed145db35"},"vehicle_type_id":"4","last_reported":1726052943,"current_range_meters":32800,"station_id":"ce4bgpp2rcd13ifvqc3g","pricing_plan_id":"cebpf4jnsgd1na2vs0mg"},{"bike_id":"dc25e7e5-2e2d-47f2-8b02-d73c5122dd03","system_id":"levelo_inurba_marseille","lat":43.27065,"lon":5.42281,"is_reserved":false,"is_disabled":false,"rental_uris":{"android":"levelo://app?vid=dc25e7e5-2e2d-47f2-8b02-d73c5122dd03","ios":"levelo://app?vid=dc25e7e5-2e2d-47f2-8b02-d73c5122dd03"},"vehicle_type_id":"4","last_reported":1726052943,"current_range_meters":3200,"station_id":"ce4bhk92rcd13ifvqgb0","pricing_plan_id":"cebpf4jnsgd1na2vs0mg"},{"bike_id":"f2f2fafc-00ac-4fc8-affb-893a59a1c992","system_id":"levelo_inurba_marseille","lat":43.2956,"lon":5.42289,"is_reserved":false,"is_disabled":false,"rental_uris":{"android":"levelo://app?vid=f2f2fafc-00ac-4fc8-affb-893a59a1c992","ios":"levelo://app?vid=f2f2fafc-00ac-4fc8-affb-893a59a1c992"},"vehicle_type_id":"4","last_reported":1726052943,"current_range_meters":22000,"station_id":"ce4bhph2rcd13ifvqhdg","pricing_plan_id":"cebpf4jnsgd1na2vs0mg"},{"bike_id":"1bb7ba5f-46d9-4eb9-96e1-381a0ed4bc78","system_id":"levelo_inurba_marseille","lat":43.31113,"lon":5.37762,"is_reserved":false,"is_disabled":false,"rental_uris":{"android":"levelo://app?vid=1bb7ba5f-46d9-4eb9-96e1-381a0ed4bc78","ios":"levelo://app?vid=1bb7ba5f-46d9-4eb9-96e1-381a0ed4bc78"},"vehicle_type_id":"4","last_reported":1726052943,"current_range_meters":4000,"station_id":"ce4bgt92rcd13ifvqcg0","pricing_plan_id":"cebpf4jnsgd1na2vs0mg"},{"bike_id":"8820ae0d-59b5-41fe-8f2e-8046e10e0589","system_id":"levelo_inurba_marseille","lat":43.29584,"lon":5.37507,"is_reserved":false,"is_disabled":false,"rental_uris":{"android":"levelo://app?vid=8820ae0d-59b5-41fe-8f2e-8046e10e0589","ios":"levelo://app?vid=8820ae0d-59b5-41fe-8f2e-8046e10e0589"},"vehicle_type_id":"4","last_reported":1726052943,"current_range_meters":18000,"station_id":"ce4bgh92rcd13ifvqb50","pricing_plan_id":"cebpf4jnsgd1na2vs0mg"},{"bike_id":"fc42ca08-c4e9-40c9-876d-62743dbcfe50","system_id":"levelo_inurba_marseille","lat":43.29306,"lon":5.37173,"is_reserved":false,"is_disabled":false,"rental_uris":{"android":"levelo://app?vid=fc42ca08-c4e9-40c9-876d-62743dbcfe50","ios":"levelo://app?vid=fc42ca08-c4e9-40c9-876d-62743dbcfe50"},"vehicle_type_id":"4","last_reported":1726052943,"current_range_meters":18800,"station_id":"ce4bgh92rcd13ifvqb40","pricing_plan_id":"cebpf4jnsgd1na2vs0mg"},{"bike_id":"aaf6dc9c-0f49-4cfb-8053-0ab150017608","system_id":"levelo_inurba_marseille","lat":43.25939,"lon":5.40899,"is_reserved":false,"is_disabled":false,"rental_uris":{"android":"levelo://app?vid=aaf6dc9c-0f49-4cfb-8053-0ab150017608","ios":"levelo://app?vid=aaf6dc9c-0f49-4cfb-8053-0ab150017608"},"vehicle_type_id":"4","last_reported":1726052943,"current_range_meters":32400,"station_id":"ce4bhm92rcd13ifvqglg","pricing_plan_id":"cebpf4jnsgd1na2vs0mg"},{"bike_id":"c22bf776-82f1-423d-83f3-ab20051eb388","system_id":"levelo_inurba_marseille","lat":43.33613,"lon":5.41026,"is_reserved":false,"is_disabled":false,"rental_uris":{"android":"levelo://app?vid=c22bf776-82f1-423d-83f3-ab20051eb388","ios":"levelo://app?vid=c22bf776-82f1-423d-83f3-ab20051eb388"},"vehicle_type_id":"4","last_reported":1726052943,"current_range_meters":5600,"station_id":"ce4bhqh2rcd13ifvqhmg","pricing_plan_id":"cebpf4jnsgd1na2vs0mg"},{"bike_id":"88cf5dd6-c835-4104-9def-26019de205df","system_id":"levelo_inurba_marseille","lat":43.29898,"lon":5.43671,"is_reserved":false,"is_disabled":false,"rental_uris":{"android":"levelo://app?vid=88cf5dd6-c835-4104-9def-26019de205df","ios":"levelo://app?vid=88cf5dd6-c835-4104-9def-26019de205df"},"vehicle_type_id":"4","last_reported":1726052943,"current_range_meters":34800,"station_id":"ce4bhpp2rcd13ifvqhfg","pricing_plan_id":"cebpf4jnsgd1na2vs0mg"},{"bike_id":"3998518a-c67d-4c39-a5fe-455a76b06642","system_id":"levelo_inurba_marseille","lat":43.33493,"lon":5.410229,"is_reserved":false,"is_disabled":false,"rental_uris":{"android":"levelo://app?vid=3998518a-c67d-4c39-a5fe-455a76b06642","ios":"levelo://app?vid=3998518a-c67d-4c39-a5fe-455a76b06642"},"vehicle_type_id":"4","last_reported":1726052943,"current_range_meters":7200,"station_id":"ce4bgqh2rcd13ifvqc4g","pricing_plan_id":"cebpf4jnsgd1na2vs0mg"},{"bike_id":"85d898c7-036f-4fa6-a33f-cbfd838c9822","system_id":"levelo_inurba_marseille","lat":43.27561,"lon":5.38422,"is_reserved":false,"is_disabled":false,"rental_uris":{"android":"levelo://app?vid=85d898c7-036f-4fa6-a33f-cbfd838c9822","ios":"levelo://app?vid=85d898c7-036f-4fa6-a33f-cbfd838c9822"},"vehicle_type_id":"4","last_reported":1726052943,"current_range_meters":33600,"station_id":"ce4bhh92rcd13ifvqfi0","pricing_plan_id":"cebpf4jnsgd1na2vs0mg"},{"bike_id":"d60fb9e8-e56b-42f6-9ff4-58af264be320","system_id":"levelo_inurba_marseille","lat":43.28275,"lon":5.35072,"is_reserved":false,"is_disabled":false,"rental_uris":{"android":"levelo://app?vid=d60fb9e8-e56b-42f6-9ff4-58af264be320","ios":"levelo://app?vid=d60fb9e8-e56b-42f6-9ff4-58af264be320"},"vehicle_type_id":"4","last_reported":1726052943,"current_range_meters":17200,"station_id":"ce4bhbp2rcd13ifvqerg","pricing_plan_id":"cebpf4jnsgd1na2vs0mg"},{"bike_id":"05044dc5-d217-4d2f-8c90-e2a966da26fb","system_id":"levelo_inurba_marseille","lat":43.337444,"lon":5.374475,"is_reserved":false,"is_disabled":false,"rental_uris":{"android":"levelo://app?vid=05044dc5-d217-4d2f-8c90-e2a966da26fb","ios":"levelo://app?vid=05044dc5-d217-4d2f-8c90-e2a966da26fb"},"vehicle_type_id":"4","last_reported":1726052943,"current_range_meters":26000,"station_id":"ce4bhm12rcd13ifvqgkg","pricing_plan_id":"cebpf4jnsgd1na2vs0mg"},{"bike_id":"723c073e-5c6a-4fb9-a382-e8ea44a73076","system_id":"levelo_inurba_marseille","lat":43.29555,"lon":5.42276,"is_reserved":false,"is_disabled":false,"rental_uris":{"android":"levelo://app?vid=723c073e-5c6a-4fb9-a382-e8ea44a73076","ios":"levelo://app?vid=723c073e-5c6a-4fb9-a382-e8ea44a73076"},"vehicle_type_id":"4","last_reported":1726052943,"current_range_meters":34000,"station_id":"ce4bhph2rcd13ifvqhdg","pricing_plan_id":"cebpf4jnsgd1na2vs0mg"},{"bike_id":"2aad4b02-945c-4d35-b3a5-85b3d17dc503","system_id":"levelo_inurba_marseille","lat":43.32278,"lon":5.38268,"is_reserved":false,"is_disabled":false,"rental_uris":{"android":"levelo://app?vid=2aad4b02-945c-4d35-b3a5-85b3d17dc503","ios":"levelo://app?vid=2aad4b02-945c-4d35-b3a5-85b3d17dc503"},"vehicle_type_id":"4","last_reported":1726052943,"current_range_meters":2800,"station_id":"ce4bhr12rcd13ifvqhqg","pricing_plan_id":"cebpf4jnsgd1na2vs0mg"},{"bike_id":"ca83b445-f9b8-4c3b-8fbf-9f0e930b1f13","system_id":"levelo_inurba_marseille","lat":43.29845,"lon":5.36275,"is_reserved":false,"is_disabled":false,"rental_uris":{"android":"levelo://app?vid=ca83b445-f9b8-4c3b-8fbf-9f0e930b1f13","ios":"levelo://app?vid=ca83b445-f9b8-4c3b-8fbf-9f0e930b1f13"},"vehicle_type_id":"4","last_reported":1726052943,"current_range_meters":36800,"station_id":"ce4bgpp2rcd13ifvqc3g","pricing_plan_id":"cebpf4jnsgd1na2vs0mg"},{"bike_id":"dcd1176b-414c-4573-8d1b-5c7ea143f3e1","system_id":"levelo_inurba_marseille","lat":43.29984,"lon":5.37173,"is_reserved":false,"is_disabled":false,"rental_uris":{"android":"levelo://app?vid=dcd1176b-414c-4573-8d1b-5c7ea143f3e1","ios":"levelo://app?vid=dcd1176b-414c-4573-8d1b-5c7ea143f3e1"},"vehicle_type_id":"4","last_reported":1726052943,"current_range_meters":23200,"station_id":"ce4bgr92rcd13ifvqc7g","pricing_plan_id":"cebpf4jnsgd1na2vs0mg"},{"bike_id":"be1102e3-b4dc-4163-939a-ddd6872a7ba0","system_id":"levelo_inurba_marseille","lat":43.26795,"lon":5.4027,"is_reserved":false,"is_disabled":false,"rental_uris":{"android":"levelo://app?vid=be1102e3-b4dc-4163-939a-ddd6872a7ba0","ios":"levelo://app?vid=be1102e3-b4dc-4163-939a-ddd6872a7ba0"},"vehicle_type_id":"4","last_reported":1726052943,"current_range_meters":6800,"station_id":"ce501612rcd8frsf0b60","pricing_plan_id":"cebpf4jnsgd1na2vs0mg"},{"bike_id":"b0735632-7a41-4d74-9997-74ef7fc72747","system_id":"levelo_inurba_marseille","lat":43.30438,"lon":5.37934,"is_reserved":false,"is_disabled":false,"rental_uris":{"android":"levelo://app?vid=b0735632-7a41-4d74-9997-74ef7fc72747","ios":"levelo://app?vid=b0735632-7a41-4d74-9997-74ef7fc72747"},"vehicle_type_id":"4","last_reported":1726052943,"current_range_meters":20400,"station_id":"ce4bgup2rcd13ifvqcn0","pricing_plan_id":"cebpf4jnsgd1na2vs0mg"},{"bike_id":"47eb9b26-2e51-46f4-a126-b44f42550daa","system_id":"levelo_inurba_marseille","lat":43.302787,"lon":5.377094,"is_reserved":false,"is_disabled":false,"rental_uris":{"android":"levelo://app?vid=47eb9b26-2e51-46f4-a126-b44f42550daa","ios":"levelo://app?vid=47eb9b26-2e51-46f4-a126-b44f42550daa"},"vehicle_type_id":"4","last_reported":1726052943,"current_range_meters":12800,"station_id":"ce4bguh2rcd13ifvqcj0","pricing_plan_id":"cebpf4jnsgd1na2vs0mg"},{"bike_id":"293bda51-9576-4304-b92c-c060057bed94","system_id":"levelo_inurba_marseille","lat":43.27376,"lon":5.3625,"is_reserved":false,"is_disabled":false,"rental_uris":{"android":"levelo://app?vid=293bda51-9576-4304-b92c-c060057bed94","ios":"levelo://app?vid=293bda51-9576-4304-b92c-c060057bed94"},"vehicle_type_id":"4","last_reported":1726052943,"current_range_meters":6800,"station_id":"ce4bhbh2rcd13ifvqeo0","pricing_plan_id":"cebpf4jnsgd1na2vs0mg"},{"bike_id":"80517cc1-69f0-4d8a-98cf-1adc8526c83e","system_id":"levelo_inurba_marseille","lat":43.2439,"lon":5.37058,"is_reserved":false,"is_disabled":false,"rental_uris":{"android":"levelo://app?vid=80517cc1-69f0-4d8a-98cf-1adc8526c83e","ios":"levelo://app?vid=80517cc1-69f0-4d8a-98cf-1adc8526c83e"},"vehicle_type_id":"4","last_reported":1726052943,"current_range_meters":22800,"station_id":"ce4bhhh2rcd13ifvqfk0","pricing_plan_id":"cebpf4jnsgd1na2vs0mg"},{"bike_id":"73b9e7db-6862-45af-a8fe-5c1dd087d721","system_id":"levelo_inurba_marseille","lat":43.337444,"lon":5.374475,"is_reserved":false,"is_disabled":false,"rental_uris":{"android":"levelo://app?vid=73b9e7db-6862-45af-a8fe-5c1dd087d721","ios":"levelo://app?vid=73b9e7db-6862-45af-a8fe-5c1dd087d721"},"vehicle_type_id":"4","last_reported":1726052943,"current_range_meters":37600,"station_id":"","pricing_plan_id":"cebpf4jnsgd1na2vs0mg"},{"bike_id":"a5c66bf3-c9b3-4541-be5a-520d72566497","system_id":"levelo_inurba_marseille","lat":43.31368,"lon":5.38486,"is_reserved":false,"is_disabled":false,"rental_uris":{"android":"levelo://app?vid=a5c66bf3-c9b3-4541-be5a-520d72566497","ios":"levelo://app?vid=a5c66bf3-c9b3-4541-be5a-520d72566497"},"vehicle_type_id":"4","last_reported":1726052943,"current_range_meters":20400,"station_id":"ce4bgt92rcd13ifvqcf0","pricing_plan_id":"cebpf4jnsgd1na2vs0mg"},{"bike_id":"83babb1f-2d07-4a77-86df-cee59a4741b9","system_id":"levelo_inurba_marseille","lat":43.28428,"lon":5.3919,"is_reserved":false,"is_disabled":false,"rental_uris":{"android":"levelo://app?vid=83babb1f-2d07-4a77-86df-cee59a4741b9","ios":"levelo://app?vid=83babb1f-2d07-4a77-86df-cee59a4741b9"},"vehicle_type_id":"4","last_reported":1726052943,"current_range_meters":35600,"station_id":"ce4bhoh2rcd13ifvqh5g","pricing_plan_id":"cebpf4jnsgd1na2vs0mg"},{"bike_id":"501a6627-abd3-4b21-9d16-fa0a88c1fc1a","system_id":"levelo_inurba_marseille","lat":43.26688,"lon":5.38268,"is_reserved":false,"is_disabled":false,"rental_uris":{"android":"levelo://app?vid=501a6627-abd3-4b21-9d16-fa0a88c1fc1a","ios":"levelo://app?vid=501a6627-abd3-4b21-9d16-fa0a88c1fc1a"},"vehicle_type_id":"4","last_reported":1726052943,"current_range_meters":37600,"station_id":"","pricing_plan_id":"cebpf4jnsgd1na2vs0mg"},{"bike_id":"df5bd83d-06d4-432f-83c4-381810e7a4a9","system_id":"levelo_inurba_marseille","lat":43.25931,"lon":5.40907,"is_reserved":false,"is_disabled":false,"rental_uris":{"android":"levelo://app?vid=df5bd83d-06d4-432f-83c4-381810e7a4a9","ios":"levelo://app?vid=df5bd83d-06d4-432f-83c4-381810e7a4a9"},"vehicle_type_id":"4","last_reported":1726052943,"current_range_meters":28400,"station_id":"ce4bhm92rcd13ifvqglg","pricing_plan_id":"cebpf4jnsgd1na2vs0mg"},{"bike_id":"dd7f6df3-46e6-4f22-b872-d4de8dbafbeb","system_id":"levelo_inurba_marseille","lat":43.282669,"lon":5.350554,"is_reserved":false,"is_disabled":false,"rental_uris":{"android":"levelo://app?vid=dd7f6df3-46e6-4f22-b872-d4de8dbafbeb","ios":"levelo://app?vid=dd7f6df3-46e6-4f22-b872-d4de8dbafbeb"},"vehicle_type_id":"4","last_reported":1726052943,"current_range_meters":25600,"station_id":"ce4bhbp2rcd13ifvqerg","pricing_plan_id":"cebpf4jnsgd1na2vs0mg"},{"bike_id":"4681948f-a2f8-4829-86a6-9b22fff2131d","system_id":"levelo_inurba_marseille","lat":43.24387,"lon":5.37058,"is_reserved":false,"is_disabled":false,"rental_uris":{"android":"levelo://app?vid=4681948f-a2f8-4829-86a6-9b22fff2131d","ios":"levelo://app?vid=4681948f-a2f8-4829-86a6-9b22fff2131d"},"vehicle_type_id":"4","last_reported":1726052943,"current_range_meters":9600,"station_id":"ce4bhhh2rcd13ifvqfk0","pricing_plan_id":"cebpf4jnsgd1na2vs0mg"},{"bike_id":"857d3697-163c-4860-864e-ac4afee20f09","system_id":"levelo_inurba_marseille","lat":43.30256,"lon":5.40067,"is_reserved":false,"is_disabled":false,"rental_uris":{"android":"levelo://app?vid=857d3697-163c-4860-864e-ac4afee20f09","ios":"levelo://app?vid=857d3697-163c-4860-864e-ac4afee20f09"},"vehicle_type_id":"4","last_reported":1726052943,"current_range_meters":16400,"station_id":"ce4bgvh2rcd13ifvqcs0","pricing_plan_id":"cebpf4jnsgd1na2vs0mg"},{"bike_id":"2f13cf22-ef2b-4a1e-888a-b743f3112e82","system_id":"levelo_inurba_marseille","lat":43.29783,"lon":5.3709,"is_reserved":false,"is_disabled":false,"rental_uris":{"android":"levelo://app?vid=2f13cf22-ef2b-4a1e-888a-b743f3112e82","ios":"levelo://app?vid=2f13cf22-ef2b-4a1e-888a-b743f3112e82"},"vehicle_type_id":"4","last_reported":1726052943,"current_range_meters":36800,"station_id":"ce4bgi92rcd13ifvqb90","pricing_plan_id":"cebpf4jnsgd1na2vs0mg"},{"bike_id":"e255837d-3471-4ee5-91a0-c027571f1c16","system_id":"levelo_inurba_marseille","lat":43.34138,"lon":5.40904,"is_reserved":false,"is_disabled":false,"rental_uris":{"android":"levelo://app?vid=e255837d-3471-4ee5-91a0-c027571f1c16","ios":"levelo://app?vid=e255837d-3471-4ee5-91a0-c027571f1c16"},"vehicle_type_id":"4","last_reported":1726052943,"current_range_meters":14400,"station_id":"ce4bhqh2rcd13ifvqhlg","pricing_plan_id":"cebpf4jnsgd1na2vs0mg"},{"bike_id":"0a32f53e-095f-4da5-87ed-19e8f9ca40f1","system_id":"levelo_inurba_marseille","lat":43.29082,"lon":5.37161,"is_reserved":false,"is_disabled":false,"rental_uris":{"android":"levelo://app?vid=0a32f53e-095f-4da5-87ed-19e8f9ca40f1","ios":"levelo://app?vid=0a32f53e-095f-4da5-87ed-19e8f9ca40f1"},"vehicle_type_id":"4","last_reported":1726052943,"current_range_meters":23200,"station_id":"ce4bh5p2rcd13ifvqe4g","pricing_plan_id":"cebpf4jnsgd1na2vs0mg"},{"bike_id":"74d7f432-f596-45ae-b14d-0ddc7f8a62f6","system_id":"levelo_inurba_marseille","lat":43.23147,"lon":5.43715,"is_reserved":false,"is_disabled":false,"rental_uris":{"android":"levelo://app?vid=74d7f432-f596-45ae-b14d-0ddc7f8a62f6","ios":"levelo://app?vid=74d7f432-f596-45ae-b14d-0ddc7f8a62f6"},"vehicle_type_id":"4","last_reported":1726052943,"current_range_meters":8400,"station_id":"ce4bhmp2rcd13ifvqgog","pricing_plan_id":"cebpf4jnsgd1na2vs0mg"},{"bike_id":"22c3f759-6a7b-4828-bd4f-15e2ea8e8b1b","system_id":"levelo_inurba_marseille","lat":43.29199,"lon":5.39327,"is_reserved":false,"is_disabled":false,"rental_uris":{"android":"levelo://app?vid=22c3f759-6a7b-4828-bd4f-15e2ea8e8b1b","ios":"levelo://app?vid=22c3f759-6a7b-4828-bd4f-15e2ea8e8b1b"},"vehicle_type_id":"4","last_reported":1726052943,"current_range_meters":9600,"station_id":"ce4bh192rcd13ifvqdd0","pricing_plan_id":"cebpf4jnsgd1na2vs0mg"},{"bike_id":"883adf4f-9822-48e8-9c16-82ae0dbc702a","system_id":"levelo_inurba_marseille","lat":43.2315,"lon":5.43702,"is_reserved":false,"is_disabled":false,"rental_uris":{"android":"levelo://app?vid=883adf4f-9822-48e8-9c16-82ae0dbc702a","ios":"levelo://app?vid=883adf4f-9822-48e8-9c16-82ae0dbc702a"},"vehicle_type_id":"4","last_reported":1726052943,"current_range_meters":8800,"station_id":"ce4bhmp2rcd13ifvqgog","pricing_plan_id":"cebpf4jnsgd1na2vs0mg"},{"bike_id":"7dcd8fcd-6a55-496a-8a72-6799b3b822ef","system_id":"levelo_inurba_marseille","lat":43.28272,"lon":5.35074,"is_reserved":false,"is_disabled":false,"rental_uris":{"android":"levelo://app?vid=7dcd8fcd-6a55-496a-8a72-6799b3b822ef","ios":"levelo://app?vid=7dcd8fcd-6a55-496a-8a72-6799b3b822ef"},"vehicle_type_id":"4","last_reported":1726052943,"current_range_meters":29600,"station_id":"ce4bhbp2rcd13ifvqerg","pricing_plan_id":"cebpf4jnsgd1na2vs0mg"},{"bike_id":"e6f96de0-61ec-4748-a734-8c2cacbee67f","system_id":"levelo_inurba_marseille","lat":43.23053,"lon":5.35486,"is_reserved":false,"is_disabled":false,"rental_uris":{"android":"levelo://app?vid=e6f96de0-61ec-4748-a734-8c2cacbee67f","ios":"levelo://app?vid=e6f96de0-61ec-4748-a734-8c2cacbee67f"},"vehicle_type_id":"4","last_reported":1726052943,"current_range_meters":6400,"station_id":"cpo3342slgdg3j2ifvpg","pricing_plan_id":"cebpf4jnsgd1na2vs0mg"},{"bike_id":"9a3c6365-df00-48f6-9220-61b0c5e00a7f","system_id":"levelo_inurba_marseille","lat":43.337444,"lon":5.374475,"is_reserved":false,"is_disabled":false,"rental_uris":{"android":"levelo://app?vid=9a3c6365-df00-48f6-9220-61b0c5e00a7f","ios":"levelo://app?vid=9a3c6365-df00-48f6-9220-61b0c5e00a7f"},"vehicle_type_id":"4","last_reported":1726052943,"current_range_meters":24000,"station_id":"ce4bhoh2rcd13ifvqh5g","pricing_plan_id":"cebpf4jnsgd1na2vs0mg"},{"bike_id":"3cae1022-c62a-4046-8d00-f56781bb782c","system_id":"levelo_inurba_marseille","lat":43.3054,"lon":5.36724,"is_reserved":false,"is_disabled":false,"rental_uris":{"android":"levelo://app?vid=3cae1022-c62a-4046-8d00-f56781bb782c","ios":"levelo://app?vid=3cae1022-c62a-4046-8d00-f56781bb782c"},"vehicle_type_id":"4","last_reported":1726052943,"current_range_meters":8000,"station_id":"ce4bgrp2rcd13ifvqc9g","pricing_plan_id":"cebpf4jnsgd1na2vs0mg"},{"bike_id":"638343ce-15e7-4192-b8b3-9dbbe2d9e121","system_id":"levelo_inurba_marseille","lat":43.27184,"lon":5.40996,"is_reserved":false,"is_disabled":false,"rental_uris":{"android":"levelo://app?vid=638343ce-15e7-4192-b8b3-9dbbe2d9e121","ios":"levelo://app?vid=638343ce-15e7-4192-b8b3-9dbbe2d9e121"},"vehicle_type_id":"4","last_reported":1726052943,"current_range_meters":36400,"station_id":"ce4bhl12rcd13ifvqgf0","pricing_plan_id":"cebpf4jnsgd1na2vs0mg"},{"bike_id":"4901b0e5-549c-41e2-b839-db24b29f540e","system_id":"levelo_inurba_marseille","lat":43.29311,"lon":5.35561,"is_reserved":false,"is_disabled":false,"rental_uris":{"android":"levelo://app?vid=4901b0e5-549c-41e2-b839-db24b29f540e","ios":"levelo://app?vid=4901b0e5-549c-41e2-b839-db24b29f540e"},"vehicle_type_id":"4","last_reported":1726052943,"current_range_meters":2000,"station_id":"","pricing_plan_id":"cebpf4jnsgd1na2vs0mg"},{"bike_id":"ca736aa2-9ae6-4cb8-b0fe-510d91a35421","system_id":"levelo_inurba_marseille","lat":43.30557,"lon":5.3654,"is_reserved":false,"is_disabled":false,"rental_uris":{"android":"levelo://app?vid=ca736aa2-9ae6-4cb8-b0fe-510d91a35421","ios":"levelo://app?vid=ca736aa2-9ae6-4cb8-b0fe-510d91a35421"},"vehicle_type_id":"4","last_reported":1726052943,"current_range_meters":18800,"station_id":"ce4bgs12rcd13ifvqcag","pricing_plan_id":"cebpf4jnsgd1na2vs0mg"},{"bike_id":"3b163329-75e0-42ce-a395-e2936b5dfbec","system_id":"levelo_inurba_marseille","lat":43.2955,"lon":5.42272,"is_reserved":false,"is_disabled":false,"rental_uris":{"android":"levelo://app?vid=3b163329-75e0-42ce-a395-e2936b5dfbec","ios":"levelo://app?vid=3b163329-75e0-42ce-a395-e2936b5dfbec"},"vehicle_type_id":"4","last_reported":1726052943,"current_range_meters":30400,"station_id":"ce4bhph2rcd13ifvqhdg","pricing_plan_id":"cebpf4jnsgd1na2vs0mg"},{"bike_id":"523b14e3-b161-4881-9aaa-d1ca867bd6d8","system_id":"levelo_inurba_marseille","lat":43.28938,"lon":5.3963,"is_reserved":false,"is_disabled":false,"rental_uris":{"android":"levelo://app?vid=523b14e3-b161-4881-9aaa-d1ca867bd6d8","ios":"levelo://app?vid=523b14e3-b161-4881-9aaa-d1ca867bd6d8"},"vehicle_type_id":"4","last_reported":1726052943,"current_range_meters":39200,"station_id":"ce4bh3h2rcd13ifvqdn0","pricing_plan_id":"cebpf4jnsgd1na2vs0mg"},{"bike_id":"0c8ef5bf-df72-4687-ac81-21b0246bd901","system_id":"levelo_inurba_marseille","lat":43.26192,"lon":5.37453,"is_reserved":false,"is_disabled":false,"rental_uris":{"android":"levelo://app?vid=0c8ef5bf-df72-4687-ac81-21b0246bd901","ios":"levelo://app?vid=0c8ef5bf-df72-4687-ac81-21b0246bd901"},"vehicle_type_id":"4","last_reported":1726052943,"current_range_meters":21600,"station_id":"ce4bhgp2rcd13ifvqfc0","pricing_plan_id":"cebpf4jnsgd1na2vs0mg"},{"bike_id":"f0974e9a-31a3-4c17-841c-57224836aa7a","system_id":"levelo_inurba_marseille","lat":43.24177,"lon":5.3971,"is_reserved":false,"is_disabled":false,"rental_uris":{"android":"levelo://app?vid=f0974e9a-31a3-4c17-841c-57224836aa7a","ios":"levelo://app?vid=f0974e9a-31a3-4c17-841c-57224836aa7a"},"vehicle_type_id":"4","last_reported":1726052943,"current_range_meters":24000,"station_id":"ce4bhn12rcd13ifvqgpg","pricing_plan_id":"cebpf4jnsgd1na2vs0mg"},{"bike_id":"3ad9e71a-880c-4235-a7ee-a35175d3bee5","system_id":"levelo_inurba_marseille","lat":43.2827,"lon":5.3507,"is_reserved":false,"is_disabled":false,"rental_uris":{"android":"levelo://app?vid=3ad9e71a-880c-4235-a7ee-a35175d3bee5","ios":"levelo://app?vid=3ad9e71a-880c-4235-a7ee-a35175d3bee5"},"vehicle_type_id":"4","last_reported":1726052943,"current_range_meters":4800,"station_id":"ce4bhbp2rcd13ifvqerg","pricing_plan_id":"cebpf4jnsgd1na2vs0mg"},{"bike_id":"2f886a15-37e4-4dad-86c7-a7a6746278bd","system_id":"levelo_inurba_marseille","lat":43.25941,"lon":5.40901,"is_reserved":false,"is_disabled":false,"rental_uris":{"android":"levelo://app?vid=2f886a15-37e4-4dad-86c7-a7a6746278bd","ios":"levelo://app?vid=2f886a15-37e4-4dad-86c7-a7a6746278bd"},"vehicle_type_id":"4","last_reported":1726052943,"current_range_meters":33200,"station_id":"ce4bhm92rcd13ifvqglg","pricing_plan_id":"cebpf4jnsgd1na2vs0mg"},{"bike_id":"c92f72b1-5ddf-4c1c-b230-a2521bf22d3c","system_id":"levelo_inurba_marseille","lat":43.30527,"lon":5.36715,"is_reserved":false,"is_disabled":false,"rental_uris":{"android":"levelo://app?vid=c92f72b1-5ddf-4c1c-b230-a2521bf22d3c","ios":"levelo://app?vid=c92f72b1-5ddf-4c1c-b230-a2521bf22d3c"},"vehicle_type_id":"4","last_reported":1726052943,"current_range_meters":32000,"station_id":"ce4bgrp2rcd13ifvqc9g","pricing_plan_id":"cebpf4jnsgd1na2vs0mg"},{"bike_id":"b1f7b7b4-9b20-4f67-a2d4-3c24e5e21733","system_id":"levelo_inurba_marseille","lat":43.30463,"lon":5.37899,"is_reserved":false,"is_disabled":false,"rental_uris":{"android":"levelo://app?vid=b1f7b7b4-9b20-4f67-a2d4-3c24e5e21733","ios":"levelo://app?vid=b1f7b7b4-9b20-4f67-a2d4-3c24e5e21733"},"vehicle_type_id":"4","last_reported":1726052943,"current_range_meters":14000,"station_id":"ce4bgup2rcd13ifvqcn0","pricing_plan_id":"cebpf4jnsgd1na2vs0mg"},{"bike_id":"903a17fc-6d51-47bc-8223-972952786bdc","system_id":"levelo_inurba_marseille","lat":43.23183,"lon":5.39983,"is_reserved":false,"is_disabled":false,"rental_uris":{"android":"levelo://app?vid=903a17fc-6d51-47bc-8223-972952786bdc","ios":"levelo://app?vid=903a17fc-6d51-47bc-8223-972952786bdc"},"vehicle_type_id":"4","last_reported":1726052943,"current_range_meters":18000,"station_id":"ce4bhn12rcd13ifvqgqg","pricing_plan_id":"cebpf4jnsgd1na2vs0mg"},{"bike_id":"12e74b20-5078-4c0a-be57-68ea4374248f","system_id":"levelo_inurba_marseille","lat":43.25087,"lon":5.39517,"is_reserved":false,"is_disabled":false,"rental_uris":{"android":"levelo://app?vid=12e74b20-5078-4c0a-be57-68ea4374248f","ios":"levelo://app?vid=12e74b20-5078-4c0a-be57-68ea4374248f"},"vehicle_type_id":"4","last_reported":1726052943,"current_range_meters":24000,"station_id":"ce4bhm12rcd13ifvqgkg","pricing_plan_id":"cebpf4jnsgd1na2vs0mg"},{"bike_id":"4eb5cf07-a838-47ac-bfa9-94266ba671b6","system_id":"levelo_inurba_marseille","lat":43.2508,"lon":5.39525,"is_reserved":false,"is_disabled":false,"rental_uris":{"android":"levelo://app?vid=4eb5cf07-a838-47ac-bfa9-94266ba671b6","ios":"levelo://app?vid=4eb5cf07-a838-47ac-bfa9-94266ba671b6"},"vehicle_type_id":"4","last_reported":1726052943,"current_range_meters":18000,"station_id":"ce4bhm12rcd13ifvqgkg","pricing_plan_id":"cebpf4jnsgd1na2vs0mg"},{"bike_id":"31f93c97-13bf-4594-b48a-0971830af1c5","system_id":"levelo_inurba_marseille","lat":43.2668,"lon":5.38265,"is_reserved":false,"is_disabled":false,"rental_uris":{"android":"levelo://app?vid=31f93c97-13bf-4594-b48a-0971830af1c5","ios":"levelo://app?vid=31f93c97-13bf-4594-b48a-0971830af1c5"},"vehicle_type_id":"4","last_reported":1726052943,"current_range_meters":2800,"station_id":"ce4bhg92rcd13ifvqf90","pricing_plan_id":"cebpf4jnsgd1na2vs0mg"},{"bike_id":"10b153a4-e9ce-4c29-879d-9f03af2b4c41","system_id":"levelo_inurba_marseille","lat":43.28728,"lon":5.36084,"is_reserved":false,"is_disabled":false,"rental_uris":{"android":"levelo://app?vid=10b153a4-e9ce-4c29-879d-9f03af2b4c41","ios":"levelo://app?vid=10b153a4-e9ce-4c29-879d-9f03af2b4c41"},"vehicle_type_id":"4","last_reported":1726052943,"current_range_meters":9200,"station_id":"cki0cbj6b192h4jlfktg","pricing_plan_id":"cebpf4jnsgd1na2vs0mg"},{"bike_id":"0d78d25f-2501-4ffb-b495-6cd64f4c7d8f","system_id":"levelo_inurba_marseille","lat":43.24179,"lon":5.39724,"is_reserved":false,"is_disabled":false,"rental_uris":{"android":"levelo://app?vid=0d78d25f-2501-4ffb-b495-6cd64f4c7d8f","ios":"levelo://app?vid=0d78d25f-2501-4ffb-b495-6cd64f4c7d8f"},"vehicle_type_id":"4","last_reported":1726052943,"current_range_meters":19600,"station_id":"ce4bhn12rcd13ifvqgpg","pricing_plan_id":"cebpf4jnsgd1na2vs0mg"},{"bike_id":"8d703eb6-1560-4a00-92bf-990938569b51","system_id":"levelo_inurba_marseille","lat":43.33714,"lon":5.37397,"is_reserved":false,"is_disabled":false,"rental_uris":{"android":"levelo://app?vid=8d703eb6-1560-4a00-92bf-990938569b51","ios":"levelo://app?vid=8d703eb6-1560-4a00-92bf-990938569b51"},"vehicle_type_id":"4","last_reported":1726052943,"current_range_meters":13600,"station_id":"","pricing_plan_id":"cebpf4jnsgd1na2vs0mg"},{"bike_id":"e2943a9e-6e46-414c-8394-78b2630561ac","system_id":"levelo_inurba_marseille","lat":43.3013,"lon":5.38776,"is_reserved":false,"is_disabled":false,"rental_uris":{"android":"levelo://app?vid=e2943a9e-6e46-414c-8394-78b2630561ac","ios":"levelo://app?vid=e2943a9e-6e46-414c-8394-78b2630561ac"},"vehicle_type_id":"4","last_reported":1726052943,"current_range_meters":24800,"station_id":"ce4bghh2rcd13ifvqb60","pricing_plan_id":"cebpf4jnsgd1na2vs0mg"},{"bike_id":"daab6d33-1de9-4536-9c3f-112d06fe3b1b","system_id":"levelo_inurba_marseille","lat":43.337444,"lon":5.374475,"is_reserved":false,"is_disabled":false,"rental_uris":{"android":"levelo://app?vid=daab6d33-1de9-4536-9c3f-112d06fe3b1b","ios":"levelo://app?vid=daab6d33-1de9-4536-9c3f-112d06fe3b1b"},"vehicle_type_id":"4","last_reported":1726052943,"current_range_meters":28400,"station_id":"ce4bhoh2rcd13ifvqh5g","pricing_plan_id":"cebpf4jnsgd1na2vs0mg"},{"bike_id":"183f1e2e-2cf8-4b28-8a17-5a4c8ed08f98","system_id":"levelo_inurba_marseille","lat":43.2619,"lon":5.37447,"is_reserved":false,"is_disabled":false,"rental_uris":{"android":"levelo://app?vid=183f1e2e-2cf8-4b28-8a17-5a4c8ed08f98","ios":"levelo://app?vid=183f1e2e-2cf8-4b28-8a17-5a4c8ed08f98"},"vehicle_type_id":"4","last_reported":1726052943,"current_range_meters":33600,"station_id":"ce4bhgp2rcd13ifvqfc0","pricing_plan_id":"cebpf4jnsgd1na2vs0mg"},{"bike_id":"af17667f-e93f-4070-9082-2028eb9e3968","system_id":"levelo_inurba_marseille","lat":43.33602,"lon":5.41028,"is_reserved":false,"is_disabled":false,"rental_uris":{"android":"levelo://app?vid=af17667f-e93f-4070-9082-2028eb9e3968","ios":"levelo://app?vid=af17667f-e93f-4070-9082-2028eb9e3968"},"vehicle_type_id":"4","last_reported":1726052943,"current_range_meters":29600,"station_id":"ce4bhqh2rcd13ifvqhmg","pricing_plan_id":"cebpf4jnsgd1na2vs0mg"},{"bike_id":"37d8c39f-1cdd-4f24-9274-2d093441df6e","system_id":"levelo_inurba_marseille","lat":43.31221,"lon":5.36846,"is_reserved":false,"is_disabled":false,"rental_uris":{"android":"levelo://app?vid=37d8c39f-1cdd-4f24-9274-2d093441df6e","ios":"levelo://app?vid=37d8c39f-1cdd-4f24-9274-2d093441df6e"},"vehicle_type_id":"4","last_reported":1726052943,"current_range_meters":30400,"station_id":"","pricing_plan_id":"cebpf4jnsgd1na2vs0mg"},{"bike_id":"1fa994aa-0442-4f93-9f86-820c01823ea5","system_id":"levelo_inurba_marseille","lat":43.33607,"lon":5.41033,"is_reserved":false,"is_disabled":false,"rental_uris":{"android":"levelo://app?vid=1fa994aa-0442-4f93-9f86-820c01823ea5","ios":"levelo://app?vid=1fa994aa-0442-4f93-9f86-820c01823ea5"},"vehicle_type_id":"4","last_reported":1726052943,"current_range_meters":17600,"station_id":"ce4bhqh2rcd13ifvqhmg","pricing_plan_id":"cebpf4jnsgd1na2vs0mg"},{"bike_id":"853e41cf-d448-405b-a47e-b170c8731ca1","system_id":"levelo_inurba_marseille","lat":43.3054,"lon":5.36545,"is_reserved":false,"is_disabled":false,"rental_uris":{"android":"levelo://app?vid=853e41cf-d448-405b-a47e-b170c8731ca1","ios":"levelo://app?vid=853e41cf-d448-405b-a47e-b170c8731ca1"},"vehicle_type_id":"4","last_reported":1726052943,"current_range_meters":36800,"station_id":"ce4bgs12rcd13ifvqcag","pricing_plan_id":"cebpf4jnsgd1na2vs0mg"},{"bike_id":"0fe0b341-d50e-4eb0-95ad-fa4464453111","system_id":"levelo_inurba_marseille","lat":43.27068,"lon":5.42281,"is_reserved":false,"is_disabled":false,"rental_uris":{"android":"levelo://app?vid=0fe0b341-d50e-4eb0-95ad-fa4464453111","ios":"levelo://app?vid=0fe0b341-d50e-4eb0-95ad-fa4464453111"},"vehicle_type_id":"4","last_reported":1726052943,"current_range_meters":34800,"station_id":"ce4bhk92rcd13ifvqgb0","pricing_plan_id":"cebpf4jnsgd1na2vs0mg"},{"bike_id":"552e65c7-0938-4f1d-81eb-dce292016032","system_id":"levelo_inurba_marseille","lat":43.28727,"lon":5.39983,"is_reserved":false,"is_disabled":false,"rental_uris":{"android":"levelo://app?vid=552e65c7-0938-4f1d-81eb-dce292016032","ios":"levelo://app?vid=552e65c7-0938-4f1d-81eb-dce292016032"},"vehicle_type_id":"4","last_reported":1726052943,"current_range_meters":31200,"station_id":"ce4bho92rcd13ifvqh3g","pricing_plan_id":"cebpf4jnsgd1na2vs0mg"},{"bike_id":"3774f0da-cfcc-41cf-9ab6-9acf83169616","system_id":"levelo_inurba_marseille","lat":43.29846,"lon":5.36282,"is_reserved":false,"is_disabled":false,"rental_uris":{"android":"levelo://app?vid=3774f0da-cfcc-41cf-9ab6-9acf83169616","ios":"levelo://app?vid=3774f0da-cfcc-41cf-9ab6-9acf83169616"},"vehicle_type_id":"4","last_reported":1726052943,"current_range_meters":24800,"station_id":"ce4bgpp2rcd13ifvqc3g","pricing_plan_id":"cebpf4jnsgd1na2vs0mg"},{"bike_id":"dd2d66a6-976d-43e6-83be-d6211ff78acc","system_id":"levelo_inurba_marseille","lat":43.33724,"lon":5.3918,"is_reserved":false,"is_disabled":false,"rental_uris":{"android":"levelo://app?vid=dd2d66a6-976d-43e6-83be-d6211ff78acc","ios":"levelo://app?vid=dd2d66a6-976d-43e6-83be-d6211ff78acc"},"vehicle_type_id":"4","last_reported":1726052943,"current_range_meters":17200,"station_id":"ce4bhr92rcd13ifvqhsg","pricing_plan_id":"cebpf4jnsgd1na2vs0mg"},{"bike_id":"a2a1f7cb-d451-4d22-9102-eac2267b21fa","system_id":"levelo_inurba_marseille","lat":43.27576,"lon":5.38413,"is_reserved":false,"is_disabled":false,"rental_uris":{"android":"levelo://app?vid=a2a1f7cb-d451-4d22-9102-eac2267b21fa","ios":"levelo://app?vid=a2a1f7cb-d451-4d22-9102-eac2267b21fa"},"vehicle_type_id":"4","last_reported":1726052943,"current_range_meters":34800,"station_id":"ce4bhh92rcd13ifvqfi0","pricing_plan_id":"cebpf4jnsgd1na2vs0mg"},{"bike_id":"b0a8eaa8-48eb-4089-87b4-5d3f24d8111c","system_id":"levelo_inurba_marseille","lat":43.23185,"lon":5.39994,"is_reserved":false,"is_disabled":false,"rental_uris":{"android":"levelo://app?vid=b0a8eaa8-48eb-4089-87b4-5d3f24d8111c","ios":"levelo://app?vid=b0a8eaa8-48eb-4089-87b4-5d3f24d8111c"},"vehicle_type_id":"4","last_reported":1726052943,"current_range_meters":11600,"station_id":"ce4bhn12rcd13ifvqgqg","pricing_plan_id":"cebpf4jnsgd1na2vs0mg"},{"bike_id":"d5857567-e062-4ec2-b65b-5f36e66c17d8","system_id":"levelo_inurba_marseille","lat":43.24648,"lon":5.38893,"is_reserved":false,"is_disabled":false,"rental_uris":{"android":"levelo://app?vid=d5857567-e062-4ec2-b65b-5f36e66c17d8","ios":"levelo://app?vid=d5857567-e062-4ec2-b65b-5f36e66c17d8"},"vehicle_type_id":"4","last_reported":1726052943,"current_range_meters":19200,"station_id":"ce4bhg12rcd13ifvqf60","pricing_plan_id":"cebpf4jnsgd1na2vs0mg"},{"bike_id":"53d62468-643a-40bd-ac37-ca3fb24b6459","system_id":"levelo_inurba_marseille","lat":43.24546,"lon":5.3952,"is_reserved":false,"is_disabled":false,"rental_uris":{"android":"levelo://app?vid=53d62468-643a-40bd-ac37-ca3fb24b6459","ios":"levelo://app?vid=53d62468-643a-40bd-ac37-ca3fb24b6459"},"vehicle_type_id":"4","last_reported":1726052943,"current_range_meters":15200,"station_id":"ce4bhlp2rcd13ifvqgjg","pricing_plan_id":"cebpf4jnsgd1na2vs0mg"},{"bike_id":"9639ece4-50be-4d95-99ef-c1831d828baa","system_id":"levelo_inurba_marseille","lat":43.2693,"lon":5.38919,"is_reserved":false,"is_disabled":false,"rental_uris":{"android":"levelo://app?vid=9639ece4-50be-4d95-99ef-c1831d828baa","ios":"levelo://app?vid=9639ece4-50be-4d95-99ef-c1831d828baa"},"vehicle_type_id":"4","last_reported":1726052943,"current_range_meters":33200,"station_id":"ce4bhhh2rcd13ifvqfl0","pricing_plan_id":"cebpf4jnsgd1na2vs0mg"},{"bike_id":"e6340fa2-95f2-4ac3-bece-73bbead1f26f","system_id":"levelo_inurba_marseille","lat":43.31119,"lon":5.3776,"is_reserved":false,"is_disabled":false,"rental_uris":{"android":"levelo://app?vid=e6340fa2-95f2-4ac3-bece-73bbead1f26f","ios":"levelo://app?vid=e6340fa2-95f2-4ac3-bece-73bbead1f26f"},"vehicle_type_id":"4","last_reported":1726052943,"current_range_meters":25200,"station_id":"ce4bgt92rcd13ifvqcg0","pricing_plan_id":"cebpf4jnsgd1na2vs0mg"},{"bike_id":"c7d93940-5dbf-48ff-a937-9fcdd0607b79","system_id":"levelo_inurba_marseille","lat":43.32035,"lon":5.41568,"is_reserved":false,"is_disabled":false,"rental_uris":{"android":"levelo://app?vid=c7d93940-5dbf-48ff-a937-9fcdd0607b79","ios":"levelo://app?vid=c7d93940-5dbf-48ff-a937-9fcdd0607b79"},"vehicle_type_id":"4","last_reported":1726052943,"current_range_meters":8400,"station_id":"ce4bhq92rcd13ifvqhkg","pricing_plan_id":"cebpf4jnsgd1na2vs0mg"},{"bike_id":"bb9711cc-9eb6-489c-b671-a606a9b6e21d","system_id":"levelo_inurba_marseille","lat":43.2792,"lon":5.39583,"is_reserved":false,"is_disabled":false,"rental_uris":{"android":"levelo://app?vid=bb9711cc-9eb6-489c-b671-a606a9b6e21d","ios":"levelo://app?vid=bb9711cc-9eb6-489c-b671-a606a9b6e21d"},"vehicle_type_id":"4","last_reported":1726052943,"current_range_meters":6400,"station_id":"ce4bhf92rcd13ifvqf40","pricing_plan_id":"cebpf4jnsgd1na2vs0mg"},{"bike_id":"5876c5ef-9fac-478d-bd3c-ea1780c21005","system_id":"levelo_inurba_marseille","lat":43.33755,"lon":5.37446,"is_reserved":false,"is_disabled":false,"rental_uris":{"android":"levelo://app?vid=5876c5ef-9fac-478d-bd3c-ea1780c21005","ios":"levelo://app?vid=5876c5ef-9fac-478d-bd3c-ea1780c21005"},"vehicle_type_id":"4","last_reported":1726052943,"current_range_meters":38400,"station_id":"","pricing_plan_id":"cebpf4jnsgd1na2vs0mg"},{"bike_id":"3ef293cb-6b10-47c2-a61b-1c747b67c2aa","system_id":"levelo_inurba_marseille","lat":43.22929,"lon":5.35378,"is_reserved":false,"is_disabled":false,"rental_uris":{"android":"levelo://app?vid=3ef293cb-6b10-47c2-a61b-1c747b67c2aa","ios":"levelo://app?vid=3ef293cb-6b10-47c2-a61b-1c747b67c2aa"},"vehicle_type_id":"4","last_reported":1726052943,"current_range_meters":36000,"station_id":"cpo3532slgdg3j2ikp40","pricing_plan_id":"cebpf4jnsgd1na2vs0mg"},{"bike_id":"add87560-166d-43b4-b028-0e81e4a35875","system_id":"levelo_inurba_marseille","lat":43.33609,"lon":5.41033,"is_reserved":false,"is_disabled":false,"rental_uris":{"android":"levelo://app?vid=add87560-166d-43b4-b028-0e81e4a35875","ios":"levelo://app?vid=add87560-166d-43b4-b028-0e81e4a35875"},"vehicle_type_id":"4","last_reported":1726052943,"current_range_meters":30400,"station_id":"ce4bhqh2rcd13ifvqhmg","pricing_plan_id":"cebpf4jnsgd1na2vs0mg"},{"bike_id":"8dd5f9f0-ff7d-4bb6-9b2a-fca229656e8d","system_id":"levelo_inurba_marseille","lat":43.29021,"lon":5.38136,"is_reserved":false,"is_disabled":false,"rental_uris":{"android":"levelo://app?vid=8dd5f9f0-ff7d-4bb6-9b2a-fca229656e8d","ios":"levelo://app?vid=8dd5f9f0-ff7d-4bb6-9b2a-fca229656e8d"},"vehicle_type_id":"4","last_reported":1726052943,"current_range_meters":38400,"station_id":"ce4bh4p2rcd13ifvqe1g","pricing_plan_id":"cebpf4jnsgd1na2vs0mg"},{"bike_id":"cd8034bf-8ead-4e0b-bbf4-e754e85e2c73","system_id":"levelo_inurba_marseille","lat":43.31711,"lon":5.43702,"is_reserved":false,"is_disabled":false,"rental_uris":{"android":"levelo://app?vid=cd8034bf-8ead-4e0b-bbf4-e754e85e2c73","ios":"levelo://app?vid=cd8034bf-8ead-4e0b-bbf4-e754e85e2c73"},"vehicle_type_id":"4","last_reported":1726052943,"current_range_meters":18800,"station_id":"ce4bhp92rcd13ifvqhcg","pricing_plan_id":"cebpf4jnsgd1na2vs0mg"},{"bike_id":"cf14eaed-5c1e-476d-bee7-abf710c65fa0","system_id":"levelo_inurba_marseille","lat":43.28924,"lon":5.38404,"is_reserved":false,"is_disabled":false,"rental_uris":{"android":"levelo://app?vid=cf14eaed-5c1e-476d-bee7-abf710c65fa0","ios":"levelo://app?vid=cf14eaed-5c1e-476d-bee7-abf710c65fa0"},"vehicle_type_id":"4","last_reported":1726052943,"current_range_meters":31200,"station_id":"ce4bh612rcd13ifvqe6g","pricing_plan_id":"cebpf4jnsgd1na2vs0mg"},{"bike_id":"9ecc2991-25b1-43d8-8253-10b99fac0036","system_id":"levelo_inurba_marseille","lat":43.30551,"lon":5.36532,"is_reserved":false,"is_disabled":false,"rental_uris":{"android":"levelo://app?vid=9ecc2991-25b1-43d8-8253-10b99fac0036","ios":"levelo://app?vid=9ecc2991-25b1-43d8-8253-10b99fac0036"},"vehicle_type_id":"4","last_reported":1726052943,"current_range_meters":35200,"station_id":"ce4bgs12rcd13ifvqcag","pricing_plan_id":"cebpf4jnsgd1na2vs0mg"},{"bike_id":"442dcd73-d35f-463a-b3ed-79f7eba221bd","system_id":"levelo_inurba_marseille","lat":43.24805,"lon":5.37453,"is_reserved":false,"is_disabled":false,"rental_uris":{"android":"levelo://app?vid=442dcd73-d35f-463a-b3ed-79f7eba221bd","ios":"levelo://app?vid=442dcd73-d35f-463a-b3ed-79f7eba221bd"},"vehicle_type_id":"4","last_reported":1726052943,"current_range_meters":2000,"station_id":"ce4bhgh2rcd13ifvqfb0","pricing_plan_id":"cebpf4jnsgd1na2vs0mg"},{"bike_id":"c9da0774-0680-4020-bb36-e88fbe984bd3","system_id":"levelo_inurba_marseille","lat":43.337444,"lon":5.374475,"is_reserved":false,"is_disabled":false,"rental_uris":{"android":"levelo://app?vid=c9da0774-0680-4020-bb36-e88fbe984bd3","ios":"levelo://app?vid=c9da0774-0680-4020-bb36-e88fbe984bd3"},"vehicle_type_id":"4","last_reported":1726052943,"current_range_meters":12800,"station_id":"","pricing_plan_id":"cebpf4jnsgd1na2vs0mg"},{"bike_id":"13efe3f8-dfd8-4ba3-9101-dd5a9b2f3069","system_id":"levelo_inurba_marseille","lat":43.29929,"lon":5.37474,"is_reserved":false,"is_disabled":false,"rental_uris":{"android":"levelo://app?vid=13efe3f8-dfd8-4ba3-9101-dd5a9b2f3069","ios":"levelo://app?vid=13efe3f8-dfd8-4ba3-9101-dd5a9b2f3069"},"vehicle_type_id":"4","last_reported":1726052943,"current_range_meters":39200,"station_id":"ce4bgjh2rcd13ifvqbg0","pricing_plan_id":"cebpf4jnsgd1na2vs0mg"},{"bike_id":"de997810-7554-46cd-8ba3-7bf0bb9bdff4","system_id":"levelo_inurba_marseille","lat":43.25932,"lon":5.40911,"is_reserved":false,"is_disabled":false,"rental_uris":{"android":"levelo://app?vid=de997810-7554-46cd-8ba3-7bf0bb9bdff4","ios":"levelo://app?vid=de997810-7554-46cd-8ba3-7bf0bb9bdff4"},"vehicle_type_id":"4","last_reported":1726052943,"current_range_meters":28000,"station_id":"ce4bhm92rcd13ifvqglg","pricing_plan_id":"cebpf4jnsgd1na2vs0mg"},{"bike_id":"ca493541-0878-4c24-bcaf-aa00cf00a1a9","system_id":"levelo_inurba_marseille","lat":43.30619,"lon":5.37204,"is_reserved":false,"is_disabled":false,"rental_uris":{"android":"levelo://app?vid=ca493541-0878-4c24-bcaf-aa00cf00a1a9","ios":"levelo://app?vid=ca493541-0878-4c24-bcaf-aa00cf00a1a9"},"vehicle_type_id":"4","last_reported":1726052943,"current_range_meters":7200,"station_id":"ce4bgqh2rcd13ifvqc4g","pricing_plan_id":"cebpf4jnsgd1na2vs0mg"},{"bike_id":"75b44f51-b91c-4d72-95de-a17f5c237ba4","system_id":"levelo_inurba_marseille","lat":43.28438,"lon":5.39175,"is_reserved":false,"is_disabled":false,"rental_uris":{"android":"levelo://app?vid=75b44f51-b91c-4d72-95de-a17f5c237ba4","ios":"levelo://app?vid=75b44f51-b91c-4d72-95de-a17f5c237ba4"},"vehicle_type_id":"4","last_reported":1726052943,"current_range_meters":27200,"station_id":"ce4bhoh2rcd13ifvqh5g","pricing_plan_id":"cebpf4jnsgd1na2vs0mg"},{"bike_id":"49bc212b-7e1a-46c5-acc7-cf861ed81b1e","system_id":"levelo_inurba_marseille","lat":43.30314,"lon":5.3691,"is_reserved":false,"is_disabled":false,"rental_uris":{"android":"levelo://app?vid=49bc212b-7e1a-46c5-acc7-cf861ed81b1e","ios":"levelo://app?vid=49bc212b-7e1a-46c5-acc7-cf861ed81b1e"},"vehicle_type_id":"4","last_reported":1726052943,"current_range_meters":37600,"station_id":"ce4bgqh2rcd13ifvqc5g","pricing_plan_id":"cebpf4jnsgd1na2vs0mg"},{"bike_id":"ad3e88e0-af35-43ac-ad3e-75bd7b40ceef","system_id":"levelo_inurba_marseille","lat":43.30416,"lon":5.41275,"is_reserved":false,"is_disabled":false,"rental_uris":{"android":"levelo://app?vid=ad3e88e0-af35-43ac-ad3e-75bd7b40ceef","ios":"levelo://app?vid=ad3e88e0-af35-43ac-ad3e-75bd7b40ceef"},"vehicle_type_id":"4","last_reported":1726052943,"current_range_meters":29600,"station_id":"ce4bhop2rcd13ifvqh8g","pricing_plan_id":"cebpf4jnsgd1na2vs0mg"},{"bike_id":"f45ec182-9359-40e1-9d29-51a7570945d5","system_id":"levelo_inurba_marseille","lat":43.26682,"lon":5.38267,"is_reserved":false,"is_disabled":false,"rental_uris":{"android":"levelo://app?vid=f45ec182-9359-40e1-9d29-51a7570945d5","ios":"levelo://app?vid=f45ec182-9359-40e1-9d29-51a7570945d5"},"vehicle_type_id":"4","last_reported":1726052943,"current_range_meters":28800,"station_id":"ce4bhg92rcd13ifvqf90","pricing_plan_id":"cebpf4jnsgd1na2vs0mg"},{"bike_id":"f012703a-fd72-428b-af80-54e84aa2a169","system_id":"levelo_inurba_marseille","lat":43.30351,"lon":5.39401,"is_reserved":false,"is_disabled":false,"rental_uris":{"android":"levelo://app?vid=f012703a-fd72-428b-af80-54e84aa2a169","ios":"levelo://app?vid=f012703a-fd72-428b-af80-54e84aa2a169"},"vehicle_type_id":"4","last_reported":1726052943,"current_range_meters":19600,"station_id":"ce4bh0p2rcd13ifvqd80","pricing_plan_id":"cebpf4jnsgd1na2vs0mg"},{"bike_id":"34666dc3-34bb-4b53-8f62-2ce2a4ce5802","system_id":"levelo_inurba_marseille","lat":43.30895,"lon":5.37211,"is_reserved":false,"is_disabled":false,"rental_uris":{"android":"levelo://app?vid=34666dc3-34bb-4b53-8f62-2ce2a4ce5802","ios":"levelo://app?vid=34666dc3-34bb-4b53-8f62-2ce2a4ce5802"},"vehicle_type_id":"4","last_reported":1726052943,"current_range_meters":36000,"station_id":"ce4bguh2rcd13ifvqckg","pricing_plan_id":"cebpf4jnsgd1na2vs0mg"},{"bike_id":"89316f76-d1ce-409b-b154-2e6e46f271f4","system_id":"levelo_inurba_marseille","lat":43.30306,"lon":5.39217,"is_reserved":false,"is_disabled":false,"rental_uris":{"android":"levelo://app?vid=89316f76-d1ce-409b-b154-2e6e46f271f4","ios":"levelo://app?vid=89316f76-d1ce-409b-b154-2e6e46f271f4"},"vehicle_type_id":"4","last_reported":1726052943,"current_range_meters":38800,"station_id":"ce4bgkh2rcd13ifvqbk0","pricing_plan_id":"cebpf4jnsgd1na2vs0mg"},{"bike_id":"b092f943-8148-4400-83c6-cd42da1e3110","system_id":"levelo_inurba_marseille","lat":43.250263,"lon":5.375462,"is_reserved":false,"is_disabled":false,"rental_uris":{"android":"levelo://app?vid=b092f943-8148-4400-83c6-cd42da1e3110","ios":"levelo://app?vid=b092f943-8148-4400-83c6-cd42da1e3110"},"vehicle_type_id":"4","last_reported":1726052943,"current_range_meters":3600,"station_id":"ce4bhgh2rcd13ifvqfb0","pricing_plan_id":"cebpf4jnsgd1na2vs0mg"},{"bike_id":"5722f385-0124-4bed-a8de-85c0d18d21ac","system_id":"levelo_inurba_marseille","lat":43.25941,"lon":5.40899,"is_reserved":false,"is_disabled":false,"rental_uris":{"android":"levelo://app?vid=5722f385-0124-4bed-a8de-85c0d18d21ac","ios":"levelo://app?vid=5722f385-0124-4bed-a8de-85c0d18d21ac"},"vehicle_type_id":"4","last_reported":1726052943,"current_range_meters":28800,"station_id":"ce4bhm92rcd13ifvqglg","pricing_plan_id":"cebpf4jnsgd1na2vs0mg"},{"bike_id":"fce7231c-3d2d-4838-8353-783131797374","system_id":"levelo_inurba_marseille","lat":43.2902,"lon":5.38623,"is_reserved":false,"is_disabled":false,"rental_uris":{"android":"levelo://app?vid=fce7231c-3d2d-4838-8353-783131797374","ios":"levelo://app?vid=fce7231c-3d2d-4838-8353-783131797374"},"vehicle_type_id":"4","last_reported":1726052943,"current_range_meters":38800,"station_id":"ce4bh4p2rcd13ifvqe0g","pricing_plan_id":"cebpf4jnsgd1na2vs0mg"},{"bike_id":"67d3ace1-f571-435a-9bab-3a41675d4334","system_id":"levelo_inurba_marseille","lat":43.27203,"lon":5.39187,"is_reserved":false,"is_disabled":false,"rental_uris":{"android":"levelo://app?vid=67d3ace1-f571-435a-9bab-3a41675d4334","ios":"levelo://app?vid=67d3ace1-f571-435a-9bab-3a41675d4334"},"vehicle_type_id":"4","last_reported":1726052943,"current_range_meters":32000,"station_id":"ce4bhhp2rcd13ifvqfm0","pricing_plan_id":"cebpf4jnsgd1na2vs0mg"},{"bike_id":"a5ebfc3b-dfca-42ce-a6b2-fff0f4aa1394","system_id":"levelo_inurba_marseille","lat":43.29693,"lon":5.37294,"is_reserved":false,"is_disabled":false,"rental_uris":{"android":"levelo://app?vid=a5ebfc3b-dfca-42ce-a6b2-fff0f4aa1394","ios":"levelo://app?vid=a5ebfc3b-dfca-42ce-a6b2-fff0f4aa1394"},"vehicle_type_id":"4","last_reported":1726052943,"current_range_meters":32000,"station_id":"ce4bgk12rcd13ifvqbj0","pricing_plan_id":"cebpf4jnsgd1na2vs0mg"},{"bike_id":"321dc09b-9853-4170-af08-25a0d828d560","system_id":"levelo_inurba_marseille","lat":43.23184,"lon":5.39975,"is_reserved":false,"is_disabled":false,"rental_uris":{"android":"levelo://app?vid=321dc09b-9853-4170-af08-25a0d828d560","ios":"levelo://app?vid=321dc09b-9853-4170-af08-25a0d828d560"},"vehicle_type_id":"4","last_reported":1726052943,"current_range_meters":30000,"station_id":"ce4bhn12rcd13ifvqgqg","pricing_plan_id":"cebpf4jnsgd1na2vs0mg"},{"bike_id":"f55d599d-5ea0-46b2-9016-2c7f5c7bf02c","system_id":"levelo_inurba_marseille","lat":43.27075,"lon":5.42278,"is_reserved":false,"is_disabled":false,"rental_uris":{"android":"levelo://app?vid=f55d599d-5ea0-46b2-9016-2c7f5c7bf02c","ios":"levelo://app?vid=f55d599d-5ea0-46b2-9016-2c7f5c7bf02c"},"vehicle_type_id":"4","last_reported":1726052943,"current_range_meters":16400,"station_id":"ce4bhk92rcd13ifvqgb0","pricing_plan_id":"cebpf4jnsgd1na2vs0mg"},{"bike_id":"b90216dc-50a9-45f1-a9c4-3fcc8ec94ff5","system_id":"levelo_inurba_marseille","lat":43.31182,"lon":5.39347,"is_reserved":false,"is_disabled":false,"rental_uris":{"android":"levelo://app?vid=b90216dc-50a9-45f1-a9c4-3fcc8ec94ff5","ios":"levelo://app?vid=b90216dc-50a9-45f1-a9c4-3fcc8ec94ff5"},"vehicle_type_id":"4","last_reported":1726052943,"current_range_meters":10000,"station_id":"","pricing_plan_id":"cebpf4jnsgd1na2vs0mg"},{"bike_id":"19c608ed-d3dd-44b4-88c7-310bb7ead2b4","system_id":"levelo_inurba_marseille","lat":43.31283,"lon":5.40173,"is_reserved":false,"is_disabled":false,"rental_uris":{"android":"levelo://app?vid=19c608ed-d3dd-44b4-88c7-310bb7ead2b4","ios":"levelo://app?vid=19c608ed-d3dd-44b4-88c7-310bb7ead2b4"},"vehicle_type_id":"4","last_reported":1726052943,"current_range_meters":22800,"station_id":"ce4bh092rcd13ifvqd30","pricing_plan_id":"cebpf4jnsgd1na2vs0mg"},{"bike_id":"a413017d-7b39-4212-a545-d797becdc991","system_id":"levelo_inurba_marseille","lat":43.23149,"lon":5.43719,"is_reserved":false,"is_disabled":false,"rental_uris":{"android":"levelo://app?vid=a413017d-7b39-4212-a545-d797becdc991","ios":"levelo://app?vid=a413017d-7b39-4212-a545-d797becdc991"},"vehicle_type_id":"4","last_reported":1726052943,"current_range_meters":16000,"station_id":"ce4bhmp2rcd13ifvqgog","pricing_plan_id":"cebpf4jnsgd1na2vs0mg"},{"bike_id":"c433ea37-ab5c-45fb-ab18-8b2638415723","system_id":"levelo_inurba_marseille","lat":43.31754,"lon":5.39011,"is_reserved":false,"is_disabled":false,"rental_uris":{"android":"levelo://app?vid=c433ea37-ab5c-45fb-ab18-8b2638415723","ios":"levelo://app?vid=c433ea37-ab5c-45fb-ab18-8b2638415723"},"vehicle_type_id":"4","last_reported":1726052943,"current_range_meters":9200,"station_id":"ce4bhqp2rcd13ifvqhng","pricing_plan_id":"cebpf4jnsgd1na2vs0mg"},{"bike_id":"18a05206-de0f-4244-8ff6-d272f0592258","system_id":"levelo_inurba_marseille","lat":43.30895,"lon":5.37202,"is_reserved":false,"is_disabled":false,"rental_uris":{"android":"levelo://app?vid=18a05206-de0f-4244-8ff6-d272f0592258","ios":"levelo://app?vid=18a05206-de0f-4244-8ff6-d272f0592258"},"vehicle_type_id":"4","last_reported":1726052943,"current_range_meters":34000,"station_id":"ce4bguh2rcd13ifvqckg","pricing_plan_id":"cebpf4jnsgd1na2vs0mg"},{"bike_id":"c8e0fcb6-1d3f-4d83-b861-1f56e6b3ab2c","system_id":"levelo_inurba_marseille","lat":43.32291,"lon":5.38267,"is_reserved":false,"is_disabled":false,"rental_uris":{"android":"levelo://app?vid=c8e0fcb6-1d3f-4d83-b861-1f56e6b3ab2c","ios":"levelo://app?vid=c8e0fcb6-1d3f-4d83-b861-1f56e6b3ab2c"},"vehicle_type_id":"4","last_reported":1726052943,"current_range_meters":32000,"station_id":"ce4bhr12rcd13ifvqhqg","pricing_plan_id":"cebpf4jnsgd1na2vs0mg"},{"bike_id":"09126ccf-c12c-42c4-8020-e01b0a2af2b0","system_id":"levelo_inurba_marseille","lat":43.31222,"lon":5.38183,"is_reserved":false,"is_disabled":false,"rental_uris":{"android":"levelo://app?vid=09126ccf-c12c-42c4-8020-e01b0a2af2b0","ios":"levelo://app?vid=09126ccf-c12c-42c4-8020-e01b0a2af2b0"},"vehicle_type_id":"4","last_reported":1726052943,"current_range_meters":37600,"station_id":"","pricing_plan_id":"cebpf4jnsgd1na2vs0mg"},{"bike_id":"8558913c-b4eb-4058-9a1c-baf727ebd823","system_id":"levelo_inurba_marseille","lat":43.28851,"lon":5.39317,"is_reserved":false,"is_disabled":false,"rental_uris":{"android":"levelo://app?vid=8558913c-b4eb-4058-9a1c-baf727ebd823","ios":"levelo://app?vid=8558913c-b4eb-4058-9a1c-baf727ebd823"},"vehicle_type_id":"4","last_reported":1726052943,"current_range_meters":22800,"station_id":"ce4bh2p2rcd13ifvqdi0","pricing_plan_id":"cebpf4jnsgd1na2vs0mg"},{"bike_id":"7c7c72c7-8d5a-4dff-8628-f4aeb59542e2","system_id":"levelo_inurba_marseille","lat":43.3136,"lon":5.36714,"is_reserved":false,"is_disabled":false,"rental_uris":{"android":"levelo://app?vid=7c7c72c7-8d5a-4dff-8628-f4aeb59542e2","ios":"levelo://app?vid=7c7c72c7-8d5a-4dff-8628-f4aeb59542e2"},"vehicle_type_id":"4","last_reported":1726052943,"current_range_meters":12800,"station_id":"ce4bgr92rcd13ifvqc6g","pricing_plan_id":"cebpf4jnsgd1na2vs0mg"},{"bike_id":"394ba6fe-4a64-44af-8ad8-9ff0cdf59d14","system_id":"levelo_inurba_marseille","lat":43.30552,"lon":5.36552,"is_reserved":false,"is_disabled":false,"rental_uris":{"android":"levelo://app?vid=394ba6fe-4a64-44af-8ad8-9ff0cdf59d14","ios":"levelo://app?vid=394ba6fe-4a64-44af-8ad8-9ff0cdf59d14"},"vehicle_type_id":"4","last_reported":1726052943,"current_range_meters":18000,"station_id":"ce4bgs12rcd13ifvqcag","pricing_plan_id":"cebpf4jnsgd1na2vs0mg"},{"bike_id":"8c4e88f9-e24e-447f-91e0-355dd9843e0b","system_id":"levelo_inurba_marseille","lat":43.30148,"lon":5.39842,"is_reserved":false,"is_disabled":false,"rental_uris":{"android":"levelo://app?vid=8c4e88f9-e24e-447f-91e0-355dd9843e0b","ios":"levelo://app?vid=8c4e88f9-e24e-447f-91e0-355dd9843e0b"},"vehicle_type_id":"4","last_reported":1726052943,"current_range_meters":2800,"station_id":"ce4bh0h2rcd13ifvqd40","pricing_plan_id":"cebpf4jnsgd1na2vs0mg"},{"bike_id":"69995ad6-adeb-40a7-a63b-48c49c3d1caf","system_id":"levelo_inurba_marseille","lat":43.28612,"lon":5.35099,"is_reserved":false,"is_disabled":false,"rental_uris":{"android":"levelo://app?vid=69995ad6-adeb-40a7-a63b-48c49c3d1caf","ios":"levelo://app?vid=69995ad6-adeb-40a7-a63b-48c49c3d1caf"},"vehicle_type_id":"4","last_reported":1726052943,"current_range_meters":30000,"station_id":"ce4bhch2rcd13ifvqeug","pricing_plan_id":"cebpf4jnsgd1na2vs0mg"},{"bike_id":"206eb04c-b603-40cb-b369-a8090514b8b3","system_id":"levelo_inurba_marseille","lat":43.28423,"lon":5.34991,"is_reserved":false,"is_disabled":false,"rental_uris":{"android":"levelo://app?vid=206eb04c-b603-40cb-b369-a8090514b8b3","ios":"levelo://app?vid=206eb04c-b603-40cb-b369-a8090514b8b3"},"vehicle_type_id":"4","last_reported":1726052943,"current_range_meters":27200,"station_id":"ce4bhbh2rcd13ifvqepg","pricing_plan_id":"cebpf4jnsgd1na2vs0mg"},{"bike_id":"3df3dd90-42ec-4ada-91cf-9e8a28468f81","system_id":"levelo_inurba_marseille","lat":43.24552,"lon":5.39526,"is_reserved":false,"is_disabled":false,"rental_uris":{"android":"levelo://app?vid=3df3dd90-42ec-4ada-91cf-9e8a28468f81","ios":"levelo://app?vid=3df3dd90-42ec-4ada-91cf-9e8a28468f81"},"vehicle_type_id":"4","last_reported":1726052943,"current_range_meters":12000,"station_id":"ce4bhlp2rcd13ifvqgjg","pricing_plan_id":"cebpf4jnsgd1na2vs0mg"},{"bike_id":"74e737b5-82b3-4055-9407-d70bde56ceed","system_id":"levelo_inurba_marseille","lat":43.30914,"lon":5.36852,"is_reserved":false,"is_disabled":false,"rental_uris":{"android":"levelo://app?vid=74e737b5-82b3-4055-9407-d70bde56ceed","ios":"levelo://app?vid=74e737b5-82b3-4055-9407-d70bde56ceed"},"vehicle_type_id":"4","last_reported":1726052943,"current_range_meters":33600,"station_id":"ce4bgn92rcd13ifvqbvg","pricing_plan_id":"cebpf4jnsgd1na2vs0mg"},{"bike_id":"9610f388-60c6-49bb-84bb-4ea91a1f925b","system_id":"levelo_inurba_marseille","lat":43.29551,"lon":5.42278,"is_reserved":false,"is_disabled":false,"rental_uris":{"android":"levelo://app?vid=9610f388-60c6-49bb-84bb-4ea91a1f925b","ios":"levelo://app?vid=9610f388-60c6-49bb-84bb-4ea91a1f925b"},"vehicle_type_id":"4","last_reported":1726052943,"current_range_meters":5600,"station_id":"ce4bhph2rcd13ifvqhdg","pricing_plan_id":"cebpf4jnsgd1na2vs0mg"},{"bike_id":"12148b07-43a8-4fc7-9e77-fb7e0ae4a331","system_id":"levelo_inurba_marseille","lat":43.26198,"lon":5.37931,"is_reserved":false,"is_disabled":false,"rental_uris":{"android":"levelo://app?vid=12148b07-43a8-4fc7-9e77-fb7e0ae4a331","ios":"levelo://app?vid=12148b07-43a8-4fc7-9e77-fb7e0ae4a331"},"vehicle_type_id":"4","last_reported":1726052943,"current_range_meters":2000,"station_id":"ce4bhjp2rcd13ifvqg90","pricing_plan_id":"cebpf4jnsgd1na2vs0mg"},{"bike_id":"9853c78c-8263-484a-97a8-9a982a387087","system_id":"levelo_inurba_marseille","lat":43.2619,"lon":5.37447,"is_reserved":false,"is_disabled":false,"rental_uris":{"android":"levelo://app?vid=9853c78c-8263-484a-97a8-9a982a387087","ios":"levelo://app?vid=9853c78c-8263-484a-97a8-9a982a387087"},"vehicle_type_id":"4","last_reported":1726052943,"current_range_meters":38000,"station_id":"ce4bhgp2rcd13ifvqfc0","pricing_plan_id":"cebpf4jnsgd1na2vs0mg"},{"bike_id":"8d41e179-de70-4eb3-9294-2adcd2d5b469","system_id":"levelo_inurba_marseille","lat":43.29573,"lon":5.37523,"is_reserved":false,"is_disabled":false,"rental_uris":{"android":"levelo://app?vid=8d41e179-de70-4eb3-9294-2adcd2d5b469","ios":"levelo://app?vid=8d41e179-de70-4eb3-9294-2adcd2d5b469"},"vehicle_type_id":"4","last_reported":1726052943,"current_range_meters":24800,"station_id":"ce4bgh92rcd13ifvqb50","pricing_plan_id":"cebpf4jnsgd1na2vs0mg"},{"bike_id":"bbf237aa-a020-4ef8-b05a-013812fc2674","system_id":"levelo_inurba_marseille","lat":43.29041,"lon":5.4008,"is_reserved":false,"is_disabled":false,"rental_uris":{"android":"levelo://app?vid=bbf237aa-a020-4ef8-b05a-013812fc2674","ios":"levelo://app?vid=bbf237aa-a020-4ef8-b05a-013812fc2674"},"vehicle_type_id":"4","last_reported":1726052943,"current_range_meters":38400,"station_id":"ce4bh392rcd13ifvqdm0","pricing_plan_id":"cebpf4jnsgd1na2vs0mg"},{"bike_id":"d8a0a411-a13d-4063-947b-b184be3e4fd4","system_id":"levelo_inurba_marseille","lat":43.28154,"lon":5.42647,"is_reserved":false,"is_disabled":false,"rental_uris":{"android":"levelo://app?vid=d8a0a411-a13d-4063-947b-b184be3e4fd4","ios":"levelo://app?vid=d8a0a411-a13d-4063-947b-b184be3e4fd4"},"vehicle_type_id":"4","last_reported":1726052943,"current_range_meters":4000,"station_id":"ce4bhnh2rcd13ifvqgug","pricing_plan_id":"cebpf4jnsgd1na2vs0mg"},{"bike_id":"900fa113-ea52-4b4f-abe8-6a0a39946038","system_id":"levelo_inurba_marseille","lat":43.29859,"lon":5.3628,"is_reserved":false,"is_disabled":false,"rental_uris":{"android":"levelo://app?vid=900fa113-ea52-4b4f-abe8-6a0a39946038","ios":"levelo://app?vid=900fa113-ea52-4b4f-abe8-6a0a39946038"},"vehicle_type_id":"4","last_reported":1726052943,"current_range_meters":25600,"station_id":"ce4bgpp2rcd13ifvqc3g","pricing_plan_id":"cebpf4jnsgd1na2vs0mg"},{"bike_id":"c57cb970-e9c5-42a6-b34d-b4298646ce6b","system_id":"levelo_inurba_marseille","lat":43.31114,"lon":5.37761,"is_reserved":false,"is_disabled":false,"rental_uris":{"android":"levelo://app?vid=c57cb970-e9c5-42a6-b34d-b4298646ce6b","ios":"levelo://app?vid=c57cb970-e9c5-42a6-b34d-b4298646ce6b"},"vehicle_type_id":"4","last_reported":1726052943,"current_range_meters":24000,"station_id":"ce4bgt92rcd13ifvqcg0","pricing_plan_id":"cebpf4jnsgd1na2vs0mg"},{"bike_id":"1342df15-a06f-4e9a-81ae-3586a6ec6603","system_id":"levelo_inurba_marseille","lat":43.27813,"lon":5.40715,"is_reserved":false,"is_disabled":false,"rental_uris":{"android":"levelo://app?vid=1342df15-a06f-4e9a-81ae-3586a6ec6603","ios":"levelo://app?vid=1342df15-a06f-4e9a-81ae-3586a6ec6603"},"vehicle_type_id":"4","last_reported":1726052943,"current_range_meters":20000,"station_id":"ce4bhnh2rcd13ifvqgtg","pricing_plan_id":"cebpf4jnsgd1na2vs0mg"},{"bike_id":"f3de1436-ea70-46f2-8b4f-f87ec1dcf845","system_id":"levelo_inurba_marseille","lat":43.26557,"lon":5.37284,"is_reserved":false,"is_disabled":false,"rental_uris":{"android":"levelo://app?vid=f3de1436-ea70-46f2-8b4f-f87ec1dcf845","ios":"levelo://app?vid=f3de1436-ea70-46f2-8b4f-f87ec1dcf845"},"vehicle_type_id":"4","last_reported":1726052943,"current_range_meters":29600,"station_id":"ce4bhg12rcd13ifvqf70","pricing_plan_id":"cebpf4jnsgd1na2vs0mg"},{"bike_id":"4cb3f6a4-d878-42a2-8c6f-53aacf3eda67","system_id":"levelo_inurba_marseille","lat":43.30549,"lon":5.36544,"is_reserved":false,"is_disabled":false,"rental_uris":{"android":"levelo://app?vid=4cb3f6a4-d878-42a2-8c6f-53aacf3eda67","ios":"levelo://app?vid=4cb3f6a4-d878-42a2-8c6f-53aacf3eda67"},"vehicle_type_id":"4","last_reported":1726052943,"current_range_meters":30800,"station_id":"ce4bgs12rcd13ifvqcag","pricing_plan_id":"cebpf4jnsgd1na2vs0mg"},{"bike_id":"925f024c-5558-4f13-a811-01b927d9e78e","system_id":"levelo_inurba_marseille","lat":43.231506,"lon":5.437116,"is_reserved":false,"is_disabled":false,"rental_uris":{"android":"levelo://app?vid=925f024c-5558-4f13-a811-01b927d9e78e","ios":"levelo://app?vid=925f024c-5558-4f13-a811-01b927d9e78e"},"vehicle_type_id":"4","last_reported":1726052943,"current_range_meters":30800,"station_id":"ce4bhmp2rcd13ifvqgog","pricing_plan_id":"cebpf4jnsgd1na2vs0mg"},{"bike_id":"f400d370-a20e-4ced-86f0-64f62510749c","system_id":"levelo_inurba_marseille","lat":43.3237,"lon":5.38926,"is_reserved":false,"is_disabled":false,"rental_uris":{"android":"levelo://app?vid=f400d370-a20e-4ced-86f0-64f62510749c","ios":"levelo://app?vid=f400d370-a20e-4ced-86f0-64f62510749c"},"vehicle_type_id":"4","last_reported":1726052943,"current_range_meters":14400,"station_id":"","pricing_plan_id":"cebpf4jnsgd1na2vs0mg"},{"bike_id":"46c2e8e3-43c6-4485-a654-d64eb166b181","system_id":"levelo_inurba_marseille","lat":43.28687,"lon":5.38665,"is_reserved":false,"is_disabled":false,"rental_uris":{"android":"levelo://app?vid=46c2e8e3-43c6-4485-a654-d64eb166b181","ios":"levelo://app?vid=46c2e8e3-43c6-4485-a654-d64eb166b181"},"vehicle_type_id":"4","last_reported":1726052943,"current_range_meters":29600,"station_id":"ce4bh492rcd13ifvqdug","pricing_plan_id":"cebpf4jnsgd1na2vs0mg"},{"bike_id":"dabf3a67-31e5-42fb-9902-fbfb4071ccd3","system_id":"levelo_inurba_marseille","lat":43.31996,"lon":5.38157,"is_reserved":false,"is_disabled":false,"rental_uris":{"android":"levelo://app?vid=dabf3a67-31e5-42fb-9902-fbfb4071ccd3","ios":"levelo://app?vid=dabf3a67-31e5-42fb-9902-fbfb4071ccd3"},"vehicle_type_id":"4","last_reported":1726052943,"current_range_meters":32000,"station_id":"ce4bhr12rcd13ifvqhpg","pricing_plan_id":"cebpf4jnsgd1na2vs0mg"},{"bike_id":"2b36d7c6-1321-402c-981a-6c4a268592b1","system_id":"levelo_inurba_marseille","lat":43.26579,"lon":5.39006,"is_reserved":false,"is_disabled":false,"rental_uris":{"android":"levelo://app?vid=2b36d7c6-1321-402c-981a-6c4a268592b1","ios":"levelo://app?vid=2b36d7c6-1321-402c-981a-6c4a268592b1"},"vehicle_type_id":"4","last_reported":1726052943,"current_range_meters":24800,"station_id":"ce4bhe12rcd13ifvqf30","pricing_plan_id":"cebpf4jnsgd1na2vs0mg"},{"bike_id":"143049cf-4830-4219-a121-2a60df83aa5d","system_id":"levelo_inurba_marseille","lat":43.337444,"lon":5.374475,"is_reserved":false,"is_disabled":false,"rental_uris":{"android":"levelo://app?vid=143049cf-4830-4219-a121-2a60df83aa5d","ios":"levelo://app?vid=143049cf-4830-4219-a121-2a60df83aa5d"},"vehicle_type_id":"4","last_reported":1726052943,"current_range_meters":37600,"station_id":"","pricing_plan_id":"cebpf4jnsgd1na2vs0mg"},{"bike_id":"041e23a1-221c-49f5-b718-505051e41fce","system_id":"levelo_inurba_marseille","lat":43.296391,"lon":5.371562,"is_reserved":false,"is_disabled":false,"rental_uris":{"android":"levelo://app?vid=041e23a1-221c-49f5-b718-505051e41fce","ios":"levelo://app?vid=041e23a1-221c-49f5-b718-505051e41fce"},"vehicle_type_id":"4","last_reported":1726052943,"current_range_meters":34800,"station_id":"ce4bgnh2rcd13ifvqc0g","pricing_plan_id":"cebpf4jnsgd1na2vs0mg"},{"bike_id":"77ab63c0-7f97-4567-887f-141128392125","system_id":"levelo_inurba_marseille","lat":43.32483,"lon":5.36556,"is_reserved":false,"is_disabled":false,"rental_uris":{"android":"levelo://app?vid=77ab63c0-7f97-4567-887f-141128392125","ios":"levelo://app?vid=77ab63c0-7f97-4567-887f-141128392125"},"vehicle_type_id":"4","last_reported":1726052943,"current_range_meters":23200,"station_id":"ce4bhs12rcd13ifvqhvg","pricing_plan_id":"cebpf4jnsgd1na2vs0mg"},{"bike_id":"a75c5a6c-903f-44dc-b3f8-05808c2146d7","system_id":"levelo_inurba_marseille","lat":43.27199,"lon":5.39182,"is_reserved":false,"is_disabled":false,"rental_uris":{"android":"levelo://app?vid=a75c5a6c-903f-44dc-b3f8-05808c2146d7","ios":"levelo://app?vid=a75c5a6c-903f-44dc-b3f8-05808c2146d7"},"vehicle_type_id":"4","last_reported":1726052943,"current_range_meters":34000,"station_id":"ce4bhhp2rcd13ifvqfm0","pricing_plan_id":"cebpf4jnsgd1na2vs0mg"},{"bike_id":"e5ed0075-14c4-4d1d-a9af-a1ffecf526a7","system_id":"levelo_inurba_marseille","lat":43.29845,"lon":5.36259,"is_reserved":false,"is_disabled":false,"rental_uris":{"android":"levelo://app?vid=e5ed0075-14c4-4d1d-a9af-a1ffecf526a7","ios":"levelo://app?vid=e5ed0075-14c4-4d1d-a9af-a1ffecf526a7"},"vehicle_type_id":"4","last_reported":1726052943,"current_range_meters":36400,"station_id":"ce4bgpp2rcd13ifvqc3g","pricing_plan_id":"cebpf4jnsgd1na2vs0mg"},{"bike_id":"6c58477d-347b-4063-98a9-f1a2b7184ce1","system_id":"levelo_inurba_marseille","lat":43.25864,"lon":5.39901,"is_reserved":false,"is_disabled":false,"rental_uris":{"android":"levelo://app?vid=6c58477d-347b-4063-98a9-f1a2b7184ce1","ios":"levelo://app?vid=6c58477d-347b-4063-98a9-f1a2b7184ce1"},"vehicle_type_id":"4","last_reported":1726052943,"current_range_meters":6800,"station_id":"ce4bhl92rcd13ifvqghg","pricing_plan_id":"cebpf4jnsgd1na2vs0mg"},{"bike_id":"86a93c5f-4ce0-4112-bb67-afd493faa7b4","system_id":"levelo_inurba_marseille","lat":43.30768,"lon":5.43538,"is_reserved":false,"is_disabled":false,"rental_uris":{"android":"levelo://app?vid=86a93c5f-4ce0-4112-bb67-afd493faa7b4","ios":"levelo://app?vid=86a93c5f-4ce0-4112-bb67-afd493faa7b4"},"vehicle_type_id":"4","last_reported":1726052943,"current_range_meters":27600,"station_id":"","pricing_plan_id":"cebpf4jnsgd1na2vs0mg"},{"bike_id":"a8f77777-2132-4a78-ab10-2b911eb9a6dd","system_id":"levelo_inurba_marseille","lat":43.29535,"lon":5.38546,"is_reserved":false,"is_disabled":false,"rental_uris":{"android":"levelo://app?vid=a8f77777-2132-4a78-ab10-2b911eb9a6dd","ios":"levelo://app?vid=a8f77777-2132-4a78-ab10-2b911eb9a6dd"},"vehicle_type_id":"4","last_reported":1726052943,"current_range_meters":19200,"station_id":"ce4bgih2rcd13ifvqba0","pricing_plan_id":"cebpf4jnsgd1na2vs0mg"},{"bike_id":"fa137d2d-ebde-483c-8d8c-7cf19a6d299c","system_id":"levelo_inurba_marseille","lat":43.33766,"lon":5.3743,"is_reserved":false,"is_disabled":false,"rental_uris":{"android":"levelo://app?vid=fa137d2d-ebde-483c-8d8c-7cf19a6d299c","ios":"levelo://app?vid=fa137d2d-ebde-483c-8d8c-7cf19a6d299c"},"vehicle_type_id":"4","last_reported":1726052943,"current_range_meters":33600,"station_id":"","pricing_plan_id":"cebpf4jnsgd1na2vs0mg"},{"bike_id":"384b2624-bae9-482c-b469-163bc6f04629","system_id":"levelo_inurba_marseille","lat":43.27175,"lon":5.40995,"is_reserved":false,"is_disabled":false,"rental_uris":{"android":"levelo://app?vid=384b2624-bae9-482c-b469-163bc6f04629","ios":"levelo://app?vid=384b2624-bae9-482c-b469-163bc6f04629"},"vehicle_type_id":"4","last_reported":1726052943,"current_range_meters":14800,"station_id":"ce4bhl12rcd13ifvqgf0","pricing_plan_id":"cebpf4jnsgd1na2vs0mg"},{"bike_id":"cec131b6-6c84-4899-9723-159f4b060af5","system_id":"levelo_inurba_marseille","lat":43.31714,"lon":5.37717,"is_reserved":false,"is_disabled":false,"rental_uris":{"android":"levelo://app?vid=cec131b6-6c84-4899-9723-159f4b060af5","ios":"levelo://app?vid=cec131b6-6c84-4899-9723-159f4b060af5"},"vehicle_type_id":"4","last_reported":1726052943,"current_range_meters":8000,"station_id":"ce4bgth2rcd13ifvqch0","pricing_plan_id":"cebpf4jnsgd1na2vs0mg"},{"bike_id":"95a68f13-367d-42d4-bd3f-1ddfcca31852","system_id":"levelo_inurba_marseille","lat":43.23174,"lon":5.3998,"is_reserved":false,"is_disabled":false,"rental_uris":{"android":"levelo://app?vid=95a68f13-367d-42d4-bd3f-1ddfcca31852","ios":"levelo://app?vid=95a68f13-367d-42d4-bd3f-1ddfcca31852"},"vehicle_type_id":"4","last_reported":1726052943,"current_range_meters":17200,"station_id":"ce4bhn12rcd13ifvqgqg","pricing_plan_id":"cebpf4jnsgd1na2vs0mg"},{"bike_id":"5a967a87-3b00-4d72-987d-bd0c73548af4","system_id":"levelo_inurba_marseille","lat":43.27313,"lon":5.39072,"is_reserved":false,"is_disabled":false,"rental_uris":{"android":"levelo://app?vid=5a967a87-3b00-4d72-987d-bd0c73548af4","ios":"levelo://app?vid=5a967a87-3b00-4d72-987d-bd0c73548af4"},"vehicle_type_id":"4","last_reported":1726052943,"current_range_meters":34800,"station_id":"ce4bhi12rcd13ifvqfo0","pricing_plan_id":"cebpf4jnsgd1na2vs0mg"},{"bike_id":"18800dd3-46ee-4396-9b12-0c867239eb18","system_id":"levelo_inurba_marseille","lat":43.29276,"lon":5.36841,"is_reserved":false,"is_disabled":false,"rental_uris":{"android":"levelo://app?vid=18800dd3-46ee-4396-9b12-0c867239eb18","ios":"levelo://app?vid=18800dd3-46ee-4396-9b12-0c867239eb18"},"vehicle_type_id":"4","last_reported":1726052943,"current_range_meters":10000,"station_id":"ce4bhbp2rcd13ifvqesg","pricing_plan_id":"cebpf4jnsgd1na2vs0mg"},{"bike_id":"72ad534e-3f6f-4698-b1c6-5a9b4084d0f7","system_id":"levelo_inurba_marseille","lat":43.29558,"lon":5.42281,"is_reserved":false,"is_disabled":false,"rental_uris":{"android":"levelo://app?vid=72ad534e-3f6f-4698-b1c6-5a9b4084d0f7","ios":"levelo://app?vid=72ad534e-3f6f-4698-b1c6-5a9b4084d0f7"},"vehicle_type_id":"4","last_reported":1726052943,"current_range_meters":4000,"station_id":"ce4bhph2rcd13ifvqhdg","pricing_plan_id":"cebpf4jnsgd1na2vs0mg"},{"bike_id":"61cf4a3a-2942-44a8-a346-1fbbdf1a4d5c","system_id":"levelo_inurba_marseille","lat":43.23156,"lon":5.43703,"is_reserved":false,"is_disabled":false,"rental_uris":{"android":"levelo://app?vid=61cf4a3a-2942-44a8-a346-1fbbdf1a4d5c","ios":"levelo://app?vid=61cf4a3a-2942-44a8-a346-1fbbdf1a4d5c"},"vehicle_type_id":"4","last_reported":1726052943,"current_range_meters":12800,"station_id":"ce4bhmp2rcd13ifvqgog","pricing_plan_id":"cebpf4jnsgd1na2vs0mg"},{"bike_id":"ac27a66c-2ef2-4a23-a473-04f117918125","system_id":"levelo_inurba_marseille","lat":43.313904,"lon":5.379755,"is_reserved":false,"is_disabled":false,"rental_uris":{"android":"levelo://app?vid=ac27a66c-2ef2-4a23-a473-04f117918125","ios":"levelo://app?vid=ac27a66c-2ef2-4a23-a473-04f117918125"},"vehicle_type_id":"4","last_reported":1726052943,"current_range_meters":10800,"station_id":"ce4bhsp2rcd13ifvqi50","pricing_plan_id":"cebpf4jnsgd1na2vs0mg"},{"bike_id":"e33cad1e-30cf-4273-a896-a23e1a614a1a","system_id":"levelo_inurba_marseille","lat":43.30543,"lon":5.36547,"is_reserved":false,"is_disabled":false,"rental_uris":{"android":"levelo://app?vid=e33cad1e-30cf-4273-a896-a23e1a614a1a","ios":"levelo://app?vid=e33cad1e-30cf-4273-a896-a23e1a614a1a"},"vehicle_type_id":"4","last_reported":1726052943,"current_range_meters":16000,"station_id":"ce4bgs12rcd13ifvqcag","pricing_plan_id":"cebpf4jnsgd1na2vs0mg"},{"bike_id":"e104c58d-6965-4dec-91a3-6d98cb1b56dd","system_id":"levelo_inurba_marseille","lat":43.28687,"lon":5.38663,"is_reserved":false,"is_disabled":false,"rental_uris":{"android":"levelo://app?vid=e104c58d-6965-4dec-91a3-6d98cb1b56dd","ios":"levelo://app?vid=e104c58d-6965-4dec-91a3-6d98cb1b56dd"},"vehicle_type_id":"4","last_reported":1726052943,"current_range_meters":38000,"station_id":"ce4bh492rcd13ifvqdug","pricing_plan_id":"cebpf4jnsgd1na2vs0mg"},{"bike_id":"38a69614-fc80-4fe6-9020-2aa2f561d214","system_id":"levelo_inurba_marseille","lat":43.2668,"lon":5.38264,"is_reserved":false,"is_disabled":false,"rental_uris":{"android":"levelo://app?vid=38a69614-fc80-4fe6-9020-2aa2f561d214","ios":"levelo://app?vid=38a69614-fc80-4fe6-9020-2aa2f561d214"},"vehicle_type_id":"4","last_reported":1726052943,"current_range_meters":40000,"station_id":"ce4bhg92rcd13ifvqf90","pricing_plan_id":"cebpf4jnsgd1na2vs0mg"},{"bike_id":"8c9d7f90-264f-4e65-87ad-c90ca40d8de5","system_id":"levelo_inurba_marseille","lat":43.27907,"lon":5.3801,"is_reserved":false,"is_disabled":false,"rental_uris":{"android":"levelo://app?vid=8c9d7f90-264f-4e65-87ad-c90ca40d8de5","ios":"levelo://app?vid=8c9d7f90-264f-4e65-87ad-c90ca40d8de5"},"vehicle_type_id":"4","last_reported":1726052943,"current_range_meters":33600,"station_id":"ce4bhf92rcd13ifvqf50","pricing_plan_id":"cebpf4jnsgd1na2vs0mg"},