{"last_updated":1737976075,"ttl":60,"version":"2.2","data":{"bikes":[{"bike_id":"ace48091-f9aa-45ba-9ab5-1e921969b09e","system_id":"levelo_inurba_marseille","lat":43.2961,"lon":5.37716,"is_reserved":false,"is_disabled":false,"rental_uris":{"android":"levelo://app?vid=ace48091-f9aa-45ba-9ab5-1e921969b09e","ios":"levelo://app?vid=ace48091-f9aa-45ba-9ab5-1e921969b09e"},"vehicle_type_id":"4","last_reported":1737976075,"current_range_meters":35600,"station_id":"ce4bgi92rcd13ifvqb90","pricing_plan_id":"cebpf4jnsgd1na2vs0mg"},{"bike_id":"cb675d55-e5c8-4982-aca6-2a4540f10435","system_id":"levelo_inurba_marseille","lat":43.29845,"lon":5.36289,"is_reserved":false,"is_disabled":false,"rental_uris":{"android":"levelo://app?vid=cb675d55-e5c8-4982-aca6-2a4540f10435","ios":"levelo://app?vid=cb675d55-e5c8-4982-aca6-2a4540f10435"},"vehicle_type_id":"4","last_reported":1737976075,"current_range_meters":14000,"station_id":"ce4bgpp2rcd13ifvqc3g","pricing_plan_id":"cebpf4jnsgd1na2vs0mg"},{"bike_id":"e37edec3-8ffb-414b-9453-c5c1be1efbbb","system_id":"levelo_inurba_marseille","lat":43.29163,"lon":5.37156,"is_reserved":false,"is_disabled":false,"rental_uris":{"android":"levelo://app?vid=e37edec3-8ffb-414b-9453-c5c1be1efbbb","ios":"levelo://app?vid=e37edec3-8ffb-414b-9453-c5c1be1efbbb"},"vehicle_type_id":"4","last_reported":1737976075,"current_range_meters":37600,"station_id":"ce4bha92rcd13ifvqeh0","pricing_plan_id":"cebpf4jnsgd1na2vs0mg"},{"bike_id":"22fdda07-29f7-4097-aa7c-457566d3caba","system_id":"levelo_inurba_marseille","lat":43.25102,"lon":5.3951,"is_reserved":false,"is_disabled":false,"rental_uris":{"android":"levelo://app?vid=22fdda07-29f7-4097-aa7c-457566d3caba","ios":"levelo://app?vid=22fdda07-29f7-4097-aa7c-457566d3caba"},"vehicle_type_id":"4","last_reported":1737976075,"current_range_meters":22400,"station_id":"ce4bhm12rcd13ifvqgkg","pricing_plan_id":"cebpf4jnsgd1na2vs0mg"},{"bike_id":"f9ea3b7d-3e08-41ce-9f28-17237eb201ee","system_id":"levelo_inurba_marseille","lat":43.27497,"lon":5.42468,"is_reserved":false,"is_disabled":true,"rental_uris":{"android":"levelo://app?vid=f9ea3b7d-3e08-41ce-9f28-17237eb201ee","ios":"levelo://app?vid=f9ea3b7d-3e08-41ce-9f28-17237eb201ee"},"vehicle_type_id":"4","last_reported":1737976075,"current_range_meters":0,"station_id":"ce4bhn92rcd13ifvqgrg","pricing_plan_id":"cebpf4jnsgd1na2vs0mg"},{"bike_id":"d999704f-e81a-492f-bc4f-4f7e2ff7e922","system_id":"levelo_inurba_marseille","lat":43.25724,"lon":5.411,"is_reserved":false,"is_disabled":true,"rental_uris":{"android":"levelo://app?vid=d999704f-e81a-492f-bc4f-4f7e2ff7e922","ios":"levelo://app?vid=d999704f-e81a-492f-bc4f-4f7e2ff7e922"},"vehicle_type_id":"4","last_reported":1737976075,"current_range_meters":0,"station_id":"ce4bhkp2rcd13ifvqgd0","pricing_plan_id":"cebpf4jnsgd1na2vs0mg"},{"bike_id":"58d9e3df-28a3-4560-b2cd-4d33fefbd544","system_id":"levelo_inurba_marseille","lat":43.28363,"lon":5.38106,"is_reserved":false,"is_disabled":true,"rental_uris":{"android":"levelo://app?vid=58d9e3df-28a3-4560-b2cd-4d33fefbd544","ios":"levelo://app?vid=58d9e3df-28a3-4560-b2cd-4d33fefbd544"},"vehicle_type_id":"4","last_reported":1737976075,"current_range_meters":12000,"station_id":"ce4bh412rcd13ifvqdr0","pricing_plan_id":"cebpf4jnsgd1na2vs0mg"},{"bike_id":"5ccff8f5-a6d3-41d2-b523-50a98221b0f7","system_id":"levelo_inurba_marseille","lat":43.3137,"lon":5.36713,"is_reserved":false,"is_disabled":false,"rental_uris":{"android":"levelo://app?vid=5ccff8f5-a6d3-41d2-b523-50a98221b0f7","ios":"levelo://app?vid=5ccff8f5-a6d3-41d2-b523-50a98221b0f7"},"vehicle_type_id":"4","last_reported":1737976075,"current_range_meters":9600,"station_id":"ce4bgr92rcd13ifvqc6g","pricing_plan_id":"cebpf4jnsgd1na2vs0mg"},{"bike_id":"01518589-15fd-4773-8c87-75fd80eccb82","system_id":"levelo_inurba_marseille","lat":43.27215,"lon":5.39189,"is_reserved":false,"is_disabled":false,"rental_uris":{"android":"levelo://app?vid=01518589-15fd-4773-8c87-75fd80eccb82","ios":"levelo://app?vid=01518589-15fd-4773-8c87-75fd80eccb82"},"vehicle_type_id":"4","last_reported":1737976075,"current_range_meters":38800,"station_id":"ce4bhhp2rcd13ifvqfm0","pricing_plan_id":"cebpf4jnsgd1na2vs0mg"},{"bike_id":"8621f356-e06f-497e-bbed-9f329c00dfb0","system_id":"levelo_inurba_marseille","lat":43.27178,"lon":5.40997,"is_reserved":false,"is_disabled":false,"rental_uris":{"android":"levelo://app?vid=8621f356-e06f-497e-bbed-9f329c00dfb0","ios":"levelo://app?vid=8621f356-e06f-497e-bbed-9f329c00dfb0"},"vehicle_type_id":"4","last_reported":1737976075,"current_range_meters":28000,"station_id":"ce4bhl12rcd13ifvqgf0","pricing_plan_id":"cebpf4jnsgd1na2vs0mg"},{"bike_id":"011424fc-28f4-4f86-a41c-b0bfd267d6ab","system_id":"levelo_inurba_marseille","lat":43.2607,"lon":5.39387,"is_reserved":false,"is_disabled":false,"rental_uris":{"android":"levelo://app?vid=011424fc-28f4-4f86-a41c-b0bfd267d6ab","ios":"levelo://app?vid=011424fc-28f4-4f86-a41c-b0bfd267d6ab"},"vehicle_type_id":"4","last_reported":1737976075,"current_range_meters":38000,"station_id":"ce4bhh92rcd13ifvqfj0","pricing_plan_id":"cebpf4jnsgd1na2vs0mg"},{"bike_id":"d6755dc8-d9a9-49dc-8a8f-22ec6b86e111","system_id":"levelo_inurba_marseille","lat":43.28136,"lon":5.42624,"is_reserved":false,"is_disabled":false,"rental_uris":{"android":"levelo://app?vid=d6755dc8-d9a9-49dc-8a8f-22ec6b86e111","ios":"levelo://app?vid=d6755dc8-d9a9-49dc-8a8f-22ec6b86e111"},"vehicle_type_id":"4","last_reported":1737976075,"current_range_meters":30000,"station_id":"ce4bhnh2rcd13ifvqgug","pricing_plan_id":"cebpf4jnsgd1na2vs0mg"},{"bike_id":"22fe6381-bfa8-481c-9415-4e6666169356","system_id":"levelo_inurba_marseille","lat":43.26567,"lon":5.39047,"is_reserved":false,"is_disabled":false,"rental_uris":{"android":"levelo://app?vid=22fe6381-bfa8-481c-9415-4e6666169356","ios":"levelo://app?vid=22fe6381-bfa8-481c-9415-4e6666169356"},"vehicle_type_id":"4","last_reported":1737976075,"current_range_meters":27200,"station_id":"ce4bhe12rcd13ifvqf30","pricing_plan_id":"cebpf4jnsgd1na2vs0mg"},{"bike_id":"caf94d3f-80d7-4323-aaf3-27f6c861755b","system_id":"levelo_inurba_marseille","lat":43.26565,"lon":5.39002,"is_reserved":false,"is_disabled":false,"rental_uris":{"android":"levelo://app?vid=caf94d3f-80d7-4323-aaf3-27f6c861755b","ios":"levelo://app?vid=caf94d3f-80d7-4323-aaf3-27f6c861755b"},"vehicle_type_id":"4","last_reported":1737976075,"current_range_meters":38800,"station_id":"ce4bhe12rcd13ifvqf30","pricing_plan_id":"cebpf4jnsgd1na2vs0mg"},{"bike_id":"90cc3ddf-83e9-4f36-b3ac-3eaa190119e5","system_id":"levelo_inurba_marseille","lat":43.2848,"lon":5.3855,"is_reserved":false,"is_disabled":false,"rental_uris":{"android":"levelo://app?vid=90cc3ddf-83e9-4f36-b3ac-3eaa190119e5","ios":"levelo://app?vid=90cc3ddf-83e9-4f36-b3ac-3eaa190119e5"},"vehicle_type_id":"4","last_reported":1737976075,"current_range_meters":35200,"station_id":"ce4bh8p2rcd13ifvqeb0","pricing_plan_id":"cebpf4jnsgd1na2vs0mg"},{"bike_id":"c96545e6-b3fa-4a6b-836e-d89ea478e5d1","system_id":"levelo_inurba_marseille","lat":43.25032,"lon":5.38935,"is_reserved":false,"is_disabled":false,"rental_uris":{"android":"levelo://app?vid=c96545e6-b3fa-4a6b-836e-d89ea478e5d1","ios":"levelo://app?vid=c96545e6-b3fa-4a6b-836e-d89ea478e5d1"},"vehicle_type_id":"4","last_reported":1737976075,"current_range_meters":38800,"station_id":"ce4bhgp2rcd13ifvqfd0","pricing_plan_id":"cebpf4jnsgd1na2vs0mg"},{"bike_id":"d77db00f-908b-4381-ac06-dc3e91b69008","system_id":"levelo_inurba_marseille","lat":43.25583,"lon":5.38273,"is_reserved":false,"is_disabled":false,"rental_uris":{"android":"levelo://app?vid=d77db00f-908b-4381-ac06-dc3e91b69008","ios":"levelo://app?vid=d77db00f-908b-4381-ac06-dc3e91b69008"},"vehicle_type_id":"4","last_reported":1737976075,"current_range_meters":36800,"station_id":"ce4bhih2rcd13ifvqfs0","pricing_plan_id":"cebpf4jnsgd1na2vs0mg"},{"bike_id":"cfff1edf-189f-4cb0-80dd-22014a7dc63a","system_id":"levelo_inurba_marseille","lat":43.24812,"lon":5.37459,"is_reserved":false,"is_disabled":false,"rental_uris":{"android":"levelo://app?vid=cfff1edf-189f-4cb0-80dd-22014a7dc63a","ios":"levelo://app?vid=cfff1edf-189f-4cb0-80dd-22014a7dc63a"},"vehicle_type_id":"4","last_reported":1737976075,"current_range_meters":27600,"station_id":"ce4bhgh2rcd13ifvqfb0","pricing_plan_id":"cebpf4jnsgd1na2vs0mg"},{"bike_id":"6200155d-0395-4f0a-b649-a19ee16f638d","system_id":"levelo_inurba_marseille","lat":43.28486,"lon":5.38577,"is_reserved":false,"is_disabled":false,"rental_uris":{"android":"levelo://app?vid=6200155d-0395-4f0a-b649-a19ee16f638d","ios":"levelo://app?vid=6200155d-0395-4f0a-b649-a19ee16f638d"},"vehicle_type_id":"4","last_reported":1737976075,"current_range_meters":18000,"station_id":"ce4bh8p2rcd13ifvqeb0","pricing_plan_id":"cebpf4jnsgd1na2vs0mg"},{"bike_id":"5a6503ca-c2c6-4dbe-a6f7-68e5f1916ac2","system_id":"levelo_inurba_marseille","lat":43.29895,"lon":5.43677,"is_reserved":false,"is_disabled":false,"rental_uris":{"android":"levelo://app?vid=5a6503ca-c2c6-4dbe-a6f7-68e5f1916ac2","ios":"levelo://app?vid=5a6503ca-c2c6-4dbe-a6f7-68e5f1916ac2"},"vehicle_type_id":"4","last_reported":1737976075,"current_range_meters":10800,"station_id":"ce4bhpp2rcd13ifvqhfg","pricing_plan_id":"cebpf4jnsgd1na2vs0mg"},{"bike_id":"426cbb7a-3f56-4ed5-8adb-ec3dfdeed3c2","system_id":"levelo_inurba_marseille","lat":43.28552,"lon":5.39516,"is_reserved":false,"is_disabled":false,"rental_uris":{"android":"levelo://app?vid=426cbb7a-3f56-4ed5-8adb-ec3dfdeed3c2","ios":"levelo://app?vid=426cbb7a-3f56-4ed5-8adb-ec3dfdeed3c2"},"vehicle_type_id":"4","last_reported":1737976075,"current_range_meters":38000,"station_id":"ce4bh292rcd13ifvqdg0","pricing_plan_id":"cebpf4jnsgd1na2vs0mg"},{"bike_id":"c7bcfc70-2cf1-4e09-b388-d62f9e2b7da7","system_id":"levelo_inurba_marseille","lat":43.29284,"lon":5.36856,"is_reserved":false,"is_disabled":false,"rental_uris":{"android":"levelo://app?vid=c7bcfc70-2cf1-4e09-b388-d62f9e2b7da7","ios":"levelo://app?vid=c7bcfc70-2cf1-4e09-b388-d62f9e2b7da7"},"vehicle_type_id":"4","last_reported":1737976075,"current_range_meters":36400,"station_id":"ce4bhbp2rcd13ifvqesg","pricing_plan_id":"cebpf4jnsgd1na2vs0mg"},{"bike_id":"9f0a71d6-8ab3-444c-a85d-c0871324624f","system_id":"levelo_inurba_marseille","lat":43.31079,"lon":5.38362,"is_reserved":false,"is_disabled":false,"rental_uris":{"android":"levelo://app?vid=9f0a71d6-8ab3-444c-a85d-c0871324624f","ios":"levelo://app?vid=9f0a71d6-8ab3-444c-a85d-c0871324624f"},"vehicle_type_id":"4","last_reported":1737976075,"current_range_meters":34000,"station_id":"ce4bgv92rcd13ifvqcr0","pricing_plan_id":"cebpf4jnsgd1na2vs0mg"},{"bike_id":"28eec19e-683c-4132-9365-bcac345d1499","system_id":"levelo_inurba_marseille","lat":43.23967,"lon":5.36631,"is_reserved":false,"is_disabled":false,"rental_uris":{"android":"levelo://app?vid=28eec19e-683c-4132-9365-bcac345d1499","ios":"levelo://app?vid=28eec19e-683c-4132-9365-bcac345d1499"},"vehicle_type_id":"4","last_reported":1737976075,"current_range_meters":38800,"station_id":"ce4bhi12rcd13ifvqfp0","pricing_plan_id":"cebpf4jnsgd1na2vs0mg"},{"bike_id":"a7dfd304-7524-4f42-b260-bd9cb2446f27","system_id":"levelo_inurba_marseille","lat":43.28036,"lon":5.36957,"is_reserved":false,"is_disabled":false,"rental_uris":{"android":"levelo://app?vid=a7dfd304-7524-4f42-b260-bd9cb2446f27","ios":"levelo://app?vid=a7dfd304-7524-4f42-b260-bd9cb2446f27"},"vehicle_type_id":"4","last_reported":1737976075,"current_range_meters":39200,"station_id":"ce4bha12rcd13ifvqef0","pricing_plan_id":"cebpf4jnsgd1na2vs0mg"},{"bike_id":"914240c6-b9b2-4ee0-a647-c82d7e459618","system_id":"levelo_inurba_marseille","lat":43.24074,"lon":5.37763,"is_reserved":false,"is_disabled":false,"rental_uris":{"android":"levelo://app?vid=914240c6-b9b2-4ee0-a647-c82d7e459618","ios":"levelo://app?vid=914240c6-b9b2-4ee0-a647-c82d7e459618"},"vehicle_type_id":"4","last_reported":1737976075,"current_range_meters":12400,"station_id":"ce4bhnp2rcd13ifvqgvg","pricing_plan_id":"cebpf4jnsgd1na2vs0mg"},{"bike_id":"1d77d048-ce0a-4186-b9ae-e7e345be0222","system_id":"levelo_inurba_marseille","lat":43.30966,"lon":5.39052,"is_reserved":false,"is_disabled":false,"rental_uris":{"android":"levelo://app?vid=1d77d048-ce0a-4186-b9ae-e7e345be0222","ios":"levelo://app?vid=1d77d048-ce0a-4186-b9ae-e7e345be0222"},"vehicle_type_id":"4","last_reported":1737976075,"current_range_meters":33200,"station_id":"ce4bgup2rcd13ifvqco0","pricing_plan_id":"cebpf4jnsgd1na2vs0mg"},{"bike_id":"b2a77bcb-8636-4783-bb85-a20e6eec5fb2","system_id":"levelo_inurba_marseille","lat":43.27657,"lon":5.38954,"is_reserved":false,"is_disabled":false,"rental_uris":{"android":"levelo://app?vid=b2a77bcb-8636-4783-bb85-a20e6eec5fb2","ios":"levelo://app?vid=b2a77bcb-8636-4783-bb85-a20e6eec5fb2"},"vehicle_type_id":"4","last_reported":1737976075,"current_range_meters":30400,"station_id":"ce4bhi12rcd13ifvqfo0","pricing_plan_id":"cebpf4jnsgd1na2vs0mg"},{"bike_id":"53742e05-5478-446d-9a5a-2171d39a1114","system_id":"levelo_inurba_marseille","lat":43.28493,"lon":5.38434,"is_reserved":false,"is_disabled":false,"rental_uris":{"android":"levelo://app?vid=53742e05-5478-446d-9a5a-2171d39a1114","ios":"levelo://app?vid=53742e05-5478-446d-9a5a-2171d39a1114"},"vehicle_type_id":"4","last_reported":1737976075,"current_range_meters":31200,"station_id":"ce4bh512rcd13ifvqe3g","pricing_plan_id":"cebpf4jnsgd1na2vs0mg"},{"bike_id":"1387f3a8-728e-4bdc-977f-c1b044bf7c2a","system_id":"levelo_inurba_marseille","lat":43.30549,"lon":5.36534,"is_reserved":false,"is_disabled":false,"rental_uris":{"android":"levelo://app?vid=1387f3a8-728e-4bdc-977f-c1b044bf7c2a","ios":"levelo://app?vid=1387f3a8-728e-4bdc-977f-c1b044bf7c2a"},"vehicle_type_id":"4","last_reported":1737976075,"current_range_meters":7200,"station_id":"ce4bgs12rcd13ifvqcag","pricing_plan_id":"cebpf4jnsgd1na2vs0mg"},{"bike_id":"997caa1b-d331-4942-b152-d8a688b36721","system_id":"levelo_inurba_marseille","lat":43.31075,"lon":5.38354,"is_reserved":false,"is_disabled":false,"rental_uris":{"android":"levelo://app?vid=997caa1b-d331-4942-b152-d8a688b36721","ios":"levelo://app?vid=997caa1b-d331-4942-b152-d8a688b36721"},"vehicle_type_id":"4","last_reported":1737976075,"current_range_meters":13600,"station_id":"ce4bgv92rcd13ifvqcr0","pricing_plan_id":"cebpf4jnsgd1na2vs0mg"},{"bike_id":"cbff9398-ab73-4f43-baf9-df17cd33414f","system_id":"levelo_inurba_marseille","lat":43.29889,"lon":5.3973,"is_reserved":false,"is_disabled":false,"rental_uris":{"android":"levelo://app?vid=cbff9398-ab73-4f43-baf9-df17cd33414f","ios":"levelo://app?vid=cbff9398-ab73-4f43-baf9-df17cd33414f"},"vehicle_type_id":"4","last_reported":1737976075,"current_range_meters":38800,"station_id":"ce4bh0h2rcd13ifvqd50","pricing_plan_id":"cebpf4jnsgd1na2vs0mg"},{"bike_id":"8b24ee26-2ef3-43bc-a61f-7dad385fa3a7","system_id":"levelo_inurba_marseille","lat":43.26682,"lon":5.38283,"is_reserved":false,"is_disabled":true,"rental_uris":{"android":"levelo://app?vid=8b24ee26-2ef3-43bc-a61f-7dad385fa3a7","ios":"levelo://app?vid=8b24ee26-2ef3-43bc-a61f-7dad385fa3a7"},"vehicle_type_id":"4","last_reported":1737976075,"current_range_meters":400,"station_id":"ce4bhg92rcd13ifvqf90","pricing_plan_id":"cebpf4jnsgd1na2vs0mg"},{"bike_id":"6adc5ca7-0c2c-4563-b34e-99dac6c709d8","system_id":"levelo_inurba_marseille","lat":43.29886,"lon":5.37732,"is_reserved":false,"is_disabled":true,"rental_uris":{"android":"levelo://app?vid=6adc5ca7-0c2c-4563-b34e-99dac6c709d8","ios":"levelo://app?vid=6adc5ca7-0c2c-4563-b34e-99dac6c709d8"},"vehicle_type_id":"4","last_reported":1737976075,"current_range_meters":0,"station_id":"","pricing_plan_id":"cebpf4jnsgd1na2vs0mg"},{"bike_id":"3dd2c115-5d80-4367-a5a5-2e2d8d5ff718","system_id":"levelo_inurba_marseille","lat":43.28854,"lon":5.39323,"is_reserved":false,"is_disabled":false,"rental_uris":{"android":"levelo://app?vid=3dd2c115-5d80-4367-a5a5-2e2d8d5ff718","ios":"levelo://app?vid=3dd2c115-5d80-4367-a5a5-2e2d8d5ff718"},"vehicle_type_id":"4","last_reported":1737976075,"current_range_meters":38400,"station_id":"ce4bh2p2rcd13ifvqdi0","pricing_plan_id":"cebpf4jnsgd1na2vs0mg"},{"bike_id":"092bde8a-c0e6-421d-8d6a-71e36303b675","system_id":"levelo_inurba_marseille","lat":43.33019,"lon":5.39041,"is_reserved":false,"is_disabled":false,"rental_uris":{"android":"levelo://app?vid=092bde8a-c0e6-421d-8d6a-71e36303b675","ios":"levelo://app?vid=092bde8a-c0e6-421d-8d6a-71e36303b675"},"vehicle_type_id":"4","last_reported":1737976075,"current_range_meters":22400,"station_id":"ce4bhr92rcd13ifvqhrg","pricing_plan_id":"cebpf4jnsgd1na2vs0mg"},{"bike_id":"6160634f-0378-409c-8e4f-bdc4e23b68ed","system_id":"levelo_inurba_marseille","lat":43.2809,"lon":5.37846,"is_reserved":false,"is_disabled":false,"rental_uris":{"android":"levelo://app?vid=6160634f-0378-409c-8e4f-bdc4e23b68ed","ios":"levelo://app?vid=6160634f-0378-409c-8e4f-bdc4e23b68ed"},"vehicle_type_id":"4","last_reported":1737976075,"current_range_meters":38800,"station_id":"ce4bha12rcd13ifvqee0","pricing_plan_id":"cebpf4jnsgd1na2vs0mg"},{"bike_id":"5de3a2ff-e22b-4d37-a51c-f4f2c9cb3dbc","system_id":"levelo_inurba_marseille","lat":43.323645,"lon":5.388984,"is_reserved":false,"is_disabled":false,"rental_uris":{"android":"levelo://app?vid=5de3a2ff-e22b-4d37-a51c-f4f2c9cb3dbc","ios":"levelo://app?vid=5de3a2ff-e22b-4d37-a51c-f4f2c9cb3dbc"},"vehicle_type_id":"4","last_reported":1737976075,"current_range_meters":16400,"station_id":"ce4bhqp2rcd13ifvqhog","pricing_plan_id":"cebpf4jnsgd1na2vs0mg"},{"bike_id":"d1c9e299-976b-4067-95ba-dab8fc38751c","system_id":"levelo_inurba_marseille","lat":43.25711,"lon":5.41111,"is_reserved":false,"is_disabled":false,"rental_uris":{"android":"levelo://app?vid=d1c9e299-976b-4067-95ba-dab8fc38751c","ios":"levelo://app?vid=d1c9e299-976b-4067-95ba-dab8fc38751c"},"vehicle_type_id":"4","last_reported":1737976075,"current_range_meters":38800,"station_id":"ce4bhkp2rcd13ifvqgd0","pricing_plan_id":"cebpf4jnsgd1na2vs0mg"},{"bike_id":"c7830262-ea23-45f4-9a23-990ed17ebf09","system_id":"levelo_inurba_marseille","lat":43.29834,"lon":5.39751,"is_reserved":false,"is_disabled":true,"rental_uris":{"android":"levelo://app?vid=c7830262-ea23-45f4-9a23-990ed17ebf09","ios":"levelo://app?vid=c7830262-ea23-45f4-9a23-990ed17ebf09"},"vehicle_type_id":"4","last_reported":1737976075,"current_range_meters":0,"station_id":"ce4bh0h2rcd13ifvqd50","pricing_plan_id":"cebpf4jnsgd1na2vs0mg"},{"bike_id":"c47384ca-6dd0-4c2a-91ca-36edac7fb215","system_id":"levelo_inurba_marseille","lat":43.32483,"lon":5.3658,"is_reserved":false,"is_disabled":false,"rental_uris":{"android":"levelo://app?vid=c47384ca-6dd0-4c2a-91ca-36edac7fb215","ios":"levelo://app?vid=c47384ca-6dd0-4c2a-91ca-36edac7fb215"},"vehicle_type_id":"4","last_reported":1737976075,"current_range_meters":24000,"station_id":"ce4bhs12rcd13ifvqhvg","pricing_plan_id":"cebpf4jnsgd1na2vs0mg"},{"bike_id":"c416f71f-2b06-478e-8117-dfdcd1c593a6","system_id":"levelo_inurba_marseille","lat":43.27174,"lon":5.40999,"is_reserved":false,"is_disabled":false,"rental_uris":{"android":"levelo://app?vid=c416f71f-2b06-478e-8117-dfdcd1c593a6","ios":"levelo://app?vid=c416f71f-2b06-478e-8117-dfdcd1c593a6"},"vehicle_type_id":"4","last_reported":1737976075,"current_range_meters":37600,"station_id":"ce4bhl12rcd13ifvqgf0","pricing_plan_id":"cebpf4jnsgd1na2vs0mg"},{"bike_id":"91248acd-5261-453c-b5c9-6960b0e9de7b","system_id":"levelo_inurba_marseille","lat":43.292795,"lon":5.374575,"is_reserved":false,"is_disabled":true,"rental_uris":{"android":"levelo://app?vid=91248acd-5261-453c-b5c9-6960b0e9de7b","ios":"levelo://app?vid=91248acd-5261-453c-b5c9-6960b0e9de7b"},"vehicle_type_id":"4","last_reported":1737976075,"current_range_meters":10000,"station_id":"ce4bgi12rcd13ifvqb70","pricing_plan_id":"cebpf4jnsgd1na2vs0mg"},{"bike_id":"8afbfdfa-a371-42f3-a837-4d0db3e3e23e","system_id":"levelo_inurba_marseille","lat":43.31261,"lon":5.36987,"is_reserved":false,"is_disabled":false,"rental_uris":{"android":"levelo://app?vid=8afbfdfa-a371-42f3-a837-4d0db3e3e23e","ios":"levelo://app?vid=8afbfdfa-a371-42f3-a837-4d0db3e3e23e"},"vehicle_type_id":"4","last_reported":1737976075,"current_range_meters":38000,"station_id":"","pricing_plan_id":"cebpf4jnsgd1na2vs0mg"},{"bike_id":"f962de68-1607-4313-9ff5-fa0126715301","system_id":"levelo_inurba_marseille","lat":43.29048,"lon":5.37155,"is_reserved":false,"is_disabled":false,"rental_uris":{"android":"levelo://app?vid=f962de68-1607-4313-9ff5-fa0126715301","ios":"levelo://app?vid=f962de68-1607-4313-9ff5-fa0126715301"},"vehicle_type_id":"4","last_reported":1737976075,"current_range_meters":37600,"station_id":"ce4bh5p2rcd13ifvqe4g","pricing_plan_id":"cebpf4jnsgd1na2vs0mg"},{"bike_id":"b8e7fbad-0668-4a5a-a339-f627c7f3cdc2","system_id":"levelo_inurba_marseille","lat":43.27056,"lon":5.40272,"is_reserved":false,"is_disabled":false,"rental_uris":{"android":"levelo://app?vid=b8e7fbad-0668-4a5a-a339-f627c7f3cdc2","ios":"levelo://app?vid=b8e7fbad-0668-4a5a-a339-f627c7f3cdc2"},"vehicle_type_id":"4","last_reported":1737976075,"current_range_meters":37600,"station_id":"ce4bhk92rcd13ifvqgc0","pricing_plan_id":"cebpf4jnsgd1na2vs0mg"},{"bike_id":"2bd0fe4b-8303-4360-aeba-302831eebc62","system_id":"levelo_inurba_marseille","lat":43.24046,"lon":5.37781,"is_reserved":false,"is_disabled":false,"rental_uris":{"android":"levelo://app?vid=2bd0fe4b-8303-4360-aeba-302831eebc62","ios":"levelo://app?vid=2bd0fe4b-8303-4360-aeba-302831eebc62"},"vehicle_type_id":"4","last_reported":1737976075,"current_range_meters":18000,"station_id":"ce4bhnp2rcd13ifvqgvg","pricing_plan_id":"cebpf4jnsgd1na2vs0mg"},{"bike_id":"83ab2271-68aa-4e51-92e2-d89b2328d98b","system_id":"levelo_inurba_marseille","lat":43.30567,"lon":5.36693,"is_reserved":false,"is_disabled":false,"rental_uris":{"android":"levelo://app?vid=83ab2271-68aa-4e51-92e2-d89b2328d98b","ios":"levelo://app?vid=83ab2271-68aa-4e51-92e2-d89b2328d98b"},"vehicle_type_id":"4","last_reported":1737976075,"current_range_meters":36400,"station_id":"ce4bgrp2rcd13ifvqc9g","pricing_plan_id":"cebpf4jnsgd1na2vs0mg"},{"bike_id":"5a504fe4-0ab6-4eed-b9ef-e27131441d67","system_id":"levelo_inurba_marseille","lat":43.30347,"lon":5.3789,"is_reserved":false,"is_disabled":false,"rental_uris":{"android":"levelo://app?vid=5a504fe4-0ab6-4eed-b9ef-e27131441d67","ios":"levelo://app?vid=5a504fe4-0ab6-4eed-b9ef-e27131441d67"},"vehicle_type_id":"4","last_reported":1737976075,"current_range_meters":25600,"station_id":"","pricing_plan_id":"cebpf4jnsgd1na2vs0mg"},{"bike_id":"11ba3b1e-84b5-4609-901b-fe845e306d2e","system_id":"levelo_inurba_marseille","lat":43.3247,"lon":5.36604,"is_reserved":false,"is_disabled":false,"rental_uris":{"android":"levelo://app?vid=11ba3b1e-84b5-4609-901b-fe845e306d2e","ios":"levelo://app?vid=11ba3b1e-84b5-4609-901b-fe845e306d2e"},"vehicle_type_id":"4","last_reported":1737976075,"current_range_meters":34000,"station_id":"ce4bhs12rcd13ifvqhvg","pricing_plan_id":"cebpf4jnsgd1na2vs0mg"},{"bike_id":"d0be3c72-cd55-4797-8b93-dc5d51fe94d7","system_id":"levelo_inurba_marseille","lat":43.30549,"lon":5.36553,"is_reserved":false,"is_disabled":false,"rental_uris":{"android":"levelo://app?vid=d0be3c72-cd55-4797-8b93-dc5d51fe94d7","ios":"levelo://app?vid=d0be3c72-cd55-4797-8b93-dc5d51fe94d7"},"vehicle_type_id":"4","last_reported":1737976075,"current_range_meters":4400,"station_id":"ce4bgs12rcd13ifvqcag","pricing_plan_id":"cebpf4jnsgd1na2vs0mg"},{"bike_id":"29537b6d-60f6-4053-b601-105bf13a2e3a","system_id":"levelo_inurba_marseille","lat":43.28474,"lon":5.38428,"is_reserved":false,"is_disabled":true,"rental_uris":{"android":"levelo://app?vid=29537b6d-60f6-4053-b601-105bf13a2e3a","ios":"levelo://app?vid=29537b6d-60f6-4053-b601-105bf13a2e3a"},"vehicle_type_id":"4","last_reported":1737976075,"current_range_meters":38800,"station_id":"ce4bh512rcd13ifvqe3g","pricing_plan_id":"cebpf4jnsgd1na2vs0mg"},{"bike_id":"5f49eeeb-aca1-492c-8977-6205ce75fb07","system_id":"levelo_inurba_marseille","lat":43.30625,"lon":5.37183,"is_reserved":false,"is_disabled":false,"rental_uris":{"android":"levelo://app?vid=5f49eeeb-aca1-492c-8977-6205ce75fb07","ios":"levelo://app?vid=5f49eeeb-aca1-492c-8977-6205ce75fb07"},"vehicle_type_id":"4","last_reported":1737976075,"current_range_meters":10800,"station_id":"ce4bgqh2rcd13ifvqc4g","pricing_plan_id":"cebpf4jnsgd1na2vs0mg"},{"bike_id":"c9782c3d-3762-45ca-afe5-56710c6ca513","system_id":"levelo_inurba_marseille","lat":43.26495,"lon":5.3955,"is_reserved":false,"is_disabled":true,"rental_uris":{"android":"levelo://app?vid=c9782c3d-3762-45ca-afe5-56710c6ca513","ios":"levelo://app?vid=c9782c3d-3762-45ca-afe5-56710c6ca513"},"vehicle_type_id":"4","last_reported":1737976075,"current_range_meters":28400,"station_id":"ce4bhi12rcd13ifvqfq0","pricing_plan_id":"cebpf4jnsgd1na2vs0mg"},{"bike_id":"9838cc78-2b53-49d3-ae13-82df62c4fd64","system_id":"levelo_inurba_marseille","lat":43.28419,"lon":5.40941,"is_reserved":false,"is_disabled":true,"rental_uris":{"android":"levelo://app?vid=9838cc78-2b53-49d3-ae13-82df62c4fd64","ios":"levelo://app?vid=9838cc78-2b53-49d3-ae13-82df62c4fd64"},"vehicle_type_id":"4","last_reported":1737976075,"current_range_meters":0,"station_id":"","pricing_plan_id":"cebpf4jnsgd1na2vs0mg"},{"bike_id":"68f99b21-2fbe-41a7-b050-a7f4c140afc1","system_id":"levelo_inurba_marseille","lat":43.29913,"lon":5.402,"is_reserved":false,"is_disabled":true,"rental_uris":{"android":"levelo://app?vid=68f99b21-2fbe-41a7-b050-a7f4c140afc1","ios":"levelo://app?vid=68f99b21-2fbe-41a7-b050-a7f4c140afc1"},"vehicle_type_id":"4","last_reported":1737976075,"current_range_meters":0,"station_id":"","pricing_plan_id":"cebpf4jnsgd1na2vs0mg"},{"bike_id":"1a12ccc4-119d-4583-9cd0-f3b08fa41a49","system_id":"levelo_inurba_marseille","lat":43.24021,"lon":5.37792,"is_reserved":false,"is_disabled":false,"rental_uris":{"android":"levelo://app?vid=1a12ccc4-119d-4583-9cd0-f3b08fa41a49","ios":"levelo://app?vid=1a12ccc4-119d-4583-9cd0-f3b08fa41a49"},"vehicle_type_id":"4","last_reported":1737976075,"current_range_meters":36000,"station_id":"","pricing_plan_id":"cebpf4jnsgd1na2vs0mg"},{"bike_id":"93fa7128-527d-45c4-aa50-6800e7e1e06b","system_id":"levelo_inurba_marseille","lat":43.33612,"lon":5.40991,"is_reserved":false,"is_disabled":false,"rental_uris":{"android":"levelo://app?vid=93fa7128-527d-45c4-aa50-6800e7e1e06b","ios":"levelo://app?vid=93fa7128-527d-45c4-aa50-6800e7e1e06b"},"vehicle_type_id":"4","last_reported":1737976075,"current_range_meters":36800,"station_id":"ce4bhqh2rcd13ifvqhmg","pricing_plan_id":"cebpf4jnsgd1na2vs0mg"},{"bike_id":"8d59e66f-da7f-4cfc-99a3-6c0619252f37","system_id":"levelo_inurba_marseille","lat":43.24182,"lon":5.39723,"is_reserved":false,"is_disabled":false,"rental_uris":{"android":"levelo://app?vid=8d59e66f-da7f-4cfc-99a3-6c0619252f37","ios":"levelo://app?vid=8d59e66f-da7f-4cfc-99a3-6c0619252f37"},"vehicle_type_id":"4","last_reported":1737976075,"current_range_meters":38800,"station_id":"ce4bhn12rcd13ifvqgpg","pricing_plan_id":"cebpf4jnsgd1na2vs0mg"},{"bike_id":"df05eb4a-164c-45fe-8261-1308961a41f3","system_id":"levelo_inurba_marseille","lat":43.28094,"lon":5.37845,"is_reserved":false,"is_disabled":false,"rental_uris":{"android":"levelo://app?vid=df05eb4a-164c-45fe-8261-1308961a41f3","ios":"levelo://app?vid=df05eb4a-164c-45fe-8261-1308961a41f3"},"vehicle_type_id":"4","last_reported":1737976075,"current_range_meters":36000,"station_id":"ce4bha12rcd13ifvqee0","pricing_plan_id":"cebpf4jnsgd1na2vs0mg"},{"bike_id":"5ff5360b-554b-42b0-ab03-47f030e061a2","system_id":"levelo_inurba_marseille","lat":43.2902,"lon":5.37564,"is_reserved":false,"is_disabled":false,"rental_uris":{"android":"levelo://app?vid=5ff5360b-554b-42b0-ab03-47f030e061a2","ios":"levelo://app?vid=5ff5360b-554b-42b0-ab03-47f030e061a2"},"vehicle_type_id":"4","last_reported":1737976075,"current_range_meters":28400,"station_id":"ce4bh692rcd13ifvqe90","pricing_plan_id":"cebpf4jnsgd1na2vs0mg"},{"bike_id":"eb8e2715-50e8-4f9c-aaa7-763acdecaa89","system_id":"levelo_inurba_marseille","lat":43.29682,"lon":5.36928,"is_reserved":false,"is_disabled":true,"rental_uris":{"android":"levelo://app?vid=eb8e2715-50e8-4f9c-aaa7-763acdecaa89","ios":"levelo://app?vid=eb8e2715-50e8-4f9c-aaa7-763acdecaa89"},"vehicle_type_id":"4","last_reported":1737976075,"current_range_meters":1200,"station_id":"","pricing_plan_id":"cebpf4jnsgd1na2vs0mg"},{"bike_id":"2e0a8b86-b457-48a0-8577-213b01080398","system_id":"levelo_inurba_marseille","lat":43.23208,"lon":5.35549,"is_reserved":false,"is_disabled":false,"rental_uris":{"android":"levelo://app?vid=2e0a8b86-b457-48a0-8577-213b01080398","ios":"levelo://app?vid=2e0a8b86-b457-48a0-8577-213b01080398"},"vehicle_type_id":"4","last_reported":1737976075,"current_range_meters":38800,"station_id":"ce4bhu92rcd13ifvqi70","pricing_plan_id":"cebpf4jnsgd1na2vs0mg"},{"bike_id":"d2e14334-91cf-4683-8086-fad56bb3beac","system_id":"levelo_inurba_marseille","lat":43.30542,"lon":5.36527,"is_reserved":false,"is_disabled":false,"rental_uris":{"android":"levelo://app?vid=d2e14334-91cf-4683-8086-fad56bb3beac","ios":"levelo://app?vid=d2e14334-91cf-4683-8086-fad56bb3beac"},"vehicle_type_id":"4","last_reported":1737976075,"current_range_meters":26000,"station_id":"ce4bgs12rcd13ifvqcag","pricing_plan_id":"cebpf4jnsgd1na2vs0mg"},{"bike_id":"410fa470-2e85-4d72-b0ad-53837381e3a3","system_id":"levelo_inurba_marseille","lat":43.29642,"lon":5.37187,"is_reserved":false,"is_disabled":false,"rental_uris":{"android":"levelo://app?vid=410fa470-2e85-4d72-b0ad-53837381e3a3","ios":"levelo://app?vid=410fa470-2e85-4d72-b0ad-53837381e3a3"},"vehicle_type_id":"4","last_reported":1737976075,"current_range_meters":24800,"station_id":"ce4bgnh2rcd13ifvqc0g","pricing_plan_id":"cebpf4jnsgd1na2vs0mg"},{"bike_id":"d979d8d2-ec65-47af-9229-e4270aab279a","system_id":"levelo_inurba_marseille","lat":43.2305,"lon":5.355,"is_reserved":false,"is_disabled":false,"rental_uris":{"android":"levelo://app?vid=d979d8d2-ec65-47af-9229-e4270aab279a","ios":"levelo://app?vid=d979d8d2-ec65-47af-9229-e4270aab279a"},"vehicle_type_id":"4","last_reported":1737976075,"current_range_meters":28000,"station_id":"cpo3342slgdg3j2ifvpg","pricing_plan_id":"cebpf4jnsgd1na2vs0mg"},{"bike_id":"689861d0-6f71-4ea0-a024-f23cf4b0663e","system_id":"levelo_inurba_marseille","lat":43.30549,"lon":5.36534,"is_reserved":false,"is_disabled":false,"rental_uris":{"android":"levelo://app?vid=689861d0-6f71-4ea0-a024-f23cf4b0663e","ios":"levelo://app?vid=689861d0-6f71-4ea0-a024-f23cf4b0663e"},"vehicle_type_id":"4","last_reported":1737976075,"current_range_meters":30000,"station_id":"ce4bgs12rcd13ifvqcag","pricing_plan_id":"cebpf4jnsgd1na2vs0mg"},{"bike_id":"07dcb066-d9ef-4840-988f-79060f66efdc","system_id":"levelo_inurba_marseille","lat":43.29634,"lon":5.37157,"is_reserved":false,"is_disabled":false,"rental_uris":{"android":"levelo://app?vid=07dcb066-d9ef-4840-988f-79060f66efdc","ios":"levelo://app?vid=07dcb066-d9ef-4840-988f-79060f66efdc"},"vehicle_type_id":"4","last_reported":1737976075,"current_range_meters":28400,"station_id":"ce4bgnh2rcd13ifvqc0g","pricing_plan_id":"cebpf4jnsgd1na2vs0mg"},{"bike_id":"f03b9237-99e9-4557-b8f3-ce2573a0b301","system_id":"levelo_inurba_marseille","lat":43.30414,"lon":5.39756,"is_reserved":false,"is_disabled":false,"rental_uris":{"android":"levelo://app?vid=f03b9237-99e9-4557-b8f3-ce2573a0b301","ios":"levelo://app?vid=f03b9237-99e9-4557-b8f3-ce2573a0b301"},"vehicle_type_id":"4","last_reported":1737976075,"current_range_meters":16000,"station_id":"ce4bh092rcd13ifvqd20","pricing_plan_id":"cebpf4jnsgd1na2vs0mg"},{"bike_id":"95228a16-0a2a-4a01-8484-95c91e5ee8a6","system_id":"levelo_inurba_marseille","lat":43.32375,"lon":5.38884,"is_reserved":false,"is_disabled":false,"rental_uris":{"android":"levelo://app?vid=95228a16-0a2a-4a01-8484-95c91e5ee8a6","ios":"levelo://app?vid=95228a16-0a2a-4a01-8484-95c91e5ee8a6"},"vehicle_type_id":"4","last_reported":1737976075,"current_range_meters":16000,"station_id":"ce4bhqp2rcd13ifvqhog","pricing_plan_id":"cebpf4jnsgd1na2vs0mg"},{"bike_id":"52d554ff-cc84-4bb5-96f5-8da285f6a8e6","system_id":"levelo_inurba_marseille","lat":43.29596,"lon":5.38109,"is_reserved":false,"is_disabled":false,"rental_uris":{"android":"levelo://app?vid=52d554ff-cc84-4bb5-96f5-8da285f6a8e6","ios":"levelo://app?vid=52d554ff-cc84-4bb5-96f5-8da285f6a8e6"},"vehicle_type_id":"4","last_reported":1737976075,"current_range_meters":38800,"station_id":"ce4bgl12rcd13ifvqbo0","pricing_plan_id":"cebpf4jnsgd1na2vs0mg"},{"bike_id":"3fd7f5f7-a6af-4004-b9b2-3cac0c159607","system_id":"levelo_inurba_marseille","lat":43.29875,"lon":5.39777,"is_reserved":false,"is_disabled":false,"rental_uris":{"android":"levelo://app?vid=3fd7f5f7-a6af-4004-b9b2-3cac0c159607","ios":"levelo://app?vid=3fd7f5f7-a6af-4004-b9b2-3cac0c159607"},"vehicle_type_id":"4","last_reported":1737976075,"current_range_meters":10800,"station_id":"ce4bh0h2rcd13ifvqd50","pricing_plan_id":"cebpf4jnsgd1na2vs0mg"},{"bike_id":"5925b8fe-d4e7-4c76-8ad0-bdc7c063ae3e","system_id":"levelo_inurba_marseille","lat":43.30474,"lon":5.37913,"is_reserved":false,"is_disabled":false,"rental_uris":{"android":"levelo://app?vid=5925b8fe-d4e7-4c76-8ad0-bdc7c063ae3e","ios":"levelo://app?vid=5925b8fe-d4e7-4c76-8ad0-bdc7c063ae3e"},"vehicle_type_id":"4","last_reported":1737976075,"current_range_meters":27600,"station_id":"ce4bgup2rcd13ifvqcn0","pricing_plan_id":"cebpf4jnsgd1na2vs0mg"},{"bike_id":"30bbb00e-1612-4a25-b2e9-c8ad656fb58a","system_id":"levelo_inurba_marseille","lat":43.3373,"lon":5.39186,"is_reserved":false,"is_disabled":false,"rental_uris":{"android":"levelo://app?vid=30bbb00e-1612-4a25-b2e9-c8ad656fb58a","ios":"levelo://app?vid=30bbb00e-1612-4a25-b2e9-c8ad656fb58a"},"vehicle_type_id":"4","last_reported":1737976075,"current_range_meters":39200,"station_id":"ce4bhr92rcd13ifvqhsg","pricing_plan_id":"cebpf4jnsgd1na2vs0mg"},{"bike_id":"005330c6-9ea4-44b1-af35-6b68ca394cb6","system_id":"levelo_inurba_marseille","lat":43.30957,"lon":5.39057,"is_reserved":false,"is_disabled":false,"rental_uris":{"android":"levelo://app?vid=005330c6-9ea4-44b1-af35-6b68ca394cb6","ios":"levelo://app?vid=005330c6-9ea4-44b1-af35-6b68ca394cb6"},"vehicle_type_id":"4","last_reported":1737976075,"current_range_meters":38800,"station_id":"ce4bgup2rcd13ifvqco0","pricing_plan_id":"cebpf4jnsgd1na2vs0mg"},{"bike_id":"6917a016-fa2f-4726-952b-ffe1167166a3","system_id":"levelo_inurba_marseille","lat":43.2607,"lon":5.39375,"is_reserved":false,"is_disabled":true,"rental_uris":{"android":"levelo://app?vid=6917a016-fa2f-4726-952b-ffe1167166a3","ios":"levelo://app?vid=6917a016-fa2f-4726-952b-ffe1167166a3"},"vehicle_type_id":"4","last_reported":1737976075,"current_range_meters":0,"station_id":"ce4bhh92rcd13ifvqfj0","pricing_plan_id":"cebpf4jnsgd1na2vs0mg"},{"bike_id":"4cb596df-44fd-4741-9495-cfdb53019931","system_id":"levelo_inurba_marseille","lat":43.23154,"lon":5.43751,"is_reserved":false,"is_disabled":false,"rental_uris":{"android":"levelo://app?vid=4cb596df-44fd-4741-9495-cfdb53019931","ios":"levelo://app?vid=4cb596df-44fd-4741-9495-cfdb53019931"},"vehicle_type_id":"4","last_reported":1737976075,"current_range_meters":27200,"station_id":"ce4bhmp2rcd13ifvqgog","pricing_plan_id":"cebpf4jnsgd1na2vs0mg"},{"bike_id":"bcc149d8-6418-4b80-b7f4-9e41a4dc2c09","system_id":"levelo_inurba_marseille","lat":43.30549,"lon":5.36551,"is_reserved":false,"is_disabled":false,"rental_uris":{"android":"levelo://app?vid=bcc149d8-6418-4b80-b7f4-9e41a4dc2c09","ios":"levelo://app?vid=bcc149d8-6418-4b80-b7f4-9e41a4dc2c09"},"vehicle_type_id":"4","last_reported":1737976075,"current_range_meters":35600,"station_id":"ce4bgs12rcd13ifvqcag","pricing_plan_id":"cebpf4jnsgd1na2vs0mg"},{"bike_id":"acf4cec9-04b2-432c-83ba-19cc7ebac443","system_id":"levelo_inurba_marseille","lat":43.29009,"lon":5.38133,"is_reserved":false,"is_disabled":true,"rental_uris":{"android":"levelo://app?vid=acf4cec9-04b2-432c-83ba-19cc7ebac443","ios":"levelo://app?vid=acf4cec9-04b2-432c-83ba-19cc7ebac443"},"vehicle_type_id":"4","last_reported":1737976075,"current_range_meters":24000,"station_id":"ce4bh4p2rcd13ifvqe1g","pricing_plan_id":"cebpf4jnsgd1na2vs0mg"},{"bike_id":"3c9c9088-9c27-4609-bc62-8218c0dc2be8","system_id":"levelo_inurba_marseille","lat":43.23199,"lon":5.35568,"is_reserved":false,"is_disabled":false,"rental_uris":{"android":"levelo://app?vid=3c9c9088-9c27-4609-bc62-8218c0dc2be8","ios":"levelo://app?vid=3c9c9088-9c27-4609-bc62-8218c0dc2be8"},"vehicle_type_id":"4","last_reported":1737976075,"current_range_meters":37600,"station_id":"ce4bhu92rcd13ifvqi70","pricing_plan_id":"cebpf4jnsgd1na2vs0mg"},{"bike_id":"8a4fd9c1-126f-44bd-8919-7cf37f162b5e","system_id":"levelo_inurba_marseille","lat":43.28161,"lon":5.42682,"is_reserved":false,"is_disabled":false,"rental_uris":{"android":"levelo://app?vid=8a4fd9c1-126f-44bd-8919-7cf37f162b5e","ios":"levelo://app?vid=8a4fd9c1-126f-44bd-8919-7cf37f162b5e"},"vehicle_type_id":"4","last_reported":1737976075,"current_range_meters":31200,"station_id":"ce4bhnh2rcd13ifvqgug","pricing_plan_id":"cebpf4jnsgd1na2vs0mg"},{"bike_id":"908611cd-358e-457c-a364-8caf0fc92ab1","system_id":"levelo_inurba_marseille","lat":43.33606,"lon":5.41025,"is_reserved":false,"is_disabled":false,"rental_uris":{"android":"levelo://app?vid=908611cd-358e-457c-a364-8caf0fc92ab1","ios":"levelo://app?vid=908611cd-358e-457c-a364-8caf0fc92ab1"},"vehicle_type_id":"4","last_reported":1737976075,"current_range_meters":36800,"station_id":"ce4bhqh2rcd13ifvqhmg","pricing_plan_id":"cebpf4jnsgd1na2vs0mg"},{"bike_id":"02a65308-936d-4187-b4db-c0afc2d3e10c","system_id":"levelo_inurba_marseille","lat":43.25935,"lon":5.4092,"is_reserved":false,"is_disabled":false,"rental_uris":{"android":"levelo://app?vid=02a65308-936d-4187-b4db-c0afc2d3e10c","ios":"levelo://app?vid=02a65308-936d-4187-b4db-c0afc2d3e10c"},"vehicle_type_id":"4","last_reported":1737976075,"current_range_meters":38000,"station_id":"ce4bhm92rcd13ifvqglg","pricing_plan_id":"cebpf4jnsgd1na2vs0mg"},{"bike_id":"5ef42bac-1a09-4f8c-9fe8-ab058034fe56","system_id":"levelo_inurba_marseille","lat":43.29894,"lon":5.43671,"is_reserved":false,"is_disabled":false,"rental_uris":{"android":"levelo://app?vid=5ef42bac-1a09-4f8c-9fe8-ab058034fe56","ios":"levelo://app?vid=5ef42bac-1a09-4f8c-9fe8-ab058034fe56"},"vehicle_type_id":"4","last_reported":1737976075,"current_range_meters":16800,"station_id":"ce4bhpp2rcd13ifvqhfg","pricing_plan_id":"cebpf4jnsgd1na2vs0mg"},{"bike_id":"427197db-011a-4f01-9ced-bccbb9608a6e","system_id":"levelo_inurba_marseille","lat":43.30527,"lon":5.36696,"is_reserved":false,"is_disabled":false,"rental_uris":{"android":"levelo://app?vid=427197db-011a-4f01-9ced-bccbb9608a6e","ios":"levelo://app?vid=427197db-011a-4f01-9ced-bccbb9608a6e"},"vehicle_type_id":"4","last_reported":1737976075,"current_range_meters":30000,"station_id":"ce4bgrp2rcd13ifvqc9g","pricing_plan_id":"cebpf4jnsgd1na2vs0mg"},{"bike_id":"84c145c3-c63a-4d22-b8d5-94f667a178c4","system_id":"levelo_inurba_marseille","lat":43.28105,"lon":5.37841,"is_reserved":false,"is_disabled":false,"rental_uris":{"android":"levelo://app?vid=84c145c3-c63a-4d22-b8d5-94f667a178c4","ios":"levelo://app?vid=84c145c3-c63a-4d22-b8d5-94f667a178c4"},"vehicle_type_id":"4","last_reported":1737976075,"current_range_meters":11200,"station_id":"ce4bha12rcd13ifvqee0","pricing_plan_id":"cebpf4jnsgd1na2vs0mg"},{"bike_id":"0e15d77d-1543-419f-bfee-5bc37433fa77","system_id":"levelo_inurba_marseille","lat":43.302693,"lon":5.377095,"is_reserved":false,"is_disabled":false,"rental_uris":{"android":"levelo://app?vid=0e15d77d-1543-419f-bfee-5bc37433fa77","ios":"levelo://app?vid=0e15d77d-1543-419f-bfee-5bc37433fa77"},"vehicle_type_id":"4","last_reported":1737976075,"current_range_meters":38000,"station_id":"ce4bguh2rcd13ifvqcj0","pricing_plan_id":"cebpf4jnsgd1na2vs0mg"},{"bike_id":"77b30a6d-252b-4ed2-b448-eda92671226e","system_id":"levelo_inurba_marseille","lat":43.29198,"lon":5.35806,"is_reserved":false,"is_disabled":false,"rental_uris":{"android":"levelo://app?vid=77b30a6d-252b-4ed2-b448-eda92671226e","ios":"levelo://app?vid=77b30a6d-252b-4ed2-b448-eda92671226e"},"vehicle_type_id":"4","last_reported":1737976075,"current_range_meters":30000,"station_id":"ce4bhb12rcd13ifvqel0","pricing_plan_id":"cebpf4jnsgd1na2vs0mg"},{"bike_id":"bba6c7d2-3568-4ccc-8835-01a759d4b4f4","system_id":"levelo_inurba_marseille","lat":43.28725,"lon":5.4,"is_reserved":false,"is_disabled":false,"rental_uris":{"android":"levelo://app?vid=bba6c7d2-3568-4ccc-8835-01a759d4b4f4","ios":"levelo://app?vid=bba6c7d2-3568-4ccc-8835-01a759d4b4f4"},"vehicle_type_id":"4","last_reported":1737976075,"current_range_meters":38800,"station_id":"ce4bho92rcd13ifvqh3g","pricing_plan_id":"cebpf4jnsgd1na2vs0mg"},{"bike_id":"b5f9da4a-0440-436b-86f5-ecc367051a64","system_id":"levelo_inurba_marseille","lat":43.29839,"lon":5.3629,"is_reserved":false,"is_disabled":false,"rental_uris":{"android":"levelo://app?vid=b5f9da4a-0440-436b-86f5-ecc367051a64","ios":"levelo://app?vid=b5f9da4a-0440-436b-86f5-ecc367051a64"},"vehicle_type_id":"4","last_reported":1737976075,"current_range_meters":31200,"station_id":"ce4bgpp2rcd13ifvqc3g","pricing_plan_id":"cebpf4jnsgd1na2vs0mg"},{"bike_id":"ce732d49-5963-47e6-8c0d-3def73ae88b1","system_id":"levelo_inurba_marseille","lat":43.27649,"lon":5.38926,"is_reserved":false,"is_disabled":false,"rental_uris":{"android":"levelo://app?vid=ce732d49-5963-47e6-8c0d-3def73ae88b1","ios":"levelo://app?vid=ce732d49-5963-47e6-8c0d-3def73ae88b1"},"vehicle_type_id":"4","last_reported":1737976075,"current_range_meters":38800,"station_id":"ce4bhi12rcd13ifvqfo0","pricing_plan_id":"cebpf4jnsgd1na2vs0mg"},{"bike_id":"091ec011-b792-4fc7-8fe9-55cd6cf698d6","system_id":"levelo_inurba_marseille","lat":43.28561,"lon":5.39516,"is_reserved":false,"is_disabled":false,"rental_uris":{"android":"levelo://app?vid=091ec011-b792-4fc7-8fe9-55cd6cf698d6","ios":"levelo://app?vid=091ec011-b792-4fc7-8fe9-55cd6cf698d6"},"vehicle_type_id":"4","last_reported":1737976075,"current_range_meters":38800,"station_id":"ce4bh292rcd13ifvqdg0","pricing_plan_id":"cebpf4jnsgd1na2vs0mg"},{"bike_id":"a10e71e1-ad9f-4bb7-8c59-4fa0ebc2e55a","system_id":"levelo_inurba_marseille","lat":43.29623,"lon":5.37182,"is_reserved":false,"is_disabled":false,"rental_uris":{"android":"levelo://app?vid=a10e71e1-ad9f-4bb7-8c59-4fa0ebc2e55a","ios":"levelo://app?vid=a10e71e1-ad9f-4bb7-8c59-4fa0ebc2e55a"},"vehicle_type_id":"4","last_reported":1737976075,"current_range_meters":38400,"station_id":"ce4bgnh2rcd13ifvqc0g","pricing_plan_id":"cebpf4jnsgd1na2vs0mg"},{"bike_id":"e3cd1fb8-9973-49bf-a003-f86967589da3","system_id":"levelo_inurba_marseille","lat":43.292,"lon":5.39328,"is_reserved":false,"is_disabled":false,"rental_uris":{"android":"levelo://app?vid=e3cd1fb8-9973-49bf-a003-f86967589da3","ios":"levelo://app?vid=e3cd1fb8-9973-49bf-a003-f86967589da3"},"vehicle_type_id":"4","last_reported":1737976075,"current_range_meters":28400,"station_id":"","pricing_plan_id":"cebpf4jnsgd1na2vs0mg"},{"bike_id":"e77f4a3c-5357-4959-a3f1-e8d754926725","system_id":"levelo_inurba_marseille","lat":43.2656,"lon":5.37294,"is_reserved":false,"is_disabled":false,"rental_uris":{"android":"levelo://app?vid=e77f4a3c-5357-4959-a3f1-e8d754926725","ios":"levelo://app?vid=e77f4a3c-5357-4959-a3f1-e8d754926725"},"vehicle_type_id":"4","last_reported":1737976075,"current_range_meters":19200,"station_id":"ce4bhg12rcd13ifvqf70","pricing_plan_id":"cebpf4jnsgd1na2vs0mg"},{"bike_id":"3cd8d72b-f1ac-49cc-ba3b-d9273a75292c","system_id":"levelo_inurba_marseille","lat":43.24176,"lon":5.36397,"is_reserved":false,"is_disabled":false,"rental_uris":{"android":"levelo://app?vid=3cd8d72b-f1ac-49cc-ba3b-d9273a75292c","ios":"levelo://app?vid=3cd8d72b-f1ac-49cc-ba3b-d9273a75292c"},"vehicle_type_id":"4","last_reported":1737976075,"current_range_meters":32800,"station_id":"cpo36qri1sfpv3e86is0","pricing_plan_id":"cebpf4jnsgd1na2vs0mg"},{"bike_id":"9d01ac1d-f000-4abb-9a72-7b68ff9d60b7","system_id":"levelo_inurba_marseille","lat":43.309567,"lon":5.390407,"is_reserved":false,"is_disabled":false,"rental_uris":{"android":"levelo://app?vid=9d01ac1d-f000-4abb-9a72-7b68ff9d60b7","ios":"levelo://app?vid=9d01ac1d-f000-4abb-9a72-7b68ff9d60b7"},"vehicle_type_id":"4","last_reported":1737976075,"current_range_meters":38800,"station_id":"ce4bgup2rcd13ifvqco0","pricing_plan_id":"cebpf4jnsgd1na2vs0mg"},{"bike_id":"e2a8d0be-1945-4d70-8515-7cde3a6cda5c","system_id":"levelo_inurba_marseille","lat":43.2845,"lon":5.38431,"is_reserved":false,"is_disabled":false,"rental_uris":{"android":"levelo://app?vid=e2a8d0be-1945-4d70-8515-7cde3a6cda5c","ios":"levelo://app?vid=e2a8d0be-1945-4d70-8515-7cde3a6cda5c"},"vehicle_type_id":"4","last_reported":1737976075,"current_range_meters":39200,"station_id":"ce4bh8p2rcd13ifvqeb0","pricing_plan_id":"cebpf4jnsgd1na2vs0mg"},{"bike_id":"f3517fa1-709e-4952-b6fa-124b29197995","system_id":"levelo_inurba_marseille","lat":43.33597,"lon":5.40999,"is_reserved":false,"is_disabled":false,"rental_uris":{"android":"levelo://app?vid=f3517fa1-709e-4952-b6fa-124b29197995","ios":"levelo://app?vid=f3517fa1-709e-4952-b6fa-124b29197995"},"vehicle_type_id":"4","last_reported":1737976075,"current_range_meters":28400,"station_id":"ce4bhqh2rcd13ifvqhmg","pricing_plan_id":"cebpf4jnsgd1na2vs0mg"},{"bike_id":"d27e9df0-e63e-4423-b55d-e216341f5e2a","system_id":"levelo_inurba_marseille","lat":43.24073,"lon":5.37759,"is_reserved":false,"is_disabled":false,"rental_uris":{"android":"levelo://app?vid=d27e9df0-e63e-4423-b55d-e216341f5e2a","ios":"levelo://app?vid=d27e9df0-e63e-4423-b55d-e216341f5e2a"},"vehicle_type_id":"4","last_reported":1737976075,"current_range_meters":22000,"station_id":"ce4bhnp2rcd13ifvqgvg","pricing_plan_id":"cebpf4jnsgd1na2vs0mg"},{"bike_id":"de648581-dfa9-437d-b82b-7a8ebb410b7e","system_id":"levelo_inurba_marseille","lat":43.25488,"lon":5.37652,"is_reserved":false,"is_disabled":false,"rental_uris":{"android":"levelo://app?vid=de648581-dfa9-437d-b82b-7a8ebb410b7e","ios":"levelo://app?vid=de648581-dfa9-437d-b82b-7a8ebb410b7e"},"vehicle_type_id":"4","last_reported":1737976075,"current_range_meters":38000,"station_id":"ce4bhh12rcd13ifvqff0","pricing_plan_id":"cebpf4jnsgd1na2vs0mg"},{"bike_id":"1c35c755-8b1c-439e-8798-f1a001a3969d","system_id":"levelo_inurba_marseille","lat":43.28101,"lon":5.37836,"is_reserved":false,"is_disabled":true,"rental_uris":{"android":"levelo://app?vid=1c35c755-8b1c-439e-8798-f1a001a3969d","ios":"levelo://app?vid=1c35c755-8b1c-439e-8798-f1a001a3969d"},"vehicle_type_id":"4","last_reported":1737976075,"current_range_meters":0,"station_id":"ce4bha12rcd13ifvqee0","pricing_plan_id":"cebpf4jnsgd1na2vs0mg"},{"bike_id":"919abb9f-7f59-47cb-bf65-694df1f42365","system_id":"levelo_inurba_marseille","lat":43.3234,"lon":5.40619,"is_reserved":false,"is_disabled":false,"rental_uris":{"android":"levelo://app?vid=919abb9f-7f59-47cb-bf65-694df1f42365","ios":"levelo://app?vid=919abb9f-7f59-47cb-bf65-694df1f42365"},"vehicle_type_id":"4","last_reported":1737976075,"current_range_meters":37600,"station_id":"ce4bhq92rcd13ifvqhjg","pricing_plan_id":"cebpf4jnsgd1na2vs0mg"},{"bike_id":"b0325b31-6e06-44e4-b7c2-c542d11011f6","system_id":"levelo_inurba_marseille","lat":43.29007,"lon":5.37845,"is_reserved":false,"is_disabled":false,"rental_uris":{"android":"levelo://app?vid=b0325b31-6e06-44e4-b7c2-c542d11011f6","ios":"levelo://app?vid=b0325b31-6e06-44e4-b7c2-c542d11011f6"},"vehicle_type_id":"4","last_reported":1737976075,"current_range_meters":30800,"station_id":"ce4bh9p2rcd13ifvqed0","pricing_plan_id":"cebpf4jnsgd1na2vs0mg"},{"bike_id":"7271f96c-0285-46d8-8ed3-748e98866810","system_id":"levelo_inurba_marseille","lat":43.29279,"lon":5.36843,"is_reserved":false,"is_disabled":false,"rental_uris":{"android":"levelo://app?vid=7271f96c-0285-46d8-8ed3-748e98866810","ios":"levelo://app?vid=7271f96c-0285-46d8-8ed3-748e98866810"},"vehicle_type_id":"4","last_reported":1737976075,"current_range_meters":36400,"station_id":"ce4bhbp2rcd13ifvqesg","pricing_plan_id":"cebpf4jnsgd1na2vs0mg"},{"bike_id":"4df2a845-0c01-44df-9066-683f72b76f35","system_id":"levelo_inurba_marseille","lat":43.309561,"lon":5.390467,"is_reserved":false,"is_disabled":false,"rental_uris":{"android":"levelo://app?vid=4df2a845-0c01-44df-9066-683f72b76f35","ios":"levelo://app?vid=4df2a845-0c01-44df-9066-683f72b76f35"},"vehicle_type_id":"4","last_reported":1737976075,"current_range_meters":39200,"station_id":"ce4bgup2rcd13ifvqco0","pricing_plan_id":"cebpf4jnsgd1na2vs0mg"},{"bike_id":"b96c22ba-a4c6-4ca8-b881-a2a2972e9bc2","system_id":"levelo_inurba_marseille","lat":43.26029,"lon":5.37547,"is_reserved":false,"is_disabled":false,"rental_uris":{"android":"levelo://app?vid=b96c22ba-a4c6-4ca8-b881-a2a2972e9bc2","ios":"levelo://app?vid=b96c22ba-a4c6-4ca8-b881-a2a2972e9bc2"},"vehicle_type_id":"4","last_reported":1737976075,"current_range_meters":37600,"station_id":"ce4bhgh2rcd13ifvqfa0","pricing_plan_id":"cebpf4jnsgd1na2vs0mg"},{"bike_id":"3b5b4cf6-2cae-49fc-b3fa-3fdc78c6224b","system_id":"levelo_inurba_marseille","lat":43.30303,"lon":5.36913,"is_reserved":false,"is_disabled":false,"rental_uris":{"android":"levelo://app?vid=3b5b4cf6-2cae-49fc-b3fa-3fdc78c6224b","ios":"levelo://app?vid=3b5b4cf6-2cae-49fc-b3fa-3fdc78c6224b"},"vehicle_type_id":"4","last_reported":1737976075,"current_range_meters":38800,"station_id":"ce4bgqh2rcd13ifvqc5g","pricing_plan_id":"cebpf4jnsgd1na2vs0mg"},{"bike_id":"017f93d7-eb0f-4b1a-94a4-58c962719523","system_id":"levelo_inurba_marseille","lat":43.29289,"lon":5.37452,"is_reserved":false,"is_disabled":false,"rental_uris":{"android":"levelo://app?vid=017f93d7-eb0f-4b1a-94a4-58c962719523","ios":"levelo://app?vid=017f93d7-eb0f-4b1a-94a4-58c962719523"},"vehicle_type_id":"4","last_reported":1737976075,"current_range_meters":39200,"station_id":"ce4bgi12rcd13ifvqb70","pricing_plan_id":"cebpf4jnsgd1na2vs0mg"},{"bike_id":"dcb50635-0e5e-4da9-b4df-329e73a63f8f","system_id":"levelo_inurba_marseille","lat":43.24193,"lon":5.3974,"is_reserved":false,"is_disabled":false,"rental_uris":{"android":"levelo://app?vid=dcb50635-0e5e-4da9-b4df-329e73a63f8f","ios":"levelo://app?vid=dcb50635-0e5e-4da9-b4df-329e73a63f8f"},"vehicle_type_id":"4","last_reported":1737976075,"current_range_meters":24000,"station_id":"ce4bhn12rcd13ifvqgpg","pricing_plan_id":"cebpf4jnsgd1na2vs0mg"},{"bike_id":"98a2cb10-0f11-4a3f-b5c2-fb63add72da7","system_id":"levelo_inurba_marseille","lat":43.231885,"lon":5.355675,"is_reserved":false,"is_disabled":false,"rental_uris":{"android":"levelo://app?vid=98a2cb10-0f11-4a3f-b5c2-fb63add72da7","ios":"levelo://app?vid=98a2cb10-0f11-4a3f-b5c2-fb63add72da7"},"vehicle_type_id":"4","last_reported":1737976075,"current_range_meters":26000,"station_id":"ce4bhu92rcd13ifvqi70","pricing_plan_id":"cebpf4jnsgd1na2vs0mg"},{"bike_id":"1346ff93-9ddb-4093-aa5d-b6cb09dfef3c","system_id":"levelo_inurba_marseille","lat":43.28618,"lon":5.35072,"is_reserved":false,"is_disabled":false,"rental_uris":{"android":"levelo://app?vid=1346ff93-9ddb-4093-aa5d-b6cb09dfef3c","ios":"levelo://app?vid=1346ff93-9ddb-4093-aa5d-b6cb09dfef3c"},"vehicle_type_id":"4","last_reported":1737976075,"current_range_meters":38400,"station_id":"ce4bhch2rcd13ifvqeug","pricing_plan_id":"cebpf4jnsgd1na2vs0mg"},{"bike_id":"c78051e4-f108-4892-915f-d328c363bcb9","system_id":"levelo_inurba_marseille","lat":43.33599,"lon":5.41011,"is_reserved":false,"is_disabled":false,"rental_uris":{"android":"levelo://app?vid=c78051e4-f108-4892-915f-d328c363bcb9","ios":"levelo://app?vid=c78051e4-f108-4892-915f-d328c363bcb9"},"vehicle_type_id":"4","last_reported":1737976075,"current_range_meters":39200,"station_id":"ce4bhqh2rcd13ifvqhmg","pricing_plan_id":"cebpf4jnsgd1na2vs0mg"},{"bike_id":"1d29e75c-7e1e-408c-8ece-b7be92eb3fbf","system_id":"levelo_inurba_marseille","lat":43.32541,"lon":5.41447,"is_reserved":false,"is_disabled":false,"rental_uris":{"android":"levelo://app?vid=1d29e75c-7e1e-408c-8ece-b7be92eb3fbf","ios":"levelo://app?vid=1d29e75c-7e1e-408c-8ece-b7be92eb3fbf"},"vehicle_type_id":"4","last_reported":1737976075,"current_range_meters":20000,"station_id":"ce4bhq12rcd13ifvqhhg","pricing_plan_id":"cebpf4jnsgd1na2vs0mg"},{"bike_id":"38ffec2a-fc66-4d14-b825-4703e88f5460","system_id":"levelo_inurba_marseille","lat":43.32093,"lon":5.36759,"is_reserved":false,"is_disabled":true,"rental_uris":{"android":"levelo://app?vid=38ffec2a-fc66-4d14-b825-4703e88f5460","ios":"levelo://app?vid=38ffec2a-fc66-4d14-b825-4703e88f5460"},"vehicle_type_id":"4","last_reported":1737976075,"current_range_meters":25600,"station_id":"ce4bhrh2rcd13ifvqhug","pricing_plan_id":"cebpf4jnsgd1na2vs0mg"},{"bike_id":"f07253c8-6648-4865-8bec-733f295fbeac","system_id":"levelo_inurba_marseille","lat":43.28491,"lon":5.38553,"is_reserved":false,"is_disabled":false,"rental_uris":{"android":"levelo://app?vid=f07253c8-6648-4865-8bec-733f295fbeac","ios":"levelo://app?vid=f07253c8-6648-4865-8bec-733f295fbeac"},"vehicle_type_id":"4","last_reported":1737976075,"current_range_meters":35600,"station_id":"ce4bh8p2rcd13ifvqeb0","pricing_plan_id":"cebpf4jnsgd1na2vs0mg"},{"bike_id":"b01b0706-3a3a-4ff1-ac0d-6b17e48eff7a","system_id":"levelo_inurba_marseille","lat":43.2319,"lon":5.3555,"is_reserved":false,"is_disabled":false,"rental_uris":{"android":"levelo://app?vid=b01b0706-3a3a-4ff1-ac0d-6b17e48eff7a","ios":"levelo://app?vid=b01b0706-3a3a-4ff1-ac0d-6b17e48eff7a"},"vehicle_type_id":"4","last_reported":1737976075,"current_range_meters":36800,"station_id":"ce4bhu92rcd13ifvqi70","pricing_plan_id":"cebpf4jnsgd1na2vs0mg"},{"bike_id":"9484e110-1ca0-4803-9f9c-789c4e818300","system_id":"levelo_inurba_marseille","lat":43.25099,"lon":5.40319,"is_reserved":false,"is_disabled":false,"rental_uris":{"android":"levelo://app?vid=9484e110-1ca0-4803-9f9c-789c4e818300","ios":"levelo://app?vid=9484e110-1ca0-4803-9f9c-789c4e818300"},"vehicle_type_id":"4","last_reported":1737976075,"current_range_meters":14400,"station_id":"ce4bhlh2rcd13ifvqgig","pricing_plan_id":"cebpf4jnsgd1na2vs0mg"},{"bike_id":"51665612-a659-47ca-bc3c-f42e668c369e","system_id":"levelo_inurba_marseille","lat":43.30968,"lon":5.36796,"is_reserved":false,"is_disabled":false,"rental_uris":{"android":"levelo://app?vid=51665612-a659-47ca-bc3c-f42e668c369e","ios":"levelo://app?vid=51665612-a659-47ca-bc3c-f42e668c369e"},"vehicle_type_id":"4","last_reported":1737976075,"current_range_meters":12800,"station_id":"ce4bgn92rcd13ifvqbvg","pricing_plan_id":"cebpf4jnsgd1na2vs0mg"},{"bike_id":"82268c69-bcd8-49fb-91ea-6277b4711aa7","system_id":"levelo_inurba_marseille","lat":43.2555,"lon":5.39787,"is_reserved":false,"is_disabled":false,"rental_uris":{"android":"levelo://app?vid=82268c69-bcd8-49fb-91ea-6277b4711aa7","ios":"levelo://app?vid=82268c69-bcd8-49fb-91ea-6277b4711aa7"},"vehicle_type_id":"4","last_reported":1737976075,"current_range_meters":26800,"station_id":"","pricing_plan_id":"cebpf4jnsgd1na2vs0mg"},{"bike_id":"4f36bb3d-3d4d-4f60-913b-e55e33455695","system_id":"levelo_inurba_marseille","lat":43.30537,"lon":5.36539,"is_reserved":false,"is_disabled":false,"rental_uris":{"android":"levelo://app?vid=4f36bb3d-3d4d-4f60-913b-e55e33455695","ios":"levelo://app?vid=4f36bb3d-3d4d-4f60-913b-e55e33455695"},"vehicle_type_id":"4","last_reported":1737976075,"current_range_meters":38000,"station_id":"ce4bgs12rcd13ifvqcag","pricing_plan_id":"cebpf4jnsgd1na2vs0mg"},{"bike_id":"358ea70b-11d9-47fa-b75c-b7801a957d01","system_id":"levelo_inurba_marseille","lat":43.24004,"lon":5.37785,"is_reserved":false,"is_disabled":false,"rental_uris":{"android":"levelo://app?vid=358ea70b-11d9-47fa-b75c-b7801a957d01","ios":"levelo://app?vid=358ea70b-11d9-47fa-b75c-b7801a957d01"},"vehicle_type_id":"4","last_reported":1737976075,"current_range_meters":4400,"station_id":"","pricing_plan_id":"cebpf4jnsgd1na2vs0mg"},{"bike_id":"24cfb25a-4e6b-44c9-aa4f-740815d4798b","system_id":"levelo_inurba_marseille","lat":43.30299,"lon":5.36908,"is_reserved":false,"is_disabled":false,"rental_uris":{"android":"levelo://app?vid=24cfb25a-4e6b-44c9-aa4f-740815d4798b","ios":"levelo://app?vid=24cfb25a-4e6b-44c9-aa4f-740815d4798b"},"vehicle_type_id":"4","last_reported":1737976075,"current_range_meters":33600,"station_id":"ce4bgqh2rcd13ifvqc5g","pricing_plan_id":"cebpf4jnsgd1na2vs0mg"},{"bike_id":"f8be91bc-b542-43b7-ad02-fc720bcc287b","system_id":"levelo_inurba_marseille","lat":43.30143,"lon":5.38078,"is_reserved":false,"is_disabled":false,"rental_uris":{"android":"levelo://app?vid=f8be91bc-b542-43b7-ad02-fc720bcc287b","ios":"levelo://app?vid=f8be91bc-b542-43b7-ad02-fc720bcc287b"},"vehicle_type_id":"4","last_reported":1737976075,"current_range_meters":24400,"station_id":"ce4bgjp2rcd13ifvqbh0","pricing_plan_id":"cebpf4jnsgd1na2vs0mg"},{"bike_id":"01e1773c-3be5-489f-b890-a0907a952fb7","system_id":"levelo_inurba_marseille","lat":43.30474,"lon":5.37899,"is_reserved":false,"is_disabled":false,"rental_uris":{"android":"levelo://app?vid=01e1773c-3be5-489f-b890-a0907a952fb7","ios":"levelo://app?vid=01e1773c-3be5-489f-b890-a0907a952fb7"},"vehicle_type_id":"4","last_reported":1737976075,"current_range_meters":38800,"station_id":"ce4bgup2rcd13ifvqcn0","pricing_plan_id":"cebpf4jnsgd1na2vs0mg"},{"bike_id":"10b1a047-be93-49dc-bba5-67085f222023","system_id":"levelo_inurba_marseille","lat":43.25586,"lon":5.38246,"is_reserved":false,"is_disabled":false,"rental_uris":{"android":"levelo://app?vid=10b1a047-be93-49dc-bba5-67085f222023","ios":"levelo://app?vid=10b1a047-be93-49dc-bba5-67085f222023"},"vehicle_type_id":"4","last_reported":1737976075,"current_range_meters":36800,"station_id":"ce4bhih2rcd13ifvqfs0","pricing_plan_id":"cebpf4jnsgd1na2vs0mg"},{"bike_id":"67be7d0b-1560-41f0-b652-baf84ed45767","system_id":"levelo_inurba_marseille","lat":43.29559,"lon":5.42282,"is_reserved":false,"is_disabled":false,"rental_uris":{"android":"levelo://app?vid=67be7d0b-1560-41f0-b652-baf84ed45767","ios":"levelo://app?vid=67be7d0b-1560-41f0-b652-baf84ed45767"},"vehicle_type_id":"4","last_reported":1737976075,"current_range_meters":38000,"station_id":"ce4bhph2rcd13ifvqhdg","pricing_plan_id":"cebpf4jnsgd1na2vs0mg"},{"bike_id":"7fd84b68-8795-4b64-88b1-cc544e1d0969","system_id":"levelo_inurba_marseille","lat":43.28279,"lon":5.35072,"is_reserved":false,"is_disabled":false,"rental_uris":{"android":"levelo://app?vid=7fd84b68-8795-4b64-88b1-cc544e1d0969","ios":"levelo://app?vid=7fd84b68-8795-4b64-88b1-cc544e1d0969"},"vehicle_type_id":"4","last_reported":1737976075,"current_range_meters":38800,"station_id":"ce4bhbp2rcd13ifvqerg","pricing_plan_id":"cebpf4jnsgd1na2vs0mg"},{"bike_id":"b2687992-feae-4a39-a1c8-1d3f37049c29","system_id":"levelo_inurba_marseille","lat":43.32477,"lon":5.36563,"is_reserved":false,"is_disabled":false,"rental_uris":{"android":"levelo://app?vid=b2687992-feae-4a39-a1c8-1d3f37049c29","ios":"levelo://app?vid=b2687992-feae-4a39-a1c8-1d3f37049c29"},"vehicle_type_id":"4","last_reported":1737976075,"current_range_meters":28000,"station_id":"ce4bhs12rcd13ifvqhvg","pricing_plan_id":"cebpf4jnsgd1na2vs0mg"},{"bike_id":"59551bc9-7141-4735-b06c-610db512ea98","system_id":"levelo_inurba_marseille","lat":43.24807,"lon":5.37455,"is_reserved":false,"is_disabled":false,"rental_uris":{"android":"levelo://app?vid=59551bc9-7141-4735-b06c-610db512ea98","ios":"levelo://app?vid=59551bc9-7141-4735-b06c-610db512ea98"},"vehicle_type_id":"4","last_reported":1737976075,"current_range_meters":9200,"station_id":"ce4bhgh2rcd13ifvqfb0","pricing_plan_id":"cebpf4jnsgd1na2vs0mg"},{"bike_id":"ff68af14-5554-4f8d-a3de-4549d987f602","system_id":"levelo_inurba_marseille","lat":43.29906,"lon":5.43657,"is_reserved":false,"is_disabled":false,"rental_uris":{"android":"levelo://app?vid=ff68af14-5554-4f8d-a3de-4549d987f602","ios":"levelo://app?vid=ff68af14-5554-4f8d-a3de-4549d987f602"},"vehicle_type_id":"4","last_reported":1737976075,"current_range_meters":38800,"station_id":"ce4bhpp2rcd13ifvqhfg","pricing_plan_id":"cebpf4jnsgd1na2vs0mg"},{"bike_id":"fe3ebd14-84bb-4c82-995b-a0484bfee45f","system_id":"levelo_inurba_marseille","lat":43.24592,"lon":5.37803,"is_reserved":false,"is_disabled":false,"rental_uris":{"android":"levelo://app?vid=fe3ebd14-84bb-4c82-995b-a0484bfee45f","ios":"levelo://app?vid=fe3ebd14-84bb-4c82-995b-a0484bfee45f"},"vehicle_type_id":"4","last_reported":1737976075,"current_range_meters":12400,"station_id":"ce4bhgp2rcd13ifvqfd0","pricing_plan_id":"cebpf4jnsgd1na2vs0mg"},{"bike_id":"6ab4a966-ac79-4ad3-9e09-37426d59ca00","system_id":"levelo_inurba_marseille","lat":43.27068,"lon":5.42286,"is_reserved":false,"is_disabled":false,"rental_uris":{"android":"levelo://app?vid=6ab4a966-ac79-4ad3-9e09-37426d59ca00","ios":"levelo://app?vid=6ab4a966-ac79-4ad3-9e09-37426d59ca00"},"vehicle_type_id":"4","last_reported":1737976075,"current_range_meters":17600,"station_id":"ce4bhk92rcd13ifvqgb0","pricing_plan_id":"cebpf4jnsgd1na2vs0mg"},{"bike_id":"8820eed2-297e-4435-a873-a87cad8d58c6","system_id":"levelo_inurba_marseille","lat":43.30462,"lon":5.379,"is_reserved":false,"is_disabled":false,"rental_uris":{"android":"levelo://app?vid=8820eed2-297e-4435-a873-a87cad8d58c6","ios":"levelo://app?vid=8820eed2-297e-4435-a873-a87cad8d58c6"},"vehicle_type_id":"4","last_reported":1737976075,"current_range_meters":4400,"station_id":"ce4bgup2rcd13ifvqcn0","pricing_plan_id":"cebpf4jnsgd1na2vs0mg"},{"bike_id":"86b498e3-784c-4315-9910-77930c320efa","system_id":"levelo_inurba_marseille","lat":43.28612,"lon":5.37073,"is_reserved":false,"is_disabled":false,"rental_uris":{"android":"levelo://app?vid=86b498e3-784c-4315-9910-77930c320efa","ios":"levelo://app?vid=86b498e3-784c-4315-9910-77930c320efa"},"vehicle_type_id":"4","last_reported":1737976075,"current_range_meters":38000,"station_id":"ce4bht12rcd13ifvqi60","pricing_plan_id":"cebpf4jnsgd1na2vs0mg"},{"bike_id":"d4b96a79-6fba-47bf-8cf9-899b5e9182b4","system_id":"levelo_inurba_marseille","lat":43.26211,"lon":5.37924,"is_reserved":false,"is_disabled":false,"rental_uris":{"android":"levelo://app?vid=d4b96a79-6fba-47bf-8cf9-899b5e9182b4","ios":"levelo://app?vid=d4b96a79-6fba-47bf-8cf9-899b5e9182b4"},"vehicle_type_id":"4","last_reported":1737976075,"current_range_meters":14000,"station_id":"ce4bhjp2rcd13ifvqg90","pricing_plan_id":"cebpf4jnsgd1na2vs0mg"},{"bike_id":"e601be81-c2b1-438e-80e5-e798db71dca1","system_id":"levelo_inurba_marseille","lat":43.2987,"lon":5.39756,"is_reserved":false,"is_disabled":false,"rental_uris":{"android":"levelo://app?vid=e601be81-c2b1-438e-80e5-e798db71dca1","ios":"levelo://app?vid=e601be81-c2b1-438e-80e5-e798db71dca1"},"vehicle_type_id":"4","last_reported":1737976075,"current_range_meters":6000,"station_id":"ce4bh0h2rcd13ifvqd50","pricing_plan_id":"cebpf4jnsgd1na2vs0mg"},{"bike_id":"8c772f1a-bac2-41fc-878f-d0d152dc8c92","system_id":"levelo_inurba_marseille","lat":43.2916,"lon":5.38223,"is_reserved":false,"is_disabled":false,"rental_uris":{"android":"levelo://app?vid=8c772f1a-bac2-41fc-878f-d0d152dc8c92","ios":"levelo://app?vid=8c772f1a-bac2-41fc-878f-d0d152dc8c92"},"vehicle_type_id":"4","last_reported":1737976075,"current_range_meters":6400,"station_id":"","pricing_plan_id":"cebpf4jnsgd1na2vs0mg"},{"bike_id":"d44bf180-5f56-4e1f-af34-97d6e839728b","system_id":"levelo_inurba_marseille","lat":43.29542,"lon":5.38556,"is_reserved":false,"is_disabled":false,"rental_uris":{"android":"levelo://app?vid=d44bf180-5f56-4e1f-af34-97d6e839728b","ios":"levelo://app?vid=d44bf180-5f56-4e1f-af34-97d6e839728b"},"vehicle_type_id":"4","last_reported":1737976075,"current_range_meters":9600,"station_id":"","pricing_plan_id":"cebpf4jnsgd1na2vs0mg"},{"bike_id":"6d301d54-3fe2-456f-9752-1a1a8fa0c2b5","system_id":"levelo_inurba_marseille","lat":43.31375,"lon":5.36663,"is_reserved":false,"is_disabled":false,"rental_uris":{"android":"levelo://app?vid=6d301d54-3fe2-456f-9752-1a1a8fa0c2b5","ios":"levelo://app?vid=6d301d54-3fe2-456f-9752-1a1a8fa0c2b5"},"vehicle_type_id":"4","last_reported":1737976075,"current_range_meters":38800,"station_id":"","pricing_plan_id":"cebpf4jnsgd1na2vs0mg"},{"bike_id":"05d9d994-ea09-41ca-aeb8-dc4b233c543b","system_id":"levelo_inurba_marseille","lat":43.29028,"lon":5.38651,"is_reserved":false,"is_disabled":true,"rental_uris":{"android":"levelo://app?vid=05d9d994-ea09-41ca-aeb8-dc4b233c543b","ios":"levelo://app?vid=05d9d994-ea09-41ca-aeb8-dc4b233c543b"},"vehicle_type_id":"4","last_reported":1737976075,"current_range_meters":27600,"station_id":"ce4bh4p2rcd13ifvqe0g","pricing_plan_id":"cebpf4jnsgd1na2vs0mg"},{"bike_id":"98cd4406-dd34-4787-8914-5ea5d0100c14","system_id":"levelo_inurba_marseille","lat":43.26203,"lon":5.3793,"is_reserved":false,"is_disabled":false,"rental_uris":{"android":"levelo://app?vid=98cd4406-dd34-4787-8914-5ea5d0100c14","ios":"levelo://app?vid=98cd4406-dd34-4787-8914-5ea5d0100c14"},"vehicle_type_id":"4","last_reported":1737976075,"current_range_meters":38800,"station_id":"ce4bhjp2rcd13ifvqg90","pricing_plan_id":"cebpf4jnsgd1na2vs0mg"},{"bike_id":"fe8b5efd-2f5c-4283-a37f-d270a207f0a0","system_id":"levelo_inurba_marseille","lat":43.30425,"lon":5.3975,"is_reserved":false,"is_disabled":false,"rental_uris":{"android":"levelo://app?vid=fe8b5efd-2f5c-4283-a37f-d270a207f0a0","ios":"levelo://app?vid=fe8b5efd-2f5c-4283-a37f-d270a207f0a0"},"vehicle_type_id":"4","last_reported":1737976075,"current_range_meters":37600,"station_id":"ce4bh092rcd13ifvqd20","pricing_plan_id":"cebpf4jnsgd1na2vs0mg"},{"bike_id":"90f68ae7-fde8-4d41-90a1-7d95b7497ba6","system_id":"levelo_inurba_marseille","lat":43.29632,"lon":5.3811,"is_reserved":false,"is_disabled":false,"rental_uris":{"android":"levelo://app?vid=90f68ae7-fde8-4d41-90a1-7d95b7497ba6","ios":"levelo://app?vid=90f68ae7-fde8-4d41-90a1-7d95b7497ba6"},"vehicle_type_id":"4","last_reported":1737976075,"current_range_meters":17600,"station_id":"ce4bgl12rcd13ifvqbo0","pricing_plan_id":"cebpf4jnsgd1na2vs0mg"},{"bike_id":"88f2de76-3efd-4e44-82da-db5e3d83613a","system_id":"levelo_inurba_marseille","lat":43.2978,"lon":5.3934,"is_reserved":false,"is_disabled":false,"rental_uris":{"android":"levelo://app?vid=88f2de76-3efd-4e44-82da-db5e3d83613a","ios":"levelo://app?vid=88f2de76-3efd-4e44-82da-db5e3d83613a"},"vehicle_type_id":"4","last_reported":1737976075,"current_range_meters":30400,"station_id":"chh1huq6cuj3fo74tm60","pricing_plan_id":"cebpf4jnsgd1na2vs0mg"},{"bike_id":"0326cc55-8947-4d73-99b5-1b27c5124cb4","system_id":"levelo_inurba_marseille","lat":43.30889,"lon":5.37198,"is_reserved":false,"is_disabled":false,"rental_uris":{"android":"levelo://app?vid=0326cc55-8947-4d73-99b5-1b27c5124cb4","ios":"levelo://app?vid=0326cc55-8947-4d73-99b5-1b27c5124cb4"},"vehicle_type_id":"4","last_reported":1737976075,"current_range_meters":37600,"station_id":"ce4bguh2rcd13ifvqckg","pricing_plan_id":"cebpf4jnsgd1na2vs0mg"},{"bike_id":"f9173de2-2fa5-436f-a76b-3c96bd571284","system_id":"levelo_inurba_marseille","lat":43.29799,"lon":5.40422,"is_reserved":false,"is_disabled":false,"rental_uris":{"android":"levelo://app?vid=f9173de2-2fa5-436f-a76b-3c96bd571284","ios":"levelo://app?vid=f9173de2-2fa5-436f-a76b-3c96bd571284"},"vehicle_type_id":"4","last_reported":1737976075,"current_range_meters":38800,"station_id":"ce4bh112rcd13ifvqd90","pricing_plan_id":"cebpf4jnsgd1na2vs0mg"},{"bike_id":"7601beff-cfae-4db9-a7dc-678fe0a11e32","system_id":"levelo_inurba_marseille","lat":43.30783,"lon":5.37648,"is_reserved":false,"is_disabled":false,"rental_uris":{"android":"levelo://app?vid=7601beff-cfae-4db9-a7dc-678fe0a11e32","ios":"levelo://app?vid=7601beff-cfae-4db9-a7dc-678fe0a11e32"},"vehicle_type_id":"4","last_reported":1737976075,"current_range_meters":18000,"station_id":"ce4bgv92rcd13ifvqcq0","pricing_plan_id":"cebpf4jnsgd1na2vs0mg"},{"bike_id":"5f440627-d816-48bc-9bd4-e33461b4f815","system_id":"levelo_inurba_marseille","lat":43.30409,"lon":5.39771,"is_reserved":false,"is_disabled":false,"rental_uris":{"android":"levelo://app?vid=5f440627-d816-48bc-9bd4-e33461b4f815","ios":"levelo://app?vid=5f440627-d816-48bc-9bd4-e33461b4f815"},"vehicle_type_id":"4","last_reported":1737976075,"current_range_meters":39200,"station_id":"ce4bh092rcd13ifvqd20","pricing_plan_id":"cebpf4jnsgd1na2vs0mg"},{"bike_id":"cb11c4e4-37a9-44f4-9ccd-767b3b519e30","system_id":"levelo_inurba_marseille","lat":43.28476,"lon":5.38447,"is_reserved":false,"is_disabled":false,"rental_uris":{"android":"levelo://app?vid=cb11c4e4-37a9-44f4-9ccd-767b3b519e30","ios":"levelo://app?vid=cb11c4e4-37a9-44f4-9ccd-767b3b519e30"},"vehicle_type_id":"4","last_reported":1737976075,"current_range_meters":11200,"station_id":"ce4bh512rcd13ifvqe3g","pricing_plan_id":"cebpf4jnsgd1na2vs0mg"},{"bike_id":"c90dfe9a-5bc6-41cc-b94a-b39c973f0a8d","system_id":"levelo_inurba_marseille","lat":43.32649,"lon":5.4099,"is_reserved":false,"is_disabled":false,"rental_uris":{"android":"levelo://app?vid=c90dfe9a-5bc6-41cc-b94a-b39c973f0a8d","ios":"levelo://app?vid=c90dfe9a-5bc6-41cc-b94a-b39c973f0a8d"},"vehicle_type_id":"4","last_reported":1737976075,"current_range_meters":19200,"station_id":"ce4bhpp2rcd13ifvqhgg","pricing_plan_id":"cebpf4jnsgd1na2vs0mg"},{"bike_id":"fdb36f51-432c-416d-86ea-b9775fd707a3","system_id":"levelo_inurba_marseille","lat":43.33025,"lon":5.39042,"is_reserved":false,"is_disabled":false,"rental_uris":{"android":"levelo://app?vid=fdb36f51-432c-416d-86ea-b9775fd707a3","ios":"levelo://app?vid=fdb36f51-432c-416d-86ea-b9775fd707a3"},"vehicle_type_id":"4","last_reported":1737976075,"current_range_meters":33200,"station_id":"ce4bhr92rcd13ifvqhrg","pricing_plan_id":"cebpf4jnsgd1na2vs0mg"},{"bike_id":"26c5f55d-b689-44ba-bcbe-576c29c6025c","system_id":"levelo_inurba_marseille","lat":43.33722,"lon":5.39204,"is_reserved":false,"is_disabled":false,"rental_uris":{"android":"levelo://app?vid=26c5f55d-b689-44ba-bcbe-576c29c6025c","ios":"levelo://app?vid=26c5f55d-b689-44ba-bcbe-576c29c6025c"},"vehicle_type_id":"4","last_reported":1737976075,"current_range_meters":25200,"station_id":"ce4bhr92rcd13ifvqhsg","pricing_plan_id":"cebpf4jnsgd1na2vs0mg"},{"bike_id":"944ecfa4-1deb-441b-a89a-e1bce60c6518","system_id":"levelo_inurba_marseille","lat":43.27074,"lon":5.42314,"is_reserved":false,"is_disabled":false,"rental_uris":{"android":"levelo://app?vid=944ecfa4-1deb-441b-a89a-e1bce60c6518","ios":"levelo://app?vid=944ecfa4-1deb-441b-a89a-e1bce60c6518"},"vehicle_type_id":"4","last_reported":1737976075,"current_range_meters":39200,"station_id":"ce4bhk92rcd13ifvqgb0","pricing_plan_id":"cebpf4jnsgd1na2vs0mg"},{"bike_id":"699201df-a19d-40fb-be91-4b7891069666","system_id":"levelo_inurba_marseille","lat":43.31169,"lon":5.38721,"is_reserved":false,"is_disabled":false,"rental_uris":{"android":"levelo://app?vid=699201df-a19d-40fb-be91-4b7891069666","ios":"levelo://app?vid=699201df-a19d-40fb-be91-4b7891069666"},"vehicle_type_id":"4","last_reported":1737976075,"current_range_meters":38400,"station_id":"ce4bgv12rcd13ifvqcp0","pricing_plan_id":"cebpf4jnsgd1na2vs0mg"},{"bike_id":"cc692049-090f-4dd4-b9f6-1445b1c1f0d2","system_id":"levelo_inurba_marseille","lat":43.29723,"lon":5.37702,"is_reserved":false,"is_disabled":false,"rental_uris":{"android":"levelo://app?vid=cc692049-090f-4dd4-b9f6-1445b1c1f0d2","ios":"levelo://app?vid=cc692049-090f-4dd4-b9f6-1445b1c1f0d2"},"vehicle_type_id":"4","last_reported":1737976075,"current_range_meters":38800,"station_id":"ce4bgkh2rcd13ifvqbl0","pricing_plan_id":"cebpf4jnsgd1na2vs0mg"},{"bike_id":"72fc7064-1846-487e-96a4-630f70b59b22","system_id":"levelo_inurba_marseille","lat":43.2849,"lon":5.38577,"is_reserved":false,"is_disabled":false,"rental_uris":{"android":"levelo://app?vid=72fc7064-1846-487e-96a4-630f70b59b22","ios":"levelo://app?vid=72fc7064-1846-487e-96a4-630f70b59b22"},"vehicle_type_id":"4","last_reported":1737976075,"current_range_meters":14000,"station_id":"ce4bh8p2rcd13ifvqeb0","pricing_plan_id":"cebpf4jnsgd1na2vs0mg"},{"bike_id":"4ee7a4b2-dea3-4f4a-a76b-2d1e4fcbcafe","system_id":"levelo_inurba_marseille","lat":43.2845,"lon":5.38335,"is_reserved":false,"is_disabled":false,"rental_uris":{"android":"levelo://app?vid=4ee7a4b2-dea3-4f4a-a76b-2d1e4fcbcafe","ios":"levelo://app?vid=4ee7a4b2-dea3-4f4a-a76b-2d1e4fcbcafe"},"vehicle_type_id":"4","last_reported":1737976075,"current_range_meters":2800,"station_id":"ce4bh512rcd13ifvqe3g","pricing_plan_id":"cebpf4jnsgd1na2vs0mg"},{"bike_id":"c772779b-3b78-4143-a73c-c60232eed73c","system_id":"levelo_inurba_marseille","lat":43.32539,"lon":5.41454,"is_reserved":false,"is_disabled":false,"rental_uris":{"android":"levelo://app?vid=c772779b-3b78-4143-a73c-c60232eed73c","ios":"levelo://app?vid=c772779b-3b78-4143-a73c-c60232eed73c"},"vehicle_type_id":"4","last_reported":1737976075,"current_range_meters":36400,"station_id":"ce4bhq12rcd13ifvqhhg","pricing_plan_id":"cebpf4jnsgd1na2vs0mg"},{"bike_id":"02dd09e7-f949-4eb4-8bea-0f0d9af64a26","system_id":"levelo_inurba_marseille","lat":43.304674,"lon":5.379056,"is_reserved":false,"is_disabled":false,"rental_uris":{"android":"levelo://app?vid=02dd09e7-f949-4eb4-8bea-0f0d9af64a26","ios":"levelo://app?vid=02dd09e7-f949-4eb4-8bea-0f0d9af64a26"},"vehicle_type_id":"4","last_reported":1737976075,"current_range_meters":27200,"station_id":"ce4bgup2rcd13ifvqcn0","pricing_plan_id":"cebpf4jnsgd1na2vs0mg"},{"bike_id":"e3e26aee-15e1-425c-a48f-db58aa520742","system_id":"levelo_inurba_marseille","lat":43.23081,"lon":5.35508,"is_reserved":false,"is_disabled":false,"rental_uris":{"android":"levelo://app?vid=e3e26aee-15e1-425c-a48f-db58aa520742","ios":"levelo://app?vid=e3e26aee-15e1-425c-a48f-db58aa520742"},"vehicle_type_id":"4","last_reported":1737976075,"current_range_meters":38800,"station_id":"cpo3342slgdg3j2ifvpg","pricing_plan_id":"cebpf4jnsgd1na2vs0mg"},{"bike_id":"0e4c9352-8a30-48e4-ac25-ff2b209a6e6e","system_id":"levelo_inurba_marseille","lat":43.30303,"lon":5.37708,"is_reserved":false,"is_disabled":false,"rental_uris":{"android":"levelo://app?vid=0e4c9352-8a30-48e4-ac25-ff2b209a6e6e","ios":"levelo://app?vid=0e4c9352-8a30-48e4-ac25-ff2b209a6e6e"},"vehicle_type_id":"4","last_reported":1737976075,"current_range_meters":28800,"station_id":"ce4bguh2rcd13ifvqcj0","pricing_plan_id":"cebpf4jnsgd1na2vs0mg"},{"bike_id":"414e9e87-13c8-4dd8-9df6-7723400a2d87","system_id":"levelo_inurba_marseille","lat":43.25931,"lon":5.40928,"is_reserved":false,"is_disabled":false,"rental_uris":{"android":"levelo://app?vid=414e9e87-13c8-4dd8-9df6-7723400a2d87","ios":"levelo://app?vid=414e9e87-13c8-4dd8-9df6-7723400a2d87"},"vehicle_type_id":"4","last_reported":1737976075,"current_range_meters":38800,"station_id":"ce4bhm92rcd13ifvqglg","pricing_plan_id":"cebpf4jnsgd1na2vs0mg"},{"bike_id":"4f0d564d-d2c5-4d63-8272-ec4ed8b18df2","system_id":"levelo_inurba_marseille","lat":43.25959,"lon":5.40896,"is_reserved":false,"is_disabled":false,"rental_uris":{"android":"levelo://app?vid=4f0d564d-d2c5-4d63-8272-ec4ed8b18df2","ios":"levelo://app?vid=4f0d564d-d2c5-4d63-8272-ec4ed8b18df2"},"vehicle_type_id":"4","last_reported":1737976075,"current_range_meters":32000,"station_id":"ce4bhm92rcd13ifvqglg","pricing_plan_id":"cebpf4jnsgd1na2vs0mg"},{"bike_id":"7c78a755-c7f5-4f07-a96b-621451d47948","system_id":"levelo_inurba_marseille","lat":43.29904,"lon":5.43653,"is_reserved":false,"is_disabled":false,"rental_uris":{"android":"levelo://app?vid=7c78a755-c7f5-4f07-a96b-621451d47948","ios":"levelo://app?vid=7c78a755-c7f5-4f07-a96b-621451d47948"},"vehicle_type_id":"4","last_reported":1737976075,"current_range_meters":28000,"station_id":"ce4bhpp2rcd13ifvqhfg","pricing_plan_id":"cebpf4jnsgd1na2vs0mg"},{"bike_id":"8bc17420-8e8f-4e23-949f-644ecfc72724","system_id":"levelo_inurba_marseille","lat":43.27361,"lon":5.3626,"is_reserved":false,"is_disabled":false,"rental_uris":{"android":"levelo://app?vid=8bc17420-8e8f-4e23-949f-644ecfc72724","ios":"levelo://app?vid=8bc17420-8e8f-4e23-949f-644ecfc72724"},"vehicle_type_id":"4","last_reported":1737976075,"current_range_meters":38800,"station_id":"ce4bhbh2rcd13ifvqeo0","pricing_plan_id":"cebpf4jnsgd1na2vs0mg"},{"bike_id":"728edd33-1187-4296-b25c-b606d3c17288","system_id":"levelo_inurba_marseille","lat":43.293724,"lon":5.378453,"is_reserved":false,"is_disabled":false,"rental_uris":{"android":"levelo://app?vid=728edd33-1187-4296-b25c-b606d3c17288","ios":"levelo://app?vid=728edd33-1187-4296-b25c-b606d3c17288"},"vehicle_type_id":"4","last_reported":1737976075,"current_range_meters":39200,"station_id":"ce4bgjh2rcd13ifvqbf0","pricing_plan_id":"cebpf4jnsgd1na2vs0mg"},{"bike_id":"c26112a8-8b54-4e25-8902-1f4aa97eddd5","system_id":"levelo_inurba_marseille","lat":43.29033,"lon":5.37569,"is_reserved":false,"is_disabled":false,"rental_uris":{"android":"levelo://app?vid=c26112a8-8b54-4e25-8902-1f4aa97eddd5","ios":"levelo://app?vid=c26112a8-8b54-4e25-8902-1f4aa97eddd5"},"vehicle_type_id":"4","last_reported":1737976075,"current_range_meters":25600,"station_id":"ce4bh692rcd13ifvqe90","pricing_plan_id":"cebpf4jnsgd1na2vs0mg"},{"bike_id":"a48a4fa8-387b-4ecc-bc7a-c3f07822bf47","system_id":"levelo_inurba_marseille","lat":43.270675,"lon":5.392285,"is_reserved":false,"is_disabled":true,"rental_uris":{"android":"levelo://app?vid=a48a4fa8-387b-4ecc-bc7a-c3f07822bf47","ios":"levelo://app?vid=a48a4fa8-387b-4ecc-bc7a-c3f07822bf47"},"vehicle_type_id":"4","last_reported":1737976075,"current_range_meters":0,"station_id":"","pricing_plan_id":"cebpf4jnsgd1na2vs0mg"},{"bike_id":"afc4d53a-7a00-4e31-ba93-3fdb3be5f28e","system_id":"levelo_inurba_marseille","lat":43.24045,"lon":5.37798,"is_reserved":false,"is_disabled":false,"rental_uris":{"android":"levelo://app?vid=afc4d53a-7a00-4e31-ba93-3fdb3be5f28e","ios":"levelo://app?vid=afc4d53a-7a00-4e31-ba93-3fdb3be5f28e"},"vehicle_type_id":"4","last_reported":1737976075,"current_range_meters":38800,"station_id":"ce4bhnp2rcd13ifvqgvg","pricing_plan_id":"cebpf4jnsgd1na2vs0mg"},{"bike_id":"f083ce9c-1330-4457-abc6-57c4c2a195fd","system_id":"levelo_inurba_marseille","lat":43.29276,"lon":5.36844,"is_reserved":false,"is_disabled":false,"rental_uris":{"android":"levelo://app?vid=f083ce9c-1330-4457-abc6-57c4c2a195fd","ios":"levelo://app?vid=f083ce9c-1330-4457-abc6-57c4c2a195fd"},"vehicle_type_id":"4","last_reported":1737976075,"current_range_meters":38800,"station_id":"ce4bhbp2rcd13ifvqesg","pricing_plan_id":"cebpf4jnsgd1na2vs0mg"},{"bike_id":"a8d0380b-0a88-41c3-845f-e00ffb2cbc88","system_id":"levelo_inurba_marseille","lat":43.27996,"lon":5.39996,"is_reserved":false,"is_disabled":true,"rental_uris":{"android":"levelo://app?vid=a8d0380b-0a88-41c3-845f-e00ffb2cbc88","ios":"levelo://app?vid=a8d0380b-0a88-41c3-845f-e00ffb2cbc88"},"vehicle_type_id":"4","last_reported":1737976075,"current_range_meters":30400,"station_id":"ce4bho92rcd13ifvqh4g","pricing_plan_id":"cebpf4jnsgd1na2vs0mg"},{"bike_id":"ab4b2f25-068f-4c1f-b709-3c0cbf337322","system_id":"levelo_inurba_marseille","lat":43.23147,"lon":5.4373,"is_reserved":false,"is_disabled":false,"rental_uris":{"android":"levelo://app?vid=ab4b2f25-068f-4c1f-b709-3c0cbf337322","ios":"levelo://app?vid=ab4b2f25-068f-4c1f-b709-3c0cbf337322"},"vehicle_type_id":"4","last_reported":1737976075,"current_range_meters":6800,"station_id":"ce4bhmp2rcd13ifvqgog","pricing_plan_id":"cebpf4jnsgd1na2vs0mg"},{"bike_id":"94229cda-4639-49c7-9106-bc4cbf3a3095","system_id":"levelo_inurba_marseille","lat":43.26214,"lon":5.40492,"is_reserved":false,"is_disabled":false,"rental_uris":{"android":"levelo://app?vid=94229cda-4639-49c7-9106-bc4cbf3a3095","ios":"levelo://app?vid=94229cda-4639-49c7-9106-bc4cbf3a3095"},"vehicle_type_id":"4","last_reported":1737976075,"current_range_meters":6000,"station_id":"","pricing_plan_id":"cebpf4jnsgd1na2vs0mg"},{"bike_id":"163ea99b-f92d-4d0c-994a-40dbef84719a","system_id":"levelo_inurba_marseille","lat":43.24081,"lon":5.37747,"is_reserved":false,"is_disabled":false,"rental_uris":{"android":"levelo://app?vid=163ea99b-f92d-4d0c-994a-40dbef84719a","ios":"levelo://app?vid=163ea99b-f92d-4d0c-994a-40dbef84719a"},"vehicle_type_id":"4","last_reported":1737976075,"current_range_meters":38800,"station_id":"ce4bhnp2rcd13ifvqgvg","pricing_plan_id":"cebpf4jnsgd1na2vs0mg"},{"bike_id":"9c09af66-30f1-488d-910d-a8a905d02871","system_id":"levelo_inurba_marseille","lat":43.293818,"lon":5.379307,"is_reserved":false,"is_disabled":true,"rental_uris":{"android":"levelo://app?vid=9c09af66-30f1-488d-910d-a8a905d02871","ios":"levelo://app?vid=9c09af66-30f1-488d-910d-a8a905d02871"},"vehicle_type_id":"4","last_reported":1737976075,"current_range_meters":0,"station_id":"","pricing_plan_id":"cebpf4jnsgd1na2vs0mg"},{"bike_id":"9bf064de-b30a-4d7a-9efa-3bddb2234109","system_id":"levelo_inurba_marseille","lat":43.29042,"lon":5.39949,"is_reserved":false,"is_disabled":false,"rental_uris":{"android":"levelo://app?vid=9bf064de-b30a-4d7a-9efa-3bddb2234109","ios":"levelo://app?vid=9bf064de-b30a-4d7a-9efa-3bddb2234109"},"vehicle_type_id":"4","last_reported":1737976075,"current_range_meters":25200,"station_id":"ce4bh392rcd13ifvqdm0","pricing_plan_id":"cebpf4jnsgd1na2vs0mg"},{"bike_id":"22e948b1-900e-4a5c-9a5a-b682c4d5119c","system_id":"levelo_inurba_marseille","lat":43.23163,"lon":5.43716,"is_reserved":false,"is_disabled":false,"rental_uris":{"android":"levelo://app?vid=22e948b1-900e-4a5c-9a5a-b682c4d5119c","ios":"levelo://app?vid=22e948b1-900e-4a5c-9a5a-b682c4d5119c"},"vehicle_type_id":"4","last_reported":1737976075,"current_range_meters":24800,"station_id":"ce4bhmp2rcd13ifvqgog","pricing_plan_id":"cebpf4jnsgd1na2vs0mg"},{"bike_id":"c438c788-2c8f-4eda-8233-a8485c23c4af","system_id":"levelo_inurba_marseille","lat":43.30418,"lon":5.41287,"is_reserved":false,"is_disabled":true,"rental_uris":{"android":"levelo://app?vid=c438c788-2c8f-4eda-8233-a8485c23c4af","ios":"levelo://app?vid=c438c788-2c8f-4eda-8233-a8485c23c4af"},"vehicle_type_id":"4","last_reported":1737976075,"current_range_meters":0,"station_id":"ce4bhop2rcd13ifvqh8g","pricing_plan_id":"cebpf4jnsgd1na2vs0mg"},{"bike_id":"655b1c80-936c-4eff-86c8-1fb83ed97cc2","system_id":"levelo_inurba_marseille","lat":43.29027,"lon":5.38132,"is_reserved":false,"is_disabled":true,"rental_uris":{"android":"levelo://app?vid=655b1c80-936c-4eff-86c8-1fb83ed97cc2","ios":"levelo://app?vid=655b1c80-936c-4eff-86c8-1fb83ed97cc2"},"vehicle_type_id":"4","last_reported":1737976075,"current_range_meters":38400,"station_id":"ce4bh4p2rcd13ifvqe1g","pricing_plan_id":"cebpf4jnsgd1na2vs0mg"},{"bike_id":"8ce91b79-eec2-4449-82de-a212beac1c70","system_id":"levelo_inurba_marseille","lat":43.3071,"lon":5.37048,"is_reserved":false,"is_disabled":true,"rental_uris":{"android":"levelo://app?vid=8ce91b79-eec2-4449-82de-a212beac1c70","ios":"levelo://app?vid=8ce91b79-eec2-4449-82de-a212beac1c70"},"vehicle_type_id":"4","last_reported":1737976075,"current_range_meters":36800,"station_id":"","pricing_plan_id":"cebpf4jnsgd1na2vs0mg"},{"bike_id":"2e1f41c8-ee04-4d5e-b989-f8d2ceb8944f","system_id":"levelo_inurba_marseille","lat":43.2502,"lon":5.38956,"is_reserved":false,"is_disabled":false,"rental_uris":{"android":"levelo://app?vid=2e1f41c8-ee04-4d5e-b989-f8d2ceb8944f","ios":"levelo://app?vid=2e1f41c8-ee04-4d5e-b989-f8d2ceb8944f"},"vehicle_type_id":"4","last_reported":1737976075,"current_range_meters":27200,"station_id":"ce4bhgp2rcd13ifvqfd0","pricing_plan_id":"cebpf4jnsgd1na2vs0mg"},{"bike_id":"714bad54-c98e-48d1-9514-98a6d8144d82","system_id":"levelo_inurba_marseille","lat":43.3096,"lon":5.39029,"is_reserved":false,"is_disabled":false,"rental_uris":{"android":"levelo://app?vid=714bad54-c98e-48d1-9514-98a6d8144d82","ios":"levelo://app?vid=714bad54-c98e-48d1-9514-98a6d8144d82"},"vehicle_type_id":"4","last_reported":1737976075,"current_range_meters":25600,"station_id":"ce4bgup2rcd13ifvqco0","pricing_plan_id":"cebpf4jnsgd1na2vs0mg"},{"bike_id":"9467e29b-7f6b-4eb3-b15b-3d835cd18fed","system_id":"levelo_inurba_marseille","lat":43.29634,"lon":5.37143,"is_reserved":false,"is_disabled":false,"rental_uris":{"android":"levelo://app?vid=9467e29b-7f6b-4eb3-b15b-3d835cd18fed","ios":"levelo://app?vid=9467e29b-7f6b-4eb3-b15b-3d835cd18fed"},"vehicle_type_id":"4","last_reported":1737976075,"current_range_meters":39200,"station_id":"ce4bgnh2rcd13ifvqc0g","pricing_plan_id":"cebpf4jnsgd1na2vs0mg"},{"bike_id":"c0e9afac-3027-4e6b-b5e9-3196c155323d","system_id":"levelo_inurba_marseille","lat":43.32491,"lon":5.36581,"is_reserved":false,"is_disabled":false,"rental_uris":{"android":"levelo://app?vid=c0e9afac-3027-4e6b-b5e9-3196c155323d","ios":"levelo://app?vid=c0e9afac-3027-4e6b-b5e9-3196c155323d"},"vehicle_type_id":"4","last_reported":1737976075,"current_range_meters":18800,"station_id":"ce4bhs12rcd13ifvqhvg","pricing_plan_id":"cebpf4jnsgd1na2vs0mg"},{"bike_id":"e1ca76d3-5f70-4de5-ad64-856549b63764","system_id":"levelo_inurba_marseille","lat":43.3153,"lon":5.38031,"is_reserved":false,"is_disabled":false,"rental_uris":{"android":"levelo://app?vid=e1ca76d3-5f70-4de5-ad64-856549b63764","ios":"levelo://app?vid=e1ca76d3-5f70-4de5-ad64-856549b63764"},"vehicle_type_id":"4","last_reported":1737976075,"current_range_meters":39200,"station_id":"ce4bhsp2rcd13ifvqi50","pricing_plan_id":"cebpf4jnsgd1na2vs0mg"},{"bike_id":"292bdf2d-8919-4709-8437-9f1aa3e3e20f","system_id":"levelo_inurba_marseille","lat":43.29623,"lon":5.37719,"is_reserved":false,"is_disabled":false,"rental_uris":{"android":"levelo://app?vid=292bdf2d-8919-4709-8437-9f1aa3e3e20f","ios":"levelo://app?vid=292bdf2d-8919-4709-8437-9f1aa3e3e20f"},"vehicle_type_id":"4","last_reported":1737976075,"current_range_meters":12800,"station_id":"ce4bgi92rcd13ifvqb90","pricing_plan_id":"cebpf4jnsgd1na2vs0mg"},{"bike_id":"3d98c6ce-e80d-46e8-b577-648cd8c28632","system_id":"levelo_inurba_marseille","lat":43.34699,"lon":5.34741,"is_reserved":false,"is_disabled":true,"rental_uris":{"android":"levelo://app?vid=3d98c6ce-e80d-46e8-b577-648cd8c28632","ios":"levelo://app?vid=3d98c6ce-e80d-46e8-b577-648cd8c28632"},"vehicle_type_id":"4","last_reported":1737976075,"current_range_meters":0,"station_id":"","pricing_plan_id":"cebpf4jnsgd1na2vs0mg"},{"bike_id":"bc9360b9-fd0e-422d-9782-dd707d319d5c","system_id":"levelo_inurba_marseille","lat":43.30892,"lon":5.3684,"is_reserved":false,"is_disabled":true,"rental_uris":{"android":"levelo://app?vid=bc9360b9-fd0e-422d-9782-dd707d319d5c","ios":"levelo://app?vid=bc9360b9-fd0e-422d-9782-dd707d319d5c"},"vehicle_type_id":"4","last_reported":1737976075,"current_range_meters":35600,"station_id":"ce4bgn92rcd13ifvqbvg","pricing_plan_id":"cebpf4jnsgd1na2vs0mg"},{"bike_id":"66f2902c-7964-4ac9-9cf2-4ffc759a6b03","system_id":"levelo_inurba_marseille","lat":43.29078,"lon":5.37179,"is_reserved":false,"is_disabled":false,"rental_uris":{"android":"levelo://app?vid=66f2902c-7964-4ac9-9cf2-4ffc759a6b03","ios":"levelo://app?vid=66f2902c-7964-4ac9-9cf2-4ffc759a6b03"},"vehicle_type_id":"4","last_reported":1737976075,"current_range_meters":16400,"station_id":"ce4bh5p2rcd13ifvqe4g","pricing_plan_id":"cebpf4jnsgd1na2vs0mg"},{"bike_id":"6975cfd6-2081-4544-8ad1-47f93123d5f7","system_id":"levelo_inurba_marseille","lat":43.28705,"lon":5.40009,"is_reserved":false,"is_disabled":false,"rental_uris":{"android":"levelo://app?vid=6975cfd6-2081-4544-8ad1-47f93123d5f7","ios":"levelo://app?vid=6975cfd6-2081-4544-8ad1-47f93123d5f7"},"vehicle_type_id":"4","last_reported":1737976075,"current_range_meters":38800,"station_id":"ce4bho92rcd13ifvqh3g","pricing_plan_id":"cebpf4jnsgd1na2vs0mg"},{"bike_id":"16cba4e1-cb10-44ef-b1a1-eca95385335f","system_id":"levelo_inurba_marseille","lat":43.28425,"lon":5.34987,"is_reserved":false,"is_disabled":true,"rental_uris":{"android":"levelo://app?vid=16cba4e1-cb10-44ef-b1a1-eca95385335f","ios":"levelo://app?vid=16cba4e1-cb10-44ef-b1a1-eca95385335f"},"vehicle_type_id":"4","last_reported":1737976075,"current_range_meters":38000,"station_id":"ce4bhbh2rcd13ifvqepg","pricing_plan_id":"cebpf4jnsgd1na2vs0mg"},{"bike_id":"9c6c808c-2344-4484-b654-8a68fb115aa6","system_id":"levelo_inurba_marseille","lat":43.31118,"lon":5.36977,"is_reserved":false,"is_disabled":false,"rental_uris":{"android":"levelo://app?vid=9c6c808c-2344-4484-b654-8a68fb115aa6","ios":"levelo://app?vid=9c6c808c-2344-4484-b654-8a68fb115aa6"},"vehicle_type_id":"4","last_reported":1737976075,"current_range_meters":34800,"station_id":"","pricing_plan_id":"cebpf4jnsgd1na2vs0mg"},{"bike_id":"60f530e1-8cb2-4c58-99fd-6a6d2a354002","system_id":"levelo_inurba_marseille","lat":43.30181,"lon":5.37433,"is_reserved":false,"is_disabled":false,"rental_uris":{"android":"levelo://app?vid=60f530e1-8cb2-4c58-99fd-6a6d2a354002","ios":"levelo://app?vid=60f530e1-8cb2-4c58-99fd-6a6d2a354002"},"vehicle_type_id":"4","last_reported":1737976075,"current_range_meters":18000,"station_id":"ce4bgs92rcd13ifvqcc0","pricing_plan_id":"cebpf4jnsgd1na2vs0mg"},{"bike_id":"8fc5f132-29ed-47c1-bff0-bf17728d82ae","system_id":"levelo_inurba_marseille","lat":43.29382,"lon":5.37866,"is_reserved":false,"is_disabled":true,"rental_uris":{"android":"levelo://app?vid=8fc5f132-29ed-47c1-bff0-bf17728d82ae","ios":"levelo://app?vid=8fc5f132-29ed-47c1-bff0-bf17728d82ae"},"vehicle_type_id":"4","last_reported":1737976075,"current_range_meters":30000,"station_id":"ce4bgjh2rcd13ifvqbf0","pricing_plan_id":"cebpf4jnsgd1na2vs0mg"},{"bike_id":"a2345a01-f08f-4bdc-90d6-1d71f5df7703","system_id":"levelo_inurba_marseille","lat":43.32332,"lon":5.40628,"is_reserved":false,"is_disabled":false,"rental_uris":{"android":"levelo://app?vid=a2345a01-f08f-4bdc-90d6-1d71f5df7703","ios":"levelo://app?vid=a2345a01-f08f-4bdc-90d6-1d71f5df7703"},"vehicle_type_id":"4","last_reported":1737976075,"current_range_meters":33200,"station_id":"ce4bhq92rcd13ifvqhjg","pricing_plan_id":"cebpf4jnsgd1na2vs0mg"},{"bike_id":"b93508a9-7285-4064-afc8-6c7fe626dbd5","system_id":"levelo_inurba_marseille","lat":43.30484,"lon":5.37905,"is_reserved":false,"is_disabled":false,"rental_uris":{"android":"levelo://app?vid=b93508a9-7285-4064-afc8-6c7fe626dbd5","ios":"levelo://app?vid=b93508a9-7285-4064-afc8-6c7fe626dbd5"},"vehicle_type_id":"4","last_reported":1737976075,"current_range_meters":35600,"station_id":"ce4bgup2rcd13ifvqcn0","pricing_plan_id":"cebpf4jnsgd1na2vs0mg"},{"bike_id":"3bea0a95-cf74-46b9-9748-66e0ebf2c729","system_id":"levelo_inurba_marseille","lat":43.30545,"lon":5.36706,"is_reserved":false,"is_disabled":false,"rental_uris":{"android":"levelo://app?vid=3bea0a95-cf74-46b9-9748-66e0ebf2c729","ios":"levelo://app?vid=3bea0a95-cf74-46b9-9748-66e0ebf2c729"},"vehicle_type_id":"4","last_reported":1737976075,"current_range_meters":6400,"station_id":"ce4bgrp2rcd13ifvqc9g","pricing_plan_id":"cebpf4jnsgd1na2vs0mg"},{"bike_id":"91d66d54-aabf-44b7-ac3a-355a4b9e5628","system_id":"levelo_inurba_marseille","lat":43.24045,"lon":5.37767,"is_reserved":false,"is_disabled":true,"rental_uris":{"android":"levelo://app?vid=91d66d54-aabf-44b7-ac3a-355a4b9e5628","ios":"levelo://app?vid=91d66d54-aabf-44b7-ac3a-355a4b9e5628"},"vehicle_type_id":"4","last_reported":1737976075,"current_range_meters":36800,"station_id":"ce4bhnp2rcd13ifvqgvg","pricing_plan_id":"cebpf4jnsgd1na2vs0mg"},{"bike_id":"79cfbf55-97ec-4a5b-af3a-38bd70f71f3a","system_id":"levelo_inurba_marseille","lat":43.23199,"lon":5.35531,"is_reserved":false,"is_disabled":false,"rental_uris":{"android":"levelo://app?vid=79cfbf55-97ec-4a5b-af3a-38bd70f71f3a","ios":"levelo://app?vid=79cfbf55-97ec-4a5b-af3a-38bd70f71f3a"},"vehicle_type_id":"4","last_reported":1737976075,"current_range_meters":12000,"station_id":"ce4bhu92rcd13ifvqi70","pricing_plan_id":"cebpf4jnsgd1na2vs0mg"},{"bike_id":"b0f92b7d-88dc-46e6-9760-47b7a8a305ea","system_id":"levelo_inurba_marseille","lat":43.3031,"lon":5.36893,"is_reserved":false,"is_disabled":false,"rental_uris":{"android":"levelo://app?vid=b0f92b7d-88dc-46e6-9760-47b7a8a305ea","ios":"levelo://app?vid=b0f92b7d-88dc-46e6-9760-47b7a8a305ea"},"vehicle_type_id":"4","last_reported":1737976075,"current_range_meters":35600,"station_id":"ce4bgqh2rcd13ifvqc5g","pricing_plan_id":"cebpf4jnsgd1na2vs0mg"},{"bike_id":"7b3cbe79-55eb-4655-a151-dfe222604e2f","system_id":"levelo_inurba_marseille","lat":43.30972,"lon":5.39053,"is_reserved":false,"is_disabled":false,"rental_uris":{"android":"levelo://app?vid=7b3cbe79-55eb-4655-a151-dfe222604e2f","ios":"levelo://app?vid=7b3cbe79-55eb-4655-a151-dfe222604e2f"},"vehicle_type_id":"4","last_reported":1737976075,"current_range_meters":38800,"station_id":"ce4bgup2rcd13ifvqco0","pricing_plan_id":"cebpf4jnsgd1na2vs0mg"},{"bike_id":"fd9f94cc-10eb-4f64-922e-51b9810cf8db","system_id":"levelo_inurba_marseille","lat":43.26207,"lon":5.37937,"is_reserved":false,"is_disabled":false,"rental_uris":{"android":"levelo://app?vid=fd9f94cc-10eb-4f64-922e-51b9810cf8db","ios":"levelo://app?vid=fd9f94cc-10eb-4f64-922e-51b9810cf8db"},"vehicle_type_id":"4","last_reported":1737976075,"current_range_meters":29600,"station_id":"ce4bhjp2rcd13ifvqg90","pricing_plan_id":"cebpf4jnsgd1na2vs0mg"},{"bike_id":"f4a67fd7-7ba0-462e-b321-724410a83bc3","system_id":"levelo_inurba_marseille","lat":43.28617,"lon":5.35109,"is_reserved":false,"is_disabled":false,"rental_uris":{"android":"levelo://app?vid=f4a67fd7-7ba0-462e-b321-724410a83bc3","ios":"levelo://app?vid=f4a67fd7-7ba0-462e-b321-724410a83bc3"},"vehicle_type_id":"4","last_reported":1737976075,"current_range_meters":38400,"station_id":"ce4bhch2rcd13ifvqeug","pricing_plan_id":"cebpf4jnsgd1na2vs0mg"},{"bike_id":"bdebbab0-0b00-41a7-bbc1-15b12befe968","system_id":"levelo_inurba_marseille","lat":43.2465,"lon":5.38896,"is_reserved":false,"is_disabled":false,"rental_uris":{"android":"levelo://app?vid=bdebbab0-0b00-41a7-bbc1-15b12befe968","ios":"levelo://app?vid=bdebbab0-0b00-41a7-bbc1-15b12befe968"},"vehicle_type_id":"4","last_reported":1737976075,"current_range_meters":20800,"station_id":"ce4bhg12rcd13ifvqf60","pricing_plan_id":"cebpf4jnsgd1na2vs0mg"},{"bike_id":"a531e49c-bf0e-404d-b31b-e8ddb39ea5e0","system_id":"levelo_inurba_marseille","lat":43.27812,"lon":5.40719,"is_reserved":false,"is_disabled":false,"rental_uris":{"android":"levelo://app?vid=a531e49c-bf0e-404d-b31b-e8ddb39ea5e0","ios":"levelo://app?vid=a531e49c-bf0e-404d-b31b-e8ddb39ea5e0"},"vehicle_type_id":"4","last_reported":1737976075,"current_range_meters":20400,"station_id":"ce4bhnh2rcd13ifvqgtg","pricing_plan_id":"cebpf4jnsgd1na2vs0mg"},{"bike_id":"3d64d7d2-3259-40ac-8d44-5551c7d82c8a","system_id":"levelo_inurba_marseille","lat":43.23142,"lon":5.43737,"is_reserved":false,"is_disabled":false,"rental_uris":{"android":"levelo://app?vid=3d64d7d2-3259-40ac-8d44-5551c7d82c8a","ios":"levelo://app?vid=3d64d7d2-3259-40ac-8d44-5551c7d82c8a"},"vehicle_type_id":"4","last_reported":1737976075,"current_range_meters":30800,"station_id":"ce4bhmp2rcd13ifvqgog","pricing_plan_id":"cebpf4jnsgd1na2vs0mg"},{"bike_id":"22542214-ba23-456a-ac36-dceaba1ca177","system_id":"levelo_inurba_marseille","lat":43.30302,"lon":5.36897,"is_reserved":false,"is_disabled":false,"rental_uris":{"android":"levelo://app?vid=22542214-ba23-456a-ac36-dceaba1ca177","ios":"levelo://app?vid=22542214-ba23-456a-ac36-dceaba1ca177"},"vehicle_type_id":"4","last_reported":1737976075,"current_range_meters":35600,"station_id":"ce4bgqh2rcd13ifvqc5g","pricing_plan_id":"cebpf4jnsgd1na2vs0mg"},{"bike_id":"4008c5d4-accb-4981-8933-9e85f4cde128","system_id":"levelo_inurba_marseille","lat":43.23191,"lon":5.355566,"is_reserved":false,"is_disabled":false,"rental_uris":{"android":"levelo://app?vid=4008c5d4-accb-4981-8933-9e85f4cde128","ios":"levelo://app?vid=4008c5d4-accb-4981-8933-9e85f4cde128"},"vehicle_type_id":"4","last_reported":1737976075,"current_range_meters":17600,"station_id":"ce4bhu92rcd13ifvqi70","pricing_plan_id":"cebpf4jnsgd1na2vs0mg"},{"bike_id":"d453dde5-01e0-414a-86df-73d593b2df7a","system_id":"levelo_inurba_marseille","lat":43.30149,"lon":5.38081,"is_reserved":false,"is_disabled":false,"rental_uris":{"android":"levelo://app?vid=d453dde5-01e0-414a-86df-73d593b2df7a","ios":"levelo://app?vid=d453dde5-01e0-414a-86df-73d593b2df7a"},"vehicle_type_id":"4","last_reported":1737976075,"current_range_meters":15200,"station_id":"ce4bgjp2rcd13ifvqbh0","pricing_plan_id":"cebpf4jnsgd1na2vs0mg"},{"bike_id":"5c995afd-2cd1-49c1-8bf9-110c6b679d80","system_id":"levelo_inurba_marseille","lat":43.2396,"lon":5.37801,"is_reserved":false,"is_disabled":false,"rental_uris":{"android":"levelo://app?vid=5c995afd-2cd1-49c1-8bf9-110c6b679d80","ios":"levelo://app?vid=5c995afd-2cd1-49c1-8bf9-110c6b679d80"},"vehicle_type_id":"4","last_reported":1737976075,"current_range_meters":38800,"station_id":"","pricing_plan_id":"cebpf4jnsgd1na2vs0mg"},{"bike_id":"24b20b92-4648-41e7-a611-f750fb1b8448","system_id":"levelo_inurba_marseille","lat":43.3153,"lon":5.38051,"is_reserved":false,"is_disabled":false,"rental_uris":{"android":"levelo://app?vid=24b20b92-4648-41e7-a611-f750fb1b8448","ios":"levelo://app?vid=24b20b92-4648-41e7-a611-f750fb1b8448"},"vehicle_type_id":"4","last_reported":1737976075,"current_range_meters":22000,"station_id":"ce4bhsp2rcd13ifvqi50","pricing_plan_id":"cebpf4jnsgd1na2vs0mg"},{"bike_id":"74b98b9d-33c5-4daa-8644-f469fbfdd6eb","system_id":"levelo_inurba_marseille","lat":43.25863,"lon":5.39905,"is_reserved":false,"is_disabled":false,"rental_uris":{"android":"levelo://app?vid=74b98b9d-33c5-4daa-8644-f469fbfdd6eb","ios":"levelo://app?vid=74b98b9d-33c5-4daa-8644-f469fbfdd6eb"},"vehicle_type_id":"4","last_reported":1737976075,"current_range_meters":38800,"station_id":"ce4bhl92rcd13ifvqghg","pricing_plan_id":"cebpf4jnsgd1na2vs0mg"},{"bike_id":"af27571c-dbd9-4da4-85f4-96f3d0a1f3af","system_id":"levelo_inurba_marseille","lat":43.2502,"lon":5.38933,"is_reserved":false,"is_disabled":false,"rental_uris":{"android":"levelo://app?vid=af27571c-dbd9-4da4-85f4-96f3d0a1f3af","ios":"levelo://app?vid=af27571c-dbd9-4da4-85f4-96f3d0a1f3af"},"vehicle_type_id":"4","last_reported":1737976075,"current_range_meters":38800,"station_id":"ce4bhgp2rcd13ifvqfd0","pricing_plan_id":"cebpf4jnsgd1na2vs0mg"},{"bike_id":"c22f1200-7199-4709-bfbd-84df2b955aa6","system_id":"levelo_inurba_marseille","lat":43.27681,"lon":5.3889,"is_reserved":false,"is_disabled":false,"rental_uris":{"android":"levelo://app?vid=c22f1200-7199-4709-bfbd-84df2b955aa6","ios":"levelo://app?vid=c22f1200-7199-4709-bfbd-84df2b955aa6"},"vehicle_type_id":"4","last_reported":1737976075,"current_range_meters":22400,"station_id":"ce4bhi12rcd13ifvqfo0","pricing_plan_id":"cebpf4jnsgd1na2vs0mg"},{"bike_id":"d34327a1-f0de-4d8f-be65-c892bdcf6fdd","system_id":"levelo_inurba_marseille","lat":43.32496,"lon":5.36579,"is_reserved":false,"is_disabled":false,"rental_uris":{"android":"levelo://app?vid=d34327a1-f0de-4d8f-be65-c892bdcf6fdd","ios":"levelo://app?vid=d34327a1-f0de-4d8f-be65-c892bdcf6fdd"},"vehicle_type_id":"4","last_reported":1737976075,"current_range_meters":34800,"station_id":"ce4bhs12rcd13ifvqhvg","pricing_plan_id":"cebpf4jnsgd1na2vs0mg"},{"bike_id":"a24aa709-849e-4e51-91f9-6e9c6e4fae7b","system_id":"levelo_inurba_marseille","lat":43.30497,"lon":5.37905,"is_reserved":false,"is_disabled":false,"rental_uris":{"android":"levelo://app?vid=a24aa709-849e-4e51-91f9-6e9c6e4fae7b","ios":"levelo://app?vid=a24aa709-849e-4e51-91f9-6e9c6e4fae7b"},"vehicle_type_id":"4","last_reported":1737976075,"current_range_meters":11600,"station_id":"ce4bgup2rcd13ifvqcn0","pricing_plan_id":"cebpf4jnsgd1na2vs0mg"},{"bike_id":"b94fdf89-0ce8-4dcc-bffc-7005602a8b16","system_id":"levelo_inurba_marseille","lat":43.32484,"lon":5.36569,"is_reserved":false,"is_disabled":false,"rental_uris":{"android":"levelo://app?vid=b94fdf89-0ce8-4dcc-bffc-7005602a8b16","ios":"levelo://app?vid=b94fdf89-0ce8-4dcc-bffc-7005602a8b16"},"vehicle_type_id":"4","last_reported":1737976075,"current_range_meters":36400,"station_id":"ce4bhs12rcd13ifvqhvg","pricing_plan_id":"cebpf4jnsgd1na2vs0mg"},{"bike_id":"e30949e0-813b-420b-8cdc-027e5245e25a","system_id":"levelo_inurba_marseille","lat":43.23952,"lon":5.37795,"is_reserved":false,"is_disabled":false,"rental_uris":{"android":"levelo://app?vid=e30949e0-813b-420b-8cdc-027e5245e25a","ios":"levelo://app?vid=e30949e0-813b-420b-8cdc-027e5245e25a"},"vehicle_type_id":"4","last_reported":1737976075,"current_range_meters":38800,"station_id":"","pricing_plan_id":"cebpf4jnsgd1na2vs0mg"},{"bike_id":"1c77b5a7-82e9-4922-9962-ef4996df14e5","system_id":"levelo_inurba_marseille","lat":43.28501,"lon":5.3857,"is_reserved":false,"is_disabled":false,"rental_uris":{"android":"levelo://app?vid=1c77b5a7-82e9-4922-9962-ef4996df14e5","ios":"levelo://app?vid=1c77b5a7-82e9-4922-9962-ef4996df14e5"},