{"last_updated":1744460219,"ttl":60,"version":"2.2","data":{"bikes":[{"bike_id":"4b7ac3ea-e61b-4aae-836c-651da9be33e4","system_id":"levelo_inurba_marseille","lat":43.22928,"lon":5.3538,"is_reserved":false,"is_disabled":false,"rental_uris":{"android":"levelo://app?vid=4b7ac3ea-e61b-4aae-836c-651da9be33e4","ios":"levelo://app?vid=4b7ac3ea-e61b-4aae-836c-651da9be33e4"},"vehicle_type_id":"4","last_reported":1744460219,"current_range_meters":2800,"station_id":"cpo3532slgdg3j2ikp40","pricing_plan_id":"cebpf4jnsgd1na2vs0mg"},{"bike_id":"8fa87b4a-fc67-4a8f-be14-11b7676b7564","system_id":"levelo_inurba_marseille","lat":43.22932,"lon":5.35378,"is_reserved":false,"is_disabled":false,"rental_uris":{"android":"levelo://app?vid=8fa87b4a-fc67-4a8f-be14-11b7676b7564","ios":"levelo://app?vid=8fa87b4a-fc67-4a8f-be14-11b7676b7564"},"vehicle_type_id":"4","last_reported":1744460219,"current_range_meters":2800,"station_id":"cpo3532slgdg3j2ikp40","pricing_plan_id":"cebpf4jnsgd1na2vs0mg"},{"bike_id":"80180846-d52f-40a1-9413-7d2dea38fb72","system_id":"levelo_inurba_marseille","lat":43.30185,"lon":5.3661,"is_reserved":false,"is_disabled":false,"rental_uris":{"android":"levelo://app?vid=80180846-d52f-40a1-9413-7d2dea38fb72","ios":"levelo://app?vid=80180846-d52f-40a1-9413-7d2dea38fb72"},"vehicle_type_id":"4","last_reported":1744460219,"current_range_meters":2800,"station_id":"ce4bgrh2rcd13ifvqc8g","pricing_plan_id":"cebpf4jnsgd1na2vs0mg"},{"bike_id":"4913bce1-b396-47e9-9f2e-6e0f8a76172b","system_id":"levelo_inurba_marseille","lat":43.321043,"lon":5.367416,"is_reserved":false,"is_disabled":false,"rental_uris":{"android":"levelo://app?vid=4913bce1-b396-47e9-9f2e-6e0f8a76172b","ios":"levelo://app?vid=4913bce1-b396-47e9-9f2e-6e0f8a76172b"},"vehicle_type_id":"4","last_reported":1744460219,"current_range_meters":2800,"station_id":"ce4bhrh2rcd13ifvqhug","pricing_plan_id":"cebpf4jnsgd1na2vs0mg"},{"bike_id":"d1889f8d-31d8-4228-b1e6-f8b360ff7e5e","system_id":"levelo_inurba_marseille","lat":43.29267,"lon":5.38434,"is_reserved":false,"is_disabled":false,"rental_uris":{"android":"levelo://app?vid=d1889f8d-31d8-4228-b1e6-f8b360ff7e5e","ios":"levelo://app?vid=d1889f8d-31d8-4228-b1e6-f8b360ff7e5e"},"vehicle_type_id":"4","last_reported":1744460219,"current_range_meters":2800,"station_id":"ce4bh692rcd13ifvqea0","pricing_plan_id":"cebpf4jnsgd1na2vs0mg"},{"bike_id":"241e9731-a02a-46e4-86f1-cf6c0077236a","system_id":"levelo_inurba_marseille","lat":43.30905,"lon":5.36843,"is_reserved":false,"is_disabled":false,"rental_uris":{"android":"levelo://app?vid=241e9731-a02a-46e4-86f1-cf6c0077236a","ios":"levelo://app?vid=241e9731-a02a-46e4-86f1-cf6c0077236a"},"vehicle_type_id":"4","last_reported":1744460219,"current_range_meters":3200,"station_id":"ce4bgn92rcd13ifvqbvg","pricing_plan_id":"cebpf4jnsgd1na2vs0mg"},{"bike_id":"49141047-ecde-4470-bc05-332bbbc47ae8","system_id":"levelo_inurba_marseille","lat":43.30892,"lon":5.37182,"is_reserved":false,"is_disabled":false,"rental_uris":{"android":"levelo://app?vid=49141047-ecde-4470-bc05-332bbbc47ae8","ios":"levelo://app?vid=49141047-ecde-4470-bc05-332bbbc47ae8"},"vehicle_type_id":"4","last_reported":1744460219,"current_range_meters":3200,"station_id":"ce4bguh2rcd13ifvqckg","pricing_plan_id":"cebpf4jnsgd1na2vs0mg"},{"bike_id":"c54c2e88-d73e-4254-94e6-f22a7bcff242","system_id":"levelo_inurba_marseille","lat":43.21752,"lon":5.34614,"is_reserved":false,"is_disabled":false,"rental_uris":{"android":"levelo://app?vid=c54c2e88-d73e-4254-94e6-f22a7bcff242","ios":"levelo://app?vid=c54c2e88-d73e-4254-94e6-f22a7bcff242"},"vehicle_type_id":"4","last_reported":1744460219,"current_range_meters":3200,"station_id":"st_cvj6r9ubvosntc0bgbag","pricing_plan_id":"cebpf4jnsgd1na2vs0mg"},{"bike_id":"bf89a6eb-eb3a-406a-90e0-8265c34ee8bc","system_id":"levelo_inurba_marseille","lat":43.21189,"lon":5.35084,"is_reserved":false,"is_disabled":false,"rental_uris":{"android":"levelo://app?vid=bf89a6eb-eb3a-406a-90e0-8265c34ee8bc","ios":"levelo://app?vid=bf89a6eb-eb3a-406a-90e0-8265c34ee8bc"},"vehicle_type_id":"4","last_reported":1744460219,"current_range_meters":3200,"station_id":"st_cvj6sg6p6f1abm77japg","pricing_plan_id":"cebpf4jnsgd1na2vs0mg"},{"bike_id":"fee4982d-7b80-45ff-9187-090fb44610e5","system_id":"levelo_inurba_marseille","lat":43.240121,"lon":5.366308,"is_reserved":false,"is_disabled":false,"rental_uris":{"android":"levelo://app?vid=fee4982d-7b80-45ff-9187-090fb44610e5","ios":"levelo://app?vid=fee4982d-7b80-45ff-9187-090fb44610e5"},"vehicle_type_id":"4","last_reported":1744460219,"current_range_meters":3600,"station_id":"ce4bhi12rcd13ifvqfp0","pricing_plan_id":"cebpf4jnsgd1na2vs0mg"},{"bike_id":"5194f1af-6d85-43da-b2e8-dff87f5ca441","system_id":"levelo_inurba_marseille","lat":43.27317,"lon":5.39075,"is_reserved":false,"is_disabled":false,"rental_uris":{"android":"levelo://app?vid=5194f1af-6d85-43da-b2e8-dff87f5ca441","ios":"levelo://app?vid=5194f1af-6d85-43da-b2e8-dff87f5ca441"},"vehicle_type_id":"4","last_reported":1744460219,"current_range_meters":4000,"station_id":"ce4bhgp2rcd13ifvqfe0","pricing_plan_id":"cebpf4jnsgd1na2vs0mg"},{"bike_id":"977f7f95-50d4-4d10-904d-ff2e0e4f85a2","system_id":"levelo_inurba_marseille","lat":43.27213,"lon":5.39185,"is_reserved":false,"is_disabled":false,"rental_uris":{"android":"levelo://app?vid=977f7f95-50d4-4d10-904d-ff2e0e4f85a2","ios":"levelo://app?vid=977f7f95-50d4-4d10-904d-ff2e0e4f85a2"},"vehicle_type_id":"4","last_reported":1744460219,"current_range_meters":4400,"station_id":"ce4bhhp2rcd13ifvqfm0","pricing_plan_id":"cebpf4jnsgd1na2vs0mg"},{"bike_id":"9b493898-d610-4b1c-ace6-238a7334f35e","system_id":"levelo_inurba_marseille","lat":43.28354,"lon":5.38639,"is_reserved":false,"is_disabled":false,"rental_uris":{"android":"levelo://app?vid=9b493898-d610-4b1c-ace6-238a7334f35e","ios":"levelo://app?vid=9b493898-d610-4b1c-ace6-238a7334f35e"},"vehicle_type_id":"4","last_reported":1744460219,"current_range_meters":4400,"station_id":"ce4bh492rcd13ifvqdvg","pricing_plan_id":"cebpf4jnsgd1na2vs0mg"},{"bike_id":"984bb2aa-d82a-4281-90f1-1529bbc61000","system_id":"levelo_inurba_marseille","lat":43.29913,"lon":5.39275,"is_reserved":false,"is_disabled":false,"rental_uris":{"android":"levelo://app?vid=984bb2aa-d82a-4281-90f1-1529bbc61000","ios":"levelo://app?vid=984bb2aa-d82a-4281-90f1-1529bbc61000"},"vehicle_type_id":"4","last_reported":1744460219,"current_range_meters":4400,"station_id":"","pricing_plan_id":"cebpf4jnsgd1na2vs0mg"},{"bike_id":"457be3cf-e1e1-4d11-8d7c-377dc0cb03e9","system_id":"levelo_inurba_marseille","lat":43.30873,"lon":5.36809,"is_reserved":false,"is_disabled":false,"rental_uris":{"android":"levelo://app?vid=457be3cf-e1e1-4d11-8d7c-377dc0cb03e9","ios":"levelo://app?vid=457be3cf-e1e1-4d11-8d7c-377dc0cb03e9"},"vehicle_type_id":"4","last_reported":1744460219,"current_range_meters":4400,"station_id":"ce4bgn92rcd13ifvqbvg","pricing_plan_id":"cebpf4jnsgd1na2vs0mg"},{"bike_id":"380c803b-aa74-44dc-8923-c0be27db3656","system_id":"levelo_inurba_marseille","lat":43.21752,"lon":5.34602,"is_reserved":false,"is_disabled":false,"rental_uris":{"android":"levelo://app?vid=380c803b-aa74-44dc-8923-c0be27db3656","ios":"levelo://app?vid=380c803b-aa74-44dc-8923-c0be27db3656"},"vehicle_type_id":"4","last_reported":1744460219,"current_range_meters":4400,"station_id":"st_cvj6r9ubvosntc0bgbag","pricing_plan_id":"cebpf4jnsgd1na2vs0mg"},{"bike_id":"a9f344a9-b5c4-4c6f-adc4-6177f6c8159a","system_id":"levelo_inurba_marseille","lat":43.32824,"lon":5.39759,"is_reserved":false,"is_disabled":false,"rental_uris":{"android":"levelo://app?vid=a9f344a9-b5c4-4c6f-adc4-6177f6c8159a","ios":"levelo://app?vid=a9f344a9-b5c4-4c6f-adc4-6177f6c8159a"},"vehicle_type_id":"4","last_reported":1744460219,"current_range_meters":4400,"station_id":"","pricing_plan_id":"cebpf4jnsgd1na2vs0mg"},{"bike_id":"eab6cbfa-cb8e-47d7-b0d6-226ab7facec7","system_id":"levelo_inurba_marseille","lat":43.3172,"lon":5.42405,"is_reserved":false,"is_disabled":true,"rental_uris":{"android":"levelo://app?vid=eab6cbfa-cb8e-47d7-b0d6-226ab7facec7","ios":"levelo://app?vid=eab6cbfa-cb8e-47d7-b0d6-226ab7facec7"},"vehicle_type_id":"4","last_reported":1744460219,"current_range_meters":4400,"station_id":"ce4bhp92rcd13ifvqhbg","pricing_plan_id":"cebpf4jnsgd1na2vs0mg"},{"bike_id":"063354c9-0dc7-4015-9c95-f23789f489ec","system_id":"levelo_inurba_marseille","lat":43.28608,"lon":5.37067,"is_reserved":false,"is_disabled":false,"rental_uris":{"android":"levelo://app?vid=063354c9-0dc7-4015-9c95-f23789f489ec","ios":"levelo://app?vid=063354c9-0dc7-4015-9c95-f23789f489ec"},"vehicle_type_id":"4","last_reported":1744460219,"current_range_meters":4800,"station_id":"ce4bht12rcd13ifvqi60","pricing_plan_id":"cebpf4jnsgd1na2vs0mg"},{"bike_id":"fcb2121e-c6c9-4848-b3de-1bbb72d9634c","system_id":"levelo_inurba_marseille","lat":43.29097,"lon":5.38119,"is_reserved":false,"is_disabled":false,"rental_uris":{"android":"levelo://app?vid=fcb2121e-c6c9-4848-b3de-1bbb72d9634c","ios":"levelo://app?vid=fcb2121e-c6c9-4848-b3de-1bbb72d9634c"},"vehicle_type_id":"4","last_reported":1744460219,"current_range_meters":4800,"station_id":"ce4bh512rcd13ifvqe2g","pricing_plan_id":"cebpf4jnsgd1na2vs0mg"},{"bike_id":"ff42b3cd-c1dd-480a-9d8f-ab314210c6d3","system_id":"levelo_inurba_marseille","lat":43.2953,"lon":5.39031,"is_reserved":false,"is_disabled":false,"rental_uris":{"android":"levelo://app?vid=ff42b3cd-c1dd-480a-9d8f-ab314210c6d3","ios":"levelo://app?vid=ff42b3cd-c1dd-480a-9d8f-ab314210c6d3"},"vehicle_type_id":"4","last_reported":1744460219,"current_range_meters":5600,"station_id":"ce4bh3p2rcd13ifvqdp0","pricing_plan_id":"cebpf4jnsgd1na2vs0mg"},{"bike_id":"2834c428-5580-44bd-95d4-c5dbb52093cf","system_id":"levelo_inurba_marseille","lat":43.32342,"lon":5.40616,"is_reserved":false,"is_disabled":false,"rental_uris":{"android":"levelo://app?vid=2834c428-5580-44bd-95d4-c5dbb52093cf","ios":"levelo://app?vid=2834c428-5580-44bd-95d4-c5dbb52093cf"},"vehicle_type_id":"4","last_reported":1744460219,"current_range_meters":5600,"station_id":"ce4bhq92rcd13ifvqhjg","pricing_plan_id":"cebpf4jnsgd1na2vs0mg"},{"bike_id":"71815f79-64ce-4d90-b54f-cb880e946d32","system_id":"levelo_inurba_marseille","lat":43.30128,"lon":5.39853,"is_reserved":false,"is_disabled":false,"rental_uris":{"android":"levelo://app?vid=71815f79-64ce-4d90-b54f-cb880e946d32","ios":"levelo://app?vid=71815f79-64ce-4d90-b54f-cb880e946d32"},"vehicle_type_id":"4","last_reported":1744460219,"current_range_meters":5600,"station_id":"ce4bh0h2rcd13ifvqd40","pricing_plan_id":"cebpf4jnsgd1na2vs0mg"},{"bike_id":"1c36dca4-3a3b-4c91-930b-b16853fa8002","system_id":"levelo_inurba_marseille","lat":43.29228,"lon":5.36066,"is_reserved":false,"is_disabled":false,"rental_uris":{"android":"levelo://app?vid=1c36dca4-3a3b-4c91-930b-b16853fa8002","ios":"levelo://app?vid=1c36dca4-3a3b-4c91-930b-b16853fa8002"},"vehicle_type_id":"4","last_reported":1744460219,"current_range_meters":5600,"station_id":"ce4bhbh2rcd13ifvqeqg","pricing_plan_id":"cebpf4jnsgd1na2vs0mg"},{"bike_id":"ca934f8c-8acc-48fb-a1cb-6331a497c1aa","system_id":"levelo_inurba_marseille","lat":43.21191,"lon":5.35076,"is_reserved":false,"is_disabled":false,"rental_uris":{"android":"levelo://app?vid=ca934f8c-8acc-48fb-a1cb-6331a497c1aa","ios":"levelo://app?vid=ca934f8c-8acc-48fb-a1cb-6331a497c1aa"},"vehicle_type_id":"4","last_reported":1744460219,"current_range_meters":5600,"station_id":"cpo3342slgdg3j2ifvpg","pricing_plan_id":"cebpf4jnsgd1na2vs0mg"},{"bike_id":"926fb0a7-820c-4f62-bd23-584e294815aa","system_id":"levelo_inurba_marseille","lat":43.24179,"lon":5.39737,"is_reserved":false,"is_disabled":false,"rental_uris":{"android":"levelo://app?vid=926fb0a7-820c-4f62-bd23-584e294815aa","ios":"levelo://app?vid=926fb0a7-820c-4f62-bd23-584e294815aa"},"vehicle_type_id":"4","last_reported":1744460219,"current_range_meters":5600,"station_id":"ce4bhn12rcd13ifvqgpg","pricing_plan_id":"cebpf4jnsgd1na2vs0mg"},{"bike_id":"33ae457d-0b5c-4920-899f-2f367f0f54d1","system_id":"levelo_inurba_marseille","lat":43.26209,"lon":5.37447,"is_reserved":false,"is_disabled":false,"rental_uris":{"android":"levelo://app?vid=33ae457d-0b5c-4920-899f-2f367f0f54d1","ios":"levelo://app?vid=33ae457d-0b5c-4920-899f-2f367f0f54d1"},"vehicle_type_id":"4","last_reported":1744460219,"current_range_meters":6000,"station_id":"ce4bhgp2rcd13ifvqfc0","pricing_plan_id":"cebpf4jnsgd1na2vs0mg"},{"bike_id":"6db1710f-6f1d-479e-9252-200826f6bdf1","system_id":"levelo_inurba_marseille","lat":43.28846,"lon":5.3931,"is_reserved":false,"is_disabled":false,"rental_uris":{"android":"levelo://app?vid=6db1710f-6f1d-479e-9252-200826f6bdf1","ios":"levelo://app?vid=6db1710f-6f1d-479e-9252-200826f6bdf1"},"vehicle_type_id":"4","last_reported":1744460219,"current_range_meters":6000,"station_id":"ce4bh2p2rcd13ifvqdi0","pricing_plan_id":"cebpf4jnsgd1na2vs0mg"},{"bike_id":"535db1b2-4758-46da-b549-119ce1e111a2","system_id":"levelo_inurba_marseille","lat":43.248095,"lon":5.374597,"is_reserved":false,"is_disabled":false,"rental_uris":{"android":"levelo://app?vid=535db1b2-4758-46da-b549-119ce1e111a2","ios":"levelo://app?vid=535db1b2-4758-46da-b549-119ce1e111a2"},"vehicle_type_id":"4","last_reported":1744460219,"current_range_meters":6400,"station_id":"ce4bh192rcd13ifvqdd0","pricing_plan_id":"cebpf4jnsgd1na2vs0mg"},{"bike_id":"428b2a01-9ccf-45f4-bf72-1bb754a7f0d0","system_id":"levelo_inurba_marseille","lat":43.29004,"lon":5.35607,"is_reserved":false,"is_disabled":false,"rental_uris":{"android":"levelo://app?vid=428b2a01-9ccf-45f4-bf72-1bb754a7f0d0","ios":"levelo://app?vid=428b2a01-9ccf-45f4-bf72-1bb754a7f0d0"},"vehicle_type_id":"4","last_reported":1744460219,"current_range_meters":6000,"station_id":"ce4bhb92rcd13ifvqen0","pricing_plan_id":"cebpf4jnsgd1na2vs0mg"},{"bike_id":"e582044e-b391-448c-8dd9-539a8576b934","system_id":"levelo_inurba_marseille","lat":43.30317,"lon":5.36899,"is_reserved":false,"is_disabled":false,"rental_uris":{"android":"levelo://app?vid=e582044e-b391-448c-8dd9-539a8576b934","ios":"levelo://app?vid=e582044e-b391-448c-8dd9-539a8576b934"},"vehicle_type_id":"4","last_reported":1744460219,"current_range_meters":6400,"station_id":"ce4bgqh2rcd13ifvqc5g","pricing_plan_id":"cebpf4jnsgd1na2vs0mg"},{"bike_id":"34ec874b-4df6-4cb4-9b10-4ba9ef258c15","system_id":"levelo_inurba_marseille","lat":43.28171,"lon":5.42658,"is_reserved":false,"is_disabled":false,"rental_uris":{"android":"levelo://app?vid=34ec874b-4df6-4cb4-9b10-4ba9ef258c15","ios":"levelo://app?vid=34ec874b-4df6-4cb4-9b10-4ba9ef258c15"},"vehicle_type_id":"4","last_reported":1744460219,"current_range_meters":6400,"station_id":"ce4bhnh2rcd13ifvqgug","pricing_plan_id":"cebpf4jnsgd1na2vs0mg"},{"bike_id":"854ff500-09c7-4f15-9b82-728a4197f79a","system_id":"levelo_inurba_marseille","lat":43.262135,"lon":5.379338,"is_reserved":false,"is_disabled":false,"rental_uris":{"android":"levelo://app?vid=854ff500-09c7-4f15-9b82-728a4197f79a","ios":"levelo://app?vid=854ff500-09c7-4f15-9b82-728a4197f79a"},"vehicle_type_id":"4","last_reported":1744460219,"current_range_meters":6400,"station_id":"ce4bgjh2rcd13ifvqbg0","pricing_plan_id":"cebpf4jnsgd1na2vs0mg"},{"bike_id":"528bcf7c-dfdc-42f2-868e-fffc4b88d644","system_id":"levelo_inurba_marseille","lat":43.26573,"lon":5.39001,"is_reserved":false,"is_disabled":false,"rental_uris":{"android":"levelo://app?vid=528bcf7c-dfdc-42f2-868e-fffc4b88d644","ios":"levelo://app?vid=528bcf7c-dfdc-42f2-868e-fffc4b88d644"},"vehicle_type_id":"4","last_reported":1744460219,"current_range_meters":6800,"station_id":"ce4bhe12rcd13ifvqf30","pricing_plan_id":"cebpf4jnsgd1na2vs0mg"},{"bike_id":"64b5abe1-8702-45db-ba43-5cf6aede1ddd","system_id":"levelo_inurba_marseille","lat":43.239656,"lon":5.366243,"is_reserved":false,"is_disabled":false,"rental_uris":{"android":"levelo://app?vid=64b5abe1-8702-45db-ba43-5cf6aede1ddd","ios":"levelo://app?vid=64b5abe1-8702-45db-ba43-5cf6aede1ddd"},"vehicle_type_id":"4","last_reported":1744460219,"current_range_meters":6800,"station_id":"ce4bhi12rcd13ifvqfp0","pricing_plan_id":"cebpf4jnsgd1na2vs0mg"},{"bike_id":"6d1f80b1-80e0-4012-99d1-3f8172cadb63","system_id":"levelo_inurba_marseille","lat":43.24184,"lon":5.36387,"is_reserved":false,"is_disabled":false,"rental_uris":{"android":"levelo://app?vid=6d1f80b1-80e0-4012-99d1-3f8172cadb63","ios":"levelo://app?vid=6d1f80b1-80e0-4012-99d1-3f8172cadb63"},"vehicle_type_id":"4","last_reported":1744460219,"current_range_meters":6800,"station_id":"cpo36qri1sfpv3e86is0","pricing_plan_id":"cebpf4jnsgd1na2vs0mg"},{"bike_id":"8ee58055-72b1-4d18-93a4-2e01bf83fc60","system_id":"levelo_inurba_marseille","lat":43.262,"lon":5.37476,"is_reserved":false,"is_disabled":false,"rental_uris":{"android":"levelo://app?vid=8ee58055-72b1-4d18-93a4-2e01bf83fc60","ios":"levelo://app?vid=8ee58055-72b1-4d18-93a4-2e01bf83fc60"},"vehicle_type_id":"4","last_reported":1744460219,"current_range_meters":7200,"station_id":"ce4bhgp2rcd13ifvqfc0","pricing_plan_id":"cebpf4jnsgd1na2vs0mg"},{"bike_id":"29cc5e39-956a-4f11-9500-0d22d4915fff","system_id":"levelo_inurba_marseille","lat":43.23181,"lon":5.39983,"is_reserved":false,"is_disabled":false,"rental_uris":{"android":"levelo://app?vid=29cc5e39-956a-4f11-9500-0d22d4915fff","ios":"levelo://app?vid=29cc5e39-956a-4f11-9500-0d22d4915fff"},"vehicle_type_id":"4","last_reported":1744460219,"current_range_meters":7200,"station_id":"ce4bhn12rcd13ifvqgqg","pricing_plan_id":"cebpf4jnsgd1na2vs0mg"},{"bike_id":"7bd9729e-0f42-40fa-a285-562b5b6c898b","system_id":"levelo_inurba_marseille","lat":43.21201,"lon":5.35073,"is_reserved":false,"is_disabled":false,"rental_uris":{"android":"levelo://app?vid=7bd9729e-0f42-40fa-a285-562b5b6c898b","ios":"levelo://app?vid=7bd9729e-0f42-40fa-a285-562b5b6c898b"},"vehicle_type_id":"4","last_reported":1744460219,"current_range_meters":7200,"station_id":"st_cvj6sg6p6f1abm77japg","pricing_plan_id":"cebpf4jnsgd1na2vs0mg"},{"bike_id":"b650870f-5071-4b23-b340-9f931e329dac","system_id":"levelo_inurba_marseille","lat":43.28705,"lon":5.39993,"is_reserved":false,"is_disabled":false,"rental_uris":{"android":"levelo://app?vid=b650870f-5071-4b23-b340-9f931e329dac","ios":"levelo://app?vid=b650870f-5071-4b23-b340-9f931e329dac"},"vehicle_type_id":"4","last_reported":1744460219,"current_range_meters":7200,"station_id":"ce4bho92rcd13ifvqh3g","pricing_plan_id":"cebpf4jnsgd1na2vs0mg"},{"bike_id":"5bd38a1a-07f5-4f94-966e-d726d73a5aa4","system_id":"levelo_inurba_marseille","lat":43.26553,"lon":5.372851,"is_reserved":false,"is_disabled":false,"rental_uris":{"android":"levelo://app?vid=5bd38a1a-07f5-4f94-966e-d726d73a5aa4","ios":"levelo://app?vid=5bd38a1a-07f5-4f94-966e-d726d73a5aa4"},"vehicle_type_id":"4","last_reported":1744460219,"current_range_meters":7200,"station_id":"ce4bhg12rcd13ifvqf70","pricing_plan_id":"cebpf4jnsgd1na2vs0mg"},{"bike_id":"e5dec651-0b97-4bf0-a17c-ab07385ed30c","system_id":"levelo_inurba_marseille","lat":43.2175,"lon":5.34609,"is_reserved":false,"is_disabled":false,"rental_uris":{"android":"levelo://app?vid=e5dec651-0b97-4bf0-a17c-ab07385ed30c","ios":"levelo://app?vid=e5dec651-0b97-4bf0-a17c-ab07385ed30c"},"vehicle_type_id":"4","last_reported":1744460219,"current_range_meters":7200,"station_id":"st_cvj6r9ubvosntc0bgbag","pricing_plan_id":"cebpf4jnsgd1na2vs0mg"},{"bike_id":"ea628b22-b6a7-44f1-a072-501247a5d1a1","system_id":"levelo_inurba_marseille","lat":43.29906,"lon":5.43672,"is_reserved":false,"is_disabled":false,"rental_uris":{"android":"levelo://app?vid=ea628b22-b6a7-44f1-a072-501247a5d1a1","ios":"levelo://app?vid=ea628b22-b6a7-44f1-a072-501247a5d1a1"},"vehicle_type_id":"4","last_reported":1744460219,"current_range_meters":7200,"station_id":"ce4bhpp2rcd13ifvqhfg","pricing_plan_id":"cebpf4jnsgd1na2vs0mg"},{"bike_id":"612bae46-69bc-4732-ae84-7f3b428cf366","system_id":"levelo_inurba_marseille","lat":43.27928,"lon":5.39585,"is_reserved":false,"is_disabled":false,"rental_uris":{"android":"levelo://app?vid=612bae46-69bc-4732-ae84-7f3b428cf366","ios":"levelo://app?vid=612bae46-69bc-4732-ae84-7f3b428cf366"},"vehicle_type_id":"4","last_reported":1744460219,"current_range_meters":7200,"station_id":"ce4bhf92rcd13ifvqf40","pricing_plan_id":"cebpf4jnsgd1na2vs0mg"},{"bike_id":"70b79363-26ad-44f4-ae07-e85ad4456aba","system_id":"levelo_inurba_marseille","lat":43.27618,"lon":5.36129,"is_reserved":false,"is_disabled":false,"rental_uris":{"android":"levelo://app?vid=70b79363-26ad-44f4-ae07-e85ad4456aba","ios":"levelo://app?vid=70b79363-26ad-44f4-ae07-e85ad4456aba"},"vehicle_type_id":"4","last_reported":1744460219,"current_range_meters":7200,"station_id":"ce4bgj92rcd13ifvqbe0","pricing_plan_id":"cebpf4jnsgd1na2vs0mg"},{"bike_id":"94455896-0f19-4fae-bd72-9879f01fcd6e","system_id":"levelo_inurba_marseille","lat":43.29562,"lon":5.42305,"is_reserved":false,"is_disabled":true,"rental_uris":{"android":"levelo://app?vid=94455896-0f19-4fae-bd72-9879f01fcd6e","ios":"levelo://app?vid=94455896-0f19-4fae-bd72-9879f01fcd6e"},"vehicle_type_id":"4","last_reported":1744460219,"current_range_meters":7200,"station_id":"ce4bhph2rcd13ifvqhdg","pricing_plan_id":"cebpf4jnsgd1na2vs0mg"},{"bike_id":"e61fe563-e0d7-4e55-b01b-09cfb3ccf7f3","system_id":"levelo_inurba_marseille","lat":43.26554,"lon":5.37287,"is_reserved":false,"is_disabled":false,"rental_uris":{"android":"levelo://app?vid=e61fe563-e0d7-4e55-b01b-09cfb3ccf7f3","ios":"levelo://app?vid=e61fe563-e0d7-4e55-b01b-09cfb3ccf7f3"},"vehicle_type_id":"4","last_reported":1744460219,"current_range_meters":8000,"station_id":"ce4bhg12rcd13ifvqf70","pricing_plan_id":"cebpf4jnsgd1na2vs0mg"},{"bike_id":"34004beb-3eab-4fc2-ad24-47396eddca41","system_id":"levelo_inurba_marseille","lat":43.2867,"lon":5.36348,"is_reserved":false,"is_disabled":false,"rental_uris":{"android":"levelo://app?vid=34004beb-3eab-4fc2-ad24-47396eddca41","ios":"levelo://app?vid=34004beb-3eab-4fc2-ad24-47396eddca41"},"vehicle_type_id":"4","last_reported":1744460219,"current_range_meters":8000,"station_id":"ce4bhah2rcd13ifvqej0","pricing_plan_id":"cebpf4jnsgd1na2vs0mg"},{"bike_id":"3ac73e63-1619-4c1b-a7d0-7311424e94ef","system_id":"levelo_inurba_marseille","lat":43.2901,"lon":5.37635,"is_reserved":false,"is_disabled":false,"rental_uris":{"android":"levelo://app?vid=3ac73e63-1619-4c1b-a7d0-7311424e94ef","ios":"levelo://app?vid=3ac73e63-1619-4c1b-a7d0-7311424e94ef"},"vehicle_type_id":"4","last_reported":1744460219,"current_range_meters":8000,"station_id":"","pricing_plan_id":"cebpf4jnsgd1na2vs0mg"},{"bike_id":"61087c9c-58a2-45af-89fa-c020f9313355","system_id":"levelo_inurba_marseille","lat":43.21756,"lon":5.34605,"is_reserved":false,"is_disabled":true,"rental_uris":{"android":"levelo://app?vid=61087c9c-58a2-45af-89fa-c020f9313355","ios":"levelo://app?vid=61087c9c-58a2-45af-89fa-c020f9313355"},"vehicle_type_id":"4","last_reported":1744460219,"current_range_meters":8000,"station_id":"st_cvj6r9ubvosntc0bgbag","pricing_plan_id":"cebpf4jnsgd1na2vs0mg"},{"bike_id":"f4707e4c-c993-4b29-971a-dd4fb7346d93","system_id":"levelo_inurba_marseille","lat":43.29095,"lon":5.38133,"is_reserved":false,"is_disabled":false,"rental_uris":{"android":"levelo://app?vid=f4707e4c-c993-4b29-971a-dd4fb7346d93","ios":"levelo://app?vid=f4707e4c-c993-4b29-971a-dd4fb7346d93"},"vehicle_type_id":"4","last_reported":1744460219,"current_range_meters":8000,"station_id":"ce4bh512rcd13ifvqe2g","pricing_plan_id":"cebpf4jnsgd1na2vs0mg"},{"bike_id":"3f08cc69-711e-4264-b923-68891203ffa4","system_id":"levelo_inurba_marseille","lat":43.32285,"lon":5.38243,"is_reserved":false,"is_disabled":false,"rental_uris":{"android":"levelo://app?vid=3f08cc69-711e-4264-b923-68891203ffa4","ios":"levelo://app?vid=3f08cc69-711e-4264-b923-68891203ffa4"},"vehicle_type_id":"4","last_reported":1744460219,"current_range_meters":8000,"station_id":"ce4bhr12rcd13ifvqhqg","pricing_plan_id":"cebpf4jnsgd1na2vs0mg"},{"bike_id":"1ac19b6a-4c6f-4d4d-901c-dd1716ba1b48","system_id":"levelo_inurba_marseille","lat":43.30959,"lon":5.4047,"is_reserved":false,"is_disabled":false,"rental_uris":{"android":"levelo://app?vid=1ac19b6a-4c6f-4d4d-901c-dd1716ba1b48","ios":"levelo://app?vid=1ac19b6a-4c6f-4d4d-901c-dd1716ba1b48"},"vehicle_type_id":"4","last_reported":1744460219,"current_range_meters":8400,"station_id":"","pricing_plan_id":"cebpf4jnsgd1na2vs0mg"},{"bike_id":"cc83a7aa-57a1-4769-9137-8531613b4691","system_id":"levelo_inurba_marseille","lat":43.3127,"lon":5.37302,"is_reserved":false,"is_disabled":false,"rental_uris":{"android":"levelo://app?vid=cc83a7aa-57a1-4769-9137-8531613b4691","ios":"levelo://app?vid=cc83a7aa-57a1-4769-9137-8531613b4691"},"vehicle_type_id":"4","last_reported":1744460219,"current_range_meters":8400,"station_id":"","pricing_plan_id":"cebpf4jnsgd1na2vs0mg"},{"bike_id":"173bc9a4-de98-43a8-b692-4fbb90439da0","system_id":"levelo_inurba_marseille","lat":43.31997,"lon":5.38158,"is_reserved":false,"is_disabled":false,"rental_uris":{"android":"levelo://app?vid=173bc9a4-de98-43a8-b692-4fbb90439da0","ios":"levelo://app?vid=173bc9a4-de98-43a8-b692-4fbb90439da0"},"vehicle_type_id":"4","last_reported":1744460219,"current_range_meters":8400,"station_id":"ce4bhr12rcd13ifvqhpg","pricing_plan_id":"cebpf4jnsgd1na2vs0mg"},{"bike_id":"faf32c94-edb9-4d69-abd2-ba36c21f836f","system_id":"levelo_inurba_marseille","lat":43.21192,"lon":5.35072,"is_reserved":false,"is_disabled":false,"rental_uris":{"android":"levelo://app?vid=faf32c94-edb9-4d69-abd2-ba36c21f836f","ios":"levelo://app?vid=faf32c94-edb9-4d69-abd2-ba36c21f836f"},"vehicle_type_id":"4","last_reported":1744460219,"current_range_meters":8400,"station_id":"st_cvj6sg6p6f1abm77japg","pricing_plan_id":"cebpf4jnsgd1na2vs0mg"},{"bike_id":"d6c423ad-693a-42e8-bcad-89087df9e68f","system_id":"levelo_inurba_marseille","lat":43.24189,"lon":5.39717,"is_reserved":false,"is_disabled":false,"rental_uris":{"android":"levelo://app?vid=d6c423ad-693a-42e8-bcad-89087df9e68f","ios":"levelo://app?vid=d6c423ad-693a-42e8-bcad-89087df9e68f"},"vehicle_type_id":"4","last_reported":1744460219,"current_range_meters":8800,"station_id":"ce4bhn12rcd13ifvqgpg","pricing_plan_id":"cebpf4jnsgd1na2vs0mg"},{"bike_id":"38183908-6893-4dfa-95e8-c1565a94cb53","system_id":"levelo_inurba_marseille","lat":43.23212,"lon":5.35554,"is_reserved":false,"is_disabled":false,"rental_uris":{"android":"levelo://app?vid=38183908-6893-4dfa-95e8-c1565a94cb53","ios":"levelo://app?vid=38183908-6893-4dfa-95e8-c1565a94cb53"},"vehicle_type_id":"4","last_reported":1744460219,"current_range_meters":8400,"station_id":"ce4bhu92rcd13ifvqi70","pricing_plan_id":"cebpf4jnsgd1na2vs0mg"},{"bike_id":"b105010c-b749-48b7-8743-e65c5024e2fe","system_id":"levelo_inurba_marseille","lat":43.25142,"lon":5.40328,"is_reserved":false,"is_disabled":false,"rental_uris":{"android":"levelo://app?vid=b105010c-b749-48b7-8743-e65c5024e2fe","ios":"levelo://app?vid=b105010c-b749-48b7-8743-e65c5024e2fe"},"vehicle_type_id":"4","last_reported":1744460219,"current_range_meters":8800,"station_id":"ce4bhlh2rcd13ifvqgig","pricing_plan_id":"cebpf4jnsgd1na2vs0mg"},{"bike_id":"d0c5ec72-dcbe-481b-8c74-d171a15b8a6f","system_id":"levelo_inurba_marseille","lat":43.28463,"lon":5.35895,"is_reserved":false,"is_disabled":false,"rental_uris":{"android":"levelo://app?vid=d0c5ec72-dcbe-481b-8c74-d171a15b8a6f","ios":"levelo://app?vid=d0c5ec72-dcbe-481b-8c74-d171a15b8a6f"},"vehicle_type_id":"4","last_reported":1744460219,"current_range_meters":8800,"station_id":"ce4bhah2rcd13ifvqei0","pricing_plan_id":"cebpf4jnsgd1na2vs0mg"},{"bike_id":"e888f123-e136-42a3-b022-cce0a60f4c5b","system_id":"levelo_inurba_marseille","lat":43.26678,"lon":5.38269,"is_reserved":false,"is_disabled":false,"rental_uris":{"android":"levelo://app?vid=e888f123-e136-42a3-b022-cce0a60f4c5b","ios":"levelo://app?vid=e888f123-e136-42a3-b022-cce0a60f4c5b"},"vehicle_type_id":"4","last_reported":1744460219,"current_range_meters":8400,"station_id":"ce4bhg92rcd13ifvqf90","pricing_plan_id":"cebpf4jnsgd1na2vs0mg"},{"bike_id":"72adaa87-94dc-4774-aca0-5147bc57bd16","system_id":"levelo_inurba_marseille","lat":43.26031,"lon":5.41732,"is_reserved":false,"is_disabled":false,"rental_uris":{"android":"levelo://app?vid=72adaa87-94dc-4774-aca0-5147bc57bd16","ios":"levelo://app?vid=72adaa87-94dc-4774-aca0-5147bc57bd16"},"vehicle_type_id":"4","last_reported":1744460219,"current_range_meters":8800,"station_id":"","pricing_plan_id":"cebpf4jnsgd1na2vs0mg"},{"bike_id":"053908f6-9674-4808-aea5-70d6f05fbed7","system_id":"levelo_inurba_marseille","lat":43.32665,"lon":5.40993,"is_reserved":false,"is_disabled":false,"rental_uris":{"android":"levelo://app?vid=053908f6-9674-4808-aea5-70d6f05fbed7","ios":"levelo://app?vid=053908f6-9674-4808-aea5-70d6f05fbed7"},"vehicle_type_id":"4","last_reported":1744460219,"current_range_meters":8400,"station_id":"ce4bhpp2rcd13ifvqhgg","pricing_plan_id":"cebpf4jnsgd1na2vs0mg"},{"bike_id":"519b7ee8-7b55-4adf-82e8-e222971b4751","system_id":"levelo_inurba_marseille","lat":43.271646,"lon":5.362674,"is_reserved":false,"is_disabled":false,"rental_uris":{"android":"levelo://app?vid=519b7ee8-7b55-4adf-82e8-e222971b4751","ios":"levelo://app?vid=519b7ee8-7b55-4adf-82e8-e222971b4751"},"vehicle_type_id":"4","last_reported":1744460219,"current_range_meters":8800,"station_id":"ce4bhh12rcd13ifvqff0","pricing_plan_id":"cebpf4jnsgd1na2vs0mg"},{"bike_id":"181601c7-c22b-47ef-9d41-76362b3687f5","system_id":"levelo_inurba_marseille","lat":43.28852,"lon":5.39303,"is_reserved":false,"is_disabled":false,"rental_uris":{"android":"levelo://app?vid=181601c7-c22b-47ef-9d41-76362b3687f5","ios":"levelo://app?vid=181601c7-c22b-47ef-9d41-76362b3687f5"},"vehicle_type_id":"4","last_reported":1744460219,"current_range_meters":8800,"station_id":"ce4bh2p2rcd13ifvqdi0","pricing_plan_id":"cebpf4jnsgd1na2vs0mg"},{"bike_id":"3cb71dd9-0e89-4cb1-9b6f-54849838ae67","system_id":"levelo_inurba_marseille","lat":43.24813,"lon":5.37459,"is_reserved":false,"is_disabled":false,"rental_uris":{"android":"levelo://app?vid=3cb71dd9-0e89-4cb1-9b6f-54849838ae67","ios":"levelo://app?vid=3cb71dd9-0e89-4cb1-9b6f-54849838ae67"},"vehicle_type_id":"4","last_reported":1744460219,"current_range_meters":9200,"station_id":"ce4bhgh2rcd13ifvqfb0","pricing_plan_id":"cebpf4jnsgd1na2vs0mg"},{"bike_id":"bc79be4a-ab59-4e6a-a605-b8c28dcacfe4","system_id":"levelo_inurba_marseille","lat":43.3055,"lon":5.38422,"is_reserved":false,"is_disabled":false,"rental_uris":{"android":"levelo://app?vid=bc79be4a-ab59-4e6a-a605-b8c28dcacfe4","ios":"levelo://app?vid=bc79be4a-ab59-4e6a-a605-b8c28dcacfe4"},"vehicle_type_id":"4","last_reported":1744460219,"current_range_meters":9200,"station_id":"ce4bgg92rcd13ifvqb30","pricing_plan_id":"cebpf4jnsgd1na2vs0mg"},{"bike_id":"276d5276-c1eb-42b0-982a-6a9857625170","system_id":"levelo_inurba_marseille","lat":43.29688,"lon":5.37301,"is_reserved":false,"is_disabled":false,"rental_uris":{"android":"levelo://app?vid=276d5276-c1eb-42b0-982a-6a9857625170","ios":"levelo://app?vid=276d5276-c1eb-42b0-982a-6a9857625170"},"vehicle_type_id":"4","last_reported":1744460219,"current_range_meters":9200,"station_id":"ce4bgk12rcd13ifvqbj0","pricing_plan_id":"cebpf4jnsgd1na2vs0mg"},{"bike_id":"80f5992c-b183-460d-8d1b-4c42a2b4d72f","system_id":"levelo_inurba_marseille","lat":43.24166,"lon":5.39719,"is_reserved":false,"is_disabled":false,"rental_uris":{"android":"levelo://app?vid=80f5992c-b183-460d-8d1b-4c42a2b4d72f","ios":"levelo://app?vid=80f5992c-b183-460d-8d1b-4c42a2b4d72f"},"vehicle_type_id":"4","last_reported":1744460219,"current_range_meters":9200,"station_id":"ce4bhn12rcd13ifvqgpg","pricing_plan_id":"cebpf4jnsgd1na2vs0mg"},{"bike_id":"49815a2a-260e-4cfc-8823-51f23577d634","system_id":"levelo_inurba_marseille","lat":43.21191,"lon":5.35066,"is_reserved":false,"is_disabled":false,"rental_uris":{"android":"levelo://app?vid=49815a2a-260e-4cfc-8823-51f23577d634","ios":"levelo://app?vid=49815a2a-260e-4cfc-8823-51f23577d634"},"vehicle_type_id":"4","last_reported":1744460219,"current_range_meters":9200,"station_id":"st_cvj6sg6p6f1abm77japg","pricing_plan_id":"cebpf4jnsgd1na2vs0mg"},{"bike_id":"23b2fa6c-0012-4b68-8384-9f2b04c42a6c","system_id":"levelo_inurba_marseille","lat":43.31278,"lon":5.4017,"is_reserved":false,"is_disabled":false,"rental_uris":{"android":"levelo://app?vid=23b2fa6c-0012-4b68-8384-9f2b04c42a6c","ios":"levelo://app?vid=23b2fa6c-0012-4b68-8384-9f2b04c42a6c"},"vehicle_type_id":"4","last_reported":1744460219,"current_range_meters":9200,"station_id":"ce4bh092rcd13ifvqd30","pricing_plan_id":"cebpf4jnsgd1na2vs0mg"},{"bike_id":"22a6b5f3-584c-4390-a778-a3bcf2e28754","system_id":"levelo_inurba_marseille","lat":43.26198,"lon":5.37935,"is_reserved":false,"is_disabled":false,"rental_uris":{"android":"levelo://app?vid=22a6b5f3-584c-4390-a778-a3bcf2e28754","ios":"levelo://app?vid=22a6b5f3-584c-4390-a778-a3bcf2e28754"},"vehicle_type_id":"4","last_reported":1744460219,"current_range_meters":8800,"station_id":"ce4bhjp2rcd13ifvqg90","pricing_plan_id":"cebpf4jnsgd1na2vs0mg"},{"bike_id":"55475846-4826-4e39-aef5-c665d76d0159","system_id":"levelo_inurba_marseille","lat":43.32111,"lon":5.36777,"is_reserved":false,"is_disabled":false,"rental_uris":{"android":"levelo://app?vid=55475846-4826-4e39-aef5-c665d76d0159","ios":"levelo://app?vid=55475846-4826-4e39-aef5-c665d76d0159"},"vehicle_type_id":"4","last_reported":1744460219,"current_range_meters":9200,"station_id":"ce4bhrh2rcd13ifvqhug","pricing_plan_id":"cebpf4jnsgd1na2vs0mg"},{"bike_id":"37864421-51e4-4d5e-801c-7ac32e01e722","system_id":"levelo_inurba_marseille","lat":43.31282,"lon":5.37785,"is_reserved":false,"is_disabled":false,"rental_uris":{"android":"levelo://app?vid=37864421-51e4-4d5e-801c-7ac32e01e722","ios":"levelo://app?vid=37864421-51e4-4d5e-801c-7ac32e01e722"},"vehicle_type_id":"4","last_reported":1744460219,"current_range_meters":9200,"station_id":"","pricing_plan_id":"cebpf4jnsgd1na2vs0mg"},{"bike_id":"77ae00b9-626f-4f82-aa8e-5be24e1651a1","system_id":"levelo_inurba_marseille","lat":43.23061,"lon":5.35491,"is_reserved":false,"is_disabled":false,"rental_uris":{"android":"levelo://app?vid=77ae00b9-626f-4f82-aa8e-5be24e1651a1","ios":"levelo://app?vid=77ae00b9-626f-4f82-aa8e-5be24e1651a1"},"vehicle_type_id":"4","last_reported":1744460219,"current_range_meters":9600,"station_id":"cpo3342slgdg3j2ifvpg","pricing_plan_id":"cebpf4jnsgd1na2vs0mg"},{"bike_id":"4c893399-b4ed-40ed-a49f-713da320f269","system_id":"levelo_inurba_marseille","lat":43.29861,"lon":5.37841,"is_reserved":false,"is_disabled":false,"rental_uris":{"android":"levelo://app?vid=4c893399-b4ed-40ed-a49f-713da320f269","ios":"levelo://app?vid=4c893399-b4ed-40ed-a49f-713da320f269"},"vehicle_type_id":"4","last_reported":1744460219,"current_range_meters":9600,"station_id":"","pricing_plan_id":"cebpf4jnsgd1na2vs0mg"},{"bike_id":"411f282c-b696-41a4-888f-752e1134c529","system_id":"levelo_inurba_marseille","lat":43.26196,"lon":5.374472,"is_reserved":false,"is_disabled":false,"rental_uris":{"android":"levelo://app?vid=411f282c-b696-41a4-888f-752e1134c529","ios":"levelo://app?vid=411f282c-b696-41a4-888f-752e1134c529"},"vehicle_type_id":"4","last_reported":1744460219,"current_range_meters":9600,"station_id":"ce4bhgp2rcd13ifvqfc0","pricing_plan_id":"cebpf4jnsgd1na2vs0mg"},{"bike_id":"a9b41882-57eb-4864-bd52-b8a8c0026bcc","system_id":"levelo_inurba_marseille","lat":43.23186,"lon":5.3999,"is_reserved":false,"is_disabled":false,"rental_uris":{"android":"levelo://app?vid=a9b41882-57eb-4864-bd52-b8a8c0026bcc","ios":"levelo://app?vid=a9b41882-57eb-4864-bd52-b8a8c0026bcc"},"vehicle_type_id":"4","last_reported":1744460219,"current_range_meters":9600,"station_id":"ce4bhn12rcd13ifvqgqg","pricing_plan_id":"cebpf4jnsgd1na2vs0mg"},{"bike_id":"8c58f2fa-99e1-41f8-bf90-9c1648b679b1","system_id":"levelo_inurba_marseille","lat":43.27366,"lon":5.41485,"is_reserved":false,"is_disabled":false,"rental_uris":{"android":"levelo://app?vid=8c58f2fa-99e1-41f8-bf90-9c1648b679b1","ios":"levelo://app?vid=8c58f2fa-99e1-41f8-bf90-9c1648b679b1"},"vehicle_type_id":"4","last_reported":1744460219,"current_range_meters":9600,"station_id":"","pricing_plan_id":"cebpf4jnsgd1na2vs0mg"},{"bike_id":"aacaacc5-4d2c-4295-9357-7ba333864398","system_id":"levelo_inurba_marseille","lat":43.21193,"lon":5.35075,"is_reserved":false,"is_disabled":false,"rental_uris":{"android":"levelo://app?vid=aacaacc5-4d2c-4295-9357-7ba333864398","ios":"levelo://app?vid=aacaacc5-4d2c-4295-9357-7ba333864398"},"vehicle_type_id":"4","last_reported":1744460219,"current_range_meters":9600,"station_id":"","pricing_plan_id":"cebpf4jnsgd1na2vs0mg"},{"bike_id":"8771d8e7-52e5-4861-a854-83c0340c9927","system_id":"levelo_inurba_marseille","lat":43.2119,"lon":5.35082,"is_reserved":false,"is_disabled":false,"rental_uris":{"android":"levelo://app?vid=8771d8e7-52e5-4861-a854-83c0340c9927","ios":"levelo://app?vid=8771d8e7-52e5-4861-a854-83c0340c9927"},"vehicle_type_id":"4","last_reported":1744460219,"current_range_meters":9600,"station_id":"","pricing_plan_id":"cebpf4jnsgd1na2vs0mg"},{"bike_id":"f68a1051-67d0-4a88-8953-29bf1876f0a5","system_id":"levelo_inurba_marseille","lat":43.211952,"lon":5.3507,"is_reserved":false,"is_disabled":false,"rental_uris":{"android":"levelo://app?vid=f68a1051-67d0-4a88-8953-29bf1876f0a5","ios":"levelo://app?vid=f68a1051-67d0-4a88-8953-29bf1876f0a5"},"vehicle_type_id":"4","last_reported":1744460219,"current_range_meters":9600,"station_id":"st_cvj6sg6p6f1abm77japg","pricing_plan_id":"cebpf4jnsgd1na2vs0mg"},{"bike_id":"5659bf19-0f9a-4047-8a1b-b19de8aeec0a","system_id":"levelo_inurba_marseille","lat":43.28988,"lon":5.3783,"is_reserved":false,"is_disabled":false,"rental_uris":{"android":"levelo://app?vid=5659bf19-0f9a-4047-8a1b-b19de8aeec0a","ios":"levelo://app?vid=5659bf19-0f9a-4047-8a1b-b19de8aeec0a"},"vehicle_type_id":"4","last_reported":1744460219,"current_range_meters":9600,"station_id":"ce4bh9p2rcd13ifvqed0","pricing_plan_id":"cebpf4jnsgd1na2vs0mg"},{"bike_id":"60100d62-77c4-4b9e-91f5-5961660ccbff","system_id":"levelo_inurba_marseille","lat":43.2481,"lon":5.37461,"is_reserved":false,"is_disabled":false,"rental_uris":{"android":"levelo://app?vid=60100d62-77c4-4b9e-91f5-5961660ccbff","ios":"levelo://app?vid=60100d62-77c4-4b9e-91f5-5961660ccbff"},"vehicle_type_id":"4","last_reported":1744460219,"current_range_meters":10000,"station_id":"ce4bhgh2rcd13ifvqfb0","pricing_plan_id":"cebpf4jnsgd1na2vs0mg"},{"bike_id":"a51f1eb3-b406-48c3-be2c-295696d223bc","system_id":"levelo_inurba_marseille","lat":43.30152,"lon":5.38088,"is_reserved":false,"is_disabled":false,"rental_uris":{"android":"levelo://app?vid=a51f1eb3-b406-48c3-be2c-295696d223bc","ios":"levelo://app?vid=a51f1eb3-b406-48c3-be2c-295696d223bc"},"vehicle_type_id":"4","last_reported":1744460219,"current_range_meters":10000,"station_id":"ce4bgjp2rcd13ifvqbh0","pricing_plan_id":"cebpf4jnsgd1na2vs0mg"},{"bike_id":"79f1a5be-9ba4-4dd1-9d18-099363ec6873","system_id":"levelo_inurba_marseille","lat":43.286728,"lon":5.386606,"is_reserved":false,"is_disabled":false,"rental_uris":{"android":"levelo://app?vid=79f1a5be-9ba4-4dd1-9d18-099363ec6873","ios":"levelo://app?vid=79f1a5be-9ba4-4dd1-9d18-099363ec6873"},"vehicle_type_id":"4","last_reported":1744460219,"current_range_meters":9600,"station_id":"ce4bh492rcd13ifvqdug","pricing_plan_id":"cebpf4jnsgd1na2vs0mg"},{"bike_id":"d976adb6-e10d-4b44-a32f-d76bcdf98e96","system_id":"levelo_inurba_marseille","lat":43.27374,"lon":5.36257,"is_reserved":false,"is_disabled":false,"rental_uris":{"android":"levelo://app?vid=d976adb6-e10d-4b44-a32f-d76bcdf98e96","ios":"levelo://app?vid=d976adb6-e10d-4b44-a32f-d76bcdf98e96"},"vehicle_type_id":"4","last_reported":1744460219,"current_range_meters":10000,"station_id":"ce4bhbh2rcd13ifvqeo0","pricing_plan_id":"cebpf4jnsgd1na2vs0mg"},{"bike_id":"ed2d239e-cd17-4f49-b887-ed12caf70bbe","system_id":"levelo_inurba_marseille","lat":43.30167,"lon":5.38096,"is_reserved":false,"is_disabled":false,"rental_uris":{"android":"levelo://app?vid=ed2d239e-cd17-4f49-b887-ed12caf70bbe","ios":"levelo://app?vid=ed2d239e-cd17-4f49-b887-ed12caf70bbe"},"vehicle_type_id":"4","last_reported":1744460219,"current_range_meters":10800,"station_id":"ce4bgjp2rcd13ifvqbh0","pricing_plan_id":"cebpf4jnsgd1na2vs0mg"},{"bike_id":"c013d600-5e08-48f0-830e-8c965978436b","system_id":"levelo_inurba_marseille","lat":43.30447,"lon":5.38894,"is_reserved":false,"is_disabled":true,"rental_uris":{"android":"levelo://app?vid=c013d600-5e08-48f0-830e-8c965978436b","ios":"levelo://app?vid=c013d600-5e08-48f0-830e-8c965978436b"},"vehicle_type_id":"4","last_reported":1744460219,"current_range_meters":10800,"station_id":"ce4bgk12rcd13ifvqbi0","pricing_plan_id":"cebpf4jnsgd1na2vs0mg"},{"bike_id":"15f8c481-5ec3-42a7-b25f-f4089fa537c4","system_id":"levelo_inurba_marseille","lat":43.24176,"lon":5.3973,"is_reserved":false,"is_disabled":false,"rental_uris":{"android":"levelo://app?vid=15f8c481-5ec3-42a7-b25f-f4089fa537c4","ios":"levelo://app?vid=15f8c481-5ec3-42a7-b25f-f4089fa537c4"},"vehicle_type_id":"4","last_reported":1744460219,"current_range_meters":10800,"station_id":"ce4bhn12rcd13ifvqgpg","pricing_plan_id":"cebpf4jnsgd1na2vs0mg"},{"bike_id":"7062505b-7761-4367-988b-7337c9f73329","system_id":"levelo_inurba_marseille","lat":43.28157,"lon":5.42641,"is_reserved":false,"is_disabled":false,"rental_uris":{"android":"levelo://app?vid=7062505b-7761-4367-988b-7337c9f73329","ios":"levelo://app?vid=7062505b-7761-4367-988b-7337c9f73329"},"vehicle_type_id":"4","last_reported":1744460219,"current_range_meters":10800,"station_id":"ce4bhnh2rcd13ifvqgug","pricing_plan_id":"cebpf4jnsgd1na2vs0mg"},{"bike_id":"47df54fa-9868-413c-a07b-a88614eb280e","system_id":"levelo_inurba_marseille","lat":43.27075,"lon":5.40255,"is_reserved":false,"is_disabled":false,"rental_uris":{"android":"levelo://app?vid=47df54fa-9868-413c-a07b-a88614eb280e","ios":"levelo://app?vid=47df54fa-9868-413c-a07b-a88614eb280e"},"vehicle_type_id":"4","last_reported":1744460219,"current_range_meters":10800,"station_id":"ce4bhk92rcd13ifvqgc0","pricing_plan_id":"cebpf4jnsgd1na2vs0mg"},{"bike_id":"4a0973b0-92a0-41e8-9b0d-a99e944bafe0","system_id":"levelo_inurba_marseille","lat":43.344897,"lon":5.412972,"is_reserved":false,"is_disabled":false,"rental_uris":{"android":"levelo://app?vid=4a0973b0-92a0-41e8-9b0d-a99e944bafe0","ios":"levelo://app?vid=4a0973b0-92a0-41e8-9b0d-a99e944bafe0"},"vehicle_type_id":"4","last_reported":1744460219,"current_range_meters":10800,"station_id":"","pricing_plan_id":"cebpf4jnsgd1na2vs0mg"},{"bike_id":"29fd9406-b872-4408-b90c-f1d9e5190468","system_id":"levelo_inurba_marseille","lat":43.231513,"lon":5.437113,"is_reserved":false,"is_disabled":false,"rental_uris":{"android":"levelo://app?vid=29fd9406-b872-4408-b90c-f1d9e5190468","ios":"levelo://app?vid=29fd9406-b872-4408-b90c-f1d9e5190468"},"vehicle_type_id":"4","last_reported":1744460219,"current_range_meters":10800,"station_id":"ce4bhmp2rcd13ifvqgog","pricing_plan_id":"cebpf4jnsgd1na2vs0mg"},{"bike_id":"83e4c345-5a97-4da5-ad41-852af125c0a3","system_id":"levelo_inurba_marseille","lat":43.30416,"lon":5.4129,"is_reserved":false,"is_disabled":false,"rental_uris":{"android":"levelo://app?vid=83e4c345-5a97-4da5-ad41-852af125c0a3","ios":"levelo://app?vid=83e4c345-5a97-4da5-ad41-852af125c0a3"},"vehicle_type_id":"4","last_reported":1744460219,"current_range_meters":10800,"station_id":"ce4bhop2rcd13ifvqh8g","pricing_plan_id":"cebpf4jnsgd1na2vs0mg"},{"bike_id":"9297eddd-ba49-4250-98cd-782a74ffc2c5","system_id":"levelo_inurba_marseille","lat":43.2656,"lon":5.37285,"is_reserved":false,"is_disabled":false,"rental_uris":{"android":"levelo://app?vid=9297eddd-ba49-4250-98cd-782a74ffc2c5","ios":"levelo://app?vid=9297eddd-ba49-4250-98cd-782a74ffc2c5"},"vehicle_type_id":"4","last_reported":1744460219,"current_range_meters":10800,"station_id":"ce4bhg12rcd13ifvqf70","pricing_plan_id":"cebpf4jnsgd1na2vs0mg"},{"bike_id":"330ee463-8abc-418f-8ac5-acb1e30fac66","system_id":"levelo_inurba_marseille","lat":43.25592,"lon":5.38242,"is_reserved":false,"is_disabled":false,"rental_uris":{"android":"levelo://app?vid=330ee463-8abc-418f-8ac5-acb1e30fac66","ios":"levelo://app?vid=330ee463-8abc-418f-8ac5-acb1e30fac66"},"vehicle_type_id":"4","last_reported":1744460219,"current_range_meters":11200,"station_id":"ce4bhih2rcd13ifvqfs0","pricing_plan_id":"cebpf4jnsgd1na2vs0mg"},{"bike_id":"1e0f67f9-a408-4ff1-a002-d5af7b9ec59c","system_id":"levelo_inurba_marseille","lat":43.27062,"lon":5.40296,"is_reserved":false,"is_disabled":false,"rental_uris":{"android":"levelo://app?vid=1e0f67f9-a408-4ff1-a002-d5af7b9ec59c","ios":"levelo://app?vid=1e0f67f9-a408-4ff1-a002-d5af7b9ec59c"},"vehicle_type_id":"4","last_reported":1744460219,"current_range_meters":11200,"station_id":"ce4bhk92rcd13ifvqgc0","pricing_plan_id":"cebpf4jnsgd1na2vs0mg"},{"bike_id":"bd7a681b-12a1-4d16-ae2f-e9e83475773d","system_id":"levelo_inurba_marseille","lat":43.25504,"lon":5.37657,"is_reserved":false,"is_disabled":false,"rental_uris":{"android":"levelo://app?vid=bd7a681b-12a1-4d16-ae2f-e9e83475773d","ios":"levelo://app?vid=bd7a681b-12a1-4d16-ae2f-e9e83475773d"},"vehicle_type_id":"4","last_reported":1744460219,"current_range_meters":11200,"station_id":"ce4bhh12rcd13ifvqff0","pricing_plan_id":"cebpf4jnsgd1na2vs0mg"},{"bike_id":"c34ec5c1-4c72-4ca4-a836-572c39395efb","system_id":"levelo_inurba_marseille","lat":43.26562,"lon":5.37298,"is_reserved":false,"is_disabled":false,"rental_uris":{"android":"levelo://app?vid=c34ec5c1-4c72-4ca4-a836-572c39395efb","ios":"levelo://app?vid=c34ec5c1-4c72-4ca4-a836-572c39395efb"},"vehicle_type_id":"4","last_reported":1744460219,"current_range_meters":11200,"station_id":"ce4bhg12rcd13ifvqf70","pricing_plan_id":"cebpf4jnsgd1na2vs0mg"},{"bike_id":"ef291804-1477-432e-b153-82ea15725418","system_id":"levelo_inurba_marseille","lat":43.33742,"lon":5.37454,"is_reserved":false,"is_disabled":false,"rental_uris":{"android":"levelo://app?vid=ef291804-1477-432e-b153-82ea15725418","ios":"levelo://app?vid=ef291804-1477-432e-b153-82ea15725418"},"vehicle_type_id":"4","last_reported":1744460219,"current_range_meters":11200,"station_id":"","pricing_plan_id":"cebpf4jnsgd1na2vs0mg"},{"bike_id":"1a1c5caf-41fc-450c-8b7a-b415897359ee","system_id":"levelo_inurba_marseille","lat":43.30887,"lon":5.39657,"is_reserved":false,"is_disabled":false,"rental_uris":{"android":"levelo://app?vid=1a1c5caf-41fc-450c-8b7a-b415897359ee","ios":"levelo://app?vid=1a1c5caf-41fc-450c-8b7a-b415897359ee"},"vehicle_type_id":"4","last_reported":1744460219,"current_range_meters":11200,"station_id":"ce4bh012rcd13ifvqcv0","pricing_plan_id":"cebpf4jnsgd1na2vs0mg"},{"bike_id":"78795bbd-5632-4c2d-92bb-33168facec8b","system_id":"levelo_inurba_marseille","lat":43.26212,"lon":5.37445,"is_reserved":false,"is_disabled":false,"rental_uris":{"android":"levelo://app?vid=78795bbd-5632-4c2d-92bb-33168facec8b","ios":"levelo://app?vid=78795bbd-5632-4c2d-92bb-33168facec8b"},"vehicle_type_id":"4","last_reported":1744460219,"current_range_meters":11200,"station_id":"ce4bhgp2rcd13ifvqfc0","pricing_plan_id":"cebpf4jnsgd1na2vs0mg"},{"bike_id":"f97ae698-b30e-4c18-bd1f-08514d6f0739","system_id":"levelo_inurba_marseille","lat":43.2439,"lon":5.37067,"is_reserved":false,"is_disabled":false,"rental_uris":{"android":"levelo://app?vid=f97ae698-b30e-4c18-bd1f-08514d6f0739","ios":"levelo://app?vid=f97ae698-b30e-4c18-bd1f-08514d6f0739"},"vehicle_type_id":"4","last_reported":1744460219,"current_range_meters":11200,"station_id":"ce4bhhh2rcd13ifvqfk0","pricing_plan_id":"cebpf4jnsgd1na2vs0mg"},{"bike_id":"88a7f0ac-43f9-482a-87f4-2044d43af0b2","system_id":"levelo_inurba_marseille","lat":43.29279,"lon":5.36842,"is_reserved":false,"is_disabled":false,"rental_uris":{"android":"levelo://app?vid=88a7f0ac-43f9-482a-87f4-2044d43af0b2","ios":"levelo://app?vid=88a7f0ac-43f9-482a-87f4-2044d43af0b2"},"vehicle_type_id":"4","last_reported":1744460219,"current_range_meters":11600,"station_id":"ce4bhbp2rcd13ifvqesg","pricing_plan_id":"cebpf4jnsgd1na2vs0mg"},{"bike_id":"d8102ab9-64c6-472d-94c5-5a5dd3514a0d","system_id":"levelo_inurba_marseille","lat":43.23966,"lon":5.36636,"is_reserved":false,"is_disabled":false,"rental_uris":{"android":"levelo://app?vid=d8102ab9-64c6-472d-94c5-5a5dd3514a0d","ios":"levelo://app?vid=d8102ab9-64c6-472d-94c5-5a5dd3514a0d"},"vehicle_type_id":"4","last_reported":1744460219,"current_range_meters":11600,"station_id":"ce4bhi12rcd13ifvqfp0","pricing_plan_id":"cebpf4jnsgd1na2vs0mg"},{"bike_id":"ab56d6e8-e9bd-43bc-b4d5-9ae221bbed26","system_id":"levelo_inurba_marseille","lat":43.29567,"lon":5.37521,"is_reserved":false,"is_disabled":false,"rental_uris":{"android":"levelo://app?vid=ab56d6e8-e9bd-43bc-b4d5-9ae221bbed26","ios":"levelo://app?vid=ab56d6e8-e9bd-43bc-b4d5-9ae221bbed26"},"vehicle_type_id":"4","last_reported":1744460219,"current_range_meters":11600,"station_id":"ce4bgh92rcd13ifvqb50","pricing_plan_id":"cebpf4jnsgd1na2vs0mg"},{"bike_id":"344c8b65-50f6-4829-b1ed-44cd58120273","system_id":"levelo_inurba_marseille","lat":43.24804,"lon":5.37465,"is_reserved":false,"is_disabled":false,"rental_uris":{"android":"levelo://app?vid=344c8b65-50f6-4829-b1ed-44cd58120273","ios":"levelo://app?vid=344c8b65-50f6-4829-b1ed-44cd58120273"},"vehicle_type_id":"4","last_reported":1744460219,"current_range_meters":11600,"station_id":"ce4bhgh2rcd13ifvqfb0","pricing_plan_id":"cebpf4jnsgd1na2vs0mg"},{"bike_id":"927626f0-1990-4706-aa4d-35055d22281a","system_id":"levelo_inurba_marseille","lat":43.30819,"lon":5.37226,"is_reserved":false,"is_disabled":false,"rental_uris":{"android":"levelo://app?vid=927626f0-1990-4706-aa4d-35055d22281a","ios":"levelo://app?vid=927626f0-1990-4706-aa4d-35055d22281a"},"vehicle_type_id":"4","last_reported":1744460219,"current_range_meters":12000,"station_id":"","pricing_plan_id":"cebpf4jnsgd1na2vs0mg"},{"bike_id":"f7d1eee0-1715-419d-beac-1b98ec9e62ed","system_id":"levelo_inurba_marseille","lat":43.30963,"lon":5.39041,"is_reserved":false,"is_disabled":true,"rental_uris":{"android":"levelo://app?vid=f7d1eee0-1715-419d-beac-1b98ec9e62ed","ios":"levelo://app?vid=f7d1eee0-1715-419d-beac-1b98ec9e62ed"},"vehicle_type_id":"4","last_reported":1744460219,"current_range_meters":12000,"station_id":"ce4bgup2rcd13ifvqco0","pricing_plan_id":"cebpf4jnsgd1na2vs0mg"},{"bike_id":"0e7bf4ae-5aed-4055-a1f8-96debbb9847e","system_id":"levelo_inurba_marseille","lat":43.24167,"lon":5.36399,"is_reserved":false,"is_disabled":false,"rental_uris":{"android":"levelo://app?vid=0e7bf4ae-5aed-4055-a1f8-96debbb9847e","ios":"levelo://app?vid=0e7bf4ae-5aed-4055-a1f8-96debbb9847e"},"vehicle_type_id":"4","last_reported":1744460219,"current_range_meters":12000,"station_id":"cpo36qri1sfpv3e86is0","pricing_plan_id":"cebpf4jnsgd1na2vs0mg"},{"bike_id":"8609ec5b-db31-4682-89f6-95794d251c5e","system_id":"levelo_inurba_marseille","lat":43.23147,"lon":5.43707,"is_reserved":false,"is_disabled":false,"rental_uris":{"android":"levelo://app?vid=8609ec5b-db31-4682-89f6-95794d251c5e","ios":"levelo://app?vid=8609ec5b-db31-4682-89f6-95794d251c5e"},"vehicle_type_id":"4","last_reported":1744460219,"current_range_meters":12000,"station_id":"ce4bhmp2rcd13ifvqgog","pricing_plan_id":"cebpf4jnsgd1na2vs0mg"},{"bike_id":"245d9b49-dfbd-400f-ad56-a3afb096cf8a","system_id":"levelo_inurba_marseille","lat":43.27317,"lon":5.39085,"is_reserved":false,"is_disabled":false,"rental_uris":{"android":"levelo://app?vid=245d9b49-dfbd-400f-ad56-a3afb096cf8a","ios":"levelo://app?vid=245d9b49-dfbd-400f-ad56-a3afb096cf8a"},"vehicle_type_id":"4","last_reported":1744460219,"current_range_meters":12400,"station_id":"ce4bhgp2rcd13ifvqfe0","pricing_plan_id":"cebpf4jnsgd1na2vs0mg"},{"bike_id":"d8f603cd-3b83-4148-bab8-3a185ad2a59f","system_id":"levelo_inurba_marseille","lat":43.32297,"lon":5.38997,"is_reserved":false,"is_disabled":false,"rental_uris":{"android":"levelo://app?vid=d8f603cd-3b83-4148-bab8-3a185ad2a59f","ios":"levelo://app?vid=d8f603cd-3b83-4148-bab8-3a185ad2a59f"},"vehicle_type_id":"4","last_reported":1744460219,"current_range_meters":12400,"station_id":"ce4bhqp2rcd13ifvqhog","pricing_plan_id":"cebpf4jnsgd1na2vs0mg"},{"bike_id":"097d63bd-5119-45c3-bd85-f18a3c1d6a76","system_id":"levelo_inurba_marseille","lat":43.30193,"lon":5.38082,"is_reserved":false,"is_disabled":false,"rental_uris":{"android":"levelo://app?vid=097d63bd-5119-45c3-bd85-f18a3c1d6a76","ios":"levelo://app?vid=097d63bd-5119-45c3-bd85-f18a3c1d6a76"},"vehicle_type_id":"4","last_reported":1744460219,"current_range_meters":12400,"station_id":"","pricing_plan_id":"cebpf4jnsgd1na2vs0mg"},{"bike_id":"a056d7a4-97ce-4bd4-9204-3c02244e3600","system_id":"levelo_inurba_marseille","lat":43.23196,"lon":5.35555,"is_reserved":false,"is_disabled":false,"rental_uris":{"android":"levelo://app?vid=a056d7a4-97ce-4bd4-9204-3c02244e3600","ios":"levelo://app?vid=a056d7a4-97ce-4bd4-9204-3c02244e3600"},"vehicle_type_id":"4","last_reported":1744460219,"current_range_meters":12400,"station_id":"ce4bhu92rcd13ifvqi70","pricing_plan_id":"cebpf4jnsgd1na2vs0mg"},{"bike_id":"5b77a833-8185-45c2-9fe3-07eb40df54ca","system_id":"levelo_inurba_marseille","lat":43.33995,"lon":5.38057,"is_reserved":false,"is_disabled":false,"rental_uris":{"android":"levelo://app?vid=5b77a833-8185-45c2-9fe3-07eb40df54ca","ios":"levelo://app?vid=5b77a833-8185-45c2-9fe3-07eb40df54ca"},"vehicle_type_id":"4","last_reported":1744460219,"current_range_meters":12400,"station_id":"","pricing_plan_id":"cebpf4jnsgd1na2vs0mg"},{"bike_id":"83268034-4a44-4f45-8065-aeffc7771803","system_id":"levelo_inurba_marseille","lat":43.26214,"lon":5.37441,"is_reserved":false,"is_disabled":false,"rental_uris":{"android":"levelo://app?vid=83268034-4a44-4f45-8065-aeffc7771803","ios":"levelo://app?vid=83268034-4a44-4f45-8065-aeffc7771803"},"vehicle_type_id":"4","last_reported":1744460219,"current_range_meters":12800,"station_id":"ce4bhgp2rcd13ifvqfc0","pricing_plan_id":"cebpf4jnsgd1na2vs0mg"},{"bike_id":"c8d2da8b-9268-49af-abec-076b8c210d0c","system_id":"levelo_inurba_marseille","lat":43.280256,"lon":5.400428,"is_reserved":false,"is_disabled":false,"rental_uris":{"android":"levelo://app?vid=c8d2da8b-9268-49af-abec-076b8c210d0c","ios":"levelo://app?vid=c8d2da8b-9268-49af-abec-076b8c210d0c"},"vehicle_type_id":"4","last_reported":1744460219,"current_range_meters":12800,"station_id":"","pricing_plan_id":"cebpf4jnsgd1na2vs0mg"},{"bike_id":"8621e295-3526-4464-be82-74c49f48a833","system_id":"levelo_inurba_marseille","lat":43.21747,"lon":5.34605,"is_reserved":false,"is_disabled":false,"rental_uris":{"android":"levelo://app?vid=8621e295-3526-4464-be82-74c49f48a833","ios":"levelo://app?vid=8621e295-3526-4464-be82-74c49f48a833"},"vehicle_type_id":"4","last_reported":1744460219,"current_range_meters":13600,"station_id":"","pricing_plan_id":"cebpf4jnsgd1na2vs0mg"},{"bike_id":"9144b884-4f84-4f9e-829a-db2547e70f0f","system_id":"levelo_inurba_marseille","lat":43.29931,"lon":5.36529,"is_reserved":false,"is_disabled":false,"rental_uris":{"android":"levelo://app?vid=9144b884-4f84-4f9e-829a-db2547e70f0f","ios":"levelo://app?vid=9144b884-4f84-4f9e-829a-db2547e70f0f"},"vehicle_type_id":"4","last_reported":1744460219,"current_range_meters":13600,"station_id":"ce4bgm92rcd13ifvqbr0","pricing_plan_id":"cebpf4jnsgd1na2vs0mg"},{"bike_id":"493cde9e-7859-4c26-a2e6-f744ee5d8553","system_id":"levelo_inurba_marseille","lat":43.31771,"lon":5.36797,"is_reserved":false,"is_disabled":false,"rental_uris":{"android":"levelo://app?vid=493cde9e-7859-4c26-a2e6-f744ee5d8553","ios":"levelo://app?vid=493cde9e-7859-4c26-a2e6-f744ee5d8553"},"vehicle_type_id":"4","last_reported":1744460219,"current_range_meters":13600,"station_id":"","pricing_plan_id":"cebpf4jnsgd1na2vs0mg"},{"bike_id":"cd42ef9f-5a27-4d37-b4b1-37a92d3b9145","system_id":"levelo_inurba_marseille","lat":43.23968,"lon":5.36635,"is_reserved":false,"is_disabled":false,"rental_uris":{"android":"levelo://app?vid=cd42ef9f-5a27-4d37-b4b1-37a92d3b9145","ios":"levelo://app?vid=cd42ef9f-5a27-4d37-b4b1-37a92d3b9145"},"vehicle_type_id":"4","last_reported":1744460219,"current_range_meters":13600,"station_id":"ce4bhi12rcd13ifvqfp0","pricing_plan_id":"cebpf4jnsgd1na2vs0mg"},{"bike_id":"6add95bb-b708-40c3-9207-939fc4639dd8","system_id":"levelo_inurba_marseille","lat":43.28353,"lon":5.381,"is_reserved":false,"is_disabled":false,"rental_uris":{"android":"levelo://app?vid=6add95bb-b708-40c3-9207-939fc4639dd8","ios":"levelo://app?vid=6add95bb-b708-40c3-9207-939fc4639dd8"},"vehicle_type_id":"4","last_reported":1744460219,"current_range_meters":13600,"station_id":"ce4bh412rcd13ifvqdr0","pricing_plan_id":"cebpf4jnsgd1na2vs0mg"},{"bike_id":"c047401e-911f-47c5-88c3-12ac03cbf1ed","system_id":"levelo_inurba_marseille","lat":43.21199,"lon":5.3506,"is_reserved":false,"is_disabled":false,"rental_uris":{"android":"levelo://app?vid=c047401e-911f-47c5-88c3-12ac03cbf1ed","ios":"levelo://app?vid=c047401e-911f-47c5-88c3-12ac03cbf1ed"},"vehicle_type_id":"4","last_reported":1744460219,"current_range_meters":13600,"station_id":"st_cvj6sg6p6f1abm77japg","pricing_plan_id":"cebpf4jnsgd1na2vs0mg"},{"bike_id":"90cddebc-2506-42ee-9df1-36a6154dff75","system_id":"levelo_inurba_marseille","lat":43.24168,"lon":5.36393,"is_reserved":false,"is_disabled":false,"rental_uris":{"android":"levelo://app?vid=90cddebc-2506-42ee-9df1-36a6154dff75","ios":"levelo://app?vid=90cddebc-2506-42ee-9df1-36a6154dff75"},"vehicle_type_id":"4","last_reported":1744460219,"current_range_meters":13600,"station_id":"cpo36qri1sfpv3e86is0","pricing_plan_id":"cebpf4jnsgd1na2vs0mg"},{"bike_id":"f5978509-db06-47ea-8b21-850d320f3654","system_id":"levelo_inurba_marseille","lat":43.30418,"lon":5.41284,"is_reserved":false,"is_disabled":false,"rental_uris":{"android":"levelo://app?vid=f5978509-db06-47ea-8b21-850d320f3654","ios":"levelo://app?vid=f5978509-db06-47ea-8b21-850d320f3654"},"vehicle_type_id":"4","last_reported":1744460219,"current_range_meters":14000,"station_id":"ce4bhop2rcd13ifvqh8g","pricing_plan_id":"cebpf4jnsgd1na2vs0mg"},{"bike_id":"2f5bc015-0a98-4a0d-a50f-f7181e1d6abe","system_id":"levelo_inurba_marseille","lat":43.23385,"lon":5.41233,"is_reserved":false,"is_disabled":false,"rental_uris":{"android":"levelo://app?vid=2f5bc015-0a98-4a0d-a50f-f7181e1d6abe","ios":"levelo://app?vid=2f5bc015-0a98-4a0d-a50f-f7181e1d6abe"},"vehicle_type_id":"4","last_reported":1744460219,"current_range_meters":14000,"station_id":"","pricing_plan_id":"cebpf4jnsgd1na2vs0mg"},{"bike_id":"1dff5b3d-9770-4b45-9700-501912816125","system_id":"levelo_inurba_marseille","lat":43.29252,"lon":5.37618,"is_reserved":false,"is_disabled":false,"rental_uris":{"android":"levelo://app?vid=1dff5b3d-9770-4b45-9700-501912816125","ios":"levelo://app?vid=1dff5b3d-9770-4b45-9700-501912816125"},"vehicle_type_id":"4","last_reported":1744460219,"current_range_meters":14000,"station_id":"ce4bgi12rcd13ifvqb80","pricing_plan_id":"cebpf4jnsgd1na2vs0mg"},{"bike_id":"b5c7cbca-54f5-43ad-8271-9e6bbf4f84ce","system_id":"levelo_inurba_marseille","lat":43.29633,"lon":5.37163,"is_reserved":false,"is_disabled":false,"rental_uris":{"android":"levelo://app?vid=b5c7cbca-54f5-43ad-8271-9e6bbf4f84ce","ios":"levelo://app?vid=b5c7cbca-54f5-43ad-8271-9e6bbf4f84ce"},"vehicle_type_id":"4","last_reported":1744460219,"current_range_meters":14000,"station_id":"ce4bgnh2rcd13ifvqc0g","pricing_plan_id":"cebpf4jnsgd1na2vs0mg"},{"bike_id":"399daa39-7d05-4a9a-ab90-bc171a3f8ad1","system_id":"levelo_inurba_marseille","lat":43.30956,"lon":5.39048,"is_reserved":false,"is_disabled":false,"rental_uris":{"android":"levelo://app?vid=399daa39-7d05-4a9a-ab90-bc171a3f8ad1","ios":"levelo://app?vid=399daa39-7d05-4a9a-ab90-bc171a3f8ad1"},"vehicle_type_id":"4","last_reported":1744460219,"current_range_meters":14000,"station_id":"ce4bgup2rcd13ifvqco0","pricing_plan_id":"cebpf4jnsgd1na2vs0mg"},{"bike_id":"6d15af86-98c4-428d-92bc-53013be61e03","system_id":"levelo_inurba_marseille","lat":43.21178,"lon":5.35088,"is_reserved":false,"is_disabled":false,"rental_uris":{"android":"levelo://app?vid=6d15af86-98c4-428d-92bc-53013be61e03","ios":"levelo://app?vid=6d15af86-98c4-428d-92bc-53013be61e03"},"vehicle_type_id":"4","last_reported":1744460219,"current_range_meters":14000,"station_id":"ce4bgkp2rcd13ifvqbmg","pricing_plan_id":"cebpf4jnsgd1na2vs0mg"},{"bike_id":"61bc6256-8380-4638-bd27-1e2c56ecc87d","system_id":"levelo_inurba_marseille","lat":43.29712,"lon":5.37615,"is_reserved":false,"is_disabled":false,"rental_uris":{"android":"levelo://app?vid=61bc6256-8380-4638-bd27-1e2c56ecc87d","ios":"levelo://app?vid=61bc6256-8380-4638-bd27-1e2c56ecc87d"},"vehicle_type_id":"4","last_reported":1744460219,"current_range_meters":14000,"station_id":"","pricing_plan_id":"cebpf4jnsgd1na2vs0mg"},{"bike_id":"f7843f46-58aa-4cf6-a1d0-1b94b16f71c2","system_id":"levelo_inurba_marseille","lat":43.298456,"lon":5.396626,"is_reserved":false,"is_disabled":false,"rental_uris":{"android":"levelo://app?vid=f7843f46-58aa-4cf6-a1d0-1b94b16f71c2","ios":"levelo://app?vid=f7843f46-58aa-4cf6-a1d0-1b94b16f71c2"},"vehicle_type_id":"4","last_reported":1744460219,"current_range_meters":14400,"station_id":"ce4bh0h2rcd13ifvqd50","pricing_plan_id":"cebpf4jnsgd1na2vs0mg"},{"bike_id":"b4f3c74a-6f31-4dd1-98b7-4144744d53ed","system_id":"levelo_inurba_marseille","lat":43.24174,"lon":5.36386,"is_reserved":false,"is_disabled":false,"rental_uris":{"android":"levelo://app?vid=b4f3c74a-6f31-4dd1-98b7-4144744d53ed","ios":"levelo://app?vid=b4f3c74a-6f31-4dd1-98b7-4144744d53ed"},"vehicle_type_id":"4","last_reported":1744460219,"current_range_meters":14400,"station_id":"cpo36qri1sfpv3e86is0","pricing_plan_id":"cebpf4jnsgd1na2vs0mg"},{"bike_id":"856b5c7d-f029-4c12-b7be-71279018b265","system_id":"levelo_inurba_marseille","lat":43.24169,"lon":5.36416,"is_reserved":false,"is_disabled":false,"rental_uris":{"android":"levelo://app?vid=856b5c7d-f029-4c12-b7be-71279018b265","ios":"levelo://app?vid=856b5c7d-f029-4c12-b7be-71279018b265"},"vehicle_type_id":"4","last_reported":1744460219,"current_range_meters":14800,"station_id":"cpo36qri1sfpv3e86is0","pricing_plan_id":"cebpf4jnsgd1na2vs0mg"},{"bike_id":"99941cc7-5163-4c4d-a1d2-debcdde82514","system_id":"levelo_inurba_marseille","lat":43.21201,"lon":5.35062,"is_reserved":false,"is_disabled":false,"rental_uris":{"android":"levelo://app?vid=99941cc7-5163-4c4d-a1d2-debcdde82514","ios":"levelo://app?vid=99941cc7-5163-4c4d-a1d2-debcdde82514"},"vehicle_type_id":"4","last_reported":1744460219,"current_range_meters":14800,"station_id":"st_cvj6sg6p6f1abm77japg","pricing_plan_id":"cebpf4jnsgd1na2vs0mg"},{"bike_id":"979dd4b0-0bf6-498c-9b4b-8469ffb53a54","system_id":"levelo_inurba_marseille","lat":43.26559,"lon":5.37285,"is_reserved":false,"is_disabled":false,"rental_uris":{"android":"levelo://app?vid=979dd4b0-0bf6-498c-9b4b-8469ffb53a54","ios":"levelo://app?vid=979dd4b0-0bf6-498c-9b4b-8469ffb53a54"},"vehicle_type_id":"4","last_reported":1744460219,"current_range_meters":14800,"station_id":"ce4bhg12rcd13ifvqf70","pricing_plan_id":"cebpf4jnsgd1na2vs0mg"},{"bike_id":"d5005409-a8ff-4cbe-9a3f-cba028ddf226","system_id":"levelo_inurba_marseille","lat":43.25008,"lon":5.38944,"is_reserved":false,"is_disabled":false,"rental_uris":{"android":"levelo://app?vid=d5005409-a8ff-4cbe-9a3f-cba028ddf226","ios":"levelo://app?vid=d5005409-a8ff-4cbe-9a3f-cba028ddf226"},"vehicle_type_id":"4","last_reported":1744460219,"current_range_meters":14800,"station_id":"ce4bhgp2rcd13ifvqfd0","pricing_plan_id":"cebpf4jnsgd1na2vs0mg"},{"bike_id":"2743f349-7e05-4235-bb41-b6a705deb16f","system_id":"levelo_inurba_marseille","lat":43.29271,"lon":5.38442,"is_reserved":false,"is_disabled":false,"rental_uris":{"android":"levelo://app?vid=2743f349-7e05-4235-bb41-b6a705deb16f","ios":"levelo://app?vid=2743f349-7e05-4235-bb41-b6a705deb16f"},"vehicle_type_id":"4","last_reported":1744460219,"current_range_meters":14800,"station_id":"ce4bh692rcd13ifvqea0","pricing_plan_id":"cebpf4jnsgd1na2vs0mg"},{"bike_id":"9b0222cc-ef4b-4430-b20b-e9d035b2914c","system_id":"levelo_inurba_marseille","lat":43.29038,"lon":5.37564,"is_reserved":false,"is_disabled":false,"rental_uris":{"android":"levelo://app?vid=9b0222cc-ef4b-4430-b20b-e9d035b2914c","ios":"levelo://app?vid=9b0222cc-ef4b-4430-b20b-e9d035b2914c"},"vehicle_type_id":"4","last_reported":1744460219,"current_range_meters":14800,"station_id":"ce4bh692rcd13ifvqe90","pricing_plan_id":"cebpf4jnsgd1na2vs0mg"},{"bike_id":"4425a792-ca9a-4257-84b0-8230c1e53350","system_id":"levelo_inurba_marseille","lat":43.26212,"lon":5.37445,"is_reserved":false,"is_disabled":false,"rental_uris":{"android":"levelo://app?vid=4425a792-ca9a-4257-84b0-8230c1e53350","ios":"levelo://app?vid=4425a792-ca9a-4257-84b0-8230c1e53350"},"vehicle_type_id":"4","last_reported":1744460219,"current_range_meters":15200,"station_id":"ce4bhgp2rcd13ifvqfc0","pricing_plan_id":"cebpf4jnsgd1na2vs0mg"},{"bike_id":"1ee2cc82-efab-4098-a2d5-3563cda18103","system_id":"levelo_inurba_marseille","lat":43.297977,"lon":5.404012,"is_reserved":false,"is_disabled":false,"rental_uris":{"android":"levelo://app?vid=1ee2cc82-efab-4098-a2d5-3563cda18103","ios":"levelo://app?vid=1ee2cc82-efab-4098-a2d5-3563cda18103"},"vehicle_type_id":"4","last_reported":1744460219,"current_range_meters":15200,"station_id":"ce4bh2h2rcd13ifvqdh0","pricing_plan_id":"cebpf4jnsgd1na2vs0mg"},{"bike_id":"2a271247-a85a-4a5e-8f0b-c154a35b3236","system_id":"levelo_inurba_marseille","lat":43.30793,"lon":5.37664,"is_reserved":false,"is_disabled":false,"rental_uris":{"android":"levelo://app?vid=2a271247-a85a-4a5e-8f0b-c154a35b3236","ios":"levelo://app?vid=2a271247-a85a-4a5e-8f0b-c154a35b3236"},"vehicle_type_id":"4","last_reported":1744460219,"current_range_meters":15200,"station_id":"ce4bgv92rcd13ifvqcq0","pricing_plan_id":"cebpf4jnsgd1na2vs0mg"},{"bike_id":"09641453-8c56-445d-b9fe-7f7ad9f26a9d","system_id":"levelo_inurba_marseille","lat":43.26561,"lon":5.37309,"is_reserved":false,"is_disabled":true,"rental_uris":{"android":"levelo://app?vid=09641453-8c56-445d-b9fe-7f7ad9f26a9d","ios":"levelo://app?vid=09641453-8c56-445d-b9fe-7f7ad9f26a9d"},"vehicle_type_id":"4","last_reported":1744460219,"current_range_meters":15200,"station_id":"ce4bhg12rcd13ifvqf70","pricing_plan_id":"cebpf4jnsgd1na2vs0mg"},{"bike_id":"97765486-f56a-4871-8d73-6638b015e899","system_id":"levelo_inurba_marseille","lat":43.26211,"lon":5.40441,"is_reserved":false,"is_disabled":false,"rental_uris":{"android":"levelo://app?vid=97765486-f56a-4871-8d73-6638b015e899","ios":"levelo://app?vid=97765486-f56a-4871-8d73-6638b015e899"},"vehicle_type_id":"4","last_reported":1744460219,"current_range_meters":16000,"station_id":"ce4bhmh2rcd13ifvqgmg","pricing_plan_id":"cebpf4jnsgd1na2vs0mg"},{"bike_id":"72c6aab6-3a44-430e-a84d-843d2a93e616","system_id":"levelo_inurba_marseille","lat":43.21192,"lon":5.35077,"is_reserved":false,"is_disabled":true,"rental_uris":{"android":"levelo://app?vid=72c6aab6-3a44-430e-a84d-843d2a93e616","ios":"levelo://app?vid=72c6aab6-3a44-430e-a84d-843d2a93e616"},"vehicle_type_id":"4","last_reported":1744460219,"current_range_meters":16000,"station_id":"st_cvj6sg6p6f1abm77japg","pricing_plan_id":"cebpf4jnsgd1na2vs0mg"},{"bike_id":"1efbc875-f991-4cb9-8cf7-709d6f2e27b2","system_id":"levelo_inurba_marseille","lat":43.26553,"lon":5.37286,"is_reserved":false,"is_disabled":false,"rental_uris":{"android":"levelo://app?vid=1efbc875-f991-4cb9-8cf7-709d6f2e27b2","ios":"levelo://app?vid=1efbc875-f991-4cb9-8cf7-709d6f2e27b2"},"vehicle_type_id":"4","last_reported":1744460219,"current_range_meters":16000,"station_id":"ce4bhg12rcd13ifvqf70","pricing_plan_id":"cebpf4jnsgd1na2vs0mg"},{"bike_id":"1f902e70-8424-4368-8d14-f667dae49164","system_id":"levelo_inurba_marseille","lat":43.29037,"lon":5.35917,"is_reserved":false,"is_disabled":false,"rental_uris":{"android":"levelo://app?vid=1f902e70-8424-4368-8d14-f667dae49164","ios":"levelo://app?vid=1f902e70-8424-4368-8d14-f667dae49164"},"vehicle_type_id":"4","last_reported":1744460219,"current_range_meters":16000,"station_id":"ce4bha92rcd13ifvqeg0","pricing_plan_id":"cebpf4jnsgd1na2vs0mg"},{"bike_id":"e0d14e9f-9dd9-4b88-aa07-d42519c27697","system_id":"levelo_inurba_marseille","lat":43.26563,"lon":5.39013,"is_reserved":false,"is_disabled":false,"rental_uris":{"android":"levelo://app?vid=e0d14e9f-9dd9-4b88-aa07-d42519c27697","ios":"levelo://app?vid=e0d14e9f-9dd9-4b88-aa07-d42519c27697"},"vehicle_type_id":"4","last_reported":1744460219,"current_range_meters":16000,"station_id":"ce4bhe12rcd13ifvqf30","pricing_plan_id":"cebpf4jnsgd1na2vs0mg"},{"bike_id":"60cbbbe7-f799-439f-8421-fed515b5e527","system_id":"levelo_inurba_marseille","lat":43.2483,"lon":5.37452,"is_reserved":false,"is_disabled":false,"rental_uris":{"android":"levelo://app?vid=60cbbbe7-f799-439f-8421-fed515b5e527","ios":"levelo://app?vid=60cbbbe7-f799-439f-8421-fed515b5e527"},"vehicle_type_id":"4","last_reported":1744460219,"current_range_meters":16000,"station_id":"ce4bhgh2rcd13ifvqfb0","pricing_plan_id":"cebpf4jnsgd1na2vs0mg"},{"bike_id":"d51a8c93-4a62-49ae-82cb-4bd383d80bde","system_id":"levelo_inurba_marseille","lat":43.28177,"lon":5.42661,"is_reserved":false,"is_disabled":false,"rental_uris":{"android":"levelo://app?vid=d51a8c93-4a62-49ae-82cb-4bd383d80bde","ios":"levelo://app?vid=d51a8c93-4a62-49ae-82cb-4bd383d80bde"},"vehicle_type_id":"4","last_reported":1744460219,"current_range_meters":16000,"station_id":"ce4bhnh2rcd13ifvqgug","pricing_plan_id":"cebpf4jnsgd1na2vs0mg"},{"bike_id":"b9034763-64b9-46f5-969a-88af6ef4543e","system_id":"levelo_inurba_marseille","lat":43.23193,"lon":5.35554,"is_reserved":false,"is_disabled":false,"rental_uris":{"android":"levelo://app?vid=b9034763-64b9-46f5-969a-88af6ef4543e","ios":"levelo://app?vid=b9034763-64b9-46f5-969a-88af6ef4543e"},"vehicle_type_id":"4","last_reported":1744460219,"current_range_meters":16000,"station_id":"ce4bhu92rcd13ifvqi70","pricing_plan_id":"cebpf4jnsgd1na2vs0mg"},{"bike_id":"c325691c-36ba-4dcf-bd28-f8c6745a3330","system_id":"levelo_inurba_marseille","lat":43.30555,"lon":5.36524,"is_reserved":false,"is_disabled":false,"rental_uris":{"android":"levelo://app?vid=c325691c-36ba-4dcf-bd28-f8c6745a3330","ios":"levelo://app?vid=c325691c-36ba-4dcf-bd28-f8c6745a3330"},"vehicle_type_id":"4","last_reported":1744460219,"current_range_meters":16000,"station_id":"ce4bgs12rcd13ifvqcag","pricing_plan_id":"cebpf4jnsgd1na2vs0mg"},{"bike_id":"8eca2e6c-79bd-43ac-be7b-c026ee159bd4","system_id":"levelo_inurba_marseille","lat":43.29372,"lon":5.378627,"is_reserved":false,"is_disabled":false,"rental_uris":{"android":"levelo://app?vid=8eca2e6c-79bd-43ac-be7b-c026ee159bd4","ios":"levelo://app?vid=8eca2e6c-79bd-43ac-be7b-c026ee159bd4"},"vehicle_type_id":"4","last_reported":1744460219,"current_range_meters":16000,"station_id":"ce4bgjh2rcd13ifvqbf0","pricing_plan_id":"cebpf4jnsgd1na2vs0mg"},{"bike_id":"eb1d4b7d-30fc-495b-a6a7-af63f85b9171","system_id":"levelo_inurba_marseille","lat":43.30101,"lon":5.39101,"is_reserved":false,"is_disabled":false,"rental_uris":{"android":"levelo://app?vid=eb1d4b7d-30fc-495b-a6a7-af63f85b9171","ios":"levelo://app?vid=eb1d4b7d-30fc-495b-a6a7-af63f85b9171"},"vehicle_type_id":"4","last_reported":1744460219,"current_range_meters":16000,"station_id":"ce4bh192rcd13ifvqdb0","pricing_plan_id":"cebpf4jnsgd1na2vs0mg"},{"bike_id":"fb16065f-06fa-4d91-b5ca-90c34023c854","system_id":"levelo_inurba_marseille","lat":43.26786,"lon":5.39414,"is_reserved":false,"is_disabled":false,"rental_uris":{"android":"levelo://app?vid=fb16065f-06fa-4d91-b5ca-90c34023c854","ios":"levelo://app?vid=fb16065f-06fa-4d91-b5ca-90c34023c854"},"vehicle_type_id":"4","last_reported":1744460219,"current_range_meters":16400,"station_id":"ce4bhh12rcd13ifvqfg0","pricing_plan_id":"cebpf4jnsgd1na2vs0mg"},{"bike_id":"37a17253-3d16-4b72-9b0b-4b36f84289f9","system_id":"levelo_inurba_marseille","lat":43.25492,"lon":5.37652,"is_reserved":false,"is_disabled":false,"rental_uris":{"android":"levelo://app?vid=37a17253-3d16-4b72-9b0b-4b36f84289f9","ios":"levelo://app?vid=37a17253-3d16-4b72-9b0b-4b36f84289f9"},"vehicle_type_id":"4","last_reported":1744460219,"current_range_meters":16000,"station_id":"ce4bhh12rcd13ifvqff0","pricing_plan_id":"cebpf4jnsgd1na2vs0mg"},{"bike_id":"51ae49fe-93e7-484b-b925-a3fee3cec470","system_id":"levelo_inurba_marseille","lat":43.23073,"lon":5.35484,"is_reserved":false,"is_disabled":false,"rental_uris":{"android":"levelo://app?vid=51ae49fe-93e7-484b-b925-a3fee3cec470","ios":"levelo://app?vid=51ae49fe-93e7-484b-b925-a3fee3cec470"},"vehicle_type_id":"4","last_reported":1744460219,"current_range_meters":16000,"station_id":"cpo3342slgdg3j2ifvpg","pricing_plan_id":"cebpf4jnsgd1na2vs0mg"},{"bike_id":"8043ed93-c0e0-4b20-a22a-1ce703744524","system_id":"levelo_inurba_marseille","lat":43.28942,"lon":5.36641,"is_reserved":false,"is_disabled":true,"rental_uris":{"android":"levelo://app?vid=8043ed93-c0e0-4b20-a22a-1ce703744524","ios":"levelo://app?vid=8043ed93-c0e0-4b20-a22a-1ce703744524"},"vehicle_type_id":"4","last_reported":1744460219,"current_range_meters":16000,"station_id":"ce4bhap2rcd13ifvqek0","pricing_plan_id":"cebpf4jnsgd1na2vs0mg"},{"bike_id":"0cc0d9bc-eb73-4a11-9c64-d2a7812e9ddf","system_id":"levelo_inurba_marseille","lat":43.24808,"lon":5.37464,"is_reserved":false,"is_disabled":false,"rental_uris":{"android":"levelo://app?vid=0cc0d9bc-eb73-4a11-9c64-d2a7812e9ddf","ios":"levelo://app?vid=0cc0d9bc-eb73-4a11-9c64-d2a7812e9ddf"},"vehicle_type_id":"4","last_reported":1744460219,"current_range_meters":16400,"station_id":"ce4bhgh2rcd13ifvqfb0","pricing_plan_id":"cebpf4jnsgd1na2vs0mg"},{"bike_id":"534b5b81-01fb-48e1-8332-0d13dec35f23","system_id":"levelo_inurba_marseille","lat":43.32343,"lon":5.40625,"is_reserved":false,"is_disabled":false,"rental_uris":{"android":"levelo://app?vid=534b5b81-01fb-48e1-8332-0d13dec35f23","ios":"levelo://app?vid=534b5b81-01fb-48e1-8332-0d13dec35f23"},"vehicle_type_id":"4","last_reported":1744460219,"current_range_meters":16400,"station_id":"ce4bhq92rcd13ifvqhjg","pricing_plan_id":"cebpf4jnsgd1na2vs0mg"},{"bike_id":"dc0fc37b-245c-4040-8686-f32b8a543409","system_id":"levelo_inurba_marseille","lat":43.24394,"lon":5.37054,"is_reserved":false,"is_disabled":false,"rental_uris":{"android":"levelo://app?vid=dc0fc37b-245c-4040-8686-f32b8a543409","ios":"levelo://app?vid=dc0fc37b-245c-4040-8686-f32b8a543409"},"vehicle_type_id":"4","last_reported":1744460219,"current_range_meters":16400,"station_id":"ce4bhhh2rcd13ifvqfk0","pricing_plan_id":"cebpf4jnsgd1na2vs0mg"},{"bike_id":"f0cbfaae-d00c-4b35-bd62-1efcb15b5651","system_id":"levelo_inurba_marseille","lat":43.231949,"lon":5.355532,"is_reserved":false,"is_disabled":false,"rental_uris":{"android":"levelo://app?vid=f0cbfaae-d00c-4b35-bd62-1efcb15b5651","ios":"levelo://app?vid=f0cbfaae-d00c-4b35-bd62-1efcb15b5651"},"vehicle_type_id":"4","last_reported":1744460219,"current_range_meters":16400,"station_id":"ce4bhu92rcd13ifvqi70","pricing_plan_id":"cebpf4jnsgd1na2vs0mg"},{"bike_id":"888af59d-0488-475f-b856-db079e240b61","system_id":"levelo_inurba_marseille","lat":43.29002,"lon":5.35588,"is_reserved":false,"is_disabled":false,"rental_uris":{"android":"levelo://app?vid=888af59d-0488-475f-b856-db079e240b61","ios":"levelo://app?vid=888af59d-0488-475f-b856-db079e240b61"},"vehicle_type_id":"4","last_reported":1744460219,"current_range_meters":16400,"station_id":"ce4bhb92rcd13ifvqen0","pricing_plan_id":"cebpf4jnsgd1na2vs0mg"},{"bike_id":"61a3d5d1-9d16-4507-a934-21de523ba06e","system_id":"levelo_inurba_marseille","lat":43.2969,"lon":5.36719,"is_reserved":false,"is_disabled":false,"rental_uris":{"android":"levelo://app?vid=61a3d5d1-9d16-4507-a934-21de523ba06e","ios":"levelo://app?vid=61a3d5d1-9d16-4507-a934-21de523ba06e"},"vehicle_type_id":"4","last_reported":1744460219,"current_range_meters":16400,"station_id":"","pricing_plan_id":"cebpf4jnsgd1na2vs0mg"},{"bike_id":"82d38bd3-c046-4f55-aec8-4eb686f05e29","system_id":"levelo_inurba_marseille","lat":43.22928,"lon":5.3538,"is_reserved":false,"is_disabled":true,"rental_uris":{"android":"levelo://app?vid=82d38bd3-c046-4f55-aec8-4eb686f05e29","ios":"levelo://app?vid=82d38bd3-c046-4f55-aec8-4eb686f05e29"},"vehicle_type_id":"4","last_reported":1744460219,"current_range_meters":16400,"station_id":"cpo3532slgdg3j2ikp40","pricing_plan_id":"cebpf4jnsgd1na2vs0mg"},{"bike_id":"cbd077b7-792f-43f2-b760-f4d40dbf06b5","system_id":"levelo_inurba_marseille","lat":43.2993,"lon":5.36551,"is_reserved":false,"is_disabled":false,"rental_uris":{"android":"levelo://app?vid=cbd077b7-792f-43f2-b760-f4d40dbf06b5","ios":"levelo://app?vid=cbd077b7-792f-43f2-b760-f4d40dbf06b5"},"vehicle_type_id":"4","last_reported":1744460219,"current_range_meters":16400,"station_id":"ce4bgm92rcd13ifvqbr0","pricing_plan_id":"cebpf4jnsgd1na2vs0mg"},{"bike_id":"1364d118-8104-4b6e-a5aa-a4ed22312199","system_id":"levelo_inurba_marseille","lat":43.29616,"lon":5.3774,"is_reserved":false,"is_disabled":false,"rental_uris":{"android":"levelo://app?vid=1364d118-8104-4b6e-a5aa-a4ed22312199","ios":"levelo://app?vid=1364d118-8104-4b6e-a5aa-a4ed22312199"},"vehicle_type_id":"4","last_reported":1744460219,"current_range_meters":16400,"station_id":"ce4bgi92rcd13ifvqb90","pricing_plan_id":"cebpf4jnsgd1na2vs0mg"},{"bike_id":"c2e24641-64bd-41c8-b438-246d5964d60b","system_id":"levelo_inurba_marseille","lat":43.294349,"lon":5.397518,"is_reserved":false,"is_disabled":false,"rental_uris":{"android":"levelo://app?vid=c2e24641-64bd-41c8-b438-246d5964d60b","ios":"levelo://app?vid=c2e24641-64bd-41c8-b438-246d5964d60b"},"vehicle_type_id":"4","last_reported":1744460219,"current_range_meters":16800,"station_id":"ce4bh4p2rcd13ifvqe1g","pricing_plan_id":"cebpf4jnsgd1na2vs0mg"},{"bike_id":"494ee771-1624-439a-b551-4959cb7af5a4","system_id":"levelo_inurba_marseille","lat":43.24392,"lon":5.37061,"is_reserved":false,"is_disabled":false,"rental_uris":{"android":"levelo://app?vid=494ee771-1624-439a-b551-4959cb7af5a4","ios":"levelo://app?vid=494ee771-1624-439a-b551-4959cb7af5a4"},"vehicle_type_id":"4","last_reported":1744460219,"current_range_meters":16800,"station_id":"ce4bhhh2rcd13ifvqfk0","pricing_plan_id":"cebpf4jnsgd1na2vs0mg"},{"bike_id":"0663e361-5ecb-4ca0-bfaa-c01a2f66fe21","system_id":"levelo_inurba_marseille","lat":43.32005,"lon":5.38128,"is_reserved":false,"is_disabled":false,"rental_uris":{"android":"levelo://app?vid=0663e361-5ecb-4ca0-bfaa-c01a2f66fe21","ios":"levelo://app?vid=0663e361-5ecb-4ca0-bfaa-c01a2f66fe21"},"vehicle_type_id":"4","last_reported":1744460219,"current_range_meters":16800,"station_id":"ce4bhr12rcd13ifvqhpg","pricing_plan_id":"cebpf4jnsgd1na2vs0mg"},{"bike_id":"020e9999-d552-48d0-ae5f-b725af0dbea2","system_id":"levelo_inurba_marseille","lat":43.2992,"lon":5.43766,"is_reserved":false,"is_disabled":false,"rental_uris":{"android":"levelo://app?vid=020e9999-d552-48d0-ae5f-b725af0dbea2","ios":"levelo://app?vid=020e9999-d552-48d0-ae5f-b725af0dbea2"},"vehicle_type_id":"4","last_reported":1744460219,"current_range_meters":16800,"station_id":"","pricing_plan_id":"cebpf4jnsgd1na2vs0mg"},{"bike_id":"469d7df9-253b-4e92-aa13-40bf8ef53df8","system_id":"levelo_inurba_marseille","lat":43.23977,"lon":5.36628,"is_reserved":false,"is_disabled":false,"rental_uris":{"android":"levelo://app?vid=469d7df9-253b-4e92-aa13-40bf8ef53df8","ios":"levelo://app?vid=469d7df9-253b-4e92-aa13-40bf8ef53df8"},"vehicle_type_id":"4","last_reported":1744460219,"current_range_meters":16800,"station_id":"ce4bhi12rcd13ifvqfp0","pricing_plan_id":"cebpf4jnsgd1na2vs0mg"},{"bike_id":"4a0f8eea-529b-465d-8966-94bd4557b10c","system_id":"levelo_inurba_marseille","lat":43.21184,"lon":5.35075,"is_reserved":false,"is_disabled":false,"rental_uris":{"android":"levelo://app?vid=4a0f8eea-529b-465d-8966-94bd4557b10c","ios":"levelo://app?vid=4a0f8eea-529b-465d-8966-94bd4557b10c"},"vehicle_type_id":"4","last_reported":1744460219,"current_range_meters":16800,"station_id":"ce4bgkp2rcd13ifvqbmg","pricing_plan_id":"cebpf4jnsgd1na2vs0mg"},{"bike_id":"73a81525-79dd-40a2-86b0-fb40c9b2799a","system_id":"levelo_inurba_marseille","lat":43.225011,"lon":5.347709,"is_reserved":false,"is_disabled":false,"rental_uris":{"android":"levelo://app?vid=73a81525-79dd-40a2-86b0-fb40c9b2799a","ios":"levelo://app?vid=73a81525-79dd-40a2-86b0-fb40c9b2799a"},"vehicle_type_id":"4","last_reported":1744460219,"current_range_meters":16800,"station_id":"","pricing_plan_id":"cebpf4jnsgd1na2vs0mg"},{"bike_id":"0b7df8b7-ebf5-4f9b-acc8-83bc2d730df9","system_id":"levelo_inurba_marseille","lat":43.24805,"lon":5.3746,"is_reserved":false,"is_disabled":false,"rental_uris":{"android":"levelo://app?vid=0b7df8b7-ebf5-4f9b-acc8-83bc2d730df9","ios":"levelo://app?vid=0b7df8b7-ebf5-4f9b-acc8-83bc2d730df9"},"vehicle_type_id":"4","last_reported":1744460219,"current_range_meters":16800,"station_id":"ce4bhgh2rcd13ifvqfb0","pricing_plan_id":"cebpf4jnsgd1na2vs0mg"},{"bike_id":"6ee3c9bc-f11e-4c9d-9155-dd0d3b4ba0da","system_id":"levelo_inurba_marseille","lat":43.30951,"lon":5.39028,"is_reserved":false,"is_disabled":false,"rental_uris":{"android":"levelo://app?vid=6ee3c9bc-f11e-4c9d-9155-dd0d3b4ba0da","ios":"levelo://app?vid=6ee3c9bc-f11e-4c9d-9155-dd0d3b4ba0da"},"vehicle_type_id":"4","last_reported":1744460219,"current_range_meters":16400,"station_id":"ce4bgup2rcd13ifvqco0","pricing_plan_id":"cebpf4jnsgd1na2vs0mg"},{"bike_id":"83d0260c-0802-4910-8803-40e8fc992b82","system_id":"levelo_inurba_marseille","lat":43.21751,"lon":5.34609,"is_reserved":false,"is_disabled":false,"rental_uris":{"android":"levelo://app?vid=83d0260c-0802-4910-8803-40e8fc992b82","ios":"levelo://app?vid=83d0260c-0802-4910-8803-40e8fc992b82"},"vehicle_type_id":"4","last_reported":1744460219,"current_range_meters":17200,"station_id":"st_cvj6r9ubvosntc0bgbag","pricing_plan_id":"cebpf4jnsgd1na2vs0mg"},{"bike_id":"b55dd5e7-54b2-4035-b945-7b626dd7afc7","system_id":"levelo_inurba_marseille","lat":43.27545,"lon":5.40913,"is_reserved":false,"is_disabled":false,"rental_uris":{"android":"levelo://app?vid=b55dd5e7-54b2-4035-b945-7b626dd7afc7","ios":"levelo://app?vid=b55dd5e7-54b2-4035-b945-7b626dd7afc7"},"vehicle_type_id":"4","last_reported":1744460219,"current_range_meters":17200,"station_id":"","pricing_plan_id":"cebpf4jnsgd1na2vs0mg"},{"bike_id":"982bb1bc-457f-43d7-ae21-85035c856353","system_id":"levelo_inurba_marseille","lat":43.22491,"lon":5.34779,"is_reserved":false,"is_disabled":false,"rental_uris":{"android":"levelo://app?vid=982bb1bc-457f-43d7-ae21-85035c856353","ios":"levelo://app?vid=982bb1bc-457f-43d7-ae21-85035c856353"},"vehicle_type_id":"4","last_reported":1744460219,"current_range_meters":17200,"station_id":"st_cvj5dfep6f1abm77gieg","pricing_plan_id":"cebpf4jnsgd1na2vs0mg"},{"bike_id":"db9cdcec-b5ee-409b-adf3-2fb9b83088c4","system_id":"levelo_inurba_marseille","lat":43.30938,"lon":5.37374,"is_reserved":false,"is_disabled":false,"rental_uris":{"android":"levelo://app?vid=db9cdcec-b5ee-409b-adf3-2fb9b83088c4","ios":"levelo://app?vid=db9cdcec-b5ee-409b-adf3-2fb9b83088c4"},"vehicle_type_id":"4","last_reported":1744460219,"current_range_meters":17200,"station_id":"","pricing_plan_id":"cebpf4jnsgd1na2vs0mg"},{"bike_id":"c70018c3-8009-4170-beb3-df22bd6b24c0","system_id":"levelo_inurba_marseille","lat":43.24178,"lon":5.39741,"is_reserved":false,"is_disabled":false,"rental_uris":{"android":"levelo://app?vid=c70018c3-8009-4170-beb3-df22bd6b24c0","ios":"levelo://app?vid=c70018c3-8009-4170-beb3-df22bd6b24c0"},"vehicle_type_id":"4","last_reported":1744460219,"current_range_meters":17200,"station_id":"ce4bhn12rcd13ifvqgpg","pricing_plan_id":"cebpf4jnsgd1na2vs0mg"},{"bike_id":"8094dbe0-fcf2-49a7-9f7e-e19a917cbcfa","system_id":"levelo_inurba_marseille","lat":43.21191,"lon":5.35076,"is_reserved":false,"is_disabled":false,"rental_uris":{"android":"levelo://app?vid=8094dbe0-fcf2-49a7-9f7e-e19a917cbcfa","ios":"levelo://app?vid=8094dbe0-fcf2-49a7-9f7e-e19a917cbcfa"},"vehicle_type_id":"4","last_reported":1744460219,"current_range_meters":17200,"station_id":"cpo3342slgdg3j2ifvpg","pricing_plan_id":"cebpf4jnsgd1na2vs0mg"},{"bike_id":"d8b9884b-4022-4710-9f87-50e0dbfd421d","system_id":"levelo_inurba_marseille","lat":43.24183,"lon":5.36394,"is_reserved":false,"is_disabled":false,"rental_uris":{"android":"levelo://app?vid=d8b9884b-4022-4710-9f87-50e0dbfd421d","ios":"levelo://app?vid=d8b9884b-4022-4710-9f87-50e0dbfd421d"},"vehicle_type_id":"4","last_reported":1744460219,"current_range_meters":17200,"station_id":"cpo36qri1sfpv3e86is0","pricing_plan_id":"cebpf4jnsgd1na2vs0mg"},{"bike_id":"c2243b90-9bc5-4936-8635-bb5ccac3bd07","system_id":"levelo_inurba_marseille","lat":43.30538,"lon":5.36563,"is_reserved":false,"is_disabled":false,"rental_uris":{"android":"levelo://app?vid=c2243b90-9bc5-4936-8635-bb5ccac3bd07","ios":"levelo://app?vid=c2243b90-9bc5-4936-8635-bb5ccac3bd07"},"vehicle_type_id":"4","last_reported":1744460219,"current_range_meters":17200,"station_id":"ce4bgs12rcd13ifvqcag","pricing_plan_id":"cebpf4jnsgd1na2vs0mg"},{"bike_id":"a98cbd00-0248-4216-820f-0d0f18579aa2","system_id":"levelo_inurba_marseille","lat":43.32116,"lon":5.36769,"is_reserved":false,"is_disabled":false,"rental_uris":{"android":"levelo://app?vid=a98cbd00-0248-4216-820f-0d0f18579aa2","ios":"levelo://app?vid=a98cbd00-0248-4216-820f-0d0f18579aa2"},"vehicle_type_id":"4","last_reported":1744460219,"current_range_meters":17200,"station_id":"ce4bhrh2rcd13ifvqhug","pricing_plan_id":"cebpf4jnsgd1na2vs0mg"},{"bike_id":"8a8a48df-1fae-40dc-817a-265d8491cc57","system_id":"levelo_inurba_marseille","lat":43.30166,"lon":5.37391,"is_reserved":false,"is_disabled":false,"rental_uris":{"android":"levelo://app?vid=8a8a48df-1fae-40dc-817a-265d8491cc57","ios":"levelo://app?vid=8a8a48df-1fae-40dc-817a-265d8491cc57"},"vehicle_type_id":"4","last_reported":1744460219,"current_range_meters":17200,"station_id":"ce4bgs92rcd13ifvqcc0","pricing_plan_id":"cebpf4jnsgd1na2vs0mg"},{"bike_id":"c7ad6a37-e27c-42cd-884a-41c6b4aef355","system_id":"levelo_inurba_marseille","lat":43.28998,"lon":5.35602,"is_reserved":false,"is_disabled":false,"rental_uris":{"android":"levelo://app?vid=c7ad6a37-e27c-42cd-884a-41c6b4aef355","ios":"levelo://app?vid=c7ad6a37-e27c-42cd-884a-41c6b4aef355"},"vehicle_type_id":"4","last_reported":1744460219,"current_range_meters":17200,"station_id":"ce4bhb92rcd13ifvqen0","pricing_plan_id":"cebpf4jnsgd1na2vs0mg"},{"bike_id":"e27cca32-81ca-4e58-b6a9-2a96e597c157","system_id":"levelo_inurba_marseille","lat":43.26209,"lon":5.37444,"is_reserved":false,"is_disabled":false,"rental_uris":{"android":"levelo://app?vid=e27cca32-81ca-4e58-b6a9-2a96e597c157","ios":"levelo://app?vid=e27cca32-81ca-4e58-b6a9-2a96e597c157"},"vehicle_type_id":"4","last_reported":1744460219,"current_range_meters":17600,"station_id":"ce4bhgp2rcd13ifvqfc0","pricing_plan_id":"cebpf4jnsgd1na2vs0mg"},{"bike_id":"90c5dcb0-afb2-4ab6-8a55-4b7cf4a66c02","system_id":"levelo_inurba_marseille","lat":43.2656,"lon":5.37306,"is_reserved":false,"is_disabled":false,"rental_uris":{"android":"levelo://app?vid=90c5dcb0-afb2-4ab6-8a55-4b7cf4a66c02","ios":"levelo://app?vid=90c5dcb0-afb2-4ab6-8a55-4b7cf4a66c02"},"vehicle_type_id":"4","last_reported":1744460219,"current_range_meters":17600,"station_id":"ce4bhg12rcd13ifvqf70","pricing_plan_id":"cebpf4jnsgd1na2vs0mg"},{"bike_id":"8318ad76-d733-45be-b379-0e5b10b83d77","system_id":"levelo_inurba_marseille","lat":43.30161,"lon":5.38085,"is_reserved":false,"is_disabled":false,"rental_uris":{"android":"levelo://app?vid=8318ad76-d733-45be-b379-0e5b10b83d77","ios":"levelo://app?vid=8318ad76-d733-45be-b379-0e5b10b83d77"},"vehicle_type_id":"4","last_reported":1744460219,"current_range_meters":17600,"station_id":"ce4bgjp2rcd13ifvqbh0","pricing_plan_id":"cebpf4jnsgd1na2vs0mg"},{"bike_id":"ab81494b-a95f-4f82-a7f5-9923f4a5f4d8","system_id":"levelo_inurba_marseille","lat":43.21201,"lon":5.35071,"is_reserved":false,"is_disabled":false,"rental_uris":{"android":"levelo://app?vid=ab81494b-a95f-4f82-a7f5-9923f4a5f4d8","ios":"levelo://app?vid=ab81494b-a95f-4f82-a7f5-9923f4a5f4d8"},"vehicle_type_id":"4","last_reported":1744460219,"current_range_meters":18000,"station_id":"st_cvj6sg6p6f1abm77japg","pricing_plan_id":"cebpf4jnsgd1na2vs0mg"},{"bike_id":"3de99220-b861-4c71-9e3f-612760824faa","system_id":"levelo_inurba_marseille","lat":43.21215,"lon":5.35057,"is_reserved":false,"is_disabled":false,"rental_uris":{"android":"levelo://app?vid=3de99220-b861-4c71-9e3f-612760824faa","ios":"levelo://app?vid=3de99220-b861-4c71-9e3f-612760824faa"},"vehicle_type_id":"4","last_reported":1744460219,"current_range_meters":17600,"station_id":"st_cvj6sg6p6f1abm77japg","pricing_plan_id":"cebpf4jnsgd1na2vs0mg"},{"bike_id":"5591936e-ca63-41c7-89f3-9c9493c86f89","system_id":"levelo_inurba_marseille","lat":43.24178,"lon":5.36381,"is_reserved":false,"is_disabled":false,"rental_uris":{"android":"levelo://app?vid=5591936e-ca63-41c7-89f3-9c9493c86f89","ios":"levelo://app?vid=5591936e-ca63-41c7-89f3-9c9493c86f89"},"vehicle_type_id":"4","last_reported":1744460219,"current_range_meters":17600,"station_id":"cpo36qri1sfpv3e86is0","pricing_plan_id":"cebpf4jnsgd1na2vs0mg"},{"bike_id":"f7c97f43-e29d-4d70-a127-9f62af35cf4c","system_id":"levelo_inurba_marseille","lat":43.29973,"lon":5.38482,"is_reserved":false,"is_disabled":false,"rental_uris":{"android":"levelo://app?vid=f7c97f43-e29d-4d70-a127-9f62af35cf4c","ios":"levelo://app?vid=f7c97f43-e29d-4d70-a127-9f62af35cf4c"},"vehicle_type_id":"4","last_reported":1744460219,"current_range_meters":18000,"station_id":"ce4bgj92rcd13ifvqbd0","pricing_plan_id":"cebpf4jnsgd1na2vs0mg"},{"bike_id":"6c039287-ac74-4189-8807-dbf3e6be2d5c","system_id":"levelo_inurba_marseille","lat":43.288483,"lon":5.393087,"is_reserved":false,"is_disabled":false,"rental_uris":{"android":"levelo://app?vid=6c039287-ac74-4189-8807-dbf3e6be2d5c","ios":"levelo://app?vid=6c039287-ac74-4189-8807-dbf3e6be2d5c"},"vehicle_type_id":"4","last_reported":1744460219,"current_range_meters":18000,"station_id":"ce4bh2p2rcd13ifvqdi0","pricing_plan_id":"cebpf4jnsgd1na2vs0mg"},{"bike_id":"95e59f1f-4d59-4266-8b3f-582f63a06ec8","system_id":"levelo_inurba_marseille","lat":43.261186,"lon":5.414705,"is_reserved":false,"is_disabled":false,"rental_uris":{"android":"levelo://app?vid=95e59f1f-4d59-4266-8b3f-582f63a06ec8","ios":"levelo://app?vid=95e59f1f-4d59-4266-8b3f-582f63a06ec8"},"vehicle_type_id":"4","last_reported":1744460219,"current_range_meters":18000,"station_id":"","pricing_plan_id":"cebpf4jnsgd1na2vs0mg"},{"bike_id":"1606f314-9f39-4b36-9822-bcb5574d48db","system_id":"levelo_inurba_marseille","lat":43.24389,"lon":5.37061,"is_reserved":false,"is_disabled":false,"rental_uris":{"android":"levelo://app?vid=1606f314-9f39-4b36-9822-bcb5574d48db","ios":"levelo://app?vid=1606f314-9f39-4b36-9822-bcb5574d48db"},"vehicle_type_id":"4","last_reported":1744460219,"current_range_meters":18000,"station_id":"ce4bhhh2rcd13ifvqfk0","pricing_plan_id":"cebpf4jnsgd1na2vs0mg"},{"bike_id":"661c3bca-81a3-4c0a-8a25-786cb8d71ae7","system_id":"levelo_inurba_marseille","lat":43.23065,"lon":5.35498,"is_reserved":false,"is_disabled":false,"rental_uris":{"android":"levelo://app?vid=661c3bca-81a3-4c0a-8a25-786cb8d71ae7","ios":"levelo://app?vid=661c3bca-81a3-4c0a-8a25-786cb8d71ae7"},"vehicle_type_id":"4","last_reported":1744460219,"current_range_meters":18000,"station_id":"cpo3342slgdg3j2ifvpg","pricing_plan_id":"cebpf4jnsgd1na2vs0mg"},{"bike_id":"84ea58c3-610b-461c-9b3e-fc3ed912e100","system_id":"levelo_inurba_marseille","lat":43.23191,"lon":5.35555,"is_reserved":false,"is_disabled":false,"rental_uris":{"android":"levelo://app?vid=84ea58c3-610b-461c-9b3e-fc3ed912e100","ios":"levelo://app?vid=84ea58c3-610b-461c-9b3e-fc3ed912e100"},"vehicle_type_id":"4","last_reported":1744460219,"current_range_meters":18000,"station_id":"ce4bhu92rcd13ifvqi70","pricing_plan_id":"cebpf4jnsgd1na2vs0mg"},{"bike_id":"21127257-eff7-474d-8ad8-e3337a0a4ddf","system_id":"levelo_inurba_marseille","lat":43.2984,"lon":5.36087,"is_reserved":false,"is_disabled":false,"rental_uris":{"android":"levelo://app?vid=21127257-eff7-474d-8ad8-e3337a0a4ddf","ios":"levelo://app?vid=21127257-eff7-474d-8ad8-e3337a0a4ddf"},"vehicle_type_id":"4","last_reported":1744460219,"current_range_meters":18000,"station_id":"","pricing_plan_id":"cebpf4jnsgd1na2vs0mg"},{"bike_id":"239b457a-7da8-49b2-9197-3c47133b2b7d","system_id":"levelo_inurba_marseille","lat":43.29021,"lon":5.40032,"is_reserved":false,"is_disabled":true,"rental_uris":{"android":"levelo://app?vid=239b457a-7da8-49b2-9197-3c47133b2b7d","ios":"levelo://app?vid=239b457a-7da8-49b2-9197-3c47133b2b7d"},"vehicle_type_id":"4","last_reported":1744460219,"current_range_meters":18000,"station_id":"","pricing_plan_id":"cebpf4jnsgd1na2vs0mg"},{"bike_id":"3f57a749-97b9-45d8-a91e-c7718a7baf36","system_id":"levelo_inurba_marseille","lat":43.29043,"lon":5.35923,"is_reserved":false,"is_disabled":false,"rental_uris":{"android":"levelo://app?vid=3f57a749-97b9-45d8-a91e-c7718a7baf36","ios":"levelo://app?vid=3f57a749-97b9-45d8-a91e-c7718a7baf36"},"vehicle_type_id":"4","last_reported":1744460219,"current_range_meters":18800,"station_id":"ce4bha92rcd13ifvqeg0","pricing_plan_id":"cebpf4jnsgd1na2vs0mg"},{"bike_id":"eb5e4020-a8ea-4b19-b3ff-391a070f8647","system_id":"levelo_inurba_marseille","lat":43.29618,"lon":5.37744,"is_reserved":false,"is_disabled":false,"rental_uris":{"android":"levelo://app?vid=eb5e4020-a8ea-4b19-b3ff-391a070f8647","ios":"levelo://app?vid=eb5e4020-a8ea-4b19-b3ff-391a070f8647"},"vehicle_type_id":"4","last_reported":1744460219,"current_range_meters":18800,"station_id":"ce4bgi92rcd13ifvqb90","pricing_plan_id":"cebpf4jnsgd1na2vs0mg"},{"bike_id":"c078cc53-3632-4fbd-8bdc-148f8b34c095","system_id":"levelo_inurba_marseille","lat":43.298401,"lon":5.38399,"is_reserved":false,"is_disabled":false,"rental_uris":{"android":"levelo://app?vid=c078cc53-3632-4fbd-8bdc-148f8b34c095","ios":"levelo://app?vid=c078cc53-3632-4fbd-8bdc-148f8b34c095"},"vehicle_type_id":"4","last_reported":1744460219,"current_range_meters":18800,"station_id":"ce4bh292rcd13ifvqdf0","pricing_plan_id":"cebpf4jnsgd1na2vs0mg"},{"bike_id":"992c4c99-cc62-4783-8c07-0e65116a6bd8","system_id":"levelo_inurba_marseille","lat":43.25507,"lon":5.37655,"is_reserved":false,"is_disabled":false,"rental_uris":{"android":"levelo://app?vid=992c4c99-cc62-4783-8c07-0e65116a6bd8","ios":"levelo://app?vid=992c4c99-cc62-4783-8c07-0e65116a6bd8"},"vehicle_type_id":"4","last_reported":1744460219,"current_range_meters":18800,"station_id":"ce4bhh12rcd13ifvqff0","pricing_plan_id":"cebpf4jnsgd1na2vs0mg"},{"bike_id":"900185f9-9c3d-4489-8e73-af552a3471d5","system_id":"levelo_inurba_marseille","lat":43.28619,"lon":5.35107,"is_reserved":false,"is_disabled":false,"rental_uris":{"android":"levelo://app?vid=900185f9-9c3d-4489-8e73-af552a3471d5","ios":"levelo://app?vid=900185f9-9c3d-4489-8e73-af552a3471d5"},"vehicle_type_id":"4","last_reported":1744460219,"current_range_meters":19200,"station_id":"ce4bhch2rcd13ifvqeug","pricing_plan_id":"cebpf4jnsgd1na2vs0mg"},{"bike_id":"e789614e-300f-4558-bbc4-df11098d993e","system_id":"levelo_inurba_marseille","lat":43.265625,"lon":5.390228,"is_reserved":false,"is_disabled":false,"rental_uris":{"android":"levelo://app?vid=e789614e-300f-4558-bbc4-df11098d993e","ios":"levelo://app?vid=e789614e-300f-4558-bbc4-df11098d993e"},"vehicle_type_id":"4","last_reported":1744460219,"current_range_meters":19200,"station_id":"ce4bhip2rcd13ifvqft0","pricing_plan_id":"cebpf4jnsgd1na2vs0mg"},{"bike_id":"38cb3a38-466f-4ebe-9b3b-d084f4b8d92b","system_id":"levelo_inurba_marseille","lat":43.28414,"lon":5.34998,"is_reserved":false,"is_disabled":false,"rental_uris":{"android":"levelo://app?vid=38cb3a38-466f-4ebe-9b3b-d084f4b8d92b","ios":"levelo://app?vid=38cb3a38-466f-4ebe-9b3b-d084f4b8d92b"},"vehicle_type_id":"4","last_reported":1744460219,"current_range_meters":19200,"station_id":"ce4bhbh2rcd13ifvqepg","pricing_plan_id":"cebpf4jnsgd1na2vs0mg"},{"bike_id":"d1a9686e-66ad-4448-9694-23a5f2c141fa","system_id":"levelo_inurba_marseille","lat":43.29504,"lon":5.37525,"is_reserved":false,"is_disabled":false,"rental_uris":{"android":"levelo://app?vid=d1a9686e-66ad-4448-9694-23a5f2c141fa","ios":"levelo://app?vid=d1a9686e-66ad-4448-9694-23a5f2c141fa"},"vehicle_type_id":"4","last_reported":1744460219,"current_range_meters":18800,"station_id":"ce4bgkp2rcd13ifvqbmg","pricing_plan_id":"cebpf4jnsgd1na2vs0mg"},{"bike_id":"ad0e6f6f-8fbd-4b75-a87d-c81f2452e41b","system_id":"levelo_inurba_marseille","lat":43.30146,"lon":5.380684,"is_reserved":false,"is_disabled":false,"rental_uris":{"android":"levelo://app?vid=ad0e6f6f-8fbd-4b75-a87d-c81f2452e41b","ios":"levelo://app?vid=ad0e6f6f-8fbd-4b75-a87d-c81f2452e41b"},"vehicle_type_id":"4","last_reported":1744460219,"current_range_meters":19200,"station_id":"ce4bha92rcd13ifvqeh0","pricing_plan_id":"cebpf4jnsgd1na2vs0mg"},{"bike_id":"2a20e6b9-78cb-4da0-a667-9ba57ea22059","system_id":"levelo_inurba_marseille","lat":43.2902,"lon":5.38126,"is_reserved":false,"is_disabled":false,"rental_uris":{"android":"levelo://app?vid=2a20e6b9-78cb-4da0-a667-9ba57ea22059","ios":"levelo://app?vid=2a20e6b9-78cb-4da0-a667-9ba57ea22059"},"vehicle_type_id":"4","last_reported":1744460219,"current_range_meters":19200,"station_id":"ce4bh4p2rcd13ifvqe1g","pricing_plan_id":"cebpf4jnsgd1na2vs0mg"},{"bike_id":"a139e394-5abe-4a4e-955b-987664718cf3","system_id":"levelo_inurba_marseille","lat":43.24813,"lon":5.37452,"is_reserved":false,"is_disabled":false,"rental_uris":{"android":"levelo://app?vid=a139e394-5abe-4a4e-955b-987664718cf3","ios":"levelo://app?vid=a139e394-5abe-4a4e-955b-987664718cf3"},"vehicle_type_id":"4","last_reported":1744460219,"current_range_meters":19200,"station_id":"ce4bhgh2rcd13ifvqfb0","pricing_plan_id":"cebpf4jnsgd1na2vs0mg"},{"bike_id":"ae868823-f658-40b6-b00f-1c4526bcbfcd","system_id":"levelo_inurba_marseille","lat":43.23063,"lon":5.35506,"is_reserved":false,"is_disabled":false,"rental_uris":{"android":"levelo://app?vid=ae868823-f658-40b6-b00f-1c4526bcbfcd","ios":"levelo://app?vid=ae868823-f658-40b6-b00f-1c4526bcbfcd"},"vehicle_type_id":"4","last_reported":1744460219,"current_range_meters":19200,"station_id":"cpo3342slgdg3j2ifvpg","pricing_plan_id":"cebpf4jnsgd1na2vs0mg"},{"bike_id":"559dfc68-438c-4c96-840e-cd41ba79fc01","system_id":"levelo_inurba_marseille","lat":43.28671,"lon":5.36349,"is_reserved":false,"is_disabled":false,"rental_uris":{"android":"levelo://app?vid=559dfc68-438c-4c96-840e-cd41ba79fc01","ios":"levelo://app?vid=559dfc68-438c-4c96-840e-cd41ba79fc01"},"vehicle_type_id":"4","last_reported":1744460219,"current_range_meters":19200,"station_id":"ce4bhah2rcd13ifvqej0","pricing_plan_id":"cebpf4jnsgd1na2vs0mg"},{"bike_id":"bb66751e-77a3-4c51-b80f-41b3b603f1b5","system_id":"levelo_inurba_marseille","lat":43.21189,"lon":5.35068,"is_reserved":false,"is_disabled":false,"rental_uris":{"android":"levelo://app?vid=bb66751e-77a3-4c51-b80f-41b3b603f1b5","ios":"levelo://app?vid=bb66751e-77a3-4c51-b80f-41b3b603f1b5"},"vehicle_type_id":"4","last_reported":1744460219,"current_range_meters":19200,"station_id":"st_cvj6sg6p6f1abm77japg","pricing_plan_id":"cebpf4jnsgd1na2vs0mg"},{"bike_id":"25e4c88d-fab8-4d1e-ac9b-f0a8c2e7910e","system_id":"levelo_inurba_marseille","lat":43.30608,"lon":5.37233,"is_reserved":false,"is_disabled":false,"rental_uris":{"android":"levelo://app?vid=25e4c88d-fab8-4d1e-ac9b-f0a8c2e7910e","ios":"levelo://app?vid=25e4c88d-fab8-4d1e-ac9b-f0a8c2e7910e"},"vehicle_type_id":"4","last_reported":1744460219,"current_range_meters":19600,"station_id":"ce4bgqh2rcd13ifvqc4g","pricing_plan_id":"cebpf4jnsgd1na2vs0mg"},{"bike_id":"034374c4-035a-4255-b694-cf750e703d7b","system_id":"levelo_inurba_marseille","lat":43.26195,"lon":5.37453,"is_reserved":false,"is_disabled":false,"rental_uris":{"android":"levelo://app?vid=034374c4-035a-4255-b694-cf750e703d7b","ios":"levelo://app?vid=034374c4-035a-4255-b694-cf750e703d7b"},"vehicle_type_id":"4","last_reported":1744460219,"current_range_meters":19600,"station_id":"ce4bhgp2rcd13ifvqfc0","pricing_plan_id":"cebpf4jnsgd1na2vs0mg"},{"bike_id":"4e6e703a-8849-4e69-95ef-885fa40af8ab","system_id":"levelo_inurba_marseille","lat":43.297831,"lon":5.371076,"is_reserved":false,"is_disabled":false,"rental_uris":{"android":"levelo://app?vid=4e6e703a-8849-4e69-95ef-885fa40af8ab","ios":"levelo://app?vid=4e6e703a-8849-4e69-95ef-885fa40af8ab"},"vehicle_type_id":"4","last_reported":1744460219,"current_range_meters":19600,"station_id":"ce4bgop2rcd13ifvqc1g","pricing_plan_id":"cebpf4jnsgd1na2vs0mg"},