{"last_updated":1700906772,"ttl":30,"version":"2.2","data":{"bikes":[{"bike_id":"d7885354-bdc8-4037-a9e2-c9067ee31e8e","system_id":"levelo_inurba_marseille","lat":43.312239,"lon":5.368562,"is_reserved":false,"is_disabled":false,"rental_uris":{"android":"levelo://app?vid=d7885354-bdc8-4037-a9e2-c9067ee31e8e","ios":"levelo://app?vid=d7885354-bdc8-4037-a9e2-c9067ee31e8e"},"vehicle_type_id":"4","last_reported":1700906772,"current_range_meters":26000,"station_id":"ce4bgl92rcd13ifvqbq0","pricing_plan_id":"free"},{"bike_id":"d7c5c975-c399-455e-bba9-0e021ff7246e","system_id":"levelo_inurba_marseille","lat":43.309076,"lon":5.368465,"is_reserved":false,"is_disabled":false,"rental_uris":{"android":"levelo://app?vid=d7c5c975-c399-455e-bba9-0e021ff7246e","ios":"levelo://app?vid=d7c5c975-c399-455e-bba9-0e021ff7246e"},"vehicle_type_id":"4","last_reported":1700906772,"current_range_meters":28400,"station_id":"ce4bgn92rcd13ifvqbvg","pricing_plan_id":"free"},{"bike_id":"4f479843-3b65-4f86-97fe-5abe33f8675a","system_id":"levelo_inurba_marseille","lat":43.309039,"lon":5.371797,"is_reserved":false,"is_disabled":false,"rental_uris":{"android":"levelo://app?vid=4f479843-3b65-4f86-97fe-5abe33f8675a","ios":"levelo://app?vid=4f479843-3b65-4f86-97fe-5abe33f8675a"},"vehicle_type_id":"4","last_reported":1700906772,"current_range_meters":25200,"station_id":"ce4bguh2rcd13ifvqckg","pricing_plan_id":"free"},{"bike_id":"82ce7cf4-60db-4161-ae87-fe70a7b21179","system_id":"levelo_inurba_marseille","lat":43.309039,"lon":5.371797,"is_reserved":false,"is_disabled":false,"rental_uris":{"android":"levelo://app?vid=82ce7cf4-60db-4161-ae87-fe70a7b21179","ios":"levelo://app?vid=82ce7cf4-60db-4161-ae87-fe70a7b21179"},"vehicle_type_id":"4","last_reported":1700906772,"current_range_meters":31200,"station_id":"ce4bguh2rcd13ifvqckg","pricing_plan_id":"free"},{"bike_id":"96302e5f-683e-4d40-b8a0-7482af3c2665","system_id":"levelo_inurba_marseille","lat":43.305714,"lon":5.365633,"is_reserved":false,"is_disabled":false,"rental_uris":{"android":"levelo://app?vid=96302e5f-683e-4d40-b8a0-7482af3c2665","ios":"levelo://app?vid=96302e5f-683e-4d40-b8a0-7482af3c2665"},"vehicle_type_id":"4","last_reported":1700906772,"current_range_meters":21200,"station_id":"ce4bgs12rcd13ifvqcag","pricing_plan_id":"free"},{"bike_id":"167e46d3-e2ab-43ec-9eaf-2ac44b634530","system_id":"levelo_inurba_marseille","lat":43.305714,"lon":5.365633,"is_reserved":false,"is_disabled":false,"rental_uris":{"android":"levelo://app?vid=167e46d3-e2ab-43ec-9eaf-2ac44b634530","ios":"levelo://app?vid=167e46d3-e2ab-43ec-9eaf-2ac44b634530"},"vehicle_type_id":"4","last_reported":1700906772,"current_range_meters":28800,"station_id":"ce4bgs12rcd13ifvqcag","pricing_plan_id":"free"},{"bike_id":"0e3a20c0-fbe4-4be1-8a70-167c2d1fc9f6","system_id":"levelo_inurba_marseille","lat":43.305185,"lon":5.365673,"is_reserved":false,"is_disabled":false,"rental_uris":{"android":"levelo://app?vid=0e3a20c0-fbe4-4be1-8a70-167c2d1fc9f6","ios":"levelo://app?vid=0e3a20c0-fbe4-4be1-8a70-167c2d1fc9f6"},"vehicle_type_id":"4","last_reported":1700906772,"current_range_meters":0,"station_id":"ce4bgs12rcd13ifvqcag","pricing_plan_id":"free"},{"bike_id":"573a870a-b6c4-429d-8587-8103772b84bc","system_id":"levelo_inurba_marseille","lat":43.308167,"lon":5.376571,"is_reserved":false,"is_disabled":false,"rental_uris":{"android":"levelo://app?vid=573a870a-b6c4-429d-8587-8103772b84bc","ios":"levelo://app?vid=573a870a-b6c4-429d-8587-8103772b84bc"},"vehicle_type_id":"4","last_reported":1700906772,"current_range_meters":5200,"station_id":"ce4bgv92rcd13ifvqcq0","pricing_plan_id":"free"},{"bike_id":"f427a2c3-6e4a-446b-ae2f-9be8aa7f4122","system_id":"levelo_inurba_marseille","lat":43.31719,"lon":5.376813,"is_reserved":false,"is_disabled":false,"rental_uris":{"android":"levelo://app?vid=f427a2c3-6e4a-446b-ae2f-9be8aa7f4122","ios":"levelo://app?vid=f427a2c3-6e4a-446b-ae2f-9be8aa7f4122"},"vehicle_type_id":"4","last_reported":1700906772,"current_range_meters":25200,"station_id":"ce4bgth2rcd13ifvqch0","pricing_plan_id":"free"},{"bike_id":"b898b018-f57d-4901-bab2-fdd15d391de9","system_id":"levelo_inurba_marseille","lat":43.317168,"lon":5.376883,"is_reserved":false,"is_disabled":false,"rental_uris":{"android":"levelo://app?vid=b898b018-f57d-4901-bab2-fdd15d391de9","ios":"levelo://app?vid=b898b018-f57d-4901-bab2-fdd15d391de9"},"vehicle_type_id":"4","last_reported":1700906772,"current_range_meters":27600,"station_id":"ce4bgth2rcd13ifvqch0","pricing_plan_id":"free"},{"bike_id":"17446ca8-1e6b-4969-a522-f75bca671947","system_id":"levelo_inurba_marseille","lat":43.30304,"lon":5.368987,"is_reserved":false,"is_disabled":false,"rental_uris":{"android":"levelo://app?vid=17446ca8-1e6b-4969-a522-f75bca671947","ios":"levelo://app?vid=17446ca8-1e6b-4969-a522-f75bca671947"},"vehicle_type_id":"4","last_reported":1700906772,"current_range_meters":27200,"station_id":"ce4bgqh2rcd13ifvqc5g","pricing_plan_id":"free"},{"bike_id":"e93024e7-c115-408b-b1b7-93e33c6a5e69","system_id":"levelo_inurba_marseille","lat":43.31535,"lon":5.380325,"is_reserved":false,"is_disabled":false,"rental_uris":{"android":"levelo://app?vid=e93024e7-c115-408b-b1b7-93e33c6a5e69","ios":"levelo://app?vid=e93024e7-c115-408b-b1b7-93e33c6a5e69"},"vehicle_type_id":"4","last_reported":1700906772,"current_range_meters":13200,"station_id":"ce4bhsp2rcd13ifvqi50","pricing_plan_id":"free"},{"bike_id":"cf92051e-3b73-41ee-8f87-07a63c97f5fc","system_id":"levelo_inurba_marseille","lat":43.315311,"lon":5.380379,"is_reserved":false,"is_disabled":false,"rental_uris":{"android":"levelo://app?vid=cf92051e-3b73-41ee-8f87-07a63c97f5fc","ios":"levelo://app?vid=cf92051e-3b73-41ee-8f87-07a63c97f5fc"},"vehicle_type_id":"4","last_reported":1700906772,"current_range_meters":16800,"station_id":"ce4bhsp2rcd13ifvqi50","pricing_plan_id":"free"},{"bike_id":"d69025b0-8b89-4c4d-be9b-24cc15a18fef","system_id":"levelo_inurba_marseille","lat":43.30272,"lon":5.36906,"is_reserved":false,"is_disabled":false,"rental_uris":{"android":"levelo://app?vid=d69025b0-8b89-4c4d-be9b-24cc15a18fef","ios":"levelo://app?vid=d69025b0-8b89-4c4d-be9b-24cc15a18fef"},"vehicle_type_id":"4","last_reported":1700906772,"current_range_meters":17600,"station_id":"","pricing_plan_id":"free"},{"bike_id":"a07b2b94-0330-4333-873d-1cb5cd7299cc","system_id":"levelo_inurba_marseille","lat":43.301939,"lon":5.366286,"is_reserved":false,"is_disabled":false,"rental_uris":{"android":"levelo://app?vid=a07b2b94-0330-4333-873d-1cb5cd7299cc","ios":"levelo://app?vid=a07b2b94-0330-4333-873d-1cb5cd7299cc"},"vehicle_type_id":"4","last_reported":1700906772,"current_range_meters":24400,"station_id":"ce4bgrh2rcd13ifvqc8g","pricing_plan_id":"free"},{"bike_id":"3dc2f81b-07b9-46c0-9430-9e266e1cea0b","system_id":"levelo_inurba_marseille","lat":43.304623,"lon":5.379017,"is_reserved":false,"is_disabled":false,"rental_uris":{"android":"levelo://app?vid=3dc2f81b-07b9-46c0-9430-9e266e1cea0b","ios":"levelo://app?vid=3dc2f81b-07b9-46c0-9430-9e266e1cea0b"},"vehicle_type_id":"4","last_reported":1700906772,"current_range_meters":21600,"station_id":"ce4bgup2rcd13ifvqcn0","pricing_plan_id":"free"},{"bike_id":"2afb7ac8-3ba9-4f9b-ac00-fcd21587ea29","system_id":"levelo_inurba_marseille","lat":43.304606,"lon":5.379026,"is_reserved":false,"is_disabled":false,"rental_uris":{"android":"levelo://app?vid=2afb7ac8-3ba9-4f9b-ac00-fcd21587ea29","ios":"levelo://app?vid=2afb7ac8-3ba9-4f9b-ac00-fcd21587ea29"},"vehicle_type_id":"4","last_reported":1700906772,"current_range_meters":30400,"station_id":"ce4bgup2rcd13ifvqcn0","pricing_plan_id":"free"},{"bike_id":"64f8ad7f-8812-4d50-a1bc-9dfec8e4e01f","system_id":"levelo_inurba_marseille","lat":43.304606,"lon":5.379026,"is_reserved":false,"is_disabled":false,"rental_uris":{"android":"levelo://app?vid=64f8ad7f-8812-4d50-a1bc-9dfec8e4e01f","ios":"levelo://app?vid=64f8ad7f-8812-4d50-a1bc-9dfec8e4e01f"},"vehicle_type_id":"4","last_reported":1700906772,"current_range_meters":31200,"station_id":"ce4bgup2rcd13ifvqcn0","pricing_plan_id":"free"},{"bike_id":"6e211921-90ba-4dee-a70f-68daa8538b59","system_id":"levelo_inurba_marseille","lat":43.304606,"lon":5.379026,"is_reserved":false,"is_disabled":false,"rental_uris":{"android":"levelo://app?vid=6e211921-90ba-4dee-a70f-68daa8538b59","ios":"levelo://app?vid=6e211921-90ba-4dee-a70f-68daa8538b59"},"vehicle_type_id":"4","last_reported":1700906772,"current_range_meters":16400,"station_id":"ce4bgup2rcd13ifvqcn0","pricing_plan_id":"free"},{"bike_id":"babfdd7e-6cd2-4e72-8866-ac8539f5db7f","system_id":"levelo_inurba_marseille","lat":43.319915,"lon":5.381505,"is_reserved":false,"is_disabled":false,"rental_uris":{"android":"levelo://app?vid=babfdd7e-6cd2-4e72-8866-ac8539f5db7f","ios":"levelo://app?vid=babfdd7e-6cd2-4e72-8866-ac8539f5db7f"},"vehicle_type_id":"4","last_reported":1700906772,"current_range_meters":31200,"station_id":"ce4bhr12rcd13ifvqhpg","pricing_plan_id":"free"},{"bike_id":"b26e99ca-4d47-4ed0-b501-a4b987ea012a","system_id":"levelo_inurba_marseille","lat":43.31996,"lon":5.38152,"is_reserved":false,"is_disabled":false,"rental_uris":{"android":"levelo://app?vid=b26e99ca-4d47-4ed0-b501-a4b987ea012a","ios":"levelo://app?vid=b26e99ca-4d47-4ed0-b501-a4b987ea012a"},"vehicle_type_id":"4","last_reported":1700906772,"current_range_meters":24800,"station_id":"ce4bhr12rcd13ifvqhpg","pricing_plan_id":"free"},{"bike_id":"297c48cb-ada2-41fa-a9b3-36f330453cd6","system_id":"levelo_inurba_marseille","lat":43.31998,"lon":5.38152,"is_reserved":false,"is_disabled":false,"rental_uris":{"android":"levelo://app?vid=297c48cb-ada2-41fa-a9b3-36f330453cd6","ios":"levelo://app?vid=297c48cb-ada2-41fa-a9b3-36f330453cd6"},"vehicle_type_id":"4","last_reported":1700906772,"current_range_meters":30800,"station_id":"ce4bhr12rcd13ifvqhpg","pricing_plan_id":"free"},{"bike_id":"69d4526d-7eb6-4971-a5a6-f58371a7643c","system_id":"levelo_inurba_marseille","lat":43.299724,"lon":5.371829,"is_reserved":false,"is_disabled":false,"rental_uris":{"android":"levelo://app?vid=69d4526d-7eb6-4971-a5a6-f58371a7643c","ios":"levelo://app?vid=69d4526d-7eb6-4971-a5a6-f58371a7643c"},"vehicle_type_id":"4","last_reported":1700906772,"current_range_meters":24400,"station_id":"ce4bgr92rcd13ifvqc7g","pricing_plan_id":"free"},{"bike_id":"a3897036-4c65-4c2f-b4cd-df6345281262","system_id":"levelo_inurba_marseille","lat":43.299724,"lon":5.371829,"is_reserved":false,"is_disabled":false,"rental_uris":{"android":"levelo://app?vid=a3897036-4c65-4c2f-b4cd-df6345281262","ios":"levelo://app?vid=a3897036-4c65-4c2f-b4cd-df6345281262"},"vehicle_type_id":"4","last_reported":1700906772,"current_range_meters":28000,"station_id":"ce4bgr92rcd13ifvqc7g","pricing_plan_id":"free"},{"bike_id":"745bb7fc-c888-4dda-ad9e-3ca1bb8994d4","system_id":"levelo_inurba_marseille","lat":43.299724,"lon":5.371829,"is_reserved":false,"is_disabled":false,"rental_uris":{"android":"levelo://app?vid=745bb7fc-c888-4dda-ad9e-3ca1bb8994d4","ios":"levelo://app?vid=745bb7fc-c888-4dda-ad9e-3ca1bb8994d4"},"vehicle_type_id":"4","last_reported":1700906772,"current_range_meters":25600,"station_id":"ce4bgr92rcd13ifvqc7g","pricing_plan_id":"free"},{"bike_id":"045c3851-48c9-4f81-bba1-9f607ca73c7f","system_id":"levelo_inurba_marseille","lat":43.299724,"lon":5.371829,"is_reserved":false,"is_disabled":false,"rental_uris":{"android":"levelo://app?vid=045c3851-48c9-4f81-bba1-9f607ca73c7f","ios":"levelo://app?vid=045c3851-48c9-4f81-bba1-9f607ca73c7f"},"vehicle_type_id":"4","last_reported":1700906772,"current_range_meters":19600,"station_id":"ce4bgr92rcd13ifvqc7g","pricing_plan_id":"free"},{"bike_id":"370cb26f-10c2-4896-a531-833a7555abd9","system_id":"levelo_inurba_marseille","lat":43.305595,"lon":5.383644,"is_reserved":false,"is_disabled":false,"rental_uris":{"android":"levelo://app?vid=370cb26f-10c2-4896-a531-833a7555abd9","ios":"levelo://app?vid=370cb26f-10c2-4896-a531-833a7555abd9"},"vehicle_type_id":"4","last_reported":1700906772,"current_range_meters":29200,"station_id":"","pricing_plan_id":"free"},{"bike_id":"c5eadea6-54f0-4b53-ac16-9dae79b4d829","system_id":"levelo_inurba_marseille","lat":43.298433,"lon":5.362774,"is_reserved":false,"is_disabled":false,"rental_uris":{"android":"levelo://app?vid=c5eadea6-54f0-4b53-ac16-9dae79b4d829","ios":"levelo://app?vid=c5eadea6-54f0-4b53-ac16-9dae79b4d829"},"vehicle_type_id":"4","last_reported":1700906772,"current_range_meters":30000,"station_id":"ce4bgpp2rcd13ifvqc3g","pricing_plan_id":"free"},{"bike_id":"80b4b238-9cb7-425f-a795-42b1e665cae2","system_id":"levelo_inurba_marseille","lat":43.298433,"lon":5.362774,"is_reserved":false,"is_disabled":false,"rental_uris":{"android":"levelo://app?vid=80b4b238-9cb7-425f-a795-42b1e665cae2","ios":"levelo://app?vid=80b4b238-9cb7-425f-a795-42b1e665cae2"},"vehicle_type_id":"4","last_reported":1700906772,"current_range_meters":26400,"station_id":"ce4bgpp2rcd13ifvqc3g","pricing_plan_id":"free"},{"bike_id":"a11ceb9d-1757-4ba8-9748-19ac2f1cfc93","system_id":"levelo_inurba_marseille","lat":43.305364,"lon":5.384119,"is_reserved":false,"is_disabled":false,"rental_uris":{"android":"levelo://app?vid=a11ceb9d-1757-4ba8-9748-19ac2f1cfc93","ios":"levelo://app?vid=a11ceb9d-1757-4ba8-9748-19ac2f1cfc93"},"vehicle_type_id":"4","last_reported":1700906772,"current_range_meters":26400,"station_id":"ce4bgg92rcd13ifvqb30","pricing_plan_id":"free"},{"bike_id":"7b71dcc2-37f7-47ca-999a-2577a5b20c1f","system_id":"levelo_inurba_marseille","lat":43.305364,"lon":5.384119,"is_reserved":false,"is_disabled":false,"rental_uris":{"android":"levelo://app?vid=7b71dcc2-37f7-47ca-999a-2577a5b20c1f","ios":"levelo://app?vid=7b71dcc2-37f7-47ca-999a-2577a5b20c1f"},"vehicle_type_id":"4","last_reported":1700906772,"current_range_meters":26400,"station_id":"ce4bgg92rcd13ifvqb30","pricing_plan_id":"free"},{"bike_id":"09eebb08-1c76-4705-ad5d-21f288103669","system_id":"levelo_inurba_marseille","lat":43.298433,"lon":5.362774,"is_reserved":false,"is_disabled":false,"rental_uris":{"android":"levelo://app?vid=09eebb08-1c76-4705-ad5d-21f288103669","ios":"levelo://app?vid=09eebb08-1c76-4705-ad5d-21f288103669"},"vehicle_type_id":"4","last_reported":1700906772,"current_range_meters":28800,"station_id":"ce4bgpp2rcd13ifvqc3g","pricing_plan_id":"free"},{"bike_id":"f05f6d3e-25f1-4e43-b08f-fa093b86236c","system_id":"levelo_inurba_marseille","lat":43.311722,"lon":5.387247,"is_reserved":false,"is_disabled":false,"rental_uris":{"android":"levelo://app?vid=f05f6d3e-25f1-4e43-b08f-fa093b86236c","ios":"levelo://app?vid=f05f6d3e-25f1-4e43-b08f-fa093b86236c"},"vehicle_type_id":"4","last_reported":1700906772,"current_range_meters":28400,"station_id":"ce4bgv12rcd13ifvqcp0","pricing_plan_id":"free"},{"bike_id":"dee3eb11-86c8-4303-a87f-725c2b210c7c","system_id":"levelo_inurba_marseille","lat":43.311722,"lon":5.387247,"is_reserved":false,"is_disabled":false,"rental_uris":{"android":"levelo://app?vid=dee3eb11-86c8-4303-a87f-725c2b210c7c","ios":"levelo://app?vid=dee3eb11-86c8-4303-a87f-725c2b210c7c"},"vehicle_type_id":"4","last_reported":1700906772,"current_range_meters":27200,"station_id":"ce4bgv12rcd13ifvqcp0","pricing_plan_id":"free"},{"bike_id":"7fcc362e-91b2-4b7b-b041-600e889ab4b7","system_id":"levelo_inurba_marseille","lat":43.297794,"lon":5.370888,"is_reserved":false,"is_disabled":false,"rental_uris":{"android":"levelo://app?vid=7fcc362e-91b2-4b7b-b041-600e889ab4b7","ios":"levelo://app?vid=7fcc362e-91b2-4b7b-b041-600e889ab4b7"},"vehicle_type_id":"4","last_reported":1700906772,"current_range_meters":22800,"station_id":"ce4bgop2rcd13ifvqc1g","pricing_plan_id":"free"},{"bike_id":"07a03e0e-e12b-474e-a940-8baf07c98432","system_id":"levelo_inurba_marseille","lat":43.328371,"lon":5.366909,"is_reserved":false,"is_disabled":false,"rental_uris":{"android":"levelo://app?vid=07a03e0e-e12b-474e-a940-8baf07c98432","ios":"levelo://app?vid=07a03e0e-e12b-474e-a940-8baf07c98432"},"vehicle_type_id":"4","last_reported":1700906772,"current_range_meters":16000,"station_id":"ce4bhs92rcd13ifvqi0g","pricing_plan_id":"free"},{"bike_id":"d2dfb988-ecba-41d5-8ac1-cdc2348bdd62","system_id":"levelo_inurba_marseille","lat":43.297163,"lon":5.365866,"is_reserved":false,"is_disabled":false,"rental_uris":{"android":"levelo://app?vid=d2dfb988-ecba-41d5-8ac1-cdc2348bdd62","ios":"levelo://app?vid=d2dfb988-ecba-41d5-8ac1-cdc2348bdd62"},"vehicle_type_id":"4","last_reported":1700906772,"current_range_meters":31200,"station_id":"ce4bgn12rcd13ifvqbt0","pricing_plan_id":"free"},{"bike_id":"9c335fc2-e266-4577-80bd-ab62ef1968bc","system_id":"levelo_inurba_marseille","lat":43.297163,"lon":5.365866,"is_reserved":false,"is_disabled":false,"rental_uris":{"android":"levelo://app?vid=9c335fc2-e266-4577-80bd-ab62ef1968bc","ios":"levelo://app?vid=9c335fc2-e266-4577-80bd-ab62ef1968bc"},"vehicle_type_id":"4","last_reported":1700906772,"current_range_meters":13600,"station_id":"ce4bgn12rcd13ifvqbt0","pricing_plan_id":"free"},{"bike_id":"ac328807-b538-4c50-af18-483b8d141cc9","system_id":"levelo_inurba_marseille","lat":43.297163,"lon":5.365866,"is_reserved":false,"is_disabled":false,"rental_uris":{"android":"levelo://app?vid=ac328807-b538-4c50-af18-483b8d141cc9","ios":"levelo://app?vid=ac328807-b538-4c50-af18-483b8d141cc9"},"vehicle_type_id":"4","last_reported":1700906772,"current_range_meters":22400,"station_id":"ce4bgn12rcd13ifvqbt0","pricing_plan_id":"free"},{"bike_id":"319846df-048c-433c-beef-c4cf6361e7df","system_id":"levelo_inurba_marseille","lat":43.297163,"lon":5.365866,"is_reserved":false,"is_disabled":false,"rental_uris":{"android":"levelo://app?vid=319846df-048c-433c-beef-c4cf6361e7df","ios":"levelo://app?vid=319846df-048c-433c-beef-c4cf6361e7df"},"vehicle_type_id":"4","last_reported":1700906772,"current_range_meters":30000,"station_id":"ce4bgn12rcd13ifvqbt0","pricing_plan_id":"free"},{"bike_id":"91ea429b-0379-495d-8d3b-cbac9d1a9ae5","system_id":"levelo_inurba_marseille","lat":43.2968,"lon":5.37291,"is_reserved":false,"is_disabled":false,"rental_uris":{"android":"levelo://app?vid=91ea429b-0379-495d-8d3b-cbac9d1a9ae5","ios":"levelo://app?vid=91ea429b-0379-495d-8d3b-cbac9d1a9ae5"},"vehicle_type_id":"4","last_reported":1700906772,"current_range_meters":28000,"station_id":"ce4bgk12rcd13ifvqbj0","pricing_plan_id":"free"},{"bike_id":"3e3a1b53-20a3-4b36-9e94-037d2a213a15","system_id":"levelo_inurba_marseille","lat":43.296129,"lon":5.370777,"is_reserved":false,"is_disabled":false,"rental_uris":{"android":"levelo://app?vid=3e3a1b53-20a3-4b36-9e94-037d2a213a15","ios":"levelo://app?vid=3e3a1b53-20a3-4b36-9e94-037d2a213a15"},"vehicle_type_id":"4","last_reported":1700906772,"current_range_meters":23200,"station_id":"ce4bgnh2rcd13ifvqc0g","pricing_plan_id":"free"},{"bike_id":"11f77723-1b30-4487-8e52-b663c43af7a6","system_id":"levelo_inurba_marseille","lat":43.296131,"lon":5.370791,"is_reserved":false,"is_disabled":false,"rental_uris":{"android":"levelo://app?vid=11f77723-1b30-4487-8e52-b663c43af7a6","ios":"levelo://app?vid=11f77723-1b30-4487-8e52-b663c43af7a6"},"vehicle_type_id":"4","last_reported":1700906772,"current_range_meters":30800,"station_id":"ce4bgnh2rcd13ifvqc0g","pricing_plan_id":"free"},{"bike_id":"af8a7a85-11c0-4b03-acfb-dd4a3c36238d","system_id":"levelo_inurba_marseille","lat":43.299028,"lon":5.381509,"is_reserved":false,"is_disabled":false,"rental_uris":{"android":"levelo://app?vid=af8a7a85-11c0-4b03-acfb-dd4a3c36238d","ios":"levelo://app?vid=af8a7a85-11c0-4b03-acfb-dd4a3c36238d"},"vehicle_type_id":"4","last_reported":1700906772,"current_range_meters":27600,"station_id":"ce4bgj12rcd13ifvqbc0","pricing_plan_id":"free"},{"bike_id":"10f5c5d0-4560-4fb3-9b89-bf8f09eaaaf6","system_id":"levelo_inurba_marseille","lat":43.309589,"lon":5.390258,"is_reserved":false,"is_disabled":false,"rental_uris":{"android":"levelo://app?vid=10f5c5d0-4560-4fb3-9b89-bf8f09eaaaf6","ios":"levelo://app?vid=10f5c5d0-4560-4fb3-9b89-bf8f09eaaaf6"},"vehicle_type_id":"4","last_reported":1700906772,"current_range_meters":17200,"station_id":"ce4bgup2rcd13ifvqco0","pricing_plan_id":"free"},{"bike_id":"2778d040-f211-4fd0-8aca-8ea6a9dded77","system_id":"levelo_inurba_marseille","lat":43.309589,"lon":5.390258,"is_reserved":false,"is_disabled":false,"rental_uris":{"android":"levelo://app?vid=2778d040-f211-4fd0-8aca-8ea6a9dded77","ios":"levelo://app?vid=2778d040-f211-4fd0-8aca-8ea6a9dded77"},"vehicle_type_id":"4","last_reported":1700906772,"current_range_meters":23200,"station_id":"ce4bgup2rcd13ifvqco0","pricing_plan_id":"free"},{"bike_id":"aa461f5c-571a-405c-b94b-381d6ba0ca55","system_id":"levelo_inurba_marseille","lat":43.309589,"lon":5.390258,"is_reserved":false,"is_disabled":false,"rental_uris":{"android":"levelo://app?vid=aa461f5c-571a-405c-b94b-381d6ba0ca55","ios":"levelo://app?vid=aa461f5c-571a-405c-b94b-381d6ba0ca55"},"vehicle_type_id":"4","last_reported":1700906772,"current_range_meters":29200,"station_id":"ce4bgup2rcd13ifvqco0","pricing_plan_id":"free"},{"bike_id":"48e9b64d-1128-4519-8d2e-b65c1a45e1fd","system_id":"levelo_inurba_marseille","lat":43.309589,"lon":5.390258,"is_reserved":false,"is_disabled":false,"rental_uris":{"android":"levelo://app?vid=48e9b64d-1128-4519-8d2e-b65c1a45e1fd","ios":"levelo://app?vid=48e9b64d-1128-4519-8d2e-b65c1a45e1fd"},"vehicle_type_id":"4","last_reported":1700906772,"current_range_meters":30800,"station_id":"ce4bgup2rcd13ifvqco0","pricing_plan_id":"free"},{"bike_id":"295427a0-b19c-4a40-be22-410836aa3b55","system_id":"levelo_inurba_marseille","lat":43.309589,"lon":5.390258,"is_reserved":false,"is_disabled":false,"rental_uris":{"android":"levelo://app?vid=295427a0-b19c-4a40-be22-410836aa3b55","ios":"levelo://app?vid=295427a0-b19c-4a40-be22-410836aa3b55"},"vehicle_type_id":"4","last_reported":1700906772,"current_range_meters":21600,"station_id":"ce4bgup2rcd13ifvqco0","pricing_plan_id":"free"},{"bike_id":"4554244b-88b6-4b43-94ca-1ee298ae6133","system_id":"levelo_inurba_marseille","lat":43.309589,"lon":5.390258,"is_reserved":false,"is_disabled":false,"rental_uris":{"android":"levelo://app?vid=4554244b-88b6-4b43-94ca-1ee298ae6133","ios":"levelo://app?vid=4554244b-88b6-4b43-94ca-1ee298ae6133"},"vehicle_type_id":"4","last_reported":1700906772,"current_range_meters":27200,"station_id":"ce4bgup2rcd13ifvqco0","pricing_plan_id":"free"},{"bike_id":"4ae65ddd-0ffc-49df-bfdc-241736d2ef8c","system_id":"levelo_inurba_marseille","lat":43.309589,"lon":5.390258,"is_reserved":false,"is_disabled":false,"rental_uris":{"android":"levelo://app?vid=4ae65ddd-0ffc-49df-bfdc-241736d2ef8c","ios":"levelo://app?vid=4ae65ddd-0ffc-49df-bfdc-241736d2ef8c"},"vehicle_type_id":"4","last_reported":1700906772,"current_range_meters":31600,"station_id":"ce4bgup2rcd13ifvqco0","pricing_plan_id":"free"},{"bike_id":"a28594db-338e-46f4-8316-e9212152a9d4","system_id":"levelo_inurba_marseille","lat":43.309589,"lon":5.390258,"is_reserved":false,"is_disabled":false,"rental_uris":{"android":"levelo://app?vid=a28594db-338e-46f4-8316-e9212152a9d4","ios":"levelo://app?vid=a28594db-338e-46f4-8316-e9212152a9d4"},"vehicle_type_id":"4","last_reported":1700906772,"current_range_meters":17200,"station_id":"ce4bgup2rcd13ifvqco0","pricing_plan_id":"free"},{"bike_id":"d893ffb0-ee3a-4101-a097-ac154bac72a5","system_id":"levelo_inurba_marseille","lat":43.298037,"lon":5.381066,"is_reserved":false,"is_disabled":false,"rental_uris":{"android":"levelo://app?vid=d893ffb0-ee3a-4101-a097-ac154bac72a5","ios":"levelo://app?vid=d893ffb0-ee3a-4101-a097-ac154bac72a5"},"vehicle_type_id":"4","last_reported":1700906772,"current_range_meters":26400,"station_id":"ce4bgip2rcd13ifvqbb0","pricing_plan_id":"free"},{"bike_id":"c7084696-e20d-4095-ac19-e6f0a4a550a3","system_id":"levelo_inurba_marseille","lat":43.295748,"lon":5.37522,"is_reserved":false,"is_disabled":false,"rental_uris":{"android":"levelo://app?vid=c7084696-e20d-4095-ac19-e6f0a4a550a3","ios":"levelo://app?vid=c7084696-e20d-4095-ac19-e6f0a4a550a3"},"vehicle_type_id":"4","last_reported":1700906772,"current_range_meters":17600,"station_id":"ce4bgh92rcd13ifvqb50","pricing_plan_id":"free"},{"bike_id":"c0c645de-6c2a-49de-9e8a-1231cc5303c0","system_id":"levelo_inurba_marseille","lat":43.304293,"lon":5.388756,"is_reserved":false,"is_disabled":false,"rental_uris":{"android":"levelo://app?vid=c0c645de-6c2a-49de-9e8a-1231cc5303c0","ios":"levelo://app?vid=c0c645de-6c2a-49de-9e8a-1231cc5303c0"},"vehicle_type_id":"4","last_reported":1700906772,"current_range_meters":21600,"station_id":"ce4bgk12rcd13ifvqbi0","pricing_plan_id":"free"},{"bike_id":"6fd0b0db-2439-4d8f-8182-f5c08b64236e","system_id":"levelo_inurba_marseille","lat":43.298037,"lon":5.381066,"is_reserved":false,"is_disabled":false,"rental_uris":{"android":"levelo://app?vid=6fd0b0db-2439-4d8f-8182-f5c08b64236e","ios":"levelo://app?vid=6fd0b0db-2439-4d8f-8182-f5c08b64236e"},"vehicle_type_id":"4","last_reported":1700906772,"current_range_meters":1600,"station_id":"ce4bgip2rcd13ifvqbb0","pricing_plan_id":"free"},{"bike_id":"bc206c9d-f995-49ad-8121-5d1e49005844","system_id":"levelo_inurba_marseille","lat":43.298037,"lon":5.381066,"is_reserved":false,"is_disabled":false,"rental_uris":{"android":"levelo://app?vid=bc206c9d-f995-49ad-8121-5d1e49005844","ios":"levelo://app?vid=bc206c9d-f995-49ad-8121-5d1e49005844"},"vehicle_type_id":"4","last_reported":1700906772,"current_range_meters":14800,"station_id":"ce4bgip2rcd13ifvqbb0","pricing_plan_id":"free"},{"bike_id":"28171e68-a1fa-4518-8bd4-5d725fb27e5e","system_id":"levelo_inurba_marseille","lat":43.298037,"lon":5.381066,"is_reserved":false,"is_disabled":false,"rental_uris":{"android":"levelo://app?vid=28171e68-a1fa-4518-8bd4-5d725fb27e5e","ios":"levelo://app?vid=28171e68-a1fa-4518-8bd4-5d725fb27e5e"},"vehicle_type_id":"4","last_reported":1700906772,"current_range_meters":22400,"station_id":"ce4bgip2rcd13ifvqbb0","pricing_plan_id":"free"},{"bike_id":"5f733dea-7abe-4e1d-a898-610171a08263","system_id":"levelo_inurba_marseille","lat":43.304278,"lon":5.388868,"is_reserved":false,"is_disabled":false,"rental_uris":{"android":"levelo://app?vid=5f733dea-7abe-4e1d-a898-610171a08263","ios":"levelo://app?vid=5f733dea-7abe-4e1d-a898-610171a08263"},"vehicle_type_id":"4","last_reported":1700906772,"current_range_meters":26800,"station_id":"ce4bgk12rcd13ifvqbi0","pricing_plan_id":"free"},{"bike_id":"6f5c7761-a85a-4d6b-a902-7547a16947ef","system_id":"levelo_inurba_marseille","lat":43.295748,"lon":5.37522,"is_reserved":false,"is_disabled":false,"rental_uris":{"android":"levelo://app?vid=6f5c7761-a85a-4d6b-a902-7547a16947ef","ios":"levelo://app?vid=6f5c7761-a85a-4d6b-a902-7547a16947ef"},"vehicle_type_id":"4","last_reported":1700906772,"current_range_meters":12800,"station_id":"ce4bgh92rcd13ifvqb50","pricing_plan_id":"free"},{"bike_id":"344b02b7-1432-41be-b299-7dc5ba349ae5","system_id":"levelo_inurba_marseille","lat":43.29612,"lon":5.3772,"is_reserved":false,"is_disabled":false,"rental_uris":{"android":"levelo://app?vid=344b02b7-1432-41be-b299-7dc5ba349ae5","ios":"levelo://app?vid=344b02b7-1432-41be-b299-7dc5ba349ae5"},"vehicle_type_id":"4","last_reported":1700906772,"current_range_meters":11600,"station_id":"ce4bgi92rcd13ifvqb90","pricing_plan_id":"free"},{"bike_id":"bb1d07e5-d8fc-4050-a0fc-b4a4c34532a4","system_id":"levelo_inurba_marseille","lat":43.295279,"lon":5.375048,"is_reserved":false,"is_disabled":false,"rental_uris":{"android":"levelo://app?vid=bb1d07e5-d8fc-4050-a0fc-b4a4c34532a4","ios":"levelo://app?vid=bb1d07e5-d8fc-4050-a0fc-b4a4c34532a4"},"vehicle_type_id":"4","last_reported":1700906772,"current_range_meters":30000,"station_id":"ce4bgkp2rcd13ifvqbmg","pricing_plan_id":"free"},{"bike_id":"6b621983-5e9e-42f7-990d-ad5a093820d2","system_id":"levelo_inurba_marseille","lat":43.293801,"lon":5.363066,"is_reserved":false,"is_disabled":false,"rental_uris":{"android":"levelo://app?vid=6b621983-5e9e-42f7-990d-ad5a093820d2","ios":"levelo://app?vid=6b621983-5e9e-42f7-990d-ad5a093820d2"},"vehicle_type_id":"4","last_reported":1700906772,"current_range_meters":1200,"station_id":"","pricing_plan_id":"free"},{"bike_id":"d370a816-7254-48f2-bfc3-87e581de6a1c","system_id":"levelo_inurba_marseille","lat":43.29601,"lon":5.381084,"is_reserved":false,"is_disabled":false,"rental_uris":{"android":"levelo://app?vid=d370a816-7254-48f2-bfc3-87e581de6a1c","ios":"levelo://app?vid=d370a816-7254-48f2-bfc3-87e581de6a1c"},"vehicle_type_id":"4","last_reported":1700906772,"current_range_meters":20800,"station_id":"ce4bgl12rcd13ifvqbo0","pricing_plan_id":"free"},{"bike_id":"cfb8f4b3-f94a-4417-89c6-398d973a56e1","system_id":"levelo_inurba_marseille","lat":43.29601,"lon":5.381084,"is_reserved":false,"is_disabled":false,"rental_uris":{"android":"levelo://app?vid=cfb8f4b3-f94a-4417-89c6-398d973a56e1","ios":"levelo://app?vid=cfb8f4b3-f94a-4417-89c6-398d973a56e1"},"vehicle_type_id":"4","last_reported":1700906772,"current_range_meters":30400,"station_id":"ce4bgl12rcd13ifvqbo0","pricing_plan_id":"free"},{"bike_id":"e6d6bf22-c9bd-4209-937c-697c3bdd80b7","system_id":"levelo_inurba_marseille","lat":43.29601,"lon":5.381084,"is_reserved":false,"is_disabled":false,"rental_uris":{"android":"levelo://app?vid=e6d6bf22-c9bd-4209-937c-697c3bdd80b7","ios":"levelo://app?vid=e6d6bf22-c9bd-4209-937c-697c3bdd80b7"},"vehicle_type_id":"4","last_reported":1700906772,"current_range_meters":21600,"station_id":"ce4bgl12rcd13ifvqbo0","pricing_plan_id":"free"},{"bike_id":"71ca00b3-9054-44a1-ad70-94e9e0c5c9bd","system_id":"levelo_inurba_marseille","lat":43.29601,"lon":5.381084,"is_reserved":false,"is_disabled":false,"rental_uris":{"android":"levelo://app?vid=71ca00b3-9054-44a1-ad70-94e9e0c5c9bd","ios":"levelo://app?vid=71ca00b3-9054-44a1-ad70-94e9e0c5c9bd"},"vehicle_type_id":"4","last_reported":1700906772,"current_range_meters":19200,"station_id":"ce4bgl12rcd13ifvqbo0","pricing_plan_id":"free"},{"bike_id":"9c20b081-e8d5-48ee-8680-66269b6155ed","system_id":"levelo_inurba_marseille","lat":43.293249,"lon":5.371578,"is_reserved":false,"is_disabled":false,"rental_uris":{"android":"levelo://app?vid=9c20b081-e8d5-48ee-8680-66269b6155ed","ios":"levelo://app?vid=9c20b081-e8d5-48ee-8680-66269b6155ed"},"vehicle_type_id":"4","last_reported":1700906772,"current_range_meters":6800,"station_id":"ce4bgh92rcd13ifvqb40","pricing_plan_id":"free"},{"bike_id":"066aade7-fae1-4733-bebb-61beb9f44ae5","system_id":"levelo_inurba_marseille","lat":43.29372,"lon":5.37846,"is_reserved":false,"is_disabled":false,"rental_uris":{"android":"levelo://app?vid=066aade7-fae1-4733-bebb-61beb9f44ae5","ios":"levelo://app?vid=066aade7-fae1-4733-bebb-61beb9f44ae5"},"vehicle_type_id":"4","last_reported":1700906772,"current_range_meters":22400,"station_id":"ce4bgjh2rcd13ifvqbf0","pricing_plan_id":"free"},{"bike_id":"fda4943c-4bb0-4d86-8ace-5d6bfe3e4bf3","system_id":"levelo_inurba_marseille","lat":43.2936,"lon":5.37835,"is_reserved":false,"is_disabled":false,"rental_uris":{"android":"levelo://app?vid=fda4943c-4bb0-4d86-8ace-5d6bfe3e4bf3","ios":"levelo://app?vid=fda4943c-4bb0-4d86-8ace-5d6bfe3e4bf3"},"vehicle_type_id":"4","last_reported":1700906772,"current_range_meters":28800,"station_id":"ce4bgjh2rcd13ifvqbf0","pricing_plan_id":"free"},{"bike_id":"13f3d93a-dff0-4d1a-8feb-d9e1972e4a0b","system_id":"levelo_inurba_marseille","lat":43.292311,"lon":5.360731,"is_reserved":false,"is_disabled":false,"rental_uris":{"android":"levelo://app?vid=13f3d93a-dff0-4d1a-8feb-d9e1972e4a0b","ios":"levelo://app?vid=13f3d93a-dff0-4d1a-8feb-d9e1972e4a0b"},"vehicle_type_id":"4","last_reported":1700906772,"current_range_meters":28800,"station_id":"ce4bhbh2rcd13ifvqeqg","pricing_plan_id":"free"},{"bike_id":"a696677b-d887-409e-97dd-24e220d6701c","system_id":"levelo_inurba_marseille","lat":43.292311,"lon":5.360731,"is_reserved":false,"is_disabled":false,"rental_uris":{"android":"levelo://app?vid=a696677b-d887-409e-97dd-24e220d6701c","ios":"levelo://app?vid=a696677b-d887-409e-97dd-24e220d6701c"},"vehicle_type_id":"4","last_reported":1700906772,"current_range_meters":30000,"station_id":"ce4bhbh2rcd13ifvqeqg","pricing_plan_id":"free"},{"bike_id":"786034eb-ced2-4018-b66d-62dfca90184b","system_id":"levelo_inurba_marseille","lat":43.298764,"lon":5.388973,"is_reserved":false,"is_disabled":false,"rental_uris":{"android":"levelo://app?vid=786034eb-ced2-4018-b66d-62dfca90184b","ios":"levelo://app?vid=786034eb-ced2-4018-b66d-62dfca90184b"},"vehicle_type_id":"4","last_reported":1700906772,"current_range_meters":17200,"station_id":"ce4bh392rcd13ifvqdl0","pricing_plan_id":"free"},{"bike_id":"28999095-a641-4482-9805-cfa7ebea296e","system_id":"levelo_inurba_marseille","lat":43.291675,"lon":5.371583,"is_reserved":false,"is_disabled":false,"rental_uris":{"android":"levelo://app?vid=28999095-a641-4482-9805-cfa7ebea296e","ios":"levelo://app?vid=28999095-a641-4482-9805-cfa7ebea296e"},"vehicle_type_id":"4","last_reported":1700906772,"current_range_meters":30000,"station_id":"ce4bha92rcd13ifvqeh0","pricing_plan_id":"free"},{"bike_id":"ce25b047-c701-4930-8509-b1697a902e52","system_id":"levelo_inurba_marseille","lat":43.29195,"lon":5.358,"is_reserved":false,"is_disabled":false,"rental_uris":{"android":"levelo://app?vid=ce25b047-c701-4930-8509-b1697a902e52","ios":"levelo://app?vid=ce25b047-c701-4930-8509-b1697a902e52"},"vehicle_type_id":"4","last_reported":1700906772,"current_range_meters":800,"station_id":"ce4bhb12rcd13ifvqel0","pricing_plan_id":"free"},{"bike_id":"7cd9be1a-99b0-41ae-9072-ad1706b74100","system_id":"levelo_inurba_marseille","lat":43.309038,"lon":5.396546,"is_reserved":false,"is_disabled":false,"rental_uris":{"android":"levelo://app?vid=7cd9be1a-99b0-41ae-9072-ad1706b74100","ios":"levelo://app?vid=7cd9be1a-99b0-41ae-9072-ad1706b74100"},"vehicle_type_id":"4","last_reported":1700906772,"current_range_meters":30800,"station_id":"ce4bh012rcd13ifvqcv0","pricing_plan_id":"free"},{"bike_id":"92a78d28-6331-40ea-a8e7-6a709f627e11","system_id":"levelo_inurba_marseille","lat":43.29191,"lon":5.358,"is_reserved":false,"is_disabled":false,"rental_uris":{"android":"levelo://app?vid=92a78d28-6331-40ea-a8e7-6a709f627e11","ios":"levelo://app?vid=92a78d28-6331-40ea-a8e7-6a709f627e11"},"vehicle_type_id":"4","last_reported":1700906772,"current_range_meters":14000,"station_id":"ce4bhb12rcd13ifvqel0","pricing_plan_id":"free"},{"bike_id":"99d89821-ef1e-42a8-8547-db172d432852","system_id":"levelo_inurba_marseille","lat":43.313291,"lon":5.396838,"is_reserved":false,"is_disabled":false,"rental_uris":{"android":"levelo://app?vid=99d89821-ef1e-42a8-8547-db172d432852","ios":"levelo://app?vid=99d89821-ef1e-42a8-8547-db172d432852"},"vehicle_type_id":"4","last_reported":1700906772,"current_range_meters":25200,"station_id":"ce4bgvp2rcd13ifvqcu0","pricing_plan_id":"free"},{"bike_id":"e4a12467-4f26-4507-8a29-2a25055e84bc","system_id":"levelo_inurba_marseille","lat":43.309047,"lon":5.396551,"is_reserved":false,"is_disabled":false,"rental_uris":{"android":"levelo://app?vid=e4a12467-4f26-4507-8a29-2a25055e84bc","ios":"levelo://app?vid=e4a12467-4f26-4507-8a29-2a25055e84bc"},"vehicle_type_id":"4","last_reported":1700906772,"current_range_meters":28000,"station_id":"ce4bh012rcd13ifvqcv0","pricing_plan_id":"free"},{"bike_id":"08e318de-e6be-4d92-bb43-f34e2aee1130","system_id":"levelo_inurba_marseille","lat":43.313291,"lon":5.396838,"is_reserved":false,"is_disabled":false,"rental_uris":{"android":"levelo://app?vid=08e318de-e6be-4d92-bb43-f34e2aee1130","ios":"levelo://app?vid=08e318de-e6be-4d92-bb43-f34e2aee1130"},"vehicle_type_id":"4","last_reported":1700906772,"current_range_meters":26000,"station_id":"ce4bgvp2rcd13ifvqcu0","pricing_plan_id":"free"},{"bike_id":"ea7f2ee2-94ae-4a13-b769-a123f3be20ac","system_id":"levelo_inurba_marseille","lat":43.313291,"lon":5.396838,"is_reserved":false,"is_disabled":false,"rental_uris":{"android":"levelo://app?vid=ea7f2ee2-94ae-4a13-b769-a123f3be20ac","ios":"levelo://app?vid=ea7f2ee2-94ae-4a13-b769-a123f3be20ac"},"vehicle_type_id":"4","last_reported":1700906772,"current_range_meters":25600,"station_id":"ce4bgvp2rcd13ifvqcu0","pricing_plan_id":"free"},{"bike_id":"46ac7628-fa3b-4fb7-b9fa-c9f6299e286f","system_id":"levelo_inurba_marseille","lat":43.309047,"lon":5.396551,"is_reserved":false,"is_disabled":false,"rental_uris":{"android":"levelo://app?vid=46ac7628-fa3b-4fb7-b9fa-c9f6299e286f","ios":"levelo://app?vid=46ac7628-fa3b-4fb7-b9fa-c9f6299e286f"},"vehicle_type_id":"4","last_reported":1700906772,"current_range_meters":31200,"station_id":"ce4bh012rcd13ifvqcv0","pricing_plan_id":"free"},{"bike_id":"41766105-d077-4120-884a-af23e5b0df21","system_id":"levelo_inurba_marseille","lat":43.313321,"lon":5.396968,"is_reserved":false,"is_disabled":false,"rental_uris":{"android":"levelo://app?vid=41766105-d077-4120-884a-af23e5b0df21","ios":"levelo://app?vid=41766105-d077-4120-884a-af23e5b0df21"},"vehicle_type_id":"4","last_reported":1700906772,"current_range_meters":22400,"station_id":"ce4bgvp2rcd13ifvqcu0","pricing_plan_id":"free"},{"bike_id":"bb1bc18d-397f-4e6f-8d1d-4014cb9df530","system_id":"levelo_inurba_marseille","lat":43.313259,"lon":5.396971,"is_reserved":false,"is_disabled":false,"rental_uris":{"android":"levelo://app?vid=bb1bc18d-397f-4e6f-8d1d-4014cb9df530","ios":"levelo://app?vid=bb1bc18d-397f-4e6f-8d1d-4014cb9df530"},"vehicle_type_id":"4","last_reported":1700906772,"current_range_meters":26800,"station_id":"ce4bgvp2rcd13ifvqcu0","pricing_plan_id":"free"},{"bike_id":"6e82d0f5-eb7f-4cea-81d4-b337539bfcee","system_id":"levelo_inurba_marseille","lat":43.31326,"lon":5.39698,"is_reserved":false,"is_disabled":false,"rental_uris":{"android":"levelo://app?vid=6e82d0f5-eb7f-4cea-81d4-b337539bfcee","ios":"levelo://app?vid=6e82d0f5-eb7f-4cea-81d4-b337539bfcee"},"vehicle_type_id":"4","last_reported":1700906772,"current_range_meters":18400,"station_id":"ce4bgvp2rcd13ifvqcu0","pricing_plan_id":"free"},{"bike_id":"bdcf79aa-cf8d-4ef1-858e-67406ca222f9","system_id":"levelo_inurba_marseille","lat":43.309038,"lon":5.396546,"is_reserved":false,"is_disabled":false,"rental_uris":{"android":"levelo://app?vid=bdcf79aa-cf8d-4ef1-858e-67406ca222f9","ios":"levelo://app?vid=bdcf79aa-cf8d-4ef1-858e-67406ca222f9"},"vehicle_type_id":"4","last_reported":1700906772,"current_range_meters":30800,"station_id":"ce4bh012rcd13ifvqcv0","pricing_plan_id":"free"},{"bike_id":"b3845903-6dcd-4efe-8524-4b76abd8c402","system_id":"levelo_inurba_marseille","lat":43.309038,"lon":5.396546,"is_reserved":false,"is_disabled":false,"rental_uris":{"android":"levelo://app?vid=b3845903-6dcd-4efe-8524-4b76abd8c402","ios":"levelo://app?vid=b3845903-6dcd-4efe-8524-4b76abd8c402"},"vehicle_type_id":"4","last_reported":1700906772,"current_range_meters":31200,"station_id":"ce4bh012rcd13ifvqcv0","pricing_plan_id":"free"},{"bike_id":"72c69236-46c8-4dfa-a72b-5f6198878ee7","system_id":"levelo_inurba_marseille","lat":43.309047,"lon":5.396551,"is_reserved":false,"is_disabled":false,"rental_uris":{"android":"levelo://app?vid=72c69236-46c8-4dfa-a72b-5f6198878ee7","ios":"levelo://app?vid=72c69236-46c8-4dfa-a72b-5f6198878ee7"},"vehicle_type_id":"4","last_reported":1700906772,"current_range_meters":30000,"station_id":"ce4bh012rcd13ifvqcv0","pricing_plan_id":"free"},{"bike_id":"3da81a55-cde9-4f6a-906d-45fb8e5164f2","system_id":"levelo_inurba_marseille","lat":43.313274,"lon":5.397023,"is_reserved":false,"is_disabled":false,"rental_uris":{"android":"levelo://app?vid=3da81a55-cde9-4f6a-906d-45fb8e5164f2","ios":"levelo://app?vid=3da81a55-cde9-4f6a-906d-45fb8e5164f2"},"vehicle_type_id":"4","last_reported":1700906772,"current_range_meters":22400,"station_id":"ce4bgvp2rcd13ifvqcu0","pricing_plan_id":"free"},{"bike_id":"1d10a1b1-d55f-4279-928a-9c6858f32ca9","system_id":"levelo_inurba_marseille","lat":43.33211,"lon":5.38112,"is_reserved":false,"is_disabled":false,"rental_uris":{"android":"levelo://app?vid=1d10a1b1-d55f-4279-928a-9c6858f32ca9","ios":"levelo://app?vid=1d10a1b1-d55f-4279-928a-9c6858f32ca9"},"vehicle_type_id":"4","last_reported":1700906772,"current_range_meters":0,"station_id":"","pricing_plan_id":"free"},{"bike_id":"e808723a-1c56-4f33-8642-2493cf12e43e","system_id":"levelo_inurba_marseille","lat":43.309047,"lon":5.396551,"is_reserved":false,"is_disabled":false,"rental_uris":{"android":"levelo://app?vid=e808723a-1c56-4f33-8642-2493cf12e43e","ios":"levelo://app?vid=e808723a-1c56-4f33-8642-2493cf12e43e"},"vehicle_type_id":"4","last_reported":1700906772,"current_range_meters":24400,"station_id":"ce4bh012rcd13ifvqcv0","pricing_plan_id":"free"},{"bike_id":"1f484129-6130-4a70-a1d4-d48fd503327b","system_id":"levelo_inurba_marseille","lat":43.29529,"lon":5.385581,"is_reserved":false,"is_disabled":false,"rental_uris":{"android":"levelo://app?vid=1f484129-6130-4a70-a1d4-d48fd503327b","ios":"levelo://app?vid=1f484129-6130-4a70-a1d4-d48fd503327b"},"vehicle_type_id":"4","last_reported":1700906772,"current_range_meters":28000,"station_id":"ce4bgih2rcd13ifvqba0","pricing_plan_id":"free"},{"bike_id":"ef0f309a-a7e2-46b1-94b1-23b6be0c5271","system_id":"levelo_inurba_marseille","lat":43.290779,"lon":5.371482,"is_reserved":false,"is_disabled":false,"rental_uris":{"android":"levelo://app?vid=ef0f309a-a7e2-46b1-94b1-23b6be0c5271","ios":"levelo://app?vid=ef0f309a-a7e2-46b1-94b1-23b6be0c5271"},"vehicle_type_id":"4","last_reported":1700906772,"current_range_meters":27200,"station_id":"ce4bh5p2rcd13ifvqe4g","pricing_plan_id":"free"},{"bike_id":"aa11cd85-cdf8-4967-b712-aa84c7df2ea9","system_id":"levelo_inurba_marseille","lat":43.290624,"lon":5.359245,"is_reserved":false,"is_disabled":false,"rental_uris":{"android":"levelo://app?vid=aa11cd85-cdf8-4967-b712-aa84c7df2ea9","ios":"levelo://app?vid=aa11cd85-cdf8-4967-b712-aa84c7df2ea9"},"vehicle_type_id":"4","last_reported":1700906772,"current_range_meters":24800,"station_id":"ce4bha92rcd13ifvqeg0","pricing_plan_id":"free"},{"bike_id":"359f4631-e907-45df-9d6f-88a294f537f7","system_id":"levelo_inurba_marseille","lat":43.289184,"lon":5.366408,"is_reserved":false,"is_disabled":false,"rental_uris":{"android":"levelo://app?vid=359f4631-e907-45df-9d6f-88a294f537f7","ios":"levelo://app?vid=359f4631-e907-45df-9d6f-88a294f537f7"},"vehicle_type_id":"4","last_reported":1700906772,"current_range_meters":26000,"station_id":"ce4bhap2rcd13ifvqek0","pricing_plan_id":"free"},{"bike_id":"45266393-c28d-4618-b13f-8a7c8765deb5","system_id":"levelo_inurba_marseille","lat":43.294162,"lon":5.386292,"is_reserved":false,"is_disabled":false,"rental_uris":{"android":"levelo://app?vid=45266393-c28d-4618-b13f-8a7c8765deb5","ios":"levelo://app?vid=45266393-c28d-4618-b13f-8a7c8765deb5"},"vehicle_type_id":"4","last_reported":1700906772,"current_range_meters":10400,"station_id":"ce4bh2h2rcd13ifvqdh0","pricing_plan_id":"free"},{"bike_id":"a9bddb84-877c-403f-8fad-166fd17cbab0","system_id":"levelo_inurba_marseille","lat":43.28939,"lon":5.36403,"is_reserved":false,"is_disabled":false,"rental_uris":{"android":"levelo://app?vid=a9bddb84-877c-403f-8fad-166fd17cbab0","ios":"levelo://app?vid=a9bddb84-877c-403f-8fad-166fd17cbab0"},"vehicle_type_id":"4","last_reported":1700906772,"current_range_meters":28000,"station_id":"ce4bhc92rcd13ifvqetg","pricing_plan_id":"free"},{"bike_id":"331aef77-56d6-4fee-9c17-34458dbe9d2b","system_id":"levelo_inurba_marseille","lat":43.28933,"lon":5.36397,"is_reserved":false,"is_disabled":false,"rental_uris":{"android":"levelo://app?vid=331aef77-56d6-4fee-9c17-34458dbe9d2b","ios":"levelo://app?vid=331aef77-56d6-4fee-9c17-34458dbe9d2b"},"vehicle_type_id":"4","last_reported":1700906772,"current_range_meters":31200,"station_id":"ce4bhc92rcd13ifvqetg","pricing_plan_id":"free"},{"bike_id":"79b30b5c-fe73-444b-a844-a8046d966ecf","system_id":"levelo_inurba_marseille","lat":43.292642,"lon":5.384254,"is_reserved":false,"is_disabled":false,"rental_uris":{"android":"levelo://app?vid=79b30b5c-fe73-444b-a844-a8046d966ecf","ios":"levelo://app?vid=79b30b5c-fe73-444b-a844-a8046d966ecf"},"vehicle_type_id":"4","last_reported":1700906772,"current_range_meters":400,"station_id":"ce4bh692rcd13ifvqea0","pricing_plan_id":"free"},{"bike_id":"be34a667-d7f5-4b05-8a8c-1fadcb8d5d9f","system_id":"levelo_inurba_marseille","lat":43.290103,"lon":5.356114,"is_reserved":false,"is_disabled":false,"rental_uris":{"android":"levelo://app?vid=be34a667-d7f5-4b05-8a8c-1fadcb8d5d9f","ios":"levelo://app?vid=be34a667-d7f5-4b05-8a8c-1fadcb8d5d9f"},"vehicle_type_id":"4","last_reported":1700906772,"current_range_meters":30800,"station_id":"ce4bhb92rcd13ifvqen0","pricing_plan_id":"free"},{"bike_id":"2b23f38a-1831-49fe-a943-86c9ec15f136","system_id":"levelo_inurba_marseille","lat":43.33039,"lon":5.38925,"is_reserved":false,"is_disabled":false,"rental_uris":{"android":"levelo://app?vid=2b23f38a-1831-49fe-a943-86c9ec15f136","ios":"levelo://app?vid=2b23f38a-1831-49fe-a943-86c9ec15f136"},"vehicle_type_id":"4","last_reported":1700906772,"current_range_meters":7200,"station_id":"ce4bhr92rcd13ifvqhrg","pricing_plan_id":"free"},{"bike_id":"f284923b-45a7-4f1a-9634-ef4e04057822","system_id":"levelo_inurba_marseille","lat":43.28856,"lon":5.358371,"is_reserved":false,"is_disabled":false,"rental_uris":{"android":"levelo://app?vid=f284923b-45a7-4f1a-9634-ef4e04057822","ios":"levelo://app?vid=f284923b-45a7-4f1a-9634-ef4e04057822"},"vehicle_type_id":"4","last_reported":1700906772,"current_range_meters":18800,"station_id":"ce4bhb12rcd13ifvqem0","pricing_plan_id":"free"},{"bike_id":"6d3380cd-34a6-405f-9e14-9dfad01eb06b","system_id":"levelo_inurba_marseille","lat":43.31277,"lon":5.4017,"is_reserved":false,"is_disabled":false,"rental_uris":{"android":"levelo://app?vid=6d3380cd-34a6-405f-9e14-9dfad01eb06b","ios":"levelo://app?vid=6d3380cd-34a6-405f-9e14-9dfad01eb06b"},"vehicle_type_id":"4","last_reported":1700906772,"current_range_meters":26000,"station_id":"ce4bh092rcd13ifvqd30","pricing_plan_id":"free"},{"bike_id":"2a5fd12a-a735-4be6-a945-7ab74891f7ae","system_id":"levelo_inurba_marseille","lat":43.301117,"lon":5.398795,"is_reserved":false,"is_disabled":false,"rental_uris":{"android":"levelo://app?vid=2a5fd12a-a735-4be6-a945-7ab74891f7ae","ios":"levelo://app?vid=2a5fd12a-a735-4be6-a945-7ab74891f7ae"},"vehicle_type_id":"4","last_reported":1700906772,"current_range_meters":21600,"station_id":"ce4bh0h2rcd13ifvqd40","pricing_plan_id":"free"},{"bike_id":"dad4bdf0-a378-451d-b89b-fc88c4c9a940","system_id":"levelo_inurba_marseille","lat":43.286961,"lon":5.373785,"is_reserved":false,"is_disabled":false,"rental_uris":{"android":"levelo://app?vid=dad4bdf0-a378-451d-b89b-fc88c4c9a940","ios":"levelo://app?vid=dad4bdf0-a378-451d-b89b-fc88c4c9a940"},"vehicle_type_id":"4","last_reported":1700906772,"current_range_meters":17200,"station_id":"ce4bh3p2rcd13ifvqdq0","pricing_plan_id":"free"},{"bike_id":"0bdba9d9-d0bb-4fca-8f63-9a9cf684d57c","system_id":"levelo_inurba_marseille","lat":43.286039,"lon":5.370679,"is_reserved":false,"is_disabled":false,"rental_uris":{"android":"levelo://app?vid=0bdba9d9-d0bb-4fca-8f63-9a9cf684d57c","ios":"levelo://app?vid=0bdba9d9-d0bb-4fca-8f63-9a9cf684d57c"},"vehicle_type_id":"4","last_reported":1700906772,"current_range_meters":24800,"station_id":"ce4bht12rcd13ifvqi60","pricing_plan_id":"free"},{"bike_id":"a114aae6-8ceb-4886-b20a-6780de28c969","system_id":"levelo_inurba_marseille","lat":43.286039,"lon":5.370679,"is_reserved":false,"is_disabled":false,"rental_uris":{"android":"levelo://app?vid=a114aae6-8ceb-4886-b20a-6780de28c969","ios":"levelo://app?vid=a114aae6-8ceb-4886-b20a-6780de28c969"},"vehicle_type_id":"4","last_reported":1700906772,"current_range_meters":31600,"station_id":"ce4bht12rcd13ifvqi60","pricing_plan_id":"free"},{"bike_id":"edc5a3d8-0c57-493b-8429-7f8b733095c5","system_id":"levelo_inurba_marseille","lat":43.287184,"lon":5.37937,"is_reserved":false,"is_disabled":false,"rental_uris":{"android":"levelo://app?vid=edc5a3d8-0c57-493b-8429-7f8b733095c5","ios":"levelo://app?vid=edc5a3d8-0c57-493b-8429-7f8b733095c5"},"vehicle_type_id":"4","last_reported":1700906772,"current_range_meters":12800,"station_id":"ce4bh9p2rcd13ifvqec0","pricing_plan_id":"free"},{"bike_id":"54207de1-9f6e-435d-9cc8-204e4262b445","system_id":"levelo_inurba_marseille","lat":43.291947,"lon":5.39297,"is_reserved":false,"is_disabled":false,"rental_uris":{"android":"levelo://app?vid=54207de1-9f6e-435d-9cc8-204e4262b445","ios":"levelo://app?vid=54207de1-9f6e-435d-9cc8-204e4262b445"},"vehicle_type_id":"4","last_reported":1700906772,"current_range_meters":15200,"station_id":"ce4bh192rcd13ifvqdd0","pricing_plan_id":"free"},{"bike_id":"3f6574a2-6f47-42bb-bac6-e92151348fe2","system_id":"levelo_inurba_marseille","lat":43.28615,"lon":5.35108,"is_reserved":false,"is_disabled":false,"rental_uris":{"android":"levelo://app?vid=3f6574a2-6f47-42bb-bac6-e92151348fe2","ios":"levelo://app?vid=3f6574a2-6f47-42bb-bac6-e92151348fe2"},"vehicle_type_id":"4","last_reported":1700906772,"current_range_meters":25600,"station_id":"ce4bhch2rcd13ifvqeug","pricing_plan_id":"free"},{"bike_id":"01c3ce8c-a919-4bde-a4f1-921293fc4f35","system_id":"levelo_inurba_marseille","lat":43.285848,"lon":5.350787,"is_reserved":false,"is_disabled":false,"rental_uris":{"android":"levelo://app?vid=01c3ce8c-a919-4bde-a4f1-921293fc4f35","ios":"levelo://app?vid=01c3ce8c-a919-4bde-a4f1-921293fc4f35"},"vehicle_type_id":"4","last_reported":1700906772,"current_range_meters":18400,"station_id":"ce4bhch2rcd13ifvqeug","pricing_plan_id":"free"},{"bike_id":"3e7e5491-6e7d-4878-b14e-98821ea66948","system_id":"levelo_inurba_marseille","lat":43.295713,"lon":5.399639,"is_reserved":false,"is_disabled":false,"rental_uris":{"android":"levelo://app?vid=3e7e5491-6e7d-4878-b14e-98821ea66948","ios":"levelo://app?vid=3e7e5491-6e7d-4878-b14e-98821ea66948"},"vehicle_type_id":"4","last_reported":1700906772,"current_range_meters":6400,"station_id":"ce4bh312rcd13ifvqdj0","pricing_plan_id":"free"},{"bike_id":"2d5d919e-9a59-4c9b-91fc-dd379be5dbc6","system_id":"levelo_inurba_marseille","lat":43.286595,"lon":5.386795,"is_reserved":false,"is_disabled":false,"rental_uris":{"android":"levelo://app?vid=2d5d919e-9a59-4c9b-91fc-dd379be5dbc6","ios":"levelo://app?vid=2d5d919e-9a59-4c9b-91fc-dd379be5dbc6"},"vehicle_type_id":"4","last_reported":1700906772,"current_range_meters":13600,"station_id":"ce4bh492rcd13ifvqdug","pricing_plan_id":"free"},{"bike_id":"e2284003-4e46-4e0a-93e7-73d05c3666d9","system_id":"levelo_inurba_marseille","lat":43.33508,"lon":5.397755,"is_reserved":false,"is_disabled":false,"rental_uris":{"android":"levelo://app?vid=e2284003-4e46-4e0a-93e7-73d05c3666d9","ios":"levelo://app?vid=e2284003-4e46-4e0a-93e7-73d05c3666d9"},"vehicle_type_id":"4","last_reported":1700906772,"current_range_meters":23200,"station_id":"","pricing_plan_id":"free"},{"bike_id":"52a773d2-9de8-48bb-9a52-c6b7af7314d8","system_id":"levelo_inurba_marseille","lat":43.289363,"lon":5.396322,"is_reserved":false,"is_disabled":false,"rental_uris":{"android":"levelo://app?vid=52a773d2-9de8-48bb-9a52-c6b7af7314d8","ios":"levelo://app?vid=52a773d2-9de8-48bb-9a52-c6b7af7314d8"},"vehicle_type_id":"4","last_reported":1700906772,"current_range_meters":21200,"station_id":"ce4bh3h2rcd13ifvqdn0","pricing_plan_id":"free"},{"bike_id":"19c14df7-18a4-493f-9338-899c124bf8ac","system_id":"levelo_inurba_marseille","lat":43.289363,"lon":5.396322,"is_reserved":false,"is_disabled":false,"rental_uris":{"android":"levelo://app?vid=19c14df7-18a4-493f-9338-899c124bf8ac","ios":"levelo://app?vid=19c14df7-18a4-493f-9338-899c124bf8ac"},"vehicle_type_id":"4","last_reported":1700906772,"current_range_meters":26800,"station_id":"ce4bh3h2rcd13ifvqdn0","pricing_plan_id":"free"},{"bike_id":"09a88198-c1d5-46a8-9a74-3393cd531e27","system_id":"levelo_inurba_marseille","lat":43.28039,"lon":5.369297,"is_reserved":false,"is_disabled":false,"rental_uris":{"android":"levelo://app?vid=09a88198-c1d5-46a8-9a74-3393cd531e27","ios":"levelo://app?vid=09a88198-c1d5-46a8-9a74-3393cd531e27"},"vehicle_type_id":"4","last_reported":1700906772,"current_range_meters":31200,"station_id":"ce4bha12rcd13ifvqef0","pricing_plan_id":"free"},{"bike_id":"8286e93e-8f8a-4773-827a-72b40cb8f931","system_id":"levelo_inurba_marseille","lat":43.29041,"lon":5.399634,"is_reserved":false,"is_disabled":false,"rental_uris":{"android":"levelo://app?vid=8286e93e-8f8a-4773-827a-72b40cb8f931","ios":"levelo://app?vid=8286e93e-8f8a-4773-827a-72b40cb8f931"},"vehicle_type_id":"4","last_reported":1700906772,"current_range_meters":4400,"station_id":"ce4bh392rcd13ifvqdm0","pricing_plan_id":"free"},{"bike_id":"4e1c3ef1-de93-420e-8f93-33f1ee697c19","system_id":"levelo_inurba_marseille","lat":43.29041,"lon":5.399634,"is_reserved":false,"is_disabled":false,"rental_uris":{"android":"levelo://app?vid=4e1c3ef1-de93-420e-8f93-33f1ee697c19","ios":"levelo://app?vid=4e1c3ef1-de93-420e-8f93-33f1ee697c19"},"vehicle_type_id":"4","last_reported":1700906772,"current_range_meters":8800,"station_id":"ce4bh392rcd13ifvqdm0","pricing_plan_id":"free"},{"bike_id":"1ffceedc-796d-43e9-ba0e-2a29448ac059","system_id":"levelo_inurba_marseille","lat":43.290401,"lon":5.399825,"is_reserved":false,"is_disabled":false,"rental_uris":{"android":"levelo://app?vid=1ffceedc-796d-43e9-ba0e-2a29448ac059","ios":"levelo://app?vid=1ffceedc-796d-43e9-ba0e-2a29448ac059"},"vehicle_type_id":"4","last_reported":1700906772,"current_range_meters":0,"station_id":"ce4bh392rcd13ifvqdm0","pricing_plan_id":"free"},{"bike_id":"81d5ffe3-597f-419b-a8e7-943366206389","system_id":"levelo_inurba_marseille","lat":43.279742,"lon":5.38744,"is_reserved":false,"is_disabled":false,"rental_uris":{"android":"levelo://app?vid=81d5ffe3-597f-419b-a8e7-943366206389","ios":"levelo://app?vid=81d5ffe3-597f-419b-a8e7-943366206389"},"vehicle_type_id":"4","last_reported":1700906772,"current_range_meters":13600,"station_id":"ce4bhg12rcd13ifvqf80","pricing_plan_id":"free"},{"bike_id":"c25ea147-e804-4786-9d25-91f61a8ed59a","system_id":"levelo_inurba_marseille","lat":43.293651,"lon":5.41268,"is_reserved":false,"is_disabled":false,"rental_uris":{"android":"levelo://app?vid=c25ea147-e804-4786-9d25-91f61a8ed59a","ios":"levelo://app?vid=c25ea147-e804-4786-9d25-91f61a8ed59a"},"vehicle_type_id":"4","last_reported":1700906772,"current_range_meters":0,"station_id":"","pricing_plan_id":"free"},{"bike_id":"0c2413da-803e-4912-9c1e-54fbc3b1b0f4","system_id":"levelo_inurba_marseille","lat":43.275625,"lon":5.384392,"is_reserved":false,"is_disabled":false,"rental_uris":{"android":"levelo://app?vid=0c2413da-803e-4912-9c1e-54fbc3b1b0f4","ios":"levelo://app?vid=0c2413da-803e-4912-9c1e-54fbc3b1b0f4"},"vehicle_type_id":"4","last_reported":1700906772,"current_range_meters":28000,"station_id":"ce4bhh92rcd13ifvqfi0","pricing_plan_id":"free"},{"bike_id":"99090d0a-e9ab-4446-8e64-83bb45427779","system_id":"levelo_inurba_marseille","lat":43.273613,"lon":5.362705,"is_reserved":false,"is_disabled":false,"rental_uris":{"android":"levelo://app?vid=99090d0a-e9ab-4446-8e64-83bb45427779","ios":"levelo://app?vid=99090d0a-e9ab-4446-8e64-83bb45427779"},"vehicle_type_id":"4","last_reported":1700906772,"current_range_meters":22000,"station_id":"ce4bhbh2rcd13ifvqeo0","pricing_plan_id":"free"},{"bike_id":"0aff70a1-1991-4a62-8e1f-c9c0b479bd99","system_id":"levelo_inurba_marseille","lat":43.273613,"lon":5.362705,"is_reserved":false,"is_disabled":false,"rental_uris":{"android":"levelo://app?vid=0aff70a1-1991-4a62-8e1f-c9c0b479bd99","ios":"levelo://app?vid=0aff70a1-1991-4a62-8e1f-c9c0b479bd99"},"vehicle_type_id":"4","last_reported":1700906772,"current_range_meters":25600,"station_id":"ce4bhbh2rcd13ifvqeo0","pricing_plan_id":"free"},{"bike_id":"561d56c0-616a-4955-bd15-b0e0ddd3d6ba","system_id":"levelo_inurba_marseille","lat":43.279952,"lon":5.400085,"is_reserved":false,"is_disabled":false,"rental_uris":{"android":"levelo://app?vid=561d56c0-616a-4955-bd15-b0e0ddd3d6ba","ios":"levelo://app?vid=561d56c0-616a-4955-bd15-b0e0ddd3d6ba"},"vehicle_type_id":"4","last_reported":1700906772,"current_range_meters":30800,"station_id":"ce4bho92rcd13ifvqh4g","pricing_plan_id":"free"},{"bike_id":"2aba52bf-9cdb-4dd3-a1ea-4c8b2bed0e7d","system_id":"levelo_inurba_marseille","lat":43.279952,"lon":5.400085,"is_reserved":false,"is_disabled":false,"rental_uris":{"android":"levelo://app?vid=2aba52bf-9cdb-4dd3-a1ea-4c8b2bed0e7d","ios":"levelo://app?vid=2aba52bf-9cdb-4dd3-a1ea-4c8b2bed0e7d"},"vehicle_type_id":"4","last_reported":1700906772,"current_range_meters":7600,"station_id":"ce4bho92rcd13ifvqh4g","pricing_plan_id":"free"},{"bike_id":"0826ab7c-a73f-40ed-b55c-b0d32a900d4a","system_id":"levelo_inurba_marseille","lat":43.279952,"lon":5.400085,"is_reserved":false,"is_disabled":false,"rental_uris":{"android":"levelo://app?vid=0826ab7c-a73f-40ed-b55c-b0d32a900d4a","ios":"levelo://app?vid=0826ab7c-a73f-40ed-b55c-b0d32a900d4a"},"vehicle_type_id":"4","last_reported":1700906772,"current_range_meters":19200,"station_id":"ce4bho92rcd13ifvqh4g","pricing_plan_id":"free"},{"bike_id":"e3a7363a-96d8-40a7-8371-42d06a1b8e5f","system_id":"levelo_inurba_marseille","lat":43.340804,"lon":5.410219,"is_reserved":false,"is_disabled":false,"rental_uris":{"android":"levelo://app?vid=e3a7363a-96d8-40a7-8371-42d06a1b8e5f","ios":"levelo://app?vid=e3a7363a-96d8-40a7-8371-42d06a1b8e5f"},"vehicle_type_id":"4","last_reported":1700906772,"current_range_meters":11600,"station_id":"ce4bhqh2rcd13ifvqhlg","pricing_plan_id":"free"},{"bike_id":"d617807c-32fa-4a81-8852-d232b7257f2e","system_id":"levelo_inurba_marseille","lat":43.304096,"lon":5.425385,"is_reserved":false,"is_disabled":false,"rental_uris":{"android":"levelo://app?vid=d617807c-32fa-4a81-8852-d232b7257f2e","ios":"levelo://app?vid=d617807c-32fa-4a81-8852-d232b7257f2e"},"vehicle_type_id":"4","last_reported":1700906772,"current_range_meters":26400,"station_id":"ce4bhoh2rcd13ifvqh6g","pricing_plan_id":"free"},{"bike_id":"118822d8-6e1e-4e74-a488-66c0b9bac4ea","system_id":"levelo_inurba_marseille","lat":43.295511,"lon":5.422926,"is_reserved":false,"is_disabled":false,"rental_uris":{"android":"levelo://app?vid=118822d8-6e1e-4e74-a488-66c0b9bac4ea","ios":"levelo://app?vid=118822d8-6e1e-4e74-a488-66c0b9bac4ea"},"vehicle_type_id":"4","last_reported":1700906772,"current_range_meters":20000,"station_id":"ce4bhph2rcd13ifvqhdg","pricing_plan_id":"free"},{"bike_id":"c0e7c921-2f34-4325-9644-1440c95e11ac","system_id":"levelo_inurba_marseille","lat":43.295523,"lon":5.422926,"is_reserved":false,"is_disabled":false,"rental_uris":{"android":"levelo://app?vid=c0e7c921-2f34-4325-9644-1440c95e11ac","ios":"levelo://app?vid=c0e7c921-2f34-4325-9644-1440c95e11ac"},"vehicle_type_id":"4","last_reported":1700906772,"current_range_meters":27200,"station_id":"ce4bhph2rcd13ifvqhdg","pricing_plan_id":"free"},{"bike_id":"39ba2a28-4e45-47ae-b54e-2e865e84aa2a","system_id":"levelo_inurba_marseille","lat":43.295523,"lon":5.422926,"is_reserved":false,"is_disabled":false,"rental_uris":{"android":"levelo://app?vid=39ba2a28-4e45-47ae-b54e-2e865e84aa2a","ios":"levelo://app?vid=39ba2a28-4e45-47ae-b54e-2e865e84aa2a"},"vehicle_type_id":"4","last_reported":1700906772,"current_range_meters":26800,"station_id":"ce4bhph2rcd13ifvqhdg","pricing_plan_id":"free"},{"bike_id":"9f3ea0ae-761e-43b1-ad64-979f3efc0236","system_id":"levelo_inurba_marseille","lat":43.295511,"lon":5.422926,"is_reserved":false,"is_disabled":false,"rental_uris":{"android":"levelo://app?vid=9f3ea0ae-761e-43b1-ad64-979f3efc0236","ios":"levelo://app?vid=9f3ea0ae-761e-43b1-ad64-979f3efc0236"},"vehicle_type_id":"4","last_reported":1700906772,"current_range_meters":22400,"station_id":"ce4bhph2rcd13ifvqhdg","pricing_plan_id":"free"},{"bike_id":"58636f9d-7758-4e31-a17e-c4e04578fa5d","system_id":"levelo_inurba_marseille","lat":43.295523,"lon":5.422926,"is_reserved":false,"is_disabled":false,"rental_uris":{"android":"levelo://app?vid=58636f9d-7758-4e31-a17e-c4e04578fa5d","ios":"levelo://app?vid=58636f9d-7758-4e31-a17e-c4e04578fa5d"},"vehicle_type_id":"4","last_reported":1700906772,"current_range_meters":18800,"station_id":"ce4bhph2rcd13ifvqhdg","pricing_plan_id":"free"},{"bike_id":"ec3d03da-78c9-4642-80f1-267154a38bb0","system_id":"levelo_inurba_marseille","lat":43.295511,"lon":5.422926,"is_reserved":false,"is_disabled":false,"rental_uris":{"android":"levelo://app?vid=ec3d03da-78c9-4642-80f1-267154a38bb0","ios":"levelo://app?vid=ec3d03da-78c9-4642-80f1-267154a38bb0"},"vehicle_type_id":"4","last_reported":1700906772,"current_range_meters":31200,"station_id":"ce4bhph2rcd13ifvqhdg","pricing_plan_id":"free"},{"bike_id":"9830637b-caf5-476f-85b7-c02033487ff2","system_id":"levelo_inurba_marseille","lat":43.295511,"lon":5.422926,"is_reserved":false,"is_disabled":false,"rental_uris":{"android":"levelo://app?vid=9830637b-caf5-476f-85b7-c02033487ff2","ios":"levelo://app?vid=9830637b-caf5-476f-85b7-c02033487ff2"},"vehicle_type_id":"4","last_reported":1700906772,"current_range_meters":31200,"station_id":"ce4bhph2rcd13ifvqhdg","pricing_plan_id":"free"},{"bike_id":"6d892d9f-8bb7-466b-91e4-6b4cd5e06b20","system_id":"levelo_inurba_marseille","lat":43.295511,"lon":5.422926,"is_reserved":false,"is_disabled":false,"rental_uris":{"android":"levelo://app?vid=6d892d9f-8bb7-466b-91e4-6b4cd5e06b20","ios":"levelo://app?vid=6d892d9f-8bb7-466b-91e4-6b4cd5e06b20"},"vehicle_type_id":"4","last_reported":1700906772,"current_range_meters":25200,"station_id":"ce4bhph2rcd13ifvqhdg","pricing_plan_id":"free"},{"bike_id":"60384595-5838-46d3-8ef9-ce34760ba3f9","system_id":"levelo_inurba_marseille","lat":43.295511,"lon":5.422926,"is_reserved":false,"is_disabled":false,"rental_uris":{"android":"levelo://app?vid=60384595-5838-46d3-8ef9-ce34760ba3f9","ios":"levelo://app?vid=60384595-5838-46d3-8ef9-ce34760ba3f9"},"vehicle_type_id":"4","last_reported":1700906772,"current_range_meters":31200,"station_id":"ce4bhph2rcd13ifvqhdg","pricing_plan_id":"free"},{"bike_id":"19af744c-b319-43d8-b5d6-6ef7c8fe9f3c","system_id":"levelo_inurba_marseille","lat":43.278128,"lon":5.407195,"is_reserved":false,"is_disabled":false,"rental_uris":{"android":"levelo://app?vid=19af744c-b319-43d8-b5d6-6ef7c8fe9f3c","ios":"levelo://app?vid=19af744c-b319-43d8-b5d6-6ef7c8fe9f3c"},"vehicle_type_id":"4","last_reported":1700906772,"current_range_meters":22400,"station_id":"ce4bhnh2rcd13ifvqgtg","pricing_plan_id":"free"},{"bike_id":"f8571973-6b4b-4432-a83c-92d5c5556f47","system_id":"levelo_inurba_marseille","lat":43.278128,"lon":5.407195,"is_reserved":false,"is_disabled":false,"rental_uris":{"android":"levelo://app?vid=f8571973-6b4b-4432-a83c-92d5c5556f47","ios":"levelo://app?vid=f8571973-6b4b-4432-a83c-92d5c5556f47"},"vehicle_type_id":"4","last_reported":1700906772,"current_range_meters":29200,"station_id":"ce4bhnh2rcd13ifvqgtg","pricing_plan_id":"free"},{"bike_id":"c905bedc-26ad-48f7-8ea3-95f9a5f09740","system_id":"levelo_inurba_marseille","lat":43.278128,"lon":5.407195,"is_reserved":false,"is_disabled":false,"rental_uris":{"android":"levelo://app?vid=c905bedc-26ad-48f7-8ea3-95f9a5f09740","ios":"levelo://app?vid=c905bedc-26ad-48f7-8ea3-95f9a5f09740"},"vehicle_type_id":"4","last_reported":1700906772,"current_range_meters":29600,"station_id":"ce4bhnh2rcd13ifvqgtg","pricing_plan_id":"free"},{"bike_id":"4b263215-8b7d-422d-8da3-5dcb4feb74d2","system_id":"levelo_inurba_marseille","lat":43.27938,"lon":5.41046,"is_reserved":false,"is_disabled":false,"rental_uris":{"android":"levelo://app?vid=4b263215-8b7d-422d-8da3-5dcb4feb74d2","ios":"levelo://app?vid=4b263215-8b7d-422d-8da3-5dcb4feb74d2"},"vehicle_type_id":"4","last_reported":1700906772,"current_range_meters":0,"station_id":"ce4bhnp2rcd13ifvqh0g","pricing_plan_id":"free"},{"bike_id":"765e706f-68e6-4b58-8a26-eaf2140a98f6","system_id":"levelo_inurba_marseille","lat":43.269319,"lon":5.389397,"is_reserved":false,"is_disabled":false,"rental_uris":{"android":"levelo://app?vid=765e706f-68e6-4b58-8a26-eaf2140a98f6","ios":"levelo://app?vid=765e706f-68e6-4b58-8a26-eaf2140a98f6"},"vehicle_type_id":"4","last_reported":1700906772,"current_range_meters":19600,"station_id":"ce4bhhh2rcd13ifvqfl0","pricing_plan_id":"free"},{"bike_id":"a8cc614d-71f7-492a-8aaa-dabb2f666577","system_id":"levelo_inurba_marseille","lat":43.26681,"lon":5.382694,"is_reserved":false,"is_disabled":false,"rental_uris":{"android":"levelo://app?vid=a8cc614d-71f7-492a-8aaa-dabb2f666577","ios":"levelo://app?vid=a8cc614d-71f7-492a-8aaa-dabb2f666577"},"vehicle_type_id":"4","last_reported":1700906772,"current_range_meters":21600,"station_id":"ce4bhg92rcd13ifvqf90","pricing_plan_id":"free"},{"bike_id":"dee68533-a973-4128-9a13-4e5ffe2d6d9c","system_id":"levelo_inurba_marseille","lat":43.26681,"lon":5.382694,"is_reserved":false,"is_disabled":false,"rental_uris":{"android":"levelo://app?vid=dee68533-a973-4128-9a13-4e5ffe2d6d9c","ios":"levelo://app?vid=dee68533-a973-4128-9a13-4e5ffe2d6d9c"},"vehicle_type_id":"4","last_reported":1700906772,"current_range_meters":23600,"station_id":"ce4bhg92rcd13ifvqf90","pricing_plan_id":"free"},{"bike_id":"98939664-fb85-4562-934d-01b34390ff65","system_id":"levelo_inurba_marseille","lat":43.26681,"lon":5.382694,"is_reserved":false,"is_disabled":false,"rental_uris":{"android":"levelo://app?vid=98939664-fb85-4562-934d-01b34390ff65","ios":"levelo://app?vid=98939664-fb85-4562-934d-01b34390ff65"},"vehicle_type_id":"4","last_reported":1700906772,"current_range_meters":22000,"station_id":"ce4bhg92rcd13ifvqf90","pricing_plan_id":"free"},{"bike_id":"2004c674-313d-4819-82b1-a3af5ef2bb92","system_id":"levelo_inurba_marseille","lat":43.276769,"lon":5.388787,"is_reserved":false,"is_disabled":false,"rental_uris":{"android":"levelo://app?vid=2004c674-313d-4819-82b1-a3af5ef2bb92","ios":"levelo://app?vid=2004c674-313d-4819-82b1-a3af5ef2bb92"},"vehicle_type_id":"4","last_reported":1700906772,"current_range_meters":20000,"station_id":"ce4bhi12rcd13ifvqfo0","pricing_plan_id":"free"},{"bike_id":"f23d8119-b478-4639-98c5-6883279f9f84","system_id":"levelo_inurba_marseille","lat":43.32592,"lon":5.43067,"is_reserved":false,"is_disabled":false,"rental_uris":{"android":"levelo://app?vid=f23d8119-b478-4639-98c5-6883279f9f84","ios":"levelo://app?vid=f23d8119-b478-4639-98c5-6883279f9f84"},"vehicle_type_id":"4","last_reported":1700906772,"current_range_meters":27200,"station_id":"","pricing_plan_id":"free"},{"bike_id":"e7b368e8-9edf-4ac8-acef-7e9558d427aa","system_id":"levelo_inurba_marseille","lat":43.32591,"lon":5.430713,"is_reserved":false,"is_disabled":false,"rental_uris":{"android":"levelo://app?vid=e7b368e8-9edf-4ac8-acef-7e9558d427aa","ios":"levelo://app?vid=e7b368e8-9edf-4ac8-acef-7e9558d427aa"},"vehicle_type_id":"4","last_reported":1700906772,"current_range_meters":0,"station_id":"","pricing_plan_id":"free"},{"bike_id":"ed30d6a1-b23a-49e5-9c83-5546be72a734","system_id":"levelo_inurba_marseille","lat":43.3259,"lon":5.43075,"is_reserved":false,"is_disabled":false,"rental_uris":{"android":"levelo://app?vid=ed30d6a1-b23a-49e5-9c83-5546be72a734","ios":"levelo://app?vid=ed30d6a1-b23a-49e5-9c83-5546be72a734"},"vehicle_type_id":"4","last_reported":1700906772,"current_range_meters":22000,"station_id":"","pricing_plan_id":"free"},{"bike_id":"d67469ee-5362-4610-a163-fe05ae3cf4f7","system_id":"levelo_inurba_marseille","lat":43.32604,"lon":5.430817,"is_reserved":false,"is_disabled":false,"rental_uris":{"android":"levelo://app?vid=d67469ee-5362-4610-a163-fe05ae3cf4f7","ios":"levelo://app?vid=d67469ee-5362-4610-a163-fe05ae3cf4f7"},"vehicle_type_id":"4","last_reported":1700906772,"current_range_meters":10400,"station_id":"","pricing_plan_id":"free"},{"bike_id":"5f40d50c-c2c7-49a8-adcf-b1df5b38345b","system_id":"levelo_inurba_marseille","lat":43.27996,"lon":5.416624,"is_reserved":false,"is_disabled":false,"rental_uris":{"android":"levelo://app?vid=5f40d50c-c2c7-49a8-adcf-b1df5b38345b","ios":"levelo://app?vid=5f40d50c-c2c7-49a8-adcf-b1df5b38345b"},"vehicle_type_id":"4","last_reported":1700906772,"current_range_meters":30400,"station_id":"ce4bho12rcd13ifvqh1g","pricing_plan_id":"free"},{"bike_id":"3738f45f-0f0f-4195-af48-2b999cb83df1","system_id":"levelo_inurba_marseille","lat":43.27996,"lon":5.416624,"is_reserved":false,"is_disabled":false,"rental_uris":{"android":"levelo://app?vid=3738f45f-0f0f-4195-af48-2b999cb83df1","ios":"levelo://app?vid=3738f45f-0f0f-4195-af48-2b999cb83df1"},"vehicle_type_id":"4","last_reported":1700906772,"current_range_meters":30400,"station_id":"ce4bho12rcd13ifvqh1g","pricing_plan_id":"free"},{"bike_id":"20da1be3-a21d-45bf-bf42-0b32f9b74ce7","system_id":"levelo_inurba_marseille","lat":43.27996,"lon":5.416624,"is_reserved":false,"is_disabled":false,"rental_uris":{"android":"levelo://app?vid=20da1be3-a21d-45bf-bf42-0b32f9b74ce7","ios":"levelo://app?vid=20da1be3-a21d-45bf-bf42-0b32f9b74ce7"},"vehicle_type_id":"4","last_reported":1700906772,"current_range_meters":15600,"station_id":"ce4bho12rcd13ifvqh1g","pricing_plan_id":"free"},{"bike_id":"fca1f898-5364-4660-9804-86e14aed3847","system_id":"levelo_inurba_marseille","lat":43.27996,"lon":5.416624,"is_reserved":false,"is_disabled":false,"rental_uris":{"android":"levelo://app?vid=fca1f898-5364-4660-9804-86e14aed3847","ios":"levelo://app?vid=fca1f898-5364-4660-9804-86e14aed3847"},"vehicle_type_id":"4","last_reported":1700906772,"current_range_meters":31200,"station_id":"ce4bho12rcd13ifvqh1g","pricing_plan_id":"free"},{"bike_id":"2b5f0b27-ae58-4e9e-bd76-c585f78e8a73","system_id":"levelo_inurba_marseille","lat":43.26386,"lon":5.37454,"is_reserved":false,"is_disabled":false,"rental_uris":{"android":"levelo://app?vid=2b5f0b27-ae58-4e9e-bd76-c585f78e8a73","ios":"levelo://app?vid=2b5f0b27-ae58-4e9e-bd76-c585f78e8a73"},"vehicle_type_id":"4","last_reported":1700906772,"current_range_meters":11200,"station_id":"","pricing_plan_id":"free"},{"bike_id":"e76efcfe-40d6-4620-ab0f-71f8c51c34fd","system_id":"levelo_inurba_marseille","lat":43.26944,"lon":5.4025,"is_reserved":false,"is_disabled":false,"rental_uris":{"android":"levelo://app?vid=e76efcfe-40d6-4620-ab0f-71f8c51c34fd","ios":"levelo://app?vid=e76efcfe-40d6-4620-ab0f-71f8c51c34fd"},"vehicle_type_id":"4","last_reported":1700906772,"current_range_meters":2000,"station_id":"cjm6bp8fraef2m0cb0m0","pricing_plan_id":"free"},{"bike_id":"dbc279b1-4335-4bcc-9eef-f924e0f80a07","system_id":"levelo_inurba_marseille","lat":43.26949,"lon":5.40262,"is_reserved":false,"is_disabled":false,"rental_uris":{"android":"levelo://app?vid=dbc279b1-4335-4bcc-9eef-f924e0f80a07","ios":"levelo://app?vid=dbc279b1-4335-4bcc-9eef-f924e0f80a07"},"vehicle_type_id":"4","last_reported":1700906772,"current_range_meters":26000,"station_id":"cjm6bp8fraef2m0cb0m0","pricing_plan_id":"free"},{"bike_id":"45ef9090-5385-49d1-b76b-9de833782a27","system_id":"levelo_inurba_marseille","lat":43.261782,"lon":5.374515,"is_reserved":false,"is_disabled":false,"rental_uris":{"android":"levelo://app?vid=45ef9090-5385-49d1-b76b-9de833782a27","ios":"levelo://app?vid=45ef9090-5385-49d1-b76b-9de833782a27"},"vehicle_type_id":"4","last_reported":1700906772,"current_range_meters":16400,"station_id":"ce4bhgp2rcd13ifvqfc0","pricing_plan_id":"free"},{"bike_id":"f809b2bb-3716-4d7b-8de4-7c32b60e559d","system_id":"levelo_inurba_marseille","lat":43.317104,"lon":5.436818,"is_reserved":false,"is_disabled":false,"rental_uris":{"android":"levelo://app?vid=f809b2bb-3716-4d7b-8de4-7c32b60e559d","ios":"levelo://app?vid=f809b2bb-3716-4d7b-8de4-7c32b60e559d"},"vehicle_type_id":"4","last_reported":1700906772,"current_range_meters":17200,"station_id":"ce4bhp92rcd13ifvqhcg","pricing_plan_id":"free"},{"bike_id":"168ee95c-61e1-4c1b-bff9-671722474473","system_id":"levelo_inurba_marseille","lat":43.317104,"lon":5.436818,"is_reserved":false,"is_disabled":false,"rental_uris":{"android":"levelo://app?vid=168ee95c-61e1-4c1b-bff9-671722474473","ios":"levelo://app?vid=168ee95c-61e1-4c1b-bff9-671722474473"},"vehicle_type_id":"4","last_reported":1700906772,"current_range_meters":16000,"station_id":"ce4bhp92rcd13ifvqhcg","pricing_plan_id":"free"},{"bike_id":"c294f78a-87a5-490e-93ab-591928a47c2b","system_id":"levelo_inurba_marseille","lat":43.261782,"lon":5.374515,"is_reserved":false,"is_disabled":false,"rental_uris":{"android":"levelo://app?vid=c294f78a-87a5-490e-93ab-591928a47c2b","ios":"levelo://app?vid=c294f78a-87a5-490e-93ab-591928a47c2b"},"vehicle_type_id":"4","last_reported":1700906772,"current_range_meters":29200,"station_id":"ce4bhgp2rcd13ifvqfc0","pricing_plan_id":"free"},{"bike_id":"46163101-d36f-4b9d-b2d0-b570d3e9c51c","system_id":"levelo_inurba_marseille","lat":43.317104,"lon":5.436818,"is_reserved":false,"is_disabled":false,"rental_uris":{"android":"levelo://app?vid=46163101-d36f-4b9d-b2d0-b570d3e9c51c","ios":"levelo://app?vid=46163101-d36f-4b9d-b2d0-b570d3e9c51c"},"vehicle_type_id":"4","last_reported":1700906772,"current_range_meters":30000,"station_id":"ce4bhp92rcd13ifvqhcg","pricing_plan_id":"free"},{"bike_id":"1b98b7d3-c287-45d9-80ab-ed0171f3329e","system_id":"levelo_inurba_marseille","lat":43.317104,"lon":5.436818,"is_reserved":false,"is_disabled":false,"rental_uris":{"android":"levelo://app?vid=1b98b7d3-c287-45d9-80ab-ed0171f3329e","ios":"levelo://app?vid=1b98b7d3-c287-45d9-80ab-ed0171f3329e"},"vehicle_type_id":"4","last_reported":1700906772,"current_range_meters":30800,"station_id":"ce4bhp92rcd13ifvqhcg","pricing_plan_id":"free"},{"bike_id":"a6cf9b04-855d-4dc5-9c72-ce4a8e5bbb9c","system_id":"levelo_inurba_marseille","lat":43.317104,"lon":5.436818,"is_reserved":false,"is_disabled":false,"rental_uris":{"android":"levelo://app?vid=a6cf9b04-855d-4dc5-9c72-ce4a8e5bbb9c","ios":"levelo://app?vid=a6cf9b04-855d-4dc5-9c72-ce4a8e5bbb9c"},"vehicle_type_id":"4","last_reported":1700906772,"current_range_meters":25600,"station_id":"ce4bhp92rcd13ifvqhcg","pricing_plan_id":"free"},{"bike_id":"eb07b247-5e4e-493e-aff5-6b1bc1e28c87","system_id":"levelo_inurba_marseille","lat":43.261782,"lon":5.374515,"is_reserved":false,"is_disabled":false,"rental_uris":{"android":"levelo://app?vid=eb07b247-5e4e-493e-aff5-6b1bc1e28c87","ios":"levelo://app?vid=eb07b247-5e4e-493e-aff5-6b1bc1e28c87"},"vehicle_type_id":"4","last_reported":1700906772,"current_range_meters":26400,"station_id":"ce4bhgp2rcd13ifvqfc0","pricing_plan_id":"free"},{"bike_id":"2f057b81-6fc8-4570-8186-e577abd426a5","system_id":"levelo_inurba_marseille","lat":43.262012,"lon":5.379307,"is_reserved":false,"is_disabled":false,"rental_uris":{"android":"levelo://app?vid=2f057b81-6fc8-4570-8186-e577abd426a5","ios":"levelo://app?vid=2f057b81-6fc8-4570-8186-e577abd426a5"},"vehicle_type_id":"4","last_reported":1700906772,"current_range_meters":28400,"station_id":"ce4bhjp2rcd13ifvqg90","pricing_plan_id":"free"},{"bike_id":"4572da7b-b339-4c7f-80aa-57f54e950769","system_id":"levelo_inurba_marseille","lat":43.271388,"lon":5.409269,"is_reserved":false,"is_disabled":false,"rental_uris":{"android":"levelo://app?vid=4572da7b-b339-4c7f-80aa-57f54e950769","ios":"levelo://app?vid=4572da7b-b339-4c7f-80aa-57f54e950769"},"vehicle_type_id":"4","last_reported":1700906772,"current_range_meters":26400,"station_id":"ce4bhl12rcd13ifvqgf0","pricing_plan_id":"free"},{"bike_id":"3feec791-ffcf-49b4-a3ec-8839e018235b","system_id":"levelo_inurba_marseille","lat":43.271388,"lon":5.409269,"is_reserved":false,"is_disabled":false,"rental_uris":{"android":"levelo://app?vid=3feec791-ffcf-49b4-a3ec-8839e018235b","ios":"levelo://app?vid=3feec791-ffcf-49b4-a3ec-8839e018235b"},"vehicle_type_id":"4","last_reported":1700906772,"current_range_meters":30000,"station_id":"ce4bhl12rcd13ifvqgf0","pricing_plan_id":"free"},{"bike_id":"731477c7-3eda-47fa-a9be-55a54d5ff8fe","system_id":"levelo_inurba_marseille","lat":43.271368,"lon":5.40928,"is_reserved":false,"is_disabled":false,"rental_uris":{"android":"levelo://app?vid=731477c7-3eda-47fa-a9be-55a54d5ff8fe","ios":"levelo://app?vid=731477c7-3eda-47fa-a9be-55a54d5ff8fe"},"vehicle_type_id":"4","last_reported":1700906772,"current_range_meters":27600,"station_id":"ce4bhl12rcd13ifvqgf0","pricing_plan_id":"free"},{"bike_id":"001de6f8-100f-4d90-9035-712cc428c1d5","system_id":"levelo_inurba_marseille","lat":43.267959,"lon":5.402685,"is_reserved":false,"is_disabled":false,"rental_uris":{"android":"levelo://app?vid=001de6f8-100f-4d90-9035-712cc428c1d5","ios":"levelo://app?vid=001de6f8-100f-4d90-9035-712cc428c1d5"},"vehicle_type_id":"4","last_reported":1700906772,"current_range_meters":25200,"station_id":"ce501612rcd8frsf0b60","pricing_plan_id":"free"},{"bike_id":"4187a108-62b4-453d-8f39-5a1312235326","system_id":"levelo_inurba_marseille","lat":43.298768,"lon":5.43643,"is_reserved":false,"is_disabled":false,"rental_uris":{"android":"levelo://app?vid=4187a108-62b4-453d-8f39-5a1312235326","ios":"levelo://app?vid=4187a108-62b4-453d-8f39-5a1312235326"},"vehicle_type_id":"4","last_reported":1700906772,"current_range_meters":24400,"station_id":"ce4bhpp2rcd13ifvqhfg","pricing_plan_id":"free"},{"bike_id":"7c5a83ac-336c-4b91-a5ea-82b3c6d6127d","system_id":"levelo_inurba_marseille","lat":43.298768,"lon":5.43643,"is_reserved":false,"is_disabled":false,"rental_uris":{"android":"levelo://app?vid=7c5a83ac-336c-4b91-a5ea-82b3c6d6127d","ios":"levelo://app?vid=7c5a83ac-336c-4b91-a5ea-82b3c6d6127d"},"vehicle_type_id":"4","last_reported":1700906772,"current_range_meters":31200,"station_id":"ce4bhpp2rcd13ifvqhfg","pricing_plan_id":"free"},{"bike_id":"8af0d2ed-93d1-485d-9803-40c71e52d0d9","system_id":"levelo_inurba_marseille","lat":43.29903,"lon":5.43671,"is_reserved":false,"is_disabled":false,"rental_uris":{"android":"levelo://app?vid=8af0d2ed-93d1-485d-9803-40c71e52d0d9","ios":"levelo://app?vid=8af0d2ed-93d1-485d-9803-40c71e52d0d9"},"vehicle_type_id":"4","last_reported":1700906772,"current_range_meters":14000,"station_id":"ce4bhpp2rcd13ifvqhfg","pricing_plan_id":"free"},{"bike_id":"91794d0e-e2e6-4dd9-a1b6-ff7501e49342","system_id":"levelo_inurba_marseille","lat":43.29896,"lon":5.43672,"is_reserved":false,"is_disabled":false,"rental_uris":{"android":"levelo://app?vid=91794d0e-e2e6-4dd9-a1b6-ff7501e49342","ios":"levelo://app?vid=91794d0e-e2e6-4dd9-a1b6-ff7501e49342"},"vehicle_type_id":"4","last_reported":1700906772,"current_range_meters":31200,"station_id":"ce4bhpp2rcd13ifvqhfg","pricing_plan_id":"free"},{"bike_id":"644c8db2-971c-425d-82fe-9137acbc93f3","system_id":"levelo_inurba_marseille","lat":43.260219,"lon":5.37546,"is_reserved":false,"is_disabled":false,"rental_uris":{"android":"levelo://app?vid=644c8db2-971c-425d-82fe-9137acbc93f3","ios":"levelo://app?vid=644c8db2-971c-425d-82fe-9137acbc93f3"},"vehicle_type_id":"4","last_reported":1700906772,"current_range_meters":30000,"station_id":"ce4bhgh2rcd13ifvqfa0","pricing_plan_id":"free"},{"bike_id":"5cc76595-4035-4213-b74e-41dabe622aaf","system_id":"levelo_inurba_marseille","lat":43.28152,"lon":5.42636,"is_reserved":false,"is_disabled":false,"rental_uris":{"android":"levelo://app?vid=5cc76595-4035-4213-b74e-41dabe622aaf","ios":"levelo://app?vid=5cc76595-4035-4213-b74e-41dabe622aaf"},"vehicle_type_id":"4","last_reported":1700906772,"current_range_meters":4800,"station_id":"ce4bhnh2rcd13ifvqgug","pricing_plan_id":"free"},{"bike_id":"5ac38179-4d98-4b89-80f2-dc6cd474e479","system_id":"levelo_inurba_marseille","lat":43.28153,"lon":5.42638,"is_reserved":false,"is_disabled":false,"rental_uris":{"android":"levelo://app?vid=5ac38179-4d98-4b89-80f2-dc6cd474e479","ios":"levelo://app?vid=5ac38179-4d98-4b89-80f2-dc6cd474e479"},"vehicle_type_id":"4","last_reported":1700906772,"current_range_meters":17200,"station_id":"ce4bhnh2rcd13ifvqgug","pricing_plan_id":"free"},{"bike_id":"6ed0641b-5e0a-43c2-ba17-f7ad3d70f07b","system_id":"levelo_inurba_marseille","lat":43.281548,"lon":5.42643,"is_reserved":false,"is_disabled":false,"rental_uris":{"android":"levelo://app?vid=6ed0641b-5e0a-43c2-ba17-f7ad3d70f07b","ios":"levelo://app?vid=6ed0641b-5e0a-43c2-ba17-f7ad3d70f07b"},"vehicle_type_id":"4","last_reported":1700906772,"current_range_meters":15200,"station_id":"ce4bhnh2rcd13ifvqgug","pricing_plan_id":"free"},{"bike_id":"6181795c-d57f-4dce-a524-f46690bf06cb","system_id":"levelo_inurba_marseille","lat":43.28151,"lon":5.42649,"is_reserved":false,"is_disabled":false,"rental_uris":{"android":"levelo://app?vid=6181795c-d57f-4dce-a524-f46690bf06cb","ios":"levelo://app?vid=6181795c-d57f-4dce-a524-f46690bf06cb"},"vehicle_type_id":"4","last_reported":1700906772,"current_range_meters":25600,"station_id":"ce4bhnh2rcd13ifvqgug","pricing_plan_id":"free"},{"bike_id":"70a83f70-e56f-4793-93fe-125bd1c55207","system_id":"levelo_inurba_marseille","lat":43.2607,"lon":5.393983,"is_reserved":false,"is_disabled":false,"rental_uris":{"android":"levelo://app?vid=70a83f70-e56f-4793-93fe-125bd1c55207","ios":"levelo://app?vid=70a83f70-e56f-4793-93fe-125bd1c55207"},"vehicle_type_id":"4","last_reported":1700906772,"current_range_meters":29200,"station_id":"ce4bhh92rcd13ifvqfj0","pricing_plan_id":"free"},{"bike_id":"ff385c11-2b7e-45df-b8ce-aac89ab149ad","system_id":"levelo_inurba_marseille","lat":43.275028,"lon":5.424534,"is_reserved":false,"is_disabled":false,"rental_uris":{"android":"levelo://app?vid=ff385c11-2b7e-45df-b8ce-aac89ab149ad","ios":"levelo://app?vid=ff385c11-2b7e-45df-b8ce-aac89ab149ad"},"vehicle_type_id":"4","last_reported":1700906772,"current_range_meters":31200,"station_id":"ce4bhn92rcd13ifvqgrg","pricing_plan_id":"free"},{"bike_id":"83dc7f14-1512-401b-8ef7-88c9e051bf35","system_id":"levelo_inurba_marseille","lat":43.275028,"lon":5.424534,"is_reserved":false,"is_disabled":false,"rental_uris":{"android":"levelo://app?vid=83dc7f14-1512-401b-8ef7-88c9e051bf35","ios":"levelo://app?vid=83dc7f14-1512-401b-8ef7-88c9e051bf35"},"vehicle_type_id":"4","last_reported":1700906772,"current_range_meters":24800,"station_id":"ce4bhn92rcd13ifvqgrg","pricing_plan_id":"free"},{"bike_id":"adf3a002-fe09-46e7-bfdf-15e737bcea7e","system_id":"levelo_inurba_marseille","lat":43.275028,"lon":5.424534,"is_reserved":false,"is_disabled":false,"rental_uris":{"android":"levelo://app?vid=adf3a002-fe09-46e7-bfdf-15e737bcea7e","ios":"levelo://app?vid=adf3a002-fe09-46e7-bfdf-15e737bcea7e"},"vehicle_type_id":"4","last_reported":1700906772,"current_range_meters":15200,"station_id":"ce4bhn92rcd13ifvqgrg","pricing_plan_id":"free"},{"bike_id":"adc85c31-6f73-4577-90c9-d7b4e8704a07","system_id":"levelo_inurba_marseille","lat":43.275028,"lon":5.424534,"is_reserved":false,"is_disabled":false,"rental_uris":{"android":"levelo://app?vid=adc85c31-6f73-4577-90c9-d7b4e8704a07","ios":"levelo://app?vid=adc85c31-6f73-4577-90c9-d7b4e8704a07"},"vehicle_type_id":"4","last_reported":1700906772,"current_range_meters":21600,"station_id":"ce4bhn92rcd13ifvqgrg","pricing_plan_id":"free"},{"bike_id":"24f1bf1f-5268-45e6-a816-869a92bcc51d","system_id":"levelo_inurba_marseille","lat":43.275028,"lon":5.424534,"is_reserved":false,"is_disabled":false,"rental_uris":{"android":"levelo://app?vid=24f1bf1f-5268-45e6-a816-869a92bcc51d","ios":"levelo://app?vid=24f1bf1f-5268-45e6-a816-869a92bcc51d"},"vehicle_type_id":"4","last_reported":1700906772,"current_range_meters":31200,"station_id":"ce4bhn92rcd13ifvqgrg","pricing_plan_id":"free"},{"bike_id":"35ad092f-3c02-4080-88dd-74d480292c3b","system_id":"levelo_inurba_marseille","lat":43.260909,"lon":5.397591,"is_reserved":false,"is_disabled":false,"rental_uris":{"android":"levelo://app?vid=35ad092f-3c02-4080-88dd-74d480292c3b","ios":"levelo://app?vid=35ad092f-3c02-4080-88dd-74d480292c3b"},"vehicle_type_id":"4","last_reported":1700906772,"current_range_meters":19200,"station_id":"ce4bhi12rcd13ifvqfq0","pricing_plan_id":"free"},{"bike_id":"225e6c0c-2cee-466d-aaf0-b5f9bf391561","system_id":"levelo_inurba_marseille","lat":43.260843,"lon":5.397671,"is_reserved":false,"is_disabled":false,"rental_uris":{"android":"levelo://app?vid=225e6c0c-2cee-466d-aaf0-b5f9bf391561","ios":"levelo://app?vid=225e6c0c-2cee-466d-aaf0-b5f9bf391561"},"vehicle_type_id":"4","last_reported":1700906772,"current_range_meters":31200,"station_id":"","pricing_plan_id":"free"},{"bike_id":"c85f7616-3a9e-47a4-ae16-28a03e51ab4f","system_id":"levelo_inurba_marseille","lat":43.289218,"lon":5.43867,"is_reserved":false,"is_disabled":false,"rental_uris":{"android":"levelo://app?vid=c85f7616-3a9e-47a4-ae16-28a03e51ab4f","ios":"levelo://app?vid=c85f7616-3a9e-47a4-ae16-28a03e51ab4f"},"vehicle_type_id":"4","last_reported":1700906772,"current_range_meters":8000,"station_id":"","pricing_plan_id":"free"},{"bike_id":"fa0d5b33-c31f-4931-a53b-52409336d069","system_id":"levelo_inurba_marseille","lat":43.25828,"lon":5.39435,"is_reserved":false,"is_disabled":false,"rental_uris":{"android":"levelo://app?vid=fa0d5b33-c31f-4931-a53b-52409336d069","ios":"levelo://app?vid=fa0d5b33-c31f-4931-a53b-52409336d069"},"vehicle_type_id":"4","last_reported":1700906772,"current_range_meters":19200,"station_id":"ce4bhip2rcd13ifvqft0","pricing_plan_id":"free"},{"bike_id":"3362df01-282c-4809-bf01-482e34f7a2e2","system_id":"levelo_inurba_marseille","lat":43.255743,"lon":5.382365,"is_reserved":false,"is_disabled":false,"rental_uris":{"android":"levelo://app?vid=3362df01-282c-4809-bf01-482e34f7a2e2","ios":"levelo://app?vid=3362df01-282c-4809-bf01-482e34f7a2e2"},"vehicle_type_id":"4","last_reported":1700906772,"current_range_meters":26800,"station_id":"ce4bhih2rcd13ifvqfs0","pricing_plan_id":"free"},{"bike_id":"1a50e345-df8e-4919-8d13-600ea661a7f4","system_id":"levelo_inurba_marseille","lat":43.25502,"lon":5.37649,"is_reserved":false,"is_disabled":false,"rental_uris":{"android":"levelo://app?vid=1a50e345-df8e-4919-8d13-600ea661a7f4","ios":"levelo://app?vid=1a50e345-df8e-4919-8d13-600ea661a7f4"},"vehicle_type_id":"4","last_reported":1700906772,"current_range_meters":18400,"station_id":"ce4bhh12rcd13ifvqff0","pricing_plan_id":"free"},{"bike_id":"50257b9d-6c9a-4fbc-95f6-06e45d0b4261","system_id":"levelo_inurba_marseille","lat":43.254947,"lon":5.376454,"is_reserved":false,"is_disabled":false,"rental_uris":{"android":"levelo://app?vid=50257b9d-6c9a-4fbc-95f6-06e45d0b4261","ios":"levelo://app?vid=50257b9d-6c9a-4fbc-95f6-06e45d0b4261"},"vehicle_type_id":"4","last_reported":1700906772,"current_range_meters":27600,"station_id":"ce4bhh12rcd13ifvqff0","pricing_plan_id":"free"},{"bike_id":"ad657e31-d5a7-459b-a7ef-89532e280c6c","system_id":"levelo_inurba_marseille","lat":43.270721,"lon":5.422764,"is_reserved":false,"is_disabled":false,"rental_uris":{"android":"levelo://app?vid=ad657e31-d5a7-459b-a7ef-89532e280c6c","ios":"levelo://app?vid=ad657e31-d5a7-459b-a7ef-89532e280c6c"},"vehicle_type_id":"4","last_reported":1700906772,"current_range_meters":26400,"station_id":"ce4bhk92rcd13ifvqgb0","pricing_plan_id":"free"},{"bike_id":"7596707c-49c3-4eae-95e1-008467641ac2","system_id":"levelo_inurba_marseille","lat":43.270721,"lon":5.422764,"is_reserved":false,"is_disabled":false,"rental_uris":{"android":"levelo://app?vid=7596707c-49c3-4eae-95e1-008467641ac2","ios":"levelo://app?vid=7596707c-49c3-4eae-95e1-008467641ac2"},"vehicle_type_id":"4","last_reported":1700906772,"current_range_meters":31200,"station_id":"ce4bhk92rcd13ifvqgb0","pricing_plan_id":"free"},{"bike_id":"88875c00-e6f1-4198-b668-967738a4d79f","system_id":"levelo_inurba_marseille","lat":43.270721,"lon":5.422764,"is_reserved":false,"is_disabled":false,"rental_uris":{"android":"levelo://app?vid=88875c00-e6f1-4198-b668-967738a4d79f","ios":"levelo://app?vid=88875c00-e6f1-4198-b668-967738a4d79f"},"vehicle_type_id":"4","last_reported":1700906772,"current_range_meters":22800,"station_id":"ce4bhk92rcd13ifvqgb0","pricing_plan_id":"free"},{"bike_id":"cfd2dccf-2ef8-4b4a-8469-7caa00dd869f","system_id":"levelo_inurba_marseille","lat":43.270721,"lon":5.422764,"is_reserved":false,"is_disabled":false,"rental_uris":{"android":"levelo://app?vid=cfd2dccf-2ef8-4b4a-8469-7caa00dd869f","ios":"levelo://app?vid=cfd2dccf-2ef8-4b4a-8469-7caa00dd869f"},"vehicle_type_id":"4","last_reported":1700906772,"current_range_meters":26000,"station_id":"ce4bhk92rcd13ifvqgb0","pricing_plan_id":"free"},{"bike_id":"4efeab10-fc64-4315-b907-003206a4c0c2","system_id":"levelo_inurba_marseille","lat":43.270721,"lon":5.422764,"is_reserved":false,"is_disabled":false,"rental_uris":{"android":"levelo://app?vid=4efeab10-fc64-4315-b907-003206a4c0c2","ios":"levelo://app?vid=4efeab10-fc64-4315-b907-003206a4c0c2"},"vehicle_type_id":"4","last_reported":1700906772,"current_range_meters":20400,"station_id":"ce4bhk92rcd13ifvqgb0","pricing_plan_id":"free"},{"bike_id":"3f44d4de-851f-49f3-804f-50c0b0659c7c","system_id":"levelo_inurba_marseille","lat":43.259013,"lon":5.409301,"is_reserved":false,"is_disabled":false,"rental_uris":{"android":"levelo://app?vid=3f44d4de-851f-49f3-804f-50c0b0659c7c","ios":"levelo://app?vid=3f44d4de-851f-49f3-804f-50c0b0659c7c"},"vehicle_type_id":"4","last_reported":1700906772,"current_range_meters":16000,"station_id":"ce4bhm92rcd13ifvqglg","pricing_plan_id":"free"},{"bike_id":"34b8976c-6036-4b67-9ec8-e013a6ceb002","system_id":"levelo_inurba_marseille","lat":43.25931,"lon":5.40907,"is_reserved":false,"is_disabled":false,"rental_uris":{"android":"levelo://app?vid=34b8976c-6036-4b67-9ec8-e013a6ceb002","ios":"levelo://app?vid=34b8976c-6036-4b67-9ec8-e013a6ceb002"},"vehicle_type_id":"4","last_reported":1700906772,"current_range_meters":29600,"station_id":"ce4bhm92rcd13ifvqglg","pricing_plan_id":"free"},{"bike_id":"48773712-1a80-47ff-ab7b-51cdd2fa4075","system_id":"levelo_inurba_marseille","lat":43.25932,"lon":5.40918,"is_reserved":false,"is_disabled":false,"rental_uris":{"android":"levelo://app?vid=48773712-1a80-47ff-ab7b-51cdd2fa4075","ios":"levelo://app?vid=48773712-1a80-47ff-ab7b-51cdd2fa4075"},"vehicle_type_id":"4","last_reported":1700906772,"current_range_meters":31200,"station_id":"ce4bhm92rcd13ifvqglg","pricing_plan_id":"free"},{"bike_id":"fcf5a15d-fbf8-4c6b-8051-af543c6dfa42","system_id":"levelo_inurba_marseille","lat":43.250966,"lon":5.395186,"is_reserved":false,"is_disabled":false,"rental_uris":{"android":"levelo://app?vid=fcf5a15d-fbf8-4c6b-8051-af543c6dfa42","ios":"levelo://app?vid=fcf5a15d-fbf8-4c6b-8051-af543c6dfa42"},"vehicle_type_id":"4","last_reported":1700906772,"current_range_meters":24000,"station_id":"ce4bhm12rcd13ifvqgkg","pricing_plan_id":"free"},{"bike_id":"96911349-1297-48e5-a5dd-739da3740c99","system_id":"levelo_inurba_marseille","lat":43.24812,"lon":5.37458,"is_reserved":false,"is_disabled":false,"rental_uris":{"android":"levelo://app?vid=96911349-1297-48e5-a5dd-739da3740c99","ios":"levelo://app?vid=96911349-1297-48e5-a5dd-739da3740c99"},"vehicle_type_id":"4","last_reported":1700906772,"current_range_meters":30800,"station_id":"ce4bhgh2rcd13ifvqfb0","pricing_plan_id":"free"},{"bike_id":"8a612a08-0ab8-4da9-968a-80ca7f67cd15","system_id":"levelo_inurba_marseille","lat":43.250023,"lon":5.38919,"is_reserved":false,"is_disabled":false,"rental_uris":{"android":"levelo://app?vid=8a612a08-0ab8-4da9-968a-80ca7f67cd15","ios":"levelo://app?vid=8a612a08-0ab8-4da9-968a-80ca7f67cd15"},"vehicle_type_id":"4","last_reported":1700906772,"current_range_meters":17200,"station_id":"ce4bhgp2rcd13ifvqfd0","pricing_plan_id":"free"},{"bike_id":"9dd1764f-05de-4839-b10a-1f5e6454740a","system_id":"levelo_inurba_marseille","lat":43.25089,"lon":5.39515,"is_reserved":false,"is_disabled":false,"rental_uris":{"android":"levelo://app?vid=9dd1764f-05de-4839-b10a-1f5e6454740a","ios":"levelo://app?vid=9dd1764f-05de-4839-b10a-1f5e6454740a"},"vehicle_type_id":"4","last_reported":1700906772,"current_range_meters":28400,"station_id":"ce4bhm12rcd13ifvqgkg","pricing_plan_id":"free"},{"bike_id":"4e22f755-9fb8-454a-aed8-0ce31691dc80","system_id":"levelo_inurba_marseille","lat":43.2473,"lon":5.37395,"is_reserved":false,"is_disabled":false,"rental_uris":{"android":"levelo://app?vid=4e22f755-9fb8-454a-aed8-0ce31691dc80","ios":"levelo://app?vid=4e22f755-9fb8-454a-aed8-0ce31691dc80"},"vehicle_type_id":"4","last_reported":1700906772,"current_range_meters":19600,"station_id":"","pricing_plan_id":"free"},{"bike_id":"1c2563e6-a89e-47a9-ac0b-d109ea34e305","system_id":"levelo_inurba_marseille","lat":43.2466,"lon":5.38164,"is_reserved":false,"is_disabled":false,"rental_uris":{"android":"levelo://app?vid=1c2563e6-a89e-47a9-ac0b-d109ea34e305","ios":"levelo://app?vid=1c2563e6-a89e-47a9-ac0b-d109ea34e305"},"vehicle_type_id":"4","last_reported":1700906772,"current_range_meters":25200,"station_id":"ce4bhih2rcd13ifvqfr0","pricing_plan_id":"free"},{"bike_id":"3a75d068-4d6b-4836-9678-344213645d7d","system_id":"levelo_inurba_marseille","lat":43.25102,"lon":5.403214,"is_reserved":false,"is_disabled":false,"rental_uris":{"android":"levelo://app?vid=3a75d068-4d6b-4836-9678-344213645d7d","ios":"levelo://app?vid=3a75d068-4d6b-4836-9678-344213645d7d"},"vehicle_type_id":"4","last_reported":1700906772,"current_range_meters":29200,"station_id":"ce4bhlh2rcd13ifvqgig","pricing_plan_id":"free"},{"bike_id":"bccece13-2f45-43cf-9c72-bd8032dd9c95","system_id":"levelo_inurba_marseille","lat":43.243884,"lon":5.370737,"is_reserved":false,"is_disabled":false,"rental_uris":{"android":"levelo://app?vid=bccece13-2f45-43cf-9c72-bd8032dd9c95","ios":"levelo://app?vid=bccece13-2f45-43cf-9c72-bd8032dd9c95"},"vehicle_type_id":"4","last_reported":1700906772,"current_range_meters":26800,"station_id":"ce4bhhh2rcd13ifvqfk0","pricing_plan_id":"free"},{"bike_id":"90604205-3676-4845-9812-e9f9728828ed","system_id":"levelo_inurba_marseille","lat":43.243884,"lon":5.370737,"is_reserved":false,"is_disabled":false,"rental_uris":{"android":"levelo://app?vid=90604205-3676-4845-9812-e9f9728828ed","ios":"levelo://app?vid=90604205-3676-4845-9812-e9f9728828ed"},"vehicle_type_id":"4","last_reported":1700906772,"current_range_meters":30000,"station_id":"ce4bhhh2rcd13ifvqfk0","pricing_plan_id":"free"},{"bike_id":"de62685c-ec17-444f-9521-cfefd736fc4f","system_id":"levelo_inurba_marseille","lat":43.243884,"lon":5.370736,"is_reserved":false,"is_disabled":false,"rental_uris":{"android":"levelo://app?vid=de62685c-ec17-444f-9521-cfefd736fc4f","ios":"levelo://app?vid=de62685c-ec17-444f-9521-cfefd736fc4f"},"vehicle_type_id":"4","last_reported":1700906772,"current_range_meters":30800,"station_id":"ce4bhhh2rcd13ifvqfk0","pricing_plan_id":"free"},{"bike_id":"19c79236-ded4-45ef-bb41-380fd022683b","system_id":"levelo_inurba_marseille","lat":43.243884,"lon":5.370736,"is_reserved":false,"is_disabled":false,"rental_uris":{"android":"levelo://app?vid=19c79236-ded4-45ef-bb41-380fd022683b","ios":"levelo://app?vid=19c79236-ded4-45ef-bb41-380fd022683b"},"vehicle_type_id":"4","last_reported":1700906772,"current_range_meters":29200,"station_id":"ce4bhhh2rcd13ifvqfk0","pricing_plan_id":"free"},{"bike_id":"96424d46-9504-4976-b733-408b7f10c853","system_id":"levelo_inurba_marseille","lat":43.245581,"lon":5.395069,"is_reserved":false,"is_disabled":false,"rental_uris":{"android":"levelo://app?vid=96424d46-9504-4976-b733-408b7f10c853","ios":"levelo://app?vid=96424d46-9504-4976-b733-408b7f10c853"},"vehicle_type_id":"4","last_reported":1700906772,"current_range_meters":24400,"station_id":"ce4bhlp2rcd13ifvqgjg","pricing_plan_id":"free"},{"bike_id":"aacee138-95eb-4dc4-8c3b-28f2bee62089","system_id":"levelo_inurba_marseille","lat":43.24074,"lon":5.37758,"is_reserved":false,"is_disabled":false,"rental_uris":{"android":"levelo://app?vid=aacee138-95eb-4dc4-8c3b-28f2bee62089","ios":"levelo://app?vid=aacee138-95eb-4dc4-8c3b-28f2bee62089"},"vehicle_type_id":"4","last_reported":1700906772,"current_range_meters":18000,"station_id":"ce4bhnp2rcd13ifvqgvg","pricing_plan_id":"free"},{"bike_id":"bed15832-4559-4b29-8eb1-6a2b5c17528a","system_id":"levelo_inurba_marseille","lat":43.240729,"lon":5.377589,"is_reserved":false,"is_disabled":false,"rental_uris":{"android":"levelo://app?vid=bed15832-4559-4b29-8eb1-6a2b5c17528a","ios":"levelo://app?vid=bed15832-4559-4b29-8eb1-6a2b5c17528a"},"vehicle_type_id":"4","last_reported":1700906772,"current_range_meters":21200,"station_id":"ce4bhnp2rcd13ifvqgvg","pricing_plan_id":"free"},{"bike_id":"54239b1b-ecac-40c2-9ef3-89ce2dff6f0b","system_id":"levelo_inurba_marseille","lat":43.24072,"lon":5.37762,"is_reserved":false,"is_disabled":false,"rental_uris":{"android":"levelo://app?vid=54239b1b-ecac-40c2-9ef3-89ce2dff6f0b","ios":"levelo://app?vid=54239b1b-ecac-40c2-9ef3-89ce2dff6f0b"},"vehicle_type_id":"4","last_reported":1700906772,"current_range_meters":5600,"station_id":"ce4bhnp2rcd13ifvqgvg","pricing_plan_id":"free"},{"bike_id":"1cb96f04-f422-460b-925f-998463caffcc","system_id":"levelo_inurba_marseille","lat":43.24071,"lon":5.37754,"is_reserved":false,"is_disabled":false,"rental_uris":{"android":"levelo://app?vid=1cb96f04-f422-460b-925f-998463caffcc","ios":"levelo://app?vid=1cb96f04-f422-460b-925f-998463caffcc"},"vehicle_type_id":"4","last_reported":1700906772,"current_range_meters":12000,"station_id":"ce4bhnp2rcd13ifvqgvg","pricing_plan_id":"free"},{"bike_id":"44753933-251e-471e-8435-27aad442d759","system_id":"levelo_inurba_marseille","lat":43.24071,"lon":5.3776,"is_reserved":false,"is_disabled":false,"rental_uris":{"android":"levelo://app?vid=44753933-251e-471e-8435-27aad442d759","ios":"levelo://app?vid=44753933-251e-471e-8435-27aad442d759"},"vehicle_type_id":"4","last_reported":1700906772,"current_range_meters":31200,"station_id":"ce4bhnp2rcd13ifvqgvg","pricing_plan_id":"free"},{"bike_id":"034cdb61-d747-4bb4-87d3-ed49b55b9556","system_id":"levelo_inurba_marseille","lat":43.240623,"lon":5.377642,"is_reserved":false,"is_disabled":false,"rental_uris":{"android":"levelo://app?vid=034cdb61-d747-4bb4-87d3-ed49b55b9556","ios":"levelo://app?vid=034cdb61-d747-4bb4-87d3-ed49b55b9556"},"vehicle_type_id":"4","last_reported":1700906772,"current_range_meters":30000,"station_id":"ce4bhnp2rcd13ifvqgvg","pricing_plan_id":"free"},{"bike_id":"71282c95-18ab-44bd-8129-bf5df6eef9d0","system_id":"levelo_inurba_marseille","lat":43.2407,"lon":5.37764,"is_reserved":false,"is_disabled":false,"rental_uris":{"android":"levelo://app?vid=71282c95-18ab-44bd-8129-bf5df6eef9d0","ios":"levelo://app?vid=71282c95-18ab-44bd-8129-bf5df6eef9d0"},"vehicle_type_id":"4","last_reported":1700906772,"current_range_meters":22800,"station_id":"ce4bhnp2rcd13ifvqgvg","pricing_plan_id":"free"},{"bike_id":"abee0786-e3f4-4bf7-81ec-ddc801334b9e","system_id":"levelo_inurba_marseille","lat":43.24068,"lon":5.37756,"is_reserved":false,"is_disabled":false,"rental_uris":{"android":"levelo://app?vid=abee0786-e3f4-4bf7-81ec-ddc801334b9e","ios":"levelo://app?vid=abee0786-e3f4-4bf7-81ec-ddc801334b9e"},"vehicle_type_id":"4","last_reported":1700906772,"current_range_meters":15600,"station_id":"ce4bhnp2rcd13ifvqgvg","pricing_plan_id":"free"},{"bike_id":"99d4dd88-7ee5-45bd-9c7f-ce77aca5b5a4","system_id":"levelo_inurba_marseille","lat":43.24068,"lon":5.37759,"is_reserved":false,"is_disabled":false,"rental_uris":{"android":"levelo://app?vid=99d4dd88-7ee5-45bd-9c7f-ce77aca5b5a4","ios":"levelo://app?vid=99d4dd88-7ee5-45bd-9c7f-ce77aca5b5a4"},"vehicle_type_id":"4","last_reported":1700906772,"current_range_meters":23200,"station_id":"ce4bhnp2rcd13ifvqgvg","pricing_plan_id":"free"},{"bike_id":"56c7f400-414b-4a88-83d6-f063b9f27bea","system_id":"levelo_inurba_marseille","lat":43.24068,"lon":5.37759,"is_reserved":false,"is_disabled":false,"rental_uris":{"android":"levelo://app?vid=56c7f400-414b-4a88-83d6-f063b9f27bea","ios":"levelo://app?vid=56c7f400-414b-4a88-83d6-f063b9f27bea"},"vehicle_type_id":"4","last_reported":1700906772,"current_range_meters":27600,"station_id":"ce4bhnp2rcd13ifvqgvg","pricing_plan_id":"free"},{"bike_id":"ff01dbe1-223f-43a9-b0c6-51a5a8d2ed05","system_id":"levelo_inurba_marseille","lat":43.239588,"lon":5.366238,"is_reserved":false,"is_disabled":false,"rental_uris":{"android":"levelo://app?vid=ff01dbe1-223f-43a9-b0c6-51a5a8d2ed05","ios":"levelo://app?vid=ff01dbe1-223f-43a9-b0c6-51a5a8d2ed05"},"vehicle_type_id":"4","last_reported":1700906772,"current_range_meters":31600,"station_id":"ce4bhi12rcd13ifvqfp0","pricing_plan_id":"free"},{"bike_id":"8ddc8e40-82e4-4cc6-90af-c119357648f0","system_id":"levelo_inurba_marseille","lat":43.239588,"lon":5.366238,"is_reserved":false,"is_disabled":false,"rental_uris":{"android":"levelo://app?vid=8ddc8e40-82e4-4cc6-90af-c119357648f0","ios":"levelo://app?vid=8ddc8e40-82e4-4cc6-90af-c119357648f0"},"vehicle_type_id":"4","last_reported":1700906772,"current_range_meters":26800,"station_id":"ce4bhi12rcd13ifvqfp0","pricing_plan_id":"free"},