{"last_updated":1769430393,"ttl":60,"version":"2.2","data":{"bikes":[{"bike_id":"95f94347-0c0c-4336-9c2d-7547b2343e14","system_id":"levelo_inurba_marseille","lat":43.25492,"lon":5.37652,"is_reserved":false,"is_disabled":false,"rental_uris":{"android":"levelo://app?vid=95f94347-0c0c-4336-9c2d-7547b2343e14","ios":"levelo://app?vid=95f94347-0c0c-4336-9c2d-7547b2343e14"},"vehicle_type_id":"4","last_reported":1769430394,"current_range_meters":2800,"station_id":"ce4bhh12rcd13ifvqff0","pricing_plan_id":"cebpf4jnsgd1na2vs0mg"},{"bike_id":"5dcadbcd-da89-45a7-9f2c-dc6a6bb3df59","system_id":"levelo_inurba_marseille","lat":43.30216,"lon":5.39989,"is_reserved":false,"is_disabled":false,"rental_uris":{"android":"levelo://app?vid=5dcadbcd-da89-45a7-9f2c-dc6a6bb3df59","ios":"levelo://app?vid=5dcadbcd-da89-45a7-9f2c-dc6a6bb3df59"},"vehicle_type_id":"4","last_reported":1769430394,"current_range_meters":2800,"station_id":"","pricing_plan_id":"cebpf4jnsgd1na2vs0mg"},{"bike_id":"993c6494-f17c-4ae2-b2c9-33e36265140e","system_id":"levelo_inurba_marseille","lat":43.24386,"lon":5.37058,"is_reserved":false,"is_disabled":false,"rental_uris":{"android":"levelo://app?vid=993c6494-f17c-4ae2-b2c9-33e36265140e","ios":"levelo://app?vid=993c6494-f17c-4ae2-b2c9-33e36265140e"},"vehicle_type_id":"4","last_reported":1769430394,"current_range_meters":2800,"station_id":"ce4bhhh2rcd13ifvqfk0","pricing_plan_id":"cebpf4jnsgd1na2vs0mg"},{"bike_id":"a4af7794-721d-45a9-bc0e-6931fbe43ccd","system_id":"levelo_inurba_marseille","lat":43.28574,"lon":5.39501,"is_reserved":false,"is_disabled":false,"rental_uris":{"android":"levelo://app?vid=a4af7794-721d-45a9-bc0e-6931fbe43ccd","ios":"levelo://app?vid=a4af7794-721d-45a9-bc0e-6931fbe43ccd"},"vehicle_type_id":"4","last_reported":1769430394,"current_range_meters":2800,"station_id":"ce4bh292rcd13ifvqdg0","pricing_plan_id":"cebpf4jnsgd1na2vs0mg"},{"bike_id":"c1aeaa10-dc7f-4501-b461-bb241314d426","system_id":"levelo_inurba_marseille","lat":43.232,"lon":5.35545,"is_reserved":false,"is_disabled":false,"rental_uris":{"android":"levelo://app?vid=c1aeaa10-dc7f-4501-b461-bb241314d426","ios":"levelo://app?vid=c1aeaa10-dc7f-4501-b461-bb241314d426"},"vehicle_type_id":"4","last_reported":1769430394,"current_range_meters":2800,"station_id":"ce4bhu92rcd13ifvqi70","pricing_plan_id":"cebpf4jnsgd1na2vs0mg"},{"bike_id":"d265852f-b11a-4050-b059-56c4bf37cd36","system_id":"levelo_inurba_marseille","lat":43.31022,"lon":5.37174,"is_reserved":false,"is_disabled":false,"rental_uris":{"android":"levelo://app?vid=d265852f-b11a-4050-b059-56c4bf37cd36","ios":"levelo://app?vid=d265852f-b11a-4050-b059-56c4bf37cd36"},"vehicle_type_id":"4","last_reported":1769430394,"current_range_meters":2800,"station_id":"st_d4kl2rp97mjs73e7tdfg","pricing_plan_id":"cebpf4jnsgd1na2vs0mg"},{"bike_id":"241471d4-ea22-4707-b9cb-9d7a28477cee","system_id":"levelo_inurba_marseille","lat":43.30533,"lon":5.36424,"is_reserved":false,"is_disabled":false,"rental_uris":{"android":"levelo://app?vid=241471d4-ea22-4707-b9cb-9d7a28477cee","ios":"levelo://app?vid=241471d4-ea22-4707-b9cb-9d7a28477cee"},"vehicle_type_id":"4","last_reported":1769430394,"current_range_meters":2800,"station_id":"","pricing_plan_id":"cebpf4jnsgd1na2vs0mg"},{"bike_id":"0554af7b-4d97-4b09-bc8a-ccbbde3b5abf","system_id":"levelo_inurba_marseille","lat":43.24078,"lon":5.377499,"is_reserved":false,"is_disabled":false,"rental_uris":{"android":"levelo://app?vid=0554af7b-4d97-4b09-bc8a-ccbbde3b5abf","ios":"levelo://app?vid=0554af7b-4d97-4b09-bc8a-ccbbde3b5abf"},"vehicle_type_id":"4","last_reported":1769430394,"current_range_meters":2800,"station_id":"ce4bhnp2rcd13ifvqgvg","pricing_plan_id":"cebpf4jnsgd1na2vs0mg"},{"bike_id":"3bbc1047-7c27-4b73-8d4c-31b2b6acb0a6","system_id":"levelo_inurba_marseille","lat":43.240679,"lon":5.377604,"is_reserved":false,"is_disabled":false,"rental_uris":{"android":"levelo://app?vid=3bbc1047-7c27-4b73-8d4c-31b2b6acb0a6","ios":"levelo://app?vid=3bbc1047-7c27-4b73-8d4c-31b2b6acb0a6"},"vehicle_type_id":"4","last_reported":1769430394,"current_range_meters":2800,"station_id":"ce4bhnp2rcd13ifvqgvg","pricing_plan_id":"cebpf4jnsgd1na2vs0mg"},{"bike_id":"876ac817-c1de-4d59-a160-e12114ae46c0","system_id":"levelo_inurba_marseille","lat":43.31335,"lon":5.36717,"is_reserved":false,"is_disabled":false,"rental_uris":{"android":"levelo://app?vid=876ac817-c1de-4d59-a160-e12114ae46c0","ios":"levelo://app?vid=876ac817-c1de-4d59-a160-e12114ae46c0"},"vehicle_type_id":"4","last_reported":1769430394,"current_range_meters":2800,"station_id":"ce4bgr92rcd13ifvqc6g","pricing_plan_id":"cebpf4jnsgd1na2vs0mg"},{"bike_id":"d7503130-10c8-43b2-8297-d9e107b1270f","system_id":"levelo_inurba_marseille","lat":43.30531,"lon":5.36657,"is_reserved":false,"is_disabled":false,"rental_uris":{"android":"levelo://app?vid=d7503130-10c8-43b2-8297-d9e107b1270f","ios":"levelo://app?vid=d7503130-10c8-43b2-8297-d9e107b1270f"},"vehicle_type_id":"4","last_reported":1769430394,"current_range_meters":2800,"station_id":"ce4bgrp2rcd13ifvqc9g","pricing_plan_id":"cebpf4jnsgd1na2vs0mg"},{"bike_id":"d8d6cdd4-6df5-42eb-873f-dbf03ce55799","system_id":"levelo_inurba_marseille","lat":43.26936,"lon":5.40262,"is_reserved":false,"is_disabled":false,"rental_uris":{"android":"levelo://app?vid=d8d6cdd4-6df5-42eb-873f-dbf03ce55799","ios":"levelo://app?vid=d8d6cdd4-6df5-42eb-873f-dbf03ce55799"},"vehicle_type_id":"4","last_reported":1769430394,"current_range_meters":2800,"station_id":"cjm6bp8fraef2m0cb0m0","pricing_plan_id":"cebpf4jnsgd1na2vs0mg"},{"bike_id":"ba76e5c4-a7e9-42f3-b906-39834ce38819","system_id":"levelo_inurba_marseille","lat":43.23957,"lon":5.36662,"is_reserved":false,"is_disabled":false,"rental_uris":{"android":"levelo://app?vid=ba76e5c4-a7e9-42f3-b906-39834ce38819","ios":"levelo://app?vid=ba76e5c4-a7e9-42f3-b906-39834ce38819"},"vehicle_type_id":"4","last_reported":1769430394,"current_range_meters":2800,"station_id":"ce4bhi12rcd13ifvqfp0","pricing_plan_id":"cebpf4jnsgd1na2vs0mg"},{"bike_id":"414937c3-22ca-4ac8-a6d1-0b2223c3f608","system_id":"levelo_inurba_marseille","lat":43.25825,"lon":5.39455,"is_reserved":false,"is_disabled":false,"rental_uris":{"android":"levelo://app?vid=414937c3-22ca-4ac8-a6d1-0b2223c3f608","ios":"levelo://app?vid=414937c3-22ca-4ac8-a6d1-0b2223c3f608"},"vehicle_type_id":"4","last_reported":1769430394,"current_range_meters":3200,"station_id":"ce4bhip2rcd13ifvqft0","pricing_plan_id":"cebpf4jnsgd1na2vs0mg"},{"bike_id":"64233915-9aa0-4b27-ae1b-bcbb4c2f4356","system_id":"levelo_inurba_marseille","lat":43.296243,"lon":5.377146,"is_reserved":false,"is_disabled":false,"rental_uris":{"android":"levelo://app?vid=64233915-9aa0-4b27-ae1b-bcbb4c2f4356","ios":"levelo://app?vid=64233915-9aa0-4b27-ae1b-bcbb4c2f4356"},"vehicle_type_id":"4","last_reported":1769430394,"current_range_meters":3200,"station_id":"ce4bgi92rcd13ifvqb90","pricing_plan_id":"cebpf4jnsgd1na2vs0mg"},{"bike_id":"99338d76-4428-4400-844e-5055b8956c80","system_id":"levelo_inurba_marseille","lat":43.32449,"lon":5.36608,"is_reserved":false,"is_disabled":false,"rental_uris":{"android":"levelo://app?vid=99338d76-4428-4400-844e-5055b8956c80","ios":"levelo://app?vid=99338d76-4428-4400-844e-5055b8956c80"},"vehicle_type_id":"4","last_reported":1769430394,"current_range_meters":3200,"station_id":"","pricing_plan_id":"cebpf4jnsgd1na2vs0mg"},{"bike_id":"deee5351-4723-42ee-bd80-9af191803937","system_id":"levelo_inurba_marseille","lat":43.291447,"lon":5.407936,"is_reserved":false,"is_disabled":false,"rental_uris":{"android":"levelo://app?vid=deee5351-4723-42ee-bd80-9af191803937","ios":"levelo://app?vid=deee5351-4723-42ee-bd80-9af191803937"},"vehicle_type_id":"4","last_reported":1769430394,"current_range_meters":3200,"station_id":"","pricing_plan_id":"cebpf4jnsgd1na2vs0mg"},{"bike_id":"cefc0408-08b4-45e0-8592-a44786197f49","system_id":"levelo_inurba_marseille","lat":43.22568,"lon":5.41631,"is_reserved":false,"is_disabled":false,"rental_uris":{"android":"levelo://app?vid=cefc0408-08b4-45e0-8592-a44786197f49","ios":"levelo://app?vid=cefc0408-08b4-45e0-8592-a44786197f49"},"vehicle_type_id":"4","last_reported":1769430394,"current_range_meters":3200,"station_id":"st_d2o4gvlbi1j2169b742g","pricing_plan_id":"cebpf4jnsgd1na2vs0mg"},{"bike_id":"76242551-1b05-40ac-a7fd-938c60f142d2","system_id":"levelo_inurba_marseille","lat":43.29942,"lon":5.36537,"is_reserved":false,"is_disabled":false,"rental_uris":{"android":"levelo://app?vid=76242551-1b05-40ac-a7fd-938c60f142d2","ios":"levelo://app?vid=76242551-1b05-40ac-a7fd-938c60f142d2"},"vehicle_type_id":"4","last_reported":1769430394,"current_range_meters":3200,"station_id":"ce4bgm92rcd13ifvqbr0","pricing_plan_id":"cebpf4jnsgd1na2vs0mg"},{"bike_id":"ad575e34-9700-47fe-85fd-58d08c795ba9","system_id":"levelo_inurba_marseille","lat":43.24661,"lon":5.38878,"is_reserved":false,"is_disabled":false,"rental_uris":{"android":"levelo://app?vid=ad575e34-9700-47fe-85fd-58d08c795ba9","ios":"levelo://app?vid=ad575e34-9700-47fe-85fd-58d08c795ba9"},"vehicle_type_id":"4","last_reported":1769430394,"current_range_meters":3200,"station_id":"ce4bhg12rcd13ifvqf60","pricing_plan_id":"cebpf4jnsgd1na2vs0mg"},{"bike_id":"e19418ad-aa76-4b1d-a53d-977a549e82e9","system_id":"levelo_inurba_marseille","lat":43.23189,"lon":5.35562,"is_reserved":false,"is_disabled":false,"rental_uris":{"android":"levelo://app?vid=e19418ad-aa76-4b1d-a53d-977a549e82e9","ios":"levelo://app?vid=e19418ad-aa76-4b1d-a53d-977a549e82e9"},"vehicle_type_id":"4","last_reported":1769430394,"current_range_meters":3200,"station_id":"ce4bhu92rcd13ifvqi70","pricing_plan_id":"cebpf4jnsgd1na2vs0mg"},{"bike_id":"3505f8b1-8fc5-4e81-ad99-9adf10bd1de1","system_id":"levelo_inurba_marseille","lat":43.24625,"lon":5.43146,"is_reserved":false,"is_disabled":false,"rental_uris":{"android":"levelo://app?vid=3505f8b1-8fc5-4e81-ad99-9adf10bd1de1","ios":"levelo://app?vid=3505f8b1-8fc5-4e81-ad99-9adf10bd1de1"},"vehicle_type_id":"4","last_reported":1769430394,"current_range_meters":3200,"station_id":"st_d2m6c4gdas8pm72e190g","pricing_plan_id":"cebpf4jnsgd1na2vs0mg"},{"bike_id":"8159a709-98ea-45e8-8090-2a69bcff802f","system_id":"levelo_inurba_marseille","lat":43.24658,"lon":5.38149,"is_reserved":false,"is_disabled":false,"rental_uris":{"android":"levelo://app?vid=8159a709-98ea-45e8-8090-2a69bcff802f","ios":"levelo://app?vid=8159a709-98ea-45e8-8090-2a69bcff802f"},"vehicle_type_id":"4","last_reported":1769430394,"current_range_meters":3200,"station_id":"ce4bhih2rcd13ifvqfr0","pricing_plan_id":"cebpf4jnsgd1na2vs0mg"},{"bike_id":"b7b68940-6e50-4a74-9685-2e0e8b628270","system_id":"levelo_inurba_marseille","lat":43.30606,"lon":5.36549,"is_reserved":false,"is_disabled":false,"rental_uris":{"android":"levelo://app?vid=b7b68940-6e50-4a74-9685-2e0e8b628270","ios":"levelo://app?vid=b7b68940-6e50-4a74-9685-2e0e8b628270"},"vehicle_type_id":"4","last_reported":1769430394,"current_range_meters":3200,"station_id":"ce4bgs12rcd13ifvqcag","pricing_plan_id":"cebpf4jnsgd1na2vs0mg"},{"bike_id":"6d119075-388d-4f8b-a0bd-8ae2d009647c","system_id":"levelo_inurba_marseille","lat":43.26235,"lon":5.40459,"is_reserved":false,"is_disabled":false,"rental_uris":{"android":"levelo://app?vid=6d119075-388d-4f8b-a0bd-8ae2d009647c","ios":"levelo://app?vid=6d119075-388d-4f8b-a0bd-8ae2d009647c"},"vehicle_type_id":"4","last_reported":1769430394,"current_range_meters":3600,"station_id":"ce4bhmh2rcd13ifvqgmg","pricing_plan_id":"cebpf4jnsgd1na2vs0mg"},{"bike_id":"5b192267-bead-472d-9f8d-759eb4e42554","system_id":"levelo_inurba_marseille","lat":43.268046,"lon":5.402767,"is_reserved":false,"is_disabled":false,"rental_uris":{"android":"levelo://app?vid=5b192267-bead-472d-9f8d-759eb4e42554","ios":"levelo://app?vid=5b192267-bead-472d-9f8d-759eb4e42554"},"vehicle_type_id":"4","last_reported":1769430394,"current_range_meters":3600,"station_id":"ce501612rcd8frsf0b60","pricing_plan_id":"cebpf4jnsgd1na2vs0mg"},{"bike_id":"77a8d6f7-8520-4e5a-a0e7-89573d4a6a77","system_id":"levelo_inurba_marseille","lat":43.237746,"lon":5.366433,"is_reserved":false,"is_disabled":false,"rental_uris":{"android":"levelo://app?vid=77a8d6f7-8520-4e5a-a0e7-89573d4a6a77","ios":"levelo://app?vid=77a8d6f7-8520-4e5a-a0e7-89573d4a6a77"},"vehicle_type_id":"4","last_reported":1769430394,"current_range_meters":3600,"station_id":"st_d3nk18o9ro0c73en2l3g","pricing_plan_id":"cebpf4jnsgd1na2vs0mg"},{"bike_id":"b075d711-d93d-4120-85f9-64fa0a4a9a99","system_id":"levelo_inurba_marseille","lat":43.22571,"lon":5.41625,"is_reserved":false,"is_disabled":false,"rental_uris":{"android":"levelo://app?vid=b075d711-d93d-4120-85f9-64fa0a4a9a99","ios":"levelo://app?vid=b075d711-d93d-4120-85f9-64fa0a4a9a99"},"vehicle_type_id":"4","last_reported":1769430394,"current_range_meters":3600,"station_id":"st_d2o4gvlbi1j2169b742g","pricing_plan_id":"cebpf4jnsgd1na2vs0mg"},{"bike_id":"16559043-47e3-423c-bce1-fdf9b2bb02f5","system_id":"levelo_inurba_marseille","lat":43.30939,"lon":5.39053,"is_reserved":false,"is_disabled":false,"rental_uris":{"android":"levelo://app?vid=16559043-47e3-423c-bce1-fdf9b2bb02f5","ios":"levelo://app?vid=16559043-47e3-423c-bce1-fdf9b2bb02f5"},"vehicle_type_id":"4","last_reported":1769430394,"current_range_meters":3600,"station_id":"ce4bgup2rcd13ifvqco0","pricing_plan_id":"cebpf4jnsgd1na2vs0mg"},{"bike_id":"b9a85f81-db86-411f-bbb7-33e92cde08f2","system_id":"levelo_inurba_marseille","lat":43.309,"lon":5.40329,"is_reserved":false,"is_disabled":false,"rental_uris":{"android":"levelo://app?vid=b9a85f81-db86-411f-bbb7-33e92cde08f2","ios":"levelo://app?vid=b9a85f81-db86-411f-bbb7-33e92cde08f2"},"vehicle_type_id":"4","last_reported":1769430394,"current_range_meters":3600,"station_id":"ce4bgvp2rcd13ifvqct0","pricing_plan_id":"cebpf4jnsgd1na2vs0mg"},{"bike_id":"8fcf6c59-ea53-47bf-9a03-b6aef5a6a509","system_id":"levelo_inurba_marseille","lat":43.295514,"lon":5.374928,"is_reserved":false,"is_disabled":false,"rental_uris":{"android":"levelo://app?vid=8fcf6c59-ea53-47bf-9a03-b6aef5a6a509","ios":"levelo://app?vid=8fcf6c59-ea53-47bf-9a03-b6aef5a6a509"},"vehicle_type_id":"4","last_reported":1769430394,"current_range_meters":3600,"station_id":"ce4bgkp2rcd13ifvqbmg","pricing_plan_id":"cebpf4jnsgd1na2vs0mg"},{"bike_id":"afcd81cd-bdf3-4627-897b-31b0b9ca6129","system_id":"levelo_inurba_marseille","lat":43.25469,"lon":5.37655,"is_reserved":false,"is_disabled":false,"rental_uris":{"android":"levelo://app?vid=afcd81cd-bdf3-4627-897b-31b0b9ca6129","ios":"levelo://app?vid=afcd81cd-bdf3-4627-897b-31b0b9ca6129"},"vehicle_type_id":"4","last_reported":1769430394,"current_range_meters":3600,"station_id":"ce4bhh12rcd13ifvqff0","pricing_plan_id":"cebpf4jnsgd1na2vs0mg"},{"bike_id":"474798f8-bbd5-45f6-8a42-b1ac260b177a","system_id":"levelo_inurba_marseille","lat":43.25016,"lon":5.38925,"is_reserved":false,"is_disabled":false,"rental_uris":{"android":"levelo://app?vid=474798f8-bbd5-45f6-8a42-b1ac260b177a","ios":"levelo://app?vid=474798f8-bbd5-45f6-8a42-b1ac260b177a"},"vehicle_type_id":"4","last_reported":1769430394,"current_range_meters":3600,"station_id":"ce4bhgp2rcd13ifvqfd0","pricing_plan_id":"cebpf4jnsgd1na2vs0mg"},{"bike_id":"858634e8-caac-4268-9742-18257acbe5ad","system_id":"levelo_inurba_marseille","lat":43.30968,"lon":5.39046,"is_reserved":false,"is_disabled":false,"rental_uris":{"android":"levelo://app?vid=858634e8-caac-4268-9742-18257acbe5ad","ios":"levelo://app?vid=858634e8-caac-4268-9742-18257acbe5ad"},"vehicle_type_id":"4","last_reported":1769430394,"current_range_meters":3600,"station_id":"ce4bgup2rcd13ifvqco0","pricing_plan_id":"cebpf4jnsgd1na2vs0mg"},{"bike_id":"9596f630-a277-4b6a-a9aa-2677d5cc298d","system_id":"levelo_inurba_marseille","lat":43.24139,"lon":5.39742,"is_reserved":false,"is_disabled":false,"rental_uris":{"android":"levelo://app?vid=9596f630-a277-4b6a-a9aa-2677d5cc298d","ios":"levelo://app?vid=9596f630-a277-4b6a-a9aa-2677d5cc298d"},"vehicle_type_id":"4","last_reported":1769430394,"current_range_meters":3600,"station_id":"ce4bhn12rcd13ifvqgpg","pricing_plan_id":"cebpf4jnsgd1na2vs0mg"},{"bike_id":"c0117a5d-7bba-4599-bcc0-ee8506deb526","system_id":"levelo_inurba_marseille","lat":43.23963,"lon":5.36625,"is_reserved":false,"is_disabled":false,"rental_uris":{"android":"levelo://app?vid=c0117a5d-7bba-4599-bcc0-ee8506deb526","ios":"levelo://app?vid=c0117a5d-7bba-4599-bcc0-ee8506deb526"},"vehicle_type_id":"4","last_reported":1769430394,"current_range_meters":3600,"station_id":"ce4bhi12rcd13ifvqfp0","pricing_plan_id":"cebpf4jnsgd1na2vs0mg"},{"bike_id":"b9917ecd-02a8-40e9-a0d0-4758759eb040","system_id":"levelo_inurba_marseille","lat":43.24571,"lon":5.37342,"is_reserved":false,"is_disabled":false,"rental_uris":{"android":"levelo://app?vid=b9917ecd-02a8-40e9-a0d0-4758759eb040","ios":"levelo://app?vid=b9917ecd-02a8-40e9-a0d0-4758759eb040"},"vehicle_type_id":"4","last_reported":1769430394,"current_range_meters":3600,"station_id":"","pricing_plan_id":"cebpf4jnsgd1na2vs0mg"},{"bike_id":"60c8a143-764e-4a44-9fc2-d90eafdc89e3","system_id":"levelo_inurba_marseille","lat":43.25513,"lon":5.37666,"is_reserved":false,"is_disabled":false,"rental_uris":{"android":"levelo://app?vid=60c8a143-764e-4a44-9fc2-d90eafdc89e3","ios":"levelo://app?vid=60c8a143-764e-4a44-9fc2-d90eafdc89e3"},"vehicle_type_id":"4","last_reported":1769430394,"current_range_meters":3600,"station_id":"ce4bhh12rcd13ifvqff0","pricing_plan_id":"cebpf4jnsgd1na2vs0mg"},{"bike_id":"e87f1720-2916-4d13-93b0-f87e4dd97385","system_id":"levelo_inurba_marseille","lat":43.29793,"lon":5.39339,"is_reserved":false,"is_disabled":false,"rental_uris":{"android":"levelo://app?vid=e87f1720-2916-4d13-93b0-f87e4dd97385","ios":"levelo://app?vid=e87f1720-2916-4d13-93b0-f87e4dd97385"},"vehicle_type_id":"4","last_reported":1769430394,"current_range_meters":3600,"station_id":"chh1huq6cuj3fo74tm60","pricing_plan_id":"cebpf4jnsgd1na2vs0mg"},{"bike_id":"995a6bb6-d88d-4735-8ea2-c72889b441e7","system_id":"levelo_inurba_marseille","lat":43.261967,"lon":5.379275,"is_reserved":false,"is_disabled":false,"rental_uris":{"android":"levelo://app?vid=995a6bb6-d88d-4735-8ea2-c72889b441e7","ios":"levelo://app?vid=995a6bb6-d88d-4735-8ea2-c72889b441e7"},"vehicle_type_id":"4","last_reported":1769430394,"current_range_meters":3600,"station_id":"ce4bhjp2rcd13ifvqg90","pricing_plan_id":"cebpf4jnsgd1na2vs0mg"},{"bike_id":"00cb05b0-6332-4727-bb52-89bd7b794e61","system_id":"levelo_inurba_marseille","lat":43.29194,"lon":5.39343,"is_reserved":false,"is_disabled":false,"rental_uris":{"android":"levelo://app?vid=00cb05b0-6332-4727-bb52-89bd7b794e61","ios":"levelo://app?vid=00cb05b0-6332-4727-bb52-89bd7b794e61"},"vehicle_type_id":"4","last_reported":1769430394,"current_range_meters":4000,"station_id":"ce4bh192rcd13ifvqdd0","pricing_plan_id":"cebpf4jnsgd1na2vs0mg"},{"bike_id":"0de5032e-148a-468e-969e-fb644458ceae","system_id":"levelo_inurba_marseille","lat":43.25088,"lon":5.40494,"is_reserved":false,"is_disabled":false,"rental_uris":{"android":"levelo://app?vid=0de5032e-148a-468e-969e-fb644458ceae","ios":"levelo://app?vid=0de5032e-148a-468e-969e-fb644458ceae"},"vehicle_type_id":"4","last_reported":1769430394,"current_range_meters":4000,"station_id":"","pricing_plan_id":"cebpf4jnsgd1na2vs0mg"},{"bike_id":"6252b5bc-7f21-4a5c-90b2-fb54de33b122","system_id":"levelo_inurba_marseille","lat":43.24386,"lon":5.37079,"is_reserved":false,"is_disabled":false,"rental_uris":{"android":"levelo://app?vid=6252b5bc-7f21-4a5c-90b2-fb54de33b122","ios":"levelo://app?vid=6252b5bc-7f21-4a5c-90b2-fb54de33b122"},"vehicle_type_id":"4","last_reported":1769430394,"current_range_meters":4000,"station_id":"ce4bhhh2rcd13ifvqfk0","pricing_plan_id":"cebpf4jnsgd1na2vs0mg"},{"bike_id":"50006eb5-7e2d-4eec-b7db-04ba6e598980","system_id":"levelo_inurba_marseille","lat":43.33147,"lon":5.37696,"is_reserved":false,"is_disabled":false,"rental_uris":{"android":"levelo://app?vid=50006eb5-7e2d-4eec-b7db-04ba6e598980","ios":"levelo://app?vid=50006eb5-7e2d-4eec-b7db-04ba6e598980"},"vehicle_type_id":"4","last_reported":1769430394,"current_range_meters":4000,"station_id":"st_d46cu089ee8s73dldbu0","pricing_plan_id":"cebpf4jnsgd1na2vs0mg"},{"bike_id":"94bcfe7a-ec42-4d80-b65d-4f51f90031a6","system_id":"levelo_inurba_marseille","lat":43.28933,"lon":5.38421,"is_reserved":false,"is_disabled":false,"rental_uris":{"android":"levelo://app?vid=94bcfe7a-ec42-4d80-b65d-4f51f90031a6","ios":"levelo://app?vid=94bcfe7a-ec42-4d80-b65d-4f51f90031a6"},"vehicle_type_id":"4","last_reported":1769430394,"current_range_meters":4000,"station_id":"ce4bh612rcd13ifvqe6g","pricing_plan_id":"cebpf4jnsgd1na2vs0mg"},{"bike_id":"5d411b85-7b12-4358-9445-6cfeeebcda1f","system_id":"levelo_inurba_marseille","lat":43.27624,"lon":5.36135,"is_reserved":false,"is_disabled":false,"rental_uris":{"android":"levelo://app?vid=5d411b85-7b12-4358-9445-6cfeeebcda1f","ios":"levelo://app?vid=5d411b85-7b12-4358-9445-6cfeeebcda1f"},"vehicle_type_id":"4","last_reported":1769430394,"current_range_meters":4000,"station_id":"ce4bgj92rcd13ifvqbe0","pricing_plan_id":"cebpf4jnsgd1na2vs0mg"},{"bike_id":"ca006b1c-64f2-4772-acb4-e94321165aec","system_id":"levelo_inurba_marseille","lat":43.305489,"lon":5.367403,"is_reserved":false,"is_disabled":false,"rental_uris":{"android":"levelo://app?vid=ca006b1c-64f2-4772-acb4-e94321165aec","ios":"levelo://app?vid=ca006b1c-64f2-4772-acb4-e94321165aec"},"vehicle_type_id":"4","last_reported":1769430394,"current_range_meters":4000,"station_id":"ce4bgn92rcd13ifvqbvg","pricing_plan_id":"cebpf4jnsgd1na2vs0mg"},{"bike_id":"8533d21f-c176-4852-92be-c7d0faddd8a8","system_id":"levelo_inurba_marseille","lat":43.27686,"lon":5.38871,"is_reserved":false,"is_disabled":false,"rental_uris":{"android":"levelo://app?vid=8533d21f-c176-4852-92be-c7d0faddd8a8","ios":"levelo://app?vid=8533d21f-c176-4852-92be-c7d0faddd8a8"},"vehicle_type_id":"4","last_reported":1769430394,"current_range_meters":4000,"station_id":"ce4bhi12rcd13ifvqfo0","pricing_plan_id":"cebpf4jnsgd1na2vs0mg"},{"bike_id":"3930536c-8c51-42dc-98c5-b22dbf71406e","system_id":"levelo_inurba_marseille","lat":43.26687,"lon":5.38268,"is_reserved":false,"is_disabled":false,"rental_uris":{"android":"levelo://app?vid=3930536c-8c51-42dc-98c5-b22dbf71406e","ios":"levelo://app?vid=3930536c-8c51-42dc-98c5-b22dbf71406e"},"vehicle_type_id":"4","last_reported":1769430394,"current_range_meters":4000,"station_id":"ce4bhg92rcd13ifvqf90","pricing_plan_id":"cebpf4jnsgd1na2vs0mg"},{"bike_id":"0c11bc30-1254-4e35-b530-31f7fd6a4b39","system_id":"levelo_inurba_marseille","lat":43.30044,"lon":5.37328,"is_reserved":false,"is_disabled":false,"rental_uris":{"android":"levelo://app?vid=0c11bc30-1254-4e35-b530-31f7fd6a4b39","ios":"levelo://app?vid=0c11bc30-1254-4e35-b530-31f7fd6a4b39"},"vehicle_type_id":"4","last_reported":1769430394,"current_range_meters":4000,"station_id":"","pricing_plan_id":"cebpf4jnsgd1na2vs0mg"},{"bike_id":"1313da1f-dab5-49da-8cef-64c01b62057a","system_id":"levelo_inurba_marseille","lat":43.23195,"lon":5.35555,"is_reserved":false,"is_disabled":false,"rental_uris":{"android":"levelo://app?vid=1313da1f-dab5-49da-8cef-64c01b62057a","ios":"levelo://app?vid=1313da1f-dab5-49da-8cef-64c01b62057a"},"vehicle_type_id":"4","last_reported":1769430394,"current_range_meters":4000,"station_id":"ce4bhu92rcd13ifvqi70","pricing_plan_id":"cebpf4jnsgd1na2vs0mg"},{"bike_id":"0a29c5bf-fae9-4cb8-9dc3-192d1660ded0","system_id":"levelo_inurba_marseille","lat":43.30423,"lon":5.3974,"is_reserved":false,"is_disabled":false,"rental_uris":{"android":"levelo://app?vid=0a29c5bf-fae9-4cb8-9dc3-192d1660ded0","ios":"levelo://app?vid=0a29c5bf-fae9-4cb8-9dc3-192d1660ded0"},"vehicle_type_id":"4","last_reported":1769430394,"current_range_meters":4400,"station_id":"ce4bh092rcd13ifvqd20","pricing_plan_id":"cebpf4jnsgd1na2vs0mg"},{"bike_id":"c101c5e7-a92c-4262-9de4-730cf3520d3e","system_id":"levelo_inurba_marseille","lat":43.24394,"lon":5.37057,"is_reserved":false,"is_disabled":false,"rental_uris":{"android":"levelo://app?vid=c101c5e7-a92c-4262-9de4-730cf3520d3e","ios":"levelo://app?vid=c101c5e7-a92c-4262-9de4-730cf3520d3e"},"vehicle_type_id":"4","last_reported":1769430394,"current_range_meters":4400,"station_id":"ce4bhhh2rcd13ifvqfk0","pricing_plan_id":"cebpf4jnsgd1na2vs0mg"},{"bike_id":"fe8f16c0-7c2c-4db5-9830-9c506d68052e","system_id":"levelo_inurba_marseille","lat":43.25127,"lon":5.4032,"is_reserved":false,"is_disabled":false,"rental_uris":{"android":"levelo://app?vid=fe8f16c0-7c2c-4db5-9830-9c506d68052e","ios":"levelo://app?vid=fe8f16c0-7c2c-4db5-9830-9c506d68052e"},"vehicle_type_id":"4","last_reported":1769430394,"current_range_meters":4400,"station_id":"ce4bhlh2rcd13ifvqgig","pricing_plan_id":"cebpf4jnsgd1na2vs0mg"},{"bike_id":"09a5d1ab-035a-4dc3-bfa2-fcc95b884751","system_id":"levelo_inurba_marseille","lat":43.26934,"lon":5.38926,"is_reserved":false,"is_disabled":false,"rental_uris":{"android":"levelo://app?vid=09a5d1ab-035a-4dc3-bfa2-fcc95b884751","ios":"levelo://app?vid=09a5d1ab-035a-4dc3-bfa2-fcc95b884751"},"vehicle_type_id":"4","last_reported":1769430394,"current_range_meters":4400,"station_id":"ce4bhhh2rcd13ifvqfl0","pricing_plan_id":"cebpf4jnsgd1na2vs0mg"},{"bike_id":"5cfd7260-21a3-4346-b554-3744fc7c6072","system_id":"levelo_inurba_marseille","lat":43.29552,"lon":5.42274,"is_reserved":false,"is_disabled":false,"rental_uris":{"android":"levelo://app?vid=5cfd7260-21a3-4346-b554-3744fc7c6072","ios":"levelo://app?vid=5cfd7260-21a3-4346-b554-3744fc7c6072"},"vehicle_type_id":"4","last_reported":1769430394,"current_range_meters":4400,"station_id":"ce4bhph2rcd13ifvqhdg","pricing_plan_id":"cebpf4jnsgd1na2vs0mg"},{"bike_id":"e8e4e087-a5f5-46d6-bde5-a155ee69ec30","system_id":"levelo_inurba_marseille","lat":43.261963,"lon":5.379201,"is_reserved":false,"is_disabled":true,"rental_uris":{"android":"levelo://app?vid=e8e4e087-a5f5-46d6-bde5-a155ee69ec30","ios":"levelo://app?vid=e8e4e087-a5f5-46d6-bde5-a155ee69ec30"},"vehicle_type_id":"4","last_reported":1769430394,"current_range_meters":4400,"station_id":"","pricing_plan_id":"cebpf4jnsgd1na2vs0mg"},{"bike_id":"0a9315ef-49dd-4e1c-90ba-9ac1028ca5d9","system_id":"levelo_inurba_marseille","lat":43.321092,"lon":5.36766,"is_reserved":false,"is_disabled":false,"rental_uris":{"android":"levelo://app?vid=0a9315ef-49dd-4e1c-90ba-9ac1028ca5d9","ios":"levelo://app?vid=0a9315ef-49dd-4e1c-90ba-9ac1028ca5d9"},"vehicle_type_id":"4","last_reported":1769430394,"current_range_meters":4400,"station_id":"ce4bhrh2rcd13ifvqhug","pricing_plan_id":"cebpf4jnsgd1na2vs0mg"},{"bike_id":"fefe4d30-1974-4c06-9b66-899aa1dd538f","system_id":"levelo_inurba_marseille","lat":43.33033,"lon":5.39106,"is_reserved":false,"is_disabled":false,"rental_uris":{"android":"levelo://app?vid=fefe4d30-1974-4c06-9b66-899aa1dd538f","ios":"levelo://app?vid=fefe4d30-1974-4c06-9b66-899aa1dd538f"},"vehicle_type_id":"4","last_reported":1769430394,"current_range_meters":4400,"station_id":"","pricing_plan_id":"cebpf4jnsgd1na2vs0mg"},{"bike_id":"ea53cb96-b018-4a32-8207-3b5118a7a50d","system_id":"levelo_inurba_marseille","lat":43.321277,"lon":5.367708,"is_reserved":false,"is_disabled":false,"rental_uris":{"android":"levelo://app?vid=ea53cb96-b018-4a32-8207-3b5118a7a50d","ios":"levelo://app?vid=ea53cb96-b018-4a32-8207-3b5118a7a50d"},"vehicle_type_id":"4","last_reported":1769430394,"current_range_meters":4400,"station_id":"ce4bhrh2rcd13ifvqhug","pricing_plan_id":"cebpf4jnsgd1na2vs0mg"},{"bike_id":"b1fda984-5b32-4372-a516-e488d838b343","system_id":"levelo_inurba_marseille","lat":43.24397,"lon":5.37059,"is_reserved":false,"is_disabled":false,"rental_uris":{"android":"levelo://app?vid=b1fda984-5b32-4372-a516-e488d838b343","ios":"levelo://app?vid=b1fda984-5b32-4372-a516-e488d838b343"},"vehicle_type_id":"4","last_reported":1769430394,"current_range_meters":4400,"station_id":"ce4bhhh2rcd13ifvqfk0","pricing_plan_id":"cebpf4jnsgd1na2vs0mg"},{"bike_id":"8088a63e-3ac3-4009-be76-242579c58dc0","system_id":"levelo_inurba_marseille","lat":43.27424,"lon":5.3942,"is_reserved":false,"is_disabled":false,"rental_uris":{"android":"levelo://app?vid=8088a63e-3ac3-4009-be76-242579c58dc0","ios":"levelo://app?vid=8088a63e-3ac3-4009-be76-242579c58dc0"},"vehicle_type_id":"4","last_reported":1769430394,"current_range_meters":4400,"station_id":"ce4bhdp2rcd13ifvqf20","pricing_plan_id":"cebpf4jnsgd1na2vs0mg"},{"bike_id":"bfcbf923-f9f6-488d-8bef-cb98f2efcc25","system_id":"levelo_inurba_marseille","lat":43.28715,"lon":5.3793,"is_reserved":false,"is_disabled":false,"rental_uris":{"android":"levelo://app?vid=bfcbf923-f9f6-488d-8bef-cb98f2efcc25","ios":"levelo://app?vid=bfcbf923-f9f6-488d-8bef-cb98f2efcc25"},"vehicle_type_id":"4","last_reported":1769430394,"current_range_meters":4400,"station_id":"ce4bh9p2rcd13ifvqec0","pricing_plan_id":"cebpf4jnsgd1na2vs0mg"},{"bike_id":"05702008-b9fb-4485-8852-be0161cdf405","system_id":"levelo_inurba_marseille","lat":43.25496,"lon":5.37669,"is_reserved":false,"is_disabled":false,"rental_uris":{"android":"levelo://app?vid=05702008-b9fb-4485-8852-be0161cdf405","ios":"levelo://app?vid=05702008-b9fb-4485-8852-be0161cdf405"},"vehicle_type_id":"4","last_reported":1769430394,"current_range_meters":4800,"station_id":"ce4bhh12rcd13ifvqff0","pricing_plan_id":"cebpf4jnsgd1na2vs0mg"},{"bike_id":"a7d2959e-278b-41d6-9192-a644114b55de","system_id":"levelo_inurba_marseille","lat":43.23779,"lon":5.3663,"is_reserved":false,"is_disabled":false,"rental_uris":{"android":"levelo://app?vid=a7d2959e-278b-41d6-9192-a644114b55de","ios":"levelo://app?vid=a7d2959e-278b-41d6-9192-a644114b55de"},"vehicle_type_id":"4","last_reported":1769430394,"current_range_meters":4800,"station_id":"st_d3nk18o9ro0c73en2l3g","pricing_plan_id":"cebpf4jnsgd1na2vs0mg"},{"bike_id":"5e529a5d-b2ca-40f2-848b-027e979b3e6d","system_id":"levelo_inurba_marseille","lat":43.31875,"lon":5.43557,"is_reserved":false,"is_disabled":false,"rental_uris":{"android":"levelo://app?vid=5e529a5d-b2ca-40f2-848b-027e979b3e6d","ios":"levelo://app?vid=5e529a5d-b2ca-40f2-848b-027e979b3e6d"},"vehicle_type_id":"4","last_reported":1769430394,"current_range_meters":4800,"station_id":"","pricing_plan_id":"cebpf4jnsgd1na2vs0mg"},{"bike_id":"5620fd0b-568e-406e-8104-b0555da61e8a","system_id":"levelo_inurba_marseille","lat":43.28478,"lon":5.48408,"is_reserved":false,"is_disabled":false,"rental_uris":{"android":"levelo://app?vid=5620fd0b-568e-406e-8104-b0555da61e8a","ios":"levelo://app?vid=5620fd0b-568e-406e-8104-b0555da61e8a"},"vehicle_type_id":"4","last_reported":1769430394,"current_range_meters":4800,"station_id":"","pricing_plan_id":"cebpf4jnsgd1na2vs0mg"},{"bike_id":"6f06b0a1-8601-4433-95f1-317119cf2258","system_id":"levelo_inurba_marseille","lat":43.295982,"lon":5.381002,"is_reserved":false,"is_disabled":false,"rental_uris":{"android":"levelo://app?vid=6f06b0a1-8601-4433-95f1-317119cf2258","ios":"levelo://app?vid=6f06b0a1-8601-4433-95f1-317119cf2258"},"vehicle_type_id":"4","last_reported":1769430394,"current_range_meters":4800,"station_id":"ce4bgl12rcd13ifvqbo0","pricing_plan_id":"cebpf4jnsgd1na2vs0mg"},{"bike_id":"6b03ada9-beb1-4397-aab8-27781ac0b0d3","system_id":"levelo_inurba_marseille","lat":43.25121,"lon":5.40327,"is_reserved":false,"is_disabled":false,"rental_uris":{"android":"levelo://app?vid=6b03ada9-beb1-4397-aab8-27781ac0b0d3","ios":"levelo://app?vid=6b03ada9-beb1-4397-aab8-27781ac0b0d3"},"vehicle_type_id":"4","last_reported":1769430394,"current_range_meters":4800,"station_id":"ce4bhlh2rcd13ifvqgig","pricing_plan_id":"cebpf4jnsgd1na2vs0mg"},{"bike_id":"23e8e2b5-e425-472a-bc08-b0b79ef75ac3","system_id":"levelo_inurba_marseille","lat":43.2853,"lon":5.44091,"is_reserved":false,"is_disabled":false,"rental_uris":{"android":"levelo://app?vid=23e8e2b5-e425-472a-bc08-b0b79ef75ac3","ios":"levelo://app?vid=23e8e2b5-e425-472a-bc08-b0b79ef75ac3"},"vehicle_type_id":"4","last_reported":1769430394,"current_range_meters":4800,"station_id":"st_d3j3df2ikq2c7380ej80","pricing_plan_id":"cebpf4jnsgd1na2vs0mg"},{"bike_id":"99bc9e46-2a2d-4354-b606-97e38b1b91d7","system_id":"levelo_inurba_marseille","lat":43.23914,"lon":5.37585,"is_reserved":false,"is_disabled":false,"rental_uris":{"android":"levelo://app?vid=99bc9e46-2a2d-4354-b606-97e38b1b91d7","ios":"levelo://app?vid=99bc9e46-2a2d-4354-b606-97e38b1b91d7"},"vehicle_type_id":"4","last_reported":1769430394,"current_range_meters":4800,"station_id":"","pricing_plan_id":"cebpf4jnsgd1na2vs0mg"},{"bike_id":"b48ee151-3ed1-4e10-984a-1bdd1de5d934","system_id":"levelo_inurba_marseille","lat":43.26717,"lon":5.38987,"is_reserved":false,"is_disabled":false,"rental_uris":{"android":"levelo://app?vid=b48ee151-3ed1-4e10-984a-1bdd1de5d934","ios":"levelo://app?vid=b48ee151-3ed1-4e10-984a-1bdd1de5d934"},"vehicle_type_id":"4","last_reported":1769430394,"current_range_meters":4800,"station_id":"","pricing_plan_id":"cebpf4jnsgd1na2vs0mg"},{"bike_id":"76a1dac6-4b91-4c24-98e2-a51653f759db","system_id":"levelo_inurba_marseille","lat":43.23785,"lon":5.36614,"is_reserved":false,"is_disabled":false,"rental_uris":{"android":"levelo://app?vid=76a1dac6-4b91-4c24-98e2-a51653f759db","ios":"levelo://app?vid=76a1dac6-4b91-4c24-98e2-a51653f759db"},"vehicle_type_id":"4","last_reported":1769430394,"current_range_meters":5600,"station_id":"st_d3nk18o9ro0c73en2l3g","pricing_plan_id":"cebpf4jnsgd1na2vs0mg"},{"bike_id":"367a6bfa-022d-4ac7-9a7a-fafdb9ad5966","system_id":"levelo_inurba_marseille","lat":43.23184,"lon":5.40001,"is_reserved":false,"is_disabled":false,"rental_uris":{"android":"levelo://app?vid=367a6bfa-022d-4ac7-9a7a-fafdb9ad5966","ios":"levelo://app?vid=367a6bfa-022d-4ac7-9a7a-fafdb9ad5966"},"vehicle_type_id":"4","last_reported":1769430394,"current_range_meters":5600,"station_id":"ce4bhn12rcd13ifvqgqg","pricing_plan_id":"cebpf4jnsgd1na2vs0mg"},{"bike_id":"b41ba2a0-1343-49eb-803d-f14eb8b0ccdf","system_id":"levelo_inurba_marseille","lat":43.26701,"lon":5.39242,"is_reserved":false,"is_disabled":false,"rental_uris":{"android":"levelo://app?vid=b41ba2a0-1343-49eb-803d-f14eb8b0ccdf","ios":"levelo://app?vid=b41ba2a0-1343-49eb-803d-f14eb8b0ccdf"},"vehicle_type_id":"4","last_reported":1769430394,"current_range_meters":5600,"station_id":"","pricing_plan_id":"cebpf4jnsgd1na2vs0mg"},{"bike_id":"70b373ec-c3e9-4acd-ad55-8386d0981035","system_id":"levelo_inurba_marseille","lat":43.23162,"lon":5.43721,"is_reserved":false,"is_disabled":false,"rental_uris":{"android":"levelo://app?vid=70b373ec-c3e9-4acd-ad55-8386d0981035","ios":"levelo://app?vid=70b373ec-c3e9-4acd-ad55-8386d0981035"},"vehicle_type_id":"4","last_reported":1769430394,"current_range_meters":5600,"station_id":"ce4bhmp2rcd13ifvqgog","pricing_plan_id":"cebpf4jnsgd1na2vs0mg"},{"bike_id":"35de4117-1885-471d-ae81-ebbd7b148d3a","system_id":"levelo_inurba_marseille","lat":43.28151,"lon":5.42629,"is_reserved":false,"is_disabled":false,"rental_uris":{"android":"levelo://app?vid=35de4117-1885-471d-ae81-ebbd7b148d3a","ios":"levelo://app?vid=35de4117-1885-471d-ae81-ebbd7b148d3a"},"vehicle_type_id":"4","last_reported":1769430394,"current_range_meters":5600,"station_id":"ce4bhnh2rcd13ifvqgug","pricing_plan_id":"cebpf4jnsgd1na2vs0mg"},{"bike_id":"c0313abf-12fb-419d-943d-7cc5fd78e7ca","system_id":"levelo_inurba_marseille","lat":43.3124,"lon":5.36703,"is_reserved":false,"is_disabled":false,"rental_uris":{"android":"levelo://app?vid=c0313abf-12fb-419d-943d-7cc5fd78e7ca","ios":"levelo://app?vid=c0313abf-12fb-419d-943d-7cc5fd78e7ca"},"vehicle_type_id":"4","last_reported":1769430394,"current_range_meters":5600,"station_id":"","pricing_plan_id":"cebpf4jnsgd1na2vs0mg"},{"bike_id":"0e19232a-4d6e-44d6-a7ec-ead819ca9347","system_id":"levelo_inurba_marseille","lat":43.28947,"lon":5.36657,"is_reserved":false,"is_disabled":false,"rental_uris":{"android":"levelo://app?vid=0e19232a-4d6e-44d6-a7ec-ead819ca9347","ios":"levelo://app?vid=0e19232a-4d6e-44d6-a7ec-ead819ca9347"},"vehicle_type_id":"4","last_reported":1769430394,"current_range_meters":5600,"station_id":"ce4bhap2rcd13ifvqek0","pricing_plan_id":"cebpf4jnsgd1na2vs0mg"},{"bike_id":"3ef434f3-afe9-40bf-be14-4d0dd6dcf438","system_id":"levelo_inurba_marseille","lat":43.28942,"lon":5.36389,"is_reserved":false,"is_disabled":false,"rental_uris":{"android":"levelo://app?vid=3ef434f3-afe9-40bf-be14-4d0dd6dcf438","ios":"levelo://app?vid=3ef434f3-afe9-40bf-be14-4d0dd6dcf438"},"vehicle_type_id":"4","last_reported":1769430394,"current_range_meters":5600,"station_id":"ce4bhc92rcd13ifvqetg","pricing_plan_id":"cebpf4jnsgd1na2vs0mg"},{"bike_id":"852eafff-4599-4bbd-a006-a894c4cf6184","system_id":"levelo_inurba_marseille","lat":43.2862,"lon":5.35108,"is_reserved":false,"is_disabled":false,"rental_uris":{"android":"levelo://app?vid=852eafff-4599-4bbd-a006-a894c4cf6184","ios":"levelo://app?vid=852eafff-4599-4bbd-a006-a894c4cf6184"},"vehicle_type_id":"4","last_reported":1769430394,"current_range_meters":5600,"station_id":"ce4bhch2rcd13ifvqeug","pricing_plan_id":"cebpf4jnsgd1na2vs0mg"},{"bike_id":"76f15ad4-d2a1-4e04-beac-26f7234bdc21","system_id":"levelo_inurba_marseille","lat":43.30292,"lon":5.36753,"is_reserved":false,"is_disabled":false,"rental_uris":{"android":"levelo://app?vid=76f15ad4-d2a1-4e04-beac-26f7234bdc21","ios":"levelo://app?vid=76f15ad4-d2a1-4e04-beac-26f7234bdc21"},"vehicle_type_id":"4","last_reported":1769430394,"current_range_meters":5600,"station_id":"","pricing_plan_id":"cebpf4jnsgd1na2vs0mg"},{"bike_id":"872ca787-ea41-43ac-9081-3181ff9b1e3b","system_id":"levelo_inurba_marseille","lat":43.27385,"lon":5.36241,"is_reserved":false,"is_disabled":false,"rental_uris":{"android":"levelo://app?vid=872ca787-ea41-43ac-9081-3181ff9b1e3b","ios":"levelo://app?vid=872ca787-ea41-43ac-9081-3181ff9b1e3b"},"vehicle_type_id":"4","last_reported":1769430394,"current_range_meters":5600,"station_id":"ce4bhbh2rcd13ifvqeo0","pricing_plan_id":"cebpf4jnsgd1na2vs0mg"},{"bike_id":"00a8d09f-70a6-4da9-9995-b6eabc008db8","system_id":"levelo_inurba_marseille","lat":43.2622,"lon":5.37445,"is_reserved":false,"is_disabled":false,"rental_uris":{"android":"levelo://app?vid=00a8d09f-70a6-4da9-9995-b6eabc008db8","ios":"levelo://app?vid=00a8d09f-70a6-4da9-9995-b6eabc008db8"},"vehicle_type_id":"4","last_reported":1769430394,"current_range_meters":5600,"station_id":"ce4bhgp2rcd13ifvqfc0","pricing_plan_id":"cebpf4jnsgd1na2vs0mg"},{"bike_id":"5a924aa5-a60a-459f-9ce9-4aee6291d40d","system_id":"levelo_inurba_marseille","lat":43.24158,"lon":5.36413,"is_reserved":false,"is_disabled":false,"rental_uris":{"android":"levelo://app?vid=5a924aa5-a60a-459f-9ce9-4aee6291d40d","ios":"levelo://app?vid=5a924aa5-a60a-459f-9ce9-4aee6291d40d"},"vehicle_type_id":"4","last_reported":1769430394,"current_range_meters":6000,"station_id":"cpo36qri1sfpv3e86is0","pricing_plan_id":"cebpf4jnsgd1na2vs0mg"},{"bike_id":"220c418b-28b6-4540-8ffd-c0aa175c1092","system_id":"levelo_inurba_marseille","lat":43.28005,"lon":5.41676,"is_reserved":false,"is_disabled":false,"rental_uris":{"android":"levelo://app?vid=220c418b-28b6-4540-8ffd-c0aa175c1092","ios":"levelo://app?vid=220c418b-28b6-4540-8ffd-c0aa175c1092"},"vehicle_type_id":"4","last_reported":1769430394,"current_range_meters":6000,"station_id":"ce4bho12rcd13ifvqh1g","pricing_plan_id":"cebpf4jnsgd1na2vs0mg"},{"bike_id":"59782ed7-23ac-458b-8d65-142b4efc668f","system_id":"levelo_inurba_marseille","lat":43.2992,"lon":5.36517,"is_reserved":false,"is_disabled":false,"rental_uris":{"android":"levelo://app?vid=59782ed7-23ac-458b-8d65-142b4efc668f","ios":"levelo://app?vid=59782ed7-23ac-458b-8d65-142b4efc668f"},"vehicle_type_id":"4","last_reported":1769430394,"current_range_meters":6000,"station_id":"ce4bgm92rcd13ifvqbr0","pricing_plan_id":"cebpf4jnsgd1na2vs0mg"},{"bike_id":"84dcac80-1ee4-4137-a9c9-54ce46a0afe7","system_id":"levelo_inurba_marseille","lat":43.2756,"lon":5.38414,"is_reserved":false,"is_disabled":false,"rental_uris":{"android":"levelo://app?vid=84dcac80-1ee4-4137-a9c9-54ce46a0afe7","ios":"levelo://app?vid=84dcac80-1ee4-4137-a9c9-54ce46a0afe7"},"vehicle_type_id":"4","last_reported":1769430394,"current_range_meters":6000,"station_id":"ce4bhh92rcd13ifvqfi0","pricing_plan_id":"cebpf4jnsgd1na2vs0mg"},{"bike_id":"fdd9efc7-53e9-441d-b99b-586302834715","system_id":"levelo_inurba_marseille","lat":43.296821,"lon":5.372885,"is_reserved":false,"is_disabled":true,"rental_uris":{"android":"levelo://app?vid=fdd9efc7-53e9-441d-b99b-586302834715","ios":"levelo://app?vid=fdd9efc7-53e9-441d-b99b-586302834715"},"vehicle_type_id":"4","last_reported":1769430394,"current_range_meters":6000,"station_id":"ce4bgk12rcd13ifvqbj0","pricing_plan_id":"cebpf4jnsgd1na2vs0mg"},{"bike_id":"7ab42a37-5fa3-40b0-99e7-5c9a7643d3cf","system_id":"levelo_inurba_marseille","lat":43.26199,"lon":5.37447,"is_reserved":false,"is_disabled":false,"rental_uris":{"android":"levelo://app?vid=7ab42a37-5fa3-40b0-99e7-5c9a7643d3cf","ios":"levelo://app?vid=7ab42a37-5fa3-40b0-99e7-5c9a7643d3cf"},"vehicle_type_id":"4","last_reported":1769430394,"current_range_meters":6000,"station_id":"ce4bhgp2rcd13ifvqfc0","pricing_plan_id":"cebpf4jnsgd1na2vs0mg"},{"bike_id":"0d136b10-6bc7-4235-855c-95e423a0d09e","system_id":"levelo_inurba_marseille","lat":43.28596,"lon":5.38239,"is_reserved":false,"is_disabled":false,"rental_uris":{"android":"levelo://app?vid=0d136b10-6bc7-4235-855c-95e423a0d09e","ios":"levelo://app?vid=0d136b10-6bc7-4235-855c-95e423a0d09e"},"vehicle_type_id":"4","last_reported":1769430394,"current_range_meters":6000,"station_id":"","pricing_plan_id":"cebpf4jnsgd1na2vs0mg"},{"bike_id":"129b64f8-35ce-4ebc-b6ae-2b046fe4c047","system_id":"levelo_inurba_marseille","lat":43.30962,"lon":5.39043,"is_reserved":false,"is_disabled":false,"rental_uris":{"android":"levelo://app?vid=129b64f8-35ce-4ebc-b6ae-2b046fe4c047","ios":"levelo://app?vid=129b64f8-35ce-4ebc-b6ae-2b046fe4c047"},"vehicle_type_id":"4","last_reported":1769430394,"current_range_meters":6000,"station_id":"ce4bgup2rcd13ifvqco0","pricing_plan_id":"cebpf4jnsgd1na2vs0mg"},{"bike_id":"d460b335-aa77-456b-a977-4ceff18bb8a0","system_id":"levelo_inurba_marseille","lat":43.30379,"lon":5.42489,"is_reserved":false,"is_disabled":false,"rental_uris":{"android":"levelo://app?vid=d460b335-aa77-456b-a977-4ceff18bb8a0","ios":"levelo://app?vid=d460b335-aa77-456b-a977-4ceff18bb8a0"},"vehicle_type_id":"4","last_reported":1769430394,"current_range_meters":6000,"station_id":"ce4bhoh2rcd13ifvqh6g","pricing_plan_id":"cebpf4jnsgd1na2vs0mg"},{"bike_id":"82f5d7cf-2c6e-4174-ab24-1fb4015f0fcf","system_id":"levelo_inurba_marseille","lat":43.23145,"lon":5.43715,"is_reserved":false,"is_disabled":false,"rental_uris":{"android":"levelo://app?vid=82f5d7cf-2c6e-4174-ab24-1fb4015f0fcf","ios":"levelo://app?vid=82f5d7cf-2c6e-4174-ab24-1fb4015f0fcf"},"vehicle_type_id":"4","last_reported":1769430394,"current_range_meters":6000,"station_id":"ce4bhmp2rcd13ifvqgog","pricing_plan_id":"cebpf4jnsgd1na2vs0mg"},{"bike_id":"78da5b41-4422-46ca-889f-3469a789e2e6","system_id":"levelo_inurba_marseille","lat":43.30306,"lon":5.36899,"is_reserved":false,"is_disabled":false,"rental_uris":{"android":"levelo://app?vid=78da5b41-4422-46ca-889f-3469a789e2e6","ios":"levelo://app?vid=78da5b41-4422-46ca-889f-3469a789e2e6"},"vehicle_type_id":"4","last_reported":1769430394,"current_range_meters":6000,"station_id":"ce4bgqh2rcd13ifvqc5g","pricing_plan_id":"cebpf4jnsgd1na2vs0mg"},{"bike_id":"34cffd8e-2f46-4dd8-8d27-cdda152fb2da","system_id":"levelo_inurba_marseille","lat":43.240806,"lon":5.377523,"is_reserved":false,"is_disabled":false,"rental_uris":{"android":"levelo://app?vid=34cffd8e-2f46-4dd8-8d27-cdda152fb2da","ios":"levelo://app?vid=34cffd8e-2f46-4dd8-8d27-cdda152fb2da"},"vehicle_type_id":"4","last_reported":1769430394,"current_range_meters":6000,"station_id":"ce4bhnp2rcd13ifvqgvg","pricing_plan_id":"cebpf4jnsgd1na2vs0mg"},{"bike_id":"85e2d763-a451-4954-9de0-7bebd96f38df","system_id":"levelo_inurba_marseille","lat":43.337444,"lon":5.374475,"is_reserved":false,"is_disabled":false,"rental_uris":{"android":"levelo://app?vid=85e2d763-a451-4954-9de0-7bebd96f38df","ios":"levelo://app?vid=85e2d763-a451-4954-9de0-7bebd96f38df"},"vehicle_type_id":"4","last_reported":1769430394,"current_range_meters":6000,"station_id":"ce4bhl92rcd13ifvqghg","pricing_plan_id":"cebpf4jnsgd1na2vs0mg"},{"bike_id":"281c13db-7575-4f01-8cb4-ab2b2ff0bb6c","system_id":"levelo_inurba_marseille","lat":43.23068,"lon":5.35503,"is_reserved":false,"is_disabled":false,"rental_uris":{"android":"levelo://app?vid=281c13db-7575-4f01-8cb4-ab2b2ff0bb6c","ios":"levelo://app?vid=281c13db-7575-4f01-8cb4-ab2b2ff0bb6c"},"vehicle_type_id":"4","last_reported":1769430394,"current_range_meters":6000,"station_id":"cpo3342slgdg3j2ifvpg","pricing_plan_id":"cebpf4jnsgd1na2vs0mg"},{"bike_id":"b3068d89-6006-49fd-8f19-f1ab3b5f066c","system_id":"levelo_inurba_marseille","lat":43.335919,"lon":5.410215,"is_reserved":false,"is_disabled":false,"rental_uris":{"android":"levelo://app?vid=b3068d89-6006-49fd-8f19-f1ab3b5f066c","ios":"levelo://app?vid=b3068d89-6006-49fd-8f19-f1ab3b5f066c"},"vehicle_type_id":"4","last_reported":1769430394,"current_range_meters":6000,"station_id":"ce4bhqh2rcd13ifvqhmg","pricing_plan_id":"cebpf4jnsgd1na2vs0mg"},{"bike_id":"20fbb145-d271-4097-b751-fbfe259aa534","system_id":"levelo_inurba_marseille","lat":43.2439,"lon":5.37063,"is_reserved":false,"is_disabled":false,"rental_uris":{"android":"levelo://app?vid=20fbb145-d271-4097-b751-fbfe259aa534","ios":"levelo://app?vid=20fbb145-d271-4097-b751-fbfe259aa534"},"vehicle_type_id":"4","last_reported":1769430394,"current_range_meters":6000,"station_id":"ce4bhhh2rcd13ifvqfk0","pricing_plan_id":"cebpf4jnsgd1na2vs0mg"},{"bike_id":"dcc795f5-34a5-4b33-89a8-38509adc68cb","system_id":"levelo_inurba_marseille","lat":43.31335,"lon":5.36721,"is_reserved":false,"is_disabled":false,"rental_uris":{"android":"levelo://app?vid=dcc795f5-34a5-4b33-89a8-38509adc68cb","ios":"levelo://app?vid=dcc795f5-34a5-4b33-89a8-38509adc68cb"},"vehicle_type_id":"4","last_reported":1769430394,"current_range_meters":6400,"station_id":"ce4bgr92rcd13ifvqc6g","pricing_plan_id":"cebpf4jnsgd1na2vs0mg"},{"bike_id":"af1a3621-d057-4ad0-b71e-c2bbcd71736a","system_id":"levelo_inurba_marseille","lat":43.30182,"lon":5.36639,"is_reserved":false,"is_disabled":true,"rental_uris":{"android":"levelo://app?vid=af1a3621-d057-4ad0-b71e-c2bbcd71736a","ios":"levelo://app?vid=af1a3621-d057-4ad0-b71e-c2bbcd71736a"},"vehicle_type_id":"4","last_reported":1769430394,"current_range_meters":6400,"station_id":"ce4bgrh2rcd13ifvqc8g","pricing_plan_id":"cebpf4jnsgd1na2vs0mg"},{"bike_id":"47492743-489d-45ae-8cd5-a690ce98ece0","system_id":"levelo_inurba_marseille","lat":43.25568,"lon":5.38249,"is_reserved":false,"is_disabled":false,"rental_uris":{"android":"levelo://app?vid=47492743-489d-45ae-8cd5-a690ce98ece0","ios":"levelo://app?vid=47492743-489d-45ae-8cd5-a690ce98ece0"},"vehicle_type_id":"4","last_reported":1769430394,"current_range_meters":6400,"station_id":"ce4bhih2rcd13ifvqfs0","pricing_plan_id":"cebpf4jnsgd1na2vs0mg"},{"bike_id":"892b4988-7fe8-4602-9eed-3057397e1558","system_id":"levelo_inurba_marseille","lat":43.30252,"lon":5.40096,"is_reserved":false,"is_disabled":false,"rental_uris":{"android":"levelo://app?vid=892b4988-7fe8-4602-9eed-3057397e1558","ios":"levelo://app?vid=892b4988-7fe8-4602-9eed-3057397e1558"},"vehicle_type_id":"4","last_reported":1769430394,"current_range_meters":6400,"station_id":"ce4bgvh2rcd13ifvqcs0","pricing_plan_id":"cebpf4jnsgd1na2vs0mg"},{"bike_id":"115e8d9d-5b0e-4e8e-a9ec-c30c66357830","system_id":"levelo_inurba_marseille","lat":43.29936,"lon":5.36552,"is_reserved":false,"is_disabled":false,"rental_uris":{"android":"levelo://app?vid=115e8d9d-5b0e-4e8e-a9ec-c30c66357830","ios":"levelo://app?vid=115e8d9d-5b0e-4e8e-a9ec-c30c66357830"},"vehicle_type_id":"4","last_reported":1769430394,"current_range_meters":6400,"station_id":"ce4bgm92rcd13ifvqbr0","pricing_plan_id":"cebpf4jnsgd1na2vs0mg"},{"bike_id":"bb6bbf44-2d20-4d66-acf9-a244f73a09c0","system_id":"levelo_inurba_marseille","lat":43.31352,"lon":5.36729,"is_reserved":false,"is_disabled":false,"rental_uris":{"android":"levelo://app?vid=bb6bbf44-2d20-4d66-acf9-a244f73a09c0","ios":"levelo://app?vid=bb6bbf44-2d20-4d66-acf9-a244f73a09c0"},"vehicle_type_id":"4","last_reported":1769430394,"current_range_meters":6400,"station_id":"ce4bgr92rcd13ifvqc6g","pricing_plan_id":"cebpf4jnsgd1na2vs0mg"},{"bike_id":"a911d935-ae93-425f-b2b8-dcf0b48caae6","system_id":"levelo_inurba_marseille","lat":43.29576,"lon":5.37512,"is_reserved":false,"is_disabled":false,"rental_uris":{"android":"levelo://app?vid=a911d935-ae93-425f-b2b8-dcf0b48caae6","ios":"levelo://app?vid=a911d935-ae93-425f-b2b8-dcf0b48caae6"},"vehicle_type_id":"4","last_reported":1769430394,"current_range_meters":6400,"station_id":"ce4bgh92rcd13ifvqb50","pricing_plan_id":"cebpf4jnsgd1na2vs0mg"},{"bike_id":"2e7dad9e-9695-44d6-bc96-ef3eee5dfbfa","system_id":"levelo_inurba_marseille","lat":43.31357,"lon":5.36729,"is_reserved":false,"is_disabled":false,"rental_uris":{"android":"levelo://app?vid=2e7dad9e-9695-44d6-bc96-ef3eee5dfbfa","ios":"levelo://app?vid=2e7dad9e-9695-44d6-bc96-ef3eee5dfbfa"},"vehicle_type_id":"4","last_reported":1769430394,"current_range_meters":6400,"station_id":"ce4bgr92rcd13ifvqc6g","pricing_plan_id":"cebpf4jnsgd1na2vs0mg"},{"bike_id":"399ac81d-4eef-4dd6-9d3c-75f658e814f0","system_id":"levelo_inurba_marseille","lat":43.231855,"lon":5.355561,"is_reserved":false,"is_disabled":false,"rental_uris":{"android":"levelo://app?vid=399ac81d-4eef-4dd6-9d3c-75f658e814f0","ios":"levelo://app?vid=399ac81d-4eef-4dd6-9d3c-75f658e814f0"},"vehicle_type_id":"4","last_reported":1769430394,"current_range_meters":6400,"station_id":"ce4bhu92rcd13ifvqi70","pricing_plan_id":"cebpf4jnsgd1na2vs0mg"},{"bike_id":"2aaad497-2970-4001-adae-6482dc071a49","system_id":"levelo_inurba_marseille","lat":43.27371,"lon":5.3626,"is_reserved":false,"is_disabled":false,"rental_uris":{"android":"levelo://app?vid=2aaad497-2970-4001-adae-6482dc071a49","ios":"levelo://app?vid=2aaad497-2970-4001-adae-6482dc071a49"},"vehicle_type_id":"4","last_reported":1769430394,"current_range_meters":6400,"station_id":"ce4bhbh2rcd13ifvqeo0","pricing_plan_id":"cebpf4jnsgd1na2vs0mg"},{"bike_id":"553d83bd-a03a-4ce1-85da-9494f4fb9698","system_id":"levelo_inurba_marseille","lat":43.24547,"lon":5.39526,"is_reserved":false,"is_disabled":false,"rental_uris":{"android":"levelo://app?vid=553d83bd-a03a-4ce1-85da-9494f4fb9698","ios":"levelo://app?vid=553d83bd-a03a-4ce1-85da-9494f4fb9698"},"vehicle_type_id":"4","last_reported":1769430394,"current_range_meters":6400,"station_id":"ce4bhlp2rcd13ifvqgjg","pricing_plan_id":"cebpf4jnsgd1na2vs0mg"},{"bike_id":"b8b10137-8c02-488c-ac38-a06db031ad26","system_id":"levelo_inurba_marseille","lat":43.28541,"lon":5.44097,"is_reserved":false,"is_disabled":false,"rental_uris":{"android":"levelo://app?vid=b8b10137-8c02-488c-ac38-a06db031ad26","ios":"levelo://app?vid=b8b10137-8c02-488c-ac38-a06db031ad26"},"vehicle_type_id":"4","last_reported":1769430394,"current_range_meters":6400,"station_id":"st_d3j3df2ikq2c7380ej80","pricing_plan_id":"cebpf4jnsgd1na2vs0mg"},{"bike_id":"ccf326ac-ae0a-4ffb-a071-520b4c6f402c","system_id":"levelo_inurba_marseille","lat":43.3328,"lon":5.37961,"is_reserved":false,"is_disabled":false,"rental_uris":{"android":"levelo://app?vid=ccf326ac-ae0a-4ffb-a071-520b4c6f402c","ios":"levelo://app?vid=ccf326ac-ae0a-4ffb-a071-520b4c6f402c"},"vehicle_type_id":"4","last_reported":1769430394,"current_range_meters":6400,"station_id":"","pricing_plan_id":"cebpf4jnsgd1na2vs0mg"},{"bike_id":"6ca833bc-eb2d-4968-a64f-dee268a3783e","system_id":"levelo_inurba_marseille","lat":43.23156,"lon":5.43707,"is_reserved":false,"is_disabled":false,"rental_uris":{"android":"levelo://app?vid=6ca833bc-eb2d-4968-a64f-dee268a3783e","ios":"levelo://app?vid=6ca833bc-eb2d-4968-a64f-dee268a3783e"},"vehicle_type_id":"4","last_reported":1769430394,"current_range_meters":6400,"station_id":"ce4bhmp2rcd13ifvqgog","pricing_plan_id":"cebpf4jnsgd1na2vs0mg"},{"bike_id":"a498fff0-f772-4e9f-9c09-bb0878bb4559","system_id":"levelo_inurba_marseille","lat":43.29302,"lon":5.37452,"is_reserved":false,"is_disabled":false,"rental_uris":{"android":"levelo://app?vid=a498fff0-f772-4e9f-9c09-bb0878bb4559","ios":"levelo://app?vid=a498fff0-f772-4e9f-9c09-bb0878bb4559"},"vehicle_type_id":"4","last_reported":1769430394,"current_range_meters":6400,"station_id":"ce4bgi12rcd13ifvqb70","pricing_plan_id":"cebpf4jnsgd1na2vs0mg"},{"bike_id":"4493373c-f94e-4639-b5cd-651171ec2379","system_id":"levelo_inurba_marseille","lat":43.24391,"lon":5.37062,"is_reserved":false,"is_disabled":false,"rental_uris":{"android":"levelo://app?vid=4493373c-f94e-4639-b5cd-651171ec2379","ios":"levelo://app?vid=4493373c-f94e-4639-b5cd-651171ec2379"},"vehicle_type_id":"4","last_reported":1769430394,"current_range_meters":6400,"station_id":"ce4bhhh2rcd13ifvqfk0","pricing_plan_id":"cebpf4jnsgd1na2vs0mg"},{"bike_id":"7f3e5c0b-c06f-4356-b8cb-68c8424b7076","system_id":"levelo_inurba_marseille","lat":43.33197,"lon":5.41273,"is_reserved":false,"is_disabled":false,"rental_uris":{"android":"levelo://app?vid=7f3e5c0b-c06f-4356-b8cb-68c8424b7076","ios":"levelo://app?vid=7f3e5c0b-c06f-4356-b8cb-68c8424b7076"},"vehicle_type_id":"4","last_reported":1769430394,"current_range_meters":6400,"station_id":"","pricing_plan_id":"cebpf4jnsgd1na2vs0mg"},{"bike_id":"9d829a12-49f0-47c9-bf9b-5300aa699246","system_id":"levelo_inurba_marseille","lat":43.26194,"lon":5.37448,"is_reserved":false,"is_disabled":false,"rental_uris":{"android":"levelo://app?vid=9d829a12-49f0-47c9-bf9b-5300aa699246","ios":"levelo://app?vid=9d829a12-49f0-47c9-bf9b-5300aa699246"},"vehicle_type_id":"4","last_reported":1769430394,"current_range_meters":6400,"station_id":"ce4bhgp2rcd13ifvqfc0","pricing_plan_id":"cebpf4jnsgd1na2vs0mg"},{"bike_id":"59a32110-ff6b-4156-94b4-62186bc46249","system_id":"levelo_inurba_marseille","lat":43.23153,"lon":5.43707,"is_reserved":false,"is_disabled":false,"rental_uris":{"android":"levelo://app?vid=59a32110-ff6b-4156-94b4-62186bc46249","ios":"levelo://app?vid=59a32110-ff6b-4156-94b4-62186bc46249"},"vehicle_type_id":"4","last_reported":1769430394,"current_range_meters":6800,"station_id":"ce4bhmp2rcd13ifvqgog","pricing_plan_id":"cebpf4jnsgd1na2vs0mg"},{"bike_id":"c3edd199-705c-4309-a8b9-4419712c3f01","system_id":"levelo_inurba_marseille","lat":43.337444,"lon":5.374475,"is_reserved":false,"is_disabled":false,"rental_uris":{"android":"levelo://app?vid=c3edd199-705c-4309-a8b9-4419712c3f01","ios":"levelo://app?vid=c3edd199-705c-4309-a8b9-4419712c3f01"},"vehicle_type_id":"4","last_reported":1769430394,"current_range_meters":6800,"station_id":"ce4bhb12rcd13ifvqem0","pricing_plan_id":"cebpf4jnsgd1na2vs0mg"},{"bike_id":"f04b5e35-2480-4974-8732-501867d6a720","system_id":"levelo_inurba_marseille","lat":43.30593,"lon":5.3936,"is_reserved":false,"is_disabled":false,"rental_uris":{"android":"levelo://app?vid=f04b5e35-2480-4974-8732-501867d6a720","ios":"levelo://app?vid=f04b5e35-2480-4974-8732-501867d6a720"},"vehicle_type_id":"4","last_reported":1769430394,"current_range_meters":6800,"station_id":"ce4bh0p2rcd13ifvqd80","pricing_plan_id":"cebpf4jnsgd1na2vs0mg"},{"bike_id":"43fe3bc6-8793-41a7-a6a2-cec6d1cfdc81","system_id":"levelo_inurba_marseille","lat":43.31084,"lon":5.37131,"is_reserved":false,"is_disabled":false,"rental_uris":{"android":"levelo://app?vid=43fe3bc6-8793-41a7-a6a2-cec6d1cfdc81","ios":"levelo://app?vid=43fe3bc6-8793-41a7-a6a2-cec6d1cfdc81"},"vehicle_type_id":"4","last_reported":1769430394,"current_range_meters":6800,"station_id":"st_d4kl2rp97mjs73e7tdfg","pricing_plan_id":"cebpf4jnsgd1na2vs0mg"},{"bike_id":"22504924-9e54-4399-93b4-2d8b2985824d","system_id":"levelo_inurba_marseille","lat":43.24076,"lon":5.37758,"is_reserved":false,"is_disabled":false,"rental_uris":{"android":"levelo://app?vid=22504924-9e54-4399-93b4-2d8b2985824d","ios":"levelo://app?vid=22504924-9e54-4399-93b4-2d8b2985824d"},"vehicle_type_id":"4","last_reported":1769430394,"current_range_meters":6800,"station_id":"ce4bhnp2rcd13ifvqgvg","pricing_plan_id":"cebpf4jnsgd1na2vs0mg"},{"bike_id":"fd001706-12fa-4e7c-83bf-349bf2fcad2c","system_id":"levelo_inurba_marseille","lat":43.29218,"lon":5.36061,"is_reserved":false,"is_disabled":false,"rental_uris":{"android":"levelo://app?vid=fd001706-12fa-4e7c-83bf-349bf2fcad2c","ios":"levelo://app?vid=fd001706-12fa-4e7c-83bf-349bf2fcad2c"},"vehicle_type_id":"4","last_reported":1769430394,"current_range_meters":6800,"station_id":"ce4bhbh2rcd13ifvqeqg","pricing_plan_id":"cebpf4jnsgd1na2vs0mg"},{"bike_id":"b681f863-0f3d-4d17-bb27-830d59083782","system_id":"levelo_inurba_marseille","lat":43.23147,"lon":5.43739,"is_reserved":false,"is_disabled":false,"rental_uris":{"android":"levelo://app?vid=b681f863-0f3d-4d17-bb27-830d59083782","ios":"levelo://app?vid=b681f863-0f3d-4d17-bb27-830d59083782"},"vehicle_type_id":"4","last_reported":1769430394,"current_range_meters":6800,"station_id":"ce4bhmp2rcd13ifvqgog","pricing_plan_id":"cebpf4jnsgd1na2vs0mg"},{"bike_id":"4f9646d0-e890-4075-9fb7-8871574ea59d","system_id":"levelo_inurba_marseille","lat":43.25011,"lon":5.38916,"is_reserved":false,"is_disabled":false,"rental_uris":{"android":"levelo://app?vid=4f9646d0-e890-4075-9fb7-8871574ea59d","ios":"levelo://app?vid=4f9646d0-e890-4075-9fb7-8871574ea59d"},"vehicle_type_id":"4","last_reported":1769430394,"current_range_meters":6800,"station_id":"ce4bhgp2rcd13ifvqfd0","pricing_plan_id":"cebpf4jnsgd1na2vs0mg"},{"bike_id":"45e07959-74ee-4a53-b95d-b4b3dff2ce2f","system_id":"levelo_inurba_marseille","lat":43.23778,"lon":5.36636,"is_reserved":false,"is_disabled":false,"rental_uris":{"android":"levelo://app?vid=45e07959-74ee-4a53-b95d-b4b3dff2ce2f","ios":"levelo://app?vid=45e07959-74ee-4a53-b95d-b4b3dff2ce2f"},"vehicle_type_id":"4","last_reported":1769430394,"current_range_meters":6800,"station_id":"st_d3nk18o9ro0c73en2l3g","pricing_plan_id":"cebpf4jnsgd1na2vs0mg"},{"bike_id":"6e26fc8c-448e-43cd-b37f-f4be03989230","system_id":"levelo_inurba_marseille","lat":43.3236,"lon":5.3673,"is_reserved":false,"is_disabled":false,"rental_uris":{"android":"levelo://app?vid=6e26fc8c-448e-43cd-b37f-f4be03989230","ios":"levelo://app?vid=6e26fc8c-448e-43cd-b37f-f4be03989230"},"vehicle_type_id":"4","last_reported":1769430394,"current_range_meters":6800,"station_id":"ce4bhsh2rcd13ifvqi2g","pricing_plan_id":"cebpf4jnsgd1na2vs0mg"},{"bike_id":"b0d2c80e-ed15-4930-af0a-5bfc09a11396","system_id":"levelo_inurba_marseille","lat":43.22936,"lon":5.35383,"is_reserved":false,"is_disabled":false,"rental_uris":{"android":"levelo://app?vid=b0d2c80e-ed15-4930-af0a-5bfc09a11396","ios":"levelo://app?vid=b0d2c80e-ed15-4930-af0a-5bfc09a11396"},"vehicle_type_id":"4","last_reported":1769430394,"current_range_meters":6800,"station_id":"cpo3532slgdg3j2ikp40","pricing_plan_id":"cebpf4jnsgd1na2vs0mg"},{"bike_id":"3b5a4c25-8fd0-4c8d-9794-315ef613a5a9","system_id":"levelo_inurba_marseille","lat":43.30305,"lon":5.36895,"is_reserved":false,"is_disabled":false,"rental_uris":{"android":"levelo://app?vid=3b5a4c25-8fd0-4c8d-9794-315ef613a5a9","ios":"levelo://app?vid=3b5a4c25-8fd0-4c8d-9794-315ef613a5a9"},"vehicle_type_id":"4","last_reported":1769430394,"current_range_meters":6800,"station_id":"ce4bgqh2rcd13ifvqc5g","pricing_plan_id":"cebpf4jnsgd1na2vs0mg"},{"bike_id":"1d825dae-dae9-4109-8795-05229a129ed7","system_id":"levelo_inurba_marseille","lat":43.28173,"lon":5.42629,"is_reserved":false,"is_disabled":false,"rental_uris":{"android":"levelo://app?vid=1d825dae-dae9-4109-8795-05229a129ed7","ios":"levelo://app?vid=1d825dae-dae9-4109-8795-05229a129ed7"},"vehicle_type_id":"4","last_reported":1769430394,"current_range_meters":6800,"station_id":"ce4bhnh2rcd13ifvqgug","pricing_plan_id":"cebpf4jnsgd1na2vs0mg"},{"bike_id":"37c3f561-4ae3-4405-b9d1-0c2e91fbee87","system_id":"levelo_inurba_marseille","lat":43.28483,"lon":5.48396,"is_reserved":false,"is_disabled":false,"rental_uris":{"android":"levelo://app?vid=37c3f561-4ae3-4405-b9d1-0c2e91fbee87","ios":"levelo://app?vid=37c3f561-4ae3-4405-b9d1-0c2e91fbee87"},"vehicle_type_id":"4","last_reported":1769430394,"current_range_meters":6800,"station_id":"st_d3svhcjqgbts73a3dn0g","pricing_plan_id":"cebpf4jnsgd1na2vs0mg"},{"bike_id":"187b7401-7ad2-4e35-8104-fa0b00246d5a","system_id":"levelo_inurba_marseille","lat":43.26061,"lon":5.394,"is_reserved":false,"is_disabled":false,"rental_uris":{"android":"levelo://app?vid=187b7401-7ad2-4e35-8104-fa0b00246d5a","ios":"levelo://app?vid=187b7401-7ad2-4e35-8104-fa0b00246d5a"},"vehicle_type_id":"4","last_reported":1769430394,"current_range_meters":6800,"station_id":"ce4bhh92rcd13ifvqfj0","pricing_plan_id":"cebpf4jnsgd1na2vs0mg"},{"bike_id":"8232c0dd-a126-495b-8245-f3143261dde3","system_id":"levelo_inurba_marseille","lat":43.31179,"lon":5.38733,"is_reserved":false,"is_disabled":false,"rental_uris":{"android":"levelo://app?vid=8232c0dd-a126-495b-8245-f3143261dde3","ios":"levelo://app?vid=8232c0dd-a126-495b-8245-f3143261dde3"},"vehicle_type_id":"4","last_reported":1769430394,"current_range_meters":6800,"station_id":"ce4bgv12rcd13ifvqcp0","pricing_plan_id":"cebpf4jnsgd1na2vs0mg"},{"bike_id":"ea5f7d70-252d-4e7b-9942-e861ba71ebdc","system_id":"levelo_inurba_marseille","lat":43.29527,"lon":5.37504,"is_reserved":false,"is_disabled":false,"rental_uris":{"android":"levelo://app?vid=ea5f7d70-252d-4e7b-9942-e861ba71ebdc","ios":"levelo://app?vid=ea5f7d70-252d-4e7b-9942-e861ba71ebdc"},"vehicle_type_id":"4","last_reported":1769430394,"current_range_meters":6800,"station_id":"ce4bgkp2rcd13ifvqbmg","pricing_plan_id":"cebpf4jnsgd1na2vs0mg"},{"bike_id":"2a8b0419-72d5-4013-b5eb-55ec16b80639","system_id":"levelo_inurba_marseille","lat":43.29178,"lon":5.37147,"is_reserved":false,"is_disabled":false,"rental_uris":{"android":"levelo://app?vid=2a8b0419-72d5-4013-b5eb-55ec16b80639","ios":"levelo://app?vid=2a8b0419-72d5-4013-b5eb-55ec16b80639"},"vehicle_type_id":"4","last_reported":1769430394,"current_range_meters":6800,"station_id":"ce4bha92rcd13ifvqeh0","pricing_plan_id":"cebpf4jnsgd1na2vs0mg"},{"bike_id":"2d78c52a-e821-423c-8912-3c0fcf451046","system_id":"levelo_inurba_marseille","lat":43.241643,"lon":5.364021,"is_reserved":false,"is_disabled":false,"rental_uris":{"android":"levelo://app?vid=2d78c52a-e821-423c-8912-3c0fcf451046","ios":"levelo://app?vid=2d78c52a-e821-423c-8912-3c0fcf451046"},"vehicle_type_id":"4","last_reported":1769430394,"current_range_meters":6800,"station_id":"cpo36qri1sfpv3e86is0","pricing_plan_id":"cebpf4jnsgd1na2vs0mg"},{"bike_id":"1d64597d-9aab-4864-8716-3d19fa5cdb9d","system_id":"levelo_inurba_marseille","lat":43.29812,"lon":5.44084,"is_reserved":false,"is_disabled":false,"rental_uris":{"android":"levelo://app?vid=1d64597d-9aab-4864-8716-3d19fa5cdb9d","ios":"levelo://app?vid=1d64597d-9aab-4864-8716-3d19fa5cdb9d"},"vehicle_type_id":"4","last_reported":1769430394,"current_range_meters":6800,"station_id":"st_d3jp68qikq2c7381ktn0","pricing_plan_id":"cebpf4jnsgd1na2vs0mg"},{"bike_id":"04ef06c9-7793-4540-acfa-ebefd89cbaa8","system_id":"levelo_inurba_marseille","lat":43.2668,"lon":5.38271,"is_reserved":false,"is_disabled":false,"rental_uris":{"android":"levelo://app?vid=04ef06c9-7793-4540-acfa-ebefd89cbaa8","ios":"levelo://app?vid=04ef06c9-7793-4540-acfa-ebefd89cbaa8"},"vehicle_type_id":"4","last_reported":1769430394,"current_range_meters":6800,"station_id":"ce4bhg92rcd13ifvqf90","pricing_plan_id":"cebpf4jnsgd1na2vs0mg"},{"bike_id":"8f9da522-4132-4e9e-a406-f805a0681f69","system_id":"levelo_inurba_marseille","lat":43.28492,"lon":5.38225,"is_reserved":false,"is_disabled":false,"rental_uris":{"android":"levelo://app?vid=8f9da522-4132-4e9e-a406-f805a0681f69","ios":"levelo://app?vid=8f9da522-4132-4e9e-a406-f805a0681f69"},"vehicle_type_id":"4","last_reported":1769430394,"current_range_meters":6800,"station_id":"","pricing_plan_id":"cebpf4jnsgd1na2vs0mg"},{"bike_id":"9c5ec5ef-02e8-4667-9878-deb9eab9f4d6","system_id":"levelo_inurba_marseille","lat":43.257276,"lon":5.411155,"is_reserved":false,"is_disabled":false,"rental_uris":{"android":"levelo://app?vid=9c5ec5ef-02e8-4667-9878-deb9eab9f4d6","ios":"levelo://app?vid=9c5ec5ef-02e8-4667-9878-deb9eab9f4d6"},"vehicle_type_id":"4","last_reported":1769430394,"current_range_meters":6800,"station_id":"ce4bhkp2rcd13ifvqgd0","pricing_plan_id":"cebpf4jnsgd1na2vs0mg"},{"bike_id":"d63ed78d-eca7-4700-aaa5-48377a2e3e4e","system_id":"levelo_inurba_marseille","lat":43.26375,"lon":5.41074,"is_reserved":false,"is_disabled":false,"rental_uris":{"android":"levelo://app?vid=d63ed78d-eca7-4700-aaa5-48377a2e3e4e","ios":"levelo://app?vid=d63ed78d-eca7-4700-aaa5-48377a2e3e4e"},"vehicle_type_id":"4","last_reported":1769430394,"current_range_meters":6800,"station_id":"st_d4e5ca6na9uc73bfl5fg","pricing_plan_id":"cebpf4jnsgd1na2vs0mg"},{"bike_id":"1d4557f2-9194-433e-908c-7af0a931319a","system_id":"levelo_inurba_marseille","lat":43.25492,"lon":5.37645,"is_reserved":false,"is_disabled":false,"rental_uris":{"android":"levelo://app?vid=1d4557f2-9194-433e-908c-7af0a931319a","ios":"levelo://app?vid=1d4557f2-9194-433e-908c-7af0a931319a"},"vehicle_type_id":"4","last_reported":1769430394,"current_range_meters":7200,"station_id":"ce4bhh12rcd13ifvqff0","pricing_plan_id":"cebpf4jnsgd1na2vs0mg"},{"bike_id":"5e4893e0-7e86-482d-a767-2dc95c5fbe1a","system_id":"levelo_inurba_marseille","lat":43.280866,"lon":5.410728,"is_reserved":false,"is_disabled":false,"rental_uris":{"android":"levelo://app?vid=5e4893e0-7e86-482d-a767-2dc95c5fbe1a","ios":"levelo://app?vid=5e4893e0-7e86-482d-a767-2dc95c5fbe1a"},"vehicle_type_id":"4","last_reported":1769430394,"current_range_meters":7200,"station_id":"","pricing_plan_id":"cebpf4jnsgd1na2vs0mg"},{"bike_id":"6aa3c96a-1fc4-494f-a1dc-4b7100c57c13","system_id":"levelo_inurba_marseille","lat":43.30949,"lon":5.39064,"is_reserved":false,"is_disabled":false,"rental_uris":{"android":"levelo://app?vid=6aa3c96a-1fc4-494f-a1dc-4b7100c57c13","ios":"levelo://app?vid=6aa3c96a-1fc4-494f-a1dc-4b7100c57c13"},"vehicle_type_id":"4","last_reported":1769430394,"current_range_meters":7200,"station_id":"ce4bgup2rcd13ifvqco0","pricing_plan_id":"cebpf4jnsgd1na2vs0mg"},{"bike_id":"8fcc7dfb-9afa-4b40-8aed-c00c1dd819d8","system_id":"levelo_inurba_marseille","lat":43.31108,"lon":5.37826,"is_reserved":false,"is_disabled":false,"rental_uris":{"android":"levelo://app?vid=8fcc7dfb-9afa-4b40-8aed-c00c1dd819d8","ios":"levelo://app?vid=8fcc7dfb-9afa-4b40-8aed-c00c1dd819d8"},"vehicle_type_id":"4","last_reported":1769430394,"current_range_meters":7200,"station_id":"ce4bgt92rcd13ifvqcg0","pricing_plan_id":"cebpf4jnsgd1na2vs0mg"},{"bike_id":"9713f383-b08e-4426-b8eb-983d4865231f","system_id":"levelo_inurba_marseille","lat":43.24397,"lon":5.37081,"is_reserved":false,"is_disabled":false,"rental_uris":{"android":"levelo://app?vid=9713f383-b08e-4426-b8eb-983d4865231f","ios":"levelo://app?vid=9713f383-b08e-4426-b8eb-983d4865231f"},"vehicle_type_id":"4","last_reported":1769430394,"current_range_meters":7200,"station_id":"ce4bhhh2rcd13ifvqfk0","pricing_plan_id":"cebpf4jnsgd1na2vs0mg"},{"bike_id":"67ff9a75-4fe8-45e7-914d-fc416a457597","system_id":"levelo_inurba_marseille","lat":43.32117,"lon":5.3679,"is_reserved":false,"is_disabled":false,"rental_uris":{"android":"levelo://app?vid=67ff9a75-4fe8-45e7-914d-fc416a457597","ios":"levelo://app?vid=67ff9a75-4fe8-45e7-914d-fc416a457597"},"vehicle_type_id":"4","last_reported":1769430394,"current_range_meters":7200,"station_id":"ce4bhrh2rcd13ifvqhug","pricing_plan_id":"cebpf4jnsgd1na2vs0mg"},{"bike_id":"b633e966-5653-4f4f-933b-143a8d470829","system_id":"levelo_inurba_marseille","lat":43.26074,"lon":5.37304,"is_reserved":false,"is_disabled":false,"rental_uris":{"android":"levelo://app?vid=b633e966-5653-4f4f-933b-143a8d470829","ios":"levelo://app?vid=b633e966-5653-4f4f-933b-143a8d470829"},"vehicle_type_id":"4","last_reported":1769430394,"current_range_meters":7200,"station_id":"","pricing_plan_id":"cebpf4jnsgd1na2vs0mg"},{"bike_id":"41a31331-98fe-418f-9f13-cbbdf271d4a7","system_id":"levelo_inurba_marseille","lat":43.29611,"lon":5.37728,"is_reserved":false,"is_disabled":false,"rental_uris":{"android":"levelo://app?vid=41a31331-98fe-418f-9f13-cbbdf271d4a7","ios":"levelo://app?vid=41a31331-98fe-418f-9f13-cbbdf271d4a7"},"vehicle_type_id":"4","last_reported":1769430394,"current_range_meters":7200,"station_id":"ce4bgi92rcd13ifvqb90","pricing_plan_id":"cebpf4jnsgd1na2vs0mg"},{"bike_id":"3ea061e6-3522-4acc-948f-9e8a2f88b026","system_id":"levelo_inurba_marseille","lat":43.23144,"lon":5.43706,"is_reserved":false,"is_disabled":false,"rental_uris":{"android":"levelo://app?vid=3ea061e6-3522-4acc-948f-9e8a2f88b026","ios":"levelo://app?vid=3ea061e6-3522-4acc-948f-9e8a2f88b026"},"vehicle_type_id":"4","last_reported":1769430394,"current_range_meters":7200,"station_id":"ce4bhmp2rcd13ifvqgog","pricing_plan_id":"cebpf4jnsgd1na2vs0mg"},{"bike_id":"2b4c6676-52fa-4525-8586-a0d2e22c77c6","system_id":"levelo_inurba_marseille","lat":43.3255,"lon":5.41439,"is_reserved":false,"is_disabled":false,"rental_uris":{"android":"levelo://app?vid=2b4c6676-52fa-4525-8586-a0d2e22c77c6","ios":"levelo://app?vid=2b4c6676-52fa-4525-8586-a0d2e22c77c6"},"vehicle_type_id":"4","last_reported":1769430394,"current_range_meters":7200,"station_id":"ce4bhq12rcd13ifvqhhg","pricing_plan_id":"cebpf4jnsgd1na2vs0mg"},{"bike_id":"736929a0-d6a8-4f12-8769-fcb0d31195b2","system_id":"levelo_inurba_marseille","lat":43.27852,"lon":5.40377,"is_reserved":false,"is_disabled":false,"rental_uris":{"android":"levelo://app?vid=736929a0-d6a8-4f12-8769-fcb0d31195b2","ios":"levelo://app?vid=736929a0-d6a8-4f12-8769-fcb0d31195b2"},"vehicle_type_id":"4","last_reported":1769430394,"current_range_meters":7200,"station_id":"","pricing_plan_id":"cebpf4jnsgd1na2vs0mg"},{"bike_id":"2ea93c3a-0d0a-472b-b231-85dc213d24b7","system_id":"levelo_inurba_marseille","lat":43.250026,"lon":5.389257,"is_reserved":false,"is_disabled":false,"rental_uris":{"android":"levelo://app?vid=2ea93c3a-0d0a-472b-b231-85dc213d24b7","ios":"levelo://app?vid=2ea93c3a-0d0a-472b-b231-85dc213d24b7"},"vehicle_type_id":"4","last_reported":1769430394,"current_range_meters":7200,"station_id":"ce4bhgp2rcd13ifvqfd0","pricing_plan_id":"cebpf4jnsgd1na2vs0mg"},{"bike_id":"5777293f-b66a-4a6f-8081-966890dd397a","system_id":"levelo_inurba_marseille","lat":43.32104,"lon":5.36791,"is_reserved":false,"is_disabled":false,"rental_uris":{"android":"levelo://app?vid=5777293f-b66a-4a6f-8081-966890dd397a","ios":"levelo://app?vid=5777293f-b66a-4a6f-8081-966890dd397a"},"vehicle_type_id":"4","last_reported":1769430394,"current_range_meters":7200,"station_id":"ce4bhrh2rcd13ifvqhug","pricing_plan_id":"cebpf4jnsgd1na2vs0mg"},{"bike_id":"832c2182-a4a1-4c1d-9220-583caa2e99ef","system_id":"levelo_inurba_marseille","lat":43.24659,"lon":5.38166,"is_reserved":false,"is_disabled":false,"rental_uris":{"android":"levelo://app?vid=832c2182-a4a1-4c1d-9220-583caa2e99ef","ios":"levelo://app?vid=832c2182-a4a1-4c1d-9220-583caa2e99ef"},"vehicle_type_id":"4","last_reported":1769430394,"current_range_meters":7200,"station_id":"ce4bhih2rcd13ifvqfr0","pricing_plan_id":"cebpf4jnsgd1na2vs0mg"},{"bike_id":"e73f1781-62f4-4a23-b153-6815bc29f05e","system_id":"levelo_inurba_marseille","lat":43.29325,"lon":5.41182,"is_reserved":false,"is_disabled":false,"rental_uris":{"android":"levelo://app?vid=e73f1781-62f4-4a23-b153-6815bc29f05e","ios":"levelo://app?vid=e73f1781-62f4-4a23-b153-6815bc29f05e"},"vehicle_type_id":"4","last_reported":1769430394,"current_range_meters":7200,"station_id":"","pricing_plan_id":"cebpf4jnsgd1na2vs0mg"},{"bike_id":"79b6158d-49ea-4914-8da1-643529c2d44f","system_id":"levelo_inurba_marseille","lat":43.24645,"lon":5.38891,"is_reserved":false,"is_disabled":false,"rental_uris":{"android":"levelo://app?vid=79b6158d-49ea-4914-8da1-643529c2d44f","ios":"levelo://app?vid=79b6158d-49ea-4914-8da1-643529c2d44f"},"vehicle_type_id":"4","last_reported":1769430394,"current_range_meters":8000,"station_id":"ce4bhg12rcd13ifvqf60","pricing_plan_id":"cebpf4jnsgd1na2vs0mg"},{"bike_id":"a31c88fe-eab3-4a9e-bb85-de943818a780","system_id":"levelo_inurba_marseille","lat":43.23785,"lon":5.36627,"is_reserved":false,"is_disabled":false,"rental_uris":{"android":"levelo://app?vid=a31c88fe-eab3-4a9e-bb85-de943818a780","ios":"levelo://app?vid=a31c88fe-eab3-4a9e-bb85-de943818a780"},"vehicle_type_id":"4","last_reported":1769430394,"current_range_meters":8000,"station_id":"st_d3nk18o9ro0c73en2l3g","pricing_plan_id":"cebpf4jnsgd1na2vs0mg"},{"bike_id":"93c7ca3c-2e02-4311-a0d1-b461f66e2ced","system_id":"levelo_inurba_marseille","lat":43.314982,"lon":5.373115,"is_reserved":false,"is_disabled":false,"rental_uris":{"android":"levelo://app?vid=93c7ca3c-2e02-4311-a0d1-b461f66e2ced","ios":"levelo://app?vid=93c7ca3c-2e02-4311-a0d1-b461f66e2ced"},"vehicle_type_id":"4","last_reported":1769430394,"current_range_meters":8000,"station_id":"","pricing_plan_id":"cebpf4jnsgd1na2vs0mg"},{"bike_id":"35a7406f-c3d7-4ad8-baa5-77e0b1066dfe","system_id":"levelo_inurba_marseille","lat":43.28129,"lon":5.42657,"is_reserved":false,"is_disabled":false,"rental_uris":{"android":"levelo://app?vid=35a7406f-c3d7-4ad8-baa5-77e0b1066dfe","ios":"levelo://app?vid=35a7406f-c3d7-4ad8-baa5-77e0b1066dfe"},"vehicle_type_id":"4","last_reported":1769430394,"current_range_meters":8000,"station_id":"ce4bhnh2rcd13ifvqgug","pricing_plan_id":"cebpf4jnsgd1na2vs0mg"},{"bike_id":"860d4648-96bb-41c6-990b-e19b394bde4c","system_id":"levelo_inurba_marseille","lat":43.294891,"lon":5.433136,"is_reserved":false,"is_disabled":false,"rental_uris":{"android":"levelo://app?vid=860d4648-96bb-41c6-990b-e19b394bde4c","ios":"levelo://app?vid=860d4648-96bb-41c6-990b-e19b394bde4c"},"vehicle_type_id":"4","last_reported":1769430394,"current_range_meters":8000,"station_id":"st_d3j5ugp08ojc73fj9d10","pricing_plan_id":"cebpf4jnsgd1na2vs0mg"},{"bike_id":"4679b7ac-d3b0-4cea-9632-2d93abf4d812","system_id":"levelo_inurba_marseille","lat":43.30286,"lon":5.392,"is_reserved":false,"is_disabled":true,"rental_uris":{"android":"levelo://app?vid=4679b7ac-d3b0-4cea-9632-2d93abf4d812","ios":"levelo://app?vid=4679b7ac-d3b0-4cea-9632-2d93abf4d812"},"vehicle_type_id":"4","last_reported":1769430394,"current_range_meters":8000,"station_id":"ce4bgkh2rcd13ifvqbk0","pricing_plan_id":"cebpf4jnsgd1na2vs0mg"},{"bike_id":"4300228c-a74d-4d37-940c-46e3542698e2","system_id":"levelo_inurba_marseille","lat":43.252373,"lon":5.406192,"is_reserved":false,"is_disabled":false,"rental_uris":{"android":"levelo://app?vid=4300228c-a74d-4d37-940c-46e3542698e2","ios":"levelo://app?vid=4300228c-a74d-4d37-940c-46e3542698e2"},"vehicle_type_id":"4","last_reported":1769430394,"current_range_meters":8000,"station_id":"ce4bhdp2rcd13ifvqf20","pricing_plan_id":"cebpf4jnsgd1na2vs0mg"},{"bike_id":"aeb4cc61-129c-4f69-a2a4-8c1cdbb3353c","system_id":"levelo_inurba_marseille","lat":43.24071,"lon":5.37764,"is_reserved":false,"is_disabled":false,"rental_uris":{"android":"levelo://app?vid=aeb4cc61-129c-4f69-a2a4-8c1cdbb3353c","ios":"levelo://app?vid=aeb4cc61-129c-4f69-a2a4-8c1cdbb3353c"},"vehicle_type_id":"4","last_reported":1769430394,"current_range_meters":8000,"station_id":"ce4bhnp2rcd13ifvqgvg","pricing_plan_id":"cebpf4jnsgd1na2vs0mg"},{"bike_id":"a85c4dff-4d0e-447f-be35-ab46b7400fe4","system_id":"levelo_inurba_marseille","lat":43.2477,"lon":5.37481,"is_reserved":false,"is_disabled":false,"rental_uris":{"android":"levelo://app?vid=a85c4dff-4d0e-447f-be35-ab46b7400fe4","ios":"levelo://app?vid=a85c4dff-4d0e-447f-be35-ab46b7400fe4"},"vehicle_type_id":"4","last_reported":1769430394,"current_range_meters":8000,"station_id":"ce4bhgh2rcd13ifvqfb0","pricing_plan_id":"cebpf4jnsgd1na2vs0mg"},{"bike_id":"a15856db-9ac7-49b1-8876-30be7c45105f","system_id":"levelo_inurba_marseille","lat":43.24981,"lon":5.38943,"is_reserved":false,"is_disabled":false,"rental_uris":{"android":"levelo://app?vid=a15856db-9ac7-49b1-8876-30be7c45105f","ios":"levelo://app?vid=a15856db-9ac7-49b1-8876-30be7c45105f"},"vehicle_type_id":"4","last_reported":1769430394,"current_range_meters":8000,"station_id":"ce4bhgp2rcd13ifvqfd0","pricing_plan_id":"cebpf4jnsgd1na2vs0mg"},{"bike_id":"03628ce2-f90f-4215-9e8f-4d1a2c153b49","system_id":"levelo_inurba_marseille","lat":43.24567,"lon":5.37322,"is_reserved":false,"is_disabled":false,"rental_uris":{"android":"levelo://app?vid=03628ce2-f90f-4215-9e8f-4d1a2c153b49","ios":"levelo://app?vid=03628ce2-f90f-4215-9e8f-4d1a2c153b49"},"vehicle_type_id":"4","last_reported":1769430394,"current_range_meters":8000,"station_id":"","pricing_plan_id":"cebpf4jnsgd1na2vs0mg"},{"bike_id":"4241e7c1-162d-4ace-a947-4a0587651fef","system_id":"levelo_inurba_marseille","lat":43.31217,"lon":5.36874,"is_reserved":false,"is_disabled":false,"rental_uris":{"android":"levelo://app?vid=4241e7c1-162d-4ace-a947-4a0587651fef","ios":"levelo://app?vid=4241e7c1-162d-4ace-a947-4a0587651fef"},"vehicle_type_id":"4","last_reported":1769430394,"current_range_meters":8000,"station_id":"ce4bgl92rcd13ifvqbq0","pricing_plan_id":"cebpf4jnsgd1na2vs0mg"},{"bike_id":"61f9b512-dfe2-4c6f-b9eb-0a539aacc6ab","system_id":"levelo_inurba_marseille","lat":43.29736,"lon":5.43338,"is_reserved":false,"is_disabled":false,"rental_uris":{"android":"levelo://app?vid=61f9b512-dfe2-4c6f-b9eb-0a539aacc6ab","ios":"levelo://app?vid=61f9b512-dfe2-4c6f-b9eb-0a539aacc6ab"},"vehicle_type_id":"4","last_reported":1769430394,"current_range_meters":8000,"station_id":"ce4bhpp2rcd13ifvqhfg","pricing_plan_id":"cebpf4jnsgd1na2vs0mg"},{"bike_id":"898169fa-29c0-4349-a185-41ab96475b8a","system_id":"levelo_inurba_marseille","lat":43.24999,"lon":5.38913,"is_reserved":false,"is_disabled":false,"rental_uris":{"android":"levelo://app?vid=898169fa-29c0-4349-a185-41ab96475b8a","ios":"levelo://app?vid=898169fa-29c0-4349-a185-41ab96475b8a"},"vehicle_type_id":"4","last_reported":1769430394,"current_range_meters":8000,"station_id":"ce4bhgp2rcd13ifvqfd0","pricing_plan_id":"cebpf4jnsgd1na2vs0mg"},{"bike_id":"824e48f9-4323-4fb0-bb91-58a5b75b7c5f","system_id":"levelo_inurba_marseille","lat":43.28275,"lon":5.37238,"is_reserved":false,"is_disabled":false,"rental_uris":{"android":"levelo://app?vid=824e48f9-4323-4fb0-bb91-58a5b75b7c5f","ios":"levelo://app?vid=824e48f9-4323-4fb0-bb91-58a5b75b7c5f"},"vehicle_type_id":"4","last_reported":1769430394,"current_range_meters":8000,"station_id":"","pricing_plan_id":"cebpf4jnsgd1na2vs0mg"},{"bike_id":"280a13b4-0510-4b91-ba26-ba42712332a8","system_id":"levelo_inurba_marseille","lat":43.2991,"lon":5.37466,"is_reserved":false,"is_disabled":false,"rental_uris":{"android":"levelo://app?vid=280a13b4-0510-4b91-ba26-ba42712332a8","ios":"levelo://app?vid=280a13b4-0510-4b91-ba26-ba42712332a8"},"vehicle_type_id":"4","last_reported":1769430394,"current_range_meters":8000,"station_id":"ce4bgjh2rcd13ifvqbg0","pricing_plan_id":"cebpf4jnsgd1na2vs0mg"},{"bike_id":"ab2d8c62-3d0b-4ed3-aef7-f038decee5ba","system_id":"levelo_inurba_marseille","lat":43.27308,"lon":5.39077,"is_reserved":false,"is_disabled":false,"rental_uris":{"android":"levelo://app?vid=ab2d8c62-3d0b-4ed3-aef7-f038decee5ba","ios":"levelo://app?vid=ab2d8c62-3d0b-4ed3-aef7-f038decee5ba"},"vehicle_type_id":"4","last_reported":1769430394,"current_range_meters":8000,"station_id":"ce4bhgp2rcd13ifvqfe0","pricing_plan_id":"cebpf4jnsgd1na2vs0mg"},{"bike_id":"7f2b44ff-5373-4a2f-a219-c996c841ac14","system_id":"levelo_inurba_marseille","lat":43.24073,"lon":5.37755,"is_reserved":false,"is_disabled":false,"rental_uris":{"android":"levelo://app?vid=7f2b44ff-5373-4a2f-a219-c996c841ac14","ios":"levelo://app?vid=7f2b44ff-5373-4a2f-a219-c996c841ac14"},"vehicle_type_id":"4","last_reported":1769430394,"current_range_meters":8000,"station_id":"ce4bhnp2rcd13ifvqgvg","pricing_plan_id":"cebpf4jnsgd1na2vs0mg"},{"bike_id":"f09c06aa-a05d-4b00-b228-d8bee2b62b4f","system_id":"levelo_inurba_marseille","lat":43.32351,"lon":5.36726,"is_reserved":false,"is_disabled":false,"rental_uris":{"android":"levelo://app?vid=f09c06aa-a05d-4b00-b228-d8bee2b62b4f","ios":"levelo://app?vid=f09c06aa-a05d-4b00-b228-d8bee2b62b4f"},"vehicle_type_id":"4","last_reported":1769430394,"current_range_meters":8400,"station_id":"ce4bhsh2rcd13ifvqi2g","pricing_plan_id":"cebpf4jnsgd1na2vs0mg"},{"bike_id":"156c8bce-3281-45dc-a6f2-9d1a25826506","system_id":"levelo_inurba_marseille","lat":43.23148,"lon":5.43716,"is_reserved":false,"is_disabled":false,"rental_uris":{"android":"levelo://app?vid=156c8bce-3281-45dc-a6f2-9d1a25826506","ios":"levelo://app?vid=156c8bce-3281-45dc-a6f2-9d1a25826506"},"vehicle_type_id":"4","last_reported":1769430394,"current_range_meters":8400,"station_id":"ce4bhmp2rcd13ifvqgog","pricing_plan_id":"cebpf4jnsgd1na2vs0mg"},{"bike_id":"908b886e-cc4b-4226-b372-446a0d3f1b77","system_id":"levelo_inurba_marseille","lat":43.23182,"lon":5.35567,"is_reserved":false,"is_disabled":false,"rental_uris":{"android":"levelo://app?vid=908b886e-cc4b-4226-b372-446a0d3f1b77","ios":"levelo://app?vid=908b886e-cc4b-4226-b372-446a0d3f1b77"},"vehicle_type_id":"4","last_reported":1769430394,"current_range_meters":8400,"station_id":"ce4bhu92rcd13ifvqi70","pricing_plan_id":"cebpf4jnsgd1na2vs0mg"},{"bike_id":"c33116af-6475-4731-8424-4d7e5005cbf0","system_id":"levelo_inurba_marseille","lat":43.30555,"lon":5.36706,"is_reserved":false,"is_disabled":false,"rental_uris":{"android":"levelo://app?vid=c33116af-6475-4731-8424-4d7e5005cbf0","ios":"levelo://app?vid=c33116af-6475-4731-8424-4d7e5005cbf0"},"vehicle_type_id":"4","last_reported":1769430394,"current_range_meters":8400,"station_id":"ce4bgrp2rcd13ifvqc9g","pricing_plan_id":"cebpf4jnsgd1na2vs0mg"},{"bike_id":"5b91b93d-b3ae-4751-8498-b1dabc506a1f","system_id":"levelo_inurba_marseille","lat":43.24467,"lon":5.42534,"is_reserved":false,"is_disabled":false,"rental_uris":{"android":"levelo://app?vid=5b91b93d-b3ae-4751-8498-b1dabc506a1f","ios":"levelo://app?vid=5b91b93d-b3ae-4751-8498-b1dabc506a1f"},"vehicle_type_id":"4","last_reported":1769430394,"current_range_meters":8400,"station_id":"st_d4a3vfp97mjs738cd8kg","pricing_plan_id":"cebpf4jnsgd1na2vs0mg"},{"bike_id":"bda8d170-c411-43f2-99e3-22f10d72b0e6","system_id":"levelo_inurba_marseille","lat":43.23147,"lon":5.43723,"is_reserved":false,"is_disabled":false,"rental_uris":{"android":"levelo://app?vid=bda8d170-c411-43f2-99e3-22f10d72b0e6","ios":"levelo://app?vid=bda8d170-c411-43f2-99e3-22f10d72b0e6"},"vehicle_type_id":"4","last_reported":1769430394,"current_range_meters":8400,"station_id":"ce4bhmp2rcd13ifvqgog","pricing_plan_id":"cebpf4jnsgd1na2vs0mg"},{"bike_id":"4c5e84a3-878b-4e80-a848-d4891b4199bc","system_id":"levelo_inurba_marseille","lat":43.32351,"lon":5.36732,"is_reserved":false,"is_disabled":false,"rental_uris":{"android":"levelo://app?vid=4c5e84a3-878b-4e80-a848-d4891b4199bc","ios":"levelo://app?vid=4c5e84a3-878b-4e80-a848-d4891b4199bc"},"vehicle_type_id":"4","last_reported":1769430394,"current_range_meters":8400,"station_id":"ce4bhsh2rcd13ifvqi2g","pricing_plan_id":"cebpf4jnsgd1na2vs0mg"},{"bike_id":"d0d3dda1-eafb-40d7-b14b-46599c7ec30d","system_id":"levelo_inurba_marseille","lat":43.30914,"lon":5.36848,"is_reserved":false,"is_disabled":false,"rental_uris":{"android":"levelo://app?vid=d0d3dda1-eafb-40d7-b14b-46599c7ec30d","ios":"levelo://app?vid=d0d3dda1-eafb-40d7-b14b-46599c7ec30d"},"vehicle_type_id":"4","last_reported":1769430394,"current_range_meters":8400,"station_id":"ce4bgn92rcd13ifvqbvg","pricing_plan_id":"cebpf4jnsgd1na2vs0mg"},{"bike_id":"d71141cf-6b2b-4705-95de-e5efad96fdab","system_id":"levelo_inurba_marseille","lat":43.246246,"lon":5.431526,"is_reserved":false,"is_disabled":false,"rental_uris":{"android":"levelo://app?vid=d71141cf-6b2b-4705-95de-e5efad96fdab","ios":"levelo://app?vid=d71141cf-6b2b-4705-95de-e5efad96fdab"},"vehicle_type_id":"4","last_reported":1769430394,"current_range_meters":8400,"station_id":"st_d2m6c4gdas8pm72e190g","pricing_plan_id":"cebpf4jnsgd1na2vs0mg"},{"bike_id":"b121c686-9d39-4f84-8675-9267b6ca00f8","system_id":"levelo_inurba_marseille","lat":43.29574,"lon":5.37522,"is_reserved":false,"is_disabled":false,"rental_uris":{"android":"levelo://app?vid=b121c686-9d39-4f84-8675-9267b6ca00f8","ios":"levelo://app?vid=b121c686-9d39-4f84-8675-9267b6ca00f8"},"vehicle_type_id":"4","last_reported":1769430394,"current_range_meters":8400,"station_id":"ce4bgh92rcd13ifvqb50","pricing_plan_id":"cebpf4jnsgd1na2vs0mg"},{"bike_id":"8e72e550-ce43-4896-aad1-caf370cdb81b","system_id":"levelo_inurba_marseille","lat":43.28156,"lon":5.42642,"is_reserved":false,"is_disabled":false,"rental_uris":{"android":"levelo://app?vid=8e72e550-ce43-4896-aad1-caf370cdb81b","ios":"levelo://app?vid=8e72e550-ce43-4896-aad1-caf370cdb81b"},"vehicle_type_id":"4","last_reported":1769430394,"current_range_meters":8400,"station_id":"ce4bhnh2rcd13ifvqgug","pricing_plan_id":"cebpf4jnsgd1na2vs0mg"},{"bike_id":"cb8cde94-651e-4099-b2de-f4490841b080","system_id":"levelo_inurba_marseille","lat":43.24169,"lon":5.36392,"is_reserved":false,"is_disabled":false,"rental_uris":{"android":"levelo://app?vid=cb8cde94-651e-4099-b2de-f4490841b080","ios":"levelo://app?vid=cb8cde94-651e-4099-b2de-f4490841b080"},"vehicle_type_id":"4","last_reported":1769430394,"current_range_meters":8400,"station_id":"cpo36qri1sfpv3e86is0","pricing_plan_id":"cebpf4jnsgd1na2vs0mg"},{"bike_id":"46d2cb54-3229-4350-a468-d87c2ae22e65","system_id":"levelo_inurba_marseille","lat":43.27491,"lon":5.42453,"is_reserved":false,"is_disabled":false,"rental_uris":{"android":"levelo://app?vid=46d2cb54-3229-4350-a468-d87c2ae22e65","ios":"levelo://app?vid=46d2cb54-3229-4350-a468-d87c2ae22e65"},"vehicle_type_id":"4","last_reported":1769430394,"current_range_meters":8400,"station_id":"ce4bhn92rcd13ifvqgrg","pricing_plan_id":"cebpf4jnsgd1na2vs0mg"},{"bike_id":"c060f6fe-9c22-4601-a3d6-b324dc7e883d","system_id":"levelo_inurba_marseille","lat":43.22927,"lon":5.3538,"is_reserved":false,"is_disabled":false,"rental_uris":{"android":"levelo://app?vid=c060f6fe-9c22-4601-a3d6-b324dc7e883d","ios":"levelo://app?vid=c060f6fe-9c22-4601-a3d6-b324dc7e883d"},"vehicle_type_id":"4","last_reported":1769430394,"current_range_meters":8400,"station_id":"cpo3532slgdg3j2ikp40","pricing_plan_id":"cebpf4jnsgd1na2vs0mg"},{"bike_id":"942cf772-799e-4446-93c7-7868c7549133","system_id":"levelo_inurba_marseille","lat":43.29603,"lon":5.37736,"is_reserved":false,"is_disabled":false,"rental_uris":{"android":"levelo://app?vid=942cf772-799e-4446-93c7-7868c7549133","ios":"levelo://app?vid=942cf772-799e-4446-93c7-7868c7549133"},"vehicle_type_id":"4","last_reported":1769430394,"current_range_meters":8400,"station_id":"ce4bgi92rcd13ifvqb90","pricing_plan_id":"cebpf4jnsgd1na2vs0mg"},{"bike_id":"597397a1-5b1f-4f24-a04b-b54cf965448b","system_id":"levelo_inurba_marseille","lat":43.31201,"lon":5.36852,"is_reserved":false,"is_disabled":false,"rental_uris":{"android":"levelo://app?vid=597397a1-5b1f-4f24-a04b-b54cf965448b","ios":"levelo://app?vid=597397a1-5b1f-4f24-a04b-b54cf965448b"},"vehicle_type_id":"4","last_reported":1769430394,"current_range_meters":8400,"station_id":"ce4bgl92rcd13ifvqbq0","pricing_plan_id":"cebpf4jnsgd1na2vs0mg"},{"bike_id":"5c18bca9-46cd-42a4-bd07-ba7493ce75f5","system_id":"levelo_inurba_marseille","lat":43.24635,"lon":5.43152,"is_reserved":false,"is_disabled":false,"rental_uris":{"android":"levelo://app?vid=5c18bca9-46cd-42a4-bd07-ba7493ce75f5","ios":"levelo://app?vid=5c18bca9-46cd-42a4-bd07-ba7493ce75f5"},"vehicle_type_id":"4","last_reported":1769430394,"current_range_meters":8400,"station_id":"st_d2m6c4gdas8pm72e190g","pricing_plan_id":"cebpf4jnsgd1na2vs0mg"},{"bike_id":"69e8ab72-b60f-42ef-a1ee-ece4ac39b592","system_id":"levelo_inurba_marseille","lat":43.2594,"lon":5.40912,"is_reserved":false,"is_disabled":false,"rental_uris":{"android":"levelo://app?vid=69e8ab72-b60f-42ef-a1ee-ece4ac39b592","ios":"levelo://app?vid=69e8ab72-b60f-42ef-a1ee-ece4ac39b592"},"vehicle_type_id":"4","last_reported":1769430394,"current_range_meters":8800,"station_id":"ce4bhm92rcd13ifvqglg","pricing_plan_id":"cebpf4jnsgd1na2vs0mg"},{"bike_id":"7790f82d-ca0a-48ef-8fa5-9c975569059a","system_id":"levelo_inurba_marseille","lat":43.23792,"lon":5.36635,"is_reserved":false,"is_disabled":false,"rental_uris":{"android":"levelo://app?vid=7790f82d-ca0a-48ef-8fa5-9c975569059a","ios":"levelo://app?vid=7790f82d-ca0a-48ef-8fa5-9c975569059a"},"vehicle_type_id":"4","last_reported":1769430394,"current_range_meters":8800,"station_id":"st_d3nk18o9ro0c73en2l3g","pricing_plan_id":"cebpf4jnsgd1na2vs0mg"},{"bike_id":"0bd3fd33-ca42-4b1b-b0cd-6ec4b1ecd569","system_id":"levelo_inurba_marseille","lat":43.32592,"lon":5.37865,"is_reserved":false,"is_disabled":false,"rental_uris":{"android":"levelo://app?vid=0bd3fd33-ca42-4b1b-b0cd-6ec4b1ecd569","ios":"levelo://app?vid=0bd3fd33-ca42-4b1b-b0cd-6ec4b1ecd569"},"vehicle_type_id":"4","last_reported":1769430394,"current_range_meters":8800,"station_id":"","pricing_plan_id":"cebpf4jnsgd1na2vs0mg"},{"bike_id":"28820609-d4f9-4f12-ae32-2cb1905ac29b","system_id":"levelo_inurba_marseille","lat":43.24387,"lon":5.37054,"is_reserved":false,"is_disabled":false,"rental_uris":{"android":"levelo://app?vid=28820609-d4f9-4f12-ae32-2cb1905ac29b","ios":"levelo://app?vid=28820609-d4f9-4f12-ae32-2cb1905ac29b"},"vehicle_type_id":"4","last_reported":1769430394,"current_range_meters":8800,"station_id":"ce4bhhh2rcd13ifvqfk0","pricing_plan_id":"cebpf4jnsgd1na2vs0mg"},{"bike_id":"a57ac1b9-36db-4721-8a5f-8013a4daf2e4","system_id":"levelo_inurba_marseille","lat":43.285314,"lon":5.441032,"is_reserved":false,"is_disabled":false,"rental_uris":{"android":"levelo://app?vid=a57ac1b9-36db-4721-8a5f-8013a4daf2e4","ios":"levelo://app?vid=a57ac1b9-36db-4721-8a5f-8013a4daf2e4"},"vehicle_type_id":"4","last_reported":1769430394,"current_range_meters":8800,"station_id":"st_d3j3df2ikq2c7380ej80","pricing_plan_id":"cebpf4jnsgd1na2vs0mg"},{"bike_id":"7bd6d805-b68f-46a2-8696-18247a4b8c1e","system_id":"levelo_inurba_marseille","lat":43.32362,"lon":5.3675,"is_reserved":false,"is_disabled":false,"rental_uris":{"android":"levelo://app?vid=7bd6d805-b68f-46a2-8696-18247a4b8c1e","ios":"levelo://app?vid=7bd6d805-b68f-46a2-8696-18247a4b8c1e"},"vehicle_type_id":"4","last_reported":1769430394,"current_range_meters":8800,"station_id":"ce4bhsh2rcd13ifvqi2g","pricing_plan_id":"cebpf4jnsgd1na2vs0mg"},{"bike_id":"62689e11-30b2-4cf7-a0a0-b39283952b26","system_id":"levelo_inurba_marseille","lat":43.244678,"lon":5.425355,"is_reserved":false,"is_disabled":false,"rental_uris":{"android":"levelo://app?vid=62689e11-30b2-4cf7-a0a0-b39283952b26","ios":"levelo://app?vid=62689e11-30b2-4cf7-a0a0-b39283952b26"},"vehicle_type_id":"4","last_reported":1769430394,"current_range_meters":8800,"station_id":"st_d4a3vfp97mjs738cd8kg","pricing_plan_id":"cebpf4jnsgd1na2vs0mg"},{"bike_id":"c12b1cb8-7a6b-4288-a3c0-935481d86450","system_id":"levelo_inurba_marseille","lat":43.32473,"lon":5.36593,"is_reserved":false,"is_disabled":false,"rental_uris":{"android":"levelo://app?vid=c12b1cb8-7a6b-4288-a3c0-935481d86450","ios":"levelo://app?vid=c12b1cb8-7a6b-4288-a3c0-935481d86450"},"vehicle_type_id":"4","last_reported":1769430394,"current_range_meters":8800,"station_id":"ce4bhs12rcd13ifvqhvg","pricing_plan_id":"cebpf4jnsgd1na2vs0mg"},{"bike_id":"5be68105-477a-4926-9923-7b5ffbb88956","system_id":"levelo_inurba_marseille","lat":43.28533,"lon":5.44112,"is_reserved":false,"is_disabled":false,"rental_uris":{"android":"levelo://app?vid=5be68105-477a-4926-9923-7b5ffbb88956","ios":"levelo://app?vid=5be68105-477a-4926-9923-7b5ffbb88956"},"vehicle_type_id":"4","last_reported":1769430394,"current_range_meters":8800,"station_id":"st_d3j3df2ikq2c7380ej80","pricing_plan_id":"cebpf4jnsgd1na2vs0mg"},{"bike_id":"87b293e5-58a4-49e9-94f1-7e73bf5e1554","system_id":"levelo_inurba_marseille","lat":43.28881,"lon":5.42518,"is_reserved":false,"is_disabled":false,"rental_uris":{"android":"levelo://app?vid=87b293e5-58a4-49e9-94f1-7e73bf5e1554","ios":"levelo://app?vid=87b293e5-58a4-49e9-94f1-7e73bf5e1554"},"vehicle_type_id":"4","last_reported":1769430394,"current_range_meters":8800,"station_id":"st_d3b462108ojc7389ooeg","pricing_plan_id":"cebpf4jnsgd1na2vs0mg"},{"bike_id":"9a02ee5e-f086-46d3-95c8-9b8c901fe2f7","system_id":"levelo_inurba_marseille","lat":43.26782,"lon":5.39427,"is_reserved":false,"is_disabled":false,"rental_uris":{"android":"levelo://app?vid=9a02ee5e-f086-46d3-95c8-9b8c901fe2f7","ios":"levelo://app?vid=9a02ee5e-f086-46d3-95c8-9b8c901fe2f7"},"vehicle_type_id":"4","last_reported":1769430394,"current_range_meters":8800,"station_id":"ce4bhh12rcd13ifvqfg0","pricing_plan_id":"cebpf4jnsgd1na2vs0mg"},{"bike_id":"f8281e05-07b1-44c4-9c87-a1ebb177c98f","system_id":"levelo_inurba_marseille","lat":43.26932,"lon":5.38641,"is_reserved":false,"is_disabled":false,"rental_uris":{"android":"levelo://app?vid=f8281e05-07b1-44c4-9c87-a1ebb177c98f","ios":"levelo://app?vid=f8281e05-07b1-44c4-9c87-a1ebb177c98f"},"vehicle_type_id":"4","last_reported":1769430394,"current_range_meters":9200,"station_id":"ce4bhh92rcd13ifvqfh0","pricing_plan_id":"cebpf4jnsgd1na2vs0mg"},{"bike_id":"539af392-7350-492a-86ff-031e626096d7","system_id":"levelo_inurba_marseille","lat":43.32349,"lon":5.36739,"is_reserved":false,"is_disabled":false,"rental_uris":{"android":"levelo://app?vid=539af392-7350-492a-86ff-031e626096d7","ios":"levelo://app?vid=539af392-7350-492a-86ff-031e626096d7"},"vehicle_type_id":"4","last_reported":1769430394,"current_range_meters":9200,"station_id":"ce4bhsh2rcd13ifvqi2g","pricing_plan_id":"cebpf4jnsgd1na2vs0mg"},{"bike_id":"22b57ffe-6432-4cb1-bb4b-adaef906b37f","system_id":"levelo_inurba_marseille","lat":43.32447,"lon":5.36588,"is_reserved":false,"is_disabled":false,"rental_uris":{"android":"levelo://app?vid=22b57ffe-6432-4cb1-bb4b-adaef906b37f","ios":"levelo://app?vid=22b57ffe-6432-4cb1-bb4b-adaef906b37f"},"vehicle_type_id":"4","last_reported":1769430394,"current_range_meters":9200,"station_id":"ce4bhs12rcd13ifvqhvg","pricing_plan_id":"cebpf4jnsgd1na2vs0mg"},{"bike_id":"97d1eda0-a9af-4c4a-9c8b-3b1301d74ec8","system_id":"levelo_inurba_marseille","lat":43.22942,"lon":5.35366,"is_reserved":false,"is_disabled":false,"rental_uris":{"android":"levelo://app?vid=97d1eda0-a9af-4c4a-9c8b-3b1301d74ec8","ios":"levelo://app?vid=97d1eda0-a9af-4c4a-9c8b-3b1301d74ec8"},"vehicle_type_id":"4","last_reported":1769430394,"current_range_meters":9200,"station_id":"cpo3532slgdg3j2ikp40","pricing_plan_id":"cebpf4jnsgd1na2vs0mg"},{"bike_id":"2f25cf4b-4b81-4cfb-b445-5c60bc963b23","system_id":"levelo_inurba_marseille","lat":43.24996,"lon":5.38941,"is_reserved":false,"is_disabled":false,"rental_uris":{"android":"levelo://app?vid=2f25cf4b-4b81-4cfb-b445-5c60bc963b23","ios":"levelo://app?vid=2f25cf4b-4b81-4cfb-b445-5c60bc963b23"},"vehicle_type_id":"4","last_reported":1769430394,"current_range_meters":9200,"station_id":"ce4bhgp2rcd13ifvqfd0","pricing_plan_id":"cebpf4jnsgd1na2vs0mg"},{"bike_id":"aaf68de7-a8ba-4f2c-b543-643a8694a695","system_id":"levelo_inurba_marseille","lat":43.248143,"lon":5.374519,"is_reserved":false,"is_disabled":false,"rental_uris":{"android":"levelo://app?vid=aaf68de7-a8ba-4f2c-b543-643a8694a695","ios":"levelo://app?vid=aaf68de7-a8ba-4f2c-b543-643a8694a695"},"vehicle_type_id":"4","last_reported":1769430394,"current_range_meters":9200,"station_id":"ce4bhgh2rcd13ifvqfb0","pricing_plan_id":"cebpf4jnsgd1na2vs0mg"},{"bike_id":"4f438dad-01fc-4a34-afef-9521fac04b4f","system_id":"levelo_inurba_marseille","lat":43.323455,"lon":5.367407,"is_reserved":false,"is_disabled":false,"rental_uris":{"android":"levelo://app?vid=4f438dad-01fc-4a34-afef-9521fac04b4f","ios":"levelo://app?vid=4f438dad-01fc-4a34-afef-9521fac04b4f"},"vehicle_type_id":"4","last_reported":1769430394,"current_range_meters":9200,"station_id":"ce4bhsh2rcd13ifvqi2g","pricing_plan_id":"cebpf4jnsgd1na2vs0mg"},{"bike_id":"f90a7cba-5743-45de-a991-86993c3511a7","system_id":"levelo_inurba_marseille","lat":43.32351,"lon":5.36735,"is_reserved":false,"is_disabled":false,"rental_uris":{"android":"levelo://app?vid=f90a7cba-5743-45de-a991-86993c3511a7","ios":"levelo://app?vid=f90a7cba-5743-45de-a991-86993c3511a7"},"vehicle_type_id":"4","last_reported":1769430394,"current_range_meters":9200,"station_id":"","pricing_plan_id":"cebpf4jnsgd1na2vs0mg"},{"bike_id":"628d1d29-948b-4815-bc3f-a0ef2ac1c781","system_id":"levelo_inurba_marseille","lat":43.24168,"lon":5.3639,"is_reserved":false,"is_disabled":false,"rental_uris":{"android":"levelo://app?vid=628d1d29-948b-4815-bc3f-a0ef2ac1c781","ios":"levelo://app?vid=628d1d29-948b-4815-bc3f-a0ef2ac1c781"},"vehicle_type_id":"4","last_reported":1769430394,"current_range_meters":9200,"station_id":"cpo36qri1sfpv3e86is0","pricing_plan_id":"cebpf4jnsgd1na2vs0mg"},{"bike_id":"0f0c85ff-5cab-4b8e-bbdb-c79698d74b23","system_id":"levelo_inurba_marseille","lat":43.275057,"lon":5.42472,"is_reserved":false,"is_disabled":false,"rental_uris":{"android":"levelo://app?vid=0f0c85ff-5cab-4b8e-bbdb-c79698d74b23","ios":"levelo://app?vid=0f0c85ff-5cab-4b8e-bbdb-c79698d74b23"},"vehicle_type_id":"4","last_reported":1769430394,"current_range_meters":9200,"station_id":"ce4bhn92rcd13ifvqgrg","pricing_plan_id":"cebpf4jnsgd1na2vs0mg"},{"bike_id":"15ffb544-9cf9-4c83-98f5-22f43ecc1d4c","system_id":"levelo_inurba_marseille","lat":43.30834,"lon":5.40473,"is_reserved":false,"is_disabled":false,"rental_uris":{"android":"levelo://app?vid=15ffb544-9cf9-4c83-98f5-22f43ecc1d4c","ios":"levelo://app?vid=15ffb544-9cf9-4c83-98f5-22f43ecc1d4c"},"vehicle_type_id":"4","last_reported":1769430394,"current_range_meters":9200,"station_id":"","pricing_plan_id":"cebpf4jnsgd1na2vs0mg"},{"bike_id":"74975ee5-cc21-4f8d-8ef0-3c4b42557576","system_id":"levelo_inurba_marseille","lat":43.32106,"lon":5.36767,"is_reserved":false,"is_disabled":false,"rental_uris":{"android":"levelo://app?vid=74975ee5-cc21-4f8d-8ef0-3c4b42557576","ios":"levelo://app?vid=74975ee5-cc21-4f8d-8ef0-3c4b42557576"},"vehicle_type_id":"4","last_reported":1769430394,"current_range_meters":9200,"station_id":"ce4bhrh2rcd13ifvqhug","pricing_plan_id":"cebpf4jnsgd1na2vs0mg"},{"bike_id":"8d44fa9f-abea-4043-bcef-d17417c9f4ed","system_id":"levelo_inurba_marseille","lat":43.25836,"lon":5.39452,"is_reserved":false,"is_disabled":false,"rental_uris":{"android":"levelo://app?vid=8d44fa9f-abea-4043-bcef-d17417c9f4ed","ios":"levelo://app?vid=8d44fa9f-abea-4043-bcef-d17417c9f4ed"},"vehicle_type_id":"4","last_reported":1769430394,"current_range_meters":9200,"station_id":"ce4bhip2rcd13ifvqft0","pricing_plan_id":"cebpf4jnsgd1na2vs0mg"},{"bike_id":"1e6ae573-7b0d-4ca7-8d21-23950df7df4a","system_id":"levelo_inurba_marseille","lat":43.2855,"lon":5.44121,"is_reserved":false,"is_disabled":false,"rental_uris":{"android":"levelo://app?vid=1e6ae573-7b0d-4ca7-8d21-23950df7df4a","ios":"levelo://app?vid=1e6ae573-7b0d-4ca7-8d21-23950df7df4a"},"vehicle_type_id":"4","last_reported":1769430394,"current_range_meters":9200,"station_id":"st_d3j3df2ikq2c7380ej80","pricing_plan_id":"cebpf4jnsgd1na2vs0mg"},{"bike_id":"8e971605-af61-4d48-85f8-3e4a70e20a4f","system_id":"levelo_inurba_marseille","lat":43.249853,"lon":5.389082,"is_reserved":false,"is_disabled":false,"rental_uris":{"android":"levelo://app?vid=8e971605-af61-4d48-85f8-3e4a70e20a4f","ios":"levelo://app?vid=8e971605-af61-4d48-85f8-3e4a70e20a4f"},"vehicle_type_id":"4","last_reported":1769430394,"current_range_meters":9200,"station_id":"ce4bhgp2rcd13ifvqfd0","pricing_plan_id":"cebpf4jnsgd1na2vs0mg"},{"bike_id":"7d844f08-21e4-4f58-a965-11819cb92420","system_id":"levelo_inurba_marseille","lat":43.26765,"lon":5.39423,"is_reserved":false,"is_disabled":false,"rental_uris":{"android":"levelo://app?vid=7d844f08-21e4-4f58-a965-11819cb92420","ios":"levelo://app?vid=7d844f08-21e4-4f58-a965-11819cb92420"},"vehicle_type_id":"4","last_reported":1769430394,"current_range_meters":9200,"station_id":"ce4bhh12rcd13ifvqfg0","pricing_plan_id":"cebpf4jnsgd1na2vs0mg"},{"bike_id":"2abdbc45-a66e-4faf-971c-b57d8f806d8d","system_id":"levelo_inurba_marseille","lat":43.28478,"lon":5.48398,"is_reserved":false,"is_disabled":false,"rental_uris":{"android":"levelo://app?vid=2abdbc45-a66e-4faf-971c-b57d8f806d8d","ios":"levelo://app?vid=2abdbc45-a66e-4faf-971c-b57d8f806d8d"},"vehicle_type_id":"4","last_reported":1769430394,"current_range_meters":9200,"station_id":"st_d3svhcjqgbts73a3dn0g","pricing_plan_id":"cebpf4jnsgd1na2vs0mg"},