{"last_updated":1727021367,"ttl":30,"version":"2.2","data":{"bikes":[{"bike_id":"fd84f170-c075-4570-a556-c5e617e29406","system_id":"levelo_inurba_marseille","lat":43.28331,"lon":5.40878,"is_reserved":false,"is_disabled":false,"rental_uris":{"android":"levelo://app?vid=fd84f170-c075-4570-a556-c5e617e29406","ios":"levelo://app?vid=fd84f170-c075-4570-a556-c5e617e29406"},"vehicle_type_id":"4","last_reported":1727021367,"current_range_meters":18000,"station_id":"","pricing_plan_id":"cebpf4jnsgd1na2vs0mg"},{"bike_id":"acfe6750-da9a-4d87-b6ea-a7a74c72e343","system_id":"levelo_inurba_marseille","lat":43.23177,"lon":5.35567,"is_reserved":false,"is_disabled":false,"rental_uris":{"android":"levelo://app?vid=acfe6750-da9a-4d87-b6ea-a7a74c72e343","ios":"levelo://app?vid=acfe6750-da9a-4d87-b6ea-a7a74c72e343"},"vehicle_type_id":"4","last_reported":1727021367,"current_range_meters":38800,"station_id":"ce4bhu92rcd13ifvqi70","pricing_plan_id":"cebpf4jnsgd1na2vs0mg"},{"bike_id":"cc37a799-320a-48da-8035-f6cf26ede673","system_id":"levelo_inurba_marseille","lat":43.33725,"lon":5.39191,"is_reserved":false,"is_disabled":false,"rental_uris":{"android":"levelo://app?vid=cc37a799-320a-48da-8035-f6cf26ede673","ios":"levelo://app?vid=cc37a799-320a-48da-8035-f6cf26ede673"},"vehicle_type_id":"4","last_reported":1727021367,"current_range_meters":16000,"station_id":"ce4bhr92rcd13ifvqhsg","pricing_plan_id":"cebpf4jnsgd1na2vs0mg"},{"bike_id":"47bbb1aa-3f75-41c1-8022-9f9128dfa52d","system_id":"levelo_inurba_marseille","lat":43.298462,"lon":5.362789,"is_reserved":false,"is_disabled":false,"rental_uris":{"android":"levelo://app?vid=47bbb1aa-3f75-41c1-8022-9f9128dfa52d","ios":"levelo://app?vid=47bbb1aa-3f75-41c1-8022-9f9128dfa52d"},"vehicle_type_id":"4","last_reported":1727021367,"current_range_meters":22400,"station_id":"ce4bgjh2rcd13ifvqbf0","pricing_plan_id":"cebpf4jnsgd1na2vs0mg"},{"bike_id":"c604313a-a9d7-49cc-b38b-d0010159cea5","system_id":"levelo_inurba_marseille","lat":43.32483,"lon":5.36564,"is_reserved":false,"is_disabled":false,"rental_uris":{"android":"levelo://app?vid=c604313a-a9d7-49cc-b38b-d0010159cea5","ios":"levelo://app?vid=c604313a-a9d7-49cc-b38b-d0010159cea5"},"vehicle_type_id":"4","last_reported":1727021367,"current_range_meters":20000,"station_id":"ce4bhs12rcd13ifvqhvg","pricing_plan_id":"cebpf4jnsgd1na2vs0mg"},{"bike_id":"a07e6781-a891-4336-a6dc-5404aeb4a206","system_id":"levelo_inurba_marseille","lat":43.31756,"lon":5.37784,"is_reserved":false,"is_disabled":false,"rental_uris":{"android":"levelo://app?vid=a07e6781-a891-4336-a6dc-5404aeb4a206","ios":"levelo://app?vid=a07e6781-a891-4336-a6dc-5404aeb4a206"},"vehicle_type_id":"4","last_reported":1727021367,"current_range_meters":18000,"station_id":"ce4bgt12rcd13ifvqcd0","pricing_plan_id":"cebpf4jnsgd1na2vs0mg"},{"bike_id":"2375269c-1ee0-4177-a574-bcc26e16eb27","system_id":"levelo_inurba_marseille","lat":43.31712,"lon":5.43704,"is_reserved":false,"is_disabled":false,"rental_uris":{"android":"levelo://app?vid=2375269c-1ee0-4177-a574-bcc26e16eb27","ios":"levelo://app?vid=2375269c-1ee0-4177-a574-bcc26e16eb27"},"vehicle_type_id":"4","last_reported":1727021367,"current_range_meters":20000,"station_id":"ce4bhp92rcd13ifvqhcg","pricing_plan_id":"cebpf4jnsgd1na2vs0mg"},{"bike_id":"fbaf3268-f2cb-4b30-8e23-ffdeda33ca51","system_id":"levelo_inurba_marseille","lat":43.2431,"lon":5.37977,"is_reserved":false,"is_disabled":false,"rental_uris":{"android":"levelo://app?vid=fbaf3268-f2cb-4b30-8e23-ffdeda33ca51","ios":"levelo://app?vid=fbaf3268-f2cb-4b30-8e23-ffdeda33ca51"},"vehicle_type_id":"4","last_reported":1727021367,"current_range_meters":19600,"station_id":"","pricing_plan_id":"cebpf4jnsgd1na2vs0mg"},{"bike_id":"a03acb34-1e00-42a0-aab5-fa60a79e94dc","system_id":"levelo_inurba_marseille","lat":43.31237,"lon":5.36851,"is_reserved":false,"is_disabled":false,"rental_uris":{"android":"levelo://app?vid=a03acb34-1e00-42a0-aab5-fa60a79e94dc","ios":"levelo://app?vid=a03acb34-1e00-42a0-aab5-fa60a79e94dc"},"vehicle_type_id":"4","last_reported":1727021367,"current_range_meters":28000,"station_id":"ce4bgl92rcd13ifvqbq0","pricing_plan_id":"cebpf4jnsgd1na2vs0mg"},{"bike_id":"b346abec-816c-4434-833a-8a95f7697857","system_id":"levelo_inurba_marseille","lat":43.290968,"lon":5.381417,"is_reserved":false,"is_disabled":false,"rental_uris":{"android":"levelo://app?vid=b346abec-816c-4434-833a-8a95f7697857","ios":"levelo://app?vid=b346abec-816c-4434-833a-8a95f7697857"},"vehicle_type_id":"4","last_reported":1727021367,"current_range_meters":18000,"station_id":"ce4bh512rcd13ifvqe2g","pricing_plan_id":"cebpf4jnsgd1na2vs0mg"},{"bike_id":"d7a97809-3504-4e48-a63d-f28926502834","system_id":"levelo_inurba_marseille","lat":43.25499,"lon":5.37649,"is_reserved":false,"is_disabled":false,"rental_uris":{"android":"levelo://app?vid=d7a97809-3504-4e48-a63d-f28926502834","ios":"levelo://app?vid=d7a97809-3504-4e48-a63d-f28926502834"},"vehicle_type_id":"4","last_reported":1727021367,"current_range_meters":16800,"station_id":"ce4bhh12rcd13ifvqff0","pricing_plan_id":"cebpf4jnsgd1na2vs0mg"},{"bike_id":"cefdc867-194c-4916-9afc-946113537434","system_id":"levelo_inurba_marseille","lat":43.31231,"lon":5.36843,"is_reserved":false,"is_disabled":false,"rental_uris":{"android":"levelo://app?vid=cefdc867-194c-4916-9afc-946113537434","ios":"levelo://app?vid=cefdc867-194c-4916-9afc-946113537434"},"vehicle_type_id":"4","last_reported":1727021367,"current_range_meters":8400,"station_id":"ce4bgl92rcd13ifvqbq0","pricing_plan_id":"cebpf4jnsgd1na2vs0mg"},{"bike_id":"20a042f1-81aa-4cde-8548-4f002e395336","system_id":"levelo_inurba_marseille","lat":43.30177,"lon":5.3986,"is_reserved":false,"is_disabled":false,"rental_uris":{"android":"levelo://app?vid=20a042f1-81aa-4cde-8548-4f002e395336","ios":"levelo://app?vid=20a042f1-81aa-4cde-8548-4f002e395336"},"vehicle_type_id":"4","last_reported":1727021367,"current_range_meters":36800,"station_id":"ce4bgvp2rcd13ifvqct0","pricing_plan_id":"cebpf4jnsgd1na2vs0mg"},{"bike_id":"76bc586d-1c79-4ff6-9a58-0f931854c6e4","system_id":"levelo_inurba_marseille","lat":43.29783,"lon":5.393425,"is_reserved":false,"is_disabled":false,"rental_uris":{"android":"levelo://app?vid=76bc586d-1c79-4ff6-9a58-0f931854c6e4","ios":"levelo://app?vid=76bc586d-1c79-4ff6-9a58-0f931854c6e4"},"vehicle_type_id":"4","last_reported":1727021367,"current_range_meters":7200,"station_id":"chh1huq6cuj3fo74tm60","pricing_plan_id":"cebpf4jnsgd1na2vs0mg"},{"bike_id":"d7da139e-330f-4909-b52b-93cda3171239","system_id":"levelo_inurba_marseille","lat":43.308,"lon":5.4352,"is_reserved":false,"is_disabled":false,"rental_uris":{"android":"levelo://app?vid=d7da139e-330f-4909-b52b-93cda3171239","ios":"levelo://app?vid=d7da139e-330f-4909-b52b-93cda3171239"},"vehicle_type_id":"4","last_reported":1727021367,"current_range_meters":3200,"station_id":"ce4bhph2rcd13ifvqheg","pricing_plan_id":"cebpf4jnsgd1na2vs0mg"},{"bike_id":"5cd7cfe2-c00e-4224-a89d-3942f4f5b57d","system_id":"levelo_inurba_marseille","lat":43.30457,"lon":5.37904,"is_reserved":false,"is_disabled":false,"rental_uris":{"android":"levelo://app?vid=5cd7cfe2-c00e-4224-a89d-3942f4f5b57d","ios":"levelo://app?vid=5cd7cfe2-c00e-4224-a89d-3942f4f5b57d"},"vehicle_type_id":"4","last_reported":1727021367,"current_range_meters":37600,"station_id":"ce4bgup2rcd13ifvqcn0","pricing_plan_id":"cebpf4jnsgd1na2vs0mg"},{"bike_id":"99f7f489-8a22-4256-a2f3-01617dfb87fe","system_id":"levelo_inurba_marseille","lat":43.29301,"lon":5.3746,"is_reserved":false,"is_disabled":false,"rental_uris":{"android":"levelo://app?vid=99f7f489-8a22-4256-a2f3-01617dfb87fe","ios":"levelo://app?vid=99f7f489-8a22-4256-a2f3-01617dfb87fe"},"vehicle_type_id":"4","last_reported":1727021367,"current_range_meters":26000,"station_id":"ce4bgi12rcd13ifvqb70","pricing_plan_id":"cebpf4jnsgd1na2vs0mg"},{"bike_id":"ddef2735-203a-4460-8fe2-32d0d088e5d5","system_id":"levelo_inurba_marseille","lat":43.31242,"lon":5.37981,"is_reserved":false,"is_disabled":false,"rental_uris":{"android":"levelo://app?vid=ddef2735-203a-4460-8fe2-32d0d088e5d5","ios":"levelo://app?vid=ddef2735-203a-4460-8fe2-32d0d088e5d5"},"vehicle_type_id":"4","last_reported":1727021367,"current_range_meters":4800,"station_id":"","pricing_plan_id":"cebpf4jnsgd1na2vs0mg"},{"bike_id":"baa9e3ba-a317-4c5a-937b-63c24c256bd8","system_id":"levelo_inurba_marseille","lat":43.32676,"lon":5.40928,"is_reserved":false,"is_disabled":false,"rental_uris":{"android":"levelo://app?vid=baa9e3ba-a317-4c5a-937b-63c24c256bd8","ios":"levelo://app?vid=baa9e3ba-a317-4c5a-937b-63c24c256bd8"},"vehicle_type_id":"4","last_reported":1727021367,"current_range_meters":38800,"station_id":"","pricing_plan_id":"cebpf4jnsgd1na2vs0mg"},{"bike_id":"a04e0c5e-bcee-4597-b312-25f575630680","system_id":"levelo_inurba_marseille","lat":43.29919,"lon":5.37462,"is_reserved":false,"is_disabled":false,"rental_uris":{"android":"levelo://app?vid=a04e0c5e-bcee-4597-b312-25f575630680","ios":"levelo://app?vid=a04e0c5e-bcee-4597-b312-25f575630680"},"vehicle_type_id":"4","last_reported":1727021367,"current_range_meters":8800,"station_id":"ce4bgjh2rcd13ifvqbg0","pricing_plan_id":"cebpf4jnsgd1na2vs0mg"},{"bike_id":"6f8f658e-b0f7-403d-ae15-015674dbb68e","system_id":"levelo_inurba_marseille","lat":43.30034,"lon":5.41269,"is_reserved":false,"is_disabled":false,"rental_uris":{"android":"levelo://app?vid=6f8f658e-b0f7-403d-ae15-015674dbb68e","ios":"levelo://app?vid=6f8f658e-b0f7-403d-ae15-015674dbb68e"},"vehicle_type_id":"4","last_reported":1727021367,"current_range_meters":20000,"station_id":"ce4bhp12rcd13ifvqh9g","pricing_plan_id":"cebpf4jnsgd1na2vs0mg"},{"bike_id":"f8efeaa6-6b67-4ca0-b3ef-ba53b34b37b6","system_id":"levelo_inurba_marseille","lat":43.29776,"lon":5.397745,"is_reserved":false,"is_disabled":false,"rental_uris":{"android":"levelo://app?vid=f8efeaa6-6b67-4ca0-b3ef-ba53b34b37b6","ios":"levelo://app?vid=f8efeaa6-6b67-4ca0-b3ef-ba53b34b37b6"},"vehicle_type_id":"4","last_reported":1727021367,"current_range_meters":24000,"station_id":"ce4bh0h2rcd13ifvqd50","pricing_plan_id":"cebpf4jnsgd1na2vs0mg"},{"bike_id":"edfb1ff5-b81b-4225-8da9-100a9115b1e3","system_id":"levelo_inurba_marseille","lat":43.29735,"lon":5.36561,"is_reserved":false,"is_disabled":false,"rental_uris":{"android":"levelo://app?vid=edfb1ff5-b81b-4225-8da9-100a9115b1e3","ios":"levelo://app?vid=edfb1ff5-b81b-4225-8da9-100a9115b1e3"},"vehicle_type_id":"4","last_reported":1727021367,"current_range_meters":3200,"station_id":"","pricing_plan_id":"cebpf4jnsgd1na2vs0mg"},{"bike_id":"bf1b2103-b792-4830-9ce1-52d19f810b0b","system_id":"levelo_inurba_marseille","lat":43.30798,"lon":5.43516,"is_reserved":false,"is_disabled":false,"rental_uris":{"android":"levelo://app?vid=bf1b2103-b792-4830-9ce1-52d19f810b0b","ios":"levelo://app?vid=bf1b2103-b792-4830-9ce1-52d19f810b0b"},"vehicle_type_id":"4","last_reported":1727021367,"current_range_meters":9200,"station_id":"ce4bhph2rcd13ifvqheg","pricing_plan_id":"cebpf4jnsgd1na2vs0mg"},{"bike_id":"348e08c9-89ba-4420-80f4-fd4f043db55f","system_id":"levelo_inurba_marseille","lat":43.30885,"lon":5.39651,"is_reserved":false,"is_disabled":false,"rental_uris":{"android":"levelo://app?vid=348e08c9-89ba-4420-80f4-fd4f043db55f","ios":"levelo://app?vid=348e08c9-89ba-4420-80f4-fd4f043db55f"},"vehicle_type_id":"4","last_reported":1727021367,"current_range_meters":14800,"station_id":"ce4bh012rcd13ifvqcv0","pricing_plan_id":"cebpf4jnsgd1na2vs0mg"},{"bike_id":"e68b94cf-f394-4560-9c0b-52865583d26a","system_id":"levelo_inurba_marseille","lat":43.231823,"lon":5.399881,"is_reserved":false,"is_disabled":false,"rental_uris":{"android":"levelo://app?vid=e68b94cf-f394-4560-9c0b-52865583d26a","ios":"levelo://app?vid=e68b94cf-f394-4560-9c0b-52865583d26a"},"vehicle_type_id":"4","last_reported":1727021367,"current_range_meters":19200,"station_id":"ce4bhn12rcd13ifvqgqg","pricing_plan_id":"cebpf4jnsgd1na2vs0mg"},{"bike_id":"c4185552-e38c-4ae7-8c6b-95ee43315714","system_id":"levelo_inurba_marseille","lat":43.22926,"lon":5.35373,"is_reserved":false,"is_disabled":false,"rental_uris":{"android":"levelo://app?vid=c4185552-e38c-4ae7-8c6b-95ee43315714","ios":"levelo://app?vid=c4185552-e38c-4ae7-8c6b-95ee43315714"},"vehicle_type_id":"4","last_reported":1727021367,"current_range_meters":38800,"station_id":"cpo3532slgdg3j2ikp40","pricing_plan_id":"cebpf4jnsgd1na2vs0mg"},{"bike_id":"2722b73f-2ad2-45be-9a67-4fb1d4c8ecfb","system_id":"levelo_inurba_marseille","lat":43.29931,"lon":5.3746,"is_reserved":false,"is_disabled":false,"rental_uris":{"android":"levelo://app?vid=2722b73f-2ad2-45be-9a67-4fb1d4c8ecfb","ios":"levelo://app?vid=2722b73f-2ad2-45be-9a67-4fb1d4c8ecfb"},"vehicle_type_id":"4","last_reported":1727021367,"current_range_meters":25600,"station_id":"ce4bgjh2rcd13ifvqbg0","pricing_plan_id":"cebpf4jnsgd1na2vs0mg"},{"bike_id":"5419b1bf-d37c-4076-a34c-52ede101758e","system_id":"levelo_inurba_marseille","lat":43.337444,"lon":5.374475,"is_reserved":false,"is_disabled":false,"rental_uris":{"android":"levelo://app?vid=5419b1bf-d37c-4076-a34c-52ede101758e","ios":"levelo://app?vid=5419b1bf-d37c-4076-a34c-52ede101758e"},"vehicle_type_id":"4","last_reported":1727021367,"current_range_meters":27600,"station_id":"","pricing_plan_id":"cebpf4jnsgd1na2vs0mg"},{"bike_id":"bcbe9ece-b3ad-4b57-bd9e-85122109e5ae","system_id":"levelo_inurba_marseille","lat":43.29279,"lon":5.36843,"is_reserved":false,"is_disabled":false,"rental_uris":{"android":"levelo://app?vid=bcbe9ece-b3ad-4b57-bd9e-85122109e5ae","ios":"levelo://app?vid=bcbe9ece-b3ad-4b57-bd9e-85122109e5ae"},"vehicle_type_id":"4","last_reported":1727021367,"current_range_meters":14400,"station_id":"ce4bhbp2rcd13ifvqesg","pricing_plan_id":"cebpf4jnsgd1na2vs0mg"},{"bike_id":"bc08d377-8934-49f9-a16b-d231e67a2261","system_id":"levelo_inurba_marseille","lat":43.28153,"lon":5.42635,"is_reserved":false,"is_disabled":false,"rental_uris":{"android":"levelo://app?vid=bc08d377-8934-49f9-a16b-d231e67a2261","ios":"levelo://app?vid=bc08d377-8934-49f9-a16b-d231e67a2261"},"vehicle_type_id":"4","last_reported":1727021367,"current_range_meters":14800,"station_id":"ce4bhnh2rcd13ifvqgug","pricing_plan_id":"cebpf4jnsgd1na2vs0mg"},{"bike_id":"f72b4ee5-3b6a-4bba-8e4b-bc24bda6e341","system_id":"levelo_inurba_marseille","lat":43.28569,"lon":5.39497,"is_reserved":false,"is_disabled":false,"rental_uris":{"android":"levelo://app?vid=f72b4ee5-3b6a-4bba-8e4b-bc24bda6e341","ios":"levelo://app?vid=f72b4ee5-3b6a-4bba-8e4b-bc24bda6e341"},"vehicle_type_id":"4","last_reported":1727021367,"current_range_meters":28400,"station_id":"ce4bh292rcd13ifvqdg0","pricing_plan_id":"cebpf4jnsgd1na2vs0mg"},{"bike_id":"d6391691-de65-45d3-b374-0c65a866bbce","system_id":"levelo_inurba_marseille","lat":43.31696,"lon":5.40473,"is_reserved":false,"is_disabled":false,"rental_uris":{"android":"levelo://app?vid=d6391691-de65-45d3-b374-0c65a866bbce","ios":"levelo://app?vid=d6391691-de65-45d3-b374-0c65a866bbce"},"vehicle_type_id":"4","last_reported":1727021367,"current_range_meters":24800,"station_id":"ce4bh012rcd13ifvqd00","pricing_plan_id":"cebpf4jnsgd1na2vs0mg"},{"bike_id":"fee847b2-684e-4f0f-b3c3-0910bdb1f06e","system_id":"levelo_inurba_marseille","lat":43.28149,"lon":5.42641,"is_reserved":false,"is_disabled":false,"rental_uris":{"android":"levelo://app?vid=fee847b2-684e-4f0f-b3c3-0910bdb1f06e","ios":"levelo://app?vid=fee847b2-684e-4f0f-b3c3-0910bdb1f06e"},"vehicle_type_id":"4","last_reported":1727021367,"current_range_meters":12800,"station_id":"ce4bhnh2rcd13ifvqgug","pricing_plan_id":"cebpf4jnsgd1na2vs0mg"},{"bike_id":"42606dbd-3a0b-4ea5-b8ff-d93813602fe5","system_id":"levelo_inurba_marseille","lat":43.29199,"lon":5.3585,"is_reserved":false,"is_disabled":false,"rental_uris":{"android":"levelo://app?vid=42606dbd-3a0b-4ea5-b8ff-d93813602fe5","ios":"levelo://app?vid=42606dbd-3a0b-4ea5-b8ff-d93813602fe5"},"vehicle_type_id":"4","last_reported":1727021367,"current_range_meters":7200,"station_id":"ce4bhb12rcd13ifvqel0","pricing_plan_id":"cebpf4jnsgd1na2vs0mg"},{"bike_id":"149779fc-bc45-458a-857f-33707eedaf6a","system_id":"levelo_inurba_marseille","lat":43.23197,"lon":5.35553,"is_reserved":false,"is_disabled":false,"rental_uris":{"android":"levelo://app?vid=149779fc-bc45-458a-857f-33707eedaf6a","ios":"levelo://app?vid=149779fc-bc45-458a-857f-33707eedaf6a"},"vehicle_type_id":"4","last_reported":1727021367,"current_range_meters":14000,"station_id":"ce4bhu92rcd13ifvqi70","pricing_plan_id":"cebpf4jnsgd1na2vs0mg"},{"bike_id":"05d0856f-cbbf-4f9f-9834-ed2a8e98e03e","system_id":"levelo_inurba_marseille","lat":43.29422,"lon":5.38614,"is_reserved":false,"is_disabled":false,"rental_uris":{"android":"levelo://app?vid=05d0856f-cbbf-4f9f-9834-ed2a8e98e03e","ios":"levelo://app?vid=05d0856f-cbbf-4f9f-9834-ed2a8e98e03e"},"vehicle_type_id":"4","last_reported":1727021367,"current_range_meters":38000,"station_id":"ce4bh2h2rcd13ifvqdh0","pricing_plan_id":"cebpf4jnsgd1na2vs0mg"},{"bike_id":"def499c9-c2a5-49bd-86a5-cb3de4d3d19b","system_id":"levelo_inurba_marseille","lat":43.31174,"lon":5.38709,"is_reserved":false,"is_disabled":false,"rental_uris":{"android":"levelo://app?vid=def499c9-c2a5-49bd-86a5-cb3de4d3d19b","ios":"levelo://app?vid=def499c9-c2a5-49bd-86a5-cb3de4d3d19b"},"vehicle_type_id":"4","last_reported":1727021367,"current_range_meters":31200,"station_id":"ce4bgv12rcd13ifvqcp0","pricing_plan_id":"cebpf4jnsgd1na2vs0mg"},{"bike_id":"17e8144b-1e47-49d2-971a-9400bc5cadd1","system_id":"levelo_inurba_marseille","lat":43.2439,"lon":5.37049,"is_reserved":false,"is_disabled":false,"rental_uris":{"android":"levelo://app?vid=17e8144b-1e47-49d2-971a-9400bc5cadd1","ios":"levelo://app?vid=17e8144b-1e47-49d2-971a-9400bc5cadd1"},"vehicle_type_id":"4","last_reported":1727021367,"current_range_meters":5600,"station_id":"ce4bhhh2rcd13ifvqfk0","pricing_plan_id":"cebpf4jnsgd1na2vs0mg"},{"bike_id":"454b9082-093f-4990-b5d2-d87e73d30cc0","system_id":"levelo_inurba_marseille","lat":43.2926,"lon":5.40904,"is_reserved":false,"is_disabled":false,"rental_uris":{"android":"levelo://app?vid=454b9082-093f-4990-b5d2-d87e73d30cc0","ios":"levelo://app?vid=454b9082-093f-4990-b5d2-d87e73d30cc0"},"vehicle_type_id":"4","last_reported":1727021367,"current_range_meters":14400,"station_id":"ce4bh192rcd13ifvqdc0","pricing_plan_id":"cebpf4jnsgd1na2vs0mg"},{"bike_id":"9bcf95c0-668c-44cd-97c5-3a9ba240909b","system_id":"levelo_inurba_marseille","lat":43.26941,"lon":5.40241,"is_reserved":false,"is_disabled":false,"rental_uris":{"android":"levelo://app?vid=9bcf95c0-668c-44cd-97c5-3a9ba240909b","ios":"levelo://app?vid=9bcf95c0-668c-44cd-97c5-3a9ba240909b"},"vehicle_type_id":"4","last_reported":1727021367,"current_range_meters":28000,"station_id":"cjm6bp8fraef2m0cb0m0","pricing_plan_id":"cebpf4jnsgd1na2vs0mg"},{"bike_id":"fab1726e-7611-4c89-b329-70590c96dba7","system_id":"levelo_inurba_marseille","lat":43.29427,"lon":5.38614,"is_reserved":false,"is_disabled":false,"rental_uris":{"android":"levelo://app?vid=fab1726e-7611-4c89-b329-70590c96dba7","ios":"levelo://app?vid=fab1726e-7611-4c89-b329-70590c96dba7"},"vehicle_type_id":"4","last_reported":1727021367,"current_range_meters":12800,"station_id":"ce4bh2h2rcd13ifvqdh0","pricing_plan_id":"cebpf4jnsgd1na2vs0mg"},{"bike_id":"ee0fd748-c1d1-4969-82cf-b8c9c86b5c3c","system_id":"levelo_inurba_marseille","lat":43.30593,"lon":5.3936,"is_reserved":false,"is_disabled":false,"rental_uris":{"android":"levelo://app?vid=ee0fd748-c1d1-4969-82cf-b8c9c86b5c3c","ios":"levelo://app?vid=ee0fd748-c1d1-4969-82cf-b8c9c86b5c3c"},"vehicle_type_id":"4","last_reported":1727021367,"current_range_meters":6800,"station_id":"ce4bh0p2rcd13ifvqd80","pricing_plan_id":"cebpf4jnsgd1na2vs0mg"},{"bike_id":"d4cd02a2-8196-45a0-ade7-083f2b1cddee","system_id":"levelo_inurba_marseille","lat":43.24178,"lon":5.39713,"is_reserved":false,"is_disabled":false,"rental_uris":{"android":"levelo://app?vid=d4cd02a2-8196-45a0-ade7-083f2b1cddee","ios":"levelo://app?vid=d4cd02a2-8196-45a0-ade7-083f2b1cddee"},"vehicle_type_id":"4","last_reported":1727021367,"current_range_meters":38000,"station_id":"ce4bhn12rcd13ifvqgpg","pricing_plan_id":"cebpf4jnsgd1na2vs0mg"},{"bike_id":"4fb5ae2e-9abd-4ec4-8b7b-2b16757820a9","system_id":"levelo_inurba_marseille","lat":43.341388,"lon":5.408978,"is_reserved":false,"is_disabled":false,"rental_uris":{"android":"levelo://app?vid=4fb5ae2e-9abd-4ec4-8b7b-2b16757820a9","ios":"levelo://app?vid=4fb5ae2e-9abd-4ec4-8b7b-2b16757820a9"},"vehicle_type_id":"4","last_reported":1727021367,"current_range_meters":20000,"station_id":"ce4bhqh2rcd13ifvqhlg","pricing_plan_id":"cebpf4jnsgd1na2vs0mg"},{"bike_id":"d79bc904-981a-4ec4-862b-e10e64deec61","system_id":"levelo_inurba_marseille","lat":43.27318,"lon":5.39075,"is_reserved":false,"is_disabled":false,"rental_uris":{"android":"levelo://app?vid=d79bc904-981a-4ec4-862b-e10e64deec61","ios":"levelo://app?vid=d79bc904-981a-4ec4-862b-e10e64deec61"},"vehicle_type_id":"4","last_reported":1727021367,"current_range_meters":26800,"station_id":"ce4bhgp2rcd13ifvqfe0","pricing_plan_id":"cebpf4jnsgd1na2vs0mg"},{"bike_id":"25d74fd3-2b4c-422d-baf0-b5015f5cb6ac","system_id":"levelo_inurba_marseille","lat":43.24547,"lon":5.39526,"is_reserved":false,"is_disabled":false,"rental_uris":{"android":"levelo://app?vid=25d74fd3-2b4c-422d-baf0-b5015f5cb6ac","ios":"levelo://app?vid=25d74fd3-2b4c-422d-baf0-b5015f5cb6ac"},"vehicle_type_id":"4","last_reported":1727021367,"current_range_meters":14000,"station_id":"ce4bhlp2rcd13ifvqgjg","pricing_plan_id":"cebpf4jnsgd1na2vs0mg"},{"bike_id":"5995ab9a-fd66-4fba-ae10-a7323246db1f","system_id":"levelo_inurba_marseille","lat":43.28941,"lon":5.39621,"is_reserved":false,"is_disabled":false,"rental_uris":{"android":"levelo://app?vid=5995ab9a-fd66-4fba-ae10-a7323246db1f","ios":"levelo://app?vid=5995ab9a-fd66-4fba-ae10-a7323246db1f"},"vehicle_type_id":"4","last_reported":1727021367,"current_range_meters":27600,"station_id":"ce4bh3h2rcd13ifvqdn0","pricing_plan_id":"cebpf4jnsgd1na2vs0mg"},{"bike_id":"07a99e85-836d-4493-935f-c62256b73c2a","system_id":"levelo_inurba_marseille","lat":43.29275,"lon":5.36842,"is_reserved":false,"is_disabled":false,"rental_uris":{"android":"levelo://app?vid=07a99e85-836d-4493-935f-c62256b73c2a","ios":"levelo://app?vid=07a99e85-836d-4493-935f-c62256b73c2a"},"vehicle_type_id":"4","last_reported":1727021367,"current_range_meters":23200,"station_id":"ce4bhbp2rcd13ifvqesg","pricing_plan_id":"cebpf4jnsgd1na2vs0mg"},{"bike_id":"8729c344-9d33-478b-a495-733ded19fd17","system_id":"levelo_inurba_marseille","lat":43.26494,"lon":5.39544,"is_reserved":false,"is_disabled":false,"rental_uris":{"android":"levelo://app?vid=8729c344-9d33-478b-a495-733ded19fd17","ios":"levelo://app?vid=8729c344-9d33-478b-a495-733ded19fd17"},"vehicle_type_id":"4","last_reported":1727021367,"current_range_meters":38000,"station_id":"ce4bhi12rcd13ifvqfq0","pricing_plan_id":"cebpf4jnsgd1na2vs0mg"},{"bike_id":"6c236bc9-cd9c-42fc-905f-5047b47d3083","system_id":"levelo_inurba_marseille","lat":43.28728,"lon":5.36085,"is_reserved":false,"is_disabled":false,"rental_uris":{"android":"levelo://app?vid=6c236bc9-cd9c-42fc-905f-5047b47d3083","ios":"levelo://app?vid=6c236bc9-cd9c-42fc-905f-5047b47d3083"},"vehicle_type_id":"4","last_reported":1727021367,"current_range_meters":3600,"station_id":"cki0cbj6b192h4jlfktg","pricing_plan_id":"cebpf4jnsgd1na2vs0mg"},{"bike_id":"94bf39ca-eead-47f6-a2e4-4eeebe966958","system_id":"levelo_inurba_marseille","lat":43.29422,"lon":5.38614,"is_reserved":false,"is_disabled":false,"rental_uris":{"android":"levelo://app?vid=94bf39ca-eead-47f6-a2e4-4eeebe966958","ios":"levelo://app?vid=94bf39ca-eead-47f6-a2e4-4eeebe966958"},"vehicle_type_id":"4","last_reported":1727021367,"current_range_meters":36000,"station_id":"ce4bh2h2rcd13ifvqdh0","pricing_plan_id":"cebpf4jnsgd1na2vs0mg"},{"bike_id":"a7a2630d-54d4-495a-8506-d0472b9b9a1a","system_id":"levelo_inurba_marseille","lat":43.2957,"lon":5.42283,"is_reserved":false,"is_disabled":false,"rental_uris":{"android":"levelo://app?vid=a7a2630d-54d4-495a-8506-d0472b9b9a1a","ios":"levelo://app?vid=a7a2630d-54d4-495a-8506-d0472b9b9a1a"},"vehicle_type_id":"4","last_reported":1727021367,"current_range_meters":38400,"station_id":"ce4bhph2rcd13ifvqhdg","pricing_plan_id":"cebpf4jnsgd1na2vs0mg"},{"bike_id":"4e61c44a-b9b7-4bba-a482-834a85dc3c7d","system_id":"levelo_inurba_marseille","lat":43.29613,"lon":5.3772,"is_reserved":false,"is_disabled":false,"rental_uris":{"android":"levelo://app?vid=4e61c44a-b9b7-4bba-a482-834a85dc3c7d","ios":"levelo://app?vid=4e61c44a-b9b7-4bba-a482-834a85dc3c7d"},"vehicle_type_id":"4","last_reported":1727021367,"current_range_meters":38400,"station_id":"ce4bgi92rcd13ifvqb90","pricing_plan_id":"cebpf4jnsgd1na2vs0mg"},{"bike_id":"155546d3-d8c4-439e-9145-f9b885c4965d","system_id":"levelo_inurba_marseille","lat":43.27562,"lon":5.3841,"is_reserved":false,"is_disabled":false,"rental_uris":{"android":"levelo://app?vid=155546d3-d8c4-439e-9145-f9b885c4965d","ios":"levelo://app?vid=155546d3-d8c4-439e-9145-f9b885c4965d"},"vehicle_type_id":"4","last_reported":1727021367,"current_range_meters":14400,"station_id":"ce4bhh92rcd13ifvqfi0","pricing_plan_id":"cebpf4jnsgd1na2vs0mg"},{"bike_id":"d8d04998-3401-4e33-9cce-3eda5584e5d5","system_id":"levelo_inurba_marseille","lat":43.28042,"lon":5.36942,"is_reserved":false,"is_disabled":false,"rental_uris":{"android":"levelo://app?vid=d8d04998-3401-4e33-9cce-3eda5584e5d5","ios":"levelo://app?vid=d8d04998-3401-4e33-9cce-3eda5584e5d5"},"vehicle_type_id":"4","last_reported":1727021367,"current_range_meters":6400,"station_id":"ce4bha12rcd13ifvqef0","pricing_plan_id":"cebpf4jnsgd1na2vs0mg"},{"bike_id":"757411e7-939e-4353-9792-02a3aa30f3ed","system_id":"levelo_inurba_marseille","lat":43.23195,"lon":5.35549,"is_reserved":false,"is_disabled":false,"rental_uris":{"android":"levelo://app?vid=757411e7-939e-4353-9792-02a3aa30f3ed","ios":"levelo://app?vid=757411e7-939e-4353-9792-02a3aa30f3ed"},"vehicle_type_id":"4","last_reported":1727021367,"current_range_meters":39200,"station_id":"ce4bhu92rcd13ifvqi70","pricing_plan_id":"cebpf4jnsgd1na2vs0mg"},{"bike_id":"b79ef3ce-c402-42a2-a520-3331f1ac6f52","system_id":"levelo_inurba_marseille","lat":43.27373,"lon":5.36253,"is_reserved":false,"is_disabled":false,"rental_uris":{"android":"levelo://app?vid=b79ef3ce-c402-42a2-a520-3331f1ac6f52","ios":"levelo://app?vid=b79ef3ce-c402-42a2-a520-3331f1ac6f52"},"vehicle_type_id":"4","last_reported":1727021367,"current_range_meters":38800,"station_id":"ce4bhbh2rcd13ifvqeo0","pricing_plan_id":"cebpf4jnsgd1na2vs0mg"},{"bike_id":"0d457c36-627a-466f-851c-64c112d1445b","system_id":"levelo_inurba_marseille","lat":43.32659,"lon":5.40991,"is_reserved":false,"is_disabled":false,"rental_uris":{"android":"levelo://app?vid=0d457c36-627a-466f-851c-64c112d1445b","ios":"levelo://app?vid=0d457c36-627a-466f-851c-64c112d1445b"},"vehicle_type_id":"4","last_reported":1727021367,"current_range_meters":13600,"station_id":"ce4bhpp2rcd13ifvqhgg","pricing_plan_id":"cebpf4jnsgd1na2vs0mg"},{"bike_id":"aaee234b-b343-4eb3-a96b-f2326982c939","system_id":"levelo_inurba_marseille","lat":43.323386,"lon":5.406254,"is_reserved":false,"is_disabled":false,"rental_uris":{"android":"levelo://app?vid=aaee234b-b343-4eb3-a96b-f2326982c939","ios":"levelo://app?vid=aaee234b-b343-4eb3-a96b-f2326982c939"},"vehicle_type_id":"4","last_reported":1727021367,"current_range_meters":27200,"station_id":"ce4bhq92rcd13ifvqhjg","pricing_plan_id":"cebpf4jnsgd1na2vs0mg"},{"bike_id":"71aa8592-ddf7-4343-aed4-c00d3433340f","system_id":"levelo_inurba_marseille","lat":43.337444,"lon":5.374475,"is_reserved":false,"is_disabled":false,"rental_uris":{"android":"levelo://app?vid=71aa8592-ddf7-4343-aed4-c00d3433340f","ios":"levelo://app?vid=71aa8592-ddf7-4343-aed4-c00d3433340f"},"vehicle_type_id":"4","last_reported":1727021367,"current_range_meters":30800,"station_id":"","pricing_plan_id":"cebpf4jnsgd1na2vs0mg"},{"bike_id":"3740c6df-06cd-419b-9ae6-b8d9e5eff548","system_id":"levelo_inurba_marseille","lat":43.2753,"lon":5.40935,"is_reserved":false,"is_disabled":false,"rental_uris":{"android":"levelo://app?vid=3740c6df-06cd-419b-9ae6-b8d9e5eff548","ios":"levelo://app?vid=3740c6df-06cd-419b-9ae6-b8d9e5eff548"},"vehicle_type_id":"4","last_reported":1727021367,"current_range_meters":12400,"station_id":"","pricing_plan_id":"cebpf4jnsgd1na2vs0mg"},{"bike_id":"c9f37766-f26a-4275-8ad0-c9c19649350e","system_id":"levelo_inurba_marseille","lat":43.30135,"lon":5.3878,"is_reserved":false,"is_disabled":false,"rental_uris":{"android":"levelo://app?vid=c9f37766-f26a-4275-8ad0-c9c19649350e","ios":"levelo://app?vid=c9f37766-f26a-4275-8ad0-c9c19649350e"},"vehicle_type_id":"4","last_reported":1727021367,"current_range_meters":19200,"station_id":"ce4bghh2rcd13ifvqb60","pricing_plan_id":"cebpf4jnsgd1na2vs0mg"},{"bike_id":"38e55ba7-c26c-4b9c-8404-9f7cec825759","system_id":"levelo_inurba_marseille","lat":43.22928,"lon":5.35377,"is_reserved":false,"is_disabled":false,"rental_uris":{"android":"levelo://app?vid=38e55ba7-c26c-4b9c-8404-9f7cec825759","ios":"levelo://app?vid=38e55ba7-c26c-4b9c-8404-9f7cec825759"},"vehicle_type_id":"4","last_reported":1727021367,"current_range_meters":38800,"station_id":"cpo3532slgdg3j2ikp40","pricing_plan_id":"cebpf4jnsgd1na2vs0mg"},{"bike_id":"870a10e3-45e8-4baa-825c-2817262fe4a6","system_id":"levelo_inurba_marseille","lat":43.258956,"lon":5.398739,"is_reserved":false,"is_disabled":false,"rental_uris":{"android":"levelo://app?vid=870a10e3-45e8-4baa-825c-2817262fe4a6","ios":"levelo://app?vid=870a10e3-45e8-4baa-825c-2817262fe4a6"},"vehicle_type_id":"4","last_reported":1727021367,"current_range_meters":19200,"station_id":"ce4bhl92rcd13ifvqghg","pricing_plan_id":"cebpf4jnsgd1na2vs0mg"},{"bike_id":"7810d74d-a5d5-4a5d-8fc1-e1045d0f5552","system_id":"levelo_inurba_marseille","lat":43.29848,"lon":5.36276,"is_reserved":false,"is_disabled":false,"rental_uris":{"android":"levelo://app?vid=7810d74d-a5d5-4a5d-8fc1-e1045d0f5552","ios":"levelo://app?vid=7810d74d-a5d5-4a5d-8fc1-e1045d0f5552"},"vehicle_type_id":"4","last_reported":1727021367,"current_range_meters":36400,"station_id":"ce4bgpp2rcd13ifvqc3g","pricing_plan_id":"cebpf4jnsgd1na2vs0mg"},{"bike_id":"b8640257-04c4-4f82-8a04-07c05fedc345","system_id":"levelo_inurba_marseille","lat":43.2928,"lon":5.36843,"is_reserved":false,"is_disabled":false,"rental_uris":{"android":"levelo://app?vid=b8640257-04c4-4f82-8a04-07c05fedc345","ios":"levelo://app?vid=b8640257-04c4-4f82-8a04-07c05fedc345"},"vehicle_type_id":"4","last_reported":1727021367,"current_range_meters":35200,"station_id":"ce4bhbp2rcd13ifvqesg","pricing_plan_id":"cebpf4jnsgd1na2vs0mg"},{"bike_id":"df1ca689-a44b-4d7b-ae50-90ade339c4cf","system_id":"levelo_inurba_marseille","lat":43.29254,"lon":5.40905,"is_reserved":false,"is_disabled":false,"rental_uris":{"android":"levelo://app?vid=df1ca689-a44b-4d7b-ae50-90ade339c4cf","ios":"levelo://app?vid=df1ca689-a44b-4d7b-ae50-90ade339c4cf"},"vehicle_type_id":"4","last_reported":1727021367,"current_range_meters":4400,"station_id":"ce4bh192rcd13ifvqdc0","pricing_plan_id":"cebpf4jnsgd1na2vs0mg"},{"bike_id":"3fa0eb21-e166-4826-a8ea-95eed3baf966","system_id":"levelo_inurba_marseille","lat":43.31281,"lon":5.40172,"is_reserved":false,"is_disabled":false,"rental_uris":{"android":"levelo://app?vid=3fa0eb21-e166-4826-a8ea-95eed3baf966","ios":"levelo://app?vid=3fa0eb21-e166-4826-a8ea-95eed3baf966"},"vehicle_type_id":"4","last_reported":1727021367,"current_range_meters":39200,"station_id":"ce4bh092rcd13ifvqd30","pricing_plan_id":"cebpf4jnsgd1na2vs0mg"},{"bike_id":"39000d08-69eb-46c9-a298-b0346d85331d","system_id":"levelo_inurba_marseille","lat":43.29878,"lon":5.3973,"is_reserved":false,"is_disabled":false,"rental_uris":{"android":"levelo://app?vid=39000d08-69eb-46c9-a298-b0346d85331d","ios":"levelo://app?vid=39000d08-69eb-46c9-a298-b0346d85331d"},"vehicle_type_id":"4","last_reported":1727021367,"current_range_meters":18000,"station_id":"ce4bh0h2rcd13ifvqd50","pricing_plan_id":"cebpf4jnsgd1na2vs0mg"},{"bike_id":"34bac9de-afcc-485f-a901-124a385dd441","system_id":"levelo_inurba_marseille","lat":43.24538,"lon":5.39515,"is_reserved":false,"is_disabled":false,"rental_uris":{"android":"levelo://app?vid=34bac9de-afcc-485f-a901-124a385dd441","ios":"levelo://app?vid=34bac9de-afcc-485f-a901-124a385dd441"},"vehicle_type_id":"4","last_reported":1727021367,"current_range_meters":38000,"station_id":"ce4bhlp2rcd13ifvqgjg","pricing_plan_id":"cebpf4jnsgd1na2vs0mg"},{"bike_id":"631ca6d0-a80f-4d90-824f-09e1a1cc9bc4","system_id":"levelo_inurba_marseille","lat":43.30938,"lon":5.40149,"is_reserved":false,"is_disabled":false,"rental_uris":{"android":"levelo://app?vid=631ca6d0-a80f-4d90-824f-09e1a1cc9bc4","ios":"levelo://app?vid=631ca6d0-a80f-4d90-824f-09e1a1cc9bc4"},"vehicle_type_id":"4","last_reported":1727021367,"current_range_meters":26000,"station_id":"ce4bgvp2rcd13ifvqct0","pricing_plan_id":"cebpf4jnsgd1na2vs0mg"},{"bike_id":"1575e777-51f8-479e-bd95-714cef91a125","system_id":"levelo_inurba_marseille","lat":43.24172,"lon":5.39717,"is_reserved":false,"is_disabled":false,"rental_uris":{"android":"levelo://app?vid=1575e777-51f8-479e-bd95-714cef91a125","ios":"levelo://app?vid=1575e777-51f8-479e-bd95-714cef91a125"},"vehicle_type_id":"4","last_reported":1727021367,"current_range_meters":26000,"station_id":"ce4bhn12rcd13ifvqgpg","pricing_plan_id":"cebpf4jnsgd1na2vs0mg"},{"bike_id":"0be282ae-2070-4c46-95d9-860918bdb43c","system_id":"levelo_inurba_marseille","lat":43.29167,"lon":5.37153,"is_reserved":false,"is_disabled":false,"rental_uris":{"android":"levelo://app?vid=0be282ae-2070-4c46-95d9-860918bdb43c","ios":"levelo://app?vid=0be282ae-2070-4c46-95d9-860918bdb43c"},"vehicle_type_id":"4","last_reported":1727021367,"current_range_meters":22400,"station_id":"ce4bha92rcd13ifvqeh0","pricing_plan_id":"cebpf4jnsgd1na2vs0mg"},{"bike_id":"96e20da7-32de-4135-b7cd-21b9a8cff0e2","system_id":"levelo_inurba_marseille","lat":43.28855,"lon":5.35867,"is_reserved":false,"is_disabled":false,"rental_uris":{"android":"levelo://app?vid=96e20da7-32de-4135-b7cd-21b9a8cff0e2","ios":"levelo://app?vid=96e20da7-32de-4135-b7cd-21b9a8cff0e2"},"vehicle_type_id":"4","last_reported":1727021367,"current_range_meters":30000,"station_id":"ce4bhb12rcd13ifvqem0","pricing_plan_id":"cebpf4jnsgd1na2vs0mg"},{"bike_id":"d2615f30-7dc8-49f1-a084-26cb64c75480","system_id":"levelo_inurba_marseille","lat":43.28854,"lon":5.3586,"is_reserved":false,"is_disabled":false,"rental_uris":{"android":"levelo://app?vid=d2615f30-7dc8-49f1-a084-26cb64c75480","ios":"levelo://app?vid=d2615f30-7dc8-49f1-a084-26cb64c75480"},"vehicle_type_id":"4","last_reported":1727021367,"current_range_meters":22400,"station_id":"ce4bhb12rcd13ifvqem0","pricing_plan_id":"cebpf4jnsgd1na2vs0mg"},{"bike_id":"1452c4a9-61ae-4e36-80bc-305f2209f473","system_id":"levelo_inurba_marseille","lat":43.25937,"lon":5.409,"is_reserved":false,"is_disabled":false,"rental_uris":{"android":"levelo://app?vid=1452c4a9-61ae-4e36-80bc-305f2209f473","ios":"levelo://app?vid=1452c4a9-61ae-4e36-80bc-305f2209f473"},"vehicle_type_id":"4","last_reported":1727021367,"current_range_meters":6800,"station_id":"ce4bhm92rcd13ifvqglg","pricing_plan_id":"cebpf4jnsgd1na2vs0mg"},{"bike_id":"317961d6-80e1-44d3-a72d-1e8fbf6060e0","system_id":"levelo_inurba_marseille","lat":43.293134,"lon":5.371697,"is_reserved":false,"is_disabled":false,"rental_uris":{"android":"levelo://app?vid=317961d6-80e1-44d3-a72d-1e8fbf6060e0","ios":"levelo://app?vid=317961d6-80e1-44d3-a72d-1e8fbf6060e0"},"vehicle_type_id":"4","last_reported":1727021367,"current_range_meters":35600,"station_id":"ce4bgh92rcd13ifvqb40","pricing_plan_id":"cebpf4jnsgd1na2vs0mg"},{"bike_id":"93c4dc5e-99e1-4e53-8bb0-9c04ad7819e2","system_id":"levelo_inurba_marseille","lat":43.29208,"lon":5.39317,"is_reserved":false,"is_disabled":false,"rental_uris":{"android":"levelo://app?vid=93c4dc5e-99e1-4e53-8bb0-9c04ad7819e2","ios":"levelo://app?vid=93c4dc5e-99e1-4e53-8bb0-9c04ad7819e2"},"vehicle_type_id":"4","last_reported":1727021367,"current_range_meters":20400,"station_id":"ce4bh192rcd13ifvqdd0","pricing_plan_id":"cebpf4jnsgd1na2vs0mg"},{"bike_id":"d4186af4-ac36-4841-a7a7-9ffa802c7f94","system_id":"levelo_inurba_marseille","lat":43.2418,"lon":5.39724,"is_reserved":false,"is_disabled":false,"rental_uris":{"android":"levelo://app?vid=d4186af4-ac36-4841-a7a7-9ffa802c7f94","ios":"levelo://app?vid=d4186af4-ac36-4841-a7a7-9ffa802c7f94"},"vehicle_type_id":"4","last_reported":1727021367,"current_range_meters":1600,"station_id":"ce4bhn12rcd13ifvqgpg","pricing_plan_id":"cebpf4jnsgd1na2vs0mg"},{"bike_id":"feb42740-c719-4916-9efa-d99f861e0e6d","system_id":"levelo_inurba_marseille","lat":43.32476,"lon":5.36568,"is_reserved":false,"is_disabled":false,"rental_uris":{"android":"levelo://app?vid=feb42740-c719-4916-9efa-d99f861e0e6d","ios":"levelo://app?vid=feb42740-c719-4916-9efa-d99f861e0e6d"},"vehicle_type_id":"4","last_reported":1727021367,"current_range_meters":35200,"station_id":"ce4bhs12rcd13ifvqhvg","pricing_plan_id":"cebpf4jnsgd1na2vs0mg"},{"bike_id":"6f757612-ca2e-43ab-8bf3-b7f97a8a90a1","system_id":"levelo_inurba_marseille","lat":43.276168,"lon":5.360981,"is_reserved":false,"is_disabled":false,"rental_uris":{"android":"levelo://app?vid=6f757612-ca2e-43ab-8bf3-b7f97a8a90a1","ios":"levelo://app?vid=6f757612-ca2e-43ab-8bf3-b7f97a8a90a1"},"vehicle_type_id":"4","last_reported":1727021367,"current_range_meters":29600,"station_id":"ce4bgj92rcd13ifvqbe0","pricing_plan_id":"cebpf4jnsgd1na2vs0mg"},{"bike_id":"a468250b-a355-4fa7-a08a-16e7dfeed6e0","system_id":"levelo_inurba_marseille","lat":43.29574,"lon":5.39969,"is_reserved":false,"is_disabled":false,"rental_uris":{"android":"levelo://app?vid=a468250b-a355-4fa7-a08a-16e7dfeed6e0","ios":"levelo://app?vid=a468250b-a355-4fa7-a08a-16e7dfeed6e0"},"vehicle_type_id":"4","last_reported":1727021367,"current_range_meters":6800,"station_id":"ce4bh312rcd13ifvqdj0","pricing_plan_id":"cebpf4jnsgd1na2vs0mg"},{"bike_id":"fce734b4-6c36-4cb6-983c-c95238702258","system_id":"levelo_inurba_marseille","lat":43.31071,"lon":5.38114,"is_reserved":false,"is_disabled":false,"rental_uris":{"android":"levelo://app?vid=fce734b4-6c36-4cb6-983c-c95238702258","ios":"levelo://app?vid=fce734b4-6c36-4cb6-983c-c95238702258"},"vehicle_type_id":"4","last_reported":1727021367,"current_range_meters":11600,"station_id":"","pricing_plan_id":"cebpf4jnsgd1na2vs0mg"},{"bike_id":"7d89563d-a421-45aa-95eb-edb57f14f386","system_id":"levelo_inurba_marseille","lat":43.32336,"lon":5.40614,"is_reserved":false,"is_disabled":false,"rental_uris":{"android":"levelo://app?vid=7d89563d-a421-45aa-95eb-edb57f14f386","ios":"levelo://app?vid=7d89563d-a421-45aa-95eb-edb57f14f386"},"vehicle_type_id":"4","last_reported":1727021367,"current_range_meters":38800,"station_id":"ce4bhq92rcd13ifvqhjg","pricing_plan_id":"cebpf4jnsgd1na2vs0mg"},{"bike_id":"d1657062-07f5-45f5-8049-248754237197","system_id":"levelo_inurba_marseille","lat":43.29896,"lon":5.43665,"is_reserved":false,"is_disabled":false,"rental_uris":{"android":"levelo://app?vid=d1657062-07f5-45f5-8049-248754237197","ios":"levelo://app?vid=d1657062-07f5-45f5-8049-248754237197"},"vehicle_type_id":"4","last_reported":1727021367,"current_range_meters":16000,"station_id":"ce4bhpp2rcd13ifvqhfg","pricing_plan_id":"cebpf4jnsgd1na2vs0mg"},{"bike_id":"98ff6644-a370-4a2c-919e-ac01acfdf93a","system_id":"levelo_inurba_marseille","lat":43.29253,"lon":5.40914,"is_reserved":false,"is_disabled":false,"rental_uris":{"android":"levelo://app?vid=98ff6644-a370-4a2c-919e-ac01acfdf93a","ios":"levelo://app?vid=98ff6644-a370-4a2c-919e-ac01acfdf93a"},"vehicle_type_id":"4","last_reported":1727021367,"current_range_meters":25200,"station_id":"ce4bh192rcd13ifvqdc0","pricing_plan_id":"cebpf4jnsgd1na2vs0mg"},{"bike_id":"3a56d3e0-f27e-48c7-8a11-d5f7878f6f42","system_id":"levelo_inurba_marseille","lat":43.29417,"lon":5.38623,"is_reserved":false,"is_disabled":false,"rental_uris":{"android":"levelo://app?vid=3a56d3e0-f27e-48c7-8a11-d5f7878f6f42","ios":"levelo://app?vid=3a56d3e0-f27e-48c7-8a11-d5f7878f6f42"},"vehicle_type_id":"4","last_reported":1727021367,"current_range_meters":35600,"station_id":"ce4bh2h2rcd13ifvqdh0","pricing_plan_id":"cebpf4jnsgd1na2vs0mg"},{"bike_id":"31ae89ff-8084-49ea-af97-b7da84ece067","system_id":"levelo_inurba_marseille","lat":43.254832,"lon":5.376925,"is_reserved":false,"is_disabled":false,"rental_uris":{"android":"levelo://app?vid=31ae89ff-8084-49ea-af97-b7da84ece067","ios":"levelo://app?vid=31ae89ff-8084-49ea-af97-b7da84ece067"},"vehicle_type_id":"4","last_reported":1727021367,"current_range_meters":20400,"station_id":"ce4bhh12rcd13ifvqff0","pricing_plan_id":"cebpf4jnsgd1na2vs0mg"},{"bike_id":"4476b9c4-f13e-4310-af55-0eed7165f87b","system_id":"levelo_inurba_marseille","lat":43.27073,"lon":5.42275,"is_reserved":false,"is_disabled":false,"rental_uris":{"android":"levelo://app?vid=4476b9c4-f13e-4310-af55-0eed7165f87b","ios":"levelo://app?vid=4476b9c4-f13e-4310-af55-0eed7165f87b"},"vehicle_type_id":"4","last_reported":1727021367,"current_range_meters":28800,"station_id":"ce4bhk92rcd13ifvqgb0","pricing_plan_id":"cebpf4jnsgd1na2vs0mg"},{"bike_id":"016978b3-6aaa-455d-80d0-d9261273b730","system_id":"levelo_inurba_marseille","lat":43.29529,"lon":5.39036,"is_reserved":false,"is_disabled":false,"rental_uris":{"android":"levelo://app?vid=016978b3-6aaa-455d-80d0-d9261273b730","ios":"levelo://app?vid=016978b3-6aaa-455d-80d0-d9261273b730"},"vehicle_type_id":"4","last_reported":1727021367,"current_range_meters":35200,"station_id":"ce4bh3p2rcd13ifvqdp0","pricing_plan_id":"cebpf4jnsgd1na2vs0mg"},{"bike_id":"d046ea25-f874-4b65-ad2e-583384260bfc","system_id":"levelo_inurba_marseille","lat":43.292084,"lon":5.382292,"is_reserved":false,"is_disabled":false,"rental_uris":{"android":"levelo://app?vid=d046ea25-f874-4b65-ad2e-583384260bfc","ios":"levelo://app?vid=d046ea25-f874-4b65-ad2e-583384260bfc"},"vehicle_type_id":"4","last_reported":1727021367,"current_range_meters":25200,"station_id":"ce4bh192rcd13ifvqdd0","pricing_plan_id":"cebpf4jnsgd1na2vs0mg"},{"bike_id":"4fbb5250-9647-470b-8d93-052750ba4685","system_id":"levelo_inurba_marseille","lat":43.287806,"lon":5.373697,"is_reserved":false,"is_disabled":false,"rental_uris":{"android":"levelo://app?vid=4fbb5250-9647-470b-8d93-052750ba4685","ios":"levelo://app?vid=4fbb5250-9647-470b-8d93-052750ba4685"},"vehicle_type_id":"4","last_reported":1727021367,"current_range_meters":25600,"station_id":"ce4bh692rcd13ifvqe90","pricing_plan_id":"cebpf4jnsgd1na2vs0mg"},{"bike_id":"6b145795-5510-4f70-ac28-0602773893f0","system_id":"levelo_inurba_marseille","lat":43.30931,"lon":5.40167,"is_reserved":false,"is_disabled":false,"rental_uris":{"android":"levelo://app?vid=6b145795-5510-4f70-ac28-0602773893f0","ios":"levelo://app?vid=6b145795-5510-4f70-ac28-0602773893f0"},"vehicle_type_id":"4","last_reported":1727021367,"current_range_meters":8400,"station_id":"ce4bgvp2rcd13ifvqct0","pricing_plan_id":"cebpf4jnsgd1na2vs0mg"},{"bike_id":"687e45cc-3291-4a06-a549-9ca2a3f5a1ad","system_id":"levelo_inurba_marseille","lat":43.23964,"lon":5.36629,"is_reserved":false,"is_disabled":false,"rental_uris":{"android":"levelo://app?vid=687e45cc-3291-4a06-a549-9ca2a3f5a1ad","ios":"levelo://app?vid=687e45cc-3291-4a06-a549-9ca2a3f5a1ad"},"vehicle_type_id":"4","last_reported":1727021367,"current_range_meters":38800,"station_id":"ce4bhi12rcd13ifvqfp0","pricing_plan_id":"cebpf4jnsgd1na2vs0mg"},{"bike_id":"fa690805-233a-4a70-a9f3-33f1b67cdb1f","system_id":"levelo_inurba_marseille","lat":43.32293,"lon":5.38261,"is_reserved":false,"is_disabled":false,"rental_uris":{"android":"levelo://app?vid=fa690805-233a-4a70-a9f3-33f1b67cdb1f","ios":"levelo://app?vid=fa690805-233a-4a70-a9f3-33f1b67cdb1f"},"vehicle_type_id":"4","last_reported":1727021367,"current_range_meters":7200,"station_id":"ce4bhr12rcd13ifvqhqg","pricing_plan_id":"cebpf4jnsgd1na2vs0mg"},{"bike_id":"57b9489f-926f-401e-beb7-ad1ce87e1c2c","system_id":"levelo_inurba_marseille","lat":43.28155,"lon":5.42643,"is_reserved":false,"is_disabled":false,"rental_uris":{"android":"levelo://app?vid=57b9489f-926f-401e-beb7-ad1ce87e1c2c","ios":"levelo://app?vid=57b9489f-926f-401e-beb7-ad1ce87e1c2c"},"vehicle_type_id":"4","last_reported":1727021367,"current_range_meters":31200,"station_id":"ce4bhnh2rcd13ifvqgug","pricing_plan_id":"cebpf4jnsgd1na2vs0mg"},{"bike_id":"0200dd7c-98aa-498a-bc7e-f8924685ba5e","system_id":"levelo_inurba_marseille","lat":43.24812,"lon":5.37458,"is_reserved":false,"is_disabled":false,"rental_uris":{"android":"levelo://app?vid=0200dd7c-98aa-498a-bc7e-f8924685ba5e","ios":"levelo://app?vid=0200dd7c-98aa-498a-bc7e-f8924685ba5e"},"vehicle_type_id":"4","last_reported":1727021367,"current_range_meters":38000,"station_id":"ce4bhgh2rcd13ifvqfb0","pricing_plan_id":"cebpf4jnsgd1na2vs0mg"},{"bike_id":"1fcf26f4-e2ab-4777-b698-9dd982256e96","system_id":"levelo_inurba_marseille","lat":43.30949,"lon":5.39035,"is_reserved":false,"is_disabled":false,"rental_uris":{"android":"levelo://app?vid=1fcf26f4-e2ab-4777-b698-9dd982256e96","ios":"levelo://app?vid=1fcf26f4-e2ab-4777-b698-9dd982256e96"},"vehicle_type_id":"4","last_reported":1727021367,"current_range_meters":6000,"station_id":"ce4bgup2rcd13ifvqco0","pricing_plan_id":"cebpf4jnsgd1na2vs0mg"},{"bike_id":"b2763354-ec6c-4733-8de6-6c4493759ae9","system_id":"levelo_inurba_marseille","lat":43.29034,"lon":5.40138,"is_reserved":false,"is_disabled":false,"rental_uris":{"android":"levelo://app?vid=b2763354-ec6c-4733-8de6-6c4493759ae9","ios":"levelo://app?vid=b2763354-ec6c-4733-8de6-6c4493759ae9"},"vehicle_type_id":"4","last_reported":1727021367,"current_range_meters":8400,"station_id":"","pricing_plan_id":"cebpf4jnsgd1na2vs0mg"},{"bike_id":"1b6d2bbe-5464-4651-a646-fec950493ab1","system_id":"levelo_inurba_marseille","lat":43.282583,"lon":5.350493,"is_reserved":false,"is_disabled":false,"rental_uris":{"android":"levelo://app?vid=1b6d2bbe-5464-4651-a646-fec950493ab1","ios":"levelo://app?vid=1b6d2bbe-5464-4651-a646-fec950493ab1"},"vehicle_type_id":"4","last_reported":1727021367,"current_range_meters":10000,"station_id":"ce4bh0h2rcd13ifvqd40","pricing_plan_id":"cebpf4jnsgd1na2vs0mg"},{"bike_id":"68522cc1-4c53-409b-86d6-42983bbb6220","system_id":"levelo_inurba_marseille","lat":43.23194,"lon":5.35548,"is_reserved":false,"is_disabled":false,"rental_uris":{"android":"levelo://app?vid=68522cc1-4c53-409b-86d6-42983bbb6220","ios":"levelo://app?vid=68522cc1-4c53-409b-86d6-42983bbb6220"},"vehicle_type_id":"4","last_reported":1727021367,"current_range_meters":33200,"station_id":"ce4bhu92rcd13ifvqi70","pricing_plan_id":"cebpf4jnsgd1na2vs0mg"},{"bike_id":"bfd4e76e-77ac-4212-ad69-60fcf7607b98","system_id":"levelo_inurba_marseille","lat":43.25122,"lon":5.40316,"is_reserved":false,"is_disabled":false,"rental_uris":{"android":"levelo://app?vid=bfd4e76e-77ac-4212-ad69-60fcf7607b98","ios":"levelo://app?vid=bfd4e76e-77ac-4212-ad69-60fcf7607b98"},"vehicle_type_id":"4","last_reported":1727021367,"current_range_meters":11200,"station_id":"ce4bhlh2rcd13ifvqgig","pricing_plan_id":"cebpf4jnsgd1na2vs0mg"},{"bike_id":"47c037ac-bde8-49f8-afa9-9c4e7e375df6","system_id":"levelo_inurba_marseille","lat":43.26937,"lon":5.40256,"is_reserved":false,"is_disabled":false,"rental_uris":{"android":"levelo://app?vid=47c037ac-bde8-49f8-afa9-9c4e7e375df6","ios":"levelo://app?vid=47c037ac-bde8-49f8-afa9-9c4e7e375df6"},"vehicle_type_id":"4","last_reported":1727021367,"current_range_meters":7200,"station_id":"cjm6bp8fraef2m0cb0m0","pricing_plan_id":"cebpf4jnsgd1na2vs0mg"},{"bike_id":"6e866676-6958-47a0-bba1-aad239c4e52e","system_id":"levelo_inurba_marseille","lat":43.30354,"lon":5.41878,"is_reserved":false,"is_disabled":false,"rental_uris":{"android":"levelo://app?vid=6e866676-6958-47a0-bba1-aad239c4e52e","ios":"levelo://app?vid=6e866676-6958-47a0-bba1-aad239c4e52e"},"vehicle_type_id":"4","last_reported":1727021367,"current_range_meters":20000,"station_id":"ce4bhop2rcd13ifvqh7g","pricing_plan_id":"cebpf4jnsgd1na2vs0mg"},{"bike_id":"d28ffa41-9d7e-41f1-8b70-1aa04f034503","system_id":"levelo_inurba_marseille","lat":43.29557,"lon":5.4228,"is_reserved":false,"is_disabled":false,"rental_uris":{"android":"levelo://app?vid=d28ffa41-9d7e-41f1-8b70-1aa04f034503","ios":"levelo://app?vid=d28ffa41-9d7e-41f1-8b70-1aa04f034503"},"vehicle_type_id":"4","last_reported":1727021367,"current_range_meters":3200,"station_id":"ce4bhph2rcd13ifvqhdg","pricing_plan_id":"cebpf4jnsgd1na2vs0mg"},{"bike_id":"bec92394-8860-4fe2-8433-524cc1554a7a","system_id":"levelo_inurba_marseille","lat":43.31713,"lon":5.43706,"is_reserved":false,"is_disabled":false,"rental_uris":{"android":"levelo://app?vid=bec92394-8860-4fe2-8433-524cc1554a7a","ios":"levelo://app?vid=bec92394-8860-4fe2-8433-524cc1554a7a"},"vehicle_type_id":"4","last_reported":1727021367,"current_range_meters":24400,"station_id":"ce4bhp92rcd13ifvqhcg","pricing_plan_id":"cebpf4jnsgd1na2vs0mg"},{"bike_id":"ee44a894-2c54-4904-8f82-464a461fd4de","system_id":"levelo_inurba_marseille","lat":43.27285,"lon":5.39089,"is_reserved":false,"is_disabled":false,"rental_uris":{"android":"levelo://app?vid=ee44a894-2c54-4904-8f82-464a461fd4de","ios":"levelo://app?vid=ee44a894-2c54-4904-8f82-464a461fd4de"},"vehicle_type_id":"4","last_reported":1727021367,"current_range_meters":6800,"station_id":"ce4bhgp2rcd13ifvqfe0","pricing_plan_id":"cebpf4jnsgd1na2vs0mg"},{"bike_id":"0c8f79a8-9ff5-4099-9278-bae01bc415a7","system_id":"levelo_inurba_marseille","lat":43.31073,"lon":5.38351,"is_reserved":false,"is_disabled":false,"rental_uris":{"android":"levelo://app?vid=0c8f79a8-9ff5-4099-9278-bae01bc415a7","ios":"levelo://app?vid=0c8f79a8-9ff5-4099-9278-bae01bc415a7"},"vehicle_type_id":"4","last_reported":1727021367,"current_range_meters":28800,"station_id":"ce4bgv92rcd13ifvqcr0","pricing_plan_id":"cebpf4jnsgd1na2vs0mg"},{"bike_id":"f0bbfcf8-7819-4cae-bb98-5c18c55fa57e","system_id":"levelo_inurba_marseille","lat":43.31225,"lon":5.36861,"is_reserved":false,"is_disabled":false,"rental_uris":{"android":"levelo://app?vid=f0bbfcf8-7819-4cae-bb98-5c18c55fa57e","ios":"levelo://app?vid=f0bbfcf8-7819-4cae-bb98-5c18c55fa57e"},"vehicle_type_id":"4","last_reported":1727021367,"current_range_meters":38000,"station_id":"ce4bgl92rcd13ifvqbq0","pricing_plan_id":"cebpf4jnsgd1na2vs0mg"},{"bike_id":"c6a97885-a845-4e54-8f03-a950bd2f44a4","system_id":"levelo_inurba_marseille","lat":43.28155,"lon":5.42643,"is_reserved":false,"is_disabled":false,"rental_uris":{"android":"levelo://app?vid=c6a97885-a845-4e54-8f03-a950bd2f44a4","ios":"levelo://app?vid=c6a97885-a845-4e54-8f03-a950bd2f44a4"},"vehicle_type_id":"4","last_reported":1727021367,"current_range_meters":23200,"station_id":"ce4bhnh2rcd13ifvqgug","pricing_plan_id":"cebpf4jnsgd1na2vs0mg"},{"bike_id":"5feb8f9d-df3e-4036-aaa2-6a9de2f6503a","system_id":"levelo_inurba_marseille","lat":43.29899,"lon":5.43662,"is_reserved":false,"is_disabled":false,"rental_uris":{"android":"levelo://app?vid=5feb8f9d-df3e-4036-aaa2-6a9de2f6503a","ios":"levelo://app?vid=5feb8f9d-df3e-4036-aaa2-6a9de2f6503a"},"vehicle_type_id":"4","last_reported":1727021367,"current_range_meters":36800,"station_id":"ce4bhpp2rcd13ifvqhfg","pricing_plan_id":"cebpf4jnsgd1na2vs0mg"},{"bike_id":"2993445b-5301-4c31-8c26-03dc4f0bf18f","system_id":"levelo_inurba_marseille","lat":43.28352,"lon":5.381,"is_reserved":false,"is_disabled":false,"rental_uris":{"android":"levelo://app?vid=2993445b-5301-4c31-8c26-03dc4f0bf18f","ios":"levelo://app?vid=2993445b-5301-4c31-8c26-03dc4f0bf18f"},"vehicle_type_id":"4","last_reported":1727021367,"current_range_meters":16800,"station_id":"ce4bh412rcd13ifvqdr0","pricing_plan_id":"cebpf4jnsgd1na2vs0mg"},{"bike_id":"7b005697-21d6-439b-bc8d-4dc8eeebdf94","system_id":"levelo_inurba_marseille","lat":43.32662,"lon":5.40988,"is_reserved":false,"is_disabled":false,"rental_uris":{"android":"levelo://app?vid=7b005697-21d6-439b-bc8d-4dc8eeebdf94","ios":"levelo://app?vid=7b005697-21d6-439b-bc8d-4dc8eeebdf94"},"vehicle_type_id":"4","last_reported":1727021367,"current_range_meters":22000,"station_id":"ce4bhpp2rcd13ifvqhgg","pricing_plan_id":"cebpf4jnsgd1na2vs0mg"},{"bike_id":"58e7bc79-5583-4fe7-94bb-a9e3ceb2981f","system_id":"levelo_inurba_marseille","lat":43.22938,"lon":5.35379,"is_reserved":false,"is_disabled":false,"rental_uris":{"android":"levelo://app?vid=58e7bc79-5583-4fe7-94bb-a9e3ceb2981f","ios":"levelo://app?vid=58e7bc79-5583-4fe7-94bb-a9e3ceb2981f"},"vehicle_type_id":"4","last_reported":1727021367,"current_range_meters":38800,"station_id":"cpo3532slgdg3j2ikp40","pricing_plan_id":"cebpf4jnsgd1na2vs0mg"},{"bike_id":"c2dfbb3f-5dff-4d62-b3b4-9c09354785c3","system_id":"levelo_inurba_marseille","lat":43.2695,"lon":5.40242,"is_reserved":false,"is_disabled":false,"rental_uris":{"android":"levelo://app?vid=c2dfbb3f-5dff-4d62-b3b4-9c09354785c3","ios":"levelo://app?vid=c2dfbb3f-5dff-4d62-b3b4-9c09354785c3"},"vehicle_type_id":"4","last_reported":1727021367,"current_range_meters":30400,"station_id":"cjm6bp8fraef2m0cb0m0","pricing_plan_id":"cebpf4jnsgd1na2vs0mg"},{"bike_id":"ad05fde7-3f75-401b-adbc-978951a81a6a","system_id":"levelo_inurba_marseille","lat":43.31276,"lon":5.40172,"is_reserved":false,"is_disabled":false,"rental_uris":{"android":"levelo://app?vid=ad05fde7-3f75-401b-adbc-978951a81a6a","ios":"levelo://app?vid=ad05fde7-3f75-401b-adbc-978951a81a6a"},"vehicle_type_id":"4","last_reported":1727021367,"current_range_meters":32000,"station_id":"ce4bh092rcd13ifvqd30","pricing_plan_id":"cebpf4jnsgd1na2vs0mg"},{"bike_id":"b194adab-9959-42a7-b917-d5d4cc06a53e","system_id":"levelo_inurba_marseille","lat":43.2293,"lon":5.35372,"is_reserved":false,"is_disabled":false,"rental_uris":{"android":"levelo://app?vid=b194adab-9959-42a7-b917-d5d4cc06a53e","ios":"levelo://app?vid=b194adab-9959-42a7-b917-d5d4cc06a53e"},"vehicle_type_id":"4","last_reported":1727021367,"current_range_meters":28000,"station_id":"cpo3532slgdg3j2ikp40","pricing_plan_id":"cebpf4jnsgd1na2vs0mg"},{"bike_id":"e6190756-118f-4eb6-a85b-235c149ff787","system_id":"levelo_inurba_marseille","lat":43.30888,"lon":5.39657,"is_reserved":false,"is_disabled":false,"rental_uris":{"android":"levelo://app?vid=e6190756-118f-4eb6-a85b-235c149ff787","ios":"levelo://app?vid=e6190756-118f-4eb6-a85b-235c149ff787"},"vehicle_type_id":"4","last_reported":1727021367,"current_range_meters":33600,"station_id":"ce4bh012rcd13ifvqcv0","pricing_plan_id":"cebpf4jnsgd1na2vs0mg"},{"bike_id":"623299df-9a5e-483a-bad5-6c09c48ea59a","system_id":"levelo_inurba_marseille","lat":43.3031,"lon":5.36894,"is_reserved":false,"is_disabled":false,"rental_uris":{"android":"levelo://app?vid=623299df-9a5e-483a-bad5-6c09c48ea59a","ios":"levelo://app?vid=623299df-9a5e-483a-bad5-6c09c48ea59a"},"vehicle_type_id":"4","last_reported":1727021367,"current_range_meters":37600,"station_id":"ce4bgqh2rcd13ifvqc5g","pricing_plan_id":"cebpf4jnsgd1na2vs0mg"},{"bike_id":"1102eb3d-2dc8-4019-9e1d-c4670dad7e11","system_id":"levelo_inurba_marseille","lat":43.23963,"lon":5.36618,"is_reserved":false,"is_disabled":false,"rental_uris":{"android":"levelo://app?vid=1102eb3d-2dc8-4019-9e1d-c4670dad7e11","ios":"levelo://app?vid=1102eb3d-2dc8-4019-9e1d-c4670dad7e11"},"vehicle_type_id":"4","last_reported":1727021367,"current_range_meters":10800,"station_id":"ce4bhi12rcd13ifvqfp0","pricing_plan_id":"cebpf4jnsgd1na2vs0mg"},{"bike_id":"155d60d0-cebb-4c03-b630-1a5e21e0b09f","system_id":"levelo_inurba_marseille","lat":43.29873,"lon":5.39732,"is_reserved":false,"is_disabled":false,"rental_uris":{"android":"levelo://app?vid=155d60d0-cebb-4c03-b630-1a5e21e0b09f","ios":"levelo://app?vid=155d60d0-cebb-4c03-b630-1a5e21e0b09f"},"vehicle_type_id":"4","last_reported":1727021367,"current_range_meters":11600,"station_id":"ce4bh0h2rcd13ifvqd50","pricing_plan_id":"cebpf4jnsgd1na2vs0mg"},{"bike_id":"50b594a1-6b2a-411b-998e-bb1d2b7acfdf","system_id":"levelo_inurba_marseille","lat":43.26942,"lon":5.40253,"is_reserved":false,"is_disabled":false,"rental_uris":{"android":"levelo://app?vid=50b594a1-6b2a-411b-998e-bb1d2b7acfdf","ios":"levelo://app?vid=50b594a1-6b2a-411b-998e-bb1d2b7acfdf"},"vehicle_type_id":"4","last_reported":1727021367,"current_range_meters":6800,"station_id":"cjm6bp8fraef2m0cb0m0","pricing_plan_id":"cebpf4jnsgd1na2vs0mg"},{"bike_id":"c09c9a16-645c-40f8-9a0d-725618baeefd","system_id":"levelo_inurba_marseille","lat":43.3031,"lon":5.36896,"is_reserved":false,"is_disabled":false,"rental_uris":{"android":"levelo://app?vid=c09c9a16-645c-40f8-9a0d-725618baeefd","ios":"levelo://app?vid=c09c9a16-645c-40f8-9a0d-725618baeefd"},"vehicle_type_id":"4","last_reported":1727021367,"current_range_meters":19200,"station_id":"ce4bgqh2rcd13ifvqc5g","pricing_plan_id":"cebpf4jnsgd1na2vs0mg"},{"bike_id":"7c7205bb-7829-4b9e-ac2f-618cc9341607","system_id":"levelo_inurba_marseille","lat":43.278097,"lon":5.407126,"is_reserved":false,"is_disabled":false,"rental_uris":{"android":"levelo://app?vid=7c7205bb-7829-4b9e-ac2f-618cc9341607","ios":"levelo://app?vid=7c7205bb-7829-4b9e-ac2f-618cc9341607"},"vehicle_type_id":"4","last_reported":1727021367,"current_range_meters":10800,"station_id":"ce4bhnh2rcd13ifvqgtg","pricing_plan_id":"cebpf4jnsgd1na2vs0mg"},{"bike_id":"36dc71fe-bfc9-4a4d-b2ef-39ebb067c458","system_id":"levelo_inurba_marseille","lat":43.29563,"lon":5.42288,"is_reserved":false,"is_disabled":false,"rental_uris":{"android":"levelo://app?vid=36dc71fe-bfc9-4a4d-b2ef-39ebb067c458","ios":"levelo://app?vid=36dc71fe-bfc9-4a4d-b2ef-39ebb067c458"},"vehicle_type_id":"4","last_reported":1727021367,"current_range_meters":37600,"station_id":"ce4bhph2rcd13ifvqhdg","pricing_plan_id":"cebpf4jnsgd1na2vs0mg"},{"bike_id":"d68b99e9-9d21-45cb-87ef-1fe0dc742c0d","system_id":"levelo_inurba_marseille","lat":43.29871,"lon":5.39732,"is_reserved":false,"is_disabled":false,"rental_uris":{"android":"levelo://app?vid=d68b99e9-9d21-45cb-87ef-1fe0dc742c0d","ios":"levelo://app?vid=d68b99e9-9d21-45cb-87ef-1fe0dc742c0d"},"vehicle_type_id":"4","last_reported":1727021367,"current_range_meters":21600,"station_id":"ce4bh0h2rcd13ifvqd50","pricing_plan_id":"cebpf4jnsgd1na2vs0mg"},{"bike_id":"baad33e0-e11d-4e13-9910-d7ae58107e3b","system_id":"levelo_inurba_marseille","lat":43.32106,"lon":5.36772,"is_reserved":false,"is_disabled":false,"rental_uris":{"android":"levelo://app?vid=baad33e0-e11d-4e13-9910-d7ae58107e3b","ios":"levelo://app?vid=baad33e0-e11d-4e13-9910-d7ae58107e3b"},"vehicle_type_id":"4","last_reported":1727021367,"current_range_meters":35600,"station_id":"","pricing_plan_id":"cebpf4jnsgd1na2vs0mg"},{"bike_id":"bcbe6095-74c6-4e6a-9235-6041481bec8a","system_id":"levelo_inurba_marseille","lat":43.23184,"lon":5.39984,"is_reserved":false,"is_disabled":false,"rental_uris":{"android":"levelo://app?vid=bcbe6095-74c6-4e6a-9235-6041481bec8a","ios":"levelo://app?vid=bcbe6095-74c6-4e6a-9235-6041481bec8a"},"vehicle_type_id":"4","last_reported":1727021367,"current_range_meters":7200,"station_id":"ce4bhn12rcd13ifvqgqg","pricing_plan_id":"cebpf4jnsgd1na2vs0mg"},{"bike_id":"1437b30c-7d45-456f-be5f-6d19204997b1","system_id":"levelo_inurba_marseille","lat":43.32478,"lon":5.36556,"is_reserved":false,"is_disabled":false,"rental_uris":{"android":"levelo://app?vid=1437b30c-7d45-456f-be5f-6d19204997b1","ios":"levelo://app?vid=1437b30c-7d45-456f-be5f-6d19204997b1"},"vehicle_type_id":"4","last_reported":1727021367,"current_range_meters":26800,"station_id":"ce4bhs12rcd13ifvqhvg","pricing_plan_id":"cebpf4jnsgd1na2vs0mg"},{"bike_id":"7ae379da-9440-4378-a690-86693789de4b","system_id":"levelo_inurba_marseille","lat":43.29555,"lon":5.42283,"is_reserved":false,"is_disabled":false,"rental_uris":{"android":"levelo://app?vid=7ae379da-9440-4378-a690-86693789de4b","ios":"levelo://app?vid=7ae379da-9440-4378-a690-86693789de4b"},"vehicle_type_id":"4","last_reported":1727021367,"current_range_meters":17200,"station_id":"ce4bhph2rcd13ifvqhdg","pricing_plan_id":"cebpf4jnsgd1na2vs0mg"},{"bike_id":"02552a84-93ac-4f47-9115-b594cbf16674","system_id":"levelo_inurba_marseille","lat":43.29553,"lon":5.42283,"is_reserved":false,"is_disabled":false,"rental_uris":{"android":"levelo://app?vid=02552a84-93ac-4f47-9115-b594cbf16674","ios":"levelo://app?vid=02552a84-93ac-4f47-9115-b594cbf16674"},"vehicle_type_id":"4","last_reported":1727021367,"current_range_meters":30800,"station_id":"ce4bhph2rcd13ifvqhdg","pricing_plan_id":"cebpf4jnsgd1na2vs0mg"},{"bike_id":"d7cb4058-29e2-4447-8089-cd8353339307","system_id":"levelo_inurba_marseille","lat":43.312923,"lon":5.396664,"is_reserved":false,"is_disabled":false,"rental_uris":{"android":"levelo://app?vid=d7cb4058-29e2-4447-8089-cd8353339307","ios":"levelo://app?vid=d7cb4058-29e2-4447-8089-cd8353339307"},"vehicle_type_id":"4","last_reported":1727021367,"current_range_meters":16000,"station_id":"ce4bgvp2rcd13ifvqcu0","pricing_plan_id":"cebpf4jnsgd1na2vs0mg"},{"bike_id":"d12f3a84-89bb-466c-b422-746b34ab5adf","system_id":"levelo_inurba_marseille","lat":43.284583,"lon":5.358707,"is_reserved":false,"is_disabled":false,"rental_uris":{"android":"levelo://app?vid=d12f3a84-89bb-466c-b422-746b34ab5adf","ios":"levelo://app?vid=d12f3a84-89bb-466c-b422-746b34ab5adf"},"vehicle_type_id":"4","last_reported":1727021367,"current_range_meters":33600,"station_id":"ce4bhah2rcd13ifvqei0","pricing_plan_id":"cebpf4jnsgd1na2vs0mg"},{"bike_id":"b49e8aa4-b4d7-4f9d-a437-8d1bbdfe618a","system_id":"levelo_inurba_marseille","lat":43.29557,"lon":5.42284,"is_reserved":false,"is_disabled":false,"rental_uris":{"android":"levelo://app?vid=b49e8aa4-b4d7-4f9d-a437-8d1bbdfe618a","ios":"levelo://app?vid=b49e8aa4-b4d7-4f9d-a437-8d1bbdfe618a"},"vehicle_type_id":"4","last_reported":1727021367,"current_range_meters":38800,"station_id":"ce4bhph2rcd13ifvqhdg","pricing_plan_id":"cebpf4jnsgd1na2vs0mg"},{"bike_id":"c9b253e6-9676-46c2-94bb-ce5fd9a7e6e6","system_id":"levelo_inurba_marseille","lat":43.29049,"lon":5.39963,"is_reserved":false,"is_disabled":false,"rental_uris":{"android":"levelo://app?vid=c9b253e6-9676-46c2-94bb-ce5fd9a7e6e6","ios":"levelo://app?vid=c9b253e6-9676-46c2-94bb-ce5fd9a7e6e6"},"vehicle_type_id":"4","last_reported":1727021367,"current_range_meters":6400,"station_id":"ce4bh392rcd13ifvqdm0","pricing_plan_id":"cebpf4jnsgd1na2vs0mg"},{"bike_id":"128fb84f-be1d-4fd6-ae22-281f00506129","system_id":"levelo_inurba_marseille","lat":43.30132,"lon":5.39864,"is_reserved":false,"is_disabled":false,"rental_uris":{"android":"levelo://app?vid=128fb84f-be1d-4fd6-ae22-281f00506129","ios":"levelo://app?vid=128fb84f-be1d-4fd6-ae22-281f00506129"},"vehicle_type_id":"4","last_reported":1727021367,"current_range_meters":39200,"station_id":"ce4bh0h2rcd13ifvqd40","pricing_plan_id":"cebpf4jnsgd1na2vs0mg"},{"bike_id":"6175892d-cfa3-4dd0-82f0-2574d7cee8f9","system_id":"levelo_inurba_marseille","lat":43.27817,"lon":5.40706,"is_reserved":false,"is_disabled":false,"rental_uris":{"android":"levelo://app?vid=6175892d-cfa3-4dd0-82f0-2574d7cee8f9","ios":"levelo://app?vid=6175892d-cfa3-4dd0-82f0-2574d7cee8f9"},"vehicle_type_id":"4","last_reported":1727021367,"current_range_meters":14800,"station_id":"ce4bhnh2rcd13ifvqgtg","pricing_plan_id":"cebpf4jnsgd1na2vs0mg"},{"bike_id":"b5dac5e1-0a40-4def-8c62-f68a67a7e0a5","system_id":"levelo_inurba_marseille","lat":43.32651,"lon":5.43822,"is_reserved":false,"is_disabled":false,"rental_uris":{"android":"levelo://app?vid=b5dac5e1-0a40-4def-8c62-f68a67a7e0a5","ios":"levelo://app?vid=b5dac5e1-0a40-4def-8c62-f68a67a7e0a5"},"vehicle_type_id":"4","last_reported":1727021367,"current_range_meters":17600,"station_id":"","pricing_plan_id":"cebpf4jnsgd1na2vs0mg"},{"bike_id":"ced09d74-7f08-47d2-b57c-7d11e0264a06","system_id":"levelo_inurba_marseille","lat":43.28269,"lon":5.35075,"is_reserved":false,"is_disabled":false,"rental_uris":{"android":"levelo://app?vid=ced09d74-7f08-47d2-b57c-7d11e0264a06","ios":"levelo://app?vid=ced09d74-7f08-47d2-b57c-7d11e0264a06"},"vehicle_type_id":"4","last_reported":1727021367,"current_range_meters":18000,"station_id":"ce4bhbp2rcd13ifvqerg","pricing_plan_id":"cebpf4jnsgd1na2vs0mg"},{"bike_id":"7ab0a073-a62b-47c5-ab20-b680f4a17c5f","system_id":"levelo_inurba_marseille","lat":43.26946,"lon":5.40245,"is_reserved":false,"is_disabled":false,"rental_uris":{"android":"levelo://app?vid=7ab0a073-a62b-47c5-ab20-b680f4a17c5f","ios":"levelo://app?vid=7ab0a073-a62b-47c5-ab20-b680f4a17c5f"},"vehicle_type_id":"4","last_reported":1727021367,"current_range_meters":23200,"station_id":"cjm6bp8fraef2m0cb0m0","pricing_plan_id":"cebpf4jnsgd1na2vs0mg"},{"bike_id":"839f8b3a-cc89-4eeb-ab1c-f7d4b199af52","system_id":"levelo_inurba_marseille","lat":43.29227,"lon":5.36067,"is_reserved":false,"is_disabled":false,"rental_uris":{"android":"levelo://app?vid=839f8b3a-cc89-4eeb-ab1c-f7d4b199af52","ios":"levelo://app?vid=839f8b3a-cc89-4eeb-ab1c-f7d4b199af52"},"vehicle_type_id":"4","last_reported":1727021367,"current_range_meters":38800,"station_id":"ce4bhbh2rcd13ifvqeqg","pricing_plan_id":"cebpf4jnsgd1na2vs0mg"},{"bike_id":"51000828-0eff-4c0e-bc20-8955f665d7e6","system_id":"levelo_inurba_marseille","lat":43.29571,"lon":5.39972,"is_reserved":false,"is_disabled":false,"rental_uris":{"android":"levelo://app?vid=51000828-0eff-4c0e-bc20-8955f665d7e6","ios":"levelo://app?vid=51000828-0eff-4c0e-bc20-8955f665d7e6"},"vehicle_type_id":"4","last_reported":1727021367,"current_range_meters":28400,"station_id":"ce4bh312rcd13ifvqdj0","pricing_plan_id":"cebpf4jnsgd1na2vs0mg"},{"bike_id":"71745df1-8511-42d1-b236-94ecb1109e61","system_id":"levelo_inurba_marseille","lat":43.31711,"lon":5.39612,"is_reserved":false,"is_disabled":false,"rental_uris":{"android":"levelo://app?vid=71745df1-8511-42d1-b236-94ecb1109e61","ios":"levelo://app?vid=71745df1-8511-42d1-b236-94ecb1109e61"},"vehicle_type_id":"4","last_reported":1727021367,"current_range_meters":8400,"station_id":"","pricing_plan_id":"cebpf4jnsgd1na2vs0mg"},{"bike_id":"85483b59-c8df-4cee-be4f-dbeaa33c5c45","system_id":"levelo_inurba_marseille","lat":43.292053,"lon":5.392897,"is_reserved":false,"is_disabled":false,"rental_uris":{"android":"levelo://app?vid=85483b59-c8df-4cee-be4f-dbeaa33c5c45","ios":"levelo://app?vid=85483b59-c8df-4cee-be4f-dbeaa33c5c45"},"vehicle_type_id":"4","last_reported":1727021367,"current_range_meters":24400,"station_id":"ce4bh192rcd13ifvqdd0","pricing_plan_id":"cebpf4jnsgd1na2vs0mg"},{"bike_id":"5aa63b1e-5371-40ff-85c7-2d94eb9ac201","system_id":"levelo_inurba_marseille","lat":43.31081,"lon":5.42429,"is_reserved":false,"is_disabled":false,"rental_uris":{"android":"levelo://app?vid=5aa63b1e-5371-40ff-85c7-2d94eb9ac201","ios":"levelo://app?vid=5aa63b1e-5371-40ff-85c7-2d94eb9ac201"},"vehicle_type_id":"4","last_reported":1727021367,"current_range_meters":26000,"station_id":"ce4bhp92rcd13ifvqhag","pricing_plan_id":"cebpf4jnsgd1na2vs0mg"},{"bike_id":"5f6e5321-ccd4-470b-8425-a6713c6ac745","system_id":"levelo_inurba_marseille","lat":43.263641,"lon":5.40445,"is_reserved":false,"is_disabled":false,"rental_uris":{"android":"levelo://app?vid=5f6e5321-ccd4-470b-8425-a6713c6ac745","ios":"levelo://app?vid=5f6e5321-ccd4-470b-8425-a6713c6ac745"},"vehicle_type_id":"4","last_reported":1727021367,"current_range_meters":26000,"station_id":"ce4bhkp2rcd13ifvqgd0","pricing_plan_id":"cebpf4jnsgd1na2vs0mg"},{"bike_id":"d399b5a5-50ac-471e-9ce7-cb1b1b3a1724","system_id":"levelo_inurba_marseille","lat":43.33023,"lon":5.39039,"is_reserved":false,"is_disabled":false,"rental_uris":{"android":"levelo://app?vid=d399b5a5-50ac-471e-9ce7-cb1b1b3a1724","ios":"levelo://app?vid=d399b5a5-50ac-471e-9ce7-cb1b1b3a1724"},"vehicle_type_id":"4","last_reported":1727021367,"current_range_meters":38000,"station_id":"ce4bhr92rcd13ifvqhrg","pricing_plan_id":"cebpf4jnsgd1na2vs0mg"},{"bike_id":"22e4a15e-6041-4c71-b288-1c12c69d262d","system_id":"levelo_inurba_marseille","lat":43.33719,"lon":5.39178,"is_reserved":false,"is_disabled":false,"rental_uris":{"android":"levelo://app?vid=22e4a15e-6041-4c71-b288-1c12c69d262d","ios":"levelo://app?vid=22e4a15e-6041-4c71-b288-1c12c69d262d"},"vehicle_type_id":"4","last_reported":1727021367,"current_range_meters":7200,"station_id":"ce4bhr92rcd13ifvqhsg","pricing_plan_id":"cebpf4jnsgd1na2vs0mg"},{"bike_id":"a7a59cec-e977-46aa-95ba-59415d9a8b68","system_id":"levelo_inurba_marseille","lat":43.26203,"lon":5.37928,"is_reserved":false,"is_disabled":false,"rental_uris":{"android":"levelo://app?vid=a7a59cec-e977-46aa-95ba-59415d9a8b68","ios":"levelo://app?vid=a7a59cec-e977-46aa-95ba-59415d9a8b68"},"vehicle_type_id":"4","last_reported":1727021367,"current_range_meters":19200,"station_id":"ce4bhjp2rcd13ifvqg90","pricing_plan_id":"cebpf4jnsgd1na2vs0mg"},{"bike_id":"a0cec0c6-bea1-4cf7-9d62-e7af9d40b2bb","system_id":"levelo_inurba_marseille","lat":43.29917,"lon":5.37474,"is_reserved":false,"is_disabled":false,"rental_uris":{"android":"levelo://app?vid=a0cec0c6-bea1-4cf7-9d62-e7af9d40b2bb","ios":"levelo://app?vid=a0cec0c6-bea1-4cf7-9d62-e7af9d40b2bb"},"vehicle_type_id":"4","last_reported":1727021367,"current_range_meters":38800,"station_id":"ce4bgjh2rcd13ifvqbg0","pricing_plan_id":"cebpf4jnsgd1na2vs0mg"},{"bike_id":"2bdedbfb-e808-4a19-80d3-cafbf2673b07","system_id":"levelo_inurba_marseille","lat":43.30144,"lon":5.38069,"is_reserved":false,"is_disabled":false,"rental_uris":{"android":"levelo://app?vid=2bdedbfb-e808-4a19-80d3-cafbf2673b07","ios":"levelo://app?vid=2bdedbfb-e808-4a19-80d3-cafbf2673b07"},"vehicle_type_id":"4","last_reported":1727021367,"current_range_meters":24400,"station_id":"ce4bgjp2rcd13ifvqbh0","pricing_plan_id":"cebpf4jnsgd1na2vs0mg"},{"bike_id":"ab9de632-0a34-4da5-8550-8ec2dcde3f4c","system_id":"levelo_inurba_marseille","lat":43.23182,"lon":5.39985,"is_reserved":false,"is_disabled":false,"rental_uris":{"android":"levelo://app?vid=ab9de632-0a34-4da5-8550-8ec2dcde3f4c","ios":"levelo://app?vid=ab9de632-0a34-4da5-8550-8ec2dcde3f4c"},"vehicle_type_id":"4","last_reported":1727021367,"current_range_meters":38800,"station_id":"ce4bhn12rcd13ifvqgqg","pricing_plan_id":"cebpf4jnsgd1na2vs0mg"},{"bike_id":"fa7088b9-042f-4b1f-8209-46447773c686","system_id":"levelo_inurba_marseille","lat":43.31229,"lon":5.36851,"is_reserved":false,"is_disabled":false,"rental_uris":{"android":"levelo://app?vid=fa7088b9-042f-4b1f-8209-46447773c686","ios":"levelo://app?vid=fa7088b9-042f-4b1f-8209-46447773c686"},"vehicle_type_id":"4","last_reported":1727021367,"current_range_meters":28000,"station_id":"ce4bgl92rcd13ifvqbq0","pricing_plan_id":"cebpf4jnsgd1na2vs0mg"},{"bike_id":"a67b4287-da83-43eb-8e86-126974c9a016","system_id":"levelo_inurba_marseille","lat":43.29543,"lon":5.42272,"is_reserved":false,"is_disabled":false,"rental_uris":{"android":"levelo://app?vid=a67b4287-da83-43eb-8e86-126974c9a016","ios":"levelo://app?vid=a67b4287-da83-43eb-8e86-126974c9a016"},"vehicle_type_id":"4","last_reported":1727021367,"current_range_meters":28400,"station_id":"ce4bhph2rcd13ifvqhdg","pricing_plan_id":"cebpf4jnsgd1na2vs0mg"},{"bike_id":"231df590-15eb-4c0a-bdf6-dddd3cb861cb","system_id":"levelo_inurba_marseille","lat":43.337444,"lon":5.374475,"is_reserved":false,"is_disabled":false,"rental_uris":{"android":"levelo://app?vid=231df590-15eb-4c0a-bdf6-dddd3cb861cb","ios":"levelo://app?vid=231df590-15eb-4c0a-bdf6-dddd3cb861cb"},"vehicle_type_id":"4","last_reported":1727021367,"current_range_meters":25600,"station_id":"","pricing_plan_id":"cebpf4jnsgd1na2vs0mg"},{"bike_id":"e7182743-47aa-4d18-863c-0f3d5e08d29a","system_id":"levelo_inurba_marseille","lat":43.28041,"lon":5.36937,"is_reserved":false,"is_disabled":false,"rental_uris":{"android":"levelo://app?vid=e7182743-47aa-4d18-863c-0f3d5e08d29a","ios":"levelo://app?vid=e7182743-47aa-4d18-863c-0f3d5e08d29a"},"vehicle_type_id":"4","last_reported":1727021367,"current_range_meters":21600,"station_id":"ce4bha12rcd13ifvqef0","pricing_plan_id":"cebpf4jnsgd1na2vs0mg"},{"bike_id":"448f92db-eef2-46d1-9885-c2b2d5cc277a","system_id":"levelo_inurba_marseille","lat":43.29265,"lon":5.40916,"is_reserved":false,"is_disabled":false,"rental_uris":{"android":"levelo://app?vid=448f92db-eef2-46d1-9885-c2b2d5cc277a","ios":"levelo://app?vid=448f92db-eef2-46d1-9885-c2b2d5cc277a"},"vehicle_type_id":"4","last_reported":1727021367,"current_range_meters":19200,"station_id":"ce4bh192rcd13ifvqdc0","pricing_plan_id":"cebpf4jnsgd1na2vs0mg"},{"bike_id":"3b211465-5030-4ebd-b5e2-78bdfeebc435","system_id":"levelo_inurba_marseille","lat":43.33717,"lon":5.39177,"is_reserved":false,"is_disabled":false,"rental_uris":{"android":"levelo://app?vid=3b211465-5030-4ebd-b5e2-78bdfeebc435","ios":"levelo://app?vid=3b211465-5030-4ebd-b5e2-78bdfeebc435"},"vehicle_type_id":"4","last_reported":1727021367,"current_range_meters":26800,"station_id":"ce4bhr92rcd13ifvqhsg","pricing_plan_id":"cebpf4jnsgd1na2vs0mg"},{"bike_id":"7897a150-94c1-4dd5-9613-860aa8c5af9a","system_id":"levelo_inurba_marseille","lat":43.33023,"lon":5.39041,"is_reserved":false,"is_disabled":false,"rental_uris":{"android":"levelo://app?vid=7897a150-94c1-4dd5-9613-860aa8c5af9a","ios":"levelo://app?vid=7897a150-94c1-4dd5-9613-860aa8c5af9a"},"vehicle_type_id":"4","last_reported":1727021367,"current_range_meters":31200,"station_id":"ce4bhr92rcd13ifvqhrg","pricing_plan_id":"cebpf4jnsgd1na2vs0mg"},{"bike_id":"60655afc-5271-4ce9-963f-24491315a32c","system_id":"levelo_inurba_marseille","lat":43.3127,"lon":5.369536,"is_reserved":false,"is_disabled":false,"rental_uris":{"android":"levelo://app?vid=60655afc-5271-4ce9-963f-24491315a32c","ios":"levelo://app?vid=60655afc-5271-4ce9-963f-24491315a32c"},"vehicle_type_id":"4","last_reported":1727021367,"current_range_meters":7200,"station_id":"ce4bgl92rcd13ifvqbq0","pricing_plan_id":"cebpf4jnsgd1na2vs0mg"},{"bike_id":"f5c5eba8-22c4-43b2-9a35-b371d00e1c36","system_id":"levelo_inurba_marseille","lat":43.28362,"lon":5.38638,"is_reserved":false,"is_disabled":false,"rental_uris":{"android":"levelo://app?vid=f5c5eba8-22c4-43b2-9a35-b371d00e1c36","ios":"levelo://app?vid=f5c5eba8-22c4-43b2-9a35-b371d00e1c36"},"vehicle_type_id":"4","last_reported":1727021367,"current_range_meters":19200,"station_id":"ce4bh492rcd13ifvqdvg","pricing_plan_id":"cebpf4jnsgd1na2vs0mg"},{"bike_id":"3e156987-96e3-48ad-8746-0582637bdaa1","system_id":"levelo_inurba_marseille","lat":43.29899,"lon":5.43669,"is_reserved":false,"is_disabled":false,"rental_uris":{"android":"levelo://app?vid=3e156987-96e3-48ad-8746-0582637bdaa1","ios":"levelo://app?vid=3e156987-96e3-48ad-8746-0582637bdaa1"},"vehicle_type_id":"4","last_reported":1727021367,"current_range_meters":22800,"station_id":"ce4bhpp2rcd13ifvqhfg","pricing_plan_id":"cebpf4jnsgd1na2vs0mg"},{"bike_id":"039959cd-8a05-4495-b023-94d5662fae23","system_id":"levelo_inurba_marseille","lat":43.26214,"lon":5.37439,"is_reserved":false,"is_disabled":false,"rental_uris":{"android":"levelo://app?vid=039959cd-8a05-4495-b023-94d5662fae23","ios":"levelo://app?vid=039959cd-8a05-4495-b023-94d5662fae23"},"vehicle_type_id":"4","last_reported":1727021367,"current_range_meters":34000,"station_id":"ce4bhgp2rcd13ifvqfc0","pricing_plan_id":"cebpf4jnsgd1na2vs0mg"},{"bike_id":"dbdd2579-4f65-4ce1-ab12-b7b95408046e","system_id":"levelo_inurba_marseille","lat":43.24545,"lon":5.39526,"is_reserved":false,"is_disabled":false,"rental_uris":{"android":"levelo://app?vid=dbdd2579-4f65-4ce1-ab12-b7b95408046e","ios":"levelo://app?vid=dbdd2579-4f65-4ce1-ab12-b7b95408046e"},"vehicle_type_id":"4","last_reported":1727021367,"current_range_meters":10000,"station_id":"ce4bhlp2rcd13ifvqgjg","pricing_plan_id":"cebpf4jnsgd1na2vs0mg"},{"bike_id":"f00fd430-0ef9-45de-adb4-098d6885df29","system_id":"levelo_inurba_marseille","lat":43.29422,"lon":5.38623,"is_reserved":false,"is_disabled":false,"rental_uris":{"android":"levelo://app?vid=f00fd430-0ef9-45de-adb4-098d6885df29","ios":"levelo://app?vid=f00fd430-0ef9-45de-adb4-098d6885df29"},"vehicle_type_id":"4","last_reported":1727021367,"current_range_meters":32000,"station_id":"ce4bh2h2rcd13ifvqdh0","pricing_plan_id":"cebpf4jnsgd1na2vs0mg"},{"bike_id":"a1041eec-eb7a-4499-ba20-a56a8dd768ec","system_id":"levelo_inurba_marseille","lat":43.30356,"lon":5.41888,"is_reserved":false,"is_disabled":false,"rental_uris":{"android":"levelo://app?vid=a1041eec-eb7a-4499-ba20-a56a8dd768ec","ios":"levelo://app?vid=a1041eec-eb7a-4499-ba20-a56a8dd768ec"},"vehicle_type_id":"4","last_reported":1727021367,"current_range_meters":14800,"station_id":"ce4bhop2rcd13ifvqh7g","pricing_plan_id":"cebpf4jnsgd1na2vs0mg"},{"bike_id":"bc88de96-5ad9-4ace-864d-277f08df8d3c","system_id":"levelo_inurba_marseille","lat":43.29275,"lon":5.36853,"is_reserved":false,"is_disabled":false,"rental_uris":{"android":"levelo://app?vid=bc88de96-5ad9-4ace-864d-277f08df8d3c","ios":"levelo://app?vid=bc88de96-5ad9-4ace-864d-277f08df8d3c"},"vehicle_type_id":"4","last_reported":1727021367,"current_range_meters":32400,"station_id":"ce4bhbp2rcd13ifvqesg","pricing_plan_id":"cebpf4jnsgd1na2vs0mg"},{"bike_id":"cf07c4c6-7b1e-4566-a999-43920ff99d03","system_id":"levelo_inurba_marseille","lat":43.2962,"lon":5.3769,"is_reserved":false,"is_disabled":false,"rental_uris":{"android":"levelo://app?vid=cf07c4c6-7b1e-4566-a999-43920ff99d03","ios":"levelo://app?vid=cf07c4c6-7b1e-4566-a999-43920ff99d03"},"vehicle_type_id":"4","last_reported":1727021367,"current_range_meters":10800,"station_id":"ce4bgi92rcd13ifvqb90","pricing_plan_id":"cebpf4jnsgd1na2vs0mg"},{"bike_id":"9a7e126d-9ee4-4f37-8673-3b57332223dd","system_id":"levelo_inurba_marseille","lat":43.30137,"lon":5.39872,"is_reserved":false,"is_disabled":false,"rental_uris":{"android":"levelo://app?vid=9a7e126d-9ee4-4f37-8673-3b57332223dd","ios":"levelo://app?vid=9a7e126d-9ee4-4f37-8673-3b57332223dd"},"vehicle_type_id":"4","last_reported":1727021367,"current_range_meters":38800,"station_id":"ce4bh0h2rcd13ifvqd40","pricing_plan_id":"cebpf4jnsgd1na2vs0mg"},{"bike_id":"3113b1eb-f7b7-4ac0-bd18-3aa32975f9e6","system_id":"levelo_inurba_marseille","lat":43.25238,"lon":5.38613,"is_reserved":false,"is_disabled":false,"rental_uris":{"android":"levelo://app?vid=3113b1eb-f7b7-4ac0-bd18-3aa32975f9e6","ios":"levelo://app?vid=3113b1eb-f7b7-4ac0-bd18-3aa32975f9e6"},"vehicle_type_id":"4","last_reported":1727021367,"current_range_meters":34000,"station_id":"","pricing_plan_id":"cebpf4jnsgd1na2vs0mg"},{"bike_id":"5c5586e3-9ff8-4aae-b83c-767c137e35b8","system_id":"levelo_inurba_marseille","lat":43.27622,"lon":5.36106,"is_reserved":false,"is_disabled":false,"rental_uris":{"android":"levelo://app?vid=5c5586e3-9ff8-4aae-b83c-767c137e35b8","ios":"levelo://app?vid=5c5586e3-9ff8-4aae-b83c-767c137e35b8"},"vehicle_type_id":"4","last_reported":1727021367,"current_range_meters":22000,"station_id":"ce4bhg12rcd13ifvqf80","pricing_plan_id":"cebpf4jnsgd1na2vs0mg"},{"bike_id":"2347817f-e20e-4496-af0e-1f65e3ba6aef","system_id":"levelo_inurba_marseille","lat":43.32112,"lon":5.36766,"is_reserved":false,"is_disabled":false,"rental_uris":{"android":"levelo://app?vid=2347817f-e20e-4496-af0e-1f65e3ba6aef","ios":"levelo://app?vid=2347817f-e20e-4496-af0e-1f65e3ba6aef"},"vehicle_type_id":"4","last_reported":1727021367,"current_range_meters":36800,"station_id":"","pricing_plan_id":"cebpf4jnsgd1na2vs0mg"},{"bike_id":"9e34098d-c0d7-4da2-ac88-adbdd1eaee16","system_id":"levelo_inurba_marseille","lat":43.26949,"lon":5.38621,"is_reserved":false,"is_disabled":false,"rental_uris":{"android":"levelo://app?vid=9e34098d-c0d7-4da2-ac88-adbdd1eaee16","ios":"levelo://app?vid=9e34098d-c0d7-4da2-ac88-adbdd1eaee16"},"vehicle_type_id":"4","last_reported":1727021367,"current_range_meters":14000,"station_id":"ce4bhh92rcd13ifvqfh0","pricing_plan_id":"cebpf4jnsgd1na2vs0mg"},{"bike_id":"503aa0f5-1140-489e-8b05-1e1eb40ca4cd","system_id":"levelo_inurba_marseille","lat":43.24391,"lon":5.37057,"is_reserved":false,"is_disabled":false,"rental_uris":{"android":"levelo://app?vid=503aa0f5-1140-489e-8b05-1e1eb40ca4cd","ios":"levelo://app?vid=503aa0f5-1140-489e-8b05-1e1eb40ca4cd"},"vehicle_type_id":"4","last_reported":1727021367,"current_range_meters":38800,"station_id":"ce4bhhh2rcd13ifvqfk0","pricing_plan_id":"cebpf4jnsgd1na2vs0mg"},{"bike_id":"27506d6c-4afe-4fff-8364-06528b307a75","system_id":"levelo_inurba_marseille","lat":43.29262,"lon":5.40911,"is_reserved":false,"is_disabled":false,"rental_uris":{"android":"levelo://app?vid=27506d6c-4afe-4fff-8364-06528b307a75","ios":"levelo://app?vid=27506d6c-4afe-4fff-8364-06528b307a75"},"vehicle_type_id":"4","last_reported":1727021367,"current_range_meters":8000,"station_id":"ce4bh192rcd13ifvqdc0","pricing_plan_id":"cebpf4jnsgd1na2vs0mg"},{"bike_id":"2f96b4b2-baee-490c-9883-cf733d5f55ad","system_id":"levelo_inurba_marseille","lat":43.28739,"lon":5.37354,"is_reserved":false,"is_disabled":false,"rental_uris":{"android":"levelo://app?vid=2f96b4b2-baee-490c-9883-cf733d5f55ad","ios":"levelo://app?vid=2f96b4b2-baee-490c-9883-cf733d5f55ad"},"vehicle_type_id":"4","last_reported":1727021367,"current_range_meters":23200,"station_id":"","pricing_plan_id":"cebpf4jnsgd1na2vs0mg"},{"bike_id":"23a85ab2-262e-44c3-9a0d-ba28a7f46703","system_id":"levelo_inurba_marseille","lat":43.28046,"lon":5.36951,"is_reserved":false,"is_disabled":false,"rental_uris":{"android":"levelo://app?vid=23a85ab2-262e-44c3-9a0d-ba28a7f46703","ios":"levelo://app?vid=23a85ab2-262e-44c3-9a0d-ba28a7f46703"},"vehicle_type_id":"4","last_reported":1727021367,"current_range_meters":24800,"station_id":"ce4bha12rcd13ifvqef0","pricing_plan_id":"cebpf4jnsgd1na2vs0mg"},{"bike_id":"58963454-065c-449b-97c9-822cfade99d3","system_id":"levelo_inurba_marseille","lat":43.27502,"lon":5.42452,"is_reserved":false,"is_disabled":false,"rental_uris":{"android":"levelo://app?vid=58963454-065c-449b-97c9-822cfade99d3","ios":"levelo://app?vid=58963454-065c-449b-97c9-822cfade99d3"},"vehicle_type_id":"4","last_reported":1727021367,"current_range_meters":38800,"station_id":"ce4bhn92rcd13ifvqgrg","pricing_plan_id":"cebpf4jnsgd1na2vs0mg"},{"bike_id":"ae47c681-5c51-49c6-a6c2-aecb3ff37db9","system_id":"levelo_inurba_marseille","lat":43.2825,"lon":5.39244,"is_reserved":false,"is_disabled":false,"rental_uris":{"android":"levelo://app?vid=ae47c681-5c51-49c6-a6c2-aecb3ff37db9","ios":"levelo://app?vid=ae47c681-5c51-49c6-a6c2-aecb3ff37db9"},"vehicle_type_id":"4","last_reported":1727021367,"current_range_meters":14800,"station_id":"","pricing_plan_id":"cebpf4jnsgd1na2vs0mg"},{"bike_id":"eac0a18c-0b96-43ed-9556-44d25cceb72f","system_id":"levelo_inurba_marseille","lat":43.2827,"lon":5.37894,"is_reserved":false,"is_disabled":false,"rental_uris":{"android":"levelo://app?vid=eac0a18c-0b96-43ed-9556-44d25cceb72f","ios":"levelo://app?vid=eac0a18c-0b96-43ed-9556-44d25cceb72f"},"vehicle_type_id":"4","last_reported":1727021367,"current_range_meters":5600,"station_id":"ce4bhmp2rcd13ifvqgog","pricing_plan_id":"cebpf4jnsgd1na2vs0mg"},{"bike_id":"2bcd85d4-0b58-4368-be1f-fdbf76675a31","system_id":"levelo_inurba_marseille","lat":43.31883,"lon":5.4072,"is_reserved":false,"is_disabled":false,"rental_uris":{"android":"levelo://app?vid=2bcd85d4-0b58-4368-be1f-fdbf76675a31","ios":"levelo://app?vid=2bcd85d4-0b58-4368-be1f-fdbf76675a31"},"vehicle_type_id":"4","last_reported":1727021367,"current_range_meters":30800,"station_id":"ce4bhq12rcd13ifvqhig","pricing_plan_id":"cebpf4jnsgd1na2vs0mg"},{"bike_id":"90ca885d-1a88-4a48-811a-9ee2e7d66e4f","system_id":"levelo_inurba_marseille","lat":43.30356,"lon":5.4187,"is_reserved":false,"is_disabled":false,"rental_uris":{"android":"levelo://app?vid=90ca885d-1a88-4a48-811a-9ee2e7d66e4f","ios":"levelo://app?vid=90ca885d-1a88-4a48-811a-9ee2e7d66e4f"},"vehicle_type_id":"4","last_reported":1727021367,"current_range_meters":12400,"station_id":"ce4bhop2rcd13ifvqh7g","pricing_plan_id":"cebpf4jnsgd1na2vs0mg"},{"bike_id":"4772b107-2f18-495b-9190-24cad4cfb493","system_id":"levelo_inurba_marseille","lat":43.27732,"lon":5.41143,"is_reserved":false,"is_disabled":false,"rental_uris":{"android":"levelo://app?vid=4772b107-2f18-495b-9190-24cad4cfb493","ios":"levelo://app?vid=4772b107-2f18-495b-9190-24cad4cfb493"},"vehicle_type_id":"4","last_reported":1727021367,"current_range_meters":11200,"station_id":"","pricing_plan_id":"cebpf4jnsgd1na2vs0mg"},{"bike_id":"1d4e475d-3d6c-49f2-a79c-d161e2638dc5","system_id":"levelo_inurba_marseille","lat":43.297976,"lon":5.404064,"is_reserved":false,"is_disabled":false,"rental_uris":{"android":"levelo://app?vid=1d4e475d-3d6c-49f2-a79c-d161e2638dc5","ios":"levelo://app?vid=1d4e475d-3d6c-49f2-a79c-d161e2638dc5"},"vehicle_type_id":"4","last_reported":1727021367,"current_range_meters":38800,"station_id":"ce4bh112rcd13ifvqd90","pricing_plan_id":"cebpf4jnsgd1na2vs0mg"},{"bike_id":"72b49afe-16ea-47c7-92f6-7552a2980f36","system_id":"levelo_inurba_marseille","lat":43.32062,"lon":5.41537,"is_reserved":false,"is_disabled":false,"rental_uris":{"android":"levelo://app?vid=72b49afe-16ea-47c7-92f6-7552a2980f36","ios":"levelo://app?vid=72b49afe-16ea-47c7-92f6-7552a2980f36"},"vehicle_type_id":"4","last_reported":1727021367,"current_range_meters":38800,"station_id":"ce4bhq92rcd13ifvqhkg","pricing_plan_id":"cebpf4jnsgd1na2vs0mg"},{"bike_id":"72510bef-b896-4a89-8864-16fa8c1ad575","system_id":"levelo_inurba_marseille","lat":43.34148,"lon":5.40904,"is_reserved":false,"is_disabled":false,"rental_uris":{"android":"levelo://app?vid=72510bef-b896-4a89-8864-16fa8c1ad575","ios":"levelo://app?vid=72510bef-b896-4a89-8864-16fa8c1ad575"},"vehicle_type_id":"4","last_reported":1727021367,"current_range_meters":24400,"station_id":"ce4bhqh2rcd13ifvqhlg","pricing_plan_id":"cebpf4jnsgd1na2vs0mg"},{"bike_id":"9fb9961c-2a8f-45d0-b9d5-27a7bb65f7dc","system_id":"levelo_inurba_marseille","lat":43.30418,"lon":5.41274,"is_reserved":false,"is_disabled":false,"rental_uris":{"android":"levelo://app?vid=9fb9961c-2a8f-45d0-b9d5-27a7bb65f7dc","ios":"levelo://app?vid=9fb9961c-2a8f-45d0-b9d5-27a7bb65f7dc"},"vehicle_type_id":"4","last_reported":1727021367,"current_range_meters":5600,"station_id":"ce4bhop2rcd13ifvqh8g","pricing_plan_id":"cebpf4jnsgd1na2vs0mg"},{"bike_id":"1915d146-0a69-4798-9870-06f5f0e64ea1","system_id":"levelo_inurba_marseille","lat":43.290216,"lon":5.381311,"is_reserved":false,"is_disabled":false,"rental_uris":{"android":"levelo://app?vid=1915d146-0a69-4798-9870-06f5f0e64ea1","ios":"levelo://app?vid=1915d146-0a69-4798-9870-06f5f0e64ea1"},"vehicle_type_id":"4","last_reported":1727021367,"current_range_meters":38000,"station_id":"ce4bh4p2rcd13ifvqe1g","pricing_plan_id":"cebpf4jnsgd1na2vs0mg"},{"bike_id":"a0cf20d7-a074-4de1-8c93-102a40871de2","system_id":"levelo_inurba_marseille","lat":43.29267,"lon":5.40908,"is_reserved":false,"is_disabled":false,"rental_uris":{"android":"levelo://app?vid=a0cf20d7-a074-4de1-8c93-102a40871de2","ios":"levelo://app?vid=a0cf20d7-a074-4de1-8c93-102a40871de2"},"vehicle_type_id":"4","last_reported":1727021367,"current_range_meters":3200,"station_id":"ce4bh192rcd13ifvqdc0","pricing_plan_id":"cebpf4jnsgd1na2vs0mg"},{"bike_id":"04b1b6c3-8329-4ae9-bbcb-50530cf202aa","system_id":"levelo_inurba_marseille","lat":43.29304,"lon":5.37459,"is_reserved":false,"is_disabled":false,"rental_uris":{"android":"levelo://app?vid=04b1b6c3-8329-4ae9-bbcb-50530cf202aa","ios":"levelo://app?vid=04b1b6c3-8329-4ae9-bbcb-50530cf202aa"},"vehicle_type_id":"4","last_reported":1727021367,"current_range_meters":33600,"station_id":"ce4bgi12rcd13ifvqb70","pricing_plan_id":"cebpf4jnsgd1na2vs0mg"},{"bike_id":"1520b651-f573-4a7b-943e-b3836bcb0180","system_id":"levelo_inurba_marseille","lat":43.295309,"lon":5.375081,"is_reserved":false,"is_disabled":false,"rental_uris":{"android":"levelo://app?vid=1520b651-f573-4a7b-943e-b3836bcb0180","ios":"levelo://app?vid=1520b651-f573-4a7b-943e-b3836bcb0180"},"vehicle_type_id":"4","last_reported":1727021367,"current_range_meters":28400,"station_id":"ce4bgkp2rcd13ifvqbmg","pricing_plan_id":"cebpf4jnsgd1na2vs0mg"},{"bike_id":"1ad204f0-6345-4595-bff6-7fd89e0b2a81","system_id":"levelo_inurba_marseille","lat":43.28252,"lon":5.35062,"is_reserved":false,"is_disabled":false,"rental_uris":{"android":"levelo://app?vid=1ad204f0-6345-4595-bff6-7fd89e0b2a81","ios":"levelo://app?vid=1ad204f0-6345-4595-bff6-7fd89e0b2a81"},"vehicle_type_id":"4","last_reported":1727021367,"current_range_meters":20800,"station_id":"","pricing_plan_id":"cebpf4jnsgd1na2vs0mg"},{"bike_id":"7d4d53eb-d64d-48f4-94b8-c810e42ba596","system_id":"levelo_inurba_marseille","lat":43.306375,"lon":5.400766,"is_reserved":false,"is_disabled":false,"rental_uris":{"android":"levelo://app?vid=7d4d53eb-d64d-48f4-94b8-c810e42ba596","ios":"levelo://app?vid=7d4d53eb-d64d-48f4-94b8-c810e42ba596"},"vehicle_type_id":"4","last_reported":1727021367,"current_range_meters":24800,"station_id":"ce4bh112rcd13ifvqda0","pricing_plan_id":"cebpf4jnsgd1na2vs0mg"},{"bike_id":"f8fc8d92-181e-41ca-8a75-f9045a646d6d","system_id":"levelo_inurba_marseille","lat":43.30465,"lon":5.37904,"is_reserved":false,"is_disabled":false,"rental_uris":{"android":"levelo://app?vid=f8fc8d92-181e-41ca-8a75-f9045a646d6d","ios":"levelo://app?vid=f8fc8d92-181e-41ca-8a75-f9045a646d6d"},"vehicle_type_id":"4","last_reported":1727021367,"current_range_meters":12400,"station_id":"ce4bgup2rcd13ifvqcn0","pricing_plan_id":"cebpf4jnsgd1na2vs0mg"},{"bike_id":"59f73600-9cea-46fa-be07-8815922f3074","system_id":"levelo_inurba_marseille","lat":43.29571,"lon":5.3997,"is_reserved":false,"is_disabled":false,"rental_uris":{"android":"levelo://app?vid=59f73600-9cea-46fa-be07-8815922f3074","ios":"levelo://app?vid=59f73600-9cea-46fa-be07-8815922f3074"},"vehicle_type_id":"4","last_reported":1727021367,"current_range_meters":3200,"station_id":"ce4bh312rcd13ifvqdj0","pricing_plan_id":"cebpf4jnsgd1na2vs0mg"},{"bike_id":"340d3fc8-9cfc-4617-b12d-6b82beb3d165","system_id":"levelo_inurba_marseille","lat":43.29872,"lon":5.39736,"is_reserved":false,"is_disabled":false,"rental_uris":{"android":"levelo://app?vid=340d3fc8-9cfc-4617-b12d-6b82beb3d165","ios":"levelo://app?vid=340d3fc8-9cfc-4617-b12d-6b82beb3d165"},"vehicle_type_id":"4","last_reported":1727021367,"current_range_meters":34000,"station_id":"ce4bh0h2rcd13ifvqd50","pricing_plan_id":"cebpf4jnsgd1na2vs0mg"},{"bike_id":"e3ec9160-1b15-4ebc-b219-c8d171c5cc67","system_id":"levelo_inurba_marseille","lat":43.32468,"lon":5.36565,"is_reserved":false,"is_disabled":false,"rental_uris":{"android":"levelo://app?vid=e3ec9160-1b15-4ebc-b219-c8d171c5cc67","ios":"levelo://app?vid=e3ec9160-1b15-4ebc-b219-c8d171c5cc67"},"vehicle_type_id":"4","last_reported":1727021367,"current_range_meters":23200,"station_id":"ce4bhs12rcd13ifvqhvg","pricing_plan_id":"cebpf4jnsgd1na2vs0mg"},{"bike_id":"8c829806-ceda-40c6-b97e-5814875dcf20","system_id":"levelo_inurba_marseille","lat":43.32484,"lon":5.36567,"is_reserved":false,"is_disabled":false,"rental_uris":{"android":"levelo://app?vid=8c829806-ceda-40c6-b97e-5814875dcf20","ios":"levelo://app?vid=8c829806-ceda-40c6-b97e-5814875dcf20"},"vehicle_type_id":"4","last_reported":1727021367,"current_range_meters":38800,"station_id":"ce4bhs12rcd13ifvqhvg","pricing_plan_id":"cebpf4jnsgd1na2vs0mg"},{"bike_id":"1d4c632a-f90c-4aa1-ab28-53fa2f2b4c22","system_id":"levelo_inurba_marseille","lat":43.24174,"lon":5.39723,"is_reserved":false,"is_disabled":false,"rental_uris":{"android":"levelo://app?vid=1d4c632a-f90c-4aa1-ab28-53fa2f2b4c22","ios":"levelo://app?vid=1d4c632a-f90c-4aa1-ab28-53fa2f2b4c22"},"vehicle_type_id":"4","last_reported":1727021367,"current_range_meters":4800,"station_id":"ce4bhn12rcd13ifvqgpg","pricing_plan_id":"cebpf4jnsgd1na2vs0mg"},{"bike_id":"846a8376-af4b-4af4-9715-9b456f20ba37","system_id":"levelo_inurba_marseille","lat":43.30135,"lon":5.39877,"is_reserved":false,"is_disabled":false,"rental_uris":{"android":"levelo://app?vid=846a8376-af4b-4af4-9715-9b456f20ba37","ios":"levelo://app?vid=846a8376-af4b-4af4-9715-9b456f20ba37"},"vehicle_type_id":"4","last_reported":1727021367,"current_range_meters":38800,"station_id":"ce4bh0h2rcd13ifvqd40","pricing_plan_id":"cebpf4jnsgd1na2vs0mg"},{"bike_id":"a6f2d65a-c1ff-4944-bc3b-4f3eb6a4bae0","system_id":"levelo_inurba_marseille","lat":43.29387,"lon":5.379101,"is_reserved":false,"is_disabled":false,"rental_uris":{"android":"levelo://app?vid=a6f2d65a-c1ff-4944-bc3b-4f3eb6a4bae0","ios":"levelo://app?vid=a6f2d65a-c1ff-4944-bc3b-4f3eb6a4bae0"},"vehicle_type_id":"4","last_reported":1727021367,"current_range_meters":18800,"station_id":"ce4bgjh2rcd13ifvqbf0","pricing_plan_id":"cebpf4jnsgd1na2vs0mg"},{"bike_id":"3ce6d738-d905-40b7-a1ee-dc23bb350908","system_id":"levelo_inurba_marseille","lat":43.30133,"lon":5.39865,"is_reserved":false,"is_disabled":false,"rental_uris":{"android":"levelo://app?vid=3ce6d738-d905-40b7-a1ee-dc23bb350908","ios":"levelo://app?vid=3ce6d738-d905-40b7-a1ee-dc23bb350908"},"vehicle_type_id":"4","last_reported":1727021367,"current_range_meters":28400,"station_id":"ce4bh0h2rcd13ifvqd40","pricing_plan_id":"cebpf4jnsgd1na2vs0mg"},{"bike_id":"50f5210d-22e0-4869-8c00-a1fdeb13c299","system_id":"levelo_inurba_marseille","lat":43.29263,"lon":5.38447,"is_reserved":false,"is_disabled":false,"rental_uris":{"android":"levelo://app?vid=50f5210d-22e0-4869-8c00-a1fdeb13c299","ios":"levelo://app?vid=50f5210d-22e0-4869-8c00-a1fdeb13c299"},"vehicle_type_id":"4","last_reported":1727021367,"current_range_meters":28000,"station_id":"ce4bh692rcd13ifvqea0","pricing_plan_id":"cebpf4jnsgd1na2vs0mg"},{"bike_id":"6f8ca3a1-0e3d-4cb7-8550-f454ba27fb1b","system_id":"levelo_inurba_marseille","lat":43.2956,"lon":5.42291,"is_reserved":false,"is_disabled":false,"rental_uris":{"android":"levelo://app?vid=6f8ca3a1-0e3d-4cb7-8550-f454ba27fb1b","ios":"levelo://app?vid=6f8ca3a1-0e3d-4cb7-8550-f454ba27fb1b"},"vehicle_type_id":"4","last_reported":1727021367,"current_range_meters":14400,"station_id":"ce4bhph2rcd13ifvqhdg","pricing_plan_id":"cebpf4jnsgd1na2vs0mg"},{"bike_id":"c7a6dc45-d746-4eca-a01d-d6afe1350e51","system_id":"levelo_inurba_marseille","lat":43.28562,"lon":5.42489,"is_reserved":false,"is_disabled":false,"rental_uris":{"android":"levelo://app?vid=c7a6dc45-d746-4eca-a01d-d6afe1350e51","ios":"levelo://app?vid=c7a6dc45-d746-4eca-a01d-d6afe1350e51"},"vehicle_type_id":"4","last_reported":1727021367,"current_range_meters":22000,"station_id":"","pricing_plan_id":"cebpf4jnsgd1na2vs0mg"},{"bike_id":"c7ff8913-eb0e-4c63-9dbe-f3412a637d58","system_id":"levelo_inurba_marseille","lat":43.29193,"lon":5.39329,"is_reserved":false,"is_disabled":false,"rental_uris":{"android":"levelo://app?vid=c7ff8913-eb0e-4c63-9dbe-f3412a637d58","ios":"levelo://app?vid=c7ff8913-eb0e-4c63-9dbe-f3412a637d58"},"vehicle_type_id":"4","last_reported":1727021367,"current_range_meters":17600,"station_id":"ce4bh192rcd13ifvqdd0","pricing_plan_id":"cebpf4jnsgd1na2vs0mg"},{"bike_id":"7baecda9-6ef8-47a7-aab5-e02cb250850e","system_id":"levelo_inurba_marseille","lat":43.30886,"lon":5.39656,"is_reserved":false,"is_disabled":false,"rental_uris":{"android":"levelo://app?vid=7baecda9-6ef8-47a7-aab5-e02cb250850e","ios":"levelo://app?vid=7baecda9-6ef8-47a7-aab5-e02cb250850e"},"vehicle_type_id":"4","last_reported":1727021367,"current_range_meters":14000,"station_id":"ce4bh012rcd13ifvqcv0","pricing_plan_id":"cebpf4jnsgd1na2vs0mg"},{"bike_id":"3b92f5cb-ade1-4c84-9704-5935c8c72447","system_id":"levelo_inurba_marseille","lat":43.29878,"lon":5.39727,"is_reserved":false,"is_disabled":false,"rental_uris":{"android":"levelo://app?vid=3b92f5cb-ade1-4c84-9704-5935c8c72447","ios":"levelo://app?vid=3b92f5cb-ade1-4c84-9704-5935c8c72447"},"vehicle_type_id":"4","last_reported":1727021367,"current_range_meters":16800,"station_id":"ce4bh0h2rcd13ifvqd50","pricing_plan_id":"cebpf4jnsgd1na2vs0mg"},{"bike_id":"42c3e70a-2d30-4e83-a063-0d5ab7a342eb","system_id":"levelo_inurba_marseille","lat":43.29865,"lon":5.39725,"is_reserved":false,"is_disabled":false,"rental_uris":{"android":"levelo://app?vid=42c3e70a-2d30-4e83-a063-0d5ab7a342eb","ios":"levelo://app?vid=42c3e70a-2d30-4e83-a063-0d5ab7a342eb"},"vehicle_type_id":"4","last_reported":1727021367,"current_range_meters":23200,"station_id":"ce4bh0h2rcd13ifvqd50","pricing_plan_id":"cebpf4jnsgd1na2vs0mg"},{"bike_id":"372e1863-0ee2-41aa-9eed-e699f0dcaa20","system_id":"levelo_inurba_marseille","lat":43.33721,"lon":5.39174,"is_reserved":false,"is_disabled":false,"rental_uris":{"android":"levelo://app?vid=372e1863-0ee2-41aa-9eed-e699f0dcaa20","ios":"levelo://app?vid=372e1863-0ee2-41aa-9eed-e699f0dcaa20"},"vehicle_type_id":"4","last_reported":1727021367,"current_range_meters":38000,"station_id":"ce4bhr92rcd13ifvqhsg","pricing_plan_id":"cebpf4jnsgd1na2vs0mg"},{"bike_id":"89b98421-f5b0-4ac7-a58d-33d8ccf0f9ea","system_id":"levelo_inurba_marseille","lat":43.301956,"lon":5.366134,"is_reserved":false,"is_disabled":false,"rental_uris":{"android":"levelo://app?vid=89b98421-f5b0-4ac7-a58d-33d8ccf0f9ea","ios":"levelo://app?vid=89b98421-f5b0-4ac7-a58d-33d8ccf0f9ea"},"vehicle_type_id":"4","last_reported":1727021367,"current_range_meters":3600,"station_id":"","pricing_plan_id":"cebpf4jnsgd1na2vs0mg"},{"bike_id":"b7ffa995-8789-47f2-8d1e-99ef589a5d29","system_id":"levelo_inurba_marseille","lat":43.24065,"lon":5.37819,"is_reserved":false,"is_disabled":false,"rental_uris":{"android":"levelo://app?vid=b7ffa995-8789-47f2-8d1e-99ef589a5d29","ios":"levelo://app?vid=b7ffa995-8789-47f2-8d1e-99ef589a5d29"},"vehicle_type_id":"4","last_reported":1727021367,"current_range_meters":6400,"station_id":"ce4bhnp2rcd13ifvqgvg","pricing_plan_id":"cebpf4jnsgd1na2vs0mg"},{"bike_id":"0cf8a6d2-14be-4246-b219-382f7853563e","system_id":"levelo_inurba_marseille","lat":43.23058,"lon":5.35488,"is_reserved":false,"is_disabled":false,"rental_uris":{"android":"levelo://app?vid=0cf8a6d2-14be-4246-b219-382f7853563e","ios":"levelo://app?vid=0cf8a6d2-14be-4246-b219-382f7853563e"},"vehicle_type_id":"4","last_reported":1727021367,"current_range_meters":8400,"station_id":"cpo3342slgdg3j2ifvpg","pricing_plan_id":"cebpf4jnsgd1na2vs0mg"},{"bike_id":"83c42b59-b538-42eb-957c-ee4884a874d7","system_id":"levelo_inurba_marseille","lat":43.27903,"lon":5.37995,"is_reserved":false,"is_disabled":false,"rental_uris":{"android":"levelo://app?vid=83c42b59-b538-42eb-957c-ee4884a874d7","ios":"levelo://app?vid=83c42b59-b538-42eb-957c-ee4884a874d7"},"vehicle_type_id":"4","last_reported":1727021367,"current_range_meters":38000,"station_id":"ce4bhf92rcd13ifvqf50","pricing_plan_id":"cebpf4jnsgd1na2vs0mg"},{"bike_id":"466e1b6a-1fc0-472e-a930-20891f57c1f8","system_id":"levelo_inurba_marseille","lat":43.337444,"lon":5.374475,"is_reserved":false,"is_disabled":false,"rental_uris":{"android":"levelo://app?vid=466e1b6a-1fc0-472e-a930-20891f57c1f8","ios":"levelo://app?vid=466e1b6a-1fc0-472e-a930-20891f57c1f8"},"vehicle_type_id":"4","last_reported":1727021367,"current_range_meters":28400,"station_id":"","pricing_plan_id":"cebpf4jnsgd1na2vs0mg"},{"bike_id":"2ec4ed3f-57a0-47a4-b030-12ee65fffeb9","system_id":"levelo_inurba_marseille","lat":43.28983,"lon":5.37836,"is_reserved":false,"is_disabled":false,"rental_uris":{"android":"levelo://app?vid=2ec4ed3f-57a0-47a4-b030-12ee65fffeb9","ios":"levelo://app?vid=2ec4ed3f-57a0-47a4-b030-12ee65fffeb9"},"vehicle_type_id":"4","last_reported":1727021367,"current_range_meters":22400,"station_id":"ce4bh9p2rcd13ifvqed0","pricing_plan_id":"cebpf4jnsgd1na2vs0mg"},{"bike_id":"29a641fd-f636-4e56-bb0d-cff0c38f0f76","system_id":"levelo_inurba_marseille","lat":43.3479,"lon":5.35021,"is_reserved":false,"is_disabled":false,"rental_uris":{"android":"levelo://app?vid=29a641fd-f636-4e56-bb0d-cff0c38f0f76","ios":"levelo://app?vid=29a641fd-f636-4e56-bb0d-cff0c38f0f76"},"vehicle_type_id":"4","last_reported":1727021367,"current_range_meters":5600,"station_id":"","pricing_plan_id":"cebpf4jnsgd1na2vs0mg"},{"bike_id":"c0cee695-a43e-4cbb-9146-b9793b496a13","system_id":"levelo_inurba_marseille","lat":43.26061,"lon":5.39395,"is_reserved":false,"is_disabled":false,"rental_uris":{"android":"levelo://app?vid=c0cee695-a43e-4cbb-9146-b9793b496a13","ios":"levelo://app?vid=c0cee695-a43e-4cbb-9146-b9793b496a13"},"vehicle_type_id":"4","last_reported":1727021367,"current_range_meters":28800,"station_id":"ce4bhh92rcd13ifvqfj0","pricing_plan_id":"cebpf4jnsgd1na2vs0mg"},{"bike_id":"be9de5b3-c72b-4f9c-b5b5-fe6c7aee6632","system_id":"levelo_inurba_marseille","lat":43.2593,"lon":5.40908,"is_reserved":false,"is_disabled":false,"rental_uris":{"android":"levelo://app?vid=be9de5b3-c72b-4f9c-b5b5-fe6c7aee6632","ios":"levelo://app?vid=be9de5b3-c72b-4f9c-b5b5-fe6c7aee6632"},