{"last_updated":1750076517,"ttl":60,"version":"2.2","data":{"bikes":[{"bike_id":"3da29fb8-fc97-44c6-b9ac-31dd456b2fd4","system_id":"levelo_inurba_marseille","lat":43.33771,"lon":5.37424,"is_reserved":false,"is_disabled":true,"rental_uris":{"android":"levelo://app?vid=3da29fb8-fc97-44c6-b9ac-31dd456b2fd4","ios":"levelo://app?vid=3da29fb8-fc97-44c6-b9ac-31dd456b2fd4"},"vehicle_type_id":"4","last_reported":1750076517,"current_range_meters":0,"station_id":"","pricing_plan_id":"cebpf4jnsgd1na2vs0mg"},{"bike_id":"01861ad8-a8d7-4be6-816e-651927c87584","system_id":"levelo_inurba_marseille","lat":43.33751,"lon":5.37456,"is_reserved":false,"is_disabled":true,"rental_uris":{"android":"levelo://app?vid=01861ad8-a8d7-4be6-816e-651927c87584","ios":"levelo://app?vid=01861ad8-a8d7-4be6-816e-651927c87584"},"vehicle_type_id":"4","last_reported":1750076517,"current_range_meters":0,"station_id":"","pricing_plan_id":"cebpf4jnsgd1na2vs0mg"},{"bike_id":"d2bd57c8-6b64-48db-ad24-5398eb3fd9d6","system_id":"levelo_inurba_marseille","lat":43.337444,"lon":5.374475,"is_reserved":false,"is_disabled":true,"rental_uris":{"android":"levelo://app?vid=d2bd57c8-6b64-48db-ad24-5398eb3fd9d6","ios":"levelo://app?vid=d2bd57c8-6b64-48db-ad24-5398eb3fd9d6"},"vehicle_type_id":"4","last_reported":1750076517,"current_range_meters":0,"station_id":"","pricing_plan_id":"cebpf4jnsgd1na2vs0mg"},{"bike_id":"62a493c7-4534-4419-ad43-0582de34a72a","system_id":"levelo_inurba_marseille","lat":43.21362,"lon":5.35522,"is_reserved":false,"is_disabled":true,"rental_uris":{"android":"levelo://app?vid=62a493c7-4534-4419-ad43-0582de34a72a","ios":"levelo://app?vid=62a493c7-4534-4419-ad43-0582de34a72a"},"vehicle_type_id":"4","last_reported":1750076517,"current_range_meters":0,"station_id":"","pricing_plan_id":"cebpf4jnsgd1na2vs0mg"},{"bike_id":"b7824ee6-b870-4f99-9662-47394f8af809","system_id":"levelo_inurba_marseille","lat":43.24635,"lon":5.43274,"is_reserved":false,"is_disabled":true,"rental_uris":{"android":"levelo://app?vid=b7824ee6-b870-4f99-9662-47394f8af809","ios":"levelo://app?vid=b7824ee6-b870-4f99-9662-47394f8af809"},"vehicle_type_id":"4","last_reported":1750076517,"current_range_meters":0,"station_id":"","pricing_plan_id":"cebpf4jnsgd1na2vs0mg"},{"bike_id":"117f24b3-d6ce-455f-99fd-f28a795c0458","system_id":"levelo_inurba_marseille","lat":43.27984,"lon":5.38486,"is_reserved":false,"is_disabled":true,"rental_uris":{"android":"levelo://app?vid=117f24b3-d6ce-455f-99fd-f28a795c0458","ios":"levelo://app?vid=117f24b3-d6ce-455f-99fd-f28a795c0458"},"vehicle_type_id":"4","last_reported":1750076517,"current_range_meters":0,"station_id":"","pricing_plan_id":"cebpf4jnsgd1na2vs0mg"},{"bike_id":"946f5633-31c1-46bf-ab81-23560e476e56","system_id":"levelo_inurba_marseille","lat":43.26052,"lon":5.38735,"is_reserved":false,"is_disabled":true,"rental_uris":{"android":"levelo://app?vid=946f5633-31c1-46bf-ab81-23560e476e56","ios":"levelo://app?vid=946f5633-31c1-46bf-ab81-23560e476e56"},"vehicle_type_id":"4","last_reported":1750076517,"current_range_meters":0,"station_id":"","pricing_plan_id":"cebpf4jnsgd1na2vs0mg"},{"bike_id":"caca20da-18e0-443e-a3dc-04ab1bbad8db","system_id":"levelo_inurba_marseille","lat":43.27127,"lon":5.36433,"is_reserved":false,"is_disabled":true,"rental_uris":{"android":"levelo://app?vid=caca20da-18e0-443e-a3dc-04ab1bbad8db","ios":"levelo://app?vid=caca20da-18e0-443e-a3dc-04ab1bbad8db"},"vehicle_type_id":"4","last_reported":1750076517,"current_range_meters":0,"station_id":"","pricing_plan_id":"cebpf4jnsgd1na2vs0mg"},{"bike_id":"93af304b-67b5-47b8-a3fd-e0775f7cde8c","system_id":"levelo_inurba_marseille","lat":43.2153,"lon":5.34743,"is_reserved":false,"is_disabled":true,"rental_uris":{"android":"levelo://app?vid=93af304b-67b5-47b8-a3fd-e0775f7cde8c","ios":"levelo://app?vid=93af304b-67b5-47b8-a3fd-e0775f7cde8c"},"vehicle_type_id":"4","last_reported":1750076517,"current_range_meters":0,"station_id":"","pricing_plan_id":"cebpf4jnsgd1na2vs0mg"},{"bike_id":"d6609b4f-333b-43c1-9ebe-8726f5e76e88","system_id":"levelo_inurba_marseille","lat":43.337444,"lon":5.374475,"is_reserved":false,"is_disabled":true,"rental_uris":{"android":"levelo://app?vid=d6609b4f-333b-43c1-9ebe-8726f5e76e88","ios":"levelo://app?vid=d6609b4f-333b-43c1-9ebe-8726f5e76e88"},"vehicle_type_id":"4","last_reported":1750076517,"current_range_meters":0,"station_id":"","pricing_plan_id":"cebpf4jnsgd1na2vs0mg"},{"bike_id":"a354a693-87cc-4bf2-b99d-b0ea81e88075","system_id":"levelo_inurba_marseille","lat":43.2617,"lon":5.3883,"is_reserved":false,"is_disabled":true,"rental_uris":{"android":"levelo://app?vid=a354a693-87cc-4bf2-b99d-b0ea81e88075","ios":"levelo://app?vid=a354a693-87cc-4bf2-b99d-b0ea81e88075"},"vehicle_type_id":"4","last_reported":1750076517,"current_range_meters":0,"station_id":"","pricing_plan_id":"cebpf4jnsgd1na2vs0mg"},{"bike_id":"7dfcc5ce-c199-4207-9bc5-7ac1d3ce0ccb","system_id":"levelo_inurba_marseille","lat":43.28978,"lon":5.37834,"is_reserved":false,"is_disabled":true,"rental_uris":{"android":"levelo://app?vid=7dfcc5ce-c199-4207-9bc5-7ac1d3ce0ccb","ios":"levelo://app?vid=7dfcc5ce-c199-4207-9bc5-7ac1d3ce0ccb"},"vehicle_type_id":"4","last_reported":1750076517,"current_range_meters":0,"station_id":"ce4bh9p2rcd13ifvqed0","pricing_plan_id":"cebpf4jnsgd1na2vs0mg"},{"bike_id":"3b801d6d-65aa-43ac-9429-fd7aacccca37","system_id":"levelo_inurba_marseille","lat":43.29,"lon":5.35581,"is_reserved":false,"is_disabled":true,"rental_uris":{"android":"levelo://app?vid=3b801d6d-65aa-43ac-9429-fd7aacccca37","ios":"levelo://app?vid=3b801d6d-65aa-43ac-9429-fd7aacccca37"},"vehicle_type_id":"4","last_reported":1750076517,"current_range_meters":0,"station_id":"ce4bhb92rcd13ifvqen0","pricing_plan_id":"cebpf4jnsgd1na2vs0mg"},{"bike_id":"e0b8d5cb-abb9-43d0-9894-a74a6a666f41","system_id":"levelo_inurba_marseille","lat":43.27374,"lon":5.36261,"is_reserved":false,"is_disabled":true,"rental_uris":{"android":"levelo://app?vid=e0b8d5cb-abb9-43d0-9894-a74a6a666f41","ios":"levelo://app?vid=e0b8d5cb-abb9-43d0-9894-a74a6a666f41"},"vehicle_type_id":"4","last_reported":1750076517,"current_range_meters":0,"station_id":"ce4bhbh2rcd13ifvqeo0","pricing_plan_id":"cebpf4jnsgd1na2vs0mg"},{"bike_id":"240ab920-e4b0-492a-b8b1-2c28bdee2663","system_id":"levelo_inurba_marseille","lat":43.28413,"lon":5.34982,"is_reserved":false,"is_disabled":true,"rental_uris":{"android":"levelo://app?vid=240ab920-e4b0-492a-b8b1-2c28bdee2663","ios":"levelo://app?vid=240ab920-e4b0-492a-b8b1-2c28bdee2663"},"vehicle_type_id":"4","last_reported":1750076517,"current_range_meters":0,"station_id":"ce4bhbh2rcd13ifvqepg","pricing_plan_id":"cebpf4jnsgd1na2vs0mg"},{"bike_id":"c5e9185f-30a9-44b7-87ec-087374e724c0","system_id":"levelo_inurba_marseille","lat":43.27919,"lon":5.3958,"is_reserved":false,"is_disabled":true,"rental_uris":{"android":"levelo://app?vid=c5e9185f-30a9-44b7-87ec-087374e724c0","ios":"levelo://app?vid=c5e9185f-30a9-44b7-87ec-087374e724c0"},"vehicle_type_id":"4","last_reported":1750076517,"current_range_meters":0,"station_id":"ce4bhf92rcd13ifvqf40","pricing_plan_id":"cebpf4jnsgd1na2vs0mg"},{"bike_id":"f6dc8aaa-849c-4aea-bd57-4fa51ad92986","system_id":"levelo_inurba_marseille","lat":43.248103,"lon":5.374452,"is_reserved":false,"is_disabled":true,"rental_uris":{"android":"levelo://app?vid=f6dc8aaa-849c-4aea-bd57-4fa51ad92986","ios":"levelo://app?vid=f6dc8aaa-849c-4aea-bd57-4fa51ad92986"},"vehicle_type_id":"4","last_reported":1750076517,"current_range_meters":0,"station_id":"ce4bhgh2rcd13ifvqfb0","pricing_plan_id":"cebpf4jnsgd1na2vs0mg"},{"bike_id":"7b609643-63d1-4cf9-8101-aa774fa25926","system_id":"levelo_inurba_marseille","lat":43.27202,"lon":5.39192,"is_reserved":false,"is_disabled":true,"rental_uris":{"android":"levelo://app?vid=7b609643-63d1-4cf9-8101-aa774fa25926","ios":"levelo://app?vid=7b609643-63d1-4cf9-8101-aa774fa25926"},"vehicle_type_id":"4","last_reported":1750076517,"current_range_meters":0,"station_id":"ce4bhhp2rcd13ifvqfm0","pricing_plan_id":"cebpf4jnsgd1na2vs0mg"},{"bike_id":"8f32c6c8-fcfc-46d1-a029-c72da87b46b5","system_id":"levelo_inurba_marseille","lat":43.25719,"lon":5.41117,"is_reserved":false,"is_disabled":true,"rental_uris":{"android":"levelo://app?vid=8f32c6c8-fcfc-46d1-a029-c72da87b46b5","ios":"levelo://app?vid=8f32c6c8-fcfc-46d1-a029-c72da87b46b5"},"vehicle_type_id":"4","last_reported":1750076517,"current_range_meters":0,"station_id":"ce4bhkp2rcd13ifvqgd0","pricing_plan_id":"cebpf4jnsgd1na2vs0mg"},{"bike_id":"cfed63dc-a842-45da-91be-7bce07eb7ff7","system_id":"levelo_inurba_marseille","lat":43.23161,"lon":5.43703,"is_reserved":false,"is_disabled":true,"rental_uris":{"android":"levelo://app?vid=cfed63dc-a842-45da-91be-7bce07eb7ff7","ios":"levelo://app?vid=cfed63dc-a842-45da-91be-7bce07eb7ff7"},"vehicle_type_id":"4","last_reported":1750076517,"current_range_meters":0,"station_id":"ce4bhmp2rcd13ifvqgog","pricing_plan_id":"cebpf4jnsgd1na2vs0mg"},{"bike_id":"165fde51-7a4d-4b23-92f6-5b0c8a6bc057","system_id":"levelo_inurba_marseille","lat":43.23189,"lon":5.35562,"is_reserved":false,"is_disabled":true,"rental_uris":{"android":"levelo://app?vid=165fde51-7a4d-4b23-92f6-5b0c8a6bc057","ios":"levelo://app?vid=165fde51-7a4d-4b23-92f6-5b0c8a6bc057"},"vehicle_type_id":"4","last_reported":1750076517,"current_range_meters":0,"station_id":"ce4bhu92rcd13ifvqi70","pricing_plan_id":"cebpf4jnsgd1na2vs0mg"},{"bike_id":"31efc9ba-0c74-4af5-9228-1de18fc992e3","system_id":"levelo_inurba_marseille","lat":43.30022,"lon":5.37009,"is_reserved":false,"is_disabled":true,"rental_uris":{"android":"levelo://app?vid=31efc9ba-0c74-4af5-9228-1de18fc992e3","ios":"levelo://app?vid=31efc9ba-0c74-4af5-9228-1de18fc992e3"},"vehicle_type_id":"4","last_reported":1750076517,"current_range_meters":400,"station_id":"","pricing_plan_id":"cebpf4jnsgd1na2vs0mg"},{"bike_id":"c62a3532-5b9b-4775-9c30-3af76a7d3009","system_id":"levelo_inurba_marseille","lat":43.27253,"lon":5.36295,"is_reserved":false,"is_disabled":true,"rental_uris":{"android":"levelo://app?vid=c62a3532-5b9b-4775-9c30-3af76a7d3009","ios":"levelo://app?vid=c62a3532-5b9b-4775-9c30-3af76a7d3009"},"vehicle_type_id":"4","last_reported":1750076517,"current_range_meters":400,"station_id":"","pricing_plan_id":"cebpf4jnsgd1na2vs0mg"},{"bike_id":"5206ddfb-32da-4706-89e9-8d30680af08d","system_id":"levelo_inurba_marseille","lat":43.29526,"lon":5.3751,"is_reserved":false,"is_disabled":true,"rental_uris":{"android":"levelo://app?vid=5206ddfb-32da-4706-89e9-8d30680af08d","ios":"levelo://app?vid=5206ddfb-32da-4706-89e9-8d30680af08d"},"vehicle_type_id":"4","last_reported":1750076517,"current_range_meters":400,"station_id":"ce4bgkp2rcd13ifvqbmg","pricing_plan_id":"cebpf4jnsgd1na2vs0mg"},{"bike_id":"04454f60-2414-456a-a8c7-78c9eb76bde0","system_id":"levelo_inurba_marseille","lat":43.29424,"lon":5.38616,"is_reserved":false,"is_disabled":true,"rental_uris":{"android":"levelo://app?vid=04454f60-2414-456a-a8c7-78c9eb76bde0","ios":"levelo://app?vid=04454f60-2414-456a-a8c7-78c9eb76bde0"},"vehicle_type_id":"4","last_reported":1750076517,"current_range_meters":400,"station_id":"ce4bh2h2rcd13ifvqdh0","pricing_plan_id":"cebpf4jnsgd1na2vs0mg"},{"bike_id":"fb1d001a-8deb-4749-9d9a-cdc23602b0bb","system_id":"levelo_inurba_marseille","lat":43.29229,"lon":5.38426,"is_reserved":false,"is_disabled":true,"rental_uris":{"android":"levelo://app?vid=fb1d001a-8deb-4749-9d9a-cdc23602b0bb","ios":"levelo://app?vid=fb1d001a-8deb-4749-9d9a-cdc23602b0bb"},"vehicle_type_id":"4","last_reported":1750076517,"current_range_meters":400,"station_id":"ce4bh692rcd13ifvqea0","pricing_plan_id":"cebpf4jnsgd1na2vs0mg"},{"bike_id":"acc9d3ff-2a54-43c2-a28d-9b17558da949","system_id":"levelo_inurba_marseille","lat":43.272,"lon":5.39178,"is_reserved":false,"is_disabled":true,"rental_uris":{"android":"levelo://app?vid=acc9d3ff-2a54-43c2-a28d-9b17558da949","ios":"levelo://app?vid=acc9d3ff-2a54-43c2-a28d-9b17558da949"},"vehicle_type_id":"4","last_reported":1750076517,"current_range_meters":800,"station_id":"ce4bhhp2rcd13ifvqfm0","pricing_plan_id":"cebpf4jnsgd1na2vs0mg"},{"bike_id":"b8217330-6ae5-4d07-8024-1cb33da3a536","system_id":"levelo_inurba_marseille","lat":43.30918,"lon":5.40176,"is_reserved":false,"is_disabled":true,"rental_uris":{"android":"levelo://app?vid=b8217330-6ae5-4d07-8024-1cb33da3a536","ios":"levelo://app?vid=b8217330-6ae5-4d07-8024-1cb33da3a536"},"vehicle_type_id":"4","last_reported":1750076517,"current_range_meters":1200,"station_id":"ce4bgvp2rcd13ifvqct0","pricing_plan_id":"cebpf4jnsgd1na2vs0mg"},{"bike_id":"78913006-7627-4f14-af5f-978df4a4c349","system_id":"levelo_inurba_marseille","lat":43.306,"lon":5.39353,"is_reserved":false,"is_disabled":true,"rental_uris":{"android":"levelo://app?vid=78913006-7627-4f14-af5f-978df4a4c349","ios":"levelo://app?vid=78913006-7627-4f14-af5f-978df4a4c349"},"vehicle_type_id":"4","last_reported":1750076517,"current_range_meters":1200,"station_id":"ce4bh0p2rcd13ifvqd80","pricing_plan_id":"cebpf4jnsgd1na2vs0mg"},{"bike_id":"2fbf20dc-a003-457b-a720-9379ebee4292","system_id":"levelo_inurba_marseille","lat":43.29041,"lon":5.39969,"is_reserved":false,"is_disabled":true,"rental_uris":{"android":"levelo://app?vid=2fbf20dc-a003-457b-a720-9379ebee4292","ios":"levelo://app?vid=2fbf20dc-a003-457b-a720-9379ebee4292"},"vehicle_type_id":"4","last_reported":1750076517,"current_range_meters":1200,"station_id":"ce4bh392rcd13ifvqdm0","pricing_plan_id":"cebpf4jnsgd1na2vs0mg"},{"bike_id":"cbfb4586-8460-4b4b-b682-17f011d5235f","system_id":"levelo_inurba_marseille","lat":43.30847,"lon":5.37027,"is_reserved":false,"is_disabled":true,"rental_uris":{"android":"levelo://app?vid=cbfb4586-8460-4b4b-b682-17f011d5235f","ios":"levelo://app?vid=cbfb4586-8460-4b4b-b682-17f011d5235f"},"vehicle_type_id":"4","last_reported":1750076517,"current_range_meters":1600,"station_id":"","pricing_plan_id":"cebpf4jnsgd1na2vs0mg"},{"bike_id":"3f6c1e22-50a4-4609-9f2f-63271b818110","system_id":"levelo_inurba_marseille","lat":43.27319,"lon":5.39112,"is_reserved":false,"is_disabled":true,"rental_uris":{"android":"levelo://app?vid=3f6c1e22-50a4-4609-9f2f-63271b818110","ios":"levelo://app?vid=3f6c1e22-50a4-4609-9f2f-63271b818110"},"vehicle_type_id":"4","last_reported":1750076517,"current_range_meters":1600,"station_id":"ce4bhgp2rcd13ifvqfe0","pricing_plan_id":"cebpf4jnsgd1na2vs0mg"},{"bike_id":"68b44399-0b92-4904-9864-a0bb5b95699e","system_id":"levelo_inurba_marseille","lat":43.27549,"lon":5.38445,"is_reserved":false,"is_disabled":true,"rental_uris":{"android":"levelo://app?vid=68b44399-0b92-4904-9864-a0bb5b95699e","ios":"levelo://app?vid=68b44399-0b92-4904-9864-a0bb5b95699e"},"vehicle_type_id":"4","last_reported":1750076517,"current_range_meters":1600,"station_id":"ce4bhh92rcd13ifvqfi0","pricing_plan_id":"cebpf4jnsgd1na2vs0mg"},{"bike_id":"2eb08ac7-2e62-4aae-bb93-6c33ca44ff48","system_id":"levelo_inurba_marseille","lat":43.3361,"lon":5.41039,"is_reserved":false,"is_disabled":true,"rental_uris":{"android":"levelo://app?vid=2eb08ac7-2e62-4aae-bb93-6c33ca44ff48","ios":"levelo://app?vid=2eb08ac7-2e62-4aae-bb93-6c33ca44ff48"},"vehicle_type_id":"4","last_reported":1750076517,"current_range_meters":1600,"station_id":"ce4bhqh2rcd13ifvqhmg","pricing_plan_id":"cebpf4jnsgd1na2vs0mg"},{"bike_id":"966ee22a-4ee1-4947-bca3-816edce2a929","system_id":"levelo_inurba_marseille","lat":43.29033,"lon":5.38647,"is_reserved":false,"is_disabled":false,"rental_uris":{"android":"levelo://app?vid=966ee22a-4ee1-4947-bca3-816edce2a929","ios":"levelo://app?vid=966ee22a-4ee1-4947-bca3-816edce2a929"},"vehicle_type_id":"4","last_reported":1750076517,"current_range_meters":2000,"station_id":"ce4bh4p2rcd13ifvqe0g","pricing_plan_id":"cebpf4jnsgd1na2vs0mg"},{"bike_id":"a1f019e0-b978-4bc9-905e-1e99e3a2b984","system_id":"levelo_inurba_marseille","lat":43.29264,"lon":5.38441,"is_reserved":false,"is_disabled":true,"rental_uris":{"android":"levelo://app?vid=a1f019e0-b978-4bc9-905e-1e99e3a2b984","ios":"levelo://app?vid=a1f019e0-b978-4bc9-905e-1e99e3a2b984"},"vehicle_type_id":"4","last_reported":1750076517,"current_range_meters":2000,"station_id":"ce4bh692rcd13ifvqea0","pricing_plan_id":"cebpf4jnsgd1na2vs0mg"},{"bike_id":"ad64c090-54a2-4da9-8370-f1566fbfd133","system_id":"levelo_inurba_marseille","lat":43.28931,"lon":5.36649,"is_reserved":false,"is_disabled":true,"rental_uris":{"android":"levelo://app?vid=ad64c090-54a2-4da9-8370-f1566fbfd133","ios":"levelo://app?vid=ad64c090-54a2-4da9-8370-f1566fbfd133"},"vehicle_type_id":"4","last_reported":1750076517,"current_range_meters":2000,"station_id":"ce4bhap2rcd13ifvqek0","pricing_plan_id":"cebpf4jnsgd1na2vs0mg"},{"bike_id":"85d8c35e-713d-4888-8d86-ee9b4527acf4","system_id":"levelo_inurba_marseille","lat":43.27378,"lon":5.36265,"is_reserved":false,"is_disabled":true,"rental_uris":{"android":"levelo://app?vid=85d8c35e-713d-4888-8d86-ee9b4527acf4","ios":"levelo://app?vid=85d8c35e-713d-4888-8d86-ee9b4527acf4"},"vehicle_type_id":"4","last_reported":1750076517,"current_range_meters":2000,"station_id":"ce4bhbh2rcd13ifvqeo0","pricing_plan_id":"cebpf4jnsgd1na2vs0mg"},{"bike_id":"217c7852-79d2-42e0-a5e2-6dd524045a94","system_id":"levelo_inurba_marseille","lat":43.28268,"lon":5.37264,"is_reserved":false,"is_disabled":false,"rental_uris":{"android":"levelo://app?vid=217c7852-79d2-42e0-a5e2-6dd524045a94","ios":"levelo://app?vid=217c7852-79d2-42e0-a5e2-6dd524045a94"},"vehicle_type_id":"4","last_reported":1750076517,"current_range_meters":2800,"station_id":"","pricing_plan_id":"cebpf4jnsgd1na2vs0mg"},{"bike_id":"ebbfc88e-8843-464c-8dc8-5845a1e00872","system_id":"levelo_inurba_marseille","lat":43.28016,"lon":5.36928,"is_reserved":false,"is_disabled":false,"rental_uris":{"android":"levelo://app?vid=ebbfc88e-8843-464c-8dc8-5845a1e00872","ios":"levelo://app?vid=ebbfc88e-8843-464c-8dc8-5845a1e00872"},"vehicle_type_id":"4","last_reported":1750076517,"current_range_meters":2800,"station_id":"ce4bha12rcd13ifvqef0","pricing_plan_id":"cebpf4jnsgd1na2vs0mg"},{"bike_id":"4b3267fe-49f2-4bf1-8efa-6a385eb2a8df","system_id":"levelo_inurba_marseille","lat":43.28973,"lon":5.35607,"is_reserved":false,"is_disabled":false,"rental_uris":{"android":"levelo://app?vid=4b3267fe-49f2-4bf1-8efa-6a385eb2a8df","ios":"levelo://app?vid=4b3267fe-49f2-4bf1-8efa-6a385eb2a8df"},"vehicle_type_id":"4","last_reported":1750076517,"current_range_meters":2800,"station_id":"ce4bhb92rcd13ifvqen0","pricing_plan_id":"cebpf4jnsgd1na2vs0mg"},{"bike_id":"53142fe9-983c-4dfc-8a6a-a7a8a65e70e9","system_id":"levelo_inurba_marseille","lat":43.2926,"lon":5.36852,"is_reserved":false,"is_disabled":false,"rental_uris":{"android":"levelo://app?vid=53142fe9-983c-4dfc-8a6a-a7a8a65e70e9","ios":"levelo://app?vid=53142fe9-983c-4dfc-8a6a-a7a8a65e70e9"},"vehicle_type_id":"4","last_reported":1750076517,"current_range_meters":2800,"station_id":"ce4bhbp2rcd13ifvqesg","pricing_plan_id":"cebpf4jnsgd1na2vs0mg"},{"bike_id":"0e4e1343-10f8-4dd6-91ba-6d71a3e04899","system_id":"levelo_inurba_marseille","lat":43.267257,"lon":5.383328,"is_reserved":false,"is_disabled":false,"rental_uris":{"android":"levelo://app?vid=0e4e1343-10f8-4dd6-91ba-6d71a3e04899","ios":"levelo://app?vid=0e4e1343-10f8-4dd6-91ba-6d71a3e04899"},"vehicle_type_id":"4","last_reported":1750076517,"current_range_meters":2800,"station_id":"ce4bhg92rcd13ifvqf90","pricing_plan_id":"cebpf4jnsgd1na2vs0mg"},{"bike_id":"04d32991-24b7-4745-bb44-2afa6249caad","system_id":"levelo_inurba_marseille","lat":43.30328,"lon":5.40436,"is_reserved":false,"is_disabled":false,"rental_uris":{"android":"levelo://app?vid=04d32991-24b7-4745-bb44-2afa6249caad","ios":"levelo://app?vid=04d32991-24b7-4745-bb44-2afa6249caad"},"vehicle_type_id":"4","last_reported":1750076517,"current_range_meters":3200,"station_id":"ce4bh012rcd13ifvqd10","pricing_plan_id":"cebpf4jnsgd1na2vs0mg"},{"bike_id":"622649b6-8d07-4e0d-a681-254a3ad804e6","system_id":"levelo_inurba_marseille","lat":43.27969,"lon":5.38757,"is_reserved":false,"is_disabled":false,"rental_uris":{"android":"levelo://app?vid=622649b6-8d07-4e0d-a681-254a3ad804e6","ios":"levelo://app?vid=622649b6-8d07-4e0d-a681-254a3ad804e6"},"vehicle_type_id":"4","last_reported":1750076517,"current_range_meters":3600,"station_id":"ce4bhg12rcd13ifvqf80","pricing_plan_id":"cebpf4jnsgd1na2vs0mg"},{"bike_id":"281cf6e1-d201-45c2-bfda-87ba3081f81c","system_id":"levelo_inurba_marseille","lat":43.29984,"lon":5.37173,"is_reserved":false,"is_disabled":false,"rental_uris":{"android":"levelo://app?vid=281cf6e1-d201-45c2-bfda-87ba3081f81c","ios":"levelo://app?vid=281cf6e1-d201-45c2-bfda-87ba3081f81c"},"vehicle_type_id":"4","last_reported":1750076517,"current_range_meters":4000,"station_id":"ce4bgr92rcd13ifvqc7g","pricing_plan_id":"cebpf4jnsgd1na2vs0mg"},{"bike_id":"ffe26af0-b598-463f-a499-d46d5ba5002f","system_id":"levelo_inurba_marseille","lat":43.31075,"lon":5.38358,"is_reserved":false,"is_disabled":false,"rental_uris":{"android":"levelo://app?vid=ffe26af0-b598-463f-a499-d46d5ba5002f","ios":"levelo://app?vid=ffe26af0-b598-463f-a499-d46d5ba5002f"},"vehicle_type_id":"4","last_reported":1750076517,"current_range_meters":4000,"station_id":"ce4bgv92rcd13ifvqcr0","pricing_plan_id":"cebpf4jnsgd1na2vs0mg"},{"bike_id":"c07e54a0-60b2-4810-a9b5-392c0f2065a9","system_id":"levelo_inurba_marseille","lat":43.29577,"lon":5.39971,"is_reserved":false,"is_disabled":false,"rental_uris":{"android":"levelo://app?vid=c07e54a0-60b2-4810-a9b5-392c0f2065a9","ios":"levelo://app?vid=c07e54a0-60b2-4810-a9b5-392c0f2065a9"},"vehicle_type_id":"4","last_reported":1750076517,"current_range_meters":4000,"station_id":"ce4bh312rcd13ifvqdj0","pricing_plan_id":"cebpf4jnsgd1na2vs0mg"},{"bike_id":"1827d622-e20d-4be6-99ac-0d1e0724dbb6","system_id":"levelo_inurba_marseille","lat":43.337444,"lon":5.374475,"is_reserved":false,"is_disabled":false,"rental_uris":{"android":"levelo://app?vid=1827d622-e20d-4be6-99ac-0d1e0724dbb6","ios":"levelo://app?vid=1827d622-e20d-4be6-99ac-0d1e0724dbb6"},"vehicle_type_id":"4","last_reported":1750076517,"current_range_meters":4400,"station_id":"","pricing_plan_id":"cebpf4jnsgd1na2vs0mg"},{"bike_id":"1aec6c3a-6c0b-4d9c-a70c-4ad844449dc4","system_id":"levelo_inurba_marseille","lat":43.29441,"lon":5.39747,"is_reserved":false,"is_disabled":false,"rental_uris":{"android":"levelo://app?vid=1aec6c3a-6c0b-4d9c-a70c-4ad844449dc4","ios":"levelo://app?vid=1aec6c3a-6c0b-4d9c-a70c-4ad844449dc4"},"vehicle_type_id":"4","last_reported":1750076517,"current_range_meters":4400,"station_id":"ce4bh3h2rcd13ifvqdo0","pricing_plan_id":"cebpf4jnsgd1na2vs0mg"},{"bike_id":"bc65c7e5-0556-4970-aa94-fd78a2a5ff43","system_id":"levelo_inurba_marseille","lat":43.27375,"lon":5.36259,"is_reserved":false,"is_disabled":false,"rental_uris":{"android":"levelo://app?vid=bc65c7e5-0556-4970-aa94-fd78a2a5ff43","ios":"levelo://app?vid=bc65c7e5-0556-4970-aa94-fd78a2a5ff43"},"vehicle_type_id":"4","last_reported":1750076517,"current_range_meters":4400,"station_id":"ce4bhbh2rcd13ifvqeo0","pricing_plan_id":"cebpf4jnsgd1na2vs0mg"},{"bike_id":"d2c67ed8-2855-4ed0-971b-f9127399a278","system_id":"levelo_inurba_marseille","lat":43.289368,"lon":5.363983,"is_reserved":false,"is_disabled":false,"rental_uris":{"android":"levelo://app?vid=d2c67ed8-2855-4ed0-971b-f9127399a278","ios":"levelo://app?vid=d2c67ed8-2855-4ed0-971b-f9127399a278"},"vehicle_type_id":"4","last_reported":1750076517,"current_range_meters":4400,"station_id":"ce4bhc92rcd13ifvqetg","pricing_plan_id":"cebpf4jnsgd1na2vs0mg"},{"bike_id":"e905d6f2-f2b0-487a-9709-ccfdac9baee4","system_id":"levelo_inurba_marseille","lat":43.30847,"lon":5.37045,"is_reserved":false,"is_disabled":false,"rental_uris":{"android":"levelo://app?vid=e905d6f2-f2b0-487a-9709-ccfdac9baee4","ios":"levelo://app?vid=e905d6f2-f2b0-487a-9709-ccfdac9baee4"},"vehicle_type_id":"4","last_reported":1750076517,"current_range_meters":4800,"station_id":"","pricing_plan_id":"cebpf4jnsgd1na2vs0mg"},{"bike_id":"413be4b7-e7a2-4691-9e48-c12221fc7483","system_id":"levelo_inurba_marseille","lat":43.30601,"lon":5.39363,"is_reserved":false,"is_disabled":false,"rental_uris":{"android":"levelo://app?vid=413be4b7-e7a2-4691-9e48-c12221fc7483","ios":"levelo://app?vid=413be4b7-e7a2-4691-9e48-c12221fc7483"},"vehicle_type_id":"4","last_reported":1750076517,"current_range_meters":4800,"station_id":"ce4bh0p2rcd13ifvqd80","pricing_plan_id":"cebpf4jnsgd1na2vs0mg"},{"bike_id":"e95d9590-a05c-454c-8013-6d079a0a552d","system_id":"levelo_inurba_marseille","lat":43.27915,"lon":5.39586,"is_reserved":false,"is_disabled":false,"rental_uris":{"android":"levelo://app?vid=e95d9590-a05c-454c-8013-6d079a0a552d","ios":"levelo://app?vid=e95d9590-a05c-454c-8013-6d079a0a552d"},"vehicle_type_id":"4","last_reported":1750076517,"current_range_meters":6000,"station_id":"ce4bhf92rcd13ifvqf40","pricing_plan_id":"cebpf4jnsgd1na2vs0mg"},{"bike_id":"b9b1d40a-6acf-4a3f-b3ff-fcd1b628453f","system_id":"levelo_inurba_marseille","lat":43.30562,"lon":5.36544,"is_reserved":false,"is_disabled":false,"rental_uris":{"android":"levelo://app?vid=b9b1d40a-6acf-4a3f-b3ff-fcd1b628453f","ios":"levelo://app?vid=b9b1d40a-6acf-4a3f-b3ff-fcd1b628453f"},"vehicle_type_id":"4","last_reported":1750076517,"current_range_meters":6400,"station_id":"ce4bgs12rcd13ifvqcag","pricing_plan_id":"cebpf4jnsgd1na2vs0mg"},{"bike_id":"9d6fda51-8f0b-4d0d-a47c-5d8752d66b21","system_id":"levelo_inurba_marseille","lat":43.30566,"lon":5.36563,"is_reserved":false,"is_disabled":false,"rental_uris":{"android":"levelo://app?vid=9d6fda51-8f0b-4d0d-a47c-5d8752d66b21","ios":"levelo://app?vid=9d6fda51-8f0b-4d0d-a47c-5d8752d66b21"},"vehicle_type_id":"4","last_reported":1750076517,"current_range_meters":6400,"station_id":"ce4bgs12rcd13ifvqcag","pricing_plan_id":"cebpf4jnsgd1na2vs0mg"},{"bike_id":"478af3e0-80c7-47a4-a8d8-fd3f3f6476ec","system_id":"levelo_inurba_marseille","lat":43.28101,"lon":5.37845,"is_reserved":false,"is_disabled":false,"rental_uris":{"android":"levelo://app?vid=478af3e0-80c7-47a4-a8d8-fd3f3f6476ec","ios":"levelo://app?vid=478af3e0-80c7-47a4-a8d8-fd3f3f6476ec"},"vehicle_type_id":"4","last_reported":1750076517,"current_range_meters":6400,"station_id":"ce4bha12rcd13ifvqee0","pricing_plan_id":"cebpf4jnsgd1na2vs0mg"},{"bike_id":"f16a5698-ddc2-4e59-97f5-5526424b5a60","system_id":"levelo_inurba_marseille","lat":43.21195,"lon":5.35078,"is_reserved":false,"is_disabled":false,"rental_uris":{"android":"levelo://app?vid=f16a5698-ddc2-4e59-97f5-5526424b5a60","ios":"levelo://app?vid=f16a5698-ddc2-4e59-97f5-5526424b5a60"},"vehicle_type_id":"4","last_reported":1750076517,"current_range_meters":6400,"station_id":"st_cvj6sg6p6f1abm77japg","pricing_plan_id":"cebpf4jnsgd1na2vs0mg"},{"bike_id":"dbfce7a3-3423-4296-b193-a177dea644ac","system_id":"levelo_inurba_marseille","lat":43.272692,"lon":5.41633,"is_reserved":false,"is_disabled":false,"rental_uris":{"android":"levelo://app?vid=dbfce7a3-3423-4296-b193-a177dea644ac","ios":"levelo://app?vid=dbfce7a3-3423-4296-b193-a177dea644ac"},"vehicle_type_id":"4","last_reported":1750076517,"current_range_meters":6800,"station_id":"","pricing_plan_id":"cebpf4jnsgd1na2vs0mg"},{"bike_id":"aa9f6d59-f24a-4715-8d03-7f5baf8a0b6f","system_id":"levelo_inurba_marseille","lat":43.30549,"lon":5.36563,"is_reserved":false,"is_disabled":false,"rental_uris":{"android":"levelo://app?vid=aa9f6d59-f24a-4715-8d03-7f5baf8a0b6f","ios":"levelo://app?vid=aa9f6d59-f24a-4715-8d03-7f5baf8a0b6f"},"vehicle_type_id":"4","last_reported":1750076517,"current_range_meters":6800,"station_id":"ce4bgs12rcd13ifvqcag","pricing_plan_id":"cebpf4jnsgd1na2vs0mg"},{"bike_id":"4a9f7e47-138a-482b-94c7-7697ab3cf6d5","system_id":"levelo_inurba_marseille","lat":43.30147,"lon":5.37422,"is_reserved":false,"is_disabled":false,"rental_uris":{"android":"levelo://app?vid=4a9f7e47-138a-482b-94c7-7697ab3cf6d5","ios":"levelo://app?vid=4a9f7e47-138a-482b-94c7-7697ab3cf6d5"},"vehicle_type_id":"4","last_reported":1750076517,"current_range_meters":6800,"station_id":"ce4bgs92rcd13ifvqcc0","pricing_plan_id":"cebpf4jnsgd1na2vs0mg"},{"bike_id":"f378eeb4-e828-41c8-9ea5-c197d8115004","system_id":"levelo_inurba_marseille","lat":43.2827,"lon":5.35074,"is_reserved":false,"is_disabled":false,"rental_uris":{"android":"levelo://app?vid=f378eeb4-e828-41c8-9ea5-c197d8115004","ios":"levelo://app?vid=f378eeb4-e828-41c8-9ea5-c197d8115004"},"vehicle_type_id":"4","last_reported":1750076517,"current_range_meters":6800,"station_id":"ce4bhbp2rcd13ifvqerg","pricing_plan_id":"cebpf4jnsgd1na2vs0mg"},{"bike_id":"cc79cc73-2cdf-463e-b844-778fbea663c4","system_id":"levelo_inurba_marseille","lat":43.2706,"lon":5.40258,"is_reserved":false,"is_disabled":false,"rental_uris":{"android":"levelo://app?vid=cc79cc73-2cdf-463e-b844-778fbea663c4","ios":"levelo://app?vid=cc79cc73-2cdf-463e-b844-778fbea663c4"},"vehicle_type_id":"4","last_reported":1750076517,"current_range_meters":6800,"station_id":"ce4bhk92rcd13ifvqgc0","pricing_plan_id":"cebpf4jnsgd1na2vs0mg"},{"bike_id":"02309486-cccd-406c-ab75-b3999395ebb2","system_id":"levelo_inurba_marseille","lat":43.23182,"lon":5.39989,"is_reserved":false,"is_disabled":false,"rental_uris":{"android":"levelo://app?vid=02309486-cccd-406c-ab75-b3999395ebb2","ios":"levelo://app?vid=02309486-cccd-406c-ab75-b3999395ebb2"},"vehicle_type_id":"4","last_reported":1750076517,"current_range_meters":6800,"station_id":"ce4bhn12rcd13ifvqgqg","pricing_plan_id":"cebpf4jnsgd1na2vs0mg"},{"bike_id":"dbfca594-3761-41f6-991a-e43e1017d609","system_id":"levelo_inurba_marseille","lat":43.24114,"lon":5.36821,"is_reserved":false,"is_disabled":false,"rental_uris":{"android":"levelo://app?vid=dbfca594-3761-41f6-991a-e43e1017d609","ios":"levelo://app?vid=dbfca594-3761-41f6-991a-e43e1017d609"},"vehicle_type_id":"4","last_reported":1750076517,"current_range_meters":7200,"station_id":"","pricing_plan_id":"cebpf4jnsgd1na2vs0mg"},{"bike_id":"39153590-c56a-4d1c-b31b-eaa70513ebc4","system_id":"levelo_inurba_marseille","lat":43.31077,"lon":5.38351,"is_reserved":false,"is_disabled":false,"rental_uris":{"android":"levelo://app?vid=39153590-c56a-4d1c-b31b-eaa70513ebc4","ios":"levelo://app?vid=39153590-c56a-4d1c-b31b-eaa70513ebc4"},"vehicle_type_id":"4","last_reported":1750076517,"current_range_meters":7200,"station_id":"ce4bgv92rcd13ifvqcr0","pricing_plan_id":"cebpf4jnsgd1na2vs0mg"},{"bike_id":"19220654-4efb-4ae5-9d48-0cf395cc5a8a","system_id":"levelo_inurba_marseille","lat":43.28487,"lon":5.38421,"is_reserved":false,"is_disabled":false,"rental_uris":{"android":"levelo://app?vid=19220654-4efb-4ae5-9d48-0cf395cc5a8a","ios":"levelo://app?vid=19220654-4efb-4ae5-9d48-0cf395cc5a8a"},"vehicle_type_id":"4","last_reported":1750076517,"current_range_meters":7200,"station_id":"ce4bh512rcd13ifvqe3g","pricing_plan_id":"cebpf4jnsgd1na2vs0mg"},{"bike_id":"c16bb889-d53a-448f-bac4-b121fb2e0570","system_id":"levelo_inurba_marseille","lat":43.278236,"lon":5.39218,"is_reserved":false,"is_disabled":false,"rental_uris":{"android":"levelo://app?vid=c16bb889-d53a-448f-bac4-b121fb2e0570","ios":"levelo://app?vid=c16bb889-d53a-448f-bac4-b121fb2e0570"},"vehicle_type_id":"4","last_reported":1750076517,"current_range_meters":7200,"station_id":"ce4bhjp2rcd13ifvqga0","pricing_plan_id":"cebpf4jnsgd1na2vs0mg"},{"bike_id":"bf63da78-364c-4eb5-8bd7-1400c42d54ca","system_id":"levelo_inurba_marseille","lat":43.31495,"lon":5.37307,"is_reserved":false,"is_disabled":false,"rental_uris":{"android":"levelo://app?vid=bf63da78-364c-4eb5-8bd7-1400c42d54ca","ios":"levelo://app?vid=bf63da78-364c-4eb5-8bd7-1400c42d54ca"},"vehicle_type_id":"4","last_reported":1750076517,"current_range_meters":8000,"station_id":"ce4bgt12rcd13ifvqcd0","pricing_plan_id":"cebpf4jnsgd1na2vs0mg"},{"bike_id":"d400d8fe-a451-4e51-8423-e0200fea2423","system_id":"levelo_inurba_marseille","lat":43.30787,"lon":5.37658,"is_reserved":false,"is_disabled":false,"rental_uris":{"android":"levelo://app?vid=d400d8fe-a451-4e51-8423-e0200fea2423","ios":"levelo://app?vid=d400d8fe-a451-4e51-8423-e0200fea2423"},"vehicle_type_id":"4","last_reported":1750076517,"current_range_meters":8000,"station_id":"ce4bgv92rcd13ifvqcq0","pricing_plan_id":"cebpf4jnsgd1na2vs0mg"},{"bike_id":"60d1b3ce-5e01-4bdf-8169-35183ceca79c","system_id":"levelo_inurba_marseille","lat":43.30592,"lon":5.39368,"is_reserved":false,"is_disabled":false,"rental_uris":{"android":"levelo://app?vid=60d1b3ce-5e01-4bdf-8169-35183ceca79c","ios":"levelo://app?vid=60d1b3ce-5e01-4bdf-8169-35183ceca79c"},"vehicle_type_id":"4","last_reported":1750076517,"current_range_meters":8000,"station_id":"ce4bh0p2rcd13ifvqd80","pricing_plan_id":"cebpf4jnsgd1na2vs0mg"},{"bike_id":"3e94c06c-944e-421a-ae4f-cd190081da28","system_id":"levelo_inurba_marseille","lat":43.28427,"lon":5.35055,"is_reserved":false,"is_disabled":false,"rental_uris":{"android":"levelo://app?vid=3e94c06c-944e-421a-ae4f-cd190081da28","ios":"levelo://app?vid=3e94c06c-944e-421a-ae4f-cd190081da28"},"vehicle_type_id":"4","last_reported":1750076517,"current_range_meters":8000,"station_id":"ce4bhbh2rcd13ifvqepg","pricing_plan_id":"cebpf4jnsgd1na2vs0mg"},{"bike_id":"99479367-b749-4052-a9a5-4462082c758e","system_id":"levelo_inurba_marseille","lat":43.25723,"lon":5.41112,"is_reserved":false,"is_disabled":false,"rental_uris":{"android":"levelo://app?vid=99479367-b749-4052-a9a5-4462082c758e","ios":"levelo://app?vid=99479367-b749-4052-a9a5-4462082c758e"},"vehicle_type_id":"4","last_reported":1750076517,"current_range_meters":8000,"station_id":"ce4bhkp2rcd13ifvqgd0","pricing_plan_id":"cebpf4jnsgd1na2vs0mg"},{"bike_id":"59ebea85-86d7-44cf-8e27-1c208a2ff220","system_id":"levelo_inurba_marseille","lat":43.32102,"lon":5.36776,"is_reserved":false,"is_disabled":false,"rental_uris":{"android":"levelo://app?vid=59ebea85-86d7-44cf-8e27-1c208a2ff220","ios":"levelo://app?vid=59ebea85-86d7-44cf-8e27-1c208a2ff220"},"vehicle_type_id":"4","last_reported":1750076517,"current_range_meters":8000,"station_id":"ce4bhrh2rcd13ifvqhug","pricing_plan_id":"cebpf4jnsgd1na2vs0mg"},{"bike_id":"4bd3e9e0-a973-4c06-969d-3bc51696dc27","system_id":"levelo_inurba_marseille","lat":43.32362,"lon":5.36765,"is_reserved":false,"is_disabled":false,"rental_uris":{"android":"levelo://app?vid=4bd3e9e0-a973-4c06-969d-3bc51696dc27","ios":"levelo://app?vid=4bd3e9e0-a973-4c06-969d-3bc51696dc27"},"vehicle_type_id":"4","last_reported":1750076517,"current_range_meters":8000,"station_id":"ce4bhsh2rcd13ifvqi2g","pricing_plan_id":"cebpf4jnsgd1na2vs0mg"},{"bike_id":"22fda627-23b6-41f8-8b57-5743decfd037","system_id":"levelo_inurba_marseille","lat":43.29586,"lon":5.36728,"is_reserved":false,"is_disabled":false,"rental_uris":{"android":"levelo://app?vid=22fda627-23b6-41f8-8b57-5743decfd037","ios":"levelo://app?vid=22fda627-23b6-41f8-8b57-5743decfd037"},"vehicle_type_id":"4","last_reported":1750076517,"current_range_meters":8400,"station_id":"ce4bgph2rcd13ifvqc2g","pricing_plan_id":"cebpf4jnsgd1na2vs0mg"},{"bike_id":"ea54d6a5-8c7b-43e7-ab68-cff3b7302cb8","system_id":"levelo_inurba_marseille","lat":43.28673,"lon":5.36348,"is_reserved":false,"is_disabled":false,"rental_uris":{"android":"levelo://app?vid=ea54d6a5-8c7b-43e7-ab68-cff3b7302cb8","ios":"levelo://app?vid=ea54d6a5-8c7b-43e7-ab68-cff3b7302cb8"},"vehicle_type_id":"4","last_reported":1750076517,"current_range_meters":8400,"station_id":"ce4bhah2rcd13ifvqej0","pricing_plan_id":"cebpf4jnsgd1na2vs0mg"},{"bike_id":"130c44f0-0181-4499-a0c8-b294fffcfc83","system_id":"levelo_inurba_marseille","lat":43.22939,"lon":5.35377,"is_reserved":false,"is_disabled":false,"rental_uris":{"android":"levelo://app?vid=130c44f0-0181-4499-a0c8-b294fffcfc83","ios":"levelo://app?vid=130c44f0-0181-4499-a0c8-b294fffcfc83"},"vehicle_type_id":"4","last_reported":1750076517,"current_range_meters":8400,"station_id":"cpo3532slgdg3j2ikp40","pricing_plan_id":"cebpf4jnsgd1na2vs0mg"},{"bike_id":"370f570b-6730-4fa5-9f8e-5b30d5c0c175","system_id":"levelo_inurba_marseille","lat":43.30532,"lon":5.38436,"is_reserved":false,"is_disabled":false,"rental_uris":{"android":"levelo://app?vid=370f570b-6730-4fa5-9f8e-5b30d5c0c175","ios":"levelo://app?vid=370f570b-6730-4fa5-9f8e-5b30d5c0c175"},"vehicle_type_id":"4","last_reported":1750076517,"current_range_meters":8800,"station_id":"ce4bgg92rcd13ifvqb30","pricing_plan_id":"cebpf4jnsgd1na2vs0mg"},{"bike_id":"5ec2eee6-9736-44c2-8e9c-f7667ab2a1c5","system_id":"levelo_inurba_marseille","lat":43.289954,"lon":5.356031,"is_reserved":false,"is_disabled":false,"rental_uris":{"android":"levelo://app?vid=5ec2eee6-9736-44c2-8e9c-f7667ab2a1c5","ios":"levelo://app?vid=5ec2eee6-9736-44c2-8e9c-f7667ab2a1c5"},"vehicle_type_id":"4","last_reported":1750076517,"current_range_meters":8800,"station_id":"ce4bhb92rcd13ifvqen0","pricing_plan_id":"cebpf4jnsgd1na2vs0mg"},{"bike_id":"79eeb666-d8d8-469a-94d3-68222c812a1d","system_id":"levelo_inurba_marseille","lat":43.31787,"lon":5.3744,"is_reserved":false,"is_disabled":false,"rental_uris":{"android":"levelo://app?vid=79eeb666-d8d8-469a-94d3-68222c812a1d","ios":"levelo://app?vid=79eeb666-d8d8-469a-94d3-68222c812a1d"},"vehicle_type_id":"4","last_reported":1750076517,"current_range_meters":9200,"station_id":"","pricing_plan_id":"cebpf4jnsgd1na2vs0mg"},{"bike_id":"15a64469-8e35-4495-98f0-849e5cb26090","system_id":"levelo_inurba_marseille","lat":43.29848,"lon":5.36262,"is_reserved":false,"is_disabled":false,"rental_uris":{"android":"levelo://app?vid=15a64469-8e35-4495-98f0-849e5cb26090","ios":"levelo://app?vid=15a64469-8e35-4495-98f0-849e5cb26090"},"vehicle_type_id":"4","last_reported":1750076517,"current_range_meters":9200,"station_id":"ce4bgpp2rcd13ifvqc3g","pricing_plan_id":"cebpf4jnsgd1na2vs0mg"},{"bike_id":"65d1df58-dfc3-4540-8845-1af262cc7c79","system_id":"levelo_inurba_marseille","lat":43.29267,"lon":5.3684,"is_reserved":false,"is_disabled":false,"rental_uris":{"android":"levelo://app?vid=65d1df58-dfc3-4540-8845-1af262cc7c79","ios":"levelo://app?vid=65d1df58-dfc3-4540-8845-1af262cc7c79"},"vehicle_type_id":"4","last_reported":1750076517,"current_range_meters":9200,"station_id":"ce4bhbp2rcd13ifvqesg","pricing_plan_id":"cebpf4jnsgd1na2vs0mg"},{"bike_id":"02a35223-0b09-4704-8e44-579d07e6035a","system_id":"levelo_inurba_marseille","lat":43.23962,"lon":5.36641,"is_reserved":false,"is_disabled":false,"rental_uris":{"android":"levelo://app?vid=02a35223-0b09-4704-8e44-579d07e6035a","ios":"levelo://app?vid=02a35223-0b09-4704-8e44-579d07e6035a"},"vehicle_type_id":"4","last_reported":1750076517,"current_range_meters":9200,"station_id":"ce4bhi12rcd13ifvqfp0","pricing_plan_id":"cebpf4jnsgd1na2vs0mg"},{"bike_id":"4525c8fc-c649-4305-87ba-fe0c5fadbe83","system_id":"levelo_inurba_marseille","lat":43.2397,"lon":5.36631,"is_reserved":false,"is_disabled":false,"rental_uris":{"android":"levelo://app?vid=4525c8fc-c649-4305-87ba-fe0c5fadbe83","ios":"levelo://app?vid=4525c8fc-c649-4305-87ba-fe0c5fadbe83"},"vehicle_type_id":"4","last_reported":1750076517,"current_range_meters":9200,"station_id":"ce4bhi12rcd13ifvqfp0","pricing_plan_id":"cebpf4jnsgd1na2vs0mg"},{"bike_id":"10d8703f-8168-48d3-b44c-9eaaf686e239","system_id":"levelo_inurba_marseille","lat":43.30578,"lon":5.37231,"is_reserved":false,"is_disabled":false,"rental_uris":{"android":"levelo://app?vid=10d8703f-8168-48d3-b44c-9eaaf686e239","ios":"levelo://app?vid=10d8703f-8168-48d3-b44c-9eaaf686e239"},"vehicle_type_id":"4","last_reported":1750076517,"current_range_meters":9600,"station_id":"ce4bgqh2rcd13ifvqc4g","pricing_plan_id":"cebpf4jnsgd1na2vs0mg"},{"bike_id":"fca261e5-4a8c-4fff-8426-420168348cbf","system_id":"levelo_inurba_marseille","lat":43.28357,"lon":5.38105,"is_reserved":false,"is_disabled":false,"rental_uris":{"android":"levelo://app?vid=fca261e5-4a8c-4fff-8426-420168348cbf","ios":"levelo://app?vid=fca261e5-4a8c-4fff-8426-420168348cbf"},"vehicle_type_id":"4","last_reported":1750076517,"current_range_meters":9600,"station_id":"ce4bh412rcd13ifvqdr0","pricing_plan_id":"cebpf4jnsgd1na2vs0mg"},{"bike_id":"25e49144-bdbc-4d7e-8f52-3b5ee1144713","system_id":"levelo_inurba_marseille","lat":43.27968,"lon":5.38738,"is_reserved":false,"is_disabled":false,"rental_uris":{"android":"levelo://app?vid=25e49144-bdbc-4d7e-8f52-3b5ee1144713","ios":"levelo://app?vid=25e49144-bdbc-4d7e-8f52-3b5ee1144713"},"vehicle_type_id":"4","last_reported":1750076517,"current_range_meters":9600,"station_id":"ce4bhg12rcd13ifvqf80","pricing_plan_id":"cebpf4jnsgd1na2vs0mg"},{"bike_id":"5af08327-39d7-4ef6-9cf2-a3d00633d3f8","system_id":"levelo_inurba_marseille","lat":43.24791,"lon":5.37493,"is_reserved":false,"is_disabled":false,"rental_uris":{"android":"levelo://app?vid=5af08327-39d7-4ef6-9cf2-a3d00633d3f8","ios":"levelo://app?vid=5af08327-39d7-4ef6-9cf2-a3d00633d3f8"},"vehicle_type_id":"4","last_reported":1750076517,"current_range_meters":9600,"station_id":"ce4bhgh2rcd13ifvqfb0","pricing_plan_id":"cebpf4jnsgd1na2vs0mg"},{"bike_id":"b10cc3b5-def5-4842-ab81-4cd02129d755","system_id":"levelo_inurba_marseille","lat":43.2408,"lon":5.37755,"is_reserved":false,"is_disabled":false,"rental_uris":{"android":"levelo://app?vid=b10cc3b5-def5-4842-ab81-4cd02129d755","ios":"levelo://app?vid=b10cc3b5-def5-4842-ab81-4cd02129d755"},"vehicle_type_id":"4","last_reported":1750076517,"current_range_meters":9600,"station_id":"ce4bhnp2rcd13ifvqgvg","pricing_plan_id":"cebpf4jnsgd1na2vs0mg"},{"bike_id":"a4b2c8cb-9c61-4c32-9ede-8a56720b5f6a","system_id":"levelo_inurba_marseille","lat":43.21735,"lon":5.34614,"is_reserved":false,"is_disabled":false,"rental_uris":{"android":"levelo://app?vid=a4b2c8cb-9c61-4c32-9ede-8a56720b5f6a","ios":"levelo://app?vid=a4b2c8cb-9c61-4c32-9ede-8a56720b5f6a"},"vehicle_type_id":"4","last_reported":1750076517,"current_range_meters":9600,"station_id":"st_cvj6r9ubvosntc0bgbag","pricing_plan_id":"cebpf4jnsgd1na2vs0mg"},{"bike_id":"96f28763-58d8-41d3-90ae-00e2aae7e5cc","system_id":"levelo_inurba_marseille","lat":43.29711,"lon":5.38148,"is_reserved":false,"is_disabled":false,"rental_uris":{"android":"levelo://app?vid=96f28763-58d8-41d3-90ae-00e2aae7e5cc","ios":"levelo://app?vid=96f28763-58d8-41d3-90ae-00e2aae7e5cc"},"vehicle_type_id":"4","last_reported":1750076517,"current_range_meters":10000,"station_id":"","pricing_plan_id":"cebpf4jnsgd1na2vs0mg"},{"bike_id":"dd064b72-729e-4f4d-9a4c-6decd26bc526","system_id":"levelo_inurba_marseille","lat":43.28435,"lon":5.35002,"is_reserved":false,"is_disabled":false,"rental_uris":{"android":"levelo://app?vid=dd064b72-729e-4f4d-9a4c-6decd26bc526","ios":"levelo://app?vid=dd064b72-729e-4f4d-9a4c-6decd26bc526"},"vehicle_type_id":"4","last_reported":1750076517,"current_range_meters":10000,"station_id":"ce4bhbh2rcd13ifvqepg","pricing_plan_id":"cebpf4jnsgd1na2vs0mg"},{"bike_id":"71a51adc-b8da-443c-83f9-670b85610e44","system_id":"levelo_inurba_marseille","lat":43.23967,"lon":5.36633,"is_reserved":false,"is_disabled":false,"rental_uris":{"android":"levelo://app?vid=71a51adc-b8da-443c-83f9-670b85610e44","ios":"levelo://app?vid=71a51adc-b8da-443c-83f9-670b85610e44"},"vehicle_type_id":"4","last_reported":1750076517,"current_range_meters":10000,"station_id":"ce4bhi12rcd13ifvqfp0","pricing_plan_id":"cebpf4jnsgd1na2vs0mg"},{"bike_id":"61a0899a-84f4-4414-a423-8f1053a8b322","system_id":"levelo_inurba_marseille","lat":43.239631,"lon":5.366279,"is_reserved":false,"is_disabled":false,"rental_uris":{"android":"levelo://app?vid=61a0899a-84f4-4414-a423-8f1053a8b322","ios":"levelo://app?vid=61a0899a-84f4-4414-a423-8f1053a8b322"},"vehicle_type_id":"4","last_reported":1750076517,"current_range_meters":10000,"station_id":"ce4bhi12rcd13ifvqfp0","pricing_plan_id":"cebpf4jnsgd1na2vs0mg"},{"bike_id":"00e39310-a799-4947-9363-9246e21a5f8e","system_id":"levelo_inurba_marseille","lat":43.259385,"lon":5.409112,"is_reserved":false,"is_disabled":false,"rental_uris":{"android":"levelo://app?vid=00e39310-a799-4947-9363-9246e21a5f8e","ios":"levelo://app?vid=00e39310-a799-4947-9363-9246e21a5f8e"},"vehicle_type_id":"4","last_reported":1750076517,"current_range_meters":10000,"station_id":"ce4bhm92rcd13ifvqglg","pricing_plan_id":"cebpf4jnsgd1na2vs0mg"},{"bike_id":"a337d380-02b9-44ae-b548-d5d0f8820b97","system_id":"levelo_inurba_marseille","lat":43.32502,"lon":5.36579,"is_reserved":false,"is_disabled":false,"rental_uris":{"android":"levelo://app?vid=a337d380-02b9-44ae-b548-d5d0f8820b97","ios":"levelo://app?vid=a337d380-02b9-44ae-b548-d5d0f8820b97"},"vehicle_type_id":"4","last_reported":1750076517,"current_range_meters":10000,"station_id":"ce4bhs12rcd13ifvqhvg","pricing_plan_id":"cebpf4jnsgd1na2vs0mg"},{"bike_id":"a3e0cb5b-07b7-489e-8ca9-903686b4dc1a","system_id":"levelo_inurba_marseille","lat":43.3236,"lon":5.36761,"is_reserved":false,"is_disabled":false,"rental_uris":{"android":"levelo://app?vid=a3e0cb5b-07b7-489e-8ca9-903686b4dc1a","ios":"levelo://app?vid=a3e0cb5b-07b7-489e-8ca9-903686b4dc1a"},"vehicle_type_id":"4","last_reported":1750076517,"current_range_meters":10000,"station_id":"ce4bhsh2rcd13ifvqi2g","pricing_plan_id":"cebpf4jnsgd1na2vs0mg"},{"bike_id":"87a73488-390c-4e28-a3b3-5d6b7a9184c3","system_id":"levelo_inurba_marseille","lat":43.337444,"lon":5.374475,"is_reserved":false,"is_disabled":false,"rental_uris":{"android":"levelo://app?vid=87a73488-390c-4e28-a3b3-5d6b7a9184c3","ios":"levelo://app?vid=87a73488-390c-4e28-a3b3-5d6b7a9184c3"},"vehicle_type_id":"4","last_reported":1750076517,"current_range_meters":10800,"station_id":"","pricing_plan_id":"cebpf4jnsgd1na2vs0mg"},{"bike_id":"6a928840-95ce-4cd4-9d12-3642916c54ed","system_id":"levelo_inurba_marseille","lat":43.31493,"lon":5.37326,"is_reserved":false,"is_disabled":false,"rental_uris":{"android":"levelo://app?vid=6a928840-95ce-4cd4-9d12-3642916c54ed","ios":"levelo://app?vid=6a928840-95ce-4cd4-9d12-3642916c54ed"},"vehicle_type_id":"4","last_reported":1750076517,"current_range_meters":10800,"station_id":"ce4bgt12rcd13ifvqcd0","pricing_plan_id":"cebpf4jnsgd1na2vs0mg"},{"bike_id":"a15ceba0-dacb-4c93-9211-8709d4dec4a5","system_id":"levelo_inurba_marseille","lat":43.30967,"lon":5.39027,"is_reserved":false,"is_disabled":false,"rental_uris":{"android":"levelo://app?vid=a15ceba0-dacb-4c93-9211-8709d4dec4a5","ios":"levelo://app?vid=a15ceba0-dacb-4c93-9211-8709d4dec4a5"},"vehicle_type_id":"4","last_reported":1750076517,"current_range_meters":10800,"station_id":"ce4bgup2rcd13ifvqco0","pricing_plan_id":"cebpf4jnsgd1na2vs0mg"},{"bike_id":"5489068b-8ba6-49f3-a085-7f86fa6e1ae4","system_id":"levelo_inurba_marseille","lat":43.27945,"lon":5.41054,"is_reserved":false,"is_disabled":false,"rental_uris":{"android":"levelo://app?vid=5489068b-8ba6-49f3-a085-7f86fa6e1ae4","ios":"levelo://app?vid=5489068b-8ba6-49f3-a085-7f86fa6e1ae4"},"vehicle_type_id":"4","last_reported":1750076517,"current_range_meters":10800,"station_id":"ce4bhnp2rcd13ifvqh0g","pricing_plan_id":"cebpf4jnsgd1na2vs0mg"},{"bike_id":"95c1a363-409e-4890-9015-8d7759a3a1c0","system_id":"levelo_inurba_marseille","lat":43.32349,"lon":5.40622,"is_reserved":false,"is_disabled":false,"rental_uris":{"android":"levelo://app?vid=95c1a363-409e-4890-9015-8d7759a3a1c0","ios":"levelo://app?vid=95c1a363-409e-4890-9015-8d7759a3a1c0"},"vehicle_type_id":"4","last_reported":1750076517,"current_range_meters":10800,"station_id":"ce4bhq92rcd13ifvqhjg","pricing_plan_id":"cebpf4jnsgd1na2vs0mg"},{"bike_id":"d69bc089-f59e-460f-8f04-5e31bfb69ea6","system_id":"levelo_inurba_marseille","lat":43.24433,"lon":5.37162,"is_reserved":false,"is_disabled":false,"rental_uris":{"android":"levelo://app?vid=d69bc089-f59e-460f-8f04-5e31bfb69ea6","ios":"levelo://app?vid=d69bc089-f59e-460f-8f04-5e31bfb69ea6"},"vehicle_type_id":"4","last_reported":1750076517,"current_range_meters":11200,"station_id":"","pricing_plan_id":"cebpf4jnsgd1na2vs0mg"},{"bike_id":"3ea51b32-f1da-4c0e-b356-91e4a5358b62","system_id":"levelo_inurba_marseille","lat":43.30138,"lon":5.37423,"is_reserved":false,"is_disabled":false,"rental_uris":{"android":"levelo://app?vid=3ea51b32-f1da-4c0e-b356-91e4a5358b62","ios":"levelo://app?vid=3ea51b32-f1da-4c0e-b356-91e4a5358b62"},"vehicle_type_id":"4","last_reported":1750076517,"current_range_meters":11200,"station_id":"ce4bgs92rcd13ifvqcc0","pricing_plan_id":"cebpf4jnsgd1na2vs0mg"},{"bike_id":"9a7dcaa3-1d3c-4863-afb0-833aa0527397","system_id":"levelo_inurba_marseille","lat":43.30903,"lon":5.37189,"is_reserved":false,"is_disabled":false,"rental_uris":{"android":"levelo://app?vid=9a7dcaa3-1d3c-4863-afb0-833aa0527397","ios":"levelo://app?vid=9a7dcaa3-1d3c-4863-afb0-833aa0527397"},"vehicle_type_id":"4","last_reported":1750076517,"current_range_meters":11200,"station_id":"ce4bguh2rcd13ifvqckg","pricing_plan_id":"cebpf4jnsgd1na2vs0mg"},{"bike_id":"4e24f021-ea5d-46ec-a40b-53981e48cbf6","system_id":"levelo_inurba_marseille","lat":43.31078,"lon":5.38355,"is_reserved":false,"is_disabled":false,"rental_uris":{"android":"levelo://app?vid=4e24f021-ea5d-46ec-a40b-53981e48cbf6","ios":"levelo://app?vid=4e24f021-ea5d-46ec-a40b-53981e48cbf6"},"vehicle_type_id":"4","last_reported":1750076517,"current_range_meters":11200,"station_id":"ce4bgv92rcd13ifvqcr0","pricing_plan_id":"cebpf4jnsgd1na2vs0mg"},{"bike_id":"18d2c9d9-9820-4ffd-8386-4a7e42c4388b","system_id":"levelo_inurba_marseille","lat":43.25503,"lon":5.37649,"is_reserved":false,"is_disabled":false,"rental_uris":{"android":"levelo://app?vid=18d2c9d9-9820-4ffd-8386-4a7e42c4388b","ios":"levelo://app?vid=18d2c9d9-9820-4ffd-8386-4a7e42c4388b"},"vehicle_type_id":"4","last_reported":1750076517,"current_range_meters":11200,"station_id":"ce4bhh12rcd13ifvqff0","pricing_plan_id":"cebpf4jnsgd1na2vs0mg"},{"bike_id":"40fe9ef5-bce5-4867-873f-894747d76148","system_id":"levelo_inurba_marseille","lat":43.287098,"lon":5.400027,"is_reserved":false,"is_disabled":false,"rental_uris":{"android":"levelo://app?vid=40fe9ef5-bce5-4867-873f-894747d76148","ios":"levelo://app?vid=40fe9ef5-bce5-4867-873f-894747d76148"},"vehicle_type_id":"4","last_reported":1750076517,"current_range_meters":11200,"station_id":"ce4bho92rcd13ifvqh3g","pricing_plan_id":"cebpf4jnsgd1na2vs0mg"},{"bike_id":"6afc644c-08c3-42de-8619-3f94e2ba41cd","system_id":"levelo_inurba_marseille","lat":43.29902,"lon":5.43687,"is_reserved":false,"is_disabled":false,"rental_uris":{"android":"levelo://app?vid=6afc644c-08c3-42de-8619-3f94e2ba41cd","ios":"levelo://app?vid=6afc644c-08c3-42de-8619-3f94e2ba41cd"},"vehicle_type_id":"4","last_reported":1750076517,"current_range_meters":11200,"station_id":"ce4bhpp2rcd13ifvqhfg","pricing_plan_id":"cebpf4jnsgd1na2vs0mg"},{"bike_id":"6bed16c8-fe11-44a8-9d8c-6d5bf94f3d9d","system_id":"levelo_inurba_marseille","lat":43.32067,"lon":5.3673,"is_reserved":false,"is_disabled":false,"rental_uris":{"android":"levelo://app?vid=6bed16c8-fe11-44a8-9d8c-6d5bf94f3d9d","ios":"levelo://app?vid=6bed16c8-fe11-44a8-9d8c-6d5bf94f3d9d"},"vehicle_type_id":"4","last_reported":1750076517,"current_range_meters":11200,"station_id":"ce4bhrh2rcd13ifvqhug","pricing_plan_id":"cebpf4jnsgd1na2vs0mg"},{"bike_id":"a218f7b1-1ede-42b6-9f21-577bc879a2fb","system_id":"levelo_inurba_marseille","lat":43.21209,"lon":5.35073,"is_reserved":false,"is_disabled":false,"rental_uris":{"android":"levelo://app?vid=a218f7b1-1ede-42b6-9f21-577bc879a2fb","ios":"levelo://app?vid=a218f7b1-1ede-42b6-9f21-577bc879a2fb"},"vehicle_type_id":"4","last_reported":1750076517,"current_range_meters":11200,"station_id":"st_cvj6sg6p6f1abm77japg","pricing_plan_id":"cebpf4jnsgd1na2vs0mg"},{"bike_id":"25be301b-e50b-4f31-a209-462aec1b4ce5","system_id":"levelo_inurba_marseille","lat":43.211924,"lon":5.350752,"is_reserved":false,"is_disabled":false,"rental_uris":{"android":"levelo://app?vid=25be301b-e50b-4f31-a209-462aec1b4ce5","ios":"levelo://app?vid=25be301b-e50b-4f31-a209-462aec1b4ce5"},"vehicle_type_id":"4","last_reported":1750076517,"current_range_meters":11600,"station_id":"st_cvj6sg6p6f1abm77japg","pricing_plan_id":"cebpf4jnsgd1na2vs0mg"},{"bike_id":"8faa7941-d798-4e63-a6a6-1f6103af292c","system_id":"levelo_inurba_marseille","lat":43.30963,"lon":5.39031,"is_reserved":false,"is_disabled":false,"rental_uris":{"android":"levelo://app?vid=8faa7941-d798-4e63-a6a6-1f6103af292c","ios":"levelo://app?vid=8faa7941-d798-4e63-a6a6-1f6103af292c"},"vehicle_type_id":"4","last_reported":1750076517,"current_range_meters":12000,"station_id":"ce4bgup2rcd13ifvqco0","pricing_plan_id":"cebpf4jnsgd1na2vs0mg"},{"bike_id":"38138dc9-bace-46b2-a82c-093eb43c5aaa","system_id":"levelo_inurba_marseille","lat":43.29628,"lon":5.40607,"is_reserved":false,"is_disabled":false,"rental_uris":{"android":"levelo://app?vid=38138dc9-bace-46b2-a82c-093eb43c5aaa","ios":"levelo://app?vid=38138dc9-bace-46b2-a82c-093eb43c5aaa"},"vehicle_type_id":"4","last_reported":1750076517,"current_range_meters":12000,"station_id":"ce4bh0h2rcd13ifvqd60","pricing_plan_id":"cebpf4jnsgd1na2vs0mg"},{"bike_id":"dc2307a2-0663-4bed-a365-1e80f36edc9c","system_id":"levelo_inurba_marseille","lat":43.28676,"lon":5.38655,"is_reserved":false,"is_disabled":false,"rental_uris":{"android":"levelo://app?vid=dc2307a2-0663-4bed-a365-1e80f36edc9c","ios":"levelo://app?vid=dc2307a2-0663-4bed-a365-1e80f36edc9c"},"vehicle_type_id":"4","last_reported":1750076517,"current_range_meters":12000,"station_id":"ce4bh492rcd13ifvqdug","pricing_plan_id":"cebpf4jnsgd1na2vs0mg"},{"bike_id":"7f7d8f86-bd42-41e4-8840-62e56144ec2f","system_id":"levelo_inurba_marseille","lat":43.28426,"lon":5.35009,"is_reserved":false,"is_disabled":false,"rental_uris":{"android":"levelo://app?vid=7f7d8f86-bd42-41e4-8840-62e56144ec2f","ios":"levelo://app?vid=7f7d8f86-bd42-41e4-8840-62e56144ec2f"},"vehicle_type_id":"4","last_reported":1750076517,"current_range_meters":12000,"station_id":"ce4bhbh2rcd13ifvqepg","pricing_plan_id":"cebpf4jnsgd1na2vs0mg"},{"bike_id":"a66728c4-f2e7-428e-b872-e7406fb70732","system_id":"levelo_inurba_marseille","lat":43.21212,"lon":5.35145,"is_reserved":false,"is_disabled":false,"rental_uris":{"android":"levelo://app?vid=a66728c4-f2e7-428e-b872-e7406fb70732","ios":"levelo://app?vid=a66728c4-f2e7-428e-b872-e7406fb70732"},"vehicle_type_id":"4","last_reported":1750076517,"current_range_meters":12400,"station_id":"","pricing_plan_id":"cebpf4jnsgd1na2vs0mg"},{"bike_id":"398a0bbf-4f1e-4b6e-a4e1-0e8ceb1b1dbe","system_id":"levelo_inurba_marseille","lat":43.23962,"lon":5.36625,"is_reserved":false,"is_disabled":false,"rental_uris":{"android":"levelo://app?vid=398a0bbf-4f1e-4b6e-a4e1-0e8ceb1b1dbe","ios":"levelo://app?vid=398a0bbf-4f1e-4b6e-a4e1-0e8ceb1b1dbe"},"vehicle_type_id":"4","last_reported":1750076517,"current_range_meters":12400,"station_id":"ce4bhi12rcd13ifvqfp0","pricing_plan_id":"cebpf4jnsgd1na2vs0mg"},{"bike_id":"232581a2-33b4-4eac-9339-1ddfca3758d5","system_id":"levelo_inurba_marseille","lat":43.24166,"lon":5.36397,"is_reserved":false,"is_disabled":false,"rental_uris":{"android":"levelo://app?vid=232581a2-33b4-4eac-9339-1ddfca3758d5","ios":"levelo://app?vid=232581a2-33b4-4eac-9339-1ddfca3758d5"},"vehicle_type_id":"4","last_reported":1750076517,"current_range_meters":12400,"station_id":"cpo36qri1sfpv3e86is0","pricing_plan_id":"cebpf4jnsgd1na2vs0mg"},{"bike_id":"4f97842f-52eb-440d-9107-a510c1c2ed45","system_id":"levelo_inurba_marseille","lat":43.298464,"lon":5.362797,"is_reserved":false,"is_disabled":false,"rental_uris":{"android":"levelo://app?vid=4f97842f-52eb-440d-9107-a510c1c2ed45","ios":"levelo://app?vid=4f97842f-52eb-440d-9107-a510c1c2ed45"},"vehicle_type_id":"4","last_reported":1750076517,"current_range_meters":12800,"station_id":"ce4bgpp2rcd13ifvqc3g","pricing_plan_id":"cebpf4jnsgd1na2vs0mg"},{"bike_id":"044e1236-bae9-4d66-8f7e-4401ea872c92","system_id":"levelo_inurba_marseille","lat":43.30541,"lon":5.3657,"is_reserved":false,"is_disabled":false,"rental_uris":{"android":"levelo://app?vid=044e1236-bae9-4d66-8f7e-4401ea872c92","ios":"levelo://app?vid=044e1236-bae9-4d66-8f7e-4401ea872c92"},"vehicle_type_id":"4","last_reported":1750076517,"current_range_meters":12800,"station_id":"ce4bgs12rcd13ifvqcag","pricing_plan_id":"cebpf4jnsgd1na2vs0mg"},{"bike_id":"dd18bef7-9bbe-4e24-9936-b05a81d1c616","system_id":"levelo_inurba_marseille","lat":43.28418,"lon":5.35007,"is_reserved":false,"is_disabled":false,"rental_uris":{"android":"levelo://app?vid=dd18bef7-9bbe-4e24-9936-b05a81d1c616","ios":"levelo://app?vid=dd18bef7-9bbe-4e24-9936-b05a81d1c616"},"vehicle_type_id":"4","last_reported":1750076517,"current_range_meters":12800,"station_id":"ce4bhbh2rcd13ifvqepg","pricing_plan_id":"cebpf4jnsgd1na2vs0mg"},{"bike_id":"96b6957b-9065-43ca-aec5-03a99aaacd73","system_id":"levelo_inurba_marseille","lat":43.23958,"lon":5.36639,"is_reserved":false,"is_disabled":false,"rental_uris":{"android":"levelo://app?vid=96b6957b-9065-43ca-aec5-03a99aaacd73","ios":"levelo://app?vid=96b6957b-9065-43ca-aec5-03a99aaacd73"},"vehicle_type_id":"4","last_reported":1750076517,"current_range_meters":12800,"station_id":"ce4bhi12rcd13ifvqfp0","pricing_plan_id":"cebpf4jnsgd1na2vs0mg"},{"bike_id":"85a4614b-66a7-4a77-9dc6-1506b0949685","system_id":"levelo_inurba_marseille","lat":43.259367,"lon":5.409145,"is_reserved":false,"is_disabled":false,"rental_uris":{"android":"levelo://app?vid=85a4614b-66a7-4a77-9dc6-1506b0949685","ios":"levelo://app?vid=85a4614b-66a7-4a77-9dc6-1506b0949685"},"vehicle_type_id":"4","last_reported":1750076517,"current_range_meters":12800,"station_id":"ce4bhm92rcd13ifvqglg","pricing_plan_id":"cebpf4jnsgd1na2vs0mg"},{"bike_id":"20a09336-3ac6-46f4-a72e-89f8d3202fbf","system_id":"levelo_inurba_marseille","lat":43.24167,"lon":5.36398,"is_reserved":false,"is_disabled":false,"rental_uris":{"android":"levelo://app?vid=20a09336-3ac6-46f4-a72e-89f8d3202fbf","ios":"levelo://app?vid=20a09336-3ac6-46f4-a72e-89f8d3202fbf"},"vehicle_type_id":"4","last_reported":1750076517,"current_range_meters":12800,"station_id":"cpo36qri1sfpv3e86is0","pricing_plan_id":"cebpf4jnsgd1na2vs0mg"},{"bike_id":"da3e1724-606c-4f9a-9130-d56dd48e22e0","system_id":"levelo_inurba_marseille","lat":43.32914,"lon":5.40589,"is_reserved":false,"is_disabled":false,"rental_uris":{"android":"levelo://app?vid=da3e1724-606c-4f9a-9130-d56dd48e22e0","ios":"levelo://app?vid=da3e1724-606c-4f9a-9130-d56dd48e22e0"},"vehicle_type_id":"4","last_reported":1750076517,"current_range_meters":13600,"station_id":"","pricing_plan_id":"cebpf4jnsgd1na2vs0mg"},{"bike_id":"0a465395-c8ba-4473-8fd7-af1483c23125","system_id":"levelo_inurba_marseille","lat":43.30551,"lon":5.36559,"is_reserved":false,"is_disabled":false,"rental_uris":{"android":"levelo://app?vid=0a465395-c8ba-4473-8fd7-af1483c23125","ios":"levelo://app?vid=0a465395-c8ba-4473-8fd7-af1483c23125"},"vehicle_type_id":"4","last_reported":1750076517,"current_range_meters":13600,"station_id":"ce4bgs12rcd13ifvqcag","pricing_plan_id":"cebpf4jnsgd1na2vs0mg"},{"bike_id":"f719c446-976f-4054-a362-af33111b6e5f","system_id":"levelo_inurba_marseille","lat":43.30141,"lon":5.37425,"is_reserved":false,"is_disabled":false,"rental_uris":{"android":"levelo://app?vid=f719c446-976f-4054-a362-af33111b6e5f","ios":"levelo://app?vid=f719c446-976f-4054-a362-af33111b6e5f"},"vehicle_type_id":"4","last_reported":1750076517,"current_range_meters":13600,"station_id":"ce4bgs92rcd13ifvqcc0","pricing_plan_id":"cebpf4jnsgd1na2vs0mg"},{"bike_id":"6469f4ea-93e4-46d8-b0ec-65951a92a44e","system_id":"levelo_inurba_marseille","lat":43.313319,"lon":5.396882,"is_reserved":false,"is_disabled":false,"rental_uris":{"android":"levelo://app?vid=6469f4ea-93e4-46d8-b0ec-65951a92a44e","ios":"levelo://app?vid=6469f4ea-93e4-46d8-b0ec-65951a92a44e"},"vehicle_type_id":"4","last_reported":1750076517,"current_range_meters":13600,"station_id":"ce4bgvp2rcd13ifvqcu0","pricing_plan_id":"cebpf4jnsgd1na2vs0mg"},{"bike_id":"45853a76-b280-4527-b8cb-f602f3f9dbe8","system_id":"levelo_inurba_marseille","lat":43.23965,"lon":5.36638,"is_reserved":false,"is_disabled":false,"rental_uris":{"android":"levelo://app?vid=45853a76-b280-4527-b8cb-f602f3f9dbe8","ios":"levelo://app?vid=45853a76-b280-4527-b8cb-f602f3f9dbe8"},"vehicle_type_id":"4","last_reported":1750076517,"current_range_meters":13600,"station_id":"ce4bhi12rcd13ifvqfp0","pricing_plan_id":"cebpf4jnsgd1na2vs0mg"},{"bike_id":"64c6d212-acc6-47e3-9e04-fbaf04a7ed4e","system_id":"levelo_inurba_marseille","lat":43.27001,"lon":5.38781,"is_reserved":false,"is_disabled":false,"rental_uris":{"android":"levelo://app?vid=64c6d212-acc6-47e3-9e04-fbaf04a7ed4e","ios":"levelo://app?vid=64c6d212-acc6-47e3-9e04-fbaf04a7ed4e"},"vehicle_type_id":"4","last_reported":1750076517,"current_range_meters":14000,"station_id":"","pricing_plan_id":"cebpf4jnsgd1na2vs0mg"},{"bike_id":"ac254318-9f48-46b8-8519-e943b2ad2dd8","system_id":"levelo_inurba_marseille","lat":43.29784,"lon":5.371,"is_reserved":false,"is_disabled":false,"rental_uris":{"android":"levelo://app?vid=ac254318-9f48-46b8-8519-e943b2ad2dd8","ios":"levelo://app?vid=ac254318-9f48-46b8-8519-e943b2ad2dd8"},"vehicle_type_id":"4","last_reported":1750076517,"current_range_meters":14000,"station_id":"ce4bgop2rcd13ifvqc1g","pricing_plan_id":"cebpf4jnsgd1na2vs0mg"},{"bike_id":"57c66548-7687-401b-bb09-a1b304cebb00","system_id":"levelo_inurba_marseille","lat":43.28415,"lon":5.35,"is_reserved":false,"is_disabled":false,"rental_uris":{"android":"levelo://app?vid=57c66548-7687-401b-bb09-a1b304cebb00","ios":"levelo://app?vid=57c66548-7687-401b-bb09-a1b304cebb00"},"vehicle_type_id":"4","last_reported":1750076517,"current_range_meters":14000,"station_id":"ce4bhbh2rcd13ifvqepg","pricing_plan_id":"cebpf4jnsgd1na2vs0mg"},{"bike_id":"48e98c35-6eaf-4651-a68c-7876f7d82eba","system_id":"levelo_inurba_marseille","lat":43.2481,"lon":5.37455,"is_reserved":false,"is_disabled":false,"rental_uris":{"android":"levelo://app?vid=48e98c35-6eaf-4651-a68c-7876f7d82eba","ios":"levelo://app?vid=48e98c35-6eaf-4651-a68c-7876f7d82eba"},"vehicle_type_id":"4","last_reported":1750076517,"current_range_meters":14000,"station_id":"ce4bhgh2rcd13ifvqfb0","pricing_plan_id":"cebpf4jnsgd1na2vs0mg"},{"bike_id":"70ca1ba7-b87e-4017-ae33-859dccc88dc2","system_id":"levelo_inurba_marseille","lat":43.29847,"lon":5.36265,"is_reserved":false,"is_disabled":false,"rental_uris":{"android":"levelo://app?vid=70ca1ba7-b87e-4017-ae33-859dccc88dc2","ios":"levelo://app?vid=70ca1ba7-b87e-4017-ae33-859dccc88dc2"},"vehicle_type_id":"4","last_reported":1750076517,"current_range_meters":14400,"station_id":"ce4bgpp2rcd13ifvqc3g","pricing_plan_id":"cebpf4jnsgd1na2vs0mg"},{"bike_id":"b819634d-1753-4796-b960-acf32e4e00c6","system_id":"levelo_inurba_marseille","lat":43.31346,"lon":5.36724,"is_reserved":false,"is_disabled":false,"rental_uris":{"android":"levelo://app?vid=b819634d-1753-4796-b960-acf32e4e00c6","ios":"levelo://app?vid=b819634d-1753-4796-b960-acf32e4e00c6"},"vehicle_type_id":"4","last_reported":1750076517,"current_range_meters":14400,"station_id":"ce4bgr92rcd13ifvqc6g","pricing_plan_id":"cebpf4jnsgd1na2vs0mg"},{"bike_id":"22e353fa-1b93-4c91-b3b3-4024e8cf1ddc","system_id":"levelo_inurba_marseille","lat":43.24665,"lon":5.38164,"is_reserved":false,"is_disabled":false,"rental_uris":{"android":"levelo://app?vid=22e353fa-1b93-4c91-b3b3-4024e8cf1ddc","ios":"levelo://app?vid=22e353fa-1b93-4c91-b3b3-4024e8cf1ddc"},"vehicle_type_id":"4","last_reported":1750076517,"current_range_meters":14400,"station_id":"ce4bhih2rcd13ifvqfr0","pricing_plan_id":"cebpf4jnsgd1na2vs0mg"},{"bike_id":"d2868572-6fee-4690-8a81-283adbeec80c","system_id":"levelo_inurba_marseille","lat":43.21154,"lon":5.35142,"is_reserved":false,"is_disabled":false,"rental_uris":{"android":"levelo://app?vid=d2868572-6fee-4690-8a81-283adbeec80c","ios":"levelo://app?vid=d2868572-6fee-4690-8a81-283adbeec80c"},"vehicle_type_id":"4","last_reported":1750076517,"current_range_meters":14800,"station_id":"","pricing_plan_id":"cebpf4jnsgd1na2vs0mg"},{"bike_id":"dae5480a-f8b2-48ab-a8de-b9bc22408a08","system_id":"levelo_inurba_marseille","lat":43.33777,"lon":5.37415,"is_reserved":false,"is_disabled":false,"rental_uris":{"android":"levelo://app?vid=dae5480a-f8b2-48ab-a8de-b9bc22408a08","ios":"levelo://app?vid=dae5480a-f8b2-48ab-a8de-b9bc22408a08"},"vehicle_type_id":"4","last_reported":1750076517,"current_range_meters":14800,"station_id":"","pricing_plan_id":"cebpf4jnsgd1na2vs0mg"},{"bike_id":"dac3a907-fe67-4c39-a94f-e949200eb584","system_id":"levelo_inurba_marseille","lat":43.27619,"lon":5.36133,"is_reserved":false,"is_disabled":false,"rental_uris":{"android":"levelo://app?vid=dac3a907-fe67-4c39-a94f-e949200eb584","ios":"levelo://app?vid=dac3a907-fe67-4c39-a94f-e949200eb584"},"vehicle_type_id":"4","last_reported":1750076517,"current_range_meters":14800,"station_id":"ce4bgj92rcd13ifvqbe0","pricing_plan_id":"cebpf4jnsgd1na2vs0mg"},{"bike_id":"040802b2-3296-4d5b-b1fe-9470b9b150cc","system_id":"levelo_inurba_marseille","lat":43.30311,"lon":5.36908,"is_reserved":false,"is_disabled":false,"rental_uris":{"android":"levelo://app?vid=040802b2-3296-4d5b-b1fe-9470b9b150cc","ios":"levelo://app?vid=040802b2-3296-4d5b-b1fe-9470b9b150cc"},"vehicle_type_id":"4","last_reported":1750076517,"current_range_meters":14800,"station_id":"ce4bgqh2rcd13ifvqc5g","pricing_plan_id":"cebpf4jnsgd1na2vs0mg"},{"bike_id":"415c06db-0d58-4f16-b136-5974859e0773","system_id":"levelo_inurba_marseille","lat":43.30551,"lon":5.36694,"is_reserved":false,"is_disabled":false,"rental_uris":{"android":"levelo://app?vid=415c06db-0d58-4f16-b136-5974859e0773","ios":"levelo://app?vid=415c06db-0d58-4f16-b136-5974859e0773"},"vehicle_type_id":"4","last_reported":1750076517,"current_range_meters":14800,"station_id":"ce4bgrp2rcd13ifvqc9g","pricing_plan_id":"cebpf4jnsgd1na2vs0mg"},{"bike_id":"74b40740-7b07-4c32-bbd0-61ea7ca93554","system_id":"levelo_inurba_marseille","lat":43.30951,"lon":5.39041,"is_reserved":false,"is_disabled":false,"rental_uris":{"android":"levelo://app?vid=74b40740-7b07-4c32-bbd0-61ea7ca93554","ios":"levelo://app?vid=74b40740-7b07-4c32-bbd0-61ea7ca93554"},"vehicle_type_id":"4","last_reported":1750076517,"current_range_meters":14800,"station_id":"ce4bgup2rcd13ifvqco0","pricing_plan_id":"cebpf4jnsgd1na2vs0mg"},{"bike_id":"2d50fdb5-c386-419c-aa8b-7ffa89447523","system_id":"levelo_inurba_marseille","lat":43.28366,"lon":5.38637,"is_reserved":false,"is_disabled":false,"rental_uris":{"android":"levelo://app?vid=2d50fdb5-c386-419c-aa8b-7ffa89447523","ios":"levelo://app?vid=2d50fdb5-c386-419c-aa8b-7ffa89447523"},"vehicle_type_id":"4","last_reported":1750076517,"current_range_meters":14800,"station_id":"ce4bh492rcd13ifvqdvg","pricing_plan_id":"cebpf4jnsgd1na2vs0mg"},{"bike_id":"fa6b54d5-ee25-4a02-b239-a56d5f79033f","system_id":"levelo_inurba_marseille","lat":43.26554,"lon":5.37284,"is_reserved":false,"is_disabled":false,"rental_uris":{"android":"levelo://app?vid=fa6b54d5-ee25-4a02-b239-a56d5f79033f","ios":"levelo://app?vid=fa6b54d5-ee25-4a02-b239-a56d5f79033f"},"vehicle_type_id":"4","last_reported":1750076517,"current_range_meters":14800,"station_id":"ce4bhg12rcd13ifvqf70","pricing_plan_id":"cebpf4jnsgd1na2vs0mg"},{"bike_id":"ff3e1354-47e0-4719-87c5-08dbc5c733f5","system_id":"levelo_inurba_marseille","lat":43.23959,"lon":5.36629,"is_reserved":false,"is_disabled":false,"rental_uris":{"android":"levelo://app?vid=ff3e1354-47e0-4719-87c5-08dbc5c733f5","ios":"levelo://app?vid=ff3e1354-47e0-4719-87c5-08dbc5c733f5"},"vehicle_type_id":"4","last_reported":1750076517,"current_range_meters":14800,"station_id":"ce4bhi12rcd13ifvqfp0","pricing_plan_id":"cebpf4jnsgd1na2vs0mg"},{"bike_id":"c1ba07ad-731d-49d8-9fd6-a826431f3438","system_id":"levelo_inurba_marseille","lat":43.298932,"lon":5.436661,"is_reserved":false,"is_disabled":false,"rental_uris":{"android":"levelo://app?vid=c1ba07ad-731d-49d8-9fd6-a826431f3438","ios":"levelo://app?vid=c1ba07ad-731d-49d8-9fd6-a826431f3438"},"vehicle_type_id":"4","last_reported":1750076517,"current_range_meters":14800,"station_id":"ce4bhpp2rcd13ifvqhfg","pricing_plan_id":"cebpf4jnsgd1na2vs0mg"},{"bike_id":"8b6b2bc5-278d-48a6-9e2d-bcf6f36c9be6","system_id":"levelo_inurba_marseille","lat":43.24172,"lon":5.36394,"is_reserved":false,"is_disabled":false,"rental_uris":{"android":"levelo://app?vid=8b6b2bc5-278d-48a6-9e2d-bcf6f36c9be6","ios":"levelo://app?vid=8b6b2bc5-278d-48a6-9e2d-bcf6f36c9be6"},"vehicle_type_id":"4","last_reported":1750076517,"current_range_meters":14800,"station_id":"cpo36qri1sfpv3e86is0","pricing_plan_id":"cebpf4jnsgd1na2vs0mg"},{"bike_id":"757906b4-eb86-4ed8-a0a5-7f582bcde75a","system_id":"levelo_inurba_marseille","lat":43.265332,"lon":5.395246,"is_reserved":false,"is_disabled":false,"rental_uris":{"android":"levelo://app?vid=757906b4-eb86-4ed8-a0a5-7f582bcde75a","ios":"levelo://app?vid=757906b4-eb86-4ed8-a0a5-7f582bcde75a"},"vehicle_type_id":"4","last_reported":1750076517,"current_range_meters":15200,"station_id":"","pricing_plan_id":"cebpf4jnsgd1na2vs0mg"},{"bike_id":"facffe97-7224-4e25-9501-b641cfba5566","system_id":"levelo_inurba_marseille","lat":43.32472,"lon":5.36545,"is_reserved":false,"is_disabled":false,"rental_uris":{"android":"levelo://app?vid=facffe97-7224-4e25-9501-b641cfba5566","ios":"levelo://app?vid=facffe97-7224-4e25-9501-b641cfba5566"},"vehicle_type_id":"4","last_reported":1750076517,"current_range_meters":15200,"station_id":"ce4bhs12rcd13ifvqhvg","pricing_plan_id":"cebpf4jnsgd1na2vs0mg"},{"bike_id":"a5c4d0a1-c093-4c7e-9518-97b2d1c15ebe","system_id":"levelo_inurba_marseille","lat":43.28666,"lon":5.38673,"is_reserved":false,"is_disabled":false,"rental_uris":{"android":"levelo://app?vid=a5c4d0a1-c093-4c7e-9518-97b2d1c15ebe","ios":"levelo://app?vid=a5c4d0a1-c093-4c7e-9518-97b2d1c15ebe"},"vehicle_type_id":"4","last_reported":1750076517,"current_range_meters":16000,"station_id":"ce4bh492rcd13ifvqdug","pricing_plan_id":"cebpf4jnsgd1na2vs0mg"},{"bike_id":"73128f34-e2e7-4644-a22d-3b0ed628b0b2","system_id":"levelo_inurba_marseille","lat":43.290138,"lon":5.355932,"is_reserved":false,"is_disabled":false,"rental_uris":{"android":"levelo://app?vid=73128f34-e2e7-4644-a22d-3b0ed628b0b2","ios":"levelo://app?vid=73128f34-e2e7-4644-a22d-3b0ed628b0b2"},"vehicle_type_id":"4","last_reported":1750076517,"current_range_meters":16000,"station_id":"ce4bhb92rcd13ifvqen0","pricing_plan_id":"cebpf4jnsgd1na2vs0mg"},{"bike_id":"89e07e41-784e-43f5-b9a7-88da600e3ab5","system_id":"levelo_inurba_marseille","lat":43.23156,"lon":5.43718,"is_reserved":false,"is_disabled":false,"rental_uris":{"android":"levelo://app?vid=89e07e41-784e-43f5-b9a7-88da600e3ab5","ios":"levelo://app?vid=89e07e41-784e-43f5-b9a7-88da600e3ab5"},"vehicle_type_id":"4","last_reported":1750076517,"current_range_meters":16000,"station_id":"ce4bhmp2rcd13ifvqgog","pricing_plan_id":"cebpf4jnsgd1na2vs0mg"},{"bike_id":"11475c95-09c9-4080-bcc1-e690271a4403","system_id":"levelo_inurba_marseille","lat":43.23152,"lon":5.43717,"is_reserved":false,"is_disabled":false,"rental_uris":{"android":"levelo://app?vid=11475c95-09c9-4080-bcc1-e690271a4403","ios":"levelo://app?vid=11475c95-09c9-4080-bcc1-e690271a4403"},"vehicle_type_id":"4","last_reported":1750076517,"current_range_meters":16000,"station_id":"ce4bhmp2rcd13ifvqgog","pricing_plan_id":"cebpf4jnsgd1na2vs0mg"},{"bike_id":"6b75a80e-12fa-4bd0-b8db-b509b9abce19","system_id":"levelo_inurba_marseille","lat":43.21188,"lon":5.350578,"is_reserved":false,"is_disabled":false,"rental_uris":{"android":"levelo://app?vid=6b75a80e-12fa-4bd0-b8db-b509b9abce19","ios":"levelo://app?vid=6b75a80e-12fa-4bd0-b8db-b509b9abce19"},"vehicle_type_id":"4","last_reported":1750076517,"current_range_meters":16000,"station_id":"st_cvj6sg6p6f1abm77japg","pricing_plan_id":"cebpf4jnsgd1na2vs0mg"},{"bike_id":"36bda024-5fd1-4683-8e37-86665d58c0f6","system_id":"levelo_inurba_marseille","lat":43.282685,"lon":5.350604,"is_reserved":false,"is_disabled":false,"rental_uris":{"android":"levelo://app?vid=36bda024-5fd1-4683-8e37-86665d58c0f6","ios":"levelo://app?vid=36bda024-5fd1-4683-8e37-86665d58c0f6"},"vehicle_type_id":"4","last_reported":1750076517,"current_range_meters":16400,"station_id":"","pricing_plan_id":"cebpf4jnsgd1na2vs0mg"},{"bike_id":"d05c512f-ecf8-4d54-8646-fa719dc17ab7","system_id":"levelo_inurba_marseille","lat":43.27581,"lon":5.41775,"is_reserved":false,"is_disabled":false,"rental_uris":{"android":"levelo://app?vid=d05c512f-ecf8-4d54-8646-fa719dc17ab7","ios":"levelo://app?vid=d05c512f-ecf8-4d54-8646-fa719dc17ab7"},"vehicle_type_id":"4","last_reported":1750076517,"current_range_meters":16400,"station_id":"","pricing_plan_id":"cebpf4jnsgd1na2vs0mg"},{"bike_id":"4368e1f5-88e2-4fed-a8cf-a2be3398f038","system_id":"levelo_inurba_marseille","lat":43.31328,"lon":5.39691,"is_reserved":false,"is_disabled":false,"rental_uris":{"android":"levelo://app?vid=4368e1f5-88e2-4fed-a8cf-a2be3398f038","ios":"levelo://app?vid=4368e1f5-88e2-4fed-a8cf-a2be3398f038"},"vehicle_type_id":"4","last_reported":1750076517,"current_range_meters":16400,"station_id":"ce4bgvp2rcd13ifvqcu0","pricing_plan_id":"cebpf4jnsgd1na2vs0mg"},{"bike_id":"2e56ced2-96dc-4317-960e-f4594e9b4edd","system_id":"levelo_inurba_marseille","lat":43.30551,"lon":5.36712,"is_reserved":false,"is_disabled":false,"rental_uris":{"android":"levelo://app?vid=2e56ced2-96dc-4317-960e-f4594e9b4edd","ios":"levelo://app?vid=2e56ced2-96dc-4317-960e-f4594e9b4edd"},"vehicle_type_id":"4","last_reported":1750076517,"current_range_meters":16800,"station_id":"ce4bgrp2rcd13ifvqc9g","pricing_plan_id":"cebpf4jnsgd1na2vs0mg"},{"bike_id":"1d4151bb-c97d-4858-b3a7-618db8cf4e66","system_id":"levelo_inurba_marseille","lat":43.30544,"lon":5.36546,"is_reserved":false,"is_disabled":false,"rental_uris":{"android":"levelo://app?vid=1d4151bb-c97d-4858-b3a7-618db8cf4e66","ios":"levelo://app?vid=1d4151bb-c97d-4858-b3a7-618db8cf4e66"},"vehicle_type_id":"4","last_reported":1750076517,"current_range_meters":16800,"station_id":"ce4bgs12rcd13ifvqcag","pricing_plan_id":"cebpf4jnsgd1na2vs0mg"},{"bike_id":"816b6d42-eac3-4395-8e00-0660c58c9942","system_id":"levelo_inurba_marseille","lat":43.30118,"lon":5.37432,"is_reserved":false,"is_disabled":false,"rental_uris":{"android":"levelo://app?vid=816b6d42-eac3-4395-8e00-0660c58c9942","ios":"levelo://app?vid=816b6d42-eac3-4395-8e00-0660c58c9942"},"vehicle_type_id":"4","last_reported":1750076517,"current_range_meters":16800,"station_id":"ce4bgs92rcd13ifvqcc0","pricing_plan_id":"cebpf4jnsgd1na2vs0mg"},{"bike_id":"52862c28-6bcc-43b3-8eb3-2b2e6b958b3e","system_id":"levelo_inurba_marseille","lat":43.301173,"lon":5.392596,"is_reserved":false,"is_disabled":false,"rental_uris":{"android":"levelo://app?vid=52862c28-6bcc-43b3-8eb3-2b2e6b958b3e","ios":"levelo://app?vid=52862c28-6bcc-43b3-8eb3-2b2e6b958b3e"},"vehicle_type_id":"4","last_reported":1750076517,"current_range_meters":16800,"station_id":"ce4bh192rcd13ifvqdb0","pricing_plan_id":"cebpf4jnsgd1na2vs0mg"},{"bike_id":"0e56358c-5ebd-48c2-bd23-a9c5f9d32ff6","system_id":"levelo_inurba_marseille","lat":43.28112,"lon":5.3784,"is_reserved":false,"is_disabled":false,"rental_uris":{"android":"levelo://app?vid=0e56358c-5ebd-48c2-bd23-a9c5f9d32ff6","ios":"levelo://app?vid=0e56358c-5ebd-48c2-bd23-a9c5f9d32ff6"},"vehicle_type_id":"4","last_reported":1750076517,"current_range_meters":16800,"station_id":"ce4bha12rcd13ifvqee0","pricing_plan_id":"cebpf4jnsgd1na2vs0mg"},{"bike_id":"fb9292ba-6e31-4462-9894-8885b1d4bdf7","system_id":"levelo_inurba_marseille","lat":43.2582,"lon":5.39424,"is_reserved":false,"is_disabled":false,"rental_uris":{"android":"levelo://app?vid=fb9292ba-6e31-4462-9894-8885b1d4bdf7","ios":"levelo://app?vid=fb9292ba-6e31-4462-9894-8885b1d4bdf7"},"vehicle_type_id":"4","last_reported":1750076517,"current_range_meters":16800,"station_id":"ce4bhip2rcd13ifvqft0","pricing_plan_id":"cebpf4jnsgd1na2vs0mg"},{"bike_id":"fe6dd6bb-3ef6-48f6-8d85-cb9d1e922244","system_id":"levelo_inurba_marseille","lat":43.24068,"lon":5.37757,"is_reserved":false,"is_disabled":false,"rental_uris":{"android":"levelo://app?vid=fe6dd6bb-3ef6-48f6-8d85-cb9d1e922244","ios":"levelo://app?vid=fe6dd6bb-3ef6-48f6-8d85-cb9d1e922244"},"vehicle_type_id":"4","last_reported":1750076517,"current_range_meters":16800,"station_id":"ce4bhnp2rcd13ifvqgvg","pricing_plan_id":"cebpf4jnsgd1na2vs0mg"},{"bike_id":"1e373418-986e-4d3c-9ff7-c37dd7c7a214","system_id":"levelo_inurba_marseille","lat":43.29904,"lon":5.43663,"is_reserved":false,"is_disabled":false,"rental_uris":{"android":"levelo://app?vid=1e373418-986e-4d3c-9ff7-c37dd7c7a214","ios":"levelo://app?vid=1e373418-986e-4d3c-9ff7-c37dd7c7a214"},"vehicle_type_id":"4","last_reported":1750076517,"current_range_meters":16800,"station_id":"ce4bhpp2rcd13ifvqhfg","pricing_plan_id":"cebpf4jnsgd1na2vs0mg"},{"bike_id":"3cdb0af6-9e28-4aed-bd32-95d11dc7c475","system_id":"levelo_inurba_marseille","lat":43.29536,"lon":5.38533,"is_reserved":false,"is_disabled":false,"rental_uris":{"android":"levelo://app?vid=3cdb0af6-9e28-4aed-bd32-95d11dc7c475","ios":"levelo://app?vid=3cdb0af6-9e28-4aed-bd32-95d11dc7c475"},"vehicle_type_id":"4","last_reported":1750076517,"current_range_meters":17200,"station_id":"ce4bgih2rcd13ifvqba0","pricing_plan_id":"cebpf4jnsgd1na2vs0mg"},{"bike_id":"3034346c-a464-4e4e-b825-1a1e66e21828","system_id":"levelo_inurba_marseille","lat":43.30147,"lon":5.37421,"is_reserved":false,"is_disabled":false,"rental_uris":{"android":"levelo://app?vid=3034346c-a464-4e4e-b825-1a1e66e21828","ios":"levelo://app?vid=3034346c-a464-4e4e-b825-1a1e66e21828"},"vehicle_type_id":"4","last_reported":1750076517,"current_range_meters":17200,"station_id":"ce4bgs92rcd13ifvqcc0","pricing_plan_id":"cebpf4jnsgd1na2vs0mg"},{"bike_id":"de206e8a-ed74-48df-9132-6c332809bc84","system_id":"levelo_inurba_marseille","lat":43.30892,"lon":5.37222,"is_reserved":false,"is_disabled":false,"rental_uris":{"android":"levelo://app?vid=de206e8a-ed74-48df-9132-6c332809bc84","ios":"levelo://app?vid=de206e8a-ed74-48df-9132-6c332809bc84"},"vehicle_type_id":"4","last_reported":1750076517,"current_range_meters":17200,"station_id":"ce4bguh2rcd13ifvqckg","pricing_plan_id":"cebpf4jnsgd1na2vs0mg"},{"bike_id":"b1e93f6c-9e4b-45e9-92bb-557744619914","system_id":"levelo_inurba_marseille","lat":43.28411,"lon":5.3499,"is_reserved":false,"is_disabled":false,"rental_uris":{"android":"levelo://app?vid=b1e93f6c-9e4b-45e9-92bb-557744619914","ios":"levelo://app?vid=b1e93f6c-9e4b-45e9-92bb-557744619914"},"vehicle_type_id":"4","last_reported":1750076517,"current_range_meters":17200,"station_id":"ce4bhbh2rcd13ifvqepg","pricing_plan_id":"cebpf4jnsgd1na2vs0mg"},{"bike_id":"989a67bb-bb39-4071-b1e0-77024d055a87","system_id":"levelo_inurba_marseille","lat":43.24798,"lon":5.37448,"is_reserved":false,"is_disabled":false,"rental_uris":{"android":"levelo://app?vid=989a67bb-bb39-4071-b1e0-77024d055a87","ios":"levelo://app?vid=989a67bb-bb39-4071-b1e0-77024d055a87"},"vehicle_type_id":"4","last_reported":1750076517,"current_range_meters":17200,"station_id":"ce4bhgh2rcd13ifvqfb0","pricing_plan_id":"cebpf4jnsgd1na2vs0mg"},{"bike_id":"cabedf60-f44d-40d3-ac8e-f62061a0d8a3","system_id":"levelo_inurba_marseille","lat":43.24382,"lon":5.37063,"is_reserved":false,"is_disabled":false,"rental_uris":{"android":"levelo://app?vid=cabedf60-f44d-40d3-ac8e-f62061a0d8a3","ios":"levelo://app?vid=cabedf60-f44d-40d3-ac8e-f62061a0d8a3"},"vehicle_type_id":"4","last_reported":1750076517,"current_range_meters":17200,"station_id":"ce4bhhh2rcd13ifvqfk0","pricing_plan_id":"cebpf4jnsgd1na2vs0mg"},{"bike_id":"f235c4be-0af3-4eb2-9ba6-463b0ae42820","system_id":"levelo_inurba_marseille","lat":43.24678,"lon":5.38148,"is_reserved":false,"is_disabled":false,"rental_uris":{"android":"levelo://app?vid=f235c4be-0af3-4eb2-9ba6-463b0ae42820","ios":"levelo://app?vid=f235c4be-0af3-4eb2-9ba6-463b0ae42820"},"vehicle_type_id":"4","last_reported":1750076517,"current_range_meters":17200,"station_id":"ce4bhih2rcd13ifvqfr0","pricing_plan_id":"cebpf4jnsgd1na2vs0mg"},{"bike_id":"6d7d84f3-3abd-4f5b-997a-adc6e1753605","system_id":"levelo_inurba_marseille","lat":43.25823,"lon":5.39418,"is_reserved":false,"is_disabled":false,"rental_uris":{"android":"levelo://app?vid=6d7d84f3-3abd-4f5b-997a-adc6e1753605","ios":"levelo://app?vid=6d7d84f3-3abd-4f5b-997a-adc6e1753605"},"vehicle_type_id":"4","last_reported":1750076517,"current_range_meters":17200,"station_id":"ce4bhip2rcd13ifvqft0","pricing_plan_id":"cebpf4jnsgd1na2vs0mg"},{"bike_id":"3ff72a70-ddeb-4eee-a085-0a08ddc9d3db","system_id":"levelo_inurba_marseille","lat":43.24177,"lon":5.3973,"is_reserved":false,"is_disabled":false,"rental_uris":{"android":"levelo://app?vid=3ff72a70-ddeb-4eee-a085-0a08ddc9d3db","ios":"levelo://app?vid=3ff72a70-ddeb-4eee-a085-0a08ddc9d3db"},"vehicle_type_id":"4","last_reported":1750076517,"current_range_meters":17200,"station_id":"ce4bhn12rcd13ifvqgpg","pricing_plan_id":"cebpf4jnsgd1na2vs0mg"},{"bike_id":"3416a707-2d70-496d-9def-98dfa1a8af2c","system_id":"levelo_inurba_marseille","lat":43.23061,"lon":5.35491,"is_reserved":false,"is_disabled":false,"rental_uris":{"android":"levelo://app?vid=3416a707-2d70-496d-9def-98dfa1a8af2c","ios":"levelo://app?vid=3416a707-2d70-496d-9def-98dfa1a8af2c"},"vehicle_type_id":"4","last_reported":1750076517,"current_range_meters":17200,"station_id":"cpo3342slgdg3j2ifvpg","pricing_plan_id":"cebpf4jnsgd1na2vs0mg"},{"bike_id":"0e27dafc-21df-4fb1-bd36-2450a7866702","system_id":"levelo_inurba_marseille","lat":43.27166,"lon":5.39999,"is_reserved":false,"is_disabled":false,"rental_uris":{"android":"levelo://app?vid=0e27dafc-21df-4fb1-bd36-2450a7866702","ios":"levelo://app?vid=0e27dafc-21df-4fb1-bd36-2450a7866702"},"vehicle_type_id":"4","last_reported":1750076517,"current_range_meters":17600,"station_id":"","pricing_plan_id":"cebpf4jnsgd1na2vs0mg"},{"bike_id":"44a5f9f6-71bd-45eb-bf21-28028d2c17b1","system_id":"levelo_inurba_marseille","lat":43.29605,"lon":5.38104,"is_reserved":false,"is_disabled":false,"rental_uris":{"android":"levelo://app?vid=44a5f9f6-71bd-45eb-bf21-28028d2c17b1","ios":"levelo://app?vid=44a5f9f6-71bd-45eb-bf21-28028d2c17b1"},"vehicle_type_id":"4","last_reported":1750076517,"current_range_meters":17600,"station_id":"ce4bgl12rcd13ifvqbo0","pricing_plan_id":"cebpf4jnsgd1na2vs0mg"},{"bike_id":"72213599-66c5-4752-b2f2-7eec55c7677a","system_id":"levelo_inurba_marseille","lat":43.29161,"lon":5.37165,"is_reserved":false,"is_disabled":false,"rental_uris":{"android":"levelo://app?vid=72213599-66c5-4752-b2f2-7eec55c7677a","ios":"levelo://app?vid=72213599-66c5-4752-b2f2-7eec55c7677a"},"vehicle_type_id":"4","last_reported":1750076517,"current_range_meters":17600,"station_id":"ce4bha92rcd13ifvqeh0","pricing_plan_id":"cebpf4jnsgd1na2vs0mg"},{"bike_id":"f8d1e557-c806-403e-b093-89a899d624dd","system_id":"levelo_inurba_marseille","lat":43.28621,"lon":5.35108,"is_reserved":false,"is_disabled":false,"rental_uris":{"android":"levelo://app?vid=f8d1e557-c806-403e-b093-89a899d624dd","ios":"levelo://app?vid=f8d1e557-c806-403e-b093-89a899d624dd"},"vehicle_type_id":"4","last_reported":1750076517,"current_range_meters":17600,"station_id":"ce4bhch2rcd13ifvqeug","pricing_plan_id":"cebpf4jnsgd1na2vs0mg"},{"bike_id":"ecd29108-e38c-49a5-894d-9f8a5b4c68e5","system_id":"levelo_inurba_marseille","lat":43.25733,"lon":5.41109,"is_reserved":false,"is_disabled":false,"rental_uris":{"android":"levelo://app?vid=ecd29108-e38c-49a5-894d-9f8a5b4c68e5","ios":"levelo://app?vid=ecd29108-e38c-49a5-894d-9f8a5b4c68e5"},"vehicle_type_id":"4","last_reported":1750076517,"current_range_meters":17600,"station_id":"ce4bhkp2rcd13ifvqgd0","pricing_plan_id":"cebpf4jnsgd1na2vs0mg"},{"bike_id":"a5da72a3-cb5f-453a-9b24-044e9cc0ba53","system_id":"levelo_inurba_marseille","lat":43.28734,"lon":5.36071,"is_reserved":false,"is_disabled":false,"rental_uris":{"android":"levelo://app?vid=a5da72a3-cb5f-453a-9b24-044e9cc0ba53","ios":"levelo://app?vid=a5da72a3-cb5f-453a-9b24-044e9cc0ba53"},"vehicle_type_id":"4","last_reported":1750076517,"current_range_meters":17600,"station_id":"cki0cbj6b192h4jlfktg","pricing_plan_id":"cebpf4jnsgd1na2vs0mg"},{"bike_id":"8d8216b7-70be-4e0e-b02f-ed276d5ecd5f","system_id":"levelo_inurba_marseille","lat":43.23061,"lon":5.35492,"is_reserved":false,"is_disabled":false,"rental_uris":{"android":"levelo://app?vid=8d8216b7-70be-4e0e-b02f-ed276d5ecd5f","ios":"levelo://app?vid=8d8216b7-70be-4e0e-b02f-ed276d5ecd5f"},"vehicle_type_id":"4","last_reported":1750076517,"current_range_meters":17600,"station_id":"cpo3342slgdg3j2ifvpg","pricing_plan_id":"cebpf4jnsgd1na2vs0mg"},{"bike_id":"83cfee7d-980d-496a-98c8-745c7e44c68d","system_id":"levelo_inurba_marseille","lat":43.32899,"lon":5.39089,"is_reserved":false,"is_disabled":false,"rental_uris":{"android":"levelo://app?vid=83cfee7d-980d-496a-98c8-745c7e44c68d","ios":"levelo://app?vid=83cfee7d-980d-496a-98c8-745c7e44c68d"},"vehicle_type_id":"4","last_reported":1750076517,"current_range_meters":18000,"station_id":"","pricing_plan_id":"cebpf4jnsgd1na2vs0mg"},{"bike_id":"07e50b3f-3c77-40cc-8937-6b5a9a714e99","system_id":"levelo_inurba_marseille","lat":43.29862,"lon":5.36311,"is_reserved":false,"is_disabled":false,"rental_uris":{"android":"levelo://app?vid=07e50b3f-3c77-40cc-8937-6b5a9a714e99","ios":"levelo://app?vid=07e50b3f-3c77-40cc-8937-6b5a9a714e99"},"vehicle_type_id":"4","last_reported":1750076517,"current_range_meters":18000,"station_id":"ce4bgpp2rcd13ifvqc3g","pricing_plan_id":"cebpf4jnsgd1na2vs0mg"},{"bike_id":"df2202ca-5c76-480f-9ba2-bd1ae66e971c","system_id":"levelo_inurba_marseille","lat":43.30548,"lon":5.36538,"is_reserved":false,"is_disabled":false,"rental_uris":{"android":"levelo://app?vid=df2202ca-5c76-480f-9ba2-bd1ae66e971c","ios":"levelo://app?vid=df2202ca-5c76-480f-9ba2-bd1ae66e971c"},"vehicle_type_id":"4","last_reported":1750076517,"current_range_meters":18000,"station_id":"ce4bgs12rcd13ifvqcag","pricing_plan_id":"cebpf4jnsgd1na2vs0mg"},{"bike_id":"404b450f-6352-4674-9a2a-f51c6591d8da","system_id":"levelo_inurba_marseille","lat":43.299,"lon":5.43676,"is_reserved":false,"is_disabled":false,"rental_uris":{"android":"levelo://app?vid=404b450f-6352-4674-9a2a-f51c6591d8da","ios":"levelo://app?vid=404b450f-6352-4674-9a2a-f51c6591d8da"},"vehicle_type_id":"4","last_reported":1750076517,"current_range_meters":18000,"station_id":"ce4bhpp2rcd13ifvqhfg","pricing_plan_id":"cebpf4jnsgd1na2vs0mg"},{"bike_id":"0af7f3a2-e0f5-46f4-a4dd-2ab41fe2d0ff","system_id":"levelo_inurba_marseille","lat":43.2319,"lon":5.35564,"is_reserved":false,"is_disabled":false,"rental_uris":{"android":"levelo://app?vid=0af7f3a2-e0f5-46f4-a4dd-2ab41fe2d0ff","ios":"levelo://app?vid=0af7f3a2-e0f5-46f4-a4dd-2ab41fe2d0ff"},"vehicle_type_id":"4","last_reported":1750076517,"current_range_meters":18000,"station_id":"ce4bhu92rcd13ifvqi70","pricing_plan_id":"cebpf4jnsgd1na2vs0mg"},{"bike_id":"b4b57074-e1b0-4942-ba71-67ab08b6c852","system_id":"levelo_inurba_marseille","lat":43.31497,"lon":5.3731,"is_reserved":false,"is_disabled":false,"rental_uris":{"android":"levelo://app?vid=b4b57074-e1b0-4942-ba71-67ab08b6c852","ios":"levelo://app?vid=b4b57074-e1b0-4942-ba71-67ab08b6c852"},"vehicle_type_id":"4","last_reported":1750076517,"current_range_meters":18800,"station_id":"ce4bgt12rcd13ifvqcd0","pricing_plan_id":"cebpf4jnsgd1na2vs0mg"},{"bike_id":"84303f70-11e7-444e-9851-5fe49407a48b","system_id":"levelo_inurba_marseille","lat":43.30886,"lon":5.39644,"is_reserved":false,"is_disabled":false,"rental_uris":{"android":"levelo://app?vid=84303f70-11e7-444e-9851-5fe49407a48b","ios":"levelo://app?vid=84303f70-11e7-444e-9851-5fe49407a48b"},"vehicle_type_id":"4","last_reported":1750076517,"current_range_meters":18800,"station_id":"ce4bh012rcd13ifvqcv0","pricing_plan_id":"cebpf4jnsgd1na2vs0mg"},{"bike_id":"df2cce6c-ce54-4554-a65f-895860a975fe","system_id":"levelo_inurba_marseille","lat":43.29019,"lon":5.38128,"is_reserved":false,"is_disabled":false,"rental_uris":{"android":"levelo://app?vid=df2cce6c-ce54-4554-a65f-895860a975fe","ios":"levelo://app?vid=df2cce6c-ce54-4554-a65f-895860a975fe"},"vehicle_type_id":"4","last_reported":1750076517,"current_range_meters":18800,"station_id":"ce4bh4p2rcd13ifvqe1g","pricing_plan_id":"cebpf4jnsgd1na2vs0mg"},{"bike_id":"00c372b0-a194-45b5-9315-eb940d88dc1a","system_id":"levelo_inurba_marseille","lat":43.25502,"lon":5.37649,"is_reserved":false,"is_disabled":false,"rental_uris":{"android":"levelo://app?vid=00c372b0-a194-45b5-9315-eb940d88dc1a","ios":"levelo://app?vid=00c372b0-a194-45b5-9315-eb940d88dc1a"},"vehicle_type_id":"4","last_reported":1750076517,"current_range_meters":18800,"station_id":"ce4bhh12rcd13ifvqff0","pricing_plan_id":"cebpf4jnsgd1na2vs0mg"},{"bike_id":"2c680722-6dbc-4fd7-beff-3f308d827e50","system_id":"levelo_inurba_marseille","lat":43.24187,"lon":5.39769,"is_reserved":false,"is_disabled":false,"rental_uris":{"android":"levelo://app?vid=2c680722-6dbc-4fd7-beff-3f308d827e50","ios":"levelo://app?vid=2c680722-6dbc-4fd7-beff-3f308d827e50"},"vehicle_type_id":"4","last_reported":1750076517,"current_range_meters":18800,"station_id":"ce4bhn12rcd13ifvqgpg","pricing_plan_id":"cebpf4jnsgd1na2vs0mg"},{"bike_id":"6a35743d-0253-46b2-8092-47c84a5bfbfc","system_id":"levelo_inurba_marseille","lat":43.24183,"lon":5.39735,"is_reserved":false,"is_disabled":false,"rental_uris":{"android":"levelo://app?vid=6a35743d-0253-46b2-8092-47c84a5bfbfc","ios":"levelo://app?vid=6a35743d-0253-46b2-8092-47c84a5bfbfc"},"vehicle_type_id":"4","last_reported":1750076517,"current_range_meters":18800,"station_id":"ce4bhn12rcd13ifvqgpg","pricing_plan_id":"cebpf4jnsgd1na2vs0mg"},{"bike_id":"f2275992-b355-46a9-866a-e424b55d9a98","system_id":"levelo_inurba_marseille","lat":43.23052,"lon":5.35491,"is_reserved":false,"is_disabled":false,"rental_uris":{"android":"levelo://app?vid=f2275992-b355-46a9-866a-e424b55d9a98","ios":"levelo://app?vid=f2275992-b355-46a9-866a-e424b55d9a98"},"vehicle_type_id":"4","last_reported":1750076517,"current_range_meters":18800,"station_id":"cpo3342slgdg3j2ifvpg","pricing_plan_id":"cebpf4jnsgd1na2vs0mg"},{"bike_id":"63d8f8de-6fb5-461e-8196-70d15c64a587","system_id":"levelo_inurba_marseille","lat":43.212118,"lon":5.350856,"is_reserved":false,"is_disabled":false,"rental_uris":{"android":"levelo://app?vid=63d8f8de-6fb5-461e-8196-70d15c64a587","ios":"levelo://app?vid=63d8f8de-6fb5-461e-8196-70d15c64a587"},"vehicle_type_id":"4","last_reported":1750076517,"current_range_meters":18800,"station_id":"st_cvj6sg6p6f1abm77japg","pricing_plan_id":"cebpf4jnsgd1na2vs0mg"},{"bike_id":"7ef8806e-06fe-4614-b380-d044aa8dc755","system_id":"levelo_inurba_marseille","lat":43.253189,"lon":5.393853,"is_reserved":false,"is_disabled":false,"rental_uris":{"android":"levelo://app?vid=7ef8806e-06fe-4614-b380-d044aa8dc755","ios":"levelo://app?vid=7ef8806e-06fe-4614-b380-d044aa8dc755"},"vehicle_type_id":"4","last_reported":1750076517,"current_range_meters":19200,"station_id":"","pricing_plan_id":"cebpf4jnsgd1na2vs0mg"},{"bike_id":"8fc7aeb7-d07f-47af-a7d5-584fa1535abf","system_id":"levelo_inurba_marseille","lat":43.29909,"lon":5.37474,"is_reserved":false,"is_disabled":false,"rental_uris":{"android":"levelo://app?vid=8fc7aeb7-d07f-47af-a7d5-584fa1535abf","ios":"levelo://app?vid=8fc7aeb7-d07f-47af-a7d5-584fa1535abf"},"vehicle_type_id":"4","last_reported":1750076517,"current_range_meters":19200,"station_id":"ce4bgjh2rcd13ifvqbg0","pricing_plan_id":"cebpf4jnsgd1na2vs0mg"},{"bike_id":"c1b255c6-d75c-4af1-91a5-ddf915918b53","system_id":"levelo_inurba_marseille","lat":43.309591,"lon":5.39038,"is_reserved":false,"is_disabled":false,"rental_uris":{"android":"levelo://app?vid=c1b255c6-d75c-4af1-91a5-ddf915918b53","ios":"levelo://app?vid=c1b255c6-d75c-4af1-91a5-ddf915918b53"},"vehicle_type_id":"4","last_reported":1750076517,"current_range_meters":19200,"station_id":"ce4bgup2rcd13ifvqco0","pricing_plan_id":"cebpf4jnsgd1na2vs0mg"},{"bike_id":"ceb7da22-f5ca-42c3-b40a-f7a4c92e8024","system_id":"levelo_inurba_marseille","lat":43.27377,"lon":5.36251,"is_reserved":false,"is_disabled":false,"rental_uris":{"android":"levelo://app?vid=ceb7da22-f5ca-42c3-b40a-f7a4c92e8024","ios":"levelo://app?vid=ceb7da22-f5ca-42c3-b40a-f7a4c92e8024"},"vehicle_type_id":"4","last_reported":1750076517,"current_range_meters":19200,"station_id":"ce4bhbh2rcd13ifvqeo0","pricing_plan_id":"cebpf4jnsgd1na2vs0mg"},{"bike_id":"f1501383-0c54-4bdc-a395-17cc7b3f99e3","system_id":"levelo_inurba_marseille","lat":43.27374,"lon":5.36261,"is_reserved":false,"is_disabled":false,"rental_uris":{"android":"levelo://app?vid=f1501383-0c54-4bdc-a395-17cc7b3f99e3","ios":"levelo://app?vid=f1501383-0c54-4bdc-a395-17cc7b3f99e3"},"vehicle_type_id":"4","last_reported":1750076517,"current_range_meters":19200,"station_id":"ce4bhbh2rcd13ifvqeo0","pricing_plan_id":"cebpf4jnsgd1na2vs0mg"},{"bike_id":"3dde3bca-46fc-4164-a167-3eaf1a11c0a3","system_id":"levelo_inurba_marseille","lat":43.28623,"lon":5.35103,"is_reserved":false,"is_disabled":false,"rental_uris":{"android":"levelo://app?vid=3dde3bca-46fc-4164-a167-3eaf1a11c0a3","ios":"levelo://app?vid=3dde3bca-46fc-4164-a167-3eaf1a11c0a3"},"vehicle_type_id":"4","last_reported":1750076517,"current_range_meters":19200,"station_id":"ce4bhch2rcd13ifvqeug","pricing_plan_id":"cebpf4jnsgd1na2vs0mg"},{"bike_id":"f5a5ab7e-19ca-4719-8e26-02229fb1fd2c","system_id":"levelo_inurba_marseille","lat":43.25702,"lon":5.41107,"is_reserved":false,"is_disabled":false,"rental_uris":{"android":"levelo://app?vid=f5a5ab7e-19ca-4719-8e26-02229fb1fd2c","ios":"levelo://app?vid=f5a5ab7e-19ca-4719-8e26-02229fb1fd2c"},"vehicle_type_id":"4","last_reported":1750076517,"current_range_meters":19200,"station_id":"ce4bhkp2rcd13ifvqgd0","pricing_plan_id":"cebpf4jnsgd1na2vs0mg"},{"bike_id":"5840a7ed-e503-45a2-9af1-95c3d8af94dc","system_id":"levelo_inurba_marseille","lat":43.23183,"lon":5.39981,"is_reserved":false,"is_disabled":false,"rental_uris":{"android":"levelo://app?vid=5840a7ed-e503-45a2-9af1-95c3d8af94dc","ios":"levelo://app?vid=5840a7ed-e503-45a2-9af1-95c3d8af94dc"},"vehicle_type_id":"4","last_reported":1750076517,"current_range_meters":19200,"station_id":"ce4bhn12rcd13ifvqgqg","pricing_plan_id":"cebpf4jnsgd1na2vs0mg"},{"bike_id":"2aa78b25-7a9c-4a83-ae64-b82d5f142295","system_id":"levelo_inurba_marseille","lat":43.323528,"lon":5.367456,"is_reserved":false,"is_disabled":false,"rental_uris":{"android":"levelo://app?vid=2aa78b25-7a9c-4a83-ae64-b82d5f142295","ios":"levelo://app?vid=2aa78b25-7a9c-4a83-ae64-b82d5f142295"},"vehicle_type_id":"4","last_reported":1750076517,"current_range_meters":19200,"station_id":"ce4bhsh2rcd13ifvqi2g","pricing_plan_id":"cebpf4jnsgd1na2vs0mg"},{"bike_id":"a1f2c31b-6d85-4745-b0dc-7d48f891be74","system_id":"levelo_inurba_marseille","lat":43.23186,"lon":5.35569,"is_reserved":false,"is_disabled":false,"rental_uris":{"android":"levelo://app?vid=a1f2c31b-6d85-4745-b0dc-7d48f891be74","ios":"levelo://app?vid=a1f2c31b-6d85-4745-b0dc-7d48f891be74"},"vehicle_type_id":"4","last_reported":1750076517,"current_range_meters":19200,"station_id":"ce4bhu92rcd13ifvqi70","pricing_plan_id":"cebpf4jnsgd1na2vs0mg"},{"bike_id":"190a12a2-6869-42fa-9694-b72690cb2074","system_id":"levelo_inurba_marseille","lat":43.24169,"lon":5.36404,"is_reserved":false,"is_disabled":false,"rental_uris":{"android":"levelo://app?vid=190a12a2-6869-42fa-9694-b72690cb2074","ios":"levelo://app?vid=190a12a2-6869-42fa-9694-b72690cb2074"},"vehicle_type_id":"4","last_reported":1750076517,"current_range_meters":19200,"station_id":"cpo36qri1sfpv3e86is0","pricing_plan_id":"cebpf4jnsgd1na2vs0mg"},{"bike_id":"7565e69a-4005-4eab-a191-81e302dbc63e","system_id":"levelo_inurba_marseille","lat":43.21192,"lon":5.35088,"is_reserved":false,"is_disabled":false,"rental_uris":{"android":"levelo://app?vid=7565e69a-4005-4eab-a191-81e302dbc63e","ios":"levelo://app?vid=7565e69a-4005-4eab-a191-81e302dbc63e"},"vehicle_type_id":"4","last_reported":1750076517,"current_range_meters":19200,"station_id":"st_cvj6sg6p6f1abm77japg","pricing_plan_id":"cebpf4jnsgd1na2vs0mg"},{"bike_id":"fec8b9f3-6dc7-4766-a52c-6958ac70ab31","system_id":"levelo_inurba_marseille","lat":43.31503,"lon":5.37309,"is_reserved":false,"is_disabled":false,"rental_uris":{"android":"levelo://app?vid=fec8b9f3-6dc7-4766-a52c-6958ac70ab31","ios":"levelo://app?vid=fec8b9f3-6dc7-4766-a52c-6958ac70ab31"},"vehicle_type_id":"4","last_reported":1750076517,"current_range_meters":19600,"station_id":"ce4bgt12rcd13ifvqcd0","pricing_plan_id":"cebpf4jnsgd1na2vs0mg"},{"bike_id":"ae45b4dd-f88a-4d86-baff-166f7fedb39d","system_id":"levelo_inurba_marseille","lat":43.31688,"lon":5.4047,"is_reserved":false,"is_disabled":false,"rental_uris":{"android":"levelo://app?vid=ae45b4dd-f88a-4d86-baff-166f7fedb39d","ios":"levelo://app?vid=ae45b4dd-f88a-4d86-baff-166f7fedb39d"},"vehicle_type_id":"4","last_reported":1750076517,"current_range_meters":19600,"station_id":"ce4bh012rcd13ifvqd00","pricing_plan_id":"cebpf4jnsgd1na2vs0mg"},{"bike_id":"c9a1cd02-74ea-4632-9199-8e3dc8a886fd","system_id":"levelo_inurba_marseille","lat":43.29008,"lon":5.35617,"is_reserved":false,"is_disabled":false,"rental_uris":{"android":"levelo://app?vid=c9a1cd02-74ea-4632-9199-8e3dc8a886fd","ios":"levelo://app?vid=c9a1cd02-74ea-4632-9199-8e3dc8a886fd"},"vehicle_type_id":"4","last_reported":1750076517,"current_range_meters":19600,"station_id":"ce4bhb92rcd13ifvqen0","pricing_plan_id":"cebpf4jnsgd1na2vs0mg"},{"bike_id":"b3e7b03b-5d0f-45e7-b0a1-a405de069ddb","system_id":"levelo_inurba_marseille","lat":43.2901,"lon":5.35575,"is_reserved":false,"is_disabled":false,"rental_uris":{"android":"levelo://app?vid=b3e7b03b-5d0f-45e7-b0a1-a405de069ddb","ios":"levelo://app?vid=b3e7b03b-5d0f-45e7-b0a1-a405de069ddb"},"vehicle_type_id":"4","last_reported":1750076517,"current_range_meters":19600,"station_id":"ce4bhb92rcd13ifvqen0","pricing_plan_id":"cebpf4jnsgd1na2vs0mg"},{"bike_id":"6b2dcf8c-4c61-43ec-b992-8e27926fe276","system_id":"levelo_inurba_marseille","lat":43.24172,"lon":5.39757,"is_reserved":false,"is_disabled":false,"rental_uris":{"android":"levelo://app?vid=6b2dcf8c-4c61-43ec-b992-8e27926fe276","ios":"levelo://app?vid=6b2dcf8c-4c61-43ec-b992-8e27926fe276"},"vehicle_type_id":"4","last_reported":1750076517,"current_range_meters":19600,"station_id":"ce4bhn12rcd13ifvqgpg","pricing_plan_id":"cebpf4jnsgd1na2vs0mg"},{"bike_id":"e4711f34-7025-42b3-a621-94987d2339b4","system_id":"levelo_inurba_marseille","lat":43.28155,"lon":5.42652,"is_reserved":false,"is_disabled":false,"rental_uris":{"android":"levelo://app?vid=e4711f34-7025-42b3-a621-94987d2339b4","ios":"levelo://app?vid=e4711f34-7025-42b3-a621-94987d2339b4"},"vehicle_type_id":"4","last_reported":1750076517,"current_range_meters":19600,"station_id":"ce4bhnh2rcd13ifvqgug","pricing_plan_id":"cebpf4jnsgd1na2vs0mg"},{"bike_id":"42a453d4-609f-4aae-a443-b3a2e9b15fa9","system_id":"levelo_inurba_marseille","lat":43.231959,"lon":5.355378,"is_reserved":false,"is_disabled":false,"rental_uris":{"android":"levelo://app?vid=42a453d4-609f-4aae-a443-b3a2e9b15fa9","ios":"levelo://app?vid=42a453d4-609f-4aae-a443-b3a2e9b15fa9"},"vehicle_type_id":"4","last_reported":1750076517,"current_range_meters":19600,"station_id":"ce4bhu92rcd13ifvqi70","pricing_plan_id":"cebpf4jnsgd1na2vs0mg"},{"bike_id":"3bd179b0-fda0-4ef1-b98c-6ec63ec90115","system_id":"levelo_inurba_marseille","lat":43.229285,"lon":5.353781,"is_reserved":false,"is_disabled":false,"rental_uris":{"android":"levelo://app?vid=3bd179b0-fda0-4ef1-b98c-6ec63ec90115","ios":"levelo://app?vid=3bd179b0-fda0-4ef1-b98c-6ec63ec90115"},"vehicle_type_id":"4","last_reported":1750076517,"current_range_meters":19600,"station_id":"cpo3532slgdg3j2ikp40","pricing_plan_id":"cebpf4jnsgd1na2vs0mg"},{"bike_id":"4ce5b165-f22d-40cf-abd3-1cb294861955","system_id":"levelo_inurba_marseille","lat":43.21201,"lon":5.35101,"is_reserved":false,"is_disabled":false,"rental_uris":{"android":"levelo://app?vid=4ce5b165-f22d-40cf-abd3-1cb294861955","ios":"levelo://app?vid=4ce5b165-f22d-40cf-abd3-1cb294861955"},"vehicle_type_id":"4","last_reported":1750076517,"current_range_meters":20000,"station_id":"","pricing_plan_id":"cebpf4jnsgd1na2vs0mg"},{"bike_id":"f83e23ee-a46c-4ffc-bf79-a2a951b15a92","system_id":"levelo_inurba_marseille","lat":43.29178,"lon":5.35614,"is_reserved":false,"is_disabled":false,"rental_uris":{"android":"levelo://app?vid=f83e23ee-a46c-4ffc-bf79-a2a951b15a92","ios":"levelo://app?vid=f83e23ee-a46c-4ffc-bf79-a2a951b15a92"},"vehicle_type_id":"4","last_reported":1750076517,"current_range_meters":20000,"station_id":"","pricing_plan_id":"cebpf4jnsgd1na2vs0mg"},