{"last_updated":1750975803,"ttl":60,"version":"2.2","data":{"bikes":[{"bike_id":"3da29fb8-fc97-44c6-b9ac-31dd456b2fd4","system_id":"levelo_inurba_marseille","lat":43.33771,"lon":5.37424,"is_reserved":false,"is_disabled":true,"rental_uris":{"android":"levelo://app?vid=3da29fb8-fc97-44c6-b9ac-31dd456b2fd4","ios":"levelo://app?vid=3da29fb8-fc97-44c6-b9ac-31dd456b2fd4"},"vehicle_type_id":"4","last_reported":1750975803,"current_range_meters":0,"station_id":"","pricing_plan_id":"cebpf4jnsgd1na2vs0mg"},{"bike_id":"01861ad8-a8d7-4be6-816e-651927c87584","system_id":"levelo_inurba_marseille","lat":43.33751,"lon":5.37456,"is_reserved":false,"is_disabled":true,"rental_uris":{"android":"levelo://app?vid=01861ad8-a8d7-4be6-816e-651927c87584","ios":"levelo://app?vid=01861ad8-a8d7-4be6-816e-651927c87584"},"vehicle_type_id":"4","last_reported":1750975803,"current_range_meters":0,"station_id":"","pricing_plan_id":"cebpf4jnsgd1na2vs0mg"},{"bike_id":"307719d8-858f-4aa2-9777-bb1fd3e52674","system_id":"levelo_inurba_marseille","lat":43.26218,"lon":5.37047,"is_reserved":false,"is_disabled":true,"rental_uris":{"android":"levelo://app?vid=307719d8-858f-4aa2-9777-bb1fd3e52674","ios":"levelo://app?vid=307719d8-858f-4aa2-9777-bb1fd3e52674"},"vehicle_type_id":"4","last_reported":1750975803,"current_range_meters":0,"station_id":"","pricing_plan_id":"cebpf4jnsgd1na2vs0mg"},{"bike_id":"7d5d4f17-3bf3-4858-860d-f62ae939381f","system_id":"levelo_inurba_marseille","lat":43.30892,"lon":5.40528,"is_reserved":false,"is_disabled":true,"rental_uris":{"android":"levelo://app?vid=7d5d4f17-3bf3-4858-860d-f62ae939381f","ios":"levelo://app?vid=7d5d4f17-3bf3-4858-860d-f62ae939381f"},"vehicle_type_id":"4","last_reported":1750975803,"current_range_meters":0,"station_id":"","pricing_plan_id":"cebpf4jnsgd1na2vs0mg"},{"bike_id":"a147e67d-e0b1-425e-bbda-ae9524df353e","system_id":"levelo_inurba_marseille","lat":43.337541,"lon":5.374577,"is_reserved":false,"is_disabled":true,"rental_uris":{"android":"levelo://app?vid=a147e67d-e0b1-425e-bbda-ae9524df353e","ios":"levelo://app?vid=a147e67d-e0b1-425e-bbda-ae9524df353e"},"vehicle_type_id":"4","last_reported":1750975803,"current_range_meters":0,"station_id":"","pricing_plan_id":"cebpf4jnsgd1na2vs0mg"},{"bike_id":"4d064f95-6dcb-4234-9e98-7c70fbb74351","system_id":"levelo_inurba_marseille","lat":43.337444,"lon":5.374475,"is_reserved":false,"is_disabled":true,"rental_uris":{"android":"levelo://app?vid=4d064f95-6dcb-4234-9e98-7c70fbb74351","ios":"levelo://app?vid=4d064f95-6dcb-4234-9e98-7c70fbb74351"},"vehicle_type_id":"4","last_reported":1750975803,"current_range_meters":0,"station_id":"","pricing_plan_id":"cebpf4jnsgd1na2vs0mg"},{"bike_id":"06b961c7-f3ce-4c1c-a618-db74d23ebaea","system_id":"levelo_inurba_marseille","lat":43.28873,"lon":5.37869,"is_reserved":false,"is_disabled":true,"rental_uris":{"android":"levelo://app?vid=06b961c7-f3ce-4c1c-a618-db74d23ebaea","ios":"levelo://app?vid=06b961c7-f3ce-4c1c-a618-db74d23ebaea"},"vehicle_type_id":"4","last_reported":1750975803,"current_range_meters":0,"station_id":"","pricing_plan_id":"cebpf4jnsgd1na2vs0mg"},{"bike_id":"d6609b4f-333b-43c1-9ebe-8726f5e76e88","system_id":"levelo_inurba_marseille","lat":43.337444,"lon":5.374475,"is_reserved":false,"is_disabled":true,"rental_uris":{"android":"levelo://app?vid=d6609b4f-333b-43c1-9ebe-8726f5e76e88","ios":"levelo://app?vid=d6609b4f-333b-43c1-9ebe-8726f5e76e88"},"vehicle_type_id":"4","last_reported":1750975803,"current_range_meters":0,"station_id":"","pricing_plan_id":"cebpf4jnsgd1na2vs0mg"},{"bike_id":"3583f331-6c0b-49be-9913-9dde300034d9","system_id":"levelo_inurba_marseille","lat":43.24619,"lon":5.40215,"is_reserved":false,"is_disabled":true,"rental_uris":{"android":"levelo://app?vid=3583f331-6c0b-49be-9913-9dde300034d9","ios":"levelo://app?vid=3583f331-6c0b-49be-9913-9dde300034d9"},"vehicle_type_id":"4","last_reported":1750975803,"current_range_meters":0,"station_id":"","pricing_plan_id":"cebpf4jnsgd1na2vs0mg"},{"bike_id":"bf027107-0fe5-47a2-8fef-6473f83bb647","system_id":"levelo_inurba_marseille","lat":43.3295,"lon":5.36383,"is_reserved":false,"is_disabled":true,"rental_uris":{"android":"levelo://app?vid=bf027107-0fe5-47a2-8fef-6473f83bb647","ios":"levelo://app?vid=bf027107-0fe5-47a2-8fef-6473f83bb647"},"vehicle_type_id":"4","last_reported":1750975803,"current_range_meters":0,"station_id":"","pricing_plan_id":"cebpf4jnsgd1na2vs0mg"},{"bike_id":"b17b6606-336a-4606-9b65-af139c49de26","system_id":"levelo_inurba_marseille","lat":43.25671,"lon":5.4271,"is_reserved":false,"is_disabled":true,"rental_uris":{"android":"levelo://app?vid=b17b6606-336a-4606-9b65-af139c49de26","ios":"levelo://app?vid=b17b6606-336a-4606-9b65-af139c49de26"},"vehicle_type_id":"4","last_reported":1750975803,"current_range_meters":0,"station_id":"","pricing_plan_id":"cebpf4jnsgd1na2vs0mg"},{"bike_id":"9d3724b1-0dc8-4689-9d6a-55005a9503cb","system_id":"levelo_inurba_marseille","lat":43.28617,"lon":5.42824,"is_reserved":false,"is_disabled":true,"rental_uris":{"android":"levelo://app?vid=9d3724b1-0dc8-4689-9d6a-55005a9503cb","ios":"levelo://app?vid=9d3724b1-0dc8-4689-9d6a-55005a9503cb"},"vehicle_type_id":"4","last_reported":1750975803,"current_range_meters":0,"station_id":"","pricing_plan_id":"cebpf4jnsgd1na2vs0mg"},{"bike_id":"ce774a04-a4be-4eca-a30f-78eb921955bd","system_id":"levelo_inurba_marseille","lat":43.33878,"lon":5.35544,"is_reserved":false,"is_disabled":true,"rental_uris":{"android":"levelo://app?vid=ce774a04-a4be-4eca-a30f-78eb921955bd","ios":"levelo://app?vid=ce774a04-a4be-4eca-a30f-78eb921955bd"},"vehicle_type_id":"4","last_reported":1750975803,"current_range_meters":0,"station_id":"","pricing_plan_id":"cebpf4jnsgd1na2vs0mg"},{"bike_id":"479aa0bd-0750-43c9-a904-e911c8e7fc23","system_id":"levelo_inurba_marseille","lat":43.311462,"lon":5.382868,"is_reserved":false,"is_disabled":true,"rental_uris":{"android":"levelo://app?vid=479aa0bd-0750-43c9-a904-e911c8e7fc23","ios":"levelo://app?vid=479aa0bd-0750-43c9-a904-e911c8e7fc23"},"vehicle_type_id":"4","last_reported":1750975803,"current_range_meters":0,"station_id":"","pricing_plan_id":"cebpf4jnsgd1na2vs0mg"},{"bike_id":"cbe60da3-dee9-49b6-8842-f709fd596d1b","system_id":"levelo_inurba_marseille","lat":43.297137,"lon":5.377043,"is_reserved":false,"is_disabled":true,"rental_uris":{"android":"levelo://app?vid=cbe60da3-dee9-49b6-8842-f709fd596d1b","ios":"levelo://app?vid=cbe60da3-dee9-49b6-8842-f709fd596d1b"},"vehicle_type_id":"4","last_reported":1750975803,"current_range_meters":0,"station_id":"ce4bgkh2rcd13ifvqbl0","pricing_plan_id":"cebpf4jnsgd1na2vs0mg"},{"bike_id":"82a21ae1-19ff-49e0-942d-425c3c8f8570","system_id":"levelo_inurba_marseille","lat":43.29026,"lon":5.38135,"is_reserved":false,"is_disabled":true,"rental_uris":{"android":"levelo://app?vid=82a21ae1-19ff-49e0-942d-425c3c8f8570","ios":"levelo://app?vid=82a21ae1-19ff-49e0-942d-425c3c8f8570"},"vehicle_type_id":"4","last_reported":1750975803,"current_range_meters":0,"station_id":"ce4bh4p2rcd13ifvqe1g","pricing_plan_id":"cebpf4jnsgd1na2vs0mg"},{"bike_id":"1d1640f2-f31d-42d8-babe-9e5050991d65","system_id":"levelo_inurba_marseille","lat":43.26786,"lon":5.39421,"is_reserved":false,"is_disabled":true,"rental_uris":{"android":"levelo://app?vid=1d1640f2-f31d-42d8-babe-9e5050991d65","ios":"levelo://app?vid=1d1640f2-f31d-42d8-babe-9e5050991d65"},"vehicle_type_id":"4","last_reported":1750975803,"current_range_meters":0,"station_id":"ce4bhh12rcd13ifvqfg0","pricing_plan_id":"cebpf4jnsgd1na2vs0mg"},{"bike_id":"01ad2112-1a6e-4e87-a406-3d7338c4ea8c","system_id":"levelo_inurba_marseille","lat":43.23147,"lon":5.43738,"is_reserved":false,"is_disabled":true,"rental_uris":{"android":"levelo://app?vid=01ad2112-1a6e-4e87-a406-3d7338c4ea8c","ios":"levelo://app?vid=01ad2112-1a6e-4e87-a406-3d7338c4ea8c"},"vehicle_type_id":"4","last_reported":1750975803,"current_range_meters":0,"station_id":"ce4bhmp2rcd13ifvqgog","pricing_plan_id":"cebpf4jnsgd1na2vs0mg"},{"bike_id":"5a3dab73-c126-4de6-a97f-f9ca71f0b35f","system_id":"levelo_inurba_marseille","lat":43.21748,"lon":5.34603,"is_reserved":false,"is_disabled":true,"rental_uris":{"android":"levelo://app?vid=5a3dab73-c126-4de6-a97f-f9ca71f0b35f","ios":"levelo://app?vid=5a3dab73-c126-4de6-a97f-f9ca71f0b35f"},"vehicle_type_id":"4","last_reported":1750975803,"current_range_meters":0,"station_id":"st_cvj6r9ubvosntc0bgbag","pricing_plan_id":"cebpf4jnsgd1na2vs0mg"},{"bike_id":"cdb687b2-0322-480a-b17b-d5f5160446f9","system_id":"levelo_inurba_marseille","lat":43.2175,"lon":5.34595,"is_reserved":false,"is_disabled":true,"rental_uris":{"android":"levelo://app?vid=cdb687b2-0322-480a-b17b-d5f5160446f9","ios":"levelo://app?vid=cdb687b2-0322-480a-b17b-d5f5160446f9"},"vehicle_type_id":"4","last_reported":1750975803,"current_range_meters":0,"station_id":"st_cvj6r9ubvosntc0bgbag","pricing_plan_id":"cebpf4jnsgd1na2vs0mg"},{"bike_id":"2ae278c9-8939-43b6-ae64-1735e91cccaf","system_id":"levelo_inurba_marseille","lat":43.2119,"lon":5.3507,"is_reserved":false,"is_disabled":true,"rental_uris":{"android":"levelo://app?vid=2ae278c9-8939-43b6-ae64-1735e91cccaf","ios":"levelo://app?vid=2ae278c9-8939-43b6-ae64-1735e91cccaf"},"vehicle_type_id":"4","last_reported":1750975803,"current_range_meters":0,"station_id":"st_cvj6sg6p6f1abm77japg","pricing_plan_id":"cebpf4jnsgd1na2vs0mg"},{"bike_id":"217cfdb5-f885-4a29-a387-b2c712b3479b","system_id":"levelo_inurba_marseille","lat":43.3116,"lon":5.38721,"is_reserved":false,"is_disabled":true,"rental_uris":{"android":"levelo://app?vid=217cfdb5-f885-4a29-a387-b2c712b3479b","ios":"levelo://app?vid=217cfdb5-f885-4a29-a387-b2c712b3479b"},"vehicle_type_id":"4","last_reported":1750975803,"current_range_meters":400,"station_id":"ce4bgv12rcd13ifvqcp0","pricing_plan_id":"cebpf4jnsgd1na2vs0mg"},{"bike_id":"71c3a71c-30e5-4b79-af07-33653fc784a5","system_id":"levelo_inurba_marseille","lat":43.31177,"lon":5.3873,"is_reserved":false,"is_disabled":true,"rental_uris":{"android":"levelo://app?vid=71c3a71c-30e5-4b79-af07-33653fc784a5","ios":"levelo://app?vid=71c3a71c-30e5-4b79-af07-33653fc784a5"},"vehicle_type_id":"4","last_reported":1750975803,"current_range_meters":400,"station_id":"ce4bgv12rcd13ifvqcp0","pricing_plan_id":"cebpf4jnsgd1na2vs0mg"},{"bike_id":"9fadf070-1086-4b7b-a999-d69cb737ac07","system_id":"levelo_inurba_marseille","lat":43.21735,"lon":5.34641,"is_reserved":false,"is_disabled":true,"rental_uris":{"android":"levelo://app?vid=9fadf070-1086-4b7b-a999-d69cb737ac07","ios":"levelo://app?vid=9fadf070-1086-4b7b-a999-d69cb737ac07"},"vehicle_type_id":"4","last_reported":1750975803,"current_range_meters":400,"station_id":"st_cvj6r9ubvosntc0bgbag","pricing_plan_id":"cebpf4jnsgd1na2vs0mg"},{"bike_id":"52507bd6-0f52-4593-902a-07e9a8e74ff8","system_id":"levelo_inurba_marseille","lat":43.284016,"lon":5.375022,"is_reserved":false,"is_disabled":true,"rental_uris":{"android":"levelo://app?vid=52507bd6-0f52-4593-902a-07e9a8e74ff8","ios":"levelo://app?vid=52507bd6-0f52-4593-902a-07e9a8e74ff8"},"vehicle_type_id":"4","last_reported":1750975803,"current_range_meters":800,"station_id":"ce4bh412rcd13ifvqds0","pricing_plan_id":"cebpf4jnsgd1na2vs0mg"},{"bike_id":"f6a45308-b049-446d-ac43-16801d1125ec","system_id":"levelo_inurba_marseille","lat":43.28567,"lon":5.39493,"is_reserved":false,"is_disabled":true,"rental_uris":{"android":"levelo://app?vid=f6a45308-b049-446d-ac43-16801d1125ec","ios":"levelo://app?vid=f6a45308-b049-446d-ac43-16801d1125ec"},"vehicle_type_id":"4","last_reported":1750975803,"current_range_meters":1600,"station_id":"ce4bh292rcd13ifvqdg0","pricing_plan_id":"cebpf4jnsgd1na2vs0mg"},{"bike_id":"872d2e17-3650-430f-9b67-b91eb56c3719","system_id":"levelo_inurba_marseille","lat":43.27178,"lon":5.40984,"is_reserved":false,"is_disabled":true,"rental_uris":{"android":"levelo://app?vid=872d2e17-3650-430f-9b67-b91eb56c3719","ios":"levelo://app?vid=872d2e17-3650-430f-9b67-b91eb56c3719"},"vehicle_type_id":"4","last_reported":1750975803,"current_range_meters":1600,"station_id":"ce4bhl12rcd13ifvqgf0","pricing_plan_id":"cebpf4jnsgd1na2vs0mg"},{"bike_id":"3ceeca94-b10c-4018-a526-d4e5118171be","system_id":"levelo_inurba_marseille","lat":43.27491,"lon":5.42464,"is_reserved":false,"is_disabled":true,"rental_uris":{"android":"levelo://app?vid=3ceeca94-b10c-4018-a526-d4e5118171be","ios":"levelo://app?vid=3ceeca94-b10c-4018-a526-d4e5118171be"},"vehicle_type_id":"4","last_reported":1750975803,"current_range_meters":1600,"station_id":"ce4bhn92rcd13ifvqgrg","pricing_plan_id":"cebpf4jnsgd1na2vs0mg"},{"bike_id":"572b4dd3-811d-475b-befd-5953eec6bd15","system_id":"levelo_inurba_marseille","lat":43.285119,"lon":5.394715,"is_reserved":false,"is_disabled":true,"rental_uris":{"android":"levelo://app?vid=572b4dd3-811d-475b-befd-5953eec6bd15","ios":"levelo://app?vid=572b4dd3-811d-475b-befd-5953eec6bd15"},"vehicle_type_id":"4","last_reported":1750975803,"current_range_meters":2000,"station_id":"","pricing_plan_id":"cebpf4jnsgd1na2vs0mg"},{"bike_id":"f73bc6d5-f907-4acf-8a06-ff0d2c125fab","system_id":"levelo_inurba_marseille","lat":43.292633,"lon":5.384431,"is_reserved":false,"is_disabled":false,"rental_uris":{"android":"levelo://app?vid=f73bc6d5-f907-4acf-8a06-ff0d2c125fab","ios":"levelo://app?vid=f73bc6d5-f907-4acf-8a06-ff0d2c125fab"},"vehicle_type_id":"4","last_reported":1750975803,"current_range_meters":2000,"station_id":"ce4bh692rcd13ifvqea0","pricing_plan_id":"cebpf4jnsgd1na2vs0mg"},{"bike_id":"3575aac3-cedc-4082-b612-c545899805ce","system_id":"levelo_inurba_marseille","lat":43.28039,"lon":5.3695,"is_reserved":false,"is_disabled":true,"rental_uris":{"android":"levelo://app?vid=3575aac3-cedc-4082-b612-c545899805ce","ios":"levelo://app?vid=3575aac3-cedc-4082-b612-c545899805ce"},"vehicle_type_id":"4","last_reported":1750975803,"current_range_meters":2000,"station_id":"ce4bha12rcd13ifvqef0","pricing_plan_id":"cebpf4jnsgd1na2vs0mg"},{"bike_id":"575eb093-bbc3-40fa-9a90-fc5c1eda5090","system_id":"levelo_inurba_marseille","lat":43.29983,"lon":5.37171,"is_reserved":false,"is_disabled":false,"rental_uris":{"android":"levelo://app?vid=575eb093-bbc3-40fa-9a90-fc5c1eda5090","ios":"levelo://app?vid=575eb093-bbc3-40fa-9a90-fc5c1eda5090"},"vehicle_type_id":"4","last_reported":1750975803,"current_range_meters":2800,"station_id":"ce4bgr92rcd13ifvqc7g","pricing_plan_id":"cebpf4jnsgd1na2vs0mg"},{"bike_id":"01b439f7-787c-4d60-8a36-9fcbe3432f1c","system_id":"levelo_inurba_marseille","lat":43.291991,"lon":5.393142,"is_reserved":false,"is_disabled":false,"rental_uris":{"android":"levelo://app?vid=01b439f7-787c-4d60-8a36-9fcbe3432f1c","ios":"levelo://app?vid=01b439f7-787c-4d60-8a36-9fcbe3432f1c"},"vehicle_type_id":"4","last_reported":1750975803,"current_range_meters":2800,"station_id":"ce4bh192rcd13ifvqdd0","pricing_plan_id":"cebpf4jnsgd1na2vs0mg"},{"bike_id":"982840fa-209d-4186-a7ed-c8a7227cb604","system_id":"levelo_inurba_marseille","lat":43.3008,"lon":5.39072,"is_reserved":false,"is_disabled":false,"rental_uris":{"android":"levelo://app?vid=982840fa-209d-4186-a7ed-c8a7227cb604","ios":"levelo://app?vid=982840fa-209d-4186-a7ed-c8a7227cb604"},"vehicle_type_id":"4","last_reported":1750975803,"current_range_meters":3200,"station_id":"ce4bh192rcd13ifvqdb0","pricing_plan_id":"cebpf4jnsgd1na2vs0mg"},{"bike_id":"56b9f924-d637-4f8c-9d3c-a9a2d7338d5e","system_id":"levelo_inurba_marseille","lat":43.29088,"lon":5.38144,"is_reserved":false,"is_disabled":false,"rental_uris":{"android":"levelo://app?vid=56b9f924-d637-4f8c-9d3c-a9a2d7338d5e","ios":"levelo://app?vid=56b9f924-d637-4f8c-9d3c-a9a2d7338d5e"},"vehicle_type_id":"4","last_reported":1750975803,"current_range_meters":3200,"station_id":"ce4bh512rcd13ifvqe2g","pricing_plan_id":"cebpf4jnsgd1na2vs0mg"},{"bike_id":"056a9844-b1ec-48ec-ac98-569ce39622b8","system_id":"levelo_inurba_marseille","lat":43.28426,"lon":5.39185,"is_reserved":false,"is_disabled":false,"rental_uris":{"android":"levelo://app?vid=056a9844-b1ec-48ec-ac98-569ce39622b8","ios":"levelo://app?vid=056a9844-b1ec-48ec-ac98-569ce39622b8"},"vehicle_type_id":"4","last_reported":1750975803,"current_range_meters":3200,"station_id":"ce4bhoh2rcd13ifvqh5g","pricing_plan_id":"cebpf4jnsgd1na2vs0mg"},{"bike_id":"67a5051a-b32e-408a-8389-c22b54eb81f6","system_id":"levelo_inurba_marseille","lat":43.33019,"lon":5.45603,"is_reserved":false,"is_disabled":false,"rental_uris":{"android":"levelo://app?vid=67a5051a-b32e-408a-8389-c22b54eb81f6","ios":"levelo://app?vid=67a5051a-b32e-408a-8389-c22b54eb81f6"},"vehicle_type_id":"4","last_reported":1750975803,"current_range_meters":3600,"station_id":"","pricing_plan_id":"cebpf4jnsgd1na2vs0mg"},{"bike_id":"0966d482-f604-42c8-8b78-ee492d399438","system_id":"levelo_inurba_marseille","lat":43.31078,"lon":5.38351,"is_reserved":false,"is_disabled":false,"rental_uris":{"android":"levelo://app?vid=0966d482-f604-42c8-8b78-ee492d399438","ios":"levelo://app?vid=0966d482-f604-42c8-8b78-ee492d399438"},"vehicle_type_id":"4","last_reported":1750975803,"current_range_meters":3600,"station_id":"ce4bgv92rcd13ifvqcr0","pricing_plan_id":"cebpf4jnsgd1na2vs0mg"},{"bike_id":"a409df2d-7f3a-4193-a819-c77e0040573a","system_id":"levelo_inurba_marseille","lat":43.28357,"lon":5.38124,"is_reserved":false,"is_disabled":false,"rental_uris":{"android":"levelo://app?vid=a409df2d-7f3a-4193-a819-c77e0040573a","ios":"levelo://app?vid=a409df2d-7f3a-4193-a819-c77e0040573a"},"vehicle_type_id":"4","last_reported":1750975803,"current_range_meters":3600,"station_id":"ce4bh412rcd13ifvqdr0","pricing_plan_id":"cebpf4jnsgd1na2vs0mg"},{"bike_id":"35266dd7-fc2b-4197-8a03-8e87bae8fb27","system_id":"levelo_inurba_marseille","lat":43.26204,"lon":5.37935,"is_reserved":false,"is_disabled":false,"rental_uris":{"android":"levelo://app?vid=35266dd7-fc2b-4197-8a03-8e87bae8fb27","ios":"levelo://app?vid=35266dd7-fc2b-4197-8a03-8e87bae8fb27"},"vehicle_type_id":"4","last_reported":1750975803,"current_range_meters":3600,"station_id":"ce4bhjp2rcd13ifvqg90","pricing_plan_id":"cebpf4jnsgd1na2vs0mg"},{"bike_id":"a86d2f9f-83d8-4f17-8422-d08e982c4a2a","system_id":"levelo_inurba_marseille","lat":43.29749,"lon":5.44861,"is_reserved":false,"is_disabled":false,"rental_uris":{"android":"levelo://app?vid=a86d2f9f-83d8-4f17-8422-d08e982c4a2a","ios":"levelo://app?vid=a86d2f9f-83d8-4f17-8422-d08e982c4a2a"},"vehicle_type_id":"4","last_reported":1750975803,"current_range_meters":4000,"station_id":"","pricing_plan_id":"cebpf4jnsgd1na2vs0mg"},{"bike_id":"56e84d6b-ada9-4374-a7ec-1f12d4355cf9","system_id":"levelo_inurba_marseille","lat":43.29034,"lon":5.38132,"is_reserved":false,"is_disabled":false,"rental_uris":{"android":"levelo://app?vid=56e84d6b-ada9-4374-a7ec-1f12d4355cf9","ios":"levelo://app?vid=56e84d6b-ada9-4374-a7ec-1f12d4355cf9"},"vehicle_type_id":"4","last_reported":1750975803,"current_range_meters":4000,"station_id":"ce4bh4p2rcd13ifvqe1g","pricing_plan_id":"cebpf4jnsgd1na2vs0mg"},{"bike_id":"575d7db1-1eb7-4e4d-b894-e48ae0d2b9e4","system_id":"levelo_inurba_marseille","lat":43.29279,"lon":5.40116,"is_reserved":false,"is_disabled":false,"rental_uris":{"android":"levelo://app?vid=575d7db1-1eb7-4e4d-b894-e48ae0d2b9e4","ios":"levelo://app?vid=575d7db1-1eb7-4e4d-b894-e48ae0d2b9e4"},"vehicle_type_id":"4","last_reported":1750975803,"current_range_meters":4400,"station_id":"ce4bh312rcd13ifvqdk0","pricing_plan_id":"cebpf4jnsgd1na2vs0mg"},{"bike_id":"db4e2ea3-c22f-48f0-b53e-224aec501d16","system_id":"levelo_inurba_marseille","lat":43.32364,"lon":5.36759,"is_reserved":false,"is_disabled":false,"rental_uris":{"android":"levelo://app?vid=db4e2ea3-c22f-48f0-b53e-224aec501d16","ios":"levelo://app?vid=db4e2ea3-c22f-48f0-b53e-224aec501d16"},"vehicle_type_id":"4","last_reported":1750975803,"current_range_meters":4400,"station_id":"ce4bhsh2rcd13ifvqi2g","pricing_plan_id":"cebpf4jnsgd1na2vs0mg"},{"bike_id":"48c26de7-e276-4095-a271-44715e0145f5","system_id":"levelo_inurba_marseille","lat":43.30325,"lon":5.40442,"is_reserved":false,"is_disabled":false,"rental_uris":{"android":"levelo://app?vid=48c26de7-e276-4095-a271-44715e0145f5","ios":"levelo://app?vid=48c26de7-e276-4095-a271-44715e0145f5"},"vehicle_type_id":"4","last_reported":1750975803,"current_range_meters":4800,"station_id":"ce4bh012rcd13ifvqd10","pricing_plan_id":"cebpf4jnsgd1na2vs0mg"},{"bike_id":"216e0409-0673-44b2-9ecf-fede96af37b5","system_id":"levelo_inurba_marseille","lat":43.30101,"lon":5.39093,"is_reserved":false,"is_disabled":false,"rental_uris":{"android":"levelo://app?vid=216e0409-0673-44b2-9ecf-fede96af37b5","ios":"levelo://app?vid=216e0409-0673-44b2-9ecf-fede96af37b5"},"vehicle_type_id":"4","last_reported":1750975803,"current_range_meters":4800,"station_id":"ce4bh192rcd13ifvqdb0","pricing_plan_id":"cebpf4jnsgd1na2vs0mg"},{"bike_id":"797aa785-1654-439d-bdb4-503ad66fc52d","system_id":"levelo_inurba_marseille","lat":43.29411,"lon":5.3858,"is_reserved":false,"is_disabled":false,"rental_uris":{"android":"levelo://app?vid=797aa785-1654-439d-bdb4-503ad66fc52d","ios":"levelo://app?vid=797aa785-1654-439d-bdb4-503ad66fc52d"},"vehicle_type_id":"4","last_reported":1750975803,"current_range_meters":4800,"station_id":"ce4bh2h2rcd13ifvqdh0","pricing_plan_id":"cebpf4jnsgd1na2vs0mg"},{"bike_id":"aa481835-430d-472f-bf42-8f91ed6be883","system_id":"levelo_inurba_marseille","lat":43.29028,"lon":5.3813,"is_reserved":false,"is_disabled":false,"rental_uris":{"android":"levelo://app?vid=aa481835-430d-472f-bf42-8f91ed6be883","ios":"levelo://app?vid=aa481835-430d-472f-bf42-8f91ed6be883"},"vehicle_type_id":"4","last_reported":1750975803,"current_range_meters":4800,"station_id":"ce4bh4p2rcd13ifvqe1g","pricing_plan_id":"cebpf4jnsgd1na2vs0mg"},{"bike_id":"ad0de2af-f202-4008-b993-c8f3283bd7d8","system_id":"levelo_inurba_marseille","lat":43.29786,"lon":5.39351,"is_reserved":false,"is_disabled":false,"rental_uris":{"android":"levelo://app?vid=ad0de2af-f202-4008-b993-c8f3283bd7d8","ios":"levelo://app?vid=ad0de2af-f202-4008-b993-c8f3283bd7d8"},"vehicle_type_id":"4","last_reported":1750975803,"current_range_meters":5600,"station_id":"chh1huq6cuj3fo74tm60","pricing_plan_id":"cebpf4jnsgd1na2vs0mg"},{"bike_id":"af112b62-19de-41d4-b8d7-e14d0172315d","system_id":"levelo_inurba_marseille","lat":43.32688,"lon":5.39265,"is_reserved":false,"is_disabled":false,"rental_uris":{"android":"levelo://app?vid=af112b62-19de-41d4-b8d7-e14d0172315d","ios":"levelo://app?vid=af112b62-19de-41d4-b8d7-e14d0172315d"},"vehicle_type_id":"4","last_reported":1750975803,"current_range_meters":6400,"station_id":"","pricing_plan_id":"cebpf4jnsgd1na2vs0mg"},{"bike_id":"6324371c-6445-4d6c-b81d-fb76e2fa5e9f","system_id":"levelo_inurba_marseille","lat":43.29802,"lon":5.3809,"is_reserved":false,"is_disabled":false,"rental_uris":{"android":"levelo://app?vid=6324371c-6445-4d6c-b81d-fb76e2fa5e9f","ios":"levelo://app?vid=6324371c-6445-4d6c-b81d-fb76e2fa5e9f"},"vehicle_type_id":"4","last_reported":1750975803,"current_range_meters":6400,"station_id":"ce4bgip2rcd13ifvqbb0","pricing_plan_id":"cebpf4jnsgd1na2vs0mg"},{"bike_id":"83a3448f-1f4d-4d87-b7cb-6f8ab7dec6e2","system_id":"levelo_inurba_marseille","lat":43.29191,"lon":5.39329,"is_reserved":false,"is_disabled":false,"rental_uris":{"android":"levelo://app?vid=83a3448f-1f4d-4d87-b7cb-6f8ab7dec6e2","ios":"levelo://app?vid=83a3448f-1f4d-4d87-b7cb-6f8ab7dec6e2"},"vehicle_type_id":"4","last_reported":1750975803,"current_range_meters":6400,"station_id":"ce4bh192rcd13ifvqdd0","pricing_plan_id":"cebpf4jnsgd1na2vs0mg"},{"bike_id":"26a14eba-87a9-47b8-9607-30bd0042d428","system_id":"levelo_inurba_marseille","lat":43.31467,"lon":5.39437,"is_reserved":false,"is_disabled":false,"rental_uris":{"android":"levelo://app?vid=26a14eba-87a9-47b8-9607-30bd0042d428","ios":"levelo://app?vid=26a14eba-87a9-47b8-9607-30bd0042d428"},"vehicle_type_id":"4","last_reported":1750975803,"current_range_meters":6800,"station_id":"","pricing_plan_id":"cebpf4jnsgd1na2vs0mg"},{"bike_id":"0ad24ab5-c5a2-42d6-92b3-dcf94779f33e","system_id":"levelo_inurba_marseille","lat":43.30151,"lon":5.37424,"is_reserved":false,"is_disabled":false,"rental_uris":{"android":"levelo://app?vid=0ad24ab5-c5a2-42d6-92b3-dcf94779f33e","ios":"levelo://app?vid=0ad24ab5-c5a2-42d6-92b3-dcf94779f33e"},"vehicle_type_id":"4","last_reported":1750975803,"current_range_meters":6800,"station_id":"ce4bgs92rcd13ifvqcc0","pricing_plan_id":"cebpf4jnsgd1na2vs0mg"},{"bike_id":"d2672c6c-e70e-4742-bfe5-40fbe751d9e9","system_id":"levelo_inurba_marseille","lat":43.29507,"lon":5.394,"is_reserved":false,"is_disabled":false,"rental_uris":{"android":"levelo://app?vid=d2672c6c-e70e-4742-bfe5-40fbe751d9e9","ios":"levelo://app?vid=d2672c6c-e70e-4742-bfe5-40fbe751d9e9"},"vehicle_type_id":"4","last_reported":1750975803,"current_range_meters":6800,"station_id":"ce4bh292rcd13ifvqdf0","pricing_plan_id":"cebpf4jnsgd1na2vs0mg"},{"bike_id":"1660ab5f-be30-4254-bfd3-66325e779c35","system_id":"levelo_inurba_marseille","lat":43.322861,"lon":5.406456,"is_reserved":false,"is_disabled":false,"rental_uris":{"android":"levelo://app?vid=1660ab5f-be30-4254-bfd3-66325e779c35","ios":"levelo://app?vid=1660ab5f-be30-4254-bfd3-66325e779c35"},"vehicle_type_id":"4","last_reported":1750975803,"current_range_meters":7200,"station_id":"","pricing_plan_id":"cebpf4jnsgd1na2vs0mg"},{"bike_id":"0ab2a626-222a-4c52-a15c-5a54c17f3b51","system_id":"levelo_inurba_marseille","lat":43.30619,"lon":5.37218,"is_reserved":false,"is_disabled":false,"rental_uris":{"android":"levelo://app?vid=0ab2a626-222a-4c52-a15c-5a54c17f3b51","ios":"levelo://app?vid=0ab2a626-222a-4c52-a15c-5a54c17f3b51"},"vehicle_type_id":"4","last_reported":1750975803,"current_range_meters":7200,"station_id":"ce4bgqh2rcd13ifvqc4g","pricing_plan_id":"cebpf4jnsgd1na2vs0mg"},{"bike_id":"8c3af7af-45dc-4873-983b-b8926e736e48","system_id":"levelo_inurba_marseille","lat":43.31208,"lon":5.36763,"is_reserved":false,"is_disabled":false,"rental_uris":{"android":"levelo://app?vid=8c3af7af-45dc-4873-983b-b8926e736e48","ios":"levelo://app?vid=8c3af7af-45dc-4873-983b-b8926e736e48"},"vehicle_type_id":"4","last_reported":1750975803,"current_range_meters":8000,"station_id":"","pricing_plan_id":"cebpf4jnsgd1na2vs0mg"},{"bike_id":"74d6a32c-ae11-424d-b3ba-47a322469c58","system_id":"levelo_inurba_marseille","lat":43.30425,"lon":5.3975,"is_reserved":false,"is_disabled":false,"rental_uris":{"android":"levelo://app?vid=74d6a32c-ae11-424d-b3ba-47a322469c58","ios":"levelo://app?vid=74d6a32c-ae11-424d-b3ba-47a322469c58"},"vehicle_type_id":"4","last_reported":1750975803,"current_range_meters":8000,"station_id":"ce4bh092rcd13ifvqd20","pricing_plan_id":"cebpf4jnsgd1na2vs0mg"},{"bike_id":"4f04c17f-28e6-4cb9-a296-b2ca40a8ba3b","system_id":"levelo_inurba_marseille","lat":43.306376,"lon":5.400941,"is_reserved":false,"is_disabled":false,"rental_uris":{"android":"levelo://app?vid=4f04c17f-28e6-4cb9-a296-b2ca40a8ba3b","ios":"levelo://app?vid=4f04c17f-28e6-4cb9-a296-b2ca40a8ba3b"},"vehicle_type_id":"4","last_reported":1750975803,"current_range_meters":8000,"station_id":"ce4bh112rcd13ifvqda0","pricing_plan_id":"cebpf4jnsgd1na2vs0mg"},{"bike_id":"853cf68b-08c6-4a2a-84a8-6e22882d8b25","system_id":"levelo_inurba_marseille","lat":43.298792,"lon":5.389043,"is_reserved":false,"is_disabled":false,"rental_uris":{"android":"levelo://app?vid=853cf68b-08c6-4a2a-84a8-6e22882d8b25","ios":"levelo://app?vid=853cf68b-08c6-4a2a-84a8-6e22882d8b25"},"vehicle_type_id":"4","last_reported":1750975803,"current_range_meters":8000,"station_id":"ce4bh392rcd13ifvqdl0","pricing_plan_id":"cebpf4jnsgd1na2vs0mg"},{"bike_id":"884495b8-3589-4d4c-8e48-ede2d633d0af","system_id":"levelo_inurba_marseille","lat":43.30415,"lon":5.3975,"is_reserved":false,"is_disabled":false,"rental_uris":{"android":"levelo://app?vid=884495b8-3589-4d4c-8e48-ede2d633d0af","ios":"levelo://app?vid=884495b8-3589-4d4c-8e48-ede2d633d0af"},"vehicle_type_id":"4","last_reported":1750975803,"current_range_meters":8400,"station_id":"ce4bh092rcd13ifvqd20","pricing_plan_id":"cebpf4jnsgd1na2vs0mg"},{"bike_id":"58f10d9a-2d37-41e1-99c3-cbf217a513e1","system_id":"levelo_inurba_marseille","lat":43.30417,"lon":5.39764,"is_reserved":false,"is_disabled":false,"rental_uris":{"android":"levelo://app?vid=58f10d9a-2d37-41e1-99c3-cbf217a513e1","ios":"levelo://app?vid=58f10d9a-2d37-41e1-99c3-cbf217a513e1"},"vehicle_type_id":"4","last_reported":1750975803,"current_range_meters":8400,"station_id":"ce4bh092rcd13ifvqd20","pricing_plan_id":"cebpf4jnsgd1na2vs0mg"},{"bike_id":"d44646c8-2f9d-4556-9e6a-f320162758bb","system_id":"levelo_inurba_marseille","lat":43.28342,"lon":5.38102,"is_reserved":false,"is_disabled":false,"rental_uris":{"android":"levelo://app?vid=d44646c8-2f9d-4556-9e6a-f320162758bb","ios":"levelo://app?vid=d44646c8-2f9d-4556-9e6a-f320162758bb"},"vehicle_type_id":"4","last_reported":1750975803,"current_range_meters":8400,"station_id":"ce4bh412rcd13ifvqdr0","pricing_plan_id":"cebpf4jnsgd1na2vs0mg"},{"bike_id":"e2f5b300-4a63-4778-aada-c29a8a0ea1e8","system_id":"levelo_inurba_marseille","lat":43.32798,"lon":5.39198,"is_reserved":false,"is_disabled":false,"rental_uris":{"android":"levelo://app?vid=e2f5b300-4a63-4778-aada-c29a8a0ea1e8","ios":"levelo://app?vid=e2f5b300-4a63-4778-aada-c29a8a0ea1e8"},"vehicle_type_id":"4","last_reported":1750975803,"current_range_meters":8800,"station_id":"","pricing_plan_id":"cebpf4jnsgd1na2vs0mg"},{"bike_id":"34cdd914-3559-4cf1-81dc-5dbe5ecaa7c6","system_id":"levelo_inurba_marseille","lat":43.30592,"lon":5.39355,"is_reserved":false,"is_disabled":false,"rental_uris":{"android":"levelo://app?vid=34cdd914-3559-4cf1-81dc-5dbe5ecaa7c6","ios":"levelo://app?vid=34cdd914-3559-4cf1-81dc-5dbe5ecaa7c6"},"vehicle_type_id":"4","last_reported":1750975803,"current_range_meters":8800,"station_id":"ce4bh0p2rcd13ifvqd80","pricing_plan_id":"cebpf4jnsgd1na2vs0mg"},{"bike_id":"6b7cfd75-9f46-4bac-9a61-7ed145f17214","system_id":"levelo_inurba_marseille","lat":43.32291,"lon":5.38273,"is_reserved":false,"is_disabled":false,"rental_uris":{"android":"levelo://app?vid=6b7cfd75-9f46-4bac-9a61-7ed145f17214","ios":"levelo://app?vid=6b7cfd75-9f46-4bac-9a61-7ed145f17214"},"vehicle_type_id":"4","last_reported":1750975803,"current_range_meters":8800,"station_id":"ce4bhr12rcd13ifvqhqg","pricing_plan_id":"cebpf4jnsgd1na2vs0mg"},{"bike_id":"f6ea66d9-a120-487c-a0ab-bdad67c4b5bb","system_id":"levelo_inurba_marseille","lat":43.217463,"lon":5.346021,"is_reserved":false,"is_disabled":false,"rental_uris":{"android":"levelo://app?vid=f6ea66d9-a120-487c-a0ab-bdad67c4b5bb","ios":"levelo://app?vid=f6ea66d9-a120-487c-a0ab-bdad67c4b5bb"},"vehicle_type_id":"4","last_reported":1750975803,"current_range_meters":8800,"station_id":"st_cvj6r9ubvosntc0bgbag","pricing_plan_id":"cebpf4jnsgd1na2vs0mg"},{"bike_id":"9ea5f347-6ebf-42c3-93f4-45f1951dd202","system_id":"levelo_inurba_marseille","lat":43.29275,"lon":5.40121,"is_reserved":false,"is_disabled":false,"rental_uris":{"android":"levelo://app?vid=9ea5f347-6ebf-42c3-93f4-45f1951dd202","ios":"levelo://app?vid=9ea5f347-6ebf-42c3-93f4-45f1951dd202"},"vehicle_type_id":"4","last_reported":1750975803,"current_range_meters":9200,"station_id":"ce4bh312rcd13ifvqdk0","pricing_plan_id":"cebpf4jnsgd1na2vs0mg"},{"bike_id":"c018f877-1625-472a-8bbd-b1689be0efa5","system_id":"levelo_inurba_marseille","lat":43.299591,"lon":5.385001,"is_reserved":false,"is_disabled":false,"rental_uris":{"android":"levelo://app?vid=c018f877-1625-472a-8bbd-b1689be0efa5","ios":"levelo://app?vid=c018f877-1625-472a-8bbd-b1689be0efa5"},"vehicle_type_id":"4","last_reported":1750975803,"current_range_meters":9600,"station_id":"ce4bgj92rcd13ifvqbd0","pricing_plan_id":"cebpf4jnsgd1na2vs0mg"},{"bike_id":"dbb96a66-e756-42d9-8b8f-fdcb2c747ae1","system_id":"levelo_inurba_marseille","lat":43.30435,"lon":5.39753,"is_reserved":false,"is_disabled":false,"rental_uris":{"android":"levelo://app?vid=dbb96a66-e756-42d9-8b8f-fdcb2c747ae1","ios":"levelo://app?vid=dbb96a66-e756-42d9-8b8f-fdcb2c747ae1"},"vehicle_type_id":"4","last_reported":1750975803,"current_range_meters":9600,"station_id":"ce4bh092rcd13ifvqd20","pricing_plan_id":"cebpf4jnsgd1na2vs0mg"},{"bike_id":"6a5feed6-e7c6-470a-848e-31c37bcd07b3","system_id":"levelo_inurba_marseille","lat":43.29869,"lon":5.39744,"is_reserved":false,"is_disabled":false,"rental_uris":{"android":"levelo://app?vid=6a5feed6-e7c6-470a-848e-31c37bcd07b3","ios":"levelo://app?vid=6a5feed6-e7c6-470a-848e-31c37bcd07b3"},"vehicle_type_id":"4","last_reported":1750975803,"current_range_meters":9600,"station_id":"ce4bh0h2rcd13ifvqd50","pricing_plan_id":"cebpf4jnsgd1na2vs0mg"},{"bike_id":"0b4c91da-77a5-4784-bad4-0e3754270e1d","system_id":"levelo_inurba_marseille","lat":43.29205,"lon":5.39333,"is_reserved":false,"is_disabled":false,"rental_uris":{"android":"levelo://app?vid=0b4c91da-77a5-4784-bad4-0e3754270e1d","ios":"levelo://app?vid=0b4c91da-77a5-4784-bad4-0e3754270e1d"},"vehicle_type_id":"4","last_reported":1750975803,"current_range_meters":9600,"station_id":"ce4bh192rcd13ifvqdd0","pricing_plan_id":"cebpf4jnsgd1na2vs0mg"},{"bike_id":"a9d25cad-d480-4c75-aec5-3969f1a4e6c7","system_id":"levelo_inurba_marseille","lat":43.33043,"lon":5.39061,"is_reserved":false,"is_disabled":false,"rental_uris":{"android":"levelo://app?vid=a9d25cad-d480-4c75-aec5-3969f1a4e6c7","ios":"levelo://app?vid=a9d25cad-d480-4c75-aec5-3969f1a4e6c7"},"vehicle_type_id":"4","last_reported":1750975803,"current_range_meters":9600,"station_id":"ce4bhr92rcd13ifvqhrg","pricing_plan_id":"cebpf4jnsgd1na2vs0mg"},{"bike_id":"f47876d7-9c85-474e-92c5-7a242e08b67c","system_id":"levelo_inurba_marseille","lat":43.30555,"lon":5.3755,"is_reserved":false,"is_disabled":false,"rental_uris":{"android":"levelo://app?vid=f47876d7-9c85-474e-92c5-7a242e08b67c","ios":"levelo://app?vid=f47876d7-9c85-474e-92c5-7a242e08b67c"},"vehicle_type_id":"4","last_reported":1750975803,"current_range_meters":10000,"station_id":"","pricing_plan_id":"cebpf4jnsgd1na2vs0mg"},{"bike_id":"ec123c85-d977-41c3-838d-bc32fbba5849","system_id":"levelo_inurba_marseille","lat":43.29971,"lon":5.38506,"is_reserved":false,"is_disabled":false,"rental_uris":{"android":"levelo://app?vid=ec123c85-d977-41c3-838d-bc32fbba5849","ios":"levelo://app?vid=ec123c85-d977-41c3-838d-bc32fbba5849"},"vehicle_type_id":"4","last_reported":1750975803,"current_range_meters":10000,"station_id":"ce4bgj92rcd13ifvqbd0","pricing_plan_id":"cebpf4jnsgd1na2vs0mg"},{"bike_id":"b6843e54-00ab-457d-8a35-7caeb1492fb0","system_id":"levelo_inurba_marseille","lat":43.29906,"lon":5.37496,"is_reserved":false,"is_disabled":false,"rental_uris":{"android":"levelo://app?vid=b6843e54-00ab-457d-8a35-7caeb1492fb0","ios":"levelo://app?vid=b6843e54-00ab-457d-8a35-7caeb1492fb0"},"vehicle_type_id":"4","last_reported":1750975803,"current_range_meters":10000,"station_id":"ce4bgjh2rcd13ifvqbg0","pricing_plan_id":"cebpf4jnsgd1na2vs0mg"},{"bike_id":"6634971f-3528-4c98-aab7-cdff14d37a4f","system_id":"levelo_inurba_marseille","lat":43.30881,"lon":5.37183,"is_reserved":false,"is_disabled":false,"rental_uris":{"android":"levelo://app?vid=6634971f-3528-4c98-aab7-cdff14d37a4f","ios":"levelo://app?vid=6634971f-3528-4c98-aab7-cdff14d37a4f"},"vehicle_type_id":"4","last_reported":1750975803,"current_range_meters":10000,"station_id":"ce4bguh2rcd13ifvqckg","pricing_plan_id":"cebpf4jnsgd1na2vs0mg"},{"bike_id":"4edbee88-c893-4693-9e88-2a0cf4418998","system_id":"levelo_inurba_marseille","lat":43.3117,"lon":5.38719,"is_reserved":false,"is_disabled":false,"rental_uris":{"android":"levelo://app?vid=4edbee88-c893-4693-9e88-2a0cf4418998","ios":"levelo://app?vid=4edbee88-c893-4693-9e88-2a0cf4418998"},"vehicle_type_id":"4","last_reported":1750975803,"current_range_meters":10000,"station_id":"ce4bgv12rcd13ifvqcp0","pricing_plan_id":"cebpf4jnsgd1na2vs0mg"},{"bike_id":"fe5b36f3-4c97-4152-a332-471aaa463f50","system_id":"levelo_inurba_marseille","lat":43.28565,"lon":5.39499,"is_reserved":false,"is_disabled":false,"rental_uris":{"android":"levelo://app?vid=fe5b36f3-4c97-4152-a332-471aaa463f50","ios":"levelo://app?vid=fe5b36f3-4c97-4152-a332-471aaa463f50"},"vehicle_type_id":"4","last_reported":1750975803,"current_range_meters":10000,"station_id":"ce4bh292rcd13ifvqdg0","pricing_plan_id":"cebpf4jnsgd1na2vs0mg"},{"bike_id":"b9cecf20-a045-4072-97d1-3cff68695400","system_id":"levelo_inurba_marseille","lat":43.240631,"lon":5.377655,"is_reserved":false,"is_disabled":false,"rental_uris":{"android":"levelo://app?vid=b9cecf20-a045-4072-97d1-3cff68695400","ios":"levelo://app?vid=b9cecf20-a045-4072-97d1-3cff68695400"},"vehicle_type_id":"4","last_reported":1750975803,"current_range_meters":10000,"station_id":"ce4bhnp2rcd13ifvqgvg","pricing_plan_id":"cebpf4jnsgd1na2vs0mg"},{"bike_id":"d8d52743-e308-4447-9b7c-7c3289fffa70","system_id":"levelo_inurba_marseille","lat":43.31536,"lon":5.3804,"is_reserved":false,"is_disabled":false,"rental_uris":{"android":"levelo://app?vid=d8d52743-e308-4447-9b7c-7c3289fffa70","ios":"levelo://app?vid=d8d52743-e308-4447-9b7c-7c3289fffa70"},"vehicle_type_id":"4","last_reported":1750975803,"current_range_meters":10000,"station_id":"ce4bhsp2rcd13ifvqi50","pricing_plan_id":"cebpf4jnsgd1na2vs0mg"},{"bike_id":"f5b5dd12-7b47-4a89-bf2e-615cdb78bc34","system_id":"levelo_inurba_marseille","lat":43.287,"lon":5.39994,"is_reserved":false,"is_disabled":false,"rental_uris":{"android":"levelo://app?vid=f5b5dd12-7b47-4a89-bf2e-615cdb78bc34","ios":"levelo://app?vid=f5b5dd12-7b47-4a89-bf2e-615cdb78bc34"},"vehicle_type_id":"4","last_reported":1750975803,"current_range_meters":10800,"station_id":"","pricing_plan_id":"cebpf4jnsgd1na2vs0mg"},{"bike_id":"20244428-87c8-439c-93d6-1cb4ab0cd202","system_id":"levelo_inurba_marseille","lat":43.297882,"lon":5.380848,"is_reserved":false,"is_disabled":false,"rental_uris":{"android":"levelo://app?vid=20244428-87c8-439c-93d6-1cb4ab0cd202","ios":"levelo://app?vid=20244428-87c8-439c-93d6-1cb4ab0cd202"},"vehicle_type_id":"4","last_reported":1750975803,"current_range_meters":10800,"station_id":"ce4bgip2rcd13ifvqbb0","pricing_plan_id":"cebpf4jnsgd1na2vs0mg"},{"bike_id":"799a9248-8856-411f-a19f-7273928ce133","system_id":"levelo_inurba_marseille","lat":43.30153,"lon":5.3742,"is_reserved":false,"is_disabled":false,"rental_uris":{"android":"levelo://app?vid=799a9248-8856-411f-a19f-7273928ce133","ios":"levelo://app?vid=799a9248-8856-411f-a19f-7273928ce133"},"vehicle_type_id":"4","last_reported":1750975803,"current_range_meters":10800,"station_id":"ce4bgs92rcd13ifvqcc0","pricing_plan_id":"cebpf4jnsgd1na2vs0mg"},{"bike_id":"2a1b6331-d27f-4c02-917e-0c21dda0fde8","system_id":"levelo_inurba_marseille","lat":43.307995,"lon":5.381639,"is_reserved":false,"is_disabled":false,"rental_uris":{"android":"levelo://app?vid=2a1b6331-d27f-4c02-917e-0c21dda0fde8","ios":"levelo://app?vid=2a1b6331-d27f-4c02-917e-0c21dda0fde8"},"vehicle_type_id":"4","last_reported":1750975803,"current_range_meters":10800,"station_id":"ce4bgt12rcd13ifvqce0","pricing_plan_id":"cebpf4jnsgd1na2vs0mg"},{"bike_id":"84cbc78c-464a-4826-a662-a254a051373d","system_id":"levelo_inurba_marseille","lat":43.28438,"lon":5.39196,"is_reserved":false,"is_disabled":false,"rental_uris":{"android":"levelo://app?vid=84cbc78c-464a-4826-a662-a254a051373d","ios":"levelo://app?vid=84cbc78c-464a-4826-a662-a254a051373d"},"vehicle_type_id":"4","last_reported":1750975803,"current_range_meters":10800,"station_id":"ce4bhoh2rcd13ifvqh5g","pricing_plan_id":"cebpf4jnsgd1na2vs0mg"},{"bike_id":"b2f65b77-6c4d-463a-b12d-03ec0ed31397","system_id":"levelo_inurba_marseille","lat":43.21733,"lon":5.34627,"is_reserved":false,"is_disabled":false,"rental_uris":{"android":"levelo://app?vid=b2f65b77-6c4d-463a-b12d-03ec0ed31397","ios":"levelo://app?vid=b2f65b77-6c4d-463a-b12d-03ec0ed31397"},"vehicle_type_id":"4","last_reported":1750975803,"current_range_meters":10800,"station_id":"st_cvj6r9ubvosntc0bgbag","pricing_plan_id":"cebpf4jnsgd1na2vs0mg"},{"bike_id":"69a9b7bf-69b2-47a2-8bc4-bb00821e8199","system_id":"levelo_inurba_marseille","lat":43.21187,"lon":5.350714,"is_reserved":false,"is_disabled":false,"rental_uris":{"android":"levelo://app?vid=69a9b7bf-69b2-47a2-8bc4-bb00821e8199","ios":"levelo://app?vid=69a9b7bf-69b2-47a2-8bc4-bb00821e8199"},"vehicle_type_id":"4","last_reported":1750975803,"current_range_meters":10800,"station_id":"st_cvj6sg6p6f1abm77japg","pricing_plan_id":"cebpf4jnsgd1na2vs0mg"},{"bike_id":"853079a9-0ebd-4082-a8d5-b6193dad2603","system_id":"levelo_inurba_marseille","lat":43.251079,"lon":5.403205,"is_reserved":false,"is_disabled":false,"rental_uris":{"android":"levelo://app?vid=853079a9-0ebd-4082-a8d5-b6193dad2603","ios":"levelo://app?vid=853079a9-0ebd-4082-a8d5-b6193dad2603"},"vehicle_type_id":"4","last_reported":1750975803,"current_range_meters":11200,"station_id":"","pricing_plan_id":"cebpf4jnsgd1na2vs0mg"},{"bike_id":"94e84186-d780-461a-b647-8d1cf3f036ad","system_id":"levelo_inurba_marseille","lat":43.31707,"lon":5.37777,"is_reserved":false,"is_disabled":false,"rental_uris":{"android":"levelo://app?vid=94e84186-d780-461a-b647-8d1cf3f036ad","ios":"levelo://app?vid=94e84186-d780-461a-b647-8d1cf3f036ad"},"vehicle_type_id":"4","last_reported":1750975803,"current_range_meters":11200,"station_id":"ce4bgth2rcd13ifvqch0","pricing_plan_id":"cebpf4jnsgd1na2vs0mg"},{"bike_id":"9a333930-ad02-43be-b131-a3d57109bc12","system_id":"levelo_inurba_marseille","lat":43.30884,"lon":5.39637,"is_reserved":false,"is_disabled":false,"rental_uris":{"android":"levelo://app?vid=9a333930-ad02-43be-b131-a3d57109bc12","ios":"levelo://app?vid=9a333930-ad02-43be-b131-a3d57109bc12"},"vehicle_type_id":"4","last_reported":1750975803,"current_range_meters":11200,"station_id":"ce4bh012rcd13ifvqcv0","pricing_plan_id":"cebpf4jnsgd1na2vs0mg"},{"bike_id":"dbbda218-da6f-4c4d-8cf9-8f643bf219fc","system_id":"levelo_inurba_marseille","lat":43.3361,"lon":5.41036,"is_reserved":false,"is_disabled":false,"rental_uris":{"android":"levelo://app?vid=dbbda218-da6f-4c4d-8cf9-8f643bf219fc","ios":"levelo://app?vid=dbbda218-da6f-4c4d-8cf9-8f643bf219fc"},"vehicle_type_id":"4","last_reported":1750975803,"current_range_meters":11200,"station_id":"ce4bhqh2rcd13ifvqhmg","pricing_plan_id":"cebpf4jnsgd1na2vs0mg"},{"bike_id":"b4f2b905-6273-4161-bdfd-356e8f69d331","system_id":"levelo_inurba_marseille","lat":43.30542,"lon":5.384325,"is_reserved":false,"is_disabled":false,"rental_uris":{"android":"levelo://app?vid=b4f2b905-6273-4161-bdfd-356e8f69d331","ios":"levelo://app?vid=b4f2b905-6273-4161-bdfd-356e8f69d331"},"vehicle_type_id":"4","last_reported":1750975803,"current_range_meters":11600,"station_id":"ce4bgg92rcd13ifvqb30","pricing_plan_id":"cebpf4jnsgd1na2vs0mg"},{"bike_id":"1c4f4d93-3352-4cc5-a14c-5609809dd41a","system_id":"levelo_inurba_marseille","lat":43.30878,"lon":5.39656,"is_reserved":false,"is_disabled":false,"rental_uris":{"android":"levelo://app?vid=1c4f4d93-3352-4cc5-a14c-5609809dd41a","ios":"levelo://app?vid=1c4f4d93-3352-4cc5-a14c-5609809dd41a"},"vehicle_type_id":"4","last_reported":1750975803,"current_range_meters":11600,"station_id":"ce4bh012rcd13ifvqcv0","pricing_plan_id":"cebpf4jnsgd1na2vs0mg"},{"bike_id":"76b4d2e2-9a89-4dec-862c-5d14d357bcc9","system_id":"levelo_inurba_marseille","lat":43.30418,"lon":5.39754,"is_reserved":false,"is_disabled":false,"rental_uris":{"android":"levelo://app?vid=76b4d2e2-9a89-4dec-862c-5d14d357bcc9","ios":"levelo://app?vid=76b4d2e2-9a89-4dec-862c-5d14d357bcc9"},"vehicle_type_id":"4","last_reported":1750975803,"current_range_meters":11600,"station_id":"ce4bh092rcd13ifvqd20","pricing_plan_id":"cebpf4jnsgd1na2vs0mg"},{"bike_id":"2e65a576-1d0e-461d-8cc8-4216b1c05967","system_id":"levelo_inurba_marseille","lat":43.28464,"lon":5.35898,"is_reserved":false,"is_disabled":false,"rental_uris":{"android":"levelo://app?vid=2e65a576-1d0e-461d-8cc8-4216b1c05967","ios":"levelo://app?vid=2e65a576-1d0e-461d-8cc8-4216b1c05967"},"vehicle_type_id":"4","last_reported":1750975803,"current_range_meters":11600,"station_id":"ce4bhah2rcd13ifvqei0","pricing_plan_id":"cebpf4jnsgd1na2vs0mg"},{"bike_id":"3dc422a6-4645-45b7-8187-51bd0295d37e","system_id":"levelo_inurba_marseille","lat":43.25008,"lon":5.38924,"is_reserved":false,"is_disabled":false,"rental_uris":{"android":"levelo://app?vid=3dc422a6-4645-45b7-8187-51bd0295d37e","ios":"levelo://app?vid=3dc422a6-4645-45b7-8187-51bd0295d37e"},"vehicle_type_id":"4","last_reported":1750975803,"current_range_meters":11600,"station_id":"ce4bhgp2rcd13ifvqfd0","pricing_plan_id":"cebpf4jnsgd1na2vs0mg"},{"bike_id":"eebc8c04-6388-4bf2-a909-67fcaf1982c1","system_id":"levelo_inurba_marseille","lat":43.27999,"lon":5.40016,"is_reserved":false,"is_disabled":false,"rental_uris":{"android":"levelo://app?vid=eebc8c04-6388-4bf2-a909-67fcaf1982c1","ios":"levelo://app?vid=eebc8c04-6388-4bf2-a909-67fcaf1982c1"},"vehicle_type_id":"4","last_reported":1750975803,"current_range_meters":11600,"station_id":"ce4bho92rcd13ifvqh4g","pricing_plan_id":"cebpf4jnsgd1na2vs0mg"},{"bike_id":"ffcd8813-36b8-43e0-a09c-be564129c646","system_id":"levelo_inurba_marseille","lat":43.31995,"lon":5.38157,"is_reserved":false,"is_disabled":false,"rental_uris":{"android":"levelo://app?vid=ffcd8813-36b8-43e0-a09c-be564129c646","ios":"levelo://app?vid=ffcd8813-36b8-43e0-a09c-be564129c646"},"vehicle_type_id":"4","last_reported":1750975803,"current_range_meters":11600,"station_id":"ce4bhr12rcd13ifvqhpg","pricing_plan_id":"cebpf4jnsgd1na2vs0mg"},{"bike_id":"f15a2dd8-3329-4647-87f1-16eee51cf672","system_id":"levelo_inurba_marseille","lat":43.30559,"lon":5.38442,"is_reserved":false,"is_disabled":false,"rental_uris":{"android":"levelo://app?vid=f15a2dd8-3329-4647-87f1-16eee51cf672","ios":"levelo://app?vid=f15a2dd8-3329-4647-87f1-16eee51cf672"},"vehicle_type_id":"4","last_reported":1750975803,"current_range_meters":12000,"station_id":"ce4bgg92rcd13ifvqb30","pricing_plan_id":"cebpf4jnsgd1na2vs0mg"},{"bike_id":"55e8e1e7-3637-44b7-bf00-777709a08763","system_id":"levelo_inurba_marseille","lat":43.31173,"lon":5.38717,"is_reserved":false,"is_disabled":false,"rental_uris":{"android":"levelo://app?vid=55e8e1e7-3637-44b7-bf00-777709a08763","ios":"levelo://app?vid=55e8e1e7-3637-44b7-bf00-777709a08763"},"vehicle_type_id":"4","last_reported":1750975803,"current_range_meters":12000,"station_id":"ce4bgv12rcd13ifvqcp0","pricing_plan_id":"cebpf4jnsgd1na2vs0mg"},{"bike_id":"1369b8d0-ce4b-44f3-bf06-86f72e27ed21","system_id":"levelo_inurba_marseille","lat":43.290293,"lon":5.381542,"is_reserved":false,"is_disabled":false,"rental_uris":{"android":"levelo://app?vid=1369b8d0-ce4b-44f3-bf06-86f72e27ed21","ios":"levelo://app?vid=1369b8d0-ce4b-44f3-bf06-86f72e27ed21"},"vehicle_type_id":"4","last_reported":1750975803,"current_range_meters":12000,"station_id":"ce4bh4p2rcd13ifvqe1g","pricing_plan_id":"cebpf4jnsgd1na2vs0mg"},{"bike_id":"09ebadf7-2079-42e1-9763-4548c5a135ef","system_id":"levelo_inurba_marseille","lat":43.28455,"lon":5.35892,"is_reserved":false,"is_disabled":false,"rental_uris":{"android":"levelo://app?vid=09ebadf7-2079-42e1-9763-4548c5a135ef","ios":"levelo://app?vid=09ebadf7-2079-42e1-9763-4548c5a135ef"},"vehicle_type_id":"4","last_reported":1750975803,"current_range_meters":12000,"station_id":"ce4bhah2rcd13ifvqei0","pricing_plan_id":"cebpf4jnsgd1na2vs0mg"},{"bike_id":"4b8da722-ee9e-48a4-a5e5-3a8a10364708","system_id":"levelo_inurba_marseille","lat":43.31212,"lon":5.37834,"is_reserved":false,"is_disabled":false,"rental_uris":{"android":"levelo://app?vid=4b8da722-ee9e-48a4-a5e5-3a8a10364708","ios":"levelo://app?vid=4b8da722-ee9e-48a4-a5e5-3a8a10364708"},"vehicle_type_id":"4","last_reported":1750975803,"current_range_meters":12400,"station_id":"","pricing_plan_id":"cebpf4jnsgd1na2vs0mg"},{"bike_id":"d90c0349-7ba4-4da9-ae05-d7e06071ca94","system_id":"levelo_inurba_marseille","lat":43.3149,"lon":5.37315,"is_reserved":false,"is_disabled":false,"rental_uris":{"android":"levelo://app?vid=d90c0349-7ba4-4da9-ae05-d7e06071ca94","ios":"levelo://app?vid=d90c0349-7ba4-4da9-ae05-d7e06071ca94"},"vehicle_type_id":"4","last_reported":1750975803,"current_range_meters":12400,"station_id":"ce4bgt12rcd13ifvqcd0","pricing_plan_id":"cebpf4jnsgd1na2vs0mg"},{"bike_id":"d2541864-294e-4fa8-8ed4-da3902bb58d5","system_id":"levelo_inurba_marseille","lat":43.22907,"lon":5.35401,"is_reserved":false,"is_disabled":false,"rental_uris":{"android":"levelo://app?vid=d2541864-294e-4fa8-8ed4-da3902bb58d5","ios":"levelo://app?vid=d2541864-294e-4fa8-8ed4-da3902bb58d5"},"vehicle_type_id":"4","last_reported":1750975803,"current_range_meters":12400,"station_id":"cpo3532slgdg3j2ikp40","pricing_plan_id":"cebpf4jnsgd1na2vs0mg"},{"bike_id":"38ee6c99-ed1c-4320-bb3c-b1d717388b30","system_id":"levelo_inurba_marseille","lat":43.22962,"lon":5.35395,"is_reserved":false,"is_disabled":false,"rental_uris":{"android":"levelo://app?vid=38ee6c99-ed1c-4320-bb3c-b1d717388b30","ios":"levelo://app?vid=38ee6c99-ed1c-4320-bb3c-b1d717388b30"},"vehicle_type_id":"4","last_reported":1750975803,"current_range_meters":12400,"station_id":"cpo3532slgdg3j2ikp40","pricing_plan_id":"cebpf4jnsgd1na2vs0mg"},{"bike_id":"6e333cad-8154-4d5d-9ce4-405ad8359f75","system_id":"levelo_inurba_marseille","lat":43.22919,"lon":5.35379,"is_reserved":false,"is_disabled":false,"rental_uris":{"android":"levelo://app?vid=6e333cad-8154-4d5d-9ce4-405ad8359f75","ios":"levelo://app?vid=6e333cad-8154-4d5d-9ce4-405ad8359f75"},"vehicle_type_id":"4","last_reported":1750975803,"current_range_meters":12400,"station_id":"cpo3532slgdg3j2ikp40","pricing_plan_id":"cebpf4jnsgd1na2vs0mg"},{"bike_id":"c8e6ab1e-a41b-4246-b78a-9e20b3b7e354","system_id":"levelo_inurba_marseille","lat":43.24184,"lon":5.3654,"is_reserved":false,"is_disabled":false,"rental_uris":{"android":"levelo://app?vid=c8e6ab1e-a41b-4246-b78a-9e20b3b7e354","ios":"levelo://app?vid=c8e6ab1e-a41b-4246-b78a-9e20b3b7e354"},"vehicle_type_id":"4","last_reported":1750975803,"current_range_meters":12800,"station_id":"","pricing_plan_id":"cebpf4jnsgd1na2vs0mg"},{"bike_id":"0d0d2138-4d82-45e1-bf40-b600d19f0ec4","system_id":"levelo_inurba_marseille","lat":43.3171,"lon":5.3776,"is_reserved":false,"is_disabled":false,"rental_uris":{"android":"levelo://app?vid=0d0d2138-4d82-45e1-bf40-b600d19f0ec4","ios":"levelo://app?vid=0d0d2138-4d82-45e1-bf40-b600d19f0ec4"},"vehicle_type_id":"4","last_reported":1750975803,"current_range_meters":12800,"station_id":"ce4bgth2rcd13ifvqch0","pricing_plan_id":"cebpf4jnsgd1na2vs0mg"},{"bike_id":"90b4bb7a-641c-45b3-a42c-772f57da465a","system_id":"levelo_inurba_marseille","lat":43.30952,"lon":5.39037,"is_reserved":false,"is_disabled":false,"rental_uris":{"android":"levelo://app?vid=90b4bb7a-641c-45b3-a42c-772f57da465a","ios":"levelo://app?vid=90b4bb7a-641c-45b3-a42c-772f57da465a"},"vehicle_type_id":"4","last_reported":1750975803,"current_range_meters":12800,"station_id":"ce4bgup2rcd13ifvqco0","pricing_plan_id":"cebpf4jnsgd1na2vs0mg"},{"bike_id":"de60e805-7bd8-435a-bebf-a7fd31081690","system_id":"levelo_inurba_marseille","lat":43.26571,"lon":5.390084,"is_reserved":false,"is_disabled":false,"rental_uris":{"android":"levelo://app?vid=de60e805-7bd8-435a-bebf-a7fd31081690","ios":"levelo://app?vid=de60e805-7bd8-435a-bebf-a7fd31081690"},"vehicle_type_id":"4","last_reported":1750975803,"current_range_meters":12800,"station_id":"ce4bhlp2rcd13ifvqgjg","pricing_plan_id":"cebpf4jnsgd1na2vs0mg"},{"bike_id":"f7d79736-4357-4f32-8041-393b0ac1f906","system_id":"levelo_inurba_marseille","lat":43.30413,"lon":5.41296,"is_reserved":false,"is_disabled":false,"rental_uris":{"android":"levelo://app?vid=f7d79736-4357-4f32-8041-393b0ac1f906","ios":"levelo://app?vid=f7d79736-4357-4f32-8041-393b0ac1f906"},"vehicle_type_id":"4","last_reported":1750975803,"current_range_meters":12800,"station_id":"ce4bhop2rcd13ifvqh8g","pricing_plan_id":"cebpf4jnsgd1na2vs0mg"},{"bike_id":"a231cd08-ef90-4136-867d-bd39af44553d","system_id":"levelo_inurba_marseille","lat":43.31722,"lon":5.42407,"is_reserved":false,"is_disabled":false,"rental_uris":{"android":"levelo://app?vid=a231cd08-ef90-4136-867d-bd39af44553d","ios":"levelo://app?vid=a231cd08-ef90-4136-867d-bd39af44553d"},"vehicle_type_id":"4","last_reported":1750975803,"current_range_meters":12800,"station_id":"ce4bhp92rcd13ifvqhbg","pricing_plan_id":"cebpf4jnsgd1na2vs0mg"},{"bike_id":"a527c30b-6f51-47fa-bed5-bf11687030da","system_id":"levelo_inurba_marseille","lat":43.295754,"lon":5.399756,"is_reserved":false,"is_disabled":false,"rental_uris":{"android":"levelo://app?vid=a527c30b-6f51-47fa-bed5-bf11687030da","ios":"levelo://app?vid=a527c30b-6f51-47fa-bed5-bf11687030da"},"vehicle_type_id":"4","last_reported":1750975803,"current_range_meters":13600,"station_id":"ce4bghh2rcd13ifvqb60","pricing_plan_id":"cebpf4jnsgd1na2vs0mg"},{"bike_id":"ce348039-2683-4d38-b343-6b6d0b17ec97","system_id":"levelo_inurba_marseille","lat":43.304323,"lon":5.388958,"is_reserved":false,"is_disabled":false,"rental_uris":{"android":"levelo://app?vid=ce348039-2683-4d38-b343-6b6d0b17ec97","ios":"levelo://app?vid=ce348039-2683-4d38-b343-6b6d0b17ec97"},"vehicle_type_id":"4","last_reported":1750975803,"current_range_meters":13600,"station_id":"ce4bgk12rcd13ifvqbi0","pricing_plan_id":"cebpf4jnsgd1na2vs0mg"},{"bike_id":"9414a24b-569a-4c42-8996-c47ba043fb38","system_id":"levelo_inurba_marseille","lat":43.29256,"lon":5.40903,"is_reserved":false,"is_disabled":false,"rental_uris":{"android":"levelo://app?vid=9414a24b-569a-4c42-8996-c47ba043fb38","ios":"levelo://app?vid=9414a24b-569a-4c42-8996-c47ba043fb38"},"vehicle_type_id":"4","last_reported":1750975803,"current_range_meters":13600,"station_id":"ce4bh192rcd13ifvqdc0","pricing_plan_id":"cebpf4jnsgd1na2vs0mg"},{"bike_id":"c80cd637-3504-4e24-87fc-21a53e278e6a","system_id":"levelo_inurba_marseille","lat":43.29276,"lon":5.40117,"is_reserved":false,"is_disabled":false,"rental_uris":{"android":"levelo://app?vid=c80cd637-3504-4e24-87fc-21a53e278e6a","ios":"levelo://app?vid=c80cd637-3504-4e24-87fc-21a53e278e6a"},"vehicle_type_id":"4","last_reported":1750975803,"current_range_meters":13600,"station_id":"ce4bh312rcd13ifvqdk0","pricing_plan_id":"cebpf4jnsgd1na2vs0mg"},{"bike_id":"efaf8df1-ae87-4477-b9a3-f0dbaa68a383","system_id":"levelo_inurba_marseille","lat":43.28706,"lon":5.37385,"is_reserved":false,"is_disabled":false,"rental_uris":{"android":"levelo://app?vid=efaf8df1-ae87-4477-b9a3-f0dbaa68a383","ios":"levelo://app?vid=efaf8df1-ae87-4477-b9a3-f0dbaa68a383"},"vehicle_type_id":"4","last_reported":1750975803,"current_range_meters":13600,"station_id":"ce4bh3p2rcd13ifvqdq0","pricing_plan_id":"cebpf4jnsgd1na2vs0mg"},{"bike_id":"1c8ab180-05fd-405f-9922-b2b2c2d5142f","system_id":"levelo_inurba_marseille","lat":43.32109,"lon":5.36769,"is_reserved":false,"is_disabled":false,"rental_uris":{"android":"levelo://app?vid=1c8ab180-05fd-405f-9922-b2b2c2d5142f","ios":"levelo://app?vid=1c8ab180-05fd-405f-9922-b2b2c2d5142f"},"vehicle_type_id":"4","last_reported":1750975803,"current_range_meters":13600,"station_id":"ce4bhrh2rcd13ifvqhug","pricing_plan_id":"cebpf4jnsgd1na2vs0mg"},{"bike_id":"804b3ada-f235-4bce-8ddf-cab6d8d5c496","system_id":"levelo_inurba_marseille","lat":43.31537,"lon":5.38028,"is_reserved":false,"is_disabled":false,"rental_uris":{"android":"levelo://app?vid=804b3ada-f235-4bce-8ddf-cab6d8d5c496","ios":"levelo://app?vid=804b3ada-f235-4bce-8ddf-cab6d8d5c496"},"vehicle_type_id":"4","last_reported":1750975803,"current_range_meters":13600,"station_id":"ce4bhsp2rcd13ifvqi50","pricing_plan_id":"cebpf4jnsgd1na2vs0mg"},{"bike_id":"c65cf773-4af5-4807-915f-fef9071dede4","system_id":"levelo_inurba_marseille","lat":43.23178,"lon":5.35558,"is_reserved":false,"is_disabled":false,"rental_uris":{"android":"levelo://app?vid=c65cf773-4af5-4807-915f-fef9071dede4","ios":"levelo://app?vid=c65cf773-4af5-4807-915f-fef9071dede4"},"vehicle_type_id":"4","last_reported":1750975803,"current_range_meters":14000,"station_id":"ce4bhu92rcd13ifvqi70","pricing_plan_id":"cebpf4jnsgd1na2vs0mg"},{"bike_id":"277d6f3a-b9b5-4d88-bf0d-6c597782848e","system_id":"levelo_inurba_marseille","lat":43.23195,"lon":5.35544,"is_reserved":false,"is_disabled":false,"rental_uris":{"android":"levelo://app?vid=277d6f3a-b9b5-4d88-bf0d-6c597782848e","ios":"levelo://app?vid=277d6f3a-b9b5-4d88-bf0d-6c597782848e"},"vehicle_type_id":"4","last_reported":1750975803,"current_range_meters":14000,"station_id":"ce4bhu92rcd13ifvqi70","pricing_plan_id":"cebpf4jnsgd1na2vs0mg"},{"bike_id":"ab875138-c754-4b3b-82d7-2da5a11b45cf","system_id":"levelo_inurba_marseille","lat":43.21738,"lon":5.34605,"is_reserved":false,"is_disabled":false,"rental_uris":{"android":"levelo://app?vid=ab875138-c754-4b3b-82d7-2da5a11b45cf","ios":"levelo://app?vid=ab875138-c754-4b3b-82d7-2da5a11b45cf"},"vehicle_type_id":"4","last_reported":1750975803,"current_range_meters":14400,"station_id":"st_cvj6r9ubvosntc0bgbag","pricing_plan_id":"cebpf4jnsgd1na2vs0mg"},{"bike_id":"4d1414bd-18df-4abc-a6da-667739c889f2","system_id":"levelo_inurba_marseille","lat":43.29595,"lon":5.38111,"is_reserved":false,"is_disabled":false,"rental_uris":{"android":"levelo://app?vid=4d1414bd-18df-4abc-a6da-667739c889f2","ios":"levelo://app?vid=4d1414bd-18df-4abc-a6da-667739c889f2"},"vehicle_type_id":"4","last_reported":1750975803,"current_range_meters":14800,"station_id":"ce4bgl12rcd13ifvqbo0","pricing_plan_id":"cebpf4jnsgd1na2vs0mg"},{"bike_id":"065171bb-9a87-4ffe-a2e4-e33c00112538","system_id":"levelo_inurba_marseille","lat":43.298431,"lon":5.372397,"is_reserved":false,"is_disabled":false,"rental_uris":{"android":"levelo://app?vid=065171bb-9a87-4ffe-a2e4-e33c00112538","ios":"levelo://app?vid=065171bb-9a87-4ffe-a2e4-e33c00112538"},"vehicle_type_id":"4","last_reported":1750975803,"current_range_meters":14800,"station_id":"ce4bgr92rcd13ifvqc7g","pricing_plan_id":"cebpf4jnsgd1na2vs0mg"},{"bike_id":"f4b94c45-7091-401c-8f54-f05d8872c9bb","system_id":"levelo_inurba_marseille","lat":43.3086,"lon":5.3965,"is_reserved":false,"is_disabled":false,"rental_uris":{"android":"levelo://app?vid=f4b94c45-7091-401c-8f54-f05d8872c9bb","ios":"levelo://app?vid=f4b94c45-7091-401c-8f54-f05d8872c9bb"},"vehicle_type_id":"4","last_reported":1750975803,"current_range_meters":14800,"station_id":"ce4bh012rcd13ifvqcv0","pricing_plan_id":"cebpf4jnsgd1na2vs0mg"},{"bike_id":"a4fe7d57-68f8-4aa1-a44c-5a87c5443e86","system_id":"levelo_inurba_marseille","lat":43.28844,"lon":5.39311,"is_reserved":false,"is_disabled":false,"rental_uris":{"android":"levelo://app?vid=a4fe7d57-68f8-4aa1-a44c-5a87c5443e86","ios":"levelo://app?vid=a4fe7d57-68f8-4aa1-a44c-5a87c5443e86"},"vehicle_type_id":"4","last_reported":1750975803,"current_range_meters":14800,"station_id":"ce4bh2p2rcd13ifvqdi0","pricing_plan_id":"cebpf4jnsgd1na2vs0mg"},{"bike_id":"48f8163e-5279-44fe-9bb8-bd9c94f993bd","system_id":"levelo_inurba_marseille","lat":43.25584,"lon":5.38236,"is_reserved":false,"is_disabled":false,"rental_uris":{"android":"levelo://app?vid=48f8163e-5279-44fe-9bb8-bd9c94f993bd","ios":"levelo://app?vid=48f8163e-5279-44fe-9bb8-bd9c94f993bd"},"vehicle_type_id":"4","last_reported":1750975803,"current_range_meters":14800,"station_id":"ce4bhih2rcd13ifvqfs0","pricing_plan_id":"cebpf4jnsgd1na2vs0mg"},{"bike_id":"eb959757-79ce-4d33-83c3-263d56529785","system_id":"levelo_inurba_marseille","lat":43.31887,"lon":5.40738,"is_reserved":false,"is_disabled":false,"rental_uris":{"android":"levelo://app?vid=eb959757-79ce-4d33-83c3-263d56529785","ios":"levelo://app?vid=eb959757-79ce-4d33-83c3-263d56529785"},"vehicle_type_id":"4","last_reported":1750975803,"current_range_meters":14800,"station_id":"ce4bhq12rcd13ifvqhig","pricing_plan_id":"cebpf4jnsgd1na2vs0mg"},{"bike_id":"f2d0e331-585c-48b2-8d6b-30536918be7a","system_id":"levelo_inurba_marseille","lat":43.28877,"lon":5.36093,"is_reserved":false,"is_disabled":false,"rental_uris":{"android":"levelo://app?vid=f2d0e331-585c-48b2-8d6b-30536918be7a","ios":"levelo://app?vid=f2d0e331-585c-48b2-8d6b-30536918be7a"},"vehicle_type_id":"4","last_reported":1750975803,"current_range_meters":15200,"station_id":"","pricing_plan_id":"cebpf4jnsgd1na2vs0mg"},{"bike_id":"a440f2f6-8cf8-4348-9ba1-e21002a18a07","system_id":"levelo_inurba_marseille","lat":43.32112,"lon":5.36773,"is_reserved":false,"is_disabled":false,"rental_uris":{"android":"levelo://app?vid=a440f2f6-8cf8-4348-9ba1-e21002a18a07","ios":"levelo://app?vid=a440f2f6-8cf8-4348-9ba1-e21002a18a07"},"vehicle_type_id":"4","last_reported":1750975803,"current_range_meters":15200,"station_id":"ce4bhrh2rcd13ifvqhug","pricing_plan_id":"cebpf4jnsgd1na2vs0mg"},{"bike_id":"348936c8-7c8d-4b8a-988e-b0a979920804","system_id":"levelo_inurba_marseille","lat":43.21185,"lon":5.35082,"is_reserved":false,"is_disabled":false,"rental_uris":{"android":"levelo://app?vid=348936c8-7c8d-4b8a-988e-b0a979920804","ios":"levelo://app?vid=348936c8-7c8d-4b8a-988e-b0a979920804"},"vehicle_type_id":"4","last_reported":1750975803,"current_range_meters":15200,"station_id":"st_cvj6sg6p6f1abm77japg","pricing_plan_id":"cebpf4jnsgd1na2vs0mg"},{"bike_id":"6f923103-95c7-4178-9a7f-07111b96b1be","system_id":"levelo_inurba_marseille","lat":43.29191,"lon":5.40081,"is_reserved":false,"is_disabled":false,"rental_uris":{"android":"levelo://app?vid=6f923103-95c7-4178-9a7f-07111b96b1be","ios":"levelo://app?vid=6f923103-95c7-4178-9a7f-07111b96b1be"},"vehicle_type_id":"4","last_reported":1750975803,"current_range_meters":16000,"station_id":"","pricing_plan_id":"cebpf4jnsgd1na2vs0mg"},{"bike_id":"b6ab7f5e-0c8c-4f38-8961-e2a86166f305","system_id":"levelo_inurba_marseille","lat":43.286695,"lon":5.363481,"is_reserved":false,"is_disabled":false,"rental_uris":{"android":"levelo://app?vid=b6ab7f5e-0c8c-4f38-8961-e2a86166f305","ios":"levelo://app?vid=b6ab7f5e-0c8c-4f38-8961-e2a86166f305"},"vehicle_type_id":"4","last_reported":1750975803,"current_range_meters":16000,"station_id":"ce4bhah2rcd13ifvqej0","pricing_plan_id":"cebpf4jnsgd1na2vs0mg"},{"bike_id":"4e4cb10a-0644-44da-926e-3ac909c9b9bb","system_id":"levelo_inurba_marseille","lat":43.25115,"lon":5.40339,"is_reserved":false,"is_disabled":false,"rental_uris":{"android":"levelo://app?vid=4e4cb10a-0644-44da-926e-3ac909c9b9bb","ios":"levelo://app?vid=4e4cb10a-0644-44da-926e-3ac909c9b9bb"},"vehicle_type_id":"4","last_reported":1750975803,"current_range_meters":16000,"station_id":"ce4bhlh2rcd13ifvqgig","pricing_plan_id":"cebpf4jnsgd1na2vs0mg"},{"bike_id":"415f7382-f2b8-467c-a70e-e22e4c99b6f8","system_id":"levelo_inurba_marseille","lat":43.24083,"lon":5.37748,"is_reserved":false,"is_disabled":false,"rental_uris":{"android":"levelo://app?vid=415f7382-f2b8-467c-a70e-e22e4c99b6f8","ios":"levelo://app?vid=415f7382-f2b8-467c-a70e-e22e4c99b6f8"},"vehicle_type_id":"4","last_reported":1750975803,"current_range_meters":16000,"station_id":"ce4bhnp2rcd13ifvqgvg","pricing_plan_id":"cebpf4jnsgd1na2vs0mg"},{"bike_id":"b8954a9f-7ce8-456c-a0b7-ca33c9473361","system_id":"levelo_inurba_marseille","lat":43.32002,"lon":5.38151,"is_reserved":false,"is_disabled":false,"rental_uris":{"android":"levelo://app?vid=b8954a9f-7ce8-456c-a0b7-ca33c9473361","ios":"levelo://app?vid=b8954a9f-7ce8-456c-a0b7-ca33c9473361"},"vehicle_type_id":"4","last_reported":1750975803,"current_range_meters":16000,"station_id":"ce4bhr12rcd13ifvqhpg","pricing_plan_id":"cebpf4jnsgd1na2vs0mg"},{"bike_id":"d04a093c-8750-480a-bce7-26367429ac47","system_id":"levelo_inurba_marseille","lat":43.31534,"lon":5.38024,"is_reserved":false,"is_disabled":false,"rental_uris":{"android":"levelo://app?vid=d04a093c-8750-480a-bce7-26367429ac47","ios":"levelo://app?vid=d04a093c-8750-480a-bce7-26367429ac47"},"vehicle_type_id":"4","last_reported":1750975803,"current_range_meters":16000,"station_id":"ce4bhsp2rcd13ifvqi50","pricing_plan_id":"cebpf4jnsgd1na2vs0mg"},{"bike_id":"23bbf6f5-3303-4a8a-81da-20b5be420bc5","system_id":"levelo_inurba_marseille","lat":43.28204,"lon":5.39075,"is_reserved":false,"is_disabled":false,"rental_uris":{"android":"levelo://app?vid=23bbf6f5-3303-4a8a-81da-20b5be420bc5","ios":"levelo://app?vid=23bbf6f5-3303-4a8a-81da-20b5be420bc5"},"vehicle_type_id":"4","last_reported":1750975803,"current_range_meters":16400,"station_id":"","pricing_plan_id":"cebpf4jnsgd1na2vs0mg"},{"bike_id":"13112a4c-1270-4197-b3ab-4267f9147d4a","system_id":"levelo_inurba_marseille","lat":43.280651,"lon":5.421112,"is_reserved":false,"is_disabled":false,"rental_uris":{"android":"levelo://app?vid=13112a4c-1270-4197-b3ab-4267f9147d4a","ios":"levelo://app?vid=13112a4c-1270-4197-b3ab-4267f9147d4a"},"vehicle_type_id":"4","last_reported":1750975803,"current_range_meters":16400,"station_id":"","pricing_plan_id":"cebpf4jnsgd1na2vs0mg"},{"bike_id":"682141d1-75d6-4c6a-8ef5-a4a71ea61b17","system_id":"levelo_inurba_marseille","lat":43.330231,"lon":5.390371,"is_reserved":false,"is_disabled":false,"rental_uris":{"android":"levelo://app?vid=682141d1-75d6-4c6a-8ef5-a4a71ea61b17","ios":"levelo://app?vid=682141d1-75d6-4c6a-8ef5-a4a71ea61b17"},"vehicle_type_id":"4","last_reported":1750975803,"current_range_meters":16400,"station_id":"ce4bhr92rcd13ifvqhrg","pricing_plan_id":"cebpf4jnsgd1na2vs0mg"},{"bike_id":"5a01ae6d-9064-484c-8d77-2d9e141e2313","system_id":"levelo_inurba_marseille","lat":43.24487,"lon":5.39009,"is_reserved":false,"is_disabled":false,"rental_uris":{"android":"levelo://app?vid=5a01ae6d-9064-484c-8d77-2d9e141e2313","ios":"levelo://app?vid=5a01ae6d-9064-484c-8d77-2d9e141e2313"},"vehicle_type_id":"4","last_reported":1750975803,"current_range_meters":16800,"station_id":"","pricing_plan_id":"cebpf4jnsgd1na2vs0mg"},{"bike_id":"4680b3e2-9e9c-40d4-8e0d-f060fdcf1d41","system_id":"levelo_inurba_marseille","lat":43.30147,"lon":5.37413,"is_reserved":false,"is_disabled":false,"rental_uris":{"android":"levelo://app?vid=4680b3e2-9e9c-40d4-8e0d-f060fdcf1d41","ios":"levelo://app?vid=4680b3e2-9e9c-40d4-8e0d-f060fdcf1d41"},"vehicle_type_id":"4","last_reported":1750975803,"current_range_meters":16800,"station_id":"ce4bgs92rcd13ifvqcc0","pricing_plan_id":"cebpf4jnsgd1na2vs0mg"},{"bike_id":"78727748-7263-4e99-b999-f5b850448234","system_id":"levelo_inurba_marseille","lat":43.28568,"lon":5.39493,"is_reserved":false,"is_disabled":false,"rental_uris":{"android":"levelo://app?vid=78727748-7263-4e99-b999-f5b850448234","ios":"levelo://app?vid=78727748-7263-4e99-b999-f5b850448234"},"vehicle_type_id":"4","last_reported":1750975803,"current_range_meters":16800,"station_id":"ce4bh292rcd13ifvqdg0","pricing_plan_id":"cebpf4jnsgd1na2vs0mg"},{"bike_id":"e844ad77-829b-4b6d-ac7a-4c9e9d4f0c50","system_id":"levelo_inurba_marseille","lat":43.27373,"lon":5.36258,"is_reserved":false,"is_disabled":false,"rental_uris":{"android":"levelo://app?vid=e844ad77-829b-4b6d-ac7a-4c9e9d4f0c50","ios":"levelo://app?vid=e844ad77-829b-4b6d-ac7a-4c9e9d4f0c50"},"vehicle_type_id":"4","last_reported":1750975803,"current_range_meters":16800,"station_id":"ce4bhbh2rcd13ifvqeo0","pricing_plan_id":"cebpf4jnsgd1na2vs0mg"},{"bike_id":"fc26487b-389d-4724-86f3-d11623db6c78","system_id":"levelo_inurba_marseille","lat":43.335979,"lon":5.410044,"is_reserved":false,"is_disabled":false,"rental_uris":{"android":"levelo://app?vid=fc26487b-389d-4724-86f3-d11623db6c78","ios":"levelo://app?vid=fc26487b-389d-4724-86f3-d11623db6c78"},"vehicle_type_id":"4","last_reported":1750975803,"current_range_meters":16800,"station_id":"ce4bhqh2rcd13ifvqhmg","pricing_plan_id":"cebpf4jnsgd1na2vs0mg"},{"bike_id":"c7095e65-72e6-4907-9ffb-bdd6027da7f5","system_id":"levelo_inurba_marseille","lat":43.3043,"lon":5.39758,"is_reserved":false,"is_disabled":false,"rental_uris":{"android":"levelo://app?vid=c7095e65-72e6-4907-9ffb-bdd6027da7f5","ios":"levelo://app?vid=c7095e65-72e6-4907-9ffb-bdd6027da7f5"},"vehicle_type_id":"4","last_reported":1750975803,"current_range_meters":17200,"station_id":"ce4bh092rcd13ifvqd20","pricing_plan_id":"cebpf4jnsgd1na2vs0mg"},{"bike_id":"e557aa8a-7b2f-4b5f-87a5-63b37037e12f","system_id":"levelo_inurba_marseille","lat":43.29259,"lon":5.40913,"is_reserved":false,"is_disabled":false,"rental_uris":{"android":"levelo://app?vid=e557aa8a-7b2f-4b5f-87a5-63b37037e12f","ios":"levelo://app?vid=e557aa8a-7b2f-4b5f-87a5-63b37037e12f"},"vehicle_type_id":"4","last_reported":1750975803,"current_range_meters":17200,"station_id":"ce4bh192rcd13ifvqdc0","pricing_plan_id":"cebpf4jnsgd1na2vs0mg"},{"bike_id":"30e7e746-6af3-4f6f-bc25-3a5a8a55bbb2","system_id":"levelo_inurba_marseille","lat":43.27305,"lon":5.39081,"is_reserved":false,"is_disabled":false,"rental_uris":{"android":"levelo://app?vid=30e7e746-6af3-4f6f-bc25-3a5a8a55bbb2","ios":"levelo://app?vid=30e7e746-6af3-4f6f-bc25-3a5a8a55bbb2"},"vehicle_type_id":"4","last_reported":1750975803,"current_range_meters":17200,"station_id":"ce4bhgp2rcd13ifvqfe0","pricing_plan_id":"cebpf4jnsgd1na2vs0mg"},{"bike_id":"40b19a43-7568-4070-8cfa-6d78b27578ba","system_id":"levelo_inurba_marseille","lat":43.254751,"lon":5.3765,"is_reserved":false,"is_disabled":false,"rental_uris":{"android":"levelo://app?vid=40b19a43-7568-4070-8cfa-6d78b27578ba","ios":"levelo://app?vid=40b19a43-7568-4070-8cfa-6d78b27578ba"},"vehicle_type_id":"4","last_reported":1750975803,"current_range_meters":17200,"station_id":"ce4bhh12rcd13ifvqff0","pricing_plan_id":"cebpf4jnsgd1na2vs0mg"},{"bike_id":"0528dc5b-3961-4824-a4d5-b8c72f4dd7e3","system_id":"levelo_inurba_marseille","lat":43.32656,"lon":5.40994,"is_reserved":false,"is_disabled":false,"rental_uris":{"android":"levelo://app?vid=0528dc5b-3961-4824-a4d5-b8c72f4dd7e3","ios":"levelo://app?vid=0528dc5b-3961-4824-a4d5-b8c72f4dd7e3"},"vehicle_type_id":"4","last_reported":1750975803,"current_range_meters":17200,"station_id":"ce4bhpp2rcd13ifvqhgg","pricing_plan_id":"cebpf4jnsgd1na2vs0mg"},{"bike_id":"45e598e8-942c-4fdc-877e-63d3c56dc4ed","system_id":"levelo_inurba_marseille","lat":43.3361,"lon":5.41035,"is_reserved":false,"is_disabled":false,"rental_uris":{"android":"levelo://app?vid=45e598e8-942c-4fdc-877e-63d3c56dc4ed","ios":"levelo://app?vid=45e598e8-942c-4fdc-877e-63d3c56dc4ed"},"vehicle_type_id":"4","last_reported":1750975803,"current_range_meters":17200,"station_id":"ce4bhqh2rcd13ifvqhmg","pricing_plan_id":"cebpf4jnsgd1na2vs0mg"},{"bike_id":"f1ff4f78-6d1b-435f-8777-a24085f5b111","system_id":"levelo_inurba_marseille","lat":43.23192,"lon":5.35584,"is_reserved":false,"is_disabled":false,"rental_uris":{"android":"levelo://app?vid=f1ff4f78-6d1b-435f-8777-a24085f5b111","ios":"levelo://app?vid=f1ff4f78-6d1b-435f-8777-a24085f5b111"},"vehicle_type_id":"4","last_reported":1750975803,"current_range_meters":17200,"station_id":"ce4bhu92rcd13ifvqi70","pricing_plan_id":"cebpf4jnsgd1na2vs0mg"},{"bike_id":"d25c92ba-9c07-4124-b372-b971bba7515e","system_id":"levelo_inurba_marseille","lat":43.250004,"lon":5.389368,"is_reserved":false,"is_disabled":false,"rental_uris":{"android":"levelo://app?vid=d25c92ba-9c07-4124-b372-b971bba7515e","ios":"levelo://app?vid=d25c92ba-9c07-4124-b372-b971bba7515e"},"vehicle_type_id":"4","last_reported":1750975803,"current_range_meters":17600,"station_id":"","pricing_plan_id":"cebpf4jnsgd1na2vs0mg"},{"bike_id":"1e1a88f1-b5b3-40e3-aebe-f7916cd4e463","system_id":"levelo_inurba_marseille","lat":43.302609,"lon":5.39105,"is_reserved":false,"is_disabled":false,"rental_uris":{"android":"levelo://app?vid=1e1a88f1-b5b3-40e3-aebe-f7916cd4e463","ios":"levelo://app?vid=1e1a88f1-b5b3-40e3-aebe-f7916cd4e463"},"vehicle_type_id":"4","last_reported":1750975803,"current_range_meters":17600,"station_id":"ce4bgkh2rcd13ifvqbk0","pricing_plan_id":"cebpf4jnsgd1na2vs0mg"},{"bike_id":"6652f694-6243-46ab-9cee-5d1f6eb89de8","system_id":"levelo_inurba_marseille","lat":43.31365,"lon":5.38504,"is_reserved":false,"is_disabled":false,"rental_uris":{"android":"levelo://app?vid=6652f694-6243-46ab-9cee-5d1f6eb89de8","ios":"levelo://app?vid=6652f694-6243-46ab-9cee-5d1f6eb89de8"},"vehicle_type_id":"4","last_reported":1750975803,"current_range_meters":17600,"station_id":"ce4bgt92rcd13ifvqcf0","pricing_plan_id":"cebpf4jnsgd1na2vs0mg"},{"bike_id":"74231885-b807-4d20-9e11-09b0be87011e","system_id":"levelo_inurba_marseille","lat":43.30272,"lon":5.40047,"is_reserved":false,"is_disabled":false,"rental_uris":{"android":"levelo://app?vid=74231885-b807-4d20-9e11-09b0be87011e","ios":"levelo://app?vid=74231885-b807-4d20-9e11-09b0be87011e"},"vehicle_type_id":"4","last_reported":1750975803,"current_range_meters":17600,"station_id":"ce4bgvh2rcd13ifvqcs0","pricing_plan_id":"cebpf4jnsgd1na2vs0mg"},{"bike_id":"09398097-57b4-4fc6-8060-303660b2a77e","system_id":"levelo_inurba_marseille","lat":43.31686,"lon":5.40476,"is_reserved":false,"is_disabled":false,"rental_uris":{"android":"levelo://app?vid=09398097-57b4-4fc6-8060-303660b2a77e","ios":"levelo://app?vid=09398097-57b4-4fc6-8060-303660b2a77e"},"vehicle_type_id":"4","last_reported":1750975803,"current_range_meters":17600,"station_id":"ce4bh012rcd13ifvqd00","pricing_plan_id":"cebpf4jnsgd1na2vs0mg"},{"bike_id":"f4ece071-90aa-4e08-83d9-82e4fc8d1407","system_id":"levelo_inurba_marseille","lat":43.26195,"lon":5.37936,"is_reserved":false,"is_disabled":false,"rental_uris":{"android":"levelo://app?vid=f4ece071-90aa-4e08-83d9-82e4fc8d1407","ios":"levelo://app?vid=f4ece071-90aa-4e08-83d9-82e4fc8d1407"},"vehicle_type_id":"4","last_reported":1750975803,"current_range_meters":17600,"station_id":"ce4bhjp2rcd13ifvqg90","pricing_plan_id":"cebpf4jnsgd1na2vs0mg"},{"bike_id":"b881ef67-8f41-4ec0-988d-e3aa5c86e08b","system_id":"levelo_inurba_marseille","lat":43.25716,"lon":5.4114,"is_reserved":false,"is_disabled":false,"rental_uris":{"android":"levelo://app?vid=b881ef67-8f41-4ec0-988d-e3aa5c86e08b","ios":"levelo://app?vid=b881ef67-8f41-4ec0-988d-e3aa5c86e08b"},"vehicle_type_id":"4","last_reported":1750975803,"current_range_meters":17600,"station_id":"ce4bhkp2rcd13ifvqgd0","pricing_plan_id":"cebpf4jnsgd1na2vs0mg"},{"bike_id":"045ad28b-273a-4cf6-a34e-97c3600d5209","system_id":"levelo_inurba_marseille","lat":43.29561,"lon":5.42285,"is_reserved":false,"is_disabled":false,"rental_uris":{"android":"levelo://app?vid=045ad28b-273a-4cf6-a34e-97c3600d5209","ios":"levelo://app?vid=045ad28b-273a-4cf6-a34e-97c3600d5209"},"vehicle_type_id":"4","last_reported":1750975803,"current_range_meters":17600,"station_id":"ce4bhph2rcd13ifvqhdg","pricing_plan_id":"cebpf4jnsgd1na2vs0mg"},{"bike_id":"59ddddb7-7ec9-4967-b1b9-dfe72f864225","system_id":"levelo_inurba_marseille","lat":43.24168,"lon":5.36401,"is_reserved":false,"is_disabled":false,"rental_uris":{"android":"levelo://app?vid=59ddddb7-7ec9-4967-b1b9-dfe72f864225","ios":"levelo://app?vid=59ddddb7-7ec9-4967-b1b9-dfe72f864225"},"vehicle_type_id":"4","last_reported":1750975803,"current_range_meters":17600,"station_id":"cpo36qri1sfpv3e86is0","pricing_plan_id":"cebpf4jnsgd1na2vs0mg"},{"bike_id":"b670c318-5520-4fcf-bf0f-267e72db97a8","system_id":"levelo_inurba_marseille","lat":43.217555,"lon":5.34597,"is_reserved":false,"is_disabled":false,"rental_uris":{"android":"levelo://app?vid=b670c318-5520-4fcf-bf0f-267e72db97a8","ios":"levelo://app?vid=b670c318-5520-4fcf-bf0f-267e72db97a8"},"vehicle_type_id":"4","last_reported":1750975803,"current_range_meters":17600,"station_id":"st_cvj6r9ubvosntc0bgbag","pricing_plan_id":"cebpf4jnsgd1na2vs0mg"},{"bike_id":"21f48179-c3da-4b50-9e22-8a14973dc040","system_id":"levelo_inurba_marseille","lat":43.30141,"lon":5.38782,"is_reserved":false,"is_disabled":false,"rental_uris":{"android":"levelo://app?vid=21f48179-c3da-4b50-9e22-8a14973dc040","ios":"levelo://app?vid=21f48179-c3da-4b50-9e22-8a14973dc040"},"vehicle_type_id":"4","last_reported":1750975803,"current_range_meters":18000,"station_id":"ce4bghh2rcd13ifvqb60","pricing_plan_id":"cebpf4jnsgd1na2vs0mg"},{"bike_id":"7cdab114-5660-4171-9a30-f1d789408f90","system_id":"levelo_inurba_marseille","lat":43.262274,"lon":5.404563,"is_reserved":false,"is_disabled":false,"rental_uris":{"android":"levelo://app?vid=7cdab114-5660-4171-9a30-f1d789408f90","ios":"levelo://app?vid=7cdab114-5660-4171-9a30-f1d789408f90"},"vehicle_type_id":"4","last_reported":1750975803,"current_range_meters":18000,"station_id":"ce4bhlp2rcd13ifvqgjg","pricing_plan_id":"cebpf4jnsgd1na2vs0mg"},{"bike_id":"a0286920-9c36-4d76-ae41-ba4030c6df1e","system_id":"levelo_inurba_marseille","lat":43.29567,"lon":5.4229,"is_reserved":false,"is_disabled":false,"rental_uris":{"android":"levelo://app?vid=a0286920-9c36-4d76-ae41-ba4030c6df1e","ios":"levelo://app?vid=a0286920-9c36-4d76-ae41-ba4030c6df1e"},"vehicle_type_id":"4","last_reported":1750975803,"current_range_meters":18000,"station_id":"ce4bhph2rcd13ifvqhdg","pricing_plan_id":"cebpf4jnsgd1na2vs0mg"},{"bike_id":"facfcf93-ab85-4d16-b148-8bc9369e6f17","system_id":"levelo_inurba_marseille","lat":43.211984,"lon":5.350601,"is_reserved":false,"is_disabled":false,"rental_uris":{"android":"levelo://app?vid=facfcf93-ab85-4d16-b148-8bc9369e6f17","ios":"levelo://app?vid=facfcf93-ab85-4d16-b148-8bc9369e6f17"},"vehicle_type_id":"4","last_reported":1750975803,"current_range_meters":18000,"station_id":"st_cvj6sg6p6f1abm77japg","pricing_plan_id":"cebpf4jnsgd1na2vs0mg"},{"bike_id":"f0057ca2-de2d-4464-8902-068dc3677e00","system_id":"levelo_inurba_marseille","lat":43.21183,"lon":5.35097,"is_reserved":false,"is_disabled":false,"rental_uris":{"android":"levelo://app?vid=f0057ca2-de2d-4464-8902-068dc3677e00","ios":"levelo://app?vid=f0057ca2-de2d-4464-8902-068dc3677e00"},"vehicle_type_id":"4","last_reported":1750975803,"current_range_meters":18000,"station_id":"st_cvj6sg6p6f1abm77japg","pricing_plan_id":"cebpf4jnsgd1na2vs0mg"},{"bike_id":"e6ce70f7-9138-485c-a4db-2c9174614cff","system_id":"levelo_inurba_marseille","lat":43.3176,"lon":5.36884,"is_reserved":false,"is_disabled":false,"rental_uris":{"android":"levelo://app?vid=e6ce70f7-9138-485c-a4db-2c9174614cff","ios":"levelo://app?vid=e6ce70f7-9138-485c-a4db-2c9174614cff"},"vehicle_type_id":"4","last_reported":1750975803,"current_range_meters":18800,"station_id":"","pricing_plan_id":"cebpf4jnsgd1na2vs0mg"},{"bike_id":"540b4430-6fc9-42b2-807a-270611bd5bf3","system_id":"levelo_inurba_marseille","lat":43.29812,"lon":5.38077,"is_reserved":false,"is_disabled":false,"rental_uris":{"android":"levelo://app?vid=540b4430-6fc9-42b2-807a-270611bd5bf3","ios":"levelo://app?vid=540b4430-6fc9-42b2-807a-270611bd5bf3"},"vehicle_type_id":"4","last_reported":1750975803,"current_range_meters":18800,"station_id":"ce4bgip2rcd13ifvqbb0","pricing_plan_id":"cebpf4jnsgd1na2vs0mg"},{"bike_id":"d4d69eb6-0cd1-4983-8dae-734539779b72","system_id":"levelo_inurba_marseille","lat":43.30879,"lon":5.39642,"is_reserved":false,"is_disabled":false,"rental_uris":{"android":"levelo://app?vid=d4d69eb6-0cd1-4983-8dae-734539779b72","ios":"levelo://app?vid=d4d69eb6-0cd1-4983-8dae-734539779b72"},"vehicle_type_id":"4","last_reported":1750975803,"current_range_meters":18800,"station_id":"ce4bh012rcd13ifvqcv0","pricing_plan_id":"cebpf4jnsgd1na2vs0mg"},{"bike_id":"d5629044-8b3b-41c3-b33b-a2ce383a6d65","system_id":"levelo_inurba_marseille","lat":43.29283,"lon":5.40135,"is_reserved":false,"is_disabled":false,"rental_uris":{"android":"levelo://app?vid=d5629044-8b3b-41c3-b33b-a2ce383a6d65","ios":"levelo://app?vid=d5629044-8b3b-41c3-b33b-a2ce383a6d65"},"vehicle_type_id":"4","last_reported":1750975803,"current_range_meters":18800,"station_id":"ce4bh312rcd13ifvqdk0","pricing_plan_id":"cebpf4jnsgd1na2vs0mg"},{"bike_id":"7c27c2dc-b755-42d0-aaf8-12dca0ae8036","system_id":"levelo_inurba_marseille","lat":43.2928,"lon":5.4012,"is_reserved":false,"is_disabled":false,"rental_uris":{"android":"levelo://app?vid=7c27c2dc-b755-42d0-aaf8-12dca0ae8036","ios":"levelo://app?vid=7c27c2dc-b755-42d0-aaf8-12dca0ae8036"},"vehicle_type_id":"4","last_reported":1750975803,"current_range_meters":18800,"station_id":"ce4bh312rcd13ifvqdk0","pricing_plan_id":"cebpf4jnsgd1na2vs0mg"},{"bike_id":"c12ad77e-6931-48ee-8966-5d0be52131ca","system_id":"levelo_inurba_marseille","lat":43.2756,"lon":5.38417,"is_reserved":false,"is_disabled":false,"rental_uris":{"android":"levelo://app?vid=c12ad77e-6931-48ee-8966-5d0be52131ca","ios":"levelo://app?vid=c12ad77e-6931-48ee-8966-5d0be52131ca"},"vehicle_type_id":"4","last_reported":1750975803,"current_range_meters":18800,"station_id":"ce4bhh92rcd13ifvqfi0","pricing_plan_id":"cebpf4jnsgd1na2vs0mg"},{"bike_id":"a2a77698-b9bc-4f96-83a9-97a8d75bac6a","system_id":"levelo_inurba_marseille","lat":43.25722,"lon":5.4111,"is_reserved":false,"is_disabled":false,"rental_uris":{"android":"levelo://app?vid=a2a77698-b9bc-4f96-83a9-97a8d75bac6a","ios":"levelo://app?vid=a2a77698-b9bc-4f96-83a9-97a8d75bac6a"},"vehicle_type_id":"4","last_reported":1750975803,"current_range_meters":18800,"station_id":"ce4bhkp2rcd13ifvqgd0","pricing_plan_id":"cebpf4jnsgd1na2vs0mg"},{"bike_id":"90cb83e5-303c-465f-aaea-7f855584c957","system_id":"levelo_inurba_marseille","lat":43.251086,"lon":5.403207,"is_reserved":false,"is_disabled":false,"rental_uris":{"android":"levelo://app?vid=90cb83e5-303c-465f-aaea-7f855584c957","ios":"levelo://app?vid=90cb83e5-303c-465f-aaea-7f855584c957"},"vehicle_type_id":"4","last_reported":1750975803,"current_range_meters":18800,"station_id":"ce4bhlh2rcd13ifvqgig","pricing_plan_id":"cebpf4jnsgd1na2vs0mg"},{"bike_id":"f3e3a564-ce37-49ce-b2fc-1f09d5c9ff09","system_id":"levelo_inurba_marseille","lat":43.3201,"lon":5.38163,"is_reserved":false,"is_disabled":false,"rental_uris":{"android":"levelo://app?vid=f3e3a564-ce37-49ce-b2fc-1f09d5c9ff09","ios":"levelo://app?vid=f3e3a564-ce37-49ce-b2fc-1f09d5c9ff09"},"vehicle_type_id":"4","last_reported":1750975803,"current_range_meters":18800,"station_id":"ce4bhr12rcd13ifvqhpg","pricing_plan_id":"cebpf4jnsgd1na2vs0mg"},{"bike_id":"96021828-8d8e-4b22-85fa-33d8b51ffdc5","system_id":"levelo_inurba_marseille","lat":43.30426,"lon":5.39751,"is_reserved":false,"is_disabled":false,"rental_uris":{"android":"levelo://app?vid=96021828-8d8e-4b22-85fa-33d8b51ffdc5","ios":"levelo://app?vid=96021828-8d8e-4b22-85fa-33d8b51ffdc5"},"vehicle_type_id":"4","last_reported":1750975803,"current_range_meters":19200,"station_id":"ce4bh092rcd13ifvqd20","pricing_plan_id":"cebpf4jnsgd1na2vs0mg"},{"bike_id":"c824e0fb-2d2b-47af-aa50-554b5934cca2","system_id":"levelo_inurba_marseille","lat":43.29519,"lon":5.39396,"is_reserved":false,"is_disabled":false,"rental_uris":{"android":"levelo://app?vid=c824e0fb-2d2b-47af-aa50-554b5934cca2","ios":"levelo://app?vid=c824e0fb-2d2b-47af-aa50-554b5934cca2"},"vehicle_type_id":"4","last_reported":1750975803,"current_range_meters":19200,"station_id":"ce4bh292rcd13ifvqdf0","pricing_plan_id":"cebpf4jnsgd1na2vs0mg"},{"bike_id":"5fc28c27-25a1-4d96-8961-4e23f6121a50","system_id":"levelo_inurba_marseille","lat":43.28576,"lon":5.39498,"is_reserved":false,"is_disabled":false,"rental_uris":{"android":"levelo://app?vid=5fc28c27-25a1-4d96-8961-4e23f6121a50","ios":"levelo://app?vid=5fc28c27-25a1-4d96-8961-4e23f6121a50"},"vehicle_type_id":"4","last_reported":1750975803,"current_range_meters":19200,"station_id":"ce4bh292rcd13ifvqdg0","pricing_plan_id":"cebpf4jnsgd1na2vs0mg"},{"bike_id":"c682d158-3e88-4672-9273-2aeb1ef15689","system_id":"levelo_inurba_marseille","lat":43.27902,"lon":5.38017,"is_reserved":false,"is_disabled":false,"rental_uris":{"android":"levelo://app?vid=c682d158-3e88-4672-9273-2aeb1ef15689","ios":"levelo://app?vid=c682d158-3e88-4672-9273-2aeb1ef15689"},"vehicle_type_id":"4","last_reported":1750975803,"current_range_meters":19200,"station_id":"ce4bhf92rcd13ifvqf50","pricing_plan_id":"cebpf4jnsgd1na2vs0mg"},{"bike_id":"dfcfd309-3075-404f-9a6c-0b1b2be404c6","system_id":"levelo_inurba_marseille","lat":43.248142,"lon":5.374552,"is_reserved":false,"is_disabled":false,"rental_uris":{"android":"levelo://app?vid=dfcfd309-3075-404f-9a6c-0b1b2be404c6","ios":"levelo://app?vid=dfcfd309-3075-404f-9a6c-0b1b2be404c6"},"vehicle_type_id":"4","last_reported":1750975803,"current_range_meters":19200,"station_id":"ce4bhgh2rcd13ifvqfb0","pricing_plan_id":"cebpf4jnsgd1na2vs0mg"},{"bike_id":"9dde7890-ac49-4329-a548-d1fa6b7c7163","system_id":"levelo_inurba_marseille","lat":43.28431,"lon":5.39184,"is_reserved":false,"is_disabled":false,"rental_uris":{"android":"levelo://app?vid=9dde7890-ac49-4329-a548-d1fa6b7c7163","ios":"levelo://app?vid=9dde7890-ac49-4329-a548-d1fa6b7c7163"},"vehicle_type_id":"4","last_reported":1750975803,"current_range_meters":19200,"station_id":"ce4bhoh2rcd13ifvqh5g","pricing_plan_id":"cebpf4jnsgd1na2vs0mg"},{"bike_id":"57d6eb9e-33e5-482e-9465-914c364d7397","system_id":"levelo_inurba_marseille","lat":43.32285,"lon":5.38283,"is_reserved":false,"is_disabled":false,"rental_uris":{"android":"levelo://app?vid=57d6eb9e-33e5-482e-9465-914c364d7397","ios":"levelo://app?vid=57d6eb9e-33e5-482e-9465-914c364d7397"},"vehicle_type_id":"4","last_reported":1750975803,"current_range_meters":19200,"station_id":"ce4bhr12rcd13ifvqhqg","pricing_plan_id":"cebpf4jnsgd1na2vs0mg"},{"bike_id":"3fda70df-e1b8-4091-b66f-211bb0339eb3","system_id":"levelo_inurba_marseille","lat":43.23196,"lon":5.35553,"is_reserved":false,"is_disabled":false,"rental_uris":{"android":"levelo://app?vid=3fda70df-e1b8-4091-b66f-211bb0339eb3","ios":"levelo://app?vid=3fda70df-e1b8-4091-b66f-211bb0339eb3"},"vehicle_type_id":"4","last_reported":1750975803,"current_range_meters":19200,"station_id":"ce4bhu92rcd13ifvqi70","pricing_plan_id":"cebpf4jnsgd1na2vs0mg"},{"bike_id":"935c8062-ae25-46e0-901d-4b81929b99b7","system_id":"levelo_inurba_marseille","lat":43.21747,"lon":5.3463,"is_reserved":false,"is_disabled":false,"rental_uris":{"android":"levelo://app?vid=935c8062-ae25-46e0-901d-4b81929b99b7","ios":"levelo://app?vid=935c8062-ae25-46e0-901d-4b81929b99b7"},"vehicle_type_id":"4","last_reported":1750975803,"current_range_meters":19200,"station_id":"st_cvj6r9ubvosntc0bgbag","pricing_plan_id":"cebpf4jnsgd1na2vs0mg"},{"bike_id":"68ba553f-21c6-4e54-95b0-38cf227ee3c9","system_id":"levelo_inurba_marseille","lat":43.26232,"lon":5.40145,"is_reserved":false,"is_disabled":false,"rental_uris":{"android":"levelo://app?vid=68ba553f-21c6-4e54-95b0-38cf227ee3c9","ios":"levelo://app?vid=68ba553f-21c6-4e54-95b0-38cf227ee3c9"},"vehicle_type_id":"4","last_reported":1750975803,"current_range_meters":19600,"station_id":"","pricing_plan_id":"cebpf4jnsgd1na2vs0mg"},{"bike_id":"b7e92dca-f575-42e5-9c69-37616a325526","system_id":"levelo_inurba_marseille","lat":43.2926,"lon":5.40905,"is_reserved":false,"is_disabled":false,"rental_uris":{"android":"levelo://app?vid=b7e92dca-f575-42e5-9c69-37616a325526","ios":"levelo://app?vid=b7e92dca-f575-42e5-9c69-37616a325526"},"vehicle_type_id":"4","last_reported":1750975803,"current_range_meters":19600,"station_id":"ce4bh192rcd13ifvqdc0","pricing_plan_id":"cebpf4jnsgd1na2vs0mg"},{"bike_id":"bcebea36-35a2-44a5-be75-76c84da1a8f1","system_id":"levelo_inurba_marseille","lat":43.29262,"lon":5.40912,"is_reserved":false,"is_disabled":false,"rental_uris":{"android":"levelo://app?vid=bcebea36-35a2-44a5-be75-76c84da1a8f1","ios":"levelo://app?vid=bcebea36-35a2-44a5-be75-76c84da1a8f1"},"vehicle_type_id":"4","last_reported":1750975803,"current_range_meters":19600,"station_id":"ce4bh192rcd13ifvqdc0","pricing_plan_id":"cebpf4jnsgd1na2vs0mg"},{"bike_id":"2f83003f-e743-431a-ab5a-149d4bc5e3e1","system_id":"levelo_inurba_marseille","lat":43.28343,"lon":5.381,"is_reserved":false,"is_disabled":false,"rental_uris":{"android":"levelo://app?vid=2f83003f-e743-431a-ab5a-149d4bc5e3e1","ios":"levelo://app?vid=2f83003f-e743-431a-ab5a-149d4bc5e3e1"},"vehicle_type_id":"4","last_reported":1750975803,"current_range_meters":19600,"station_id":"ce4bh412rcd13ifvqdr0","pricing_plan_id":"cebpf4jnsgd1na2vs0mg"},{"bike_id":"e9575ccb-5c6c-4193-afc3-a72466ed7a3e","system_id":"levelo_inurba_marseille","lat":43.28446,"lon":5.35911,"is_reserved":false,"is_disabled":false,"rental_uris":{"android":"levelo://app?vid=e9575ccb-5c6c-4193-afc3-a72466ed7a3e","ios":"levelo://app?vid=e9575ccb-5c6c-4193-afc3-a72466ed7a3e"},"vehicle_type_id":"4","last_reported":1750975803,"current_range_meters":19600,"station_id":"ce4bhah2rcd13ifvqei0","pricing_plan_id":"cebpf4jnsgd1na2vs0mg"},{"bike_id":"37243060-4231-4916-9fed-fa7e9205f858","system_id":"levelo_inurba_marseille","lat":43.24675,"lon":5.38157,"is_reserved":false,"is_disabled":false,"rental_uris":{"android":"levelo://app?vid=37243060-4231-4916-9fed-fa7e9205f858","ios":"levelo://app?vid=37243060-4231-4916-9fed-fa7e9205f858"},"vehicle_type_id":"4","last_reported":1750975803,"current_range_meters":19600,"station_id":"ce4bhih2rcd13ifvqfr0","pricing_plan_id":"cebpf4jnsgd1na2vs0mg"},{"bike_id":"4adff291-15d4-4438-9ab8-d46dfa9348a8","system_id":"levelo_inurba_marseille","lat":43.27488,"lon":5.42458,"is_reserved":false,"is_disabled":false,"rental_uris":{"android":"levelo://app?vid=4adff291-15d4-4438-9ab8-d46dfa9348a8","ios":"levelo://app?vid=4adff291-15d4-4438-9ab8-d46dfa9348a8"},"vehicle_type_id":"4","last_reported":1750975803,"current_range_meters":19600,"station_id":"ce4bhn92rcd13ifvqgrg","pricing_plan_id":"cebpf4jnsgd1na2vs0mg"},{"bike_id":"c5a58de5-faca-4f4b-8a6f-ce53de7f8ecd","system_id":"levelo_inurba_marseille","lat":43.28696,"lon":5.39982,"is_reserved":false,"is_disabled":false,"rental_uris":{"android":"levelo://app?vid=c5a58de5-faca-4f4b-8a6f-ce53de7f8ecd","ios":"levelo://app?vid=c5a58de5-faca-4f4b-8a6f-ce53de7f8ecd"},"vehicle_type_id":"4","last_reported":1750975803,"current_range_meters":19600,"station_id":"ce4bho92rcd13ifvqh3g","pricing_plan_id":"cebpf4jnsgd1na2vs0mg"},{"bike_id":"815201a7-dbbe-4827-ab77-bd49f80ea5ee","system_id":"levelo_inurba_marseille","lat":43.29743,"lon":5.46011,"is_reserved":false,"is_disabled":false,"rental_uris":{"android":"levelo://app?vid=815201a7-dbbe-4827-ab77-bd49f80ea5ee","ios":"levelo://app?vid=815201a7-dbbe-4827-ab77-bd49f80ea5ee"},"vehicle_type_id":"4","last_reported":1750975803,"current_range_meters":20000,"station_id":"","pricing_plan_id":"cebpf4jnsgd1na2vs0mg"},{"bike_id":"d90b922c-4daf-4937-a810-8e368b1596dc","system_id":"levelo_inurba_marseille","lat":43.29608,"lon":5.38108,"is_reserved":false,"is_disabled":false,"rental_uris":{"android":"levelo://app?vid=d90b922c-4daf-4937-a810-8e368b1596dc","ios":"levelo://app?vid=d90b922c-4daf-4937-a810-8e368b1596dc"},"vehicle_type_id":"4","last_reported":1750975803,"current_range_meters":20000,"station_id":"ce4bgl12rcd13ifvqbo0","pricing_plan_id":"cebpf4jnsgd1na2vs0mg"},{"bike_id":"94d4705c-ca53-4e90-900a-15e2a65f553f","system_id":"levelo_inurba_marseille","lat":43.292625,"lon":5.384461,"is_reserved":false,"is_disabled":false,"rental_uris":{"android":"levelo://app?vid=94d4705c-ca53-4e90-900a-15e2a65f553f","ios":"levelo://app?vid=94d4705c-ca53-4e90-900a-15e2a65f553f"},"vehicle_type_id":"4","last_reported":1750975803,"current_range_meters":20000,"station_id":"ce4bh192rcd13ifvqdc0","pricing_plan_id":"cebpf4jnsgd1na2vs0mg"},{"bike_id":"a649ffd2-2ecc-45d5-9e5b-897b30e83208","system_id":"levelo_inurba_marseille","lat":43.289368,"lon":5.396286,"is_reserved":false,"is_disabled":false,"rental_uris":{"android":"levelo://app?vid=a649ffd2-2ecc-45d5-9e5b-897b30e83208","ios":"levelo://app?vid=a649ffd2-2ecc-45d5-9e5b-897b30e83208"},"vehicle_type_id":"4","last_reported":1750975803,"current_range_meters":20000,"station_id":"ce4bhg92rcd13ifvqf90","pricing_plan_id":"cebpf4jnsgd1na2vs0mg"},{"bike_id":"c786f3b7-b6c7-4340-b9ac-b3823d233813","system_id":"levelo_inurba_marseille","lat":43.25497,"lon":5.37649,"is_reserved":false,"is_disabled":false,"rental_uris":{"android":"levelo://app?vid=c786f3b7-b6c7-4340-b9ac-b3823d233813","ios":"levelo://app?vid=c786f3b7-b6c7-4340-b9ac-b3823d233813"},"vehicle_type_id":"4","last_reported":1750975803,"current_range_meters":20000,"station_id":"ce4bhh12rcd13ifvqff0","pricing_plan_id":"cebpf4jnsgd1na2vs0mg"},{"bike_id":"c872aab9-5f20-4539-a808-245f79703461","system_id":"levelo_inurba_marseille","lat":43.26054,"lon":5.39386,"is_reserved":false,"is_disabled":false,"rental_uris":{"android":"levelo://app?vid=c872aab9-5f20-4539-a808-245f79703461","ios":"levelo://app?vid=c872aab9-5f20-4539-a808-245f79703461"},"vehicle_type_id":"4","last_reported":1750975803,"current_range_meters":20000,"station_id":"ce4bhh92rcd13ifvqfj0","pricing_plan_id":"cebpf4jnsgd1na2vs0mg"},{"bike_id":"85a12ec0-1040-4892-8303-aa2f82ba8dcf","system_id":"levelo_inurba_marseille","lat":43.32659,"lon":5.40998,"is_reserved":false,"is_disabled":false,"rental_uris":{"android":"levelo://app?vid=85a12ec0-1040-4892-8303-aa2f82ba8dcf","ios":"levelo://app?vid=85a12ec0-1040-4892-8303-aa2f82ba8dcf"},"vehicle_type_id":"4","last_reported":1750975803,"current_range_meters":20000,"station_id":"ce4bhpp2rcd13ifvqhgg","pricing_plan_id":"cebpf4jnsgd1na2vs0mg"},{"bike_id":"ff955ae5-0ad9-4529-8abb-0f1183467e84","system_id":"levelo_inurba_marseille","lat":43.29259,"lon":5.40928,"is_reserved":false,"is_disabled":false,"rental_uris":{"android":"levelo://app?vid=ff955ae5-0ad9-4529-8abb-0f1183467e84","ios":"levelo://app?vid=ff955ae5-0ad9-4529-8abb-0f1183467e84"},"vehicle_type_id":"4","last_reported":1750975803,"current_range_meters":20400,"station_id":"ce4bh192rcd13ifvqdc0","pricing_plan_id":"cebpf4jnsgd1na2vs0mg"},{"bike_id":"d34cb698-8668-4e78-a53c-abe4e74ce13c","system_id":"levelo_inurba_marseille","lat":43.29515,"lon":5.39406,"is_reserved":false,"is_disabled":false,"rental_uris":{"android":"levelo://app?vid=d34cb698-8668-4e78-a53c-abe4e74ce13c","ios":"levelo://app?vid=d34cb698-8668-4e78-a53c-abe4e74ce13c"},"vehicle_type_id":"4","last_reported":1750975803,"current_range_meters":20400,"station_id":"ce4bh292rcd13ifvqdf0","pricing_plan_id":"cebpf4jnsgd1na2vs0mg"},{"bike_id":"06cac583-9fa7-4dae-9061-944fc86d6229","system_id":"levelo_inurba_marseille","lat":43.23185,"lon":5.35543,"is_reserved":false,"is_disabled":false,"rental_uris":{"android":"levelo://app?vid=06cac583-9fa7-4dae-9061-944fc86d6229","ios":"levelo://app?vid=06cac583-9fa7-4dae-9061-944fc86d6229"},"vehicle_type_id":"4","last_reported":1750975803,"current_range_meters":20400,"station_id":"ce4bhu92rcd13ifvqi70","pricing_plan_id":"cebpf4jnsgd1na2vs0mg"},{"bike_id":"ec3b19d0-feec-4a86-b966-7829278872e1","system_id":"levelo_inurba_marseille","lat":43.30153,"lon":5.37415,"is_reserved":false,"is_disabled":false,"rental_uris":{"android":"levelo://app?vid=ec3b19d0-feec-4a86-b966-7829278872e1","ios":"levelo://app?vid=ec3b19d0-feec-4a86-b966-7829278872e1"},"vehicle_type_id":"4","last_reported":1750975803,"current_range_meters":20800,"station_id":"ce4bgs92rcd13ifvqcc0","pricing_plan_id":"cebpf4jnsgd1na2vs0mg"},{"bike_id":"95a7a86b-5a11-4859-9393-d602c73fad45","system_id":"levelo_inurba_marseille","lat":43.30084,"lon":5.39084,"is_reserved":false,"is_disabled":false,"rental_uris":{"android":"levelo://app?vid=95a7a86b-5a11-4859-9393-d602c73fad45","ios":"levelo://app?vid=95a7a86b-5a11-4859-9393-d602c73fad45"},"vehicle_type_id":"4","last_reported":1750975803,"current_range_meters":20800,"station_id":"ce4bh192rcd13ifvqdb0","pricing_plan_id":"cebpf4jnsgd1na2vs0mg"},{"bike_id":"4502b51a-dc83-4469-be7e-5000fa87e941","system_id":"levelo_inurba_marseille","lat":43.27068,"lon":5.42281,"is_reserved":false,"is_disabled":false,"rental_uris":{"android":"levelo://app?vid=4502b51a-dc83-4469-be7e-5000fa87e941","ios":"levelo://app?vid=4502b51a-dc83-4469-be7e-5000fa87e941"},"vehicle_type_id":"4","last_reported":1750975803,"current_range_meters":20800,"station_id":"ce4bhk92rcd13ifvqgb0","pricing_plan_id":"cebpf4jnsgd1na2vs0mg"},{"bike_id":"3563911b-29eb-487c-8a9b-6c729468cc80","system_id":"levelo_inurba_marseille","lat":43.28703,"lon":5.3998,"is_reserved":false,"is_disabled":false,"rental_uris":{"android":"levelo://app?vid=3563911b-29eb-487c-8a9b-6c729468cc80","ios":"levelo://app?vid=3563911b-29eb-487c-8a9b-6c729468cc80"},"vehicle_type_id":"4","last_reported":1750975803,"current_range_meters":20800,"station_id":"ce4bho92rcd13ifvqh3g","pricing_plan_id":"cebpf4jnsgd1na2vs0mg"},{"bike_id":"12c7fc9f-7c7b-4185-9b2f-badd0c17e36b","system_id":"levelo_inurba_marseille","lat":43.24728,"lon":5.37466,"is_reserved":false,"is_disabled":false,"rental_uris":{"android":"levelo://app?vid=12c7fc9f-7c7b-4185-9b2f-badd0c17e36b","ios":"levelo://app?vid=12c7fc9f-7c7b-4185-9b2f-badd0c17e36b"},"vehicle_type_id":"4","last_reported":1750975803,"current_range_meters":21600,"station_id":"","pricing_plan_id":"cebpf4jnsgd1na2vs0mg"},{"bike_id":"2ff084fb-001f-47d9-a180-feb441cc7431","system_id":"levelo_inurba_marseille","lat":43.30418,"lon":5.39757,"is_reserved":false,"is_disabled":false,"rental_uris":{"android":"levelo://app?vid=2ff084fb-001f-47d9-a180-feb441cc7431","ios":"levelo://app?vid=2ff084fb-001f-47d9-a180-feb441cc7431"},"vehicle_type_id":"4","last_reported":1750975803,"current_range_meters":21600,"station_id":"ce4bh092rcd13ifvqd20","pricing_plan_id":"cebpf4jnsgd1na2vs0mg"},{"bike_id":"a0bd265d-dabf-466d-9a20-854f79e8dffc","system_id":"levelo_inurba_marseille","lat":43.33023,"lon":5.39039,"is_reserved":false,"is_disabled":false,"rental_uris":{"android":"levelo://app?vid=a0bd265d-dabf-466d-9a20-854f79e8dffc","ios":"levelo://app?vid=a0bd265d-dabf-466d-9a20-854f79e8dffc"},"vehicle_type_id":"4","last_reported":1750975803,"current_range_meters":21600,"station_id":"ce4bhr92rcd13ifvqhrg","pricing_plan_id":"cebpf4jnsgd1na2vs0mg"},{"bike_id":"4b446db5-08bd-4c21-89d9-19eab26570e2","system_id":"levelo_inurba_marseille","lat":43.29533,"lon":5.38555,"is_reserved":false,"is_disabled":false,"rental_uris":{"android":"levelo://app?vid=4b446db5-08bd-4c21-89d9-19eab26570e2","ios":"levelo://app?vid=4b446db5-08bd-4c21-89d9-19eab26570e2"},"vehicle_type_id":"4","last_reported":1750975803,"current_range_meters":22000,"station_id":"ce4bgih2rcd13ifvqba0","pricing_plan_id":"cebpf4jnsgd1na2vs0mg"},{"bike_id":"8d6b1240-ba1c-4de0-a01e-97086df6c5e4","system_id":"levelo_inurba_marseille","lat":43.29978,"lon":5.37421,"is_reserved":false,"is_disabled":false,"rental_uris":{"android":"levelo://app?vid=8d6b1240-ba1c-4de0-a01e-97086df6c5e4","ios":"levelo://app?vid=8d6b1240-ba1c-4de0-a01e-97086df6c5e4"},"vehicle_type_id":"4","last_reported":1750975803,"current_range_meters":22000,"station_id":"ce4bgn92rcd13ifvqbvg","pricing_plan_id":"cebpf4jnsgd1na2vs0mg"},{"bike_id":"bfda49c9-c13b-47cd-82fd-85f2da402c1c","system_id":"levelo_inurba_marseille","lat":43.29868,"lon":5.39749,"is_reserved":false,"is_disabled":false,"rental_uris":{"android":"levelo://app?vid=bfda49c9-c13b-47cd-82fd-85f2da402c1c","ios":"levelo://app?vid=bfda49c9-c13b-47cd-82fd-85f2da402c1c"},"vehicle_type_id":"4","last_reported":1750975803,"current_range_meters":22000,"station_id":"ce4bh0h2rcd13ifvqd50","pricing_plan_id":"cebpf4jnsgd1na2vs0mg"},{"bike_id":"ce89f7f5-170b-460a-84db-9798be13424d","system_id":"levelo_inurba_marseille","lat":43.258593,"lon":5.398978,"is_reserved":false,"is_disabled":false,"rental_uris":{"android":"levelo://app?vid=ce89f7f5-170b-460a-84db-9798be13424d","ios":"levelo://app?vid=ce89f7f5-170b-460a-84db-9798be13424d"},"vehicle_type_id":"4","last_reported":1750975803,"current_range_meters":22000,"station_id":"ce4bh512rcd13ifvqe3g","pricing_plan_id":"cebpf4jnsgd1na2vs0mg"},{"bike_id":"a3678f4f-4b49-4ff2-9023-4219e7d70da4","system_id":"levelo_inurba_marseille","lat":43.24672,"lon":5.3816,"is_reserved":false,"is_disabled":false,"rental_uris":{"android":"levelo://app?vid=a3678f4f-4b49-4ff2-9023-4219e7d70da4","ios":"levelo://app?vid=a3678f4f-4b49-4ff2-9023-4219e7d70da4"},"vehicle_type_id":"4","last_reported":1750975803,"current_range_meters":22000,"station_id":"ce4bhih2rcd13ifvqfr0","pricing_plan_id":"cebpf4jnsgd1na2vs0mg"},{"bike_id":"6eafa7a0-cba4-4731-b408-11e6b640e8fc","system_id":"levelo_inurba_marseille","lat":43.33607,"lon":5.41035,"is_reserved":false,"is_disabled":false,"rental_uris":{"android":"levelo://app?vid=6eafa7a0-cba4-4731-b408-11e6b640e8fc","ios":"levelo://app?vid=6eafa7a0-cba4-4731-b408-11e6b640e8fc"},"vehicle_type_id":"4","last_reported":1750975803,"current_range_meters":22000,"station_id":"ce4bhqh2rcd13ifvqhmg","pricing_plan_id":"cebpf4jnsgd1na2vs0mg"},{"bike_id":"14e8ef37-e834-4d76-9946-e98f7a083a2f","system_id":"levelo_inurba_marseille","lat":43.212,"lon":5.35075,"is_reserved":false,"is_disabled":false,"rental_uris":{"android":"levelo://app?vid=14e8ef37-e834-4d76-9946-e98f7a083a2f","ios":"levelo://app?vid=14e8ef37-e834-4d76-9946-e98f7a083a2f"},"vehicle_type_id":"4","last_reported":1750975803,"current_range_meters":22000,"station_id":"st_cvj6sg6p6f1abm77japg","pricing_plan_id":"cebpf4jnsgd1na2vs0mg"},