{"last_updated":1742379061,"ttl":60,"version":"2.2","data":{"bikes":[{"bike_id":"dc535ca9-1a39-4eda-bee3-f62120ac26ca","system_id":"levelo_inurba_marseille","lat":43.25728,"lon":5.41111,"is_reserved":false,"is_disabled":false,"rental_uris":{"android":"levelo://app?vid=dc535ca9-1a39-4eda-bee3-f62120ac26ca","ios":"levelo://app?vid=dc535ca9-1a39-4eda-bee3-f62120ac26ca"},"vehicle_type_id":"4","last_reported":1742379061,"current_range_meters":2800,"station_id":"ce4bhkp2rcd13ifvqgd0","pricing_plan_id":"cebpf4jnsgd1na2vs0mg"},{"bike_id":"0766d817-6ade-45d3-840d-5001f6ed271a","system_id":"levelo_inurba_marseille","lat":43.30287,"lon":5.37698,"is_reserved":false,"is_disabled":false,"rental_uris":{"android":"levelo://app?vid=0766d817-6ade-45d3-840d-5001f6ed271a","ios":"levelo://app?vid=0766d817-6ade-45d3-840d-5001f6ed271a"},"vehicle_type_id":"4","last_reported":1742379061,"current_range_meters":2800,"station_id":"ce4bguh2rcd13ifvqcj0","pricing_plan_id":"cebpf4jnsgd1na2vs0mg"},{"bike_id":"9f951d39-7437-4fc6-95d0-5f912db1e83c","system_id":"levelo_inurba_marseille","lat":43.29533,"lon":5.38547,"is_reserved":false,"is_disabled":false,"rental_uris":{"android":"levelo://app?vid=9f951d39-7437-4fc6-95d0-5f912db1e83c","ios":"levelo://app?vid=9f951d39-7437-4fc6-95d0-5f912db1e83c"},"vehicle_type_id":"4","last_reported":1742379061,"current_range_meters":2000,"station_id":"ce4bgih2rcd13ifvqba0","pricing_plan_id":"cebpf4jnsgd1na2vs0mg"},{"bike_id":"32457d4a-b55d-4284-b1a0-a869a1d3c303","system_id":"levelo_inurba_marseille","lat":43.26543,"lon":5.39044,"is_reserved":false,"is_disabled":false,"rental_uris":{"android":"levelo://app?vid=32457d4a-b55d-4284-b1a0-a869a1d3c303","ios":"levelo://app?vid=32457d4a-b55d-4284-b1a0-a869a1d3c303"},"vehicle_type_id":"4","last_reported":1742379061,"current_range_meters":2800,"station_id":"ce4bhe12rcd13ifvqf30","pricing_plan_id":"cebpf4jnsgd1na2vs0mg"},{"bike_id":"fd04e5af-c40b-4959-b835-28bd614c0d14","system_id":"levelo_inurba_marseille","lat":43.23191,"lon":5.35564,"is_reserved":false,"is_disabled":false,"rental_uris":{"android":"levelo://app?vid=fd04e5af-c40b-4959-b835-28bd614c0d14","ios":"levelo://app?vid=fd04e5af-c40b-4959-b835-28bd614c0d14"},"vehicle_type_id":"4","last_reported":1742379061,"current_range_meters":3200,"station_id":"ce4bhu92rcd13ifvqi70","pricing_plan_id":"cebpf4jnsgd1na2vs0mg"},{"bike_id":"08aa3d80-4156-4f91-95c9-2a22cf52117b","system_id":"levelo_inurba_marseille","lat":43.29039,"lon":5.39961,"is_reserved":false,"is_disabled":false,"rental_uris":{"android":"levelo://app?vid=08aa3d80-4156-4f91-95c9-2a22cf52117b","ios":"levelo://app?vid=08aa3d80-4156-4f91-95c9-2a22cf52117b"},"vehicle_type_id":"4","last_reported":1742379061,"current_range_meters":3200,"station_id":"ce4bh392rcd13ifvqdm0","pricing_plan_id":"cebpf4jnsgd1na2vs0mg"},{"bike_id":"2665cc4b-07ed-4ae6-a66f-2b09983c709d","system_id":"levelo_inurba_marseille","lat":43.33761,"lon":5.37489,"is_reserved":false,"is_disabled":false,"rental_uris":{"android":"levelo://app?vid=2665cc4b-07ed-4ae6-a66f-2b09983c709d","ios":"levelo://app?vid=2665cc4b-07ed-4ae6-a66f-2b09983c709d"},"vehicle_type_id":"4","last_reported":1742379061,"current_range_meters":3200,"station_id":"","pricing_plan_id":"cebpf4jnsgd1na2vs0mg"},{"bike_id":"f5c97f8a-2624-4b99-bdf9-59f10ff7cfce","system_id":"levelo_inurba_marseille","lat":43.27613,"lon":5.36122,"is_reserved":false,"is_disabled":false,"rental_uris":{"android":"levelo://app?vid=f5c97f8a-2624-4b99-bdf9-59f10ff7cfce","ios":"levelo://app?vid=f5c97f8a-2624-4b99-bdf9-59f10ff7cfce"},"vehicle_type_id":"4","last_reported":1742379061,"current_range_meters":3600,"station_id":"ce4bgj92rcd13ifvqbe0","pricing_plan_id":"cebpf4jnsgd1na2vs0mg"},{"bike_id":"e9b2baa8-325f-4274-96dd-fabf5074da14","system_id":"levelo_inurba_marseille","lat":43.30161,"lon":5.37397,"is_reserved":false,"is_disabled":true,"rental_uris":{"android":"levelo://app?vid=e9b2baa8-325f-4274-96dd-fabf5074da14","ios":"levelo://app?vid=e9b2baa8-325f-4274-96dd-fabf5074da14"},"vehicle_type_id":"4","last_reported":1742379061,"current_range_meters":3600,"station_id":"ce4bgs92rcd13ifvqcc0","pricing_plan_id":"cebpf4jnsgd1na2vs0mg"},{"bike_id":"6368f354-6da7-4884-a394-062f1a963ed6","system_id":"levelo_inurba_marseille","lat":43.29295,"lon":5.42794,"is_reserved":false,"is_disabled":false,"rental_uris":{"android":"levelo://app?vid=6368f354-6da7-4884-a394-062f1a963ed6","ios":"levelo://app?vid=6368f354-6da7-4884-a394-062f1a963ed6"},"vehicle_type_id":"4","last_reported":1742379061,"current_range_meters":3600,"station_id":"","pricing_plan_id":"cebpf4jnsgd1na2vs0mg"},{"bike_id":"dcad70e7-b275-47f7-b1e9-83a21a8d37ca","system_id":"levelo_inurba_marseille","lat":43.29259,"lon":5.37614,"is_reserved":false,"is_disabled":false,"rental_uris":{"android":"levelo://app?vid=dcad70e7-b275-47f7-b1e9-83a21a8d37ca","ios":"levelo://app?vid=dcad70e7-b275-47f7-b1e9-83a21a8d37ca"},"vehicle_type_id":"4","last_reported":1742379061,"current_range_meters":4000,"station_id":"ce4bgi12rcd13ifvqb80","pricing_plan_id":"cebpf4jnsgd1na2vs0mg"},{"bike_id":"32d56adf-7abf-4670-8344-fd9013e7ff10","system_id":"levelo_inurba_marseille","lat":43.29027,"lon":5.38126,"is_reserved":false,"is_disabled":false,"rental_uris":{"android":"levelo://app?vid=32d56adf-7abf-4670-8344-fd9013e7ff10","ios":"levelo://app?vid=32d56adf-7abf-4670-8344-fd9013e7ff10"},"vehicle_type_id":"4","last_reported":1742379061,"current_range_meters":4000,"station_id":"ce4bh4p2rcd13ifvqe1g","pricing_plan_id":"cebpf4jnsgd1na2vs0mg"},{"bike_id":"ccfdb431-bb04-4363-b7af-1f627abac2a9","system_id":"levelo_inurba_marseille","lat":43.31114,"lon":5.37763,"is_reserved":false,"is_disabled":false,"rental_uris":{"android":"levelo://app?vid=ccfdb431-bb04-4363-b7af-1f627abac2a9","ios":"levelo://app?vid=ccfdb431-bb04-4363-b7af-1f627abac2a9"},"vehicle_type_id":"4","last_reported":1742379061,"current_range_meters":4000,"station_id":"ce4bgt92rcd13ifvqcg0","pricing_plan_id":"cebpf4jnsgd1na2vs0mg"},{"bike_id":"f09bc776-2518-4569-ac1a-dea4f4a696dd","system_id":"levelo_inurba_marseille","lat":43.30601,"lon":5.37256,"is_reserved":false,"is_disabled":false,"rental_uris":{"android":"levelo://app?vid=f09bc776-2518-4569-ac1a-dea4f4a696dd","ios":"levelo://app?vid=f09bc776-2518-4569-ac1a-dea4f4a696dd"},"vehicle_type_id":"4","last_reported":1742379061,"current_range_meters":4000,"station_id":"","pricing_plan_id":"cebpf4jnsgd1na2vs0mg"},{"bike_id":"d1545a85-0a45-478f-b2e4-9f498e55e1ab","system_id":"levelo_inurba_marseille","lat":43.24141,"lon":5.36414,"is_reserved":false,"is_disabled":false,"rental_uris":{"android":"levelo://app?vid=d1545a85-0a45-478f-b2e4-9f498e55e1ab","ios":"levelo://app?vid=d1545a85-0a45-478f-b2e4-9f498e55e1ab"},"vehicle_type_id":"4","last_reported":1742379061,"current_range_meters":4400,"station_id":"cpo36qri1sfpv3e86is0","pricing_plan_id":"cebpf4jnsgd1na2vs0mg"},{"bike_id":"56c96f54-f3ad-4e3b-882a-3ef396c7ce4c","system_id":"levelo_inurba_marseille","lat":43.26958,"lon":5.38645,"is_reserved":false,"is_disabled":false,"rental_uris":{"android":"levelo://app?vid=56c96f54-f3ad-4e3b-882a-3ef396c7ce4c","ios":"levelo://app?vid=56c96f54-f3ad-4e3b-882a-3ef396c7ce4c"},"vehicle_type_id":"4","last_reported":1742379061,"current_range_meters":4400,"station_id":"ce4bhh92rcd13ifvqfh0","pricing_plan_id":"cebpf4jnsgd1na2vs0mg"},{"bike_id":"36b45bdf-8a03-4146-b8a6-9fb01bfd8256","system_id":"levelo_inurba_marseille","lat":43.25871,"lon":5.39898,"is_reserved":false,"is_disabled":false,"rental_uris":{"android":"levelo://app?vid=36b45bdf-8a03-4146-b8a6-9fb01bfd8256","ios":"levelo://app?vid=36b45bdf-8a03-4146-b8a6-9fb01bfd8256"},"vehicle_type_id":"4","last_reported":1742379061,"current_range_meters":4000,"station_id":"ce4bhl92rcd13ifvqghg","pricing_plan_id":"cebpf4jnsgd1na2vs0mg"},{"bike_id":"1397bb77-f3a2-460b-98a8-9695ba7be8a5","system_id":"levelo_inurba_marseille","lat":43.29369,"lon":5.37848,"is_reserved":false,"is_disabled":false,"rental_uris":{"android":"levelo://app?vid=1397bb77-f3a2-460b-98a8-9695ba7be8a5","ios":"levelo://app?vid=1397bb77-f3a2-460b-98a8-9695ba7be8a5"},"vehicle_type_id":"4","last_reported":1742379061,"current_range_meters":4400,"station_id":"ce4bgjh2rcd13ifvqbf0","pricing_plan_id":"cebpf4jnsgd1na2vs0mg"},{"bike_id":"8a4e1b2e-8fac-480b-a668-ef6a620a9814","system_id":"levelo_inurba_marseille","lat":43.27861,"lon":5.42438,"is_reserved":false,"is_disabled":false,"rental_uris":{"android":"levelo://app?vid=8a4e1b2e-8fac-480b-a668-ef6a620a9814","ios":"levelo://app?vid=8a4e1b2e-8fac-480b-a668-ef6a620a9814"},"vehicle_type_id":"4","last_reported":1742379061,"current_range_meters":4400,"station_id":"","pricing_plan_id":"cebpf4jnsgd1na2vs0mg"},{"bike_id":"e7ac7a57-bc7a-451e-be23-ef2cbf01a9ae","system_id":"levelo_inurba_marseille","lat":43.29004,"lon":5.37125,"is_reserved":false,"is_disabled":false,"rental_uris":{"android":"levelo://app?vid=e7ac7a57-bc7a-451e-be23-ef2cbf01a9ae","ios":"levelo://app?vid=e7ac7a57-bc7a-451e-be23-ef2cbf01a9ae"},"vehicle_type_id":"4","last_reported":1742379061,"current_range_meters":4400,"station_id":"","pricing_plan_id":"cebpf4jnsgd1na2vs0mg"},{"bike_id":"0c5f19ed-78a8-46b9-9337-8e003f9d9dd2","system_id":"levelo_inurba_marseille","lat":43.30149,"lon":5.38079,"is_reserved":false,"is_disabled":false,"rental_uris":{"android":"levelo://app?vid=0c5f19ed-78a8-46b9-9337-8e003f9d9dd2","ios":"levelo://app?vid=0c5f19ed-78a8-46b9-9337-8e003f9d9dd2"},"vehicle_type_id":"4","last_reported":1742379061,"current_range_meters":4400,"station_id":"ce4bgjp2rcd13ifvqbh0","pricing_plan_id":"cebpf4jnsgd1na2vs0mg"},{"bike_id":"c952cdb2-973f-4bd0-a1ba-3f53e2f0159d","system_id":"levelo_inurba_marseille","lat":43.29885,"lon":5.38896,"is_reserved":false,"is_disabled":false,"rental_uris":{"android":"levelo://app?vid=c952cdb2-973f-4bd0-a1ba-3f53e2f0159d","ios":"levelo://app?vid=c952cdb2-973f-4bd0-a1ba-3f53e2f0159d"},"vehicle_type_id":"4","last_reported":1742379061,"current_range_meters":4800,"station_id":"ce4bh392rcd13ifvqdl0","pricing_plan_id":"cebpf4jnsgd1na2vs0mg"},{"bike_id":"a4647986-2229-462e-9248-2a45a552d1fb","system_id":"levelo_inurba_marseille","lat":43.31389,"lon":5.36692,"is_reserved":false,"is_disabled":false,"rental_uris":{"android":"levelo://app?vid=a4647986-2229-462e-9248-2a45a552d1fb","ios":"levelo://app?vid=a4647986-2229-462e-9248-2a45a552d1fb"},"vehicle_type_id":"4","last_reported":1742379061,"current_range_meters":4800,"station_id":"","pricing_plan_id":"cebpf4jnsgd1na2vs0mg"},{"bike_id":"f51f34c4-1fe1-43c1-b616-3067162d8b45","system_id":"levelo_inurba_marseille","lat":43.24191,"lon":5.39713,"is_reserved":false,"is_disabled":false,"rental_uris":{"android":"levelo://app?vid=f51f34c4-1fe1-43c1-b616-3067162d8b45","ios":"levelo://app?vid=f51f34c4-1fe1-43c1-b616-3067162d8b45"},"vehicle_type_id":"4","last_reported":1742379061,"current_range_meters":4800,"station_id":"ce4bhn12rcd13ifvqgpg","pricing_plan_id":"cebpf4jnsgd1na2vs0mg"},{"bike_id":"0d673572-12c4-4a7a-9816-a9803ee95c6b","system_id":"levelo_inurba_marseille","lat":43.299251,"lon":5.398556,"is_reserved":false,"is_disabled":false,"rental_uris":{"android":"levelo://app?vid=0d673572-12c4-4a7a-9816-a9803ee95c6b","ios":"levelo://app?vid=0d673572-12c4-4a7a-9816-a9803ee95c6b"},"vehicle_type_id":"4","last_reported":1742379061,"current_range_meters":4800,"station_id":"ce4bh312rcd13ifvqdk0","pricing_plan_id":"cebpf4jnsgd1na2vs0mg"},{"bike_id":"edf15af3-1e8a-4be7-89e5-57735abdfb36","system_id":"levelo_inurba_marseille","lat":43.23154,"lon":5.43715,"is_reserved":false,"is_disabled":false,"rental_uris":{"android":"levelo://app?vid=edf15af3-1e8a-4be7-89e5-57735abdfb36","ios":"levelo://app?vid=edf15af3-1e8a-4be7-89e5-57735abdfb36"},"vehicle_type_id":"4","last_reported":1742379061,"current_range_meters":4800,"station_id":"ce4bhmp2rcd13ifvqgog","pricing_plan_id":"cebpf4jnsgd1na2vs0mg"},{"bike_id":"444ca085-c785-4d56-8339-9d70bc0983ca","system_id":"levelo_inurba_marseille","lat":43.30541,"lon":5.36513,"is_reserved":false,"is_disabled":false,"rental_uris":{"android":"levelo://app?vid=444ca085-c785-4d56-8339-9d70bc0983ca","ios":"levelo://app?vid=444ca085-c785-4d56-8339-9d70bc0983ca"},"vehicle_type_id":"4","last_reported":1742379061,"current_range_meters":5600,"station_id":"ce4bgs12rcd13ifvqcag","pricing_plan_id":"cebpf4jnsgd1na2vs0mg"},{"bike_id":"88d2cdc4-288c-4d5f-86ac-bce25ff667b4","system_id":"levelo_inurba_marseille","lat":43.30552,"lon":5.3654,"is_reserved":false,"is_disabled":false,"rental_uris":{"android":"levelo://app?vid=88d2cdc4-288c-4d5f-86ac-bce25ff667b4","ios":"levelo://app?vid=88d2cdc4-288c-4d5f-86ac-bce25ff667b4"},"vehicle_type_id":"4","last_reported":1742379061,"current_range_meters":5600,"station_id":"ce4bgs12rcd13ifvqcag","pricing_plan_id":"cebpf4jnsgd1na2vs0mg"},{"bike_id":"79ca293f-62bc-4ed8-8c2f-c8a870c5619c","system_id":"levelo_inurba_marseille","lat":43.31349,"lon":5.36714,"is_reserved":false,"is_disabled":false,"rental_uris":{"android":"levelo://app?vid=79ca293f-62bc-4ed8-8c2f-c8a870c5619c","ios":"levelo://app?vid=79ca293f-62bc-4ed8-8c2f-c8a870c5619c"},"vehicle_type_id":"4","last_reported":1742379061,"current_range_meters":5600,"station_id":"ce4bgr92rcd13ifvqc6g","pricing_plan_id":"cebpf4jnsgd1na2vs0mg"},{"bike_id":"99dd7654-2075-4099-aec2-4e77510eab61","system_id":"levelo_inurba_marseille","lat":43.3361,"lon":5.41043,"is_reserved":false,"is_disabled":false,"rental_uris":{"android":"levelo://app?vid=99dd7654-2075-4099-aec2-4e77510eab61","ios":"levelo://app?vid=99dd7654-2075-4099-aec2-4e77510eab61"},"vehicle_type_id":"4","last_reported":1742379061,"current_range_meters":5600,"station_id":"ce4bhqh2rcd13ifvqhmg","pricing_plan_id":"cebpf4jnsgd1na2vs0mg"},{"bike_id":"24695756-5ec5-49d5-a8dd-252d655ff455","system_id":"levelo_inurba_marseille","lat":43.27068,"lon":5.38948,"is_reserved":false,"is_disabled":false,"rental_uris":{"android":"levelo://app?vid=24695756-5ec5-49d5-a8dd-252d655ff455","ios":"levelo://app?vid=24695756-5ec5-49d5-a8dd-252d655ff455"},"vehicle_type_id":"4","last_reported":1742379061,"current_range_meters":5600,"station_id":"ce4bhhp2rcd13ifvqfm0","pricing_plan_id":"cebpf4jnsgd1na2vs0mg"},{"bike_id":"284246fb-e8a0-47be-af3d-27a97f0de6bc","system_id":"levelo_inurba_marseille","lat":43.24075,"lon":5.37763,"is_reserved":false,"is_disabled":false,"rental_uris":{"android":"levelo://app?vid=284246fb-e8a0-47be-af3d-27a97f0de6bc","ios":"levelo://app?vid=284246fb-e8a0-47be-af3d-27a97f0de6bc"},"vehicle_type_id":"4","last_reported":1742379061,"current_range_meters":6000,"station_id":"ce4bhnp2rcd13ifvqgvg","pricing_plan_id":"cebpf4jnsgd1na2vs0mg"},{"bike_id":"52bd4f14-775f-459f-9791-851d088e69cb","system_id":"levelo_inurba_marseille","lat":43.25018,"lon":5.38931,"is_reserved":false,"is_disabled":false,"rental_uris":{"android":"levelo://app?vid=52bd4f14-775f-459f-9791-851d088e69cb","ios":"levelo://app?vid=52bd4f14-775f-459f-9791-851d088e69cb"},"vehicle_type_id":"4","last_reported":1742379061,"current_range_meters":6000,"station_id":"ce4bhgp2rcd13ifvqfd0","pricing_plan_id":"cebpf4jnsgd1na2vs0mg"},{"bike_id":"5cc7107b-4638-44b7-9016-fb56a8137a82","system_id":"levelo_inurba_marseille","lat":43.33045,"lon":5.39032,"is_reserved":false,"is_disabled":false,"rental_uris":{"android":"levelo://app?vid=5cc7107b-4638-44b7-9016-fb56a8137a82","ios":"levelo://app?vid=5cc7107b-4638-44b7-9016-fb56a8137a82"},"vehicle_type_id":"4","last_reported":1742379061,"current_range_meters":6000,"station_id":"ce4bhr92rcd13ifvqhrg","pricing_plan_id":"cebpf4jnsgd1na2vs0mg"},{"bike_id":"a2b55b3e-6d2a-48ab-b87d-838913aa8d96","system_id":"levelo_inurba_marseille","lat":43.2594,"lon":5.40895,"is_reserved":false,"is_disabled":false,"rental_uris":{"android":"levelo://app?vid=a2b55b3e-6d2a-48ab-b87d-838913aa8d96","ios":"levelo://app?vid=a2b55b3e-6d2a-48ab-b87d-838913aa8d96"},"vehicle_type_id":"4","last_reported":1742379061,"current_range_meters":6000,"station_id":"ce4bhm92rcd13ifvqglg","pricing_plan_id":"cebpf4jnsgd1na2vs0mg"},{"bike_id":"4f6d11f4-8d23-4e35-8c59-e818e64ce7ab","system_id":"levelo_inurba_marseille","lat":43.29528,"lon":5.43899,"is_reserved":false,"is_disabled":false,"rental_uris":{"android":"levelo://app?vid=4f6d11f4-8d23-4e35-8c59-e818e64ce7ab","ios":"levelo://app?vid=4f6d11f4-8d23-4e35-8c59-e818e64ce7ab"},"vehicle_type_id":"4","last_reported":1742379061,"current_range_meters":6000,"station_id":"","pricing_plan_id":"cebpf4jnsgd1na2vs0mg"},{"bike_id":"f3221df4-2e49-4fdd-b725-bd8774378770","system_id":"levelo_inurba_marseille","lat":43.241206,"lon":5.363358,"is_reserved":false,"is_disabled":false,"rental_uris":{"android":"levelo://app?vid=f3221df4-2e49-4fdd-b725-bd8774378770","ios":"levelo://app?vid=f3221df4-2e49-4fdd-b725-bd8774378770"},"vehicle_type_id":"4","last_reported":1742379061,"current_range_meters":6000,"station_id":"ce4bgj92rcd13ifvqbe0","pricing_plan_id":"cebpf4jnsgd1na2vs0mg"},{"bike_id":"2b13f4ac-f5a7-4be7-a38e-b248ce22b04d","system_id":"levelo_inurba_marseille","lat":43.31233,"lon":5.36846,"is_reserved":false,"is_disabled":false,"rental_uris":{"android":"levelo://app?vid=2b13f4ac-f5a7-4be7-a38e-b248ce22b04d","ios":"levelo://app?vid=2b13f4ac-f5a7-4be7-a38e-b248ce22b04d"},"vehicle_type_id":"4","last_reported":1742379061,"current_range_meters":6000,"station_id":"ce4bgl92rcd13ifvqbq0","pricing_plan_id":"cebpf4jnsgd1na2vs0mg"},{"bike_id":"c8aebf71-8f92-4a15-a86e-14c7cfbd9a29","system_id":"levelo_inurba_marseille","lat":43.29601,"lon":5.38038,"is_reserved":false,"is_disabled":false,"rental_uris":{"android":"levelo://app?vid=c8aebf71-8f92-4a15-a86e-14c7cfbd9a29","ios":"levelo://app?vid=c8aebf71-8f92-4a15-a86e-14c7cfbd9a29"},"vehicle_type_id":"4","last_reported":1742379061,"current_range_meters":6000,"station_id":"","pricing_plan_id":"cebpf4jnsgd1na2vs0mg"},{"bike_id":"8f79f3b7-6513-4def-bb2d-05a7d82b97a5","system_id":"levelo_inurba_marseille","lat":43.24172,"lon":5.36407,"is_reserved":false,"is_disabled":false,"rental_uris":{"android":"levelo://app?vid=8f79f3b7-6513-4def-bb2d-05a7d82b97a5","ios":"levelo://app?vid=8f79f3b7-6513-4def-bb2d-05a7d82b97a5"},"vehicle_type_id":"4","last_reported":1742379061,"current_range_meters":6000,"station_id":"cpo36qri1sfpv3e86is0","pricing_plan_id":"cebpf4jnsgd1na2vs0mg"},{"bike_id":"0be2b54a-2df5-4cb9-ab77-c64ea4c4d6a6","system_id":"levelo_inurba_marseille","lat":43.29554,"lon":5.42266,"is_reserved":false,"is_disabled":false,"rental_uris":{"android":"levelo://app?vid=0be2b54a-2df5-4cb9-ab77-c64ea4c4d6a6","ios":"levelo://app?vid=0be2b54a-2df5-4cb9-ab77-c64ea4c4d6a6"},"vehicle_type_id":"4","last_reported":1742379061,"current_range_meters":6400,"station_id":"ce4bhph2rcd13ifvqhdg","pricing_plan_id":"cebpf4jnsgd1na2vs0mg"},{"bike_id":"4738f595-cdb2-45c9-81b7-1f237b0e1ce7","system_id":"levelo_inurba_marseille","lat":43.31707,"lon":5.37727,"is_reserved":false,"is_disabled":false,"rental_uris":{"android":"levelo://app?vid=4738f595-cdb2-45c9-81b7-1f237b0e1ce7","ios":"levelo://app?vid=4738f595-cdb2-45c9-81b7-1f237b0e1ce7"},"vehicle_type_id":"4","last_reported":1742379061,"current_range_meters":6400,"station_id":"ce4bgth2rcd13ifvqch0","pricing_plan_id":"cebpf4jnsgd1na2vs0mg"},{"bike_id":"eace6b6a-b3cf-4501-bb8b-a4419e0acacf","system_id":"levelo_inurba_marseille","lat":43.29616,"lon":5.3772,"is_reserved":false,"is_disabled":false,"rental_uris":{"android":"levelo://app?vid=eace6b6a-b3cf-4501-bb8b-a4419e0acacf","ios":"levelo://app?vid=eace6b6a-b3cf-4501-bb8b-a4419e0acacf"},"vehicle_type_id":"4","last_reported":1742379061,"current_range_meters":6400,"station_id":"","pricing_plan_id":"cebpf4jnsgd1na2vs0mg"},{"bike_id":"8528cfd6-758c-4197-aaac-800294acfea6","system_id":"levelo_inurba_marseille","lat":43.25878,"lon":5.39923,"is_reserved":false,"is_disabled":false,"rental_uris":{"android":"levelo://app?vid=8528cfd6-758c-4197-aaac-800294acfea6","ios":"levelo://app?vid=8528cfd6-758c-4197-aaac-800294acfea6"},"vehicle_type_id":"4","last_reported":1742379061,"current_range_meters":6400,"station_id":"ce4bhl92rcd13ifvqghg","pricing_plan_id":"cebpf4jnsgd1na2vs0mg"},{"bike_id":"b0ba98e1-4ebc-4a16-96dc-8685ca13ec7a","system_id":"levelo_inurba_marseille","lat":43.27215,"lon":5.39192,"is_reserved":false,"is_disabled":false,"rental_uris":{"android":"levelo://app?vid=b0ba98e1-4ebc-4a16-96dc-8685ca13ec7a","ios":"levelo://app?vid=b0ba98e1-4ebc-4a16-96dc-8685ca13ec7a"},"vehicle_type_id":"4","last_reported":1742379061,"current_range_meters":6400,"station_id":"ce4bhhp2rcd13ifvqfm0","pricing_plan_id":"cebpf4jnsgd1na2vs0mg"},{"bike_id":"6bdb9dcd-e491-4708-b65f-6635c942b502","system_id":"levelo_inurba_marseille","lat":43.271,"lon":5.42288,"is_reserved":false,"is_disabled":false,"rental_uris":{"android":"levelo://app?vid=6bdb9dcd-e491-4708-b65f-6635c942b502","ios":"levelo://app?vid=6bdb9dcd-e491-4708-b65f-6635c942b502"},"vehicle_type_id":"4","last_reported":1742379061,"current_range_meters":6400,"station_id":"ce4bhk92rcd13ifvqgb0","pricing_plan_id":"cebpf4jnsgd1na2vs0mg"},{"bike_id":"faccb755-09d8-4857-a76e-a52465dbf53e","system_id":"levelo_inurba_marseille","lat":43.2842,"lon":5.34985,"is_reserved":false,"is_disabled":false,"rental_uris":{"android":"levelo://app?vid=faccb755-09d8-4857-a76e-a52465dbf53e","ios":"levelo://app?vid=faccb755-09d8-4857-a76e-a52465dbf53e"},"vehicle_type_id":"4","last_reported":1742379061,"current_range_meters":6800,"station_id":"ce4bhbh2rcd13ifvqepg","pricing_plan_id":"cebpf4jnsgd1na2vs0mg"},{"bike_id":"1a7bb143-fd23-46c3-8802-a51a9f35d22b","system_id":"levelo_inurba_marseille","lat":43.25829,"lon":5.3944,"is_reserved":false,"is_disabled":false,"rental_uris":{"android":"levelo://app?vid=1a7bb143-fd23-46c3-8802-a51a9f35d22b","ios":"levelo://app?vid=1a7bb143-fd23-46c3-8802-a51a9f35d22b"},"vehicle_type_id":"4","last_reported":1742379061,"current_range_meters":6800,"station_id":"ce4bhip2rcd13ifvqft0","pricing_plan_id":"cebpf4jnsgd1na2vs0mg"},{"bike_id":"f06bf3e3-e368-4cb8-b4fb-8e0bf8a39ba0","system_id":"levelo_inurba_marseille","lat":43.3013,"lon":5.38786,"is_reserved":false,"is_disabled":false,"rental_uris":{"android":"levelo://app?vid=f06bf3e3-e368-4cb8-b4fb-8e0bf8a39ba0","ios":"levelo://app?vid=f06bf3e3-e368-4cb8-b4fb-8e0bf8a39ba0"},"vehicle_type_id":"4","last_reported":1742379061,"current_range_meters":6800,"station_id":"ce4bghh2rcd13ifvqb60","pricing_plan_id":"cebpf4jnsgd1na2vs0mg"},{"bike_id":"d0ecd06f-b344-485c-8550-9fa5bf448f53","system_id":"levelo_inurba_marseille","lat":43.25838,"lon":5.39423,"is_reserved":false,"is_disabled":false,"rental_uris":{"android":"levelo://app?vid=d0ecd06f-b344-485c-8550-9fa5bf448f53","ios":"levelo://app?vid=d0ecd06f-b344-485c-8550-9fa5bf448f53"},"vehicle_type_id":"4","last_reported":1742379061,"current_range_meters":6800,"station_id":"ce4bhip2rcd13ifvqft0","pricing_plan_id":"cebpf4jnsgd1na2vs0mg"},{"bike_id":"049b5602-ba3f-4a09-ad40-b8c54e6f1cb6","system_id":"levelo_inurba_marseille","lat":43.25005,"lon":5.38932,"is_reserved":false,"is_disabled":false,"rental_uris":{"android":"levelo://app?vid=049b5602-ba3f-4a09-ad40-b8c54e6f1cb6","ios":"levelo://app?vid=049b5602-ba3f-4a09-ad40-b8c54e6f1cb6"},"vehicle_type_id":"4","last_reported":1742379061,"current_range_meters":6800,"station_id":"ce4bhgp2rcd13ifvqfd0","pricing_plan_id":"cebpf4jnsgd1na2vs0mg"},{"bike_id":"c12dbdad-22a4-4e8a-bfd1-73baf79aae9f","system_id":"levelo_inurba_marseille","lat":43.30178,"lon":5.37417,"is_reserved":false,"is_disabled":false,"rental_uris":{"android":"levelo://app?vid=c12dbdad-22a4-4e8a-bfd1-73baf79aae9f","ios":"levelo://app?vid=c12dbdad-22a4-4e8a-bfd1-73baf79aae9f"},"vehicle_type_id":"4","last_reported":1742379061,"current_range_meters":6800,"station_id":"ce4bgs92rcd13ifvqcc0","pricing_plan_id":"cebpf4jnsgd1na2vs0mg"},{"bike_id":"a3bdd7a0-082b-43aa-8c66-de9aa41563f2","system_id":"levelo_inurba_marseille","lat":43.31364,"lon":5.3849,"is_reserved":false,"is_disabled":false,"rental_uris":{"android":"levelo://app?vid=a3bdd7a0-082b-43aa-8c66-de9aa41563f2","ios":"levelo://app?vid=a3bdd7a0-082b-43aa-8c66-de9aa41563f2"},"vehicle_type_id":"4","last_reported":1742379061,"current_range_meters":6800,"station_id":"ce4bgt92rcd13ifvqcf0","pricing_plan_id":"cebpf4jnsgd1na2vs0mg"},{"bike_id":"d3cc3b00-f881-4a5a-8920-6e75d0fcab4b","system_id":"levelo_inurba_marseille","lat":43.30317,"lon":5.36921,"is_reserved":false,"is_disabled":false,"rental_uris":{"android":"levelo://app?vid=d3cc3b00-f881-4a5a-8920-6e75d0fcab4b","ios":"levelo://app?vid=d3cc3b00-f881-4a5a-8920-6e75d0fcab4b"},"vehicle_type_id":"4","last_reported":1742379061,"current_range_meters":6800,"station_id":"ce4bgqh2rcd13ifvqc5g","pricing_plan_id":"cebpf4jnsgd1na2vs0mg"},{"bike_id":"2fc9495d-c829-4229-a4db-5c8674880d7a","system_id":"levelo_inurba_marseille","lat":43.23038,"lon":5.35405,"is_reserved":false,"is_disabled":false,"rental_uris":{"android":"levelo://app?vid=2fc9495d-c829-4229-a4db-5c8674880d7a","ios":"levelo://app?vid=2fc9495d-c829-4229-a4db-5c8674880d7a"},"vehicle_type_id":"4","last_reported":1742379061,"current_range_meters":6800,"station_id":"cpo3342slgdg3j2ifvpg","pricing_plan_id":"cebpf4jnsgd1na2vs0mg"},{"bike_id":"0a4eeb4c-13c2-4080-92d0-9d87181fd89b","system_id":"levelo_inurba_marseille","lat":43.30198,"lon":5.3661,"is_reserved":false,"is_disabled":false,"rental_uris":{"android":"levelo://app?vid=0a4eeb4c-13c2-4080-92d0-9d87181fd89b","ios":"levelo://app?vid=0a4eeb4c-13c2-4080-92d0-9d87181fd89b"},"vehicle_type_id":"4","last_reported":1742379061,"current_range_meters":6800,"station_id":"ce4bgrh2rcd13ifvqc8g","pricing_plan_id":"cebpf4jnsgd1na2vs0mg"},{"bike_id":"4af30189-94be-48ce-a528-0780bcce0809","system_id":"levelo_inurba_marseille","lat":43.23156,"lon":5.4372,"is_reserved":false,"is_disabled":false,"rental_uris":{"android":"levelo://app?vid=4af30189-94be-48ce-a528-0780bcce0809","ios":"levelo://app?vid=4af30189-94be-48ce-a528-0780bcce0809"},"vehicle_type_id":"4","last_reported":1742379061,"current_range_meters":6800,"station_id":"ce4bhmp2rcd13ifvqgog","pricing_plan_id":"cebpf4jnsgd1na2vs0mg"},{"bike_id":"e113fe97-3ef4-4fb3-8e0c-6311bdcf6e67","system_id":"levelo_inurba_marseille","lat":43.30953,"lon":5.3906,"is_reserved":false,"is_disabled":false,"rental_uris":{"android":"levelo://app?vid=e113fe97-3ef4-4fb3-8e0c-6311bdcf6e67","ios":"levelo://app?vid=e113fe97-3ef4-4fb3-8e0c-6311bdcf6e67"},"vehicle_type_id":"4","last_reported":1742379061,"current_range_meters":6800,"station_id":"ce4bgup2rcd13ifvqco0","pricing_plan_id":"cebpf4jnsgd1na2vs0mg"},{"bike_id":"0b60e72b-d8b1-4266-9b63-b94b87c1ad4b","system_id":"levelo_inurba_marseille","lat":43.23195,"lon":5.40014,"is_reserved":false,"is_disabled":false,"rental_uris":{"android":"levelo://app?vid=0b60e72b-d8b1-4266-9b63-b94b87c1ad4b","ios":"levelo://app?vid=0b60e72b-d8b1-4266-9b63-b94b87c1ad4b"},"vehicle_type_id":"4","last_reported":1742379061,"current_range_meters":7200,"station_id":"ce4bhn12rcd13ifvqgqg","pricing_plan_id":"cebpf4jnsgd1na2vs0mg"},{"bike_id":"a04ae831-6869-46e7-9513-0e6fd0cb0802","system_id":"levelo_inurba_marseille","lat":43.24065,"lon":5.37754,"is_reserved":false,"is_disabled":false,"rental_uris":{"android":"levelo://app?vid=a04ae831-6869-46e7-9513-0e6fd0cb0802","ios":"levelo://app?vid=a04ae831-6869-46e7-9513-0e6fd0cb0802"},"vehicle_type_id":"4","last_reported":1742379061,"current_range_meters":7200,"station_id":"ce4bhnp2rcd13ifvqgvg","pricing_plan_id":"cebpf4jnsgd1na2vs0mg"},{"bike_id":"538b2a74-6dc4-43cc-b3ce-cd2555f34771","system_id":"levelo_inurba_marseille","lat":43.3097,"lon":5.39081,"is_reserved":false,"is_disabled":false,"rental_uris":{"android":"levelo://app?vid=538b2a74-6dc4-43cc-b3ce-cd2555f34771","ios":"levelo://app?vid=538b2a74-6dc4-43cc-b3ce-cd2555f34771"},"vehicle_type_id":"4","last_reported":1742379061,"current_range_meters":7200,"station_id":"ce4bgup2rcd13ifvqco0","pricing_plan_id":"cebpf4jnsgd1na2vs0mg"},{"bike_id":"3c4f394c-0305-4c58-97e5-6826bd9d917e","system_id":"levelo_inurba_marseille","lat":43.32485,"lon":5.36579,"is_reserved":false,"is_disabled":false,"rental_uris":{"android":"levelo://app?vid=3c4f394c-0305-4c58-97e5-6826bd9d917e","ios":"levelo://app?vid=3c4f394c-0305-4c58-97e5-6826bd9d917e"},"vehicle_type_id":"4","last_reported":1742379061,"current_range_meters":7200,"station_id":"ce4bhs12rcd13ifvqhvg","pricing_plan_id":"cebpf4jnsgd1na2vs0mg"},{"bike_id":"6ae6f76c-6a01-4d75-9d3f-dfa610803a78","system_id":"levelo_inurba_marseille","lat":43.23074,"lon":5.35493,"is_reserved":false,"is_disabled":false,"rental_uris":{"android":"levelo://app?vid=6ae6f76c-6a01-4d75-9d3f-dfa610803a78","ios":"levelo://app?vid=6ae6f76c-6a01-4d75-9d3f-dfa610803a78"},"vehicle_type_id":"4","last_reported":1742379061,"current_range_meters":7200,"station_id":"cpo3342slgdg3j2ifvpg","pricing_plan_id":"cebpf4jnsgd1na2vs0mg"},{"bike_id":"519efbbc-7577-4063-8eac-658ef30e98a3","system_id":"levelo_inurba_marseille","lat":43.24986,"lon":5.38953,"is_reserved":false,"is_disabled":false,"rental_uris":{"android":"levelo://app?vid=519efbbc-7577-4063-8eac-658ef30e98a3","ios":"levelo://app?vid=519efbbc-7577-4063-8eac-658ef30e98a3"},"vehicle_type_id":"4","last_reported":1742379061,"current_range_meters":7200,"station_id":"ce4bhgp2rcd13ifvqfd0","pricing_plan_id":"cebpf4jnsgd1na2vs0mg"},{"bike_id":"49d04d98-1548-409e-b15d-5f0b85a3c26c","system_id":"levelo_inurba_marseille","lat":43.30388,"lon":5.42506,"is_reserved":false,"is_disabled":false,"rental_uris":{"android":"levelo://app?vid=49d04d98-1548-409e-b15d-5f0b85a3c26c","ios":"levelo://app?vid=49d04d98-1548-409e-b15d-5f0b85a3c26c"},"vehicle_type_id":"4","last_reported":1742379061,"current_range_meters":7200,"station_id":"ce4bhoh2rcd13ifvqh6g","pricing_plan_id":"cebpf4jnsgd1na2vs0mg"},{"bike_id":"9553fc41-3b3d-44f7-936a-8ce1e8d584d2","system_id":"levelo_inurba_marseille","lat":43.28453,"lon":5.39206,"is_reserved":false,"is_disabled":false,"rental_uris":{"android":"levelo://app?vid=9553fc41-3b3d-44f7-936a-8ce1e8d584d2","ios":"levelo://app?vid=9553fc41-3b3d-44f7-936a-8ce1e8d584d2"},"vehicle_type_id":"4","last_reported":1742379061,"current_range_meters":7200,"station_id":"ce4bhoh2rcd13ifvqh5g","pricing_plan_id":"cebpf4jnsgd1na2vs0mg"},{"bike_id":"b66e3e4d-6dc0-4c05-aa36-4515a235aa95","system_id":"levelo_inurba_marseille","lat":43.29201,"lon":5.39314,"is_reserved":false,"is_disabled":false,"rental_uris":{"android":"levelo://app?vid=b66e3e4d-6dc0-4c05-aa36-4515a235aa95","ios":"levelo://app?vid=b66e3e4d-6dc0-4c05-aa36-4515a235aa95"},"vehicle_type_id":"4","last_reported":1742379061,"current_range_meters":7200,"station_id":"ce4bh192rcd13ifvqdd0","pricing_plan_id":"cebpf4jnsgd1na2vs0mg"},{"bike_id":"2df387d1-4a46-4f9f-8803-4d523b375e9c","system_id":"levelo_inurba_marseille","lat":43.27836,"lon":5.3921,"is_reserved":false,"is_disabled":false,"rental_uris":{"android":"levelo://app?vid=2df387d1-4a46-4f9f-8803-4d523b375e9c","ios":"levelo://app?vid=2df387d1-4a46-4f9f-8803-4d523b375e9c"},"vehicle_type_id":"4","last_reported":1742379061,"current_range_meters":7200,"station_id":"ce4bhjp2rcd13ifvqga0","pricing_plan_id":"cebpf4jnsgd1na2vs0mg"},{"bike_id":"c54b50cb-f086-452c-a2b1-b4cf2841ab8c","system_id":"levelo_inurba_marseille","lat":43.30956,"lon":5.39046,"is_reserved":false,"is_disabled":false,"rental_uris":{"android":"levelo://app?vid=c54b50cb-f086-452c-a2b1-b4cf2841ab8c","ios":"levelo://app?vid=c54b50cb-f086-452c-a2b1-b4cf2841ab8c"},"vehicle_type_id":"4","last_reported":1742379061,"current_range_meters":8000,"station_id":"ce4bgup2rcd13ifvqco0","pricing_plan_id":"cebpf4jnsgd1na2vs0mg"},{"bike_id":"da4878b5-9980-4fb3-9a37-97d8cbd64e01","system_id":"levelo_inurba_marseille","lat":43.27314,"lon":5.3908,"is_reserved":false,"is_disabled":false,"rental_uris":{"android":"levelo://app?vid=da4878b5-9980-4fb3-9a37-97d8cbd64e01","ios":"levelo://app?vid=da4878b5-9980-4fb3-9a37-97d8cbd64e01"},"vehicle_type_id":"4","last_reported":1742379061,"current_range_meters":8000,"station_id":"ce4bhgp2rcd13ifvqfe0","pricing_plan_id":"cebpf4jnsgd1na2vs0mg"},{"bike_id":"ca1c0a28-8faf-435f-9d8b-370c3a07ff34","system_id":"levelo_inurba_marseille","lat":43.24165,"lon":5.36406,"is_reserved":false,"is_disabled":false,"rental_uris":{"android":"levelo://app?vid=ca1c0a28-8faf-435f-9d8b-370c3a07ff34","ios":"levelo://app?vid=ca1c0a28-8faf-435f-9d8b-370c3a07ff34"},"vehicle_type_id":"4","last_reported":1742379061,"current_range_meters":8000,"station_id":"cpo36qri1sfpv3e86is0","pricing_plan_id":"cebpf4jnsgd1na2vs0mg"},{"bike_id":"a342afa1-fe1b-4de5-8f98-f3f81167fac6","system_id":"levelo_inurba_marseille","lat":43.22944,"lon":5.35389,"is_reserved":false,"is_disabled":false,"rental_uris":{"android":"levelo://app?vid=a342afa1-fe1b-4de5-8f98-f3f81167fac6","ios":"levelo://app?vid=a342afa1-fe1b-4de5-8f98-f3f81167fac6"},"vehicle_type_id":"4","last_reported":1742379061,"current_range_meters":8000,"station_id":"cpo3532slgdg3j2ikp40","pricing_plan_id":"cebpf4jnsgd1na2vs0mg"},{"bike_id":"1b2b097c-30a0-445c-b086-9bc752348acb","system_id":"levelo_inurba_marseille","lat":43.2408,"lon":5.37753,"is_reserved":false,"is_disabled":false,"rental_uris":{"android":"levelo://app?vid=1b2b097c-30a0-445c-b086-9bc752348acb","ios":"levelo://app?vid=1b2b097c-30a0-445c-b086-9bc752348acb"},"vehicle_type_id":"4","last_reported":1742379061,"current_range_meters":8000,"station_id":"ce4bhnp2rcd13ifvqgvg","pricing_plan_id":"cebpf4jnsgd1na2vs0mg"},{"bike_id":"3bff80ec-e94e-42a9-988b-9e0817493bec","system_id":"levelo_inurba_marseille","lat":43.23199,"lon":5.35544,"is_reserved":false,"is_disabled":false,"rental_uris":{"android":"levelo://app?vid=3bff80ec-e94e-42a9-988b-9e0817493bec","ios":"levelo://app?vid=3bff80ec-e94e-42a9-988b-9e0817493bec"},"vehicle_type_id":"4","last_reported":1742379061,"current_range_meters":8000,"station_id":"ce4bhu92rcd13ifvqi70","pricing_plan_id":"cebpf4jnsgd1na2vs0mg"},{"bike_id":"61c41159-7a8b-45ee-a18c-926f56b3edec","system_id":"levelo_inurba_marseille","lat":43.25827,"lon":5.39432,"is_reserved":false,"is_disabled":false,"rental_uris":{"android":"levelo://app?vid=61c41159-7a8b-45ee-a18c-926f56b3edec","ios":"levelo://app?vid=61c41159-7a8b-45ee-a18c-926f56b3edec"},"vehicle_type_id":"4","last_reported":1742379061,"current_range_meters":8000,"station_id":"ce4bhip2rcd13ifvqft0","pricing_plan_id":"cebpf4jnsgd1na2vs0mg"},{"bike_id":"507548fe-45b7-473a-8973-0944b7d42659","system_id":"levelo_inurba_marseille","lat":43.29551,"lon":5.42286,"is_reserved":false,"is_disabled":true,"rental_uris":{"android":"levelo://app?vid=507548fe-45b7-473a-8973-0944b7d42659","ios":"levelo://app?vid=507548fe-45b7-473a-8973-0944b7d42659"},"vehicle_type_id":"4","last_reported":1742379061,"current_range_meters":8000,"station_id":"ce4bhph2rcd13ifvqhdg","pricing_plan_id":"cebpf4jnsgd1na2vs0mg"},{"bike_id":"e7727825-1550-4ac5-83b8-e36a5d869f96","system_id":"levelo_inurba_marseille","lat":43.26241,"lon":5.40459,"is_reserved":false,"is_disabled":false,"rental_uris":{"android":"levelo://app?vid=e7727825-1550-4ac5-83b8-e36a5d869f96","ios":"levelo://app?vid=e7727825-1550-4ac5-83b8-e36a5d869f96"},"vehicle_type_id":"4","last_reported":1742379061,"current_range_meters":8000,"station_id":"ce4bhmh2rcd13ifvqgmg","pricing_plan_id":"cebpf4jnsgd1na2vs0mg"},{"bike_id":"5e7f2900-8dff-43d3-84f9-b49a0307dfd2","system_id":"levelo_inurba_marseille","lat":43.28938,"lon":5.39639,"is_reserved":false,"is_disabled":false,"rental_uris":{"android":"levelo://app?vid=5e7f2900-8dff-43d3-84f9-b49a0307dfd2","ios":"levelo://app?vid=5e7f2900-8dff-43d3-84f9-b49a0307dfd2"},"vehicle_type_id":"4","last_reported":1742379061,"current_range_meters":7200,"station_id":"ce4bh3h2rcd13ifvqdn0","pricing_plan_id":"cebpf4jnsgd1na2vs0mg"},{"bike_id":"f21279f0-26ba-40b9-a5fb-1fd6c7d6abe3","system_id":"levelo_inurba_marseille","lat":43.25828,"lon":5.39442,"is_reserved":false,"is_disabled":false,"rental_uris":{"android":"levelo://app?vid=f21279f0-26ba-40b9-a5fb-1fd6c7d6abe3","ios":"levelo://app?vid=f21279f0-26ba-40b9-a5fb-1fd6c7d6abe3"},"vehicle_type_id":"4","last_reported":1742379061,"current_range_meters":8400,"station_id":"ce4bhip2rcd13ifvqft0","pricing_plan_id":"cebpf4jnsgd1na2vs0mg"},{"bike_id":"e4d45dd0-64e1-438b-960f-23bacc6e4e06","system_id":"levelo_inurba_marseille","lat":43.23143,"lon":5.43725,"is_reserved":false,"is_disabled":false,"rental_uris":{"android":"levelo://app?vid=e4d45dd0-64e1-438b-960f-23bacc6e4e06","ios":"levelo://app?vid=e4d45dd0-64e1-438b-960f-23bacc6e4e06"},"vehicle_type_id":"4","last_reported":1742379061,"current_range_meters":8400,"station_id":"ce4bhmp2rcd13ifvqgog","pricing_plan_id":"cebpf4jnsgd1na2vs0mg"},{"bike_id":"bd82a1ad-3fe0-4df5-9d0a-433edfa082db","system_id":"levelo_inurba_marseille","lat":43.24555,"lon":5.39546,"is_reserved":false,"is_disabled":false,"rental_uris":{"android":"levelo://app?vid=bd82a1ad-3fe0-4df5-9d0a-433edfa082db","ios":"levelo://app?vid=bd82a1ad-3fe0-4df5-9d0a-433edfa082db"},"vehicle_type_id":"4","last_reported":1742379061,"current_range_meters":8400,"station_id":"ce4bhlp2rcd13ifvqgjg","pricing_plan_id":"cebpf4jnsgd1na2vs0mg"},{"bike_id":"d00028dc-9b0d-47df-ad9d-778d21fb21b2","system_id":"levelo_inurba_marseille","lat":43.23195,"lon":5.35569,"is_reserved":false,"is_disabled":false,"rental_uris":{"android":"levelo://app?vid=d00028dc-9b0d-47df-ad9d-778d21fb21b2","ios":"levelo://app?vid=d00028dc-9b0d-47df-ad9d-778d21fb21b2"},"vehicle_type_id":"4","last_reported":1742379061,"current_range_meters":8400,"station_id":"ce4bhu92rcd13ifvqi70","pricing_plan_id":"cebpf4jnsgd1na2vs0mg"},{"bike_id":"539fc8c4-24e6-4af1-852f-0f9aae2257a1","system_id":"levelo_inurba_marseille","lat":43.23198,"lon":5.35553,"is_reserved":false,"is_disabled":false,"rental_uris":{"android":"levelo://app?vid=539fc8c4-24e6-4af1-852f-0f9aae2257a1","ios":"levelo://app?vid=539fc8c4-24e6-4af1-852f-0f9aae2257a1"},"vehicle_type_id":"4","last_reported":1742379061,"current_range_meters":8400,"station_id":"ce4bhu92rcd13ifvqi70","pricing_plan_id":"cebpf4jnsgd1na2vs0mg"},{"bike_id":"a222911a-0745-48f4-8afa-382ae2fd2e00","system_id":"levelo_inurba_marseille","lat":43.30535,"lon":5.36532,"is_reserved":false,"is_disabled":false,"rental_uris":{"android":"levelo://app?vid=a222911a-0745-48f4-8afa-382ae2fd2e00","ios":"levelo://app?vid=a222911a-0745-48f4-8afa-382ae2fd2e00"},"vehicle_type_id":"4","last_reported":1742379061,"current_range_meters":8400,"station_id":"ce4bgs12rcd13ifvqcag","pricing_plan_id":"cebpf4jnsgd1na2vs0mg"},{"bike_id":"7ba16f5b-fd2b-4da1-835b-3f2aba84d472","system_id":"levelo_inurba_marseille","lat":43.3054,"lon":5.36541,"is_reserved":false,"is_disabled":false,"rental_uris":{"android":"levelo://app?vid=7ba16f5b-fd2b-4da1-835b-3f2aba84d472","ios":"levelo://app?vid=7ba16f5b-fd2b-4da1-835b-3f2aba84d472"},"vehicle_type_id":"4","last_reported":1742379061,"current_range_meters":8400,"station_id":"ce4bgs12rcd13ifvqcag","pricing_plan_id":"cebpf4jnsgd1na2vs0mg"},{"bike_id":"89cb3140-d211-4c4d-97ca-7e01c3c4da90","system_id":"levelo_inurba_marseille","lat":43.23207,"lon":5.35563,"is_reserved":false,"is_disabled":false,"rental_uris":{"android":"levelo://app?vid=89cb3140-d211-4c4d-97ca-7e01c3c4da90","ios":"levelo://app?vid=89cb3140-d211-4c4d-97ca-7e01c3c4da90"},"vehicle_type_id":"4","last_reported":1742379061,"current_range_meters":8400,"station_id":"ce4bhu92rcd13ifvqi70","pricing_plan_id":"cebpf4jnsgd1na2vs0mg"},{"bike_id":"c8c8978e-8ff5-4862-bef8-3101e86f7af7","system_id":"levelo_inurba_marseille","lat":43.30596,"lon":5.3936,"is_reserved":false,"is_disabled":false,"rental_uris":{"android":"levelo://app?vid=c8c8978e-8ff5-4862-bef8-3101e86f7af7","ios":"levelo://app?vid=c8c8978e-8ff5-4862-bef8-3101e86f7af7"},"vehicle_type_id":"4","last_reported":1742379061,"current_range_meters":8400,"station_id":"ce4bh0p2rcd13ifvqd80","pricing_plan_id":"cebpf4jnsgd1na2vs0mg"},{"bike_id":"92d4205c-d33b-422f-a415-ad71884cbc9f","system_id":"levelo_inurba_marseille","lat":43.24998,"lon":5.38938,"is_reserved":false,"is_disabled":false,"rental_uris":{"android":"levelo://app?vid=92d4205c-d33b-422f-a415-ad71884cbc9f","ios":"levelo://app?vid=92d4205c-d33b-422f-a415-ad71884cbc9f"},"vehicle_type_id":"4","last_reported":1742379061,"current_range_meters":8400,"station_id":"ce4bhgp2rcd13ifvqfd0","pricing_plan_id":"cebpf4jnsgd1na2vs0mg"},{"bike_id":"dd039e60-65bb-4c3a-a12f-627ab036ab4c","system_id":"levelo_inurba_marseille","lat":43.30899,"lon":5.36854,"is_reserved":false,"is_disabled":false,"rental_uris":{"android":"levelo://app?vid=dd039e60-65bb-4c3a-a12f-627ab036ab4c","ios":"levelo://app?vid=dd039e60-65bb-4c3a-a12f-627ab036ab4c"},"vehicle_type_id":"4","last_reported":1742379061,"current_range_meters":8400,"station_id":"ce4bgn92rcd13ifvqbvg","pricing_plan_id":"cebpf4jnsgd1na2vs0mg"},{"bike_id":"6b162ed9-3599-4156-a34b-2df90433ae5c","system_id":"levelo_inurba_marseille","lat":43.24173,"lon":5.39739,"is_reserved":false,"is_disabled":false,"rental_uris":{"android":"levelo://app?vid=6b162ed9-3599-4156-a34b-2df90433ae5c","ios":"levelo://app?vid=6b162ed9-3599-4156-a34b-2df90433ae5c"},"vehicle_type_id":"4","last_reported":1742379061,"current_range_meters":8400,"station_id":"ce4bhn12rcd13ifvqgpg","pricing_plan_id":"cebpf4jnsgd1na2vs0mg"},{"bike_id":"7dd362db-0b5b-4df5-b998-3ec68449b35f","system_id":"levelo_inurba_marseille","lat":43.27507,"lon":5.42473,"is_reserved":false,"is_disabled":false,"rental_uris":{"android":"levelo://app?vid=7dd362db-0b5b-4df5-b998-3ec68449b35f","ios":"levelo://app?vid=7dd362db-0b5b-4df5-b998-3ec68449b35f"},"vehicle_type_id":"4","last_reported":1742379061,"current_range_meters":8800,"station_id":"ce4bhn92rcd13ifvqgrg","pricing_plan_id":"cebpf4jnsgd1na2vs0mg"},{"bike_id":"1cdd4cb0-5174-47d9-b59c-b9aedd3081d4","system_id":"levelo_inurba_marseille","lat":43.33596,"lon":5.41021,"is_reserved":false,"is_disabled":false,"rental_uris":{"android":"levelo://app?vid=1cdd4cb0-5174-47d9-b59c-b9aedd3081d4","ios":"levelo://app?vid=1cdd4cb0-5174-47d9-b59c-b9aedd3081d4"},"vehicle_type_id":"4","last_reported":1742379061,"current_range_meters":8800,"station_id":"ce4bhqh2rcd13ifvqhmg","pricing_plan_id":"cebpf4jnsgd1na2vs0mg"},{"bike_id":"e94b1f20-3e0e-4dcb-9056-1e4af333e85a","system_id":"levelo_inurba_marseille","lat":43.28931,"lon":5.39708,"is_reserved":false,"is_disabled":false,"rental_uris":{"android":"levelo://app?vid=e94b1f20-3e0e-4dcb-9056-1e4af333e85a","ios":"levelo://app?vid=e94b1f20-3e0e-4dcb-9056-1e4af333e85a"},"vehicle_type_id":"4","last_reported":1742379061,"current_range_meters":8800,"station_id":"","pricing_plan_id":"cebpf4jnsgd1na2vs0mg"},{"bike_id":"854fbef3-9265-4bb6-a6ac-980aabae185c","system_id":"levelo_inurba_marseille","lat":43.27075,"lon":5.42289,"is_reserved":false,"is_disabled":false,"rental_uris":{"android":"levelo://app?vid=854fbef3-9265-4bb6-a6ac-980aabae185c","ios":"levelo://app?vid=854fbef3-9265-4bb6-a6ac-980aabae185c"},"vehicle_type_id":"4","last_reported":1742379061,"current_range_meters":8800,"station_id":"ce4bhk92rcd13ifvqgb0","pricing_plan_id":"cebpf4jnsgd1na2vs0mg"},{"bike_id":"1ff4b712-0199-4a94-832d-5142c1180356","system_id":"levelo_inurba_marseille","lat":43.31373,"lon":5.36765,"is_reserved":false,"is_disabled":false,"rental_uris":{"android":"levelo://app?vid=1ff4b712-0199-4a94-832d-5142c1180356","ios":"levelo://app?vid=1ff4b712-0199-4a94-832d-5142c1180356"},"vehicle_type_id":"4","last_reported":1742379061,"current_range_meters":9200,"station_id":"","pricing_plan_id":"cebpf4jnsgd1na2vs0mg"},{"bike_id":"45233882-6a89-4b02-addd-28d39958200a","system_id":"levelo_inurba_marseille","lat":43.32363,"lon":5.36749,"is_reserved":false,"is_disabled":false,"rental_uris":{"android":"levelo://app?vid=45233882-6a89-4b02-addd-28d39958200a","ios":"levelo://app?vid=45233882-6a89-4b02-addd-28d39958200a"},"vehicle_type_id":"4","last_reported":1742379061,"current_range_meters":9200,"station_id":"ce4bhsh2rcd13ifvqi2g","pricing_plan_id":"cebpf4jnsgd1na2vs0mg"},{"bike_id":"99abc280-4c65-41fb-91b7-e47eb8d41ed1","system_id":"levelo_inurba_marseille","lat":43.31695,"lon":5.40469,"is_reserved":false,"is_disabled":false,"rental_uris":{"android":"levelo://app?vid=99abc280-4c65-41fb-91b7-e47eb8d41ed1","ios":"levelo://app?vid=99abc280-4c65-41fb-91b7-e47eb8d41ed1"},"vehicle_type_id":"4","last_reported":1742379061,"current_range_meters":9200,"station_id":"ce4bh012rcd13ifvqd00","pricing_plan_id":"cebpf4jnsgd1na2vs0mg"},{"bike_id":"10eed6fd-0341-4510-a4a6-4c8769f4a4be","system_id":"levelo_inurba_marseille","lat":43.26692,"lon":5.38274,"is_reserved":false,"is_disabled":false,"rental_uris":{"android":"levelo://app?vid=10eed6fd-0341-4510-a4a6-4c8769f4a4be","ios":"levelo://app?vid=10eed6fd-0341-4510-a4a6-4c8769f4a4be"},"vehicle_type_id":"4","last_reported":1742379061,"current_range_meters":9200,"station_id":"ce4bhg92rcd13ifvqf90","pricing_plan_id":"cebpf4jnsgd1na2vs0mg"},{"bike_id":"83f73e76-06ba-41e5-887d-160e98b3f38b","system_id":"levelo_inurba_marseille","lat":43.24826,"lon":5.3745,"is_reserved":false,"is_disabled":false,"rental_uris":{"android":"levelo://app?vid=83f73e76-06ba-41e5-887d-160e98b3f38b","ios":"levelo://app?vid=83f73e76-06ba-41e5-887d-160e98b3f38b"},"vehicle_type_id":"4","last_reported":1742379061,"current_range_meters":9200,"station_id":"ce4bhgh2rcd13ifvqfb0","pricing_plan_id":"cebpf4jnsgd1na2vs0mg"},{"bike_id":"4da10fc9-ca04-4201-a952-ed5f93ce34d2","system_id":"levelo_inurba_marseille","lat":43.28359,"lon":5.38101,"is_reserved":false,"is_disabled":false,"rental_uris":{"android":"levelo://app?vid=4da10fc9-ca04-4201-a952-ed5f93ce34d2","ios":"levelo://app?vid=4da10fc9-ca04-4201-a952-ed5f93ce34d2"},"vehicle_type_id":"4","last_reported":1742379061,"current_range_meters":9200,"station_id":"ce4bh412rcd13ifvqdr0","pricing_plan_id":"cebpf4jnsgd1na2vs0mg"},{"bike_id":"9a996c7c-0c58-46e2-97a6-72983ae1a6f0","system_id":"levelo_inurba_marseille","lat":43.30474,"lon":5.37915,"is_reserved":false,"is_disabled":false,"rental_uris":{"android":"levelo://app?vid=9a996c7c-0c58-46e2-97a6-72983ae1a6f0","ios":"levelo://app?vid=9a996c7c-0c58-46e2-97a6-72983ae1a6f0"},"vehicle_type_id":"4","last_reported":1742379061,"current_range_meters":9200,"station_id":"ce4bgup2rcd13ifvqcn0","pricing_plan_id":"cebpf4jnsgd1na2vs0mg"},{"bike_id":"2312adcb-aec8-4176-9b08-9c8733b32e1a","system_id":"levelo_inurba_marseille","lat":43.31254,"lon":5.36883,"is_reserved":false,"is_disabled":false,"rental_uris":{"android":"levelo://app?vid=2312adcb-aec8-4176-9b08-9c8733b32e1a","ios":"levelo://app?vid=2312adcb-aec8-4176-9b08-9c8733b32e1a"},"vehicle_type_id":"4","last_reported":1742379061,"current_range_meters":9200,"station_id":"ce4bgl92rcd13ifvqbq0","pricing_plan_id":"cebpf4jnsgd1na2vs0mg"},{"bike_id":"b132483d-1d99-4f2a-9ca2-8544144e934f","system_id":"levelo_inurba_marseille","lat":43.32353,"lon":5.38872,"is_reserved":false,"is_disabled":false,"rental_uris":{"android":"levelo://app?vid=b132483d-1d99-4f2a-9ca2-8544144e934f","ios":"levelo://app?vid=b132483d-1d99-4f2a-9ca2-8544144e934f"},"vehicle_type_id":"4","last_reported":1742379061,"current_range_meters":9200,"station_id":"ce4bhqp2rcd13ifvqhog","pricing_plan_id":"cebpf4jnsgd1na2vs0mg"},{"bike_id":"ec31732b-9dfc-48ca-aeba-f8aba544d1d4","system_id":"levelo_inurba_marseille","lat":43.25935,"lon":5.40891,"is_reserved":false,"is_disabled":false,"rental_uris":{"android":"levelo://app?vid=ec31732b-9dfc-48ca-aeba-f8aba544d1d4","ios":"levelo://app?vid=ec31732b-9dfc-48ca-aeba-f8aba544d1d4"},"vehicle_type_id":"4","last_reported":1742379061,"current_range_meters":9200,"station_id":"ce4bhm92rcd13ifvqglg","pricing_plan_id":"cebpf4jnsgd1na2vs0mg"},{"bike_id":"61e9fd90-e9dd-462d-a9bd-1aa2307b7287","system_id":"levelo_inurba_marseille","lat":43.231495,"lon":5.43708,"is_reserved":false,"is_disabled":false,"rental_uris":{"android":"levelo://app?vid=61e9fd90-e9dd-462d-a9bd-1aa2307b7287","ios":"levelo://app?vid=61e9fd90-e9dd-462d-a9bd-1aa2307b7287"},"vehicle_type_id":"4","last_reported":1742379061,"current_range_meters":9200,"station_id":"ce4bhmp2rcd13ifvqgog","pricing_plan_id":"cebpf4jnsgd1na2vs0mg"},{"bike_id":"73775d85-d06e-4705-b3d6-611dd3926542","system_id":"levelo_inurba_marseille","lat":43.25929,"lon":5.40913,"is_reserved":false,"is_disabled":false,"rental_uris":{"android":"levelo://app?vid=73775d85-d06e-4705-b3d6-611dd3926542","ios":"levelo://app?vid=73775d85-d06e-4705-b3d6-611dd3926542"},"vehicle_type_id":"4","last_reported":1742379061,"current_range_meters":9200,"station_id":"ce4bhm92rcd13ifvqglg","pricing_plan_id":"cebpf4jnsgd1na2vs0mg"},{"bike_id":"15eed323-29bd-4edf-88a5-76c6dbbfb920","system_id":"levelo_inurba_marseille","lat":43.29854,"lon":5.36264,"is_reserved":false,"is_disabled":false,"rental_uris":{"android":"levelo://app?vid=15eed323-29bd-4edf-88a5-76c6dbbfb920","ios":"levelo://app?vid=15eed323-29bd-4edf-88a5-76c6dbbfb920"},"vehicle_type_id":"4","last_reported":1742379061,"current_range_meters":9600,"station_id":"ce4bgpp2rcd13ifvqc3g","pricing_plan_id":"cebpf4jnsgd1na2vs0mg"},{"bike_id":"9120a4ae-d12d-4960-8b8a-de5034b59522","system_id":"levelo_inurba_marseille","lat":43.27213,"lon":5.39182,"is_reserved":false,"is_disabled":false,"rental_uris":{"android":"levelo://app?vid=9120a4ae-d12d-4960-8b8a-de5034b59522","ios":"levelo://app?vid=9120a4ae-d12d-4960-8b8a-de5034b59522"},"vehicle_type_id":"4","last_reported":1742379061,"current_range_meters":9600,"station_id":"ce4bhhp2rcd13ifvqfm0","pricing_plan_id":"cebpf4jnsgd1na2vs0mg"},{"bike_id":"505c6e85-22bf-4dc4-a762-e1ff9b054e2b","system_id":"levelo_inurba_marseille","lat":43.247917,"lon":5.406297,"is_reserved":false,"is_disabled":false,"rental_uris":{"android":"levelo://app?vid=505c6e85-22bf-4dc4-a762-e1ff9b054e2b","ios":"levelo://app?vid=505c6e85-22bf-4dc4-a762-e1ff9b054e2b"},"vehicle_type_id":"4","last_reported":1742379061,"current_range_meters":9600,"station_id":"ce4bhmp2rcd13ifvqgog","pricing_plan_id":"cebpf4jnsgd1na2vs0mg"},{"bike_id":"ca68af57-a275-4814-a127-9237c059e912","system_id":"levelo_inurba_marseille","lat":43.26835,"lon":5.39435,"is_reserved":false,"is_disabled":false,"rental_uris":{"android":"levelo://app?vid=ca68af57-a275-4814-a127-9237c059e912","ios":"levelo://app?vid=ca68af57-a275-4814-a127-9237c059e912"},"vehicle_type_id":"4","last_reported":1742379061,"current_range_meters":9600,"station_id":"ce4bhh12rcd13ifvqfg0","pricing_plan_id":"cebpf4jnsgd1na2vs0mg"},{"bike_id":"fa76ef1f-d2d3-412c-aeec-8fa47b54f6a2","system_id":"levelo_inurba_marseille","lat":43.32502,"lon":5.36577,"is_reserved":false,"is_disabled":false,"rental_uris":{"android":"levelo://app?vid=fa76ef1f-d2d3-412c-aeec-8fa47b54f6a2","ios":"levelo://app?vid=fa76ef1f-d2d3-412c-aeec-8fa47b54f6a2"},"vehicle_type_id":"4","last_reported":1742379061,"current_range_meters":9600,"station_id":"ce4bhs12rcd13ifvqhvg","pricing_plan_id":"cebpf4jnsgd1na2vs0mg"},{"bike_id":"d27d5afd-0e24-429e-8ec6-1c1f94770480","system_id":"levelo_inurba_marseille","lat":43.26953,"lon":5.38689,"is_reserved":false,"is_disabled":false,"rental_uris":{"android":"levelo://app?vid=d27d5afd-0e24-429e-8ec6-1c1f94770480","ios":"levelo://app?vid=d27d5afd-0e24-429e-8ec6-1c1f94770480"},"vehicle_type_id":"4","last_reported":1742379061,"current_range_meters":9600,"station_id":"ce4bhh92rcd13ifvqfh0","pricing_plan_id":"cebpf4jnsgd1na2vs0mg"},{"bike_id":"7f61d7be-d227-44df-9b33-b8f4965e514f","system_id":"levelo_inurba_marseille","lat":43.2319,"lon":5.35542,"is_reserved":false,"is_disabled":false,"rental_uris":{"android":"levelo://app?vid=7f61d7be-d227-44df-9b33-b8f4965e514f","ios":"levelo://app?vid=7f61d7be-d227-44df-9b33-b8f4965e514f"},"vehicle_type_id":"4","last_reported":1742379061,"current_range_meters":9600,"station_id":"ce4bhu92rcd13ifvqi70","pricing_plan_id":"cebpf4jnsgd1na2vs0mg"},{"bike_id":"8f2ce796-5b11-42cc-a98e-cdef8ad67592","system_id":"levelo_inurba_marseille","lat":43.30318,"lon":5.36902,"is_reserved":false,"is_disabled":false,"rental_uris":{"android":"levelo://app?vid=8f2ce796-5b11-42cc-a98e-cdef8ad67592","ios":"levelo://app?vid=8f2ce796-5b11-42cc-a98e-cdef8ad67592"},"vehicle_type_id":"4","last_reported":1742379061,"current_range_meters":9600,"station_id":"ce4bgqh2rcd13ifvqc5g","pricing_plan_id":"cebpf4jnsgd1na2vs0mg"},{"bike_id":"8abf66b0-4c7b-4a5b-9216-254c311cdf06","system_id":"levelo_inurba_marseille","lat":43.25588,"lon":5.38264,"is_reserved":false,"is_disabled":false,"rental_uris":{"android":"levelo://app?vid=8abf66b0-4c7b-4a5b-9216-254c311cdf06","ios":"levelo://app?vid=8abf66b0-4c7b-4a5b-9216-254c311cdf06"},"vehicle_type_id":"4","last_reported":1742379061,"current_range_meters":9600,"station_id":"ce4bhih2rcd13ifvqfs0","pricing_plan_id":"cebpf4jnsgd1na2vs0mg"},{"bike_id":"bee239d2-2a40-41dd-8204-6e42885fdc2f","system_id":"levelo_inurba_marseille","lat":43.3012,"lon":5.3742,"is_reserved":false,"is_disabled":false,"rental_uris":{"android":"levelo://app?vid=bee239d2-2a40-41dd-8204-6e42885fdc2f","ios":"levelo://app?vid=bee239d2-2a40-41dd-8204-6e42885fdc2f"},"vehicle_type_id":"4","last_reported":1742379061,"current_range_meters":9600,"station_id":"ce4bgs92rcd13ifvqcc0","pricing_plan_id":"cebpf4jnsgd1na2vs0mg"},{"bike_id":"f142dc05-f5d3-4cbc-afe5-c54cd3d760d6","system_id":"levelo_inurba_marseille","lat":43.28081,"lon":5.39625,"is_reserved":false,"is_disabled":false,"rental_uris":{"android":"levelo://app?vid=f142dc05-f5d3-4cbc-afe5-c54cd3d760d6","ios":"levelo://app?vid=f142dc05-f5d3-4cbc-afe5-c54cd3d760d6"},"vehicle_type_id":"4","last_reported":1742379061,"current_range_meters":9600,"station_id":"ce4bho12rcd13ifvqh2g","pricing_plan_id":"cebpf4jnsgd1na2vs0mg"},{"bike_id":"e9d211b6-6e3d-4470-a9dd-2faf17994d2e","system_id":"levelo_inurba_marseille","lat":43.28857,"lon":5.35839,"is_reserved":false,"is_disabled":false,"rental_uris":{"android":"levelo://app?vid=e9d211b6-6e3d-4470-a9dd-2faf17994d2e","ios":"levelo://app?vid=e9d211b6-6e3d-4470-a9dd-2faf17994d2e"},"vehicle_type_id":"4","last_reported":1742379061,"current_range_meters":9600,"station_id":"ce4bhb12rcd13ifvqem0","pricing_plan_id":"cebpf4jnsgd1na2vs0mg"},{"bike_id":"eb1b87c2-8633-452c-92ee-d083f5f14a15","system_id":"levelo_inurba_marseille","lat":43.30145,"lon":5.36618,"is_reserved":false,"is_disabled":false,"rental_uris":{"android":"levelo://app?vid=eb1b87c2-8633-452c-92ee-d083f5f14a15","ios":"levelo://app?vid=eb1b87c2-8633-452c-92ee-d083f5f14a15"},"vehicle_type_id":"4","last_reported":1742379061,"current_range_meters":10000,"station_id":"ce4bgrh2rcd13ifvqc8g","pricing_plan_id":"cebpf4jnsgd1na2vs0mg"},{"bike_id":"e2644985-4ddc-4b2c-a7dd-9ead993ab947","system_id":"levelo_inurba_marseille","lat":43.25115,"lon":5.40323,"is_reserved":false,"is_disabled":false,"rental_uris":{"android":"levelo://app?vid=e2644985-4ddc-4b2c-a7dd-9ead993ab947","ios":"levelo://app?vid=e2644985-4ddc-4b2c-a7dd-9ead993ab947"},"vehicle_type_id":"4","last_reported":1742379061,"current_range_meters":10000,"station_id":"ce4bhlh2rcd13ifvqgig","pricing_plan_id":"cebpf4jnsgd1na2vs0mg"},{"bike_id":"78c7f344-224f-4ee1-abbd-94f4d94ef023","system_id":"levelo_inurba_marseille","lat":43.23978,"lon":5.36624,"is_reserved":false,"is_disabled":false,"rental_uris":{"android":"levelo://app?vid=78c7f344-224f-4ee1-abbd-94f4d94ef023","ios":"levelo://app?vid=78c7f344-224f-4ee1-abbd-94f4d94ef023"},"vehicle_type_id":"4","last_reported":1742379061,"current_range_meters":10000,"station_id":"ce4bhi12rcd13ifvqfp0","pricing_plan_id":"cebpf4jnsgd1na2vs0mg"},{"bike_id":"9034c0b3-1976-4453-b033-3ff115c76c4c","system_id":"levelo_inurba_marseille","lat":43.2587,"lon":5.39905,"is_reserved":false,"is_disabled":false,"rental_uris":{"android":"levelo://app?vid=9034c0b3-1976-4453-b033-3ff115c76c4c","ios":"levelo://app?vid=9034c0b3-1976-4453-b033-3ff115c76c4c"},"vehicle_type_id":"4","last_reported":1742379061,"current_range_meters":9600,"station_id":"ce4bhl92rcd13ifvqghg","pricing_plan_id":"cebpf4jnsgd1na2vs0mg"},{"bike_id":"33eb9847-6092-46be-8588-371554193324","system_id":"levelo_inurba_marseille","lat":43.30205,"lon":5.36618,"is_reserved":false,"is_disabled":false,"rental_uris":{"android":"levelo://app?vid=33eb9847-6092-46be-8588-371554193324","ios":"levelo://app?vid=33eb9847-6092-46be-8588-371554193324"},"vehicle_type_id":"4","last_reported":1742379061,"current_range_meters":10000,"station_id":"ce4bgrh2rcd13ifvqc8g","pricing_plan_id":"cebpf4jnsgd1na2vs0mg"},{"bike_id":"08d56bcc-bbf2-4353-b0cf-3696938f842a","system_id":"levelo_inurba_marseille","lat":43.29231,"lon":5.36078,"is_reserved":false,"is_disabled":false,"rental_uris":{"android":"levelo://app?vid=08d56bcc-bbf2-4353-b0cf-3696938f842a","ios":"levelo://app?vid=08d56bcc-bbf2-4353-b0cf-3696938f842a"},"vehicle_type_id":"4","last_reported":1742379061,"current_range_meters":10000,"station_id":"ce4bhbh2rcd13ifvqeqg","pricing_plan_id":"cebpf4jnsgd1na2vs0mg"},{"bike_id":"927ccfa8-7feb-41ec-9901-39dd721ef6c8","system_id":"levelo_inurba_marseille","lat":43.27824,"lon":5.40717,"is_reserved":false,"is_disabled":false,"rental_uris":{"android":"levelo://app?vid=927ccfa8-7feb-41ec-9901-39dd721ef6c8","ios":"levelo://app?vid=927ccfa8-7feb-41ec-9901-39dd721ef6c8"},"vehicle_type_id":"4","last_reported":1742379061,"current_range_meters":10000,"station_id":"ce4bhnh2rcd13ifvqgtg","pricing_plan_id":"cebpf4jnsgd1na2vs0mg"},{"bike_id":"f939e8d3-351c-4010-9cb1-44904757ac7a","system_id":"levelo_inurba_marseille","lat":43.27176,"lon":5.41,"is_reserved":false,"is_disabled":false,"rental_uris":{"android":"levelo://app?vid=f939e8d3-351c-4010-9cb1-44904757ac7a","ios":"levelo://app?vid=f939e8d3-351c-4010-9cb1-44904757ac7a"},"vehicle_type_id":"4","last_reported":1742379061,"current_range_meters":10000,"station_id":"ce4bhl12rcd13ifvqgf0","pricing_plan_id":"cebpf4jnsgd1na2vs0mg"},{"bike_id":"f175e98e-b5f7-4bcf-a8d0-91885bb7df74","system_id":"levelo_inurba_marseille","lat":43.30158,"lon":5.37412,"is_reserved":false,"is_disabled":false,"rental_uris":{"android":"levelo://app?vid=f175e98e-b5f7-4bcf-a8d0-91885bb7df74","ios":"levelo://app?vid=f175e98e-b5f7-4bcf-a8d0-91885bb7df74"},"vehicle_type_id":"4","last_reported":1742379061,"current_range_meters":10000,"station_id":"ce4bgs92rcd13ifvqcc0","pricing_plan_id":"cebpf4jnsgd1na2vs0mg"},{"bike_id":"e4e9c206-4fbc-4baa-9db1-0f85766d4ac0","system_id":"levelo_inurba_marseille","lat":43.29707,"lon":5.37746,"is_reserved":false,"is_disabled":false,"rental_uris":{"android":"levelo://app?vid=e4e9c206-4fbc-4baa-9db1-0f85766d4ac0","ios":"levelo://app?vid=e4e9c206-4fbc-4baa-9db1-0f85766d4ac0"},"vehicle_type_id":"4","last_reported":1742379061,"current_range_meters":10000,"station_id":"ce4bgkh2rcd13ifvqbl0","pricing_plan_id":"cebpf4jnsgd1na2vs0mg"},{"bike_id":"bd68f678-16cb-4c38-81de-5da19b0ce0d5","system_id":"levelo_inurba_marseille","lat":43.24079,"lon":5.37744,"is_reserved":false,"is_disabled":false,"rental_uris":{"android":"levelo://app?vid=bd68f678-16cb-4c38-81de-5da19b0ce0d5","ios":"levelo://app?vid=bd68f678-16cb-4c38-81de-5da19b0ce0d5"},"vehicle_type_id":"4","last_reported":1742379061,"current_range_meters":10000,"station_id":"ce4bhnp2rcd13ifvqgvg","pricing_plan_id":"cebpf4jnsgd1na2vs0mg"},{"bike_id":"453d476e-d55d-432e-82a1-ce7d5ee8c4da","system_id":"levelo_inurba_marseille","lat":43.32513,"lon":5.36572,"is_reserved":false,"is_disabled":false,"rental_uris":{"android":"levelo://app?vid=453d476e-d55d-432e-82a1-ce7d5ee8c4da","ios":"levelo://app?vid=453d476e-d55d-432e-82a1-ce7d5ee8c4da"},"vehicle_type_id":"4","last_reported":1742379061,"current_range_meters":10000,"station_id":"ce4bhs12rcd13ifvqhvg","pricing_plan_id":"cebpf4jnsgd1na2vs0mg"},{"bike_id":"c4a86313-06f3-4614-aac3-998df5699df3","system_id":"levelo_inurba_marseille","lat":43.30618,"lon":5.3725,"is_reserved":false,"is_disabled":false,"rental_uris":{"android":"levelo://app?vid=c4a86313-06f3-4614-aac3-998df5699df3","ios":"levelo://app?vid=c4a86313-06f3-4614-aac3-998df5699df3"},"vehicle_type_id":"4","last_reported":1742379061,"current_range_meters":9600,"station_id":"ce4bgqh2rcd13ifvqc4g","pricing_plan_id":"cebpf4jnsgd1na2vs0mg"},{"bike_id":"c2f4da44-a44d-44d2-8be6-51648ee37d7f","system_id":"levelo_inurba_marseille","lat":43.25024,"lon":5.38947,"is_reserved":false,"is_disabled":false,"rental_uris":{"android":"levelo://app?vid=c2f4da44-a44d-44d2-8be6-51648ee37d7f","ios":"levelo://app?vid=c2f4da44-a44d-44d2-8be6-51648ee37d7f"},"vehicle_type_id":"4","last_reported":1742379061,"current_range_meters":10000,"station_id":"ce4bhgp2rcd13ifvqfd0","pricing_plan_id":"cebpf4jnsgd1na2vs0mg"},{"bike_id":"06a6152a-e477-491f-83ed-9b68fd573e32","system_id":"levelo_inurba_marseille","lat":43.25824,"lon":5.39382,"is_reserved":false,"is_disabled":false,"rental_uris":{"android":"levelo://app?vid=06a6152a-e477-491f-83ed-9b68fd573e32","ios":"levelo://app?vid=06a6152a-e477-491f-83ed-9b68fd573e32"},"vehicle_type_id":"4","last_reported":1742379061,"current_range_meters":10000,"station_id":"ce4bhip2rcd13ifvqft0","pricing_plan_id":"cebpf4jnsgd1na2vs0mg"},{"bike_id":"b6516885-6b2a-4c3b-b46a-6df7fec02364","system_id":"levelo_inurba_marseille","lat":43.25939,"lon":5.40914,"is_reserved":false,"is_disabled":false,"rental_uris":{"android":"levelo://app?vid=b6516885-6b2a-4c3b-b46a-6df7fec02364","ios":"levelo://app?vid=b6516885-6b2a-4c3b-b46a-6df7fec02364"},"vehicle_type_id":"4","last_reported":1742379061,"current_range_meters":10000,"station_id":"ce4bhm92rcd13ifvqglg","pricing_plan_id":"cebpf4jnsgd1na2vs0mg"},{"bike_id":"b422306b-cd49-4adc-a627-f18fec585120","system_id":"levelo_inurba_marseille","lat":43.31712,"lon":5.40444,"is_reserved":false,"is_disabled":false,"rental_uris":{"android":"levelo://app?vid=b422306b-cd49-4adc-a627-f18fec585120","ios":"levelo://app?vid=b422306b-cd49-4adc-a627-f18fec585120"},"vehicle_type_id":"4","last_reported":1742379061,"current_range_meters":10000,"station_id":"ce4bh012rcd13ifvqd00","pricing_plan_id":"cebpf4jnsgd1na2vs0mg"},{"bike_id":"609e8c00-5703-40c6-8316-6658d181edc1","system_id":"levelo_inurba_marseille","lat":43.30298,"lon":5.37704,"is_reserved":false,"is_disabled":false,"rental_uris":{"android":"levelo://app?vid=609e8c00-5703-40c6-8316-6658d181edc1","ios":"levelo://app?vid=609e8c00-5703-40c6-8316-6658d181edc1"},"vehicle_type_id":"4","last_reported":1742379061,"current_range_meters":10000,"station_id":"ce4bguh2rcd13ifvqcj0","pricing_plan_id":"cebpf4jnsgd1na2vs0mg"},{"bike_id":"46626044-2035-4685-8464-a73cddf17560","system_id":"levelo_inurba_marseille","lat":43.30472,"lon":5.37905,"is_reserved":false,"is_disabled":false,"rental_uris":{"android":"levelo://app?vid=46626044-2035-4685-8464-a73cddf17560","ios":"levelo://app?vid=46626044-2035-4685-8464-a73cddf17560"},"vehicle_type_id":"4","last_reported":1742379061,"current_range_meters":10800,"station_id":"ce4bgup2rcd13ifvqcn0","pricing_plan_id":"cebpf4jnsgd1na2vs0mg"},{"bike_id":"f4165607-80d2-4e6e-8b9c-c523c42872fb","system_id":"levelo_inurba_marseille","lat":43.24803,"lon":5.37465,"is_reserved":false,"is_disabled":false,"rental_uris":{"android":"levelo://app?vid=f4165607-80d2-4e6e-8b9c-c523c42872fb","ios":"levelo://app?vid=f4165607-80d2-4e6e-8b9c-c523c42872fb"},"vehicle_type_id":"4","last_reported":1742379061,"current_range_meters":10800,"station_id":"ce4bhgh2rcd13ifvqfb0","pricing_plan_id":"cebpf4jnsgd1na2vs0mg"},{"bike_id":"8a49002a-17fe-4173-8eb8-b70527934c1f","system_id":"levelo_inurba_marseille","lat":43.23167,"lon":5.43703,"is_reserved":false,"is_disabled":false,"rental_uris":{"android":"levelo://app?vid=8a49002a-17fe-4173-8eb8-b70527934c1f","ios":"levelo://app?vid=8a49002a-17fe-4173-8eb8-b70527934c1f"},"vehicle_type_id":"4","last_reported":1742379061,"current_range_meters":10800,"station_id":"ce4bhmp2rcd13ifvqgog","pricing_plan_id":"cebpf4jnsgd1na2vs0mg"},{"bike_id":"3455258b-4135-46b9-9a26-10bf95160e40","system_id":"levelo_inurba_marseille","lat":43.23199,"lon":5.35557,"is_reserved":false,"is_disabled":false,"rental_uris":{"android":"levelo://app?vid=3455258b-4135-46b9-9a26-10bf95160e40","ios":"levelo://app?vid=3455258b-4135-46b9-9a26-10bf95160e40"},"vehicle_type_id":"4","last_reported":1742379061,"current_range_meters":10800,"station_id":"ce4bhu92rcd13ifvqi70","pricing_plan_id":"cebpf4jnsgd1na2vs0mg"},{"bike_id":"22224239-5f2c-4009-afd9-f257e1b4b95d","system_id":"levelo_inurba_marseille","lat":43.29013,"lon":5.37569,"is_reserved":false,"is_disabled":false,"rental_uris":{"android":"levelo://app?vid=22224239-5f2c-4009-afd9-f257e1b4b95d","ios":"levelo://app?vid=22224239-5f2c-4009-afd9-f257e1b4b95d"},"vehicle_type_id":"4","last_reported":1742379061,"current_range_meters":10800,"station_id":"ce4bh692rcd13ifvqe90","pricing_plan_id":"cebpf4jnsgd1na2vs0mg"},{"bike_id":"b3ab2806-f410-4cce-8b04-fb1a4b877921","system_id":"levelo_inurba_marseille","lat":43.24191,"lon":5.39726,"is_reserved":false,"is_disabled":false,"rental_uris":{"android":"levelo://app?vid=b3ab2806-f410-4cce-8b04-fb1a4b877921","ios":"levelo://app?vid=b3ab2806-f410-4cce-8b04-fb1a4b877921"},"vehicle_type_id":"4","last_reported":1742379061,"current_range_meters":10800,"station_id":"ce4bhn12rcd13ifvqgpg","pricing_plan_id":"cebpf4jnsgd1na2vs0mg"},{"bike_id":"b88fcb70-1aac-4a9f-957b-6b2f31e07965","system_id":"levelo_inurba_marseille","lat":43.24084,"lon":5.37737,"is_reserved":false,"is_disabled":false,"rental_uris":{"android":"levelo://app?vid=b88fcb70-1aac-4a9f-957b-6b2f31e07965","ios":"levelo://app?vid=b88fcb70-1aac-4a9f-957b-6b2f31e07965"},"vehicle_type_id":"4","last_reported":1742379061,"current_range_meters":10800,"station_id":"ce4bhnp2rcd13ifvqgvg","pricing_plan_id":"cebpf4jnsgd1na2vs0mg"},{"bike_id":"40519983-510e-4b9a-9562-e0995123f6e0","system_id":"levelo_inurba_marseille","lat":43.232,"lon":5.35558,"is_reserved":false,"is_disabled":false,"rental_uris":{"android":"levelo://app?vid=40519983-510e-4b9a-9562-e0995123f6e0","ios":"levelo://app?vid=40519983-510e-4b9a-9562-e0995123f6e0"},"vehicle_type_id":"4","last_reported":1742379061,"current_range_meters":10800,"station_id":"ce4bhu92rcd13ifvqi70","pricing_plan_id":"cebpf4jnsgd1na2vs0mg"},{"bike_id":"3a1ecb90-139b-4d1c-aa61-12de3856d914","system_id":"levelo_inurba_marseille","lat":43.29271,"lon":5.36859,"is_reserved":false,"is_disabled":false,"rental_uris":{"android":"levelo://app?vid=3a1ecb90-139b-4d1c-aa61-12de3856d914","ios":"levelo://app?vid=3a1ecb90-139b-4d1c-aa61-12de3856d914"},"vehicle_type_id":"4","last_reported":1742379061,"current_range_meters":10800,"station_id":"ce4bhbp2rcd13ifvqesg","pricing_plan_id":"cebpf4jnsgd1na2vs0mg"},{"bike_id":"243c69e7-5962-48a4-a307-3cb9ae3b3519","system_id":"levelo_inurba_marseille","lat":43.33022,"lon":5.39039,"is_reserved":false,"is_disabled":false,"rental_uris":{"android":"levelo://app?vid=243c69e7-5962-48a4-a307-3cb9ae3b3519","ios":"levelo://app?vid=243c69e7-5962-48a4-a307-3cb9ae3b3519"},"vehicle_type_id":"4","last_reported":1742379061,"current_range_meters":11200,"station_id":"ce4bhr92rcd13ifvqhrg","pricing_plan_id":"cebpf4jnsgd1na2vs0mg"},{"bike_id":"cd6f1262-06b9-4383-8718-dbf3ba4fd41e","system_id":"levelo_inurba_marseille","lat":43.26231,"lon":5.40461,"is_reserved":false,"is_disabled":false,"rental_uris":{"android":"levelo://app?vid=cd6f1262-06b9-4383-8718-dbf3ba4fd41e","ios":"levelo://app?vid=cd6f1262-06b9-4383-8718-dbf3ba4fd41e"},"vehicle_type_id":"4","last_reported":1742379061,"current_range_meters":11200,"station_id":"ce4bhmh2rcd13ifvqgmg","pricing_plan_id":"cebpf4jnsgd1na2vs0mg"},{"bike_id":"8c07c4a7-d14f-4051-9d3d-4085873163f0","system_id":"levelo_inurba_marseille","lat":43.24681,"lon":5.38139,"is_reserved":false,"is_disabled":false,"rental_uris":{"android":"levelo://app?vid=8c07c4a7-d14f-4051-9d3d-4085873163f0","ios":"levelo://app?vid=8c07c4a7-d14f-4051-9d3d-4085873163f0"},"vehicle_type_id":"4","last_reported":1742379061,"current_range_meters":11200,"station_id":"ce4bhih2rcd13ifvqfr0","pricing_plan_id":"cebpf4jnsgd1na2vs0mg"},{"bike_id":"57afb4cb-6f59-4a70-bcef-8bfd3bd194c8","system_id":"levelo_inurba_marseille","lat":43.34144,"lon":5.40912,"is_reserved":false,"is_disabled":false,"rental_uris":{"android":"levelo://app?vid=57afb4cb-6f59-4a70-bcef-8bfd3bd194c8","ios":"levelo://app?vid=57afb4cb-6f59-4a70-bcef-8bfd3bd194c8"},"vehicle_type_id":"4","last_reported":1742379061,"current_range_meters":11200,"station_id":"ce4bhqh2rcd13ifvqhlg","pricing_plan_id":"cebpf4jnsgd1na2vs0mg"},{"bike_id":"b6cec0a8-8151-4282-95b3-b7e2e2bb4ad7","system_id":"levelo_inurba_marseille","lat":43.29567,"lon":5.37528,"is_reserved":false,"is_disabled":false,"rental_uris":{"android":"levelo://app?vid=b6cec0a8-8151-4282-95b3-b7e2e2bb4ad7","ios":"levelo://app?vid=b6cec0a8-8151-4282-95b3-b7e2e2bb4ad7"},"vehicle_type_id":"4","last_reported":1742379061,"current_range_meters":11200,"station_id":"ce4bgh92rcd13ifvqb50","pricing_plan_id":"cebpf4jnsgd1na2vs0mg"},{"bike_id":"f0a6b4df-5197-48e6-b870-d9bd09b932d4","system_id":"levelo_inurba_marseille","lat":43.33603,"lon":5.41026,"is_reserved":false,"is_disabled":false,"rental_uris":{"android":"levelo://app?vid=f0a6b4df-5197-48e6-b870-d9bd09b932d4","ios":"levelo://app?vid=f0a6b4df-5197-48e6-b870-d9bd09b932d4"},"vehicle_type_id":"4","last_reported":1742379061,"current_range_meters":11200,"station_id":"ce4bhqh2rcd13ifvqhmg","pricing_plan_id":"cebpf4jnsgd1na2vs0mg"},{"bike_id":"f28382c0-26da-4556-9c4c-3f123b4905f6","system_id":"levelo_inurba_marseille","lat":43.30547,"lon":5.38431,"is_reserved":false,"is_disabled":false,"rental_uris":{"android":"levelo://app?vid=f28382c0-26da-4556-9c4c-3f123b4905f6","ios":"levelo://app?vid=f28382c0-26da-4556-9c4c-3f123b4905f6"},"vehicle_type_id":"4","last_reported":1742379061,"current_range_meters":11200,"station_id":"ce4bgg92rcd13ifvqb30","pricing_plan_id":"cebpf4jnsgd1na2vs0mg"},{"bike_id":"ce498500-3d58-490a-816b-ba01b7a6b7c5","system_id":"levelo_inurba_marseille","lat":43.27314,"lon":5.39103,"is_reserved":false,"is_disabled":false,"rental_uris":{"android":"levelo://app?vid=ce498500-3d58-490a-816b-ba01b7a6b7c5","ios":"levelo://app?vid=ce498500-3d58-490a-816b-ba01b7a6b7c5"},"vehicle_type_id":"4","last_reported":1742379061,"current_range_meters":11200,"station_id":"ce4bhgp2rcd13ifvqfe0","pricing_plan_id":"cebpf4jnsgd1na2vs0mg"},{"bike_id":"7c67c1ac-9f8e-48cd-973f-d2cb72b5bc79","system_id":"levelo_inurba_marseille","lat":43.32516,"lon":5.36573,"is_reserved":false,"is_disabled":false,"rental_uris":{"android":"levelo://app?vid=7c67c1ac-9f8e-48cd-973f-d2cb72b5bc79","ios":"levelo://app?vid=7c67c1ac-9f8e-48cd-973f-d2cb72b5bc79"},"vehicle_type_id":"4","last_reported":1742379061,"current_range_meters":11200,"station_id":"ce4bhs12rcd13ifvqhvg","pricing_plan_id":"cebpf4jnsgd1na2vs0mg"},{"bike_id":"7b660f94-53f2-4ea2-ac2b-9a7c88505f64","system_id":"levelo_inurba_marseille","lat":43.25936,"lon":5.40906,"is_reserved":false,"is_disabled":false,"rental_uris":{"android":"levelo://app?vid=7b660f94-53f2-4ea2-ac2b-9a7c88505f64","ios":"levelo://app?vid=7b660f94-53f2-4ea2-ac2b-9a7c88505f64"},"vehicle_type_id":"4","last_reported":1742379061,"current_range_meters":11200,"station_id":"ce4bhm92rcd13ifvqglg","pricing_plan_id":"cebpf4jnsgd1na2vs0mg"},{"bike_id":"6138b640-3a79-45fe-b651-9195792b5201","system_id":"levelo_inurba_marseille","lat":43.23983,"lon":5.36622,"is_reserved":false,"is_disabled":false,"rental_uris":{"android":"levelo://app?vid=6138b640-3a79-45fe-b651-9195792b5201","ios":"levelo://app?vid=6138b640-3a79-45fe-b651-9195792b5201"},"vehicle_type_id":"4","last_reported":1742379061,"current_range_meters":11200,"station_id":"ce4bhi12rcd13ifvqfp0","pricing_plan_id":"cebpf4jnsgd1na2vs0mg"},{"bike_id":"1b145a1b-3228-4339-81c7-a15ff0696428","system_id":"levelo_inurba_marseille","lat":43.27969,"lon":5.38753,"is_reserved":false,"is_disabled":false,"rental_uris":{"android":"levelo://app?vid=1b145a1b-3228-4339-81c7-a15ff0696428","ios":"levelo://app?vid=1b145a1b-3228-4339-81c7-a15ff0696428"},"vehicle_type_id":"4","last_reported":1742379061,"current_range_meters":11200,"station_id":"ce4bhg12rcd13ifvqf80","pricing_plan_id":"cebpf4jnsgd1na2vs0mg"},{"bike_id":"c4e91f41-8d21-4e2c-b695-d279794f936f","system_id":"levelo_inurba_marseille","lat":43.27826,"lon":5.3921,"is_reserved":false,"is_disabled":false,"rental_uris":{"android":"levelo://app?vid=c4e91f41-8d21-4e2c-b695-d279794f936f","ios":"levelo://app?vid=c4e91f41-8d21-4e2c-b695-d279794f936f"},"vehicle_type_id":"4","last_reported":1742379061,"current_range_meters":11200,"station_id":"ce4bhjp2rcd13ifvqga0","pricing_plan_id":"cebpf4jnsgd1na2vs0mg"},{"bike_id":"537c08a1-5a53-47eb-a09b-e80f349fd631","system_id":"levelo_inurba_marseille","lat":43.27068,"lon":5.4026,"is_reserved":false,"is_disabled":false,"rental_uris":{"android":"levelo://app?vid=537c08a1-5a53-47eb-a09b-e80f349fd631","ios":"levelo://app?vid=537c08a1-5a53-47eb-a09b-e80f349fd631"},"vehicle_type_id":"4","last_reported":1742379061,"current_range_meters":11200,"station_id":"ce4bhk92rcd13ifvqgc0","pricing_plan_id":"cebpf4jnsgd1na2vs0mg"},{"bike_id":"de927ab0-f176-4ee0-8e8d-94716d237bf6","system_id":"levelo_inurba_marseille","lat":43.30949,"lon":5.39032,"is_reserved":false,"is_disabled":false,"rental_uris":{"android":"levelo://app?vid=de927ab0-f176-4ee0-8e8d-94716d237bf6","ios":"levelo://app?vid=de927ab0-f176-4ee0-8e8d-94716d237bf6"},"vehicle_type_id":"4","last_reported":1742379061,"current_range_meters":11600,"station_id":"ce4bgup2rcd13ifvqco0","pricing_plan_id":"cebpf4jnsgd1na2vs0mg"},{"bike_id":"bfe7ddc3-e6c7-4501-86b1-bf4541cdf352","system_id":"levelo_inurba_marseille","lat":43.25938,"lon":5.40914,"is_reserved":false,"is_disabled":true,"rental_uris":{"android":"levelo://app?vid=bfe7ddc3-e6c7-4501-86b1-bf4541cdf352","ios":"levelo://app?vid=bfe7ddc3-e6c7-4501-86b1-bf4541cdf352"},"vehicle_type_id":"4","last_reported":1742379061,"current_range_meters":11600,"station_id":"ce4bhm92rcd13ifvqglg","pricing_plan_id":"cebpf4jnsgd1na2vs0mg"},{"bike_id":"4f1b31fb-f6fc-44de-8a61-24aeb465d1b7","system_id":"levelo_inurba_marseille","lat":43.28603,"lon":5.35101,"is_reserved":false,"is_disabled":false,"rental_uris":{"android":"levelo://app?vid=4f1b31fb-f6fc-44de-8a61-24aeb465d1b7","ios":"levelo://app?vid=4f1b31fb-f6fc-44de-8a61-24aeb465d1b7"},"vehicle_type_id":"4","last_reported":1742379061,"current_range_meters":11600,"station_id":"ce4bhch2rcd13ifvqeug","pricing_plan_id":"cebpf4jnsgd1na2vs0mg"},{"bike_id":"963a17fa-4222-4f93-b414-09c4cce8d25a","system_id":"levelo_inurba_marseille","lat":43.28418,"lon":5.38433,"is_reserved":false,"is_disabled":false,"rental_uris":{"android":"levelo://app?vid=963a17fa-4222-4f93-b414-09c4cce8d25a","ios":"levelo://app?vid=963a17fa-4222-4f93-b414-09c4cce8d25a"},"vehicle_type_id":"4","last_reported":1742379061,"current_range_meters":11600,"station_id":"","pricing_plan_id":"cebpf4jnsgd1na2vs0mg"},{"bike_id":"f6d7ec0c-12a9-4a56-84f0-6e30b0160de8","system_id":"levelo_inurba_marseille","lat":43.29262,"lon":5.37621,"is_reserved":false,"is_disabled":false,"rental_uris":{"android":"levelo://app?vid=f6d7ec0c-12a9-4a56-84f0-6e30b0160de8","ios":"levelo://app?vid=f6d7ec0c-12a9-4a56-84f0-6e30b0160de8"},"vehicle_type_id":"4","last_reported":1742379061,"current_range_meters":12000,"station_id":"ce4bgi12rcd13ifvqb80","pricing_plan_id":"cebpf4jnsgd1na2vs0mg"},{"bike_id":"b5ab980b-7710-480f-b702-51a8f54ece86","system_id":"levelo_inurba_marseille","lat":43.23066,"lon":5.35489,"is_reserved":false,"is_disabled":false,"rental_uris":{"android":"levelo://app?vid=b5ab980b-7710-480f-b702-51a8f54ece86","ios":"levelo://app?vid=b5ab980b-7710-480f-b702-51a8f54ece86"},"vehicle_type_id":"4","last_reported":1742379061,"current_range_meters":12000,"station_id":"cpo3342slgdg3j2ifvpg","pricing_plan_id":"cebpf4jnsgd1na2vs0mg"},{"bike_id":"54fe6a8a-37fa-4e18-b6bc-7bae02f0c738","system_id":"levelo_inurba_marseille","lat":43.30888,"lon":5.37184,"is_reserved":false,"is_disabled":false,"rental_uris":{"android":"levelo://app?vid=54fe6a8a-37fa-4e18-b6bc-7bae02f0c738","ios":"levelo://app?vid=54fe6a8a-37fa-4e18-b6bc-7bae02f0c738"},"vehicle_type_id":"4","last_reported":1742379061,"current_range_meters":12000,"station_id":"ce4bguh2rcd13ifvqckg","pricing_plan_id":"cebpf4jnsgd1na2vs0mg"},{"bike_id":"95335876-88d4-4fc9-816f-c9a7c105be3e","system_id":"levelo_inurba_marseille","lat":43.27958,"lon":5.41047,"is_reserved":false,"is_disabled":true,"rental_uris":{"android":"levelo://app?vid=95335876-88d4-4fc9-816f-c9a7c105be3e","ios":"levelo://app?vid=95335876-88d4-4fc9-816f-c9a7c105be3e"},"vehicle_type_id":"4","last_reported":1742379061,"current_range_meters":12000,"station_id":"ce4bhnp2rcd13ifvqh0g","pricing_plan_id":"cebpf4jnsgd1na2vs0mg"},{"bike_id":"3d155719-00f0-4aeb-b400-cdeda7a4cd30","system_id":"levelo_inurba_marseille","lat":43.30558,"lon":5.38433,"is_reserved":false,"is_disabled":false,"rental_uris":{"android":"levelo://app?vid=3d155719-00f0-4aeb-b400-cdeda7a4cd30","ios":"levelo://app?vid=3d155719-00f0-4aeb-b400-cdeda7a4cd30"},"vehicle_type_id":"4","last_reported":1742379061,"current_range_meters":12000,"station_id":"ce4bgg92rcd13ifvqb30","pricing_plan_id":"cebpf4jnsgd1na2vs0mg"},{"bike_id":"63671439-dffe-4345-9816-f699fb4493d9","system_id":"levelo_inurba_marseille","lat":43.28373,"lon":5.37835,"is_reserved":false,"is_disabled":false,"rental_uris":{"android":"levelo://app?vid=63671439-dffe-4345-9816-f699fb4493d9","ios":"levelo://app?vid=63671439-dffe-4345-9816-f699fb4493d9"},"vehicle_type_id":"4","last_reported":1742379061,"current_range_meters":11600,"station_id":"ce4bha12rcd13ifvqee0","pricing_plan_id":"cebpf4jnsgd1na2vs0mg"},{"bike_id":"a5524cec-81c6-4f26-bae1-d0dae177fe4b","system_id":"levelo_inurba_marseille","lat":43.25586,"lon":5.38241,"is_reserved":false,"is_disabled":false,"rental_uris":{"android":"levelo://app?vid=a5524cec-81c6-4f26-bae1-d0dae177fe4b","ios":"levelo://app?vid=a5524cec-81c6-4f26-bae1-d0dae177fe4b"},"vehicle_type_id":"4","last_reported":1742379061,"current_range_meters":11600,"station_id":"ce4bhih2rcd13ifvqfs0","pricing_plan_id":"cebpf4jnsgd1na2vs0mg"},{"bike_id":"eb6ad15b-5d6f-4c9e-aca2-00662fed81a8","system_id":"levelo_inurba_marseille","lat":43.30555,"lon":5.36697,"is_reserved":false,"is_disabled":false,"rental_uris":{"android":"levelo://app?vid=eb6ad15b-5d6f-4c9e-aca2-00662fed81a8","ios":"levelo://app?vid=eb6ad15b-5d6f-4c9e-aca2-00662fed81a8"},"vehicle_type_id":"4","last_reported":1742379061,"current_range_meters":12000,"station_id":"ce4bgrp2rcd13ifvqc9g","pricing_plan_id":"cebpf4jnsgd1na2vs0mg"},{"bike_id":"75e8bee3-0a10-4522-9d7e-72ece2846129","system_id":"levelo_inurba_marseille","lat":43.33025,"lon":5.39038,"is_reserved":false,"is_disabled":false,"rental_uris":{"android":"levelo://app?vid=75e8bee3-0a10-4522-9d7e-72ece2846129","ios":"levelo://app?vid=75e8bee3-0a10-4522-9d7e-72ece2846129"},"vehicle_type_id":"4","last_reported":1742379061,"current_range_meters":12000,"station_id":"ce4bhr92rcd13ifvqhrg","pricing_plan_id":"cebpf4jnsgd1na2vs0mg"},{"bike_id":"4ebbfa9d-8389-4b13-8504-44cc31984468","system_id":"levelo_inurba_marseille","lat":43.2962,"lon":5.37155,"is_reserved":false,"is_disabled":false,"rental_uris":{"android":"levelo://app?vid=4ebbfa9d-8389-4b13-8504-44cc31984468","ios":"levelo://app?vid=4ebbfa9d-8389-4b13-8504-44cc31984468"},"vehicle_type_id":"4","last_reported":1742379061,"current_range_meters":12400,"station_id":"ce4bgnh2rcd13ifvqc0g","pricing_plan_id":"cebpf4jnsgd1na2vs0mg"},{"bike_id":"c01a9def-2fd1-4120-a207-aace417aed16","system_id":"levelo_inurba_marseille","lat":43.2418,"lon":5.3972,"is_reserved":false,"is_disabled":false,"rental_uris":{"android":"levelo://app?vid=c01a9def-2fd1-4120-a207-aace417aed16","ios":"levelo://app?vid=c01a9def-2fd1-4120-a207-aace417aed16"},"vehicle_type_id":"4","last_reported":1742379061,"current_range_meters":12400,"station_id":"ce4bhn12rcd13ifvqgpg","pricing_plan_id":"cebpf4jnsgd1na2vs0mg"},{"bike_id":"5f90e3d6-b886-48e6-b60e-2dd77fb6d3d6","system_id":"levelo_inurba_marseille","lat":43.2418,"lon":5.39707,"is_reserved":false,"is_disabled":false,"rental_uris":{"android":"levelo://app?vid=5f90e3d6-b886-48e6-b60e-2dd77fb6d3d6","ios":"levelo://app?vid=5f90e3d6-b886-48e6-b60e-2dd77fb6d3d6"},"vehicle_type_id":"4","last_reported":1742379061,"current_range_meters":12400,"station_id":"ce4bhn12rcd13ifvqgpg","pricing_plan_id":"cebpf4jnsgd1na2vs0mg"},{"bike_id":"71f9f3f7-1dec-45cd-b0fe-d3d23c5535c1","system_id":"levelo_inurba_marseille","lat":43.26496,"lon":5.39441,"is_reserved":false,"is_disabled":false,"rental_uris":{"android":"levelo://app?vid=71f9f3f7-1dec-45cd-b0fe-d3d23c5535c1","ios":"levelo://app?vid=71f9f3f7-1dec-45cd-b0fe-d3d23c5535c1"},"vehicle_type_id":"4","last_reported":1742379061,"current_range_meters":12400,"station_id":"","pricing_plan_id":"cebpf4jnsgd1na2vs0mg"},{"bike_id":"446d3bc1-911c-49dc-9eed-88d006c466c1","system_id":"levelo_inurba_marseille","lat":43.33043,"lon":5.39009,"is_reserved":false,"is_disabled":false,"rental_uris":{"android":"levelo://app?vid=446d3bc1-911c-49dc-9eed-88d006c466c1","ios":"levelo://app?vid=446d3bc1-911c-49dc-9eed-88d006c466c1"},"vehicle_type_id":"4","last_reported":1742379061,"current_range_meters":12800,"station_id":"ce4bhr92rcd13ifvqhrg","pricing_plan_id":"cebpf4jnsgd1na2vs0mg"},{"bike_id":"eba3d8e8-e851-47dc-8eb9-2b562e17e402","system_id":"levelo_inurba_marseille","lat":43.30276,"lon":5.37696,"is_reserved":false,"is_disabled":false,"rental_uris":{"android":"levelo://app?vid=eba3d8e8-e851-47dc-8eb9-2b562e17e402","ios":"levelo://app?vid=eba3d8e8-e851-47dc-8eb9-2b562e17e402"},"vehicle_type_id":"4","last_reported":1742379061,"current_range_meters":12800,"station_id":"ce4bguh2rcd13ifvqcj0","pricing_plan_id":"cebpf4jnsgd1na2vs0mg"},{"bike_id":"d7c6ca84-cba8-425d-9b14-17cffe370f8d","system_id":"levelo_inurba_marseille","lat":43.23186,"lon":5.40003,"is_reserved":false,"is_disabled":false,"rental_uris":{"android":"levelo://app?vid=d7c6ca84-cba8-425d-9b14-17cffe370f8d","ios":"levelo://app?vid=d7c6ca84-cba8-425d-9b14-17cffe370f8d"},"vehicle_type_id":"4","last_reported":1742379061,"current_range_meters":12400,"station_id":"ce4bhn12rcd13ifvqgqg","pricing_plan_id":"cebpf4jnsgd1na2vs0mg"},{"bike_id":"4ddcaf93-26d4-4853-95da-46fe44ffec73","system_id":"levelo_inurba_marseille","lat":43.27201,"lon":5.392,"is_reserved":false,"is_disabled":false,"rental_uris":{"android":"levelo://app?vid=4ddcaf93-26d4-4853-95da-46fe44ffec73","ios":"levelo://app?vid=4ddcaf93-26d4-4853-95da-46fe44ffec73"},"vehicle_type_id":"4","last_reported":1742379061,"current_range_meters":12800,"station_id":"ce4bhhp2rcd13ifvqfm0","pricing_plan_id":"cebpf4jnsgd1na2vs0mg"},{"bike_id":"b98eff8b-8bbd-44cf-94d7-71a6341eecc2","system_id":"levelo_inurba_marseille","lat":43.23203,"lon":5.3998,"is_reserved":false,"is_disabled":false,"rental_uris":{"android":"levelo://app?vid=b98eff8b-8bbd-44cf-94d7-71a6341eecc2","ios":"levelo://app?vid=b98eff8b-8bbd-44cf-94d7-71a6341eecc2"},"vehicle_type_id":"4","last_reported":1742379061,"current_range_meters":12800,"station_id":"ce4bhn12rcd13ifvqgqg","pricing_plan_id":"cebpf4jnsgd1na2vs0mg"},{"bike_id":"26395a7c-5b7e-4a4b-875d-631e7c052726","system_id":"levelo_inurba_marseille","lat":43.28077,"lon":5.39667,"is_reserved":false,"is_disabled":false,"rental_uris":{"android":"levelo://app?vid=26395a7c-5b7e-4a4b-875d-631e7c052726","ios":"levelo://app?vid=26395a7c-5b7e-4a4b-875d-631e7c052726"},"vehicle_type_id":"4","last_reported":1742379061,"current_range_meters":12800,"station_id":"ce4bho12rcd13ifvqh2g","pricing_plan_id":"cebpf4jnsgd1na2vs0mg"},{"bike_id":"f5c3ae74-c1e7-4312-aaf8-ca982ce92b47","system_id":"levelo_inurba_marseille","lat":43.24995,"lon":5.38949,"is_reserved":false,"is_disabled":false,"rental_uris":{"android":"levelo://app?vid=f5c3ae74-c1e7-4312-aaf8-ca982ce92b47","ios":"levelo://app?vid=f5c3ae74-c1e7-4312-aaf8-ca982ce92b47"},"vehicle_type_id":"4","last_reported":1742379061,"current_range_meters":12800,"station_id":"ce4bhgp2rcd13ifvqfd0","pricing_plan_id":"cebpf4jnsgd1na2vs0mg"},{"bike_id":"6f717e90-7702-4589-9922-63356cae8f5a","system_id":"levelo_inurba_marseille","lat":43.29582,"lon":5.37514,"is_reserved":false,"is_disabled":false,"rental_uris":{"android":"levelo://app?vid=6f717e90-7702-4589-9922-63356cae8f5a","ios":"levelo://app?vid=6f717e90-7702-4589-9922-63356cae8f5a"},"vehicle_type_id":"4","last_reported":1742379061,"current_range_meters":12800,"station_id":"ce4bgh92rcd13ifvqb50","pricing_plan_id":"cebpf4jnsgd1na2vs0mg"},{"bike_id":"02f43b01-3b74-45fa-a40e-2df823c84cda","system_id":"levelo_inurba_marseille","lat":43.2418,"lon":5.39714,"is_reserved":false,"is_disabled":false,"rental_uris":{"android":"levelo://app?vid=02f43b01-3b74-45fa-a40e-2df823c84cda","ios":"levelo://app?vid=02f43b01-3b74-45fa-a40e-2df823c84cda"},"vehicle_type_id":"4","last_reported":1742379061,"current_range_meters":12800,"station_id":"ce4bhn12rcd13ifvqgpg","pricing_plan_id":"cebpf4jnsgd1na2vs0mg"},{"bike_id":"af56a6eb-2509-45be-8321-3ce687f2364e","system_id":"levelo_inurba_marseille","lat":43.30546,"lon":5.36681,"is_reserved":false,"is_disabled":false,"rental_uris":{"android":"levelo://app?vid=af56a6eb-2509-45be-8321-3ce687f2364e","ios":"levelo://app?vid=af56a6eb-2509-45be-8321-3ce687f2364e"},"vehicle_type_id":"4","last_reported":1742379061,"current_range_meters":12800,"station_id":"ce4bgrp2rcd13ifvqc9g","pricing_plan_id":"cebpf4jnsgd1na2vs0mg"},{"bike_id":"c23acf6c-07a9-4818-8510-e5e5608746bd","system_id":"levelo_inurba_marseille","lat":43.30311,"lon":5.36907,"is_reserved":false,"is_disabled":false,"rental_uris":{"android":"levelo://app?vid=c23acf6c-07a9-4818-8510-e5e5608746bd","ios":"levelo://app?vid=c23acf6c-07a9-4818-8510-e5e5608746bd"},"vehicle_type_id":"4","last_reported":1742379061,"current_range_meters":12800,"station_id":"ce4bgqh2rcd13ifvqc5g","pricing_plan_id":"cebpf4jnsgd1na2vs0mg"},{"bike_id":"2eb1ce68-de4c-484d-bc50-9b4d630f9f02","system_id":"levelo_inurba_marseille","lat":43.27497,"lon":5.42443,"is_reserved":false,"is_disabled":false,"rental_uris":{"android":"levelo://app?vid=2eb1ce68-de4c-484d-bc50-9b4d630f9f02","ios":"levelo://app?vid=2eb1ce68-de4c-484d-bc50-9b4d630f9f02"},"vehicle_type_id":"4","last_reported":1742379061,"current_range_meters":12800,"station_id":"ce4bhn92rcd13ifvqgrg","pricing_plan_id":"cebpf4jnsgd1na2vs0mg"},{"bike_id":"f380d6e8-d281-4f9f-a093-4fe4f404b2fc","system_id":"levelo_inurba_marseille","lat":43.26557,"lon":5.37323,"is_reserved":false,"is_disabled":false,"rental_uris":{"android":"levelo://app?vid=f380d6e8-d281-4f9f-a093-4fe4f404b2fc","ios":"levelo://app?vid=f380d6e8-d281-4f9f-a093-4fe4f404b2fc"},"vehicle_type_id":"4","last_reported":1742379061,"current_range_meters":12800,"station_id":"ce4bhg12rcd13ifvqf70","pricing_plan_id":"cebpf4jnsgd1na2vs0mg"},{"bike_id":"9d26c008-8ec1-4269-9cd2-f45774f03ccb","system_id":"levelo_inurba_marseille","lat":43.27956,"lon":5.3794,"is_reserved":false,"is_disabled":false,"rental_uris":{"android":"levelo://app?vid=9d26c008-8ec1-4269-9cd2-f45774f03ccb","ios":"levelo://app?vid=9d26c008-8ec1-4269-9cd2-f45774f03ccb"},"vehicle_type_id":"4","last_reported":1742379061,"current_range_meters":12800,"station_id":"","pricing_plan_id":"cebpf4jnsgd1na2vs0mg"},{"bike_id":"96e343bd-79d6-4e3f-b7dd-d78e5f35d6d8","system_id":"levelo_inurba_marseille","lat":43.28154,"lon":5.4267,"is_reserved":false,"is_disabled":false,"rental_uris":{"android":"levelo://app?vid=96e343bd-79d6-4e3f-b7dd-d78e5f35d6d8","ios":"levelo://app?vid=96e343bd-79d6-4e3f-b7dd-d78e5f35d6d8"},"vehicle_type_id":"4","last_reported":1742379061,"current_range_meters":12800,"station_id":"ce4bhnh2rcd13ifvqgug","pricing_plan_id":"cebpf4jnsgd1na2vs0mg"},{"bike_id":"3a2e3eb7-9582-45fa-b675-d691dd649b8b","system_id":"levelo_inurba_marseille","lat":43.30542,"lon":5.38427,"is_reserved":false,"is_disabled":false,"rental_uris":{"android":"levelo://app?vid=3a2e3eb7-9582-45fa-b675-d691dd649b8b","ios":"levelo://app?vid=3a2e3eb7-9582-45fa-b675-d691dd649b8b"},"vehicle_type_id":"4","last_reported":1742379061,"current_range_meters":13600,"station_id":"ce4bgg92rcd13ifvqb30","pricing_plan_id":"cebpf4jnsgd1na2vs0mg"},{"bike_id":"5fcb8309-0208-48b4-b28d-ff6e405d3efe","system_id":"levelo_inurba_marseille","lat":43.24995,"lon":5.38927,"is_reserved":false,"is_disabled":false,"rental_uris":{"android":"levelo://app?vid=5fcb8309-0208-48b4-b28d-ff6e405d3efe","ios":"levelo://app?vid=5fcb8309-0208-48b4-b28d-ff6e405d3efe"},"vehicle_type_id":"4","last_reported":1742379061,"current_range_meters":13600,"station_id":"ce4bhgp2rcd13ifvqfd0","pricing_plan_id":"cebpf4jnsgd1na2vs0mg"},{"bike_id":"e3dc2bda-203a-49b1-9fc0-6631eae1e60d","system_id":"levelo_inurba_marseille","lat":43.33608,"lon":5.41036,"is_reserved":false,"is_disabled":false,"rental_uris":{"android":"levelo://app?vid=e3dc2bda-203a-49b1-9fc0-6631eae1e60d","ios":"levelo://app?vid=e3dc2bda-203a-49b1-9fc0-6631eae1e60d"},"vehicle_type_id":"4","last_reported":1742379061,"current_range_meters":13600,"station_id":"ce4bhqh2rcd13ifvqhmg","pricing_plan_id":"cebpf4jnsgd1na2vs0mg"},{"bike_id":"f3bf8035-4148-4b9c-9a97-70c1dd008437","system_id":"levelo_inurba_marseille","lat":43.3137,"lon":5.3851,"is_reserved":false,"is_disabled":false,"rental_uris":{"android":"levelo://app?vid=f3bf8035-4148-4b9c-9a97-70c1dd008437","ios":"levelo://app?vid=f3bf8035-4148-4b9c-9a97-70c1dd008437"},"vehicle_type_id":"4","last_reported":1742379061,"current_range_meters":13600,"station_id":"ce4bgt92rcd13ifvqcf0","pricing_plan_id":"cebpf4jnsgd1na2vs0mg"},{"bike_id":"93d34d92-c907-4df9-a792-b6ee1e3ff7eb","system_id":"levelo_inurba_marseille","lat":43.2595,"lon":5.40898,"is_reserved":false,"is_disabled":false,"rental_uris":{"android":"levelo://app?vid=93d34d92-c907-4df9-a792-b6ee1e3ff7eb","ios":"levelo://app?vid=93d34d92-c907-4df9-a792-b6ee1e3ff7eb"},"vehicle_type_id":"4","last_reported":1742379061,"current_range_meters":13600,"station_id":"ce4bhm92rcd13ifvqglg","pricing_plan_id":"cebpf4jnsgd1na2vs0mg"},{"bike_id":"fe3b9c1e-b16a-403e-8789-a0c392eabcca","system_id":"levelo_inurba_marseille","lat":43.2679,"lon":5.39426,"is_reserved":false,"is_disabled":false,"rental_uris":{"android":"levelo://app?vid=fe3b9c1e-b16a-403e-8789-a0c392eabcca","ios":"levelo://app?vid=fe3b9c1e-b16a-403e-8789-a0c392eabcca"},"vehicle_type_id":"4","last_reported":1742379061,"current_range_meters":13600,"station_id":"ce4bhh12rcd13ifvqfg0","pricing_plan_id":"cebpf4jnsgd1na2vs0mg"},{"bike_id":"db8be1fb-f875-412a-9e75-590c6b6b3817","system_id":"levelo_inurba_marseille","lat":43.23164,"lon":5.43697,"is_reserved":false,"is_disabled":false,"rental_uris":{"android":"levelo://app?vid=db8be1fb-f875-412a-9e75-590c6b6b3817","ios":"levelo://app?vid=db8be1fb-f875-412a-9e75-590c6b6b3817"},"vehicle_type_id":"4","last_reported":1742379061,"current_range_meters":13600,"station_id":"ce4bhmp2rcd13ifvqgog","pricing_plan_id":"cebpf4jnsgd1na2vs0mg"},{"bike_id":"ab27b7f4-e913-4277-b4db-91f6914f8212","system_id":"levelo_inurba_marseille","lat":43.30303,"lon":5.36916,"is_reserved":false,"is_disabled":false,"rental_uris":{"android":"levelo://app?vid=ab27b7f4-e913-4277-b4db-91f6914f8212","ios":"levelo://app?vid=ab27b7f4-e913-4277-b4db-91f6914f8212"},"vehicle_type_id":"4","last_reported":1742379061,"current_range_meters":13600,"station_id":"ce4bgqh2rcd13ifvqc5g","pricing_plan_id":"cebpf4jnsgd1na2vs0mg"},{"bike_id":"a3ae58ef-7951-4fce-9005-aaa79f89070c","system_id":"levelo_inurba_marseille","lat":43.31265,"lon":5.36849,"is_reserved":false,"is_disabled":false,"rental_uris":{"android":"levelo://app?vid=a3ae58ef-7951-4fce-9005-aaa79f89070c","ios":"levelo://app?vid=a3ae58ef-7951-4fce-9005-aaa79f89070c"},"vehicle_type_id":"4","last_reported":1742379061,"current_range_meters":13600,"station_id":"ce4bgl92rcd13ifvqbq0","pricing_plan_id":"cebpf4jnsgd1na2vs0mg"},{"bike_id":"176d2e0b-da43-4b98-b92e-b45d4ab12b2f","system_id":"levelo_inurba_marseille","lat":43.30209,"lon":5.38473,"is_reserved":false,"is_disabled":false,"rental_uris":{"android":"levelo://app?vid=176d2e0b-da43-4b98-b92e-b45d4ab12b2f","ios":"levelo://app?vid=176d2e0b-da43-4b98-b92e-b45d4ab12b2f"},"vehicle_type_id":"4","last_reported":1742379061,"current_range_meters":13600,"station_id":"","pricing_plan_id":"cebpf4jnsgd1na2vs0mg"},{"bike_id":"1171eae4-417f-4d94-914a-4515bc283a95","system_id":"levelo_inurba_marseille","lat":43.26561,"lon":5.39034,"is_reserved":false,"is_disabled":false,"rental_uris":{"android":"levelo://app?vid=1171eae4-417f-4d94-914a-4515bc283a95","ios":"levelo://app?vid=1171eae4-417f-4d94-914a-4515bc283a95"},"vehicle_type_id":"4","last_reported":1742379061,"current_range_meters":14000,"station_id":"ce4bhe12rcd13ifvqf30","pricing_plan_id":"cebpf4jnsgd1na2vs0mg"},{"bike_id":"fd78d565-e8af-4c6e-94e3-d92db15cedac","system_id":"levelo_inurba_marseille","lat":43.231554,"lon":5.437115,"is_reserved":false,"is_disabled":true,"rental_uris":{"android":"levelo://app?vid=fd78d565-e8af-4c6e-94e3-d92db15cedac","ios":"levelo://app?vid=fd78d565-e8af-4c6e-94e3-d92db15cedac"},"vehicle_type_id":"4","last_reported":1742379061,"current_range_meters":14000,"station_id":"ce4bhmp2rcd13ifvqgog","pricing_plan_id":"cebpf4jnsgd1na2vs0mg"},{"bike_id":"0eb4a8de-0590-4044-9f41-80e5718184de","system_id":"levelo_inurba_marseille","lat":43.28495,"lon":5.38538,"is_reserved":false,"is_disabled":false,"rental_uris":{"android":"levelo://app?vid=0eb4a8de-0590-4044-9f41-80e5718184de","ios":"levelo://app?vid=0eb4a8de-0590-4044-9f41-80e5718184de"},"vehicle_type_id":"4","last_reported":1742379061,"current_range_meters":14000,"station_id":"ce4bh8p2rcd13ifvqeb0","pricing_plan_id":"cebpf4jnsgd1na2vs0mg"},{"bike_id":"38bd332a-82b8-48e5-8440-16891f61c5c3","system_id":"levelo_inurba_marseille","lat":43.30959,"lon":5.39035,"is_reserved":false,"is_disabled":false,"rental_uris":{"android":"levelo://app?vid=38bd332a-82b8-48e5-8440-16891f61c5c3","ios":"levelo://app?vid=38bd332a-82b8-48e5-8440-16891f61c5c3"},"vehicle_type_id":"4","last_reported":1742379061,"current_range_meters":14000,"station_id":"ce4bgup2rcd13ifvqco0","pricing_plan_id":"cebpf4jnsgd1na2vs0mg"},{"bike_id":"a289cc38-5006-492c-8c94-ed76614a14d0","system_id":"levelo_inurba_marseille","lat":43.25641,"lon":5.3823,"is_reserved":false,"is_disabled":false,"rental_uris":{"android":"levelo://app?vid=a289cc38-5006-492c-8c94-ed76614a14d0","ios":"levelo://app?vid=a289cc38-5006-492c-8c94-ed76614a14d0"},"vehicle_type_id":"4","last_reported":1742379061,"current_range_meters":14000,"station_id":"","pricing_plan_id":"cebpf4jnsgd1na2vs0mg"},{"bike_id":"c3e9aef9-9e74-4d5e-ba27-1d96be7552e6","system_id":"levelo_inurba_marseille","lat":43.30547,"lon":5.38438,"is_reserved":false,"is_disabled":false,"rental_uris":{"android":"levelo://app?vid=c3e9aef9-9e74-4d5e-ba27-1d96be7552e6","ios":"levelo://app?vid=c3e9aef9-9e74-4d5e-ba27-1d96be7552e6"},"vehicle_type_id":"4","last_reported":1742379061,"current_range_meters":14000,"station_id":"ce4bgg92rcd13ifvqb30","pricing_plan_id":"cebpf4jnsgd1na2vs0mg"},{"bike_id":"4386f676-718a-4c37-8e7e-c37f43d2d554","system_id":"levelo_inurba_marseille","lat":43.26498,"lon":5.39549,"is_reserved":false,"is_disabled":false,"rental_uris":{"android":"levelo://app?vid=4386f676-718a-4c37-8e7e-c37f43d2d554","ios":"levelo://app?vid=4386f676-718a-4c37-8e7e-c37f43d2d554"},"vehicle_type_id":"4","last_reported":1742379061,"current_range_meters":14000,"station_id":"ce4bhlp2rcd13ifvqgjg","pricing_plan_id":"cebpf4jnsgd1na2vs0mg"},{"bike_id":"7b5cf8e0-8a9f-4abf-be94-387d28e26ea4","system_id":"levelo_inurba_marseille","lat":43.31442,"lon":5.37332,"is_reserved":false,"is_disabled":false,"rental_uris":{"android":"levelo://app?vid=7b5cf8e0-8a9f-4abf-be94-387d28e26ea4","ios":"levelo://app?vid=7b5cf8e0-8a9f-4abf-be94-387d28e26ea4"},"vehicle_type_id":"4","last_reported":1742379061,"current_range_meters":14000,"station_id":"ce4bgt12rcd13ifvqcd0","pricing_plan_id":"cebpf4jnsgd1na2vs0mg"},{"bike_id":"c78666c0-40c1-48e0-a163-fa0043698d36","system_id":"levelo_inurba_marseille","lat":43.30927,"lon":5.36851,"is_reserved":false,"is_disabled":false,"rental_uris":{"android":"levelo://app?vid=c78666c0-40c1-48e0-a163-fa0043698d36","ios":"levelo://app?vid=c78666c0-40c1-48e0-a163-fa0043698d36"},"vehicle_type_id":"4","last_reported":1742379061,"current_range_meters":14400,"station_id":"ce4bgn92rcd13ifvqbvg","pricing_plan_id":"cebpf4jnsgd1na2vs0mg"},{"bike_id":"dd7bd877-3d99-4795-a17f-70cc4a6af82c","system_id":"levelo_inurba_marseille","lat":43.30539,"lon":5.38441,"is_reserved":false,"is_disabled":false,"rental_uris":{"android":"levelo://app?vid=dd7bd877-3d99-4795-a17f-70cc4a6af82c","ios":"levelo://app?vid=dd7bd877-3d99-4795-a17f-70cc4a6af82c"},"vehicle_type_id":"4","last_reported":1742379061,"current_range_meters":14400,"station_id":"ce4bgg92rcd13ifvqb30","pricing_plan_id":"cebpf4jnsgd1na2vs0mg"},{"bike_id":"3d6e5bb2-49a5-4ae9-ac7c-7c3250491a49","system_id":"levelo_inurba_marseille","lat":43.28832,"lon":5.35957,"is_reserved":false,"is_disabled":false,"rental_uris":{"android":"levelo://app?vid=3d6e5bb2-49a5-4ae9-ac7c-7c3250491a49","ios":"levelo://app?vid=3d6e5bb2-49a5-4ae9-ac7c-7c3250491a49"},"vehicle_type_id":"4","last_reported":1742379061,"current_range_meters":14400,"station_id":"","pricing_plan_id":"cebpf4jnsgd1na2vs0mg"},{"bike_id":"ec0f291c-c999-415f-a256-c2aa9938d2fe","system_id":"levelo_inurba_marseille","lat":43.24543,"lon":5.39527,"is_reserved":false,"is_disabled":false,"rental_uris":{"android":"levelo://app?vid=ec0f291c-c999-415f-a256-c2aa9938d2fe","ios":"levelo://app?vid=ec0f291c-c999-415f-a256-c2aa9938d2fe"},"vehicle_type_id":"4","last_reported":1742379061,"current_range_meters":14400,"station_id":"ce4bhlp2rcd13ifvqgjg","pricing_plan_id":"cebpf4jnsgd1na2vs0mg"},{"bike_id":"3a34c87c-3a7c-409e-814d-9fb27cf6bcdf","system_id":"levelo_inurba_marseille","lat":43.29609,"lon":5.37719,"is_reserved":false,"is_disabled":true,"rental_uris":{"android":"levelo://app?vid=3a34c87c-3a7c-409e-814d-9fb27cf6bcdf","ios":"levelo://app?vid=3a34c87c-3a7c-409e-814d-9fb27cf6bcdf"},"vehicle_type_id":"4","last_reported":1742379061,"current_range_meters":14400,"station_id":"","pricing_plan_id":"cebpf4jnsgd1na2vs0mg"},{"bike_id":"671210b1-9e8f-4893-953f-985ab8b97e34","system_id":"levelo_inurba_marseille","lat":43.32122,"lon":5.36788,"is_reserved":false,"is_disabled":false,"rental_uris":{"android":"levelo://app?vid=671210b1-9e8f-4893-953f-985ab8b97e34","ios":"levelo://app?vid=671210b1-9e8f-4893-953f-985ab8b97e34"},"vehicle_type_id":"4","last_reported":1742379061,"current_range_meters":14400,"station_id":"ce4bhrh2rcd13ifvqhug","pricing_plan_id":"cebpf4jnsgd1na2vs0mg"},{"bike_id":"1e096a21-9296-4ea4-ad05-342ac819913b","system_id":"levelo_inurba_marseille","lat":43.26688,"lon":5.38255,"is_reserved":false,"is_disabled":false,"rental_uris":{"android":"levelo://app?vid=1e096a21-9296-4ea4-ad05-342ac819913b","ios":"levelo://app?vid=1e096a21-9296-4ea4-ad05-342ac819913b"},"vehicle_type_id":"4","last_reported":1742379061,"current_range_meters":14400,"station_id":"ce4bhg92rcd13ifvqf90","pricing_plan_id":"cebpf4jnsgd1na2vs0mg"},{"bike_id":"b4a3fdbe-3cee-479a-b1fa-0c25d994462d","system_id":"levelo_inurba_marseille","lat":43.29608,"lon":5.37722,"is_reserved":false,"is_disabled":false,"rental_uris":{"android":"levelo://app?vid=b4a3fdbe-3cee-479a-b1fa-0c25d994462d","ios":"levelo://app?vid=b4a3fdbe-3cee-479a-b1fa-0c25d994462d"},"vehicle_type_id":"4","last_reported":1742379061,"current_range_meters":14400,"station_id":"ce4bgi92rcd13ifvqb90","pricing_plan_id":"cebpf4jnsgd1na2vs0mg"},{"bike_id":"529eccbf-add8-476b-acf0-6cf5c7af8023","system_id":"levelo_inurba_marseille","lat":43.27203,"lon":5.39178,"is_reserved":false,"is_disabled":false,"rental_uris":{"android":"levelo://app?vid=529eccbf-add8-476b-acf0-6cf5c7af8023","ios":"levelo://app?vid=529eccbf-add8-476b-acf0-6cf5c7af8023"},"vehicle_type_id":"4","last_reported":1742379061,"current_range_meters":14400,"station_id":"ce4bhhp2rcd13ifvqfm0","pricing_plan_id":"cebpf4jnsgd1na2vs0mg"},{"bike_id":"5271c92a-dd45-4451-91d5-7ee7231dcf2e","system_id":"levelo_inurba_marseille","lat":43.29712,"lon":5.37684,"is_reserved":false,"is_disabled":false,"rental_uris":{"android":"levelo://app?vid=5271c92a-dd45-4451-91d5-7ee7231dcf2e","ios":"levelo://app?vid=5271c92a-dd45-4451-91d5-7ee7231dcf2e"},"vehicle_type_id":"4","last_reported":1742379061,"current_range_meters":14400,"station_id":"ce4bgkh2rcd13ifvqbl0","pricing_plan_id":"cebpf4jnsgd1na2vs0mg"},{"bike_id":"7c23dcb0-31a4-457d-8cd5-05a913c017d4","system_id":"levelo_inurba_marseille","lat":43.33044,"lon":5.39027,"is_reserved":false,"is_disabled":false,"rental_uris":{"android":"levelo://app?vid=7c23dcb0-31a4-457d-8cd5-05a913c017d4","ios":"levelo://app?vid=7c23dcb0-31a4-457d-8cd5-05a913c017d4"},