{"last_updated":1750176838,"ttl":60,"version":"2.2","data":{"bikes":[{"bike_id":"3da29fb8-fc97-44c6-b9ac-31dd456b2fd4","system_id":"levelo_inurba_marseille","lat":43.33771,"lon":5.37424,"is_reserved":false,"is_disabled":true,"rental_uris":{"android":"levelo://app?vid=3da29fb8-fc97-44c6-b9ac-31dd456b2fd4","ios":"levelo://app?vid=3da29fb8-fc97-44c6-b9ac-31dd456b2fd4"},"vehicle_type_id":"4","last_reported":1750176838,"current_range_meters":0,"station_id":"","pricing_plan_id":"cebpf4jnsgd1na2vs0mg"},{"bike_id":"01861ad8-a8d7-4be6-816e-651927c87584","system_id":"levelo_inurba_marseille","lat":43.33751,"lon":5.37456,"is_reserved":false,"is_disabled":true,"rental_uris":{"android":"levelo://app?vid=01861ad8-a8d7-4be6-816e-651927c87584","ios":"levelo://app?vid=01861ad8-a8d7-4be6-816e-651927c87584"},"vehicle_type_id":"4","last_reported":1750176838,"current_range_meters":0,"station_id":"","pricing_plan_id":"cebpf4jnsgd1na2vs0mg"},{"bike_id":"dbfce7a3-3423-4296-b193-a177dea644ac","system_id":"levelo_inurba_marseille","lat":43.27248,"lon":5.41642,"is_reserved":false,"is_disabled":true,"rental_uris":{"android":"levelo://app?vid=dbfce7a3-3423-4296-b193-a177dea644ac","ios":"levelo://app?vid=dbfce7a3-3423-4296-b193-a177dea644ac"},"vehicle_type_id":"4","last_reported":1750176838,"current_range_meters":0,"station_id":"","pricing_plan_id":"cebpf4jnsgd1na2vs0mg"},{"bike_id":"658671c3-16fd-406b-a8ae-c9874c33b6bd","system_id":"levelo_inurba_marseille","lat":43.29236,"lon":5.39339,"is_reserved":false,"is_disabled":true,"rental_uris":{"android":"levelo://app?vid=658671c3-16fd-406b-a8ae-c9874c33b6bd","ios":"levelo://app?vid=658671c3-16fd-406b-a8ae-c9874c33b6bd"},"vehicle_type_id":"4","last_reported":1750176838,"current_range_meters":0,"station_id":"","pricing_plan_id":"cebpf4jnsgd1na2vs0mg"},{"bike_id":"b81ba2bd-624d-43c3-b702-6c0cdad38ab2","system_id":"levelo_inurba_marseille","lat":43.31112,"lon":5.3935,"is_reserved":false,"is_disabled":true,"rental_uris":{"android":"levelo://app?vid=b81ba2bd-624d-43c3-b702-6c0cdad38ab2","ios":"levelo://app?vid=b81ba2bd-624d-43c3-b702-6c0cdad38ab2"},"vehicle_type_id":"4","last_reported":1750176838,"current_range_meters":0,"station_id":"","pricing_plan_id":"cebpf4jnsgd1na2vs0mg"},{"bike_id":"d2bd57c8-6b64-48db-ad24-5398eb3fd9d6","system_id":"levelo_inurba_marseille","lat":43.337444,"lon":5.374475,"is_reserved":false,"is_disabled":true,"rental_uris":{"android":"levelo://app?vid=d2bd57c8-6b64-48db-ad24-5398eb3fd9d6","ios":"levelo://app?vid=d2bd57c8-6b64-48db-ad24-5398eb3fd9d6"},"vehicle_type_id":"4","last_reported":1750176838,"current_range_meters":0,"station_id":"","pricing_plan_id":"cebpf4jnsgd1na2vs0mg"},{"bike_id":"62a493c7-4534-4419-ad43-0582de34a72a","system_id":"levelo_inurba_marseille","lat":43.21366,"lon":5.355183,"is_reserved":false,"is_disabled":true,"rental_uris":{"android":"levelo://app?vid=62a493c7-4534-4419-ad43-0582de34a72a","ios":"levelo://app?vid=62a493c7-4534-4419-ad43-0582de34a72a"},"vehicle_type_id":"4","last_reported":1750176838,"current_range_meters":0,"station_id":"","pricing_plan_id":"cebpf4jnsgd1na2vs0mg"},{"bike_id":"8ad9234e-001a-4549-8bba-9baf2ef98804","system_id":"levelo_inurba_marseille","lat":43.27443,"lon":5.39832,"is_reserved":false,"is_disabled":true,"rental_uris":{"android":"levelo://app?vid=8ad9234e-001a-4549-8bba-9baf2ef98804","ios":"levelo://app?vid=8ad9234e-001a-4549-8bba-9baf2ef98804"},"vehicle_type_id":"4","last_reported":1750176838,"current_range_meters":0,"station_id":"","pricing_plan_id":"cebpf4jnsgd1na2vs0mg"},{"bike_id":"93af304b-67b5-47b8-a3fd-e0775f7cde8c","system_id":"levelo_inurba_marseille","lat":43.21537,"lon":5.347377,"is_reserved":false,"is_disabled":true,"rental_uris":{"android":"levelo://app?vid=93af304b-67b5-47b8-a3fd-e0775f7cde8c","ios":"levelo://app?vid=93af304b-67b5-47b8-a3fd-e0775f7cde8c"},"vehicle_type_id":"4","last_reported":1750176838,"current_range_meters":0,"station_id":"","pricing_plan_id":"cebpf4jnsgd1na2vs0mg"},{"bike_id":"d6609b4f-333b-43c1-9ebe-8726f5e76e88","system_id":"levelo_inurba_marseille","lat":43.337444,"lon":5.374475,"is_reserved":false,"is_disabled":true,"rental_uris":{"android":"levelo://app?vid=d6609b4f-333b-43c1-9ebe-8726f5e76e88","ios":"levelo://app?vid=d6609b4f-333b-43c1-9ebe-8726f5e76e88"},"vehicle_type_id":"4","last_reported":1750176838,"current_range_meters":0,"station_id":"","pricing_plan_id":"cebpf4jnsgd1na2vs0mg"},{"bike_id":"57c83ce1-960e-466a-b6c5-d93bc130c53a","system_id":"levelo_inurba_marseille","lat":43.24869,"lon":5.38949,"is_reserved":false,"is_disabled":true,"rental_uris":{"android":"levelo://app?vid=57c83ce1-960e-466a-b6c5-d93bc130c53a","ios":"levelo://app?vid=57c83ce1-960e-466a-b6c5-d93bc130c53a"},"vehicle_type_id":"4","last_reported":1750176838,"current_range_meters":0,"station_id":"","pricing_plan_id":"cebpf4jnsgd1na2vs0mg"},{"bike_id":"b383d463-909f-40be-9bf7-0d8066b1d363","system_id":"levelo_inurba_marseille","lat":43.28675,"lon":5.38694,"is_reserved":false,"is_disabled":true,"rental_uris":{"android":"levelo://app?vid=b383d463-909f-40be-9bf7-0d8066b1d363","ios":"levelo://app?vid=b383d463-909f-40be-9bf7-0d8066b1d363"},"vehicle_type_id":"4","last_reported":1750176838,"current_range_meters":0,"station_id":"ce4bh492rcd13ifvqdug","pricing_plan_id":"cebpf4jnsgd1na2vs0mg"},{"bike_id":"df2ed377-48b9-45bd-89b1-3b92766a63bc","system_id":"levelo_inurba_marseille","lat":43.28411,"lon":5.34978,"is_reserved":false,"is_disabled":true,"rental_uris":{"android":"levelo://app?vid=df2ed377-48b9-45bd-89b1-3b92766a63bc","ios":"levelo://app?vid=df2ed377-48b9-45bd-89b1-3b92766a63bc"},"vehicle_type_id":"4","last_reported":1750176838,"current_range_meters":0,"station_id":"ce4bhbh2rcd13ifvqepg","pricing_plan_id":"cebpf4jnsgd1na2vs0mg"},{"bike_id":"b385a2cd-0e39-4fe6-b143-77fcf89e4fb3","system_id":"levelo_inurba_marseille","lat":43.28274,"lon":5.35075,"is_reserved":false,"is_disabled":true,"rental_uris":{"android":"levelo://app?vid=b385a2cd-0e39-4fe6-b143-77fcf89e4fb3","ios":"levelo://app?vid=b385a2cd-0e39-4fe6-b143-77fcf89e4fb3"},"vehicle_type_id":"4","last_reported":1750176838,"current_range_meters":0,"station_id":"ce4bhbp2rcd13ifvqerg","pricing_plan_id":"cebpf4jnsgd1na2vs0mg"},{"bike_id":"ba85f7db-1a49-41b8-bd88-57f870b02d14","system_id":"levelo_inurba_marseille","lat":43.28272,"lon":5.35059,"is_reserved":false,"is_disabled":true,"rental_uris":{"android":"levelo://app?vid=ba85f7db-1a49-41b8-bd88-57f870b02d14","ios":"levelo://app?vid=ba85f7db-1a49-41b8-bd88-57f870b02d14"},"vehicle_type_id":"4","last_reported":1750176838,"current_range_meters":0,"station_id":"ce4bhbp2rcd13ifvqerg","pricing_plan_id":"cebpf4jnsgd1na2vs0mg"},{"bike_id":"3e7916b5-572f-426b-901b-e731639f7ad3","system_id":"levelo_inurba_marseille","lat":43.26209,"lon":5.37444,"is_reserved":false,"is_disabled":true,"rental_uris":{"android":"levelo://app?vid=3e7916b5-572f-426b-901b-e731639f7ad3","ios":"levelo://app?vid=3e7916b5-572f-426b-901b-e731639f7ad3"},"vehicle_type_id":"4","last_reported":1750176838,"current_range_meters":0,"station_id":"ce4bhgp2rcd13ifvqfc0","pricing_plan_id":"cebpf4jnsgd1na2vs0mg"},{"bike_id":"6d25d62b-066d-4dda-9876-2eb9c7d39a68","system_id":"levelo_inurba_marseille","lat":43.26089,"lon":5.39369,"is_reserved":false,"is_disabled":true,"rental_uris":{"android":"levelo://app?vid=6d25d62b-066d-4dda-9876-2eb9c7d39a68","ios":"levelo://app?vid=6d25d62b-066d-4dda-9876-2eb9c7d39a68"},"vehicle_type_id":"4","last_reported":1750176838,"current_range_meters":0,"station_id":"ce4bhh92rcd13ifvqfj0","pricing_plan_id":"cebpf4jnsgd1na2vs0mg"},{"bike_id":"a43c3de4-d545-4b12-986c-9f8e8e3bbd9e","system_id":"levelo_inurba_marseille","lat":43.28412,"lon":5.34992,"is_reserved":false,"is_disabled":true,"rental_uris":{"android":"levelo://app?vid=a43c3de4-d545-4b12-986c-9f8e8e3bbd9e","ios":"levelo://app?vid=a43c3de4-d545-4b12-986c-9f8e8e3bbd9e"},"vehicle_type_id":"4","last_reported":1750176838,"current_range_meters":400,"station_id":"ce4bhbh2rcd13ifvqepg","pricing_plan_id":"cebpf4jnsgd1na2vs0mg"},{"bike_id":"b9e37238-9abe-4b8b-b932-edaee33a7e59","system_id":"levelo_inurba_marseille","lat":43.274769,"lon":5.39007,"is_reserved":false,"is_disabled":true,"rental_uris":{"android":"levelo://app?vid=b9e37238-9abe-4b8b-b932-edaee33a7e59","ios":"levelo://app?vid=b9e37238-9abe-4b8b-b932-edaee33a7e59"},"vehicle_type_id":"4","last_reported":1750176838,"current_range_meters":1200,"station_id":"","pricing_plan_id":"cebpf4jnsgd1na2vs0mg"},{"bike_id":"6d18ec7c-5543-4945-adc9-d8911f8d0d7d","system_id":"levelo_inurba_marseille","lat":43.28276,"lon":5.35067,"is_reserved":false,"is_disabled":true,"rental_uris":{"android":"levelo://app?vid=6d18ec7c-5543-4945-adc9-d8911f8d0d7d","ios":"levelo://app?vid=6d18ec7c-5543-4945-adc9-d8911f8d0d7d"},"vehicle_type_id":"4","last_reported":1750176838,"current_range_meters":1200,"station_id":"ce4bhbp2rcd13ifvqerg","pricing_plan_id":"cebpf4jnsgd1na2vs0mg"},{"bike_id":"89d1cbe6-47fe-4b55-8705-38e9c3273bec","system_id":"levelo_inurba_marseille","lat":43.2756,"lon":5.38415,"is_reserved":false,"is_disabled":true,"rental_uris":{"android":"levelo://app?vid=89d1cbe6-47fe-4b55-8705-38e9c3273bec","ios":"levelo://app?vid=89d1cbe6-47fe-4b55-8705-38e9c3273bec"},"vehicle_type_id":"4","last_reported":1750176838,"current_range_meters":1200,"station_id":"ce4bhh92rcd13ifvqfi0","pricing_plan_id":"cebpf4jnsgd1na2vs0mg"},{"bike_id":"6d11624a-f30e-4883-859d-55cf91236043","system_id":"levelo_inurba_marseille","lat":43.30417,"lon":5.39754,"is_reserved":false,"is_disabled":true,"rental_uris":{"android":"levelo://app?vid=6d11624a-f30e-4883-859d-55cf91236043","ios":"levelo://app?vid=6d11624a-f30e-4883-859d-55cf91236043"},"vehicle_type_id":"4","last_reported":1750176838,"current_range_meters":1600,"station_id":"ce4bh092rcd13ifvqd20","pricing_plan_id":"cebpf4jnsgd1na2vs0mg"},{"bike_id":"a8dd2290-9ea6-4239-8591-3a6b986e0af7","system_id":"levelo_inurba_marseille","lat":43.2926,"lon":5.409,"is_reserved":false,"is_disabled":true,"rental_uris":{"android":"levelo://app?vid=a8dd2290-9ea6-4239-8591-3a6b986e0af7","ios":"levelo://app?vid=a8dd2290-9ea6-4239-8591-3a6b986e0af7"},"vehicle_type_id":"4","last_reported":1750176838,"current_range_meters":1600,"station_id":"ce4bh192rcd13ifvqdc0","pricing_plan_id":"cebpf4jnsgd1na2vs0mg"},{"bike_id":"a9ecc45f-d4c3-4689-90a1-ae89459bd96e","system_id":"levelo_inurba_marseille","lat":43.290955,"lon":5.381351,"is_reserved":false,"is_disabled":false,"rental_uris":{"android":"levelo://app?vid=a9ecc45f-d4c3-4689-90a1-ae89459bd96e","ios":"levelo://app?vid=a9ecc45f-d4c3-4689-90a1-ae89459bd96e"},"vehicle_type_id":"4","last_reported":1750176838,"current_range_meters":1600,"station_id":"ce4bh512rcd13ifvqe2g","pricing_plan_id":"cebpf4jnsgd1na2vs0mg"},{"bike_id":"878b2ca0-5ff0-4e5d-b336-09177ca626ca","system_id":"levelo_inurba_marseille","lat":43.29532,"lon":5.38546,"is_reserved":false,"is_disabled":true,"rental_uris":{"android":"levelo://app?vid=878b2ca0-5ff0-4e5d-b336-09177ca626ca","ios":"levelo://app?vid=878b2ca0-5ff0-4e5d-b336-09177ca626ca"},"vehicle_type_id":"4","last_reported":1750176838,"current_range_meters":2000,"station_id":"ce4bgih2rcd13ifvqba0","pricing_plan_id":"cebpf4jnsgd1na2vs0mg"},{"bike_id":"70106cef-fcba-4540-a6f5-78662e5a677e","system_id":"levelo_inurba_marseille","lat":43.28412,"lon":5.34984,"is_reserved":false,"is_disabled":true,"rental_uris":{"android":"levelo://app?vid=70106cef-fcba-4540-a6f5-78662e5a677e","ios":"levelo://app?vid=70106cef-fcba-4540-a6f5-78662e5a677e"},"vehicle_type_id":"4","last_reported":1750176838,"current_range_meters":2000,"station_id":"ce4bhbh2rcd13ifvqepg","pricing_plan_id":"cebpf4jnsgd1na2vs0mg"},{"bike_id":"4cb2325b-d3a4-4290-a114-88768b82f1a8","system_id":"levelo_inurba_marseille","lat":43.250886,"lon":5.395261,"is_reserved":false,"is_disabled":true,"rental_uris":{"android":"levelo://app?vid=4cb2325b-d3a4-4290-a114-88768b82f1a8","ios":"levelo://app?vid=4cb2325b-d3a4-4290-a114-88768b82f1a8"},"vehicle_type_id":"4","last_reported":1750176838,"current_range_meters":2000,"station_id":"ce4bhm12rcd13ifvqgkg","pricing_plan_id":"cebpf4jnsgd1na2vs0mg"},{"bike_id":"8d297b38-f666-4a46-9dee-0132f800019c","system_id":"levelo_inurba_marseille","lat":43.32247,"lon":5.38651,"is_reserved":false,"is_disabled":false,"rental_uris":{"android":"levelo://app?vid=8d297b38-f666-4a46-9dee-0132f800019c","ios":"levelo://app?vid=8d297b38-f666-4a46-9dee-0132f800019c"},"vehicle_type_id":"4","last_reported":1750176838,"current_range_meters":2800,"station_id":"","pricing_plan_id":"cebpf4jnsgd1na2vs0mg"},{"bike_id":"bf27245e-a84e-45ad-8448-cfd0eb28f770","system_id":"levelo_inurba_marseille","lat":43.29257,"lon":5.38427,"is_reserved":false,"is_disabled":false,"rental_uris":{"android":"levelo://app?vid=bf27245e-a84e-45ad-8448-cfd0eb28f770","ios":"levelo://app?vid=bf27245e-a84e-45ad-8448-cfd0eb28f770"},"vehicle_type_id":"4","last_reported":1750176838,"current_range_meters":3200,"station_id":"ce4bh692rcd13ifvqea0","pricing_plan_id":"cebpf4jnsgd1na2vs0mg"},{"bike_id":"cb5006c9-4059-4d42-84d8-8c161668fd82","system_id":"levelo_inurba_marseille","lat":43.283986,"lon":5.349879,"is_reserved":false,"is_disabled":false,"rental_uris":{"android":"levelo://app?vid=cb5006c9-4059-4d42-84d8-8c161668fd82","ios":"levelo://app?vid=cb5006c9-4059-4d42-84d8-8c161668fd82"},"vehicle_type_id":"4","last_reported":1750176838,"current_range_meters":3200,"station_id":"ce4bhbh2rcd13ifvqepg","pricing_plan_id":"cebpf4jnsgd1na2vs0mg"},{"bike_id":"a2b0388f-f7f2-4f43-981f-1bb1b856781e","system_id":"levelo_inurba_marseille","lat":43.286133,"lon":5.351081,"is_reserved":false,"is_disabled":false,"rental_uris":{"android":"levelo://app?vid=a2b0388f-f7f2-4f43-981f-1bb1b856781e","ios":"levelo://app?vid=a2b0388f-f7f2-4f43-981f-1bb1b856781e"},"vehicle_type_id":"4","last_reported":1750176838,"current_range_meters":3200,"station_id":"ce4bhch2rcd13ifvqeug","pricing_plan_id":"cebpf4jnsgd1na2vs0mg"},{"bike_id":"69af7404-5ec1-4810-9e8f-2b24aa559381","system_id":"levelo_inurba_marseille","lat":43.293482,"lon":5.383857,"is_reserved":false,"is_disabled":false,"rental_uris":{"android":"levelo://app?vid=69af7404-5ec1-4810-9e8f-2b24aa559381","ios":"levelo://app?vid=69af7404-5ec1-4810-9e8f-2b24aa559381"},"vehicle_type_id":"4","last_reported":1750176838,"current_range_meters":3600,"station_id":"","pricing_plan_id":"cebpf4jnsgd1na2vs0mg"},{"bike_id":"e7cd20e5-4f34-4531-bf09-9b9d4ed3cf6e","system_id":"levelo_inurba_marseille","lat":43.30109,"lon":5.39087,"is_reserved":false,"is_disabled":false,"rental_uris":{"android":"levelo://app?vid=e7cd20e5-4f34-4531-bf09-9b9d4ed3cf6e","ios":"levelo://app?vid=e7cd20e5-4f34-4531-bf09-9b9d4ed3cf6e"},"vehicle_type_id":"4","last_reported":1750176838,"current_range_meters":3600,"station_id":"ce4bh192rcd13ifvqdb0","pricing_plan_id":"cebpf4jnsgd1na2vs0mg"},{"bike_id":"9dae8699-1512-4e8d-b49b-c78fbe4f2ae3","system_id":"levelo_inurba_marseille","lat":43.30803,"lon":5.43527,"is_reserved":false,"is_disabled":false,"rental_uris":{"android":"levelo://app?vid=9dae8699-1512-4e8d-b49b-c78fbe4f2ae3","ios":"levelo://app?vid=9dae8699-1512-4e8d-b49b-c78fbe4f2ae3"},"vehicle_type_id":"4","last_reported":1750176838,"current_range_meters":3600,"station_id":"ce4bhph2rcd13ifvqheg","pricing_plan_id":"cebpf4jnsgd1na2vs0mg"},{"bike_id":"9ab69b05-e5b7-4191-ba1e-2f0430284d47","system_id":"levelo_inurba_marseille","lat":43.30458,"lon":5.37904,"is_reserved":false,"is_disabled":false,"rental_uris":{"android":"levelo://app?vid=9ab69b05-e5b7-4191-ba1e-2f0430284d47","ios":"levelo://app?vid=9ab69b05-e5b7-4191-ba1e-2f0430284d47"},"vehicle_type_id":"4","last_reported":1750176838,"current_range_meters":4000,"station_id":"ce4bgup2rcd13ifvqcn0","pricing_plan_id":"cebpf4jnsgd1na2vs0mg"},{"bike_id":"cc954312-3bfa-408c-a68b-e78ee5999a19","system_id":"levelo_inurba_marseille","lat":43.217458,"lon":5.346012,"is_reserved":false,"is_disabled":false,"rental_uris":{"android":"levelo://app?vid=cc954312-3bfa-408c-a68b-e78ee5999a19","ios":"levelo://app?vid=cc954312-3bfa-408c-a68b-e78ee5999a19"},"vehicle_type_id":"4","last_reported":1750176838,"current_range_meters":4400,"station_id":"ce4bgup2rcd13ifvqco0","pricing_plan_id":"cebpf4jnsgd1na2vs0mg"},{"bike_id":"4c463acc-6ed0-4a59-b545-1b612eb7e2bb","system_id":"levelo_inurba_marseille","lat":43.28462,"lon":5.35888,"is_reserved":false,"is_disabled":false,"rental_uris":{"android":"levelo://app?vid=4c463acc-6ed0-4a59-b545-1b612eb7e2bb","ios":"levelo://app?vid=4c463acc-6ed0-4a59-b545-1b612eb7e2bb"},"vehicle_type_id":"4","last_reported":1750176838,"current_range_meters":4800,"station_id":"ce4bhah2rcd13ifvqei0","pricing_plan_id":"cebpf4jnsgd1na2vs0mg"},{"bike_id":"f5f9838b-fb9d-4fff-a4dc-1376bc992488","system_id":"levelo_inurba_marseille","lat":43.27679,"lon":5.38894,"is_reserved":false,"is_disabled":false,"rental_uris":{"android":"levelo://app?vid=f5f9838b-fb9d-4fff-a4dc-1376bc992488","ios":"levelo://app?vid=f5f9838b-fb9d-4fff-a4dc-1376bc992488"},"vehicle_type_id":"4","last_reported":1750176838,"current_range_meters":4800,"station_id":"ce4bhi12rcd13ifvqfo0","pricing_plan_id":"cebpf4jnsgd1na2vs0mg"},{"bike_id":"f4bd3b52-9c7b-4c51-b719-f0965d81e95e","system_id":"levelo_inurba_marseille","lat":43.29252,"lon":5.3845,"is_reserved":false,"is_disabled":false,"rental_uris":{"android":"levelo://app?vid=f4bd3b52-9c7b-4c51-b719-f0965d81e95e","ios":"levelo://app?vid=f4bd3b52-9c7b-4c51-b719-f0965d81e95e"},"vehicle_type_id":"4","last_reported":1750176838,"current_range_meters":6000,"station_id":"ce4bh692rcd13ifvqea0","pricing_plan_id":"cebpf4jnsgd1na2vs0mg"},{"bike_id":"f9eab498-81b2-4433-8896-f3668b973f65","system_id":"levelo_inurba_marseille","lat":43.28613,"lon":5.35108,"is_reserved":false,"is_disabled":false,"rental_uris":{"android":"levelo://app?vid=f9eab498-81b2-4433-8896-f3668b973f65","ios":"levelo://app?vid=f9eab498-81b2-4433-8896-f3668b973f65"},"vehicle_type_id":"4","last_reported":1750176838,"current_range_meters":6000,"station_id":"ce4bhch2rcd13ifvqeug","pricing_plan_id":"cebpf4jnsgd1na2vs0mg"},{"bike_id":"875b550a-029e-4314-a113-2f3057d490d9","system_id":"levelo_inurba_marseille","lat":43.28613,"lon":5.35105,"is_reserved":false,"is_disabled":false,"rental_uris":{"android":"levelo://app?vid=875b550a-029e-4314-a113-2f3057d490d9","ios":"levelo://app?vid=875b550a-029e-4314-a113-2f3057d490d9"},"vehicle_type_id":"4","last_reported":1750176838,"current_range_meters":6000,"station_id":"ce4bhch2rcd13ifvqeug","pricing_plan_id":"cebpf4jnsgd1na2vs0mg"},{"bike_id":"ba20a3c9-96e5-4a15-af3b-13d9264f3381","system_id":"levelo_inurba_marseille","lat":43.28613,"lon":5.37059,"is_reserved":false,"is_disabled":false,"rental_uris":{"android":"levelo://app?vid=ba20a3c9-96e5-4a15-af3b-13d9264f3381","ios":"levelo://app?vid=ba20a3c9-96e5-4a15-af3b-13d9264f3381"},"vehicle_type_id":"4","last_reported":1750176838,"current_range_meters":6000,"station_id":"ce4bht12rcd13ifvqi60","pricing_plan_id":"cebpf4jnsgd1na2vs0mg"},{"bike_id":"b94ad41f-3cd1-4a81-9863-922080040a44","system_id":"levelo_inurba_marseille","lat":43.225,"lon":5.3478,"is_reserved":false,"is_disabled":false,"rental_uris":{"android":"levelo://app?vid=b94ad41f-3cd1-4a81-9863-922080040a44","ios":"levelo://app?vid=b94ad41f-3cd1-4a81-9863-922080040a44"},"vehicle_type_id":"4","last_reported":1750176838,"current_range_meters":6400,"station_id":"","pricing_plan_id":"cebpf4jnsgd1na2vs0mg"},{"bike_id":"6938b41e-a596-4954-80a5-c65d98740e30","system_id":"levelo_inurba_marseille","lat":43.30883,"lon":5.371974,"is_reserved":false,"is_disabled":false,"rental_uris":{"android":"levelo://app?vid=6938b41e-a596-4954-80a5-c65d98740e30","ios":"levelo://app?vid=6938b41e-a596-4954-80a5-c65d98740e30"},"vehicle_type_id":"4","last_reported":1750176838,"current_range_meters":6400,"station_id":"ce4bguh2rcd13ifvqckg","pricing_plan_id":"cebpf4jnsgd1na2vs0mg"},{"bike_id":"7fe63c06-d57f-4a6b-ba88-1d4609cbbe6d","system_id":"levelo_inurba_marseille","lat":43.28566,"lon":5.3949,"is_reserved":false,"is_disabled":false,"rental_uris":{"android":"levelo://app?vid=7fe63c06-d57f-4a6b-ba88-1d4609cbbe6d","ios":"levelo://app?vid=7fe63c06-d57f-4a6b-ba88-1d4609cbbe6d"},"vehicle_type_id":"4","last_reported":1750176838,"current_range_meters":6400,"station_id":"ce4bh292rcd13ifvqdg0","pricing_plan_id":"cebpf4jnsgd1na2vs0mg"},{"bike_id":"45c6c768-3160-464b-bb86-9c6837dd36ca","system_id":"levelo_inurba_marseille","lat":43.28615,"lon":5.35107,"is_reserved":false,"is_disabled":false,"rental_uris":{"android":"levelo://app?vid=45c6c768-3160-464b-bb86-9c6837dd36ca","ios":"levelo://app?vid=45c6c768-3160-464b-bb86-9c6837dd36ca"},"vehicle_type_id":"4","last_reported":1750176838,"current_range_meters":6400,"station_id":"ce4bhch2rcd13ifvqeug","pricing_plan_id":"cebpf4jnsgd1na2vs0mg"},{"bike_id":"a9f82726-1ea1-4790-803a-56a6ef4fd53a","system_id":"levelo_inurba_marseille","lat":43.28618,"lon":5.35104,"is_reserved":false,"is_disabled":false,"rental_uris":{"android":"levelo://app?vid=a9f82726-1ea1-4790-803a-56a6ef4fd53a","ios":"levelo://app?vid=a9f82726-1ea1-4790-803a-56a6ef4fd53a"},"vehicle_type_id":"4","last_reported":1750176838,"current_range_meters":6400,"station_id":"ce4bhch2rcd13ifvqeug","pricing_plan_id":"cebpf4jnsgd1na2vs0mg"},{"bike_id":"6c39eb87-7793-486e-a77d-937d2caedec6","system_id":"levelo_inurba_marseille","lat":43.24659,"lon":5.38161,"is_reserved":false,"is_disabled":false,"rental_uris":{"android":"levelo://app?vid=6c39eb87-7793-486e-a77d-937d2caedec6","ios":"levelo://app?vid=6c39eb87-7793-486e-a77d-937d2caedec6"},"vehicle_type_id":"4","last_reported":1750176838,"current_range_meters":6400,"station_id":"ce4bhih2rcd13ifvqfr0","pricing_plan_id":"cebpf4jnsgd1na2vs0mg"},{"bike_id":"6afc644c-08c3-42de-8619-3f94e2ba41cd","system_id":"levelo_inurba_marseille","lat":43.29906,"lon":5.43689,"is_reserved":false,"is_disabled":false,"rental_uris":{"android":"levelo://app?vid=6afc644c-08c3-42de-8619-3f94e2ba41cd","ios":"levelo://app?vid=6afc644c-08c3-42de-8619-3f94e2ba41cd"},"vehicle_type_id":"4","last_reported":1750176838,"current_range_meters":6800,"station_id":"ce4bhpp2rcd13ifvqhfg","pricing_plan_id":"cebpf4jnsgd1na2vs0mg"},{"bike_id":"e22e7ec2-40d4-4d10-be3c-4bec5d7808aa","system_id":"levelo_inurba_marseille","lat":43.28267,"lon":5.35063,"is_reserved":false,"is_disabled":false,"rental_uris":{"android":"levelo://app?vid=e22e7ec2-40d4-4d10-be3c-4bec5d7808aa","ios":"levelo://app?vid=e22e7ec2-40d4-4d10-be3c-4bec5d7808aa"},"vehicle_type_id":"4","last_reported":1750176838,"current_range_meters":7200,"station_id":"ce4bhbp2rcd13ifvqerg","pricing_plan_id":"cebpf4jnsgd1na2vs0mg"},{"bike_id":"647ddc5c-41f2-4a66-8fc1-079120c0c76d","system_id":"levelo_inurba_marseille","lat":43.28477,"lon":5.38413,"is_reserved":false,"is_disabled":false,"rental_uris":{"android":"levelo://app?vid=647ddc5c-41f2-4a66-8fc1-079120c0c76d","ios":"levelo://app?vid=647ddc5c-41f2-4a66-8fc1-079120c0c76d"},"vehicle_type_id":"4","last_reported":1750176838,"current_range_meters":8000,"station_id":"ce4bh512rcd13ifvqe3g","pricing_plan_id":"cebpf4jnsgd1na2vs0mg"},{"bike_id":"a9cdde83-06f8-4d7e-b71a-1e155908ea8a","system_id":"levelo_inurba_marseille","lat":43.28479,"lon":5.3586,"is_reserved":false,"is_disabled":false,"rental_uris":{"android":"levelo://app?vid=a9cdde83-06f8-4d7e-b71a-1e155908ea8a","ios":"levelo://app?vid=a9cdde83-06f8-4d7e-b71a-1e155908ea8a"},"vehicle_type_id":"4","last_reported":1750176838,"current_range_meters":8000,"station_id":"ce4bhah2rcd13ifvqei0","pricing_plan_id":"cebpf4jnsgd1na2vs0mg"},{"bike_id":"58311cf5-aa3c-43cc-add6-44a3552a9d0c","system_id":"levelo_inurba_marseille","lat":43.28278,"lon":5.35069,"is_reserved":false,"is_disabled":false,"rental_uris":{"android":"levelo://app?vid=58311cf5-aa3c-43cc-add6-44a3552a9d0c","ios":"levelo://app?vid=58311cf5-aa3c-43cc-add6-44a3552a9d0c"},"vehicle_type_id":"4","last_reported":1750176838,"current_range_meters":8400,"station_id":"","pricing_plan_id":"cebpf4jnsgd1na2vs0mg"},{"bike_id":"beeeb99d-c430-4cd4-84fe-11d5213a41e1","system_id":"levelo_inurba_marseille","lat":43.29569,"lon":5.39896,"is_reserved":false,"is_disabled":false,"rental_uris":{"android":"levelo://app?vid=beeeb99d-c430-4cd4-84fe-11d5213a41e1","ios":"levelo://app?vid=beeeb99d-c430-4cd4-84fe-11d5213a41e1"},"vehicle_type_id":"4","last_reported":1750176838,"current_range_meters":8400,"station_id":"","pricing_plan_id":"cebpf4jnsgd1na2vs0mg"},{"bike_id":"b22b6236-6b4f-4f2c-8713-293bb9fabeb5","system_id":"levelo_inurba_marseille","lat":43.30153,"lon":5.39845,"is_reserved":false,"is_disabled":false,"rental_uris":{"android":"levelo://app?vid=b22b6236-6b4f-4f2c-8713-293bb9fabeb5","ios":"levelo://app?vid=b22b6236-6b4f-4f2c-8713-293bb9fabeb5"},"vehicle_type_id":"4","last_reported":1750176838,"current_range_meters":8400,"station_id":"ce4bh0h2rcd13ifvqd40","pricing_plan_id":"cebpf4jnsgd1na2vs0mg"},{"bike_id":"32e17cfb-1379-4849-9a5b-cad952743025","system_id":"levelo_inurba_marseille","lat":43.28712,"lon":5.37388,"is_reserved":false,"is_disabled":false,"rental_uris":{"android":"levelo://app?vid=32e17cfb-1379-4849-9a5b-cad952743025","ios":"levelo://app?vid=32e17cfb-1379-4849-9a5b-cad952743025"},"vehicle_type_id":"4","last_reported":1750176838,"current_range_meters":8400,"station_id":"ce4bh3p2rcd13ifvqdq0","pricing_plan_id":"cebpf4jnsgd1na2vs0mg"},{"bike_id":"15cec623-25da-4e2e-8bf9-aecc2ab0641b","system_id":"levelo_inurba_marseille","lat":43.33604,"lon":5.41034,"is_reserved":false,"is_disabled":false,"rental_uris":{"android":"levelo://app?vid=15cec623-25da-4e2e-8bf9-aecc2ab0641b","ios":"levelo://app?vid=15cec623-25da-4e2e-8bf9-aecc2ab0641b"},"vehicle_type_id":"4","last_reported":1750176838,"current_range_meters":8400,"station_id":"ce4bhqh2rcd13ifvqhmg","pricing_plan_id":"cebpf4jnsgd1na2vs0mg"},{"bike_id":"da3e1724-606c-4f9a-9130-d56dd48e22e0","system_id":"levelo_inurba_marseille","lat":43.32964,"lon":5.40606,"is_reserved":false,"is_disabled":false,"rental_uris":{"android":"levelo://app?vid=da3e1724-606c-4f9a-9130-d56dd48e22e0","ios":"levelo://app?vid=da3e1724-606c-4f9a-9130-d56dd48e22e0"},"vehicle_type_id":"4","last_reported":1750176838,"current_range_meters":8800,"station_id":"","pricing_plan_id":"cebpf4jnsgd1na2vs0mg"},{"bike_id":"64c6d212-acc6-47e3-9e04-fbaf04a7ed4e","system_id":"levelo_inurba_marseille","lat":43.26983,"lon":5.38763,"is_reserved":false,"is_disabled":false,"rental_uris":{"android":"levelo://app?vid=64c6d212-acc6-47e3-9e04-fbaf04a7ed4e","ios":"levelo://app?vid=64c6d212-acc6-47e3-9e04-fbaf04a7ed4e"},"vehicle_type_id":"4","last_reported":1750176838,"current_range_meters":8800,"station_id":"","pricing_plan_id":"cebpf4jnsgd1na2vs0mg"},{"bike_id":"cda9a9ac-2690-4e88-900c-c401e0dd693f","system_id":"levelo_inurba_marseille","lat":43.28629,"lon":5.35095,"is_reserved":false,"is_disabled":false,"rental_uris":{"android":"levelo://app?vid=cda9a9ac-2690-4e88-900c-c401e0dd693f","ios":"levelo://app?vid=cda9a9ac-2690-4e88-900c-c401e0dd693f"},"vehicle_type_id":"4","last_reported":1750176838,"current_range_meters":8800,"station_id":"ce4bhch2rcd13ifvqeug","pricing_plan_id":"cebpf4jnsgd1na2vs0mg"},{"bike_id":"83d752d9-fd19-44b6-bed4-4adc011a4dc2","system_id":"levelo_inurba_marseille","lat":43.2799,"lon":5.40019,"is_reserved":false,"is_disabled":false,"rental_uris":{"android":"levelo://app?vid=83d752d9-fd19-44b6-bed4-4adc011a4dc2","ios":"levelo://app?vid=83d752d9-fd19-44b6-bed4-4adc011a4dc2"},"vehicle_type_id":"4","last_reported":1750176838,"current_range_meters":8800,"station_id":"ce4bho92rcd13ifvqh4g","pricing_plan_id":"cebpf4jnsgd1na2vs0mg"},{"bike_id":"4c23cbf0-01ea-41ea-b605-7388c6436cec","system_id":"levelo_inurba_marseille","lat":43.3171,"lon":5.43702,"is_reserved":false,"is_disabled":false,"rental_uris":{"android":"levelo://app?vid=4c23cbf0-01ea-41ea-b605-7388c6436cec","ios":"levelo://app?vid=4c23cbf0-01ea-41ea-b605-7388c6436cec"},"vehicle_type_id":"4","last_reported":1750176838,"current_range_meters":8800,"station_id":"ce4bhp92rcd13ifvqhcg","pricing_plan_id":"cebpf4jnsgd1na2vs0mg"},{"bike_id":"39de7a9b-6de8-4b1b-aeaf-716ff3bee6cc","system_id":"levelo_inurba_marseille","lat":43.290044,"lon":5.356117,"is_reserved":false,"is_disabled":false,"rental_uris":{"android":"levelo://app?vid=39de7a9b-6de8-4b1b-aeaf-716ff3bee6cc","ios":"levelo://app?vid=39de7a9b-6de8-4b1b-aeaf-716ff3bee6cc"},"vehicle_type_id":"4","last_reported":1750176838,"current_range_meters":9200,"station_id":"ce4bhb92rcd13ifvqen0","pricing_plan_id":"cebpf4jnsgd1na2vs0mg"},{"bike_id":"fc3f070c-791d-43d8-b86a-954785de0640","system_id":"levelo_inurba_marseille","lat":43.24542,"lon":5.39525,"is_reserved":false,"is_disabled":false,"rental_uris":{"android":"levelo://app?vid=fc3f070c-791d-43d8-b86a-954785de0640","ios":"levelo://app?vid=fc3f070c-791d-43d8-b86a-954785de0640"},"vehicle_type_id":"4","last_reported":1750176838,"current_range_meters":9200,"station_id":"ce4bhlp2rcd13ifvqgjg","pricing_plan_id":"cebpf4jnsgd1na2vs0mg"},{"bike_id":"ec596a10-8f2a-49b8-93d8-f1d820e1fdd3","system_id":"levelo_inurba_marseille","lat":43.31751,"lon":5.39021,"is_reserved":false,"is_disabled":false,"rental_uris":{"android":"levelo://app?vid=ec596a10-8f2a-49b8-93d8-f1d820e1fdd3","ios":"levelo://app?vid=ec596a10-8f2a-49b8-93d8-f1d820e1fdd3"},"vehicle_type_id":"4","last_reported":1750176838,"current_range_meters":9200,"station_id":"ce4bhqp2rcd13ifvqhng","pricing_plan_id":"cebpf4jnsgd1na2vs0mg"},{"bike_id":"92542d35-8f2f-4dd4-b923-248e6bddb2b7","system_id":"levelo_inurba_marseille","lat":43.22922,"lon":5.35361,"is_reserved":false,"is_disabled":false,"rental_uris":{"android":"levelo://app?vid=92542d35-8f2f-4dd4-b923-248e6bddb2b7","ios":"levelo://app?vid=92542d35-8f2f-4dd4-b923-248e6bddb2b7"},"vehicle_type_id":"4","last_reported":1750176838,"current_range_meters":9200,"station_id":"cpo3532slgdg3j2ikp40","pricing_plan_id":"cebpf4jnsgd1na2vs0mg"},{"bike_id":"1e2b9b10-2c5c-4dfd-b9df-5ddd6a5dec8f","system_id":"levelo_inurba_marseille","lat":43.30824,"lon":5.38128,"is_reserved":false,"is_disabled":false,"rental_uris":{"android":"levelo://app?vid=1e2b9b10-2c5c-4dfd-b9df-5ddd6a5dec8f","ios":"levelo://app?vid=1e2b9b10-2c5c-4dfd-b9df-5ddd6a5dec8f"},"vehicle_type_id":"4","last_reported":1750176838,"current_range_meters":10000,"station_id":"ce4bgt12rcd13ifvqce0","pricing_plan_id":"cebpf4jnsgd1na2vs0mg"},{"bike_id":"79ed0e36-e1ce-4bf4-ab8b-c09d91a633b7","system_id":"levelo_inurba_marseille","lat":43.284058,"lon":5.349772,"is_reserved":false,"is_disabled":false,"rental_uris":{"android":"levelo://app?vid=79ed0e36-e1ce-4bf4-ab8b-c09d91a633b7","ios":"levelo://app?vid=79ed0e36-e1ce-4bf4-ab8b-c09d91a633b7"},"vehicle_type_id":"4","last_reported":1750176838,"current_range_meters":10000,"station_id":"ce4bhbh2rcd13ifvqepg","pricing_plan_id":"cebpf4jnsgd1na2vs0mg"},{"bike_id":"a28bb977-31d9-4b43-aa76-b908bb36b932","system_id":"levelo_inurba_marseille","lat":43.28266,"lon":5.35074,"is_reserved":false,"is_disabled":false,"rental_uris":{"android":"levelo://app?vid=a28bb977-31d9-4b43-aa76-b908bb36b932","ios":"levelo://app?vid=a28bb977-31d9-4b43-aa76-b908bb36b932"},"vehicle_type_id":"4","last_reported":1750176838,"current_range_meters":10000,"station_id":"ce4bhbp2rcd13ifvqerg","pricing_plan_id":"cebpf4jnsgd1na2vs0mg"},{"bike_id":"3b136301-d892-4bf1-aa15-695ec30464ca","system_id":"levelo_inurba_marseille","lat":43.320872,"lon":5.367669,"is_reserved":false,"is_disabled":false,"rental_uris":{"android":"levelo://app?vid=3b136301-d892-4bf1-aa15-695ec30464ca","ios":"levelo://app?vid=3b136301-d892-4bf1-aa15-695ec30464ca"},"vehicle_type_id":"4","last_reported":1750176838,"current_range_meters":10000,"station_id":"ce4bhrh2rcd13ifvqhug","pricing_plan_id":"cebpf4jnsgd1na2vs0mg"},{"bike_id":"80bbd574-fcfc-4433-8199-cf3c1309eaaf","system_id":"levelo_inurba_marseille","lat":43.3073,"lon":5.42443,"is_reserved":false,"is_disabled":false,"rental_uris":{"android":"levelo://app?vid=80bbd574-fcfc-4433-8199-cf3c1309eaaf","ios":"levelo://app?vid=80bbd574-fcfc-4433-8199-cf3c1309eaaf"},"vehicle_type_id":"4","last_reported":1750176838,"current_range_meters":10000,"station_id":"st_cvj6ca6bvosntc0bfgr0","pricing_plan_id":"cebpf4jnsgd1na2vs0mg"},{"bike_id":"25960fd9-8509-4555-9b23-fa4fae1e21d0","system_id":"levelo_inurba_marseille","lat":43.290089,"lon":5.382046,"is_reserved":false,"is_disabled":false,"rental_uris":{"android":"levelo://app?vid=25960fd9-8509-4555-9b23-fa4fae1e21d0","ios":"levelo://app?vid=25960fd9-8509-4555-9b23-fa4fae1e21d0"},"vehicle_type_id":"4","last_reported":1750176838,"current_range_meters":10800,"station_id":"","pricing_plan_id":"cebpf4jnsgd1na2vs0mg"},{"bike_id":"37c0df59-74f1-4857-b3ac-ff6f17e282cb","system_id":"levelo_inurba_marseille","lat":43.33109,"lon":5.38519,"is_reserved":false,"is_disabled":false,"rental_uris":{"android":"levelo://app?vid=37c0df59-74f1-4857-b3ac-ff6f17e282cb","ios":"levelo://app?vid=37c0df59-74f1-4857-b3ac-ff6f17e282cb"},"vehicle_type_id":"4","last_reported":1750176838,"current_range_meters":10800,"station_id":"","pricing_plan_id":"cebpf4jnsgd1na2vs0mg"},{"bike_id":"a0cea0da-6f1d-46fd-a8f1-53bc23aab1e8","system_id":"levelo_inurba_marseille","lat":43.28937,"lon":5.36635,"is_reserved":false,"is_disabled":false,"rental_uris":{"android":"levelo://app?vid=a0cea0da-6f1d-46fd-a8f1-53bc23aab1e8","ios":"levelo://app?vid=a0cea0da-6f1d-46fd-a8f1-53bc23aab1e8"},"vehicle_type_id":"4","last_reported":1750176838,"current_range_meters":10800,"station_id":"ce4bhap2rcd13ifvqek0","pricing_plan_id":"cebpf4jnsgd1na2vs0mg"},{"bike_id":"b65d96e2-9864-4dcd-835c-adf51f6d930b","system_id":"levelo_inurba_marseille","lat":43.28406,"lon":5.34971,"is_reserved":false,"is_disabled":false,"rental_uris":{"android":"levelo://app?vid=b65d96e2-9864-4dcd-835c-adf51f6d930b","ios":"levelo://app?vid=b65d96e2-9864-4dcd-835c-adf51f6d930b"},"vehicle_type_id":"4","last_reported":1750176838,"current_range_meters":11200,"station_id":"","pricing_plan_id":"cebpf4jnsgd1na2vs0mg"},{"bike_id":"1cb2f14f-d827-4b06-b4c3-443fd53c9688","system_id":"levelo_inurba_marseille","lat":43.27919,"lon":5.3958,"is_reserved":false,"is_disabled":false,"rental_uris":{"android":"levelo://app?vid=1cb2f14f-d827-4b06-b4c3-443fd53c9688","ios":"levelo://app?vid=1cb2f14f-d827-4b06-b4c3-443fd53c9688"},"vehicle_type_id":"4","last_reported":1750176838,"current_range_meters":11200,"station_id":"ce4bhf92rcd13ifvqf40","pricing_plan_id":"cebpf4jnsgd1na2vs0mg"},{"bike_id":"c7a06562-cd0a-4ce3-9c99-6876f6925b3f","system_id":"levelo_inurba_marseille","lat":43.24077,"lon":5.3774,"is_reserved":false,"is_disabled":false,"rental_uris":{"android":"levelo://app?vid=c7a06562-cd0a-4ce3-9c99-6876f6925b3f","ios":"levelo://app?vid=c7a06562-cd0a-4ce3-9c99-6876f6925b3f"},"vehicle_type_id":"4","last_reported":1750176838,"current_range_meters":11200,"station_id":"ce4bhnp2rcd13ifvqgvg","pricing_plan_id":"cebpf4jnsgd1na2vs0mg"},{"bike_id":"1e373418-986e-4d3c-9ff7-c37dd7c7a214","system_id":"levelo_inurba_marseille","lat":43.299011,"lon":5.436639,"is_reserved":false,"is_disabled":false,"rental_uris":{"android":"levelo://app?vid=1e373418-986e-4d3c-9ff7-c37dd7c7a214","ios":"levelo://app?vid=1e373418-986e-4d3c-9ff7-c37dd7c7a214"},"vehicle_type_id":"4","last_reported":1750176838,"current_range_meters":11200,"station_id":"ce4bhpp2rcd13ifvqhfg","pricing_plan_id":"cebpf4jnsgd1na2vs0mg"},{"bike_id":"05771a58-250e-4b5e-9c87-8120ced3309d","system_id":"levelo_inurba_marseille","lat":43.30604,"lon":5.372023,"is_reserved":false,"is_disabled":false,"rental_uris":{"android":"levelo://app?vid=05771a58-250e-4b5e-9c87-8120ced3309d","ios":"levelo://app?vid=05771a58-250e-4b5e-9c87-8120ced3309d"},"vehicle_type_id":"4","last_reported":1750176838,"current_range_meters":11600,"station_id":"ce4bgqh2rcd13ifvqc4g","pricing_plan_id":"cebpf4jnsgd1na2vs0mg"},{"bike_id":"d47ff99f-5341-4bc7-b0c3-bf60bdc9382e","system_id":"levelo_inurba_marseille","lat":43.26555,"lon":5.37284,"is_reserved":false,"is_disabled":false,"rental_uris":{"android":"levelo://app?vid=d47ff99f-5341-4bc7-b0c3-bf60bdc9382e","ios":"levelo://app?vid=d47ff99f-5341-4bc7-b0c3-bf60bdc9382e"},"vehicle_type_id":"4","last_reported":1750176838,"current_range_meters":11600,"station_id":"ce4bhg12rcd13ifvqf70","pricing_plan_id":"cebpf4jnsgd1na2vs0mg"},{"bike_id":"1663ddb1-2747-4dae-ab6f-680c5fc92f25","system_id":"levelo_inurba_marseille","lat":43.29554,"lon":5.42281,"is_reserved":false,"is_disabled":false,"rental_uris":{"android":"levelo://app?vid=1663ddb1-2747-4dae-ab6f-680c5fc92f25","ios":"levelo://app?vid=1663ddb1-2747-4dae-ab6f-680c5fc92f25"},"vehicle_type_id":"4","last_reported":1750176838,"current_range_meters":11600,"station_id":"ce4bhph2rcd13ifvqhdg","pricing_plan_id":"cebpf4jnsgd1na2vs0mg"},{"bike_id":"6c2f7b30-5ca6-4bae-851f-63c297a86db1","system_id":"levelo_inurba_marseille","lat":43.23193,"lon":5.35552,"is_reserved":false,"is_disabled":false,"rental_uris":{"android":"levelo://app?vid=6c2f7b30-5ca6-4bae-851f-63c297a86db1","ios":"levelo://app?vid=6c2f7b30-5ca6-4bae-851f-63c297a86db1"},"vehicle_type_id":"4","last_reported":1750176838,"current_range_meters":11600,"station_id":"ce4bhu92rcd13ifvqi70","pricing_plan_id":"cebpf4jnsgd1na2vs0mg"},{"bike_id":"0e27dafc-21df-4fb1-bd36-2450a7866702","system_id":"levelo_inurba_marseille","lat":43.27089,"lon":5.40019,"is_reserved":false,"is_disabled":false,"rental_uris":{"android":"levelo://app?vid=0e27dafc-21df-4fb1-bd36-2450a7866702","ios":"levelo://app?vid=0e27dafc-21df-4fb1-bd36-2450a7866702"},"vehicle_type_id":"4","last_reported":1750176838,"current_range_meters":12000,"station_id":"","pricing_plan_id":"cebpf4jnsgd1na2vs0mg"},{"bike_id":"aff9e7a3-3782-4f02-98fa-8c2d8fb1deca","system_id":"levelo_inurba_marseille","lat":43.24806,"lon":5.37458,"is_reserved":false,"is_disabled":false,"rental_uris":{"android":"levelo://app?vid=aff9e7a3-3782-4f02-98fa-8c2d8fb1deca","ios":"levelo://app?vid=aff9e7a3-3782-4f02-98fa-8c2d8fb1deca"},"vehicle_type_id":"4","last_reported":1750176838,"current_range_meters":12000,"station_id":"ce4bhgh2rcd13ifvqfb0","pricing_plan_id":"cebpf4jnsgd1na2vs0mg"},{"bike_id":"c4d663c2-9a09-4bb2-aeb0-8f7ef78fce2e","system_id":"levelo_inurba_marseille","lat":43.33613,"lon":5.41036,"is_reserved":false,"is_disabled":false,"rental_uris":{"android":"levelo://app?vid=c4d663c2-9a09-4bb2-aeb0-8f7ef78fce2e","ios":"levelo://app?vid=c4d663c2-9a09-4bb2-aeb0-8f7ef78fce2e"},"vehicle_type_id":"4","last_reported":1750176838,"current_range_meters":12000,"station_id":"ce4bhqh2rcd13ifvqhmg","pricing_plan_id":"cebpf4jnsgd1na2vs0mg"},{"bike_id":"f88fd6c2-93d6-4a0c-9c1e-7dc24c7de53f","system_id":"levelo_inurba_marseille","lat":43.28866,"lon":5.35854,"is_reserved":false,"is_disabled":false,"rental_uris":{"android":"levelo://app?vid=f88fd6c2-93d6-4a0c-9c1e-7dc24c7de53f","ios":"levelo://app?vid=f88fd6c2-93d6-4a0c-9c1e-7dc24c7de53f"},"vehicle_type_id":"4","last_reported":1750176838,"current_range_meters":12400,"station_id":"ce4bhb12rcd13ifvqem0","pricing_plan_id":"cebpf4jnsgd1na2vs0mg"},{"bike_id":"5706ac92-2228-4d4e-9522-2077f238896e","system_id":"levelo_inurba_marseille","lat":43.27806,"lon":5.40708,"is_reserved":false,"is_disabled":false,"rental_uris":{"android":"levelo://app?vid=5706ac92-2228-4d4e-9522-2077f238896e","ios":"levelo://app?vid=5706ac92-2228-4d4e-9522-2077f238896e"},"vehicle_type_id":"4","last_reported":1750176838,"current_range_meters":12400,"station_id":"ce4bhnh2rcd13ifvqgtg","pricing_plan_id":"cebpf4jnsgd1na2vs0mg"},{"bike_id":"eca25bd6-1b44-4388-a7b0-074a85a4f502","system_id":"levelo_inurba_marseille","lat":43.31109,"lon":5.39734,"is_reserved":false,"is_disabled":false,"rental_uris":{"android":"levelo://app?vid=eca25bd6-1b44-4388-a7b0-074a85a4f502","ios":"levelo://app?vid=eca25bd6-1b44-4388-a7b0-074a85a4f502"},"vehicle_type_id":"4","last_reported":1750176838,"current_range_meters":12800,"station_id":"","pricing_plan_id":"cebpf4jnsgd1na2vs0mg"},{"bike_id":"c4443a01-b800-43c2-9a0f-2a49ac0f48ea","system_id":"levelo_inurba_marseille","lat":43.29044,"lon":5.39972,"is_reserved":false,"is_disabled":false,"rental_uris":{"android":"levelo://app?vid=c4443a01-b800-43c2-9a0f-2a49ac0f48ea","ios":"levelo://app?vid=c4443a01-b800-43c2-9a0f-2a49ac0f48ea"},"vehicle_type_id":"4","last_reported":1750176838,"current_range_meters":12800,"station_id":"ce4bh392rcd13ifvqdm0","pricing_plan_id":"cebpf4jnsgd1na2vs0mg"},{"bike_id":"fd6e516b-14ee-4341-b605-f5f0e5dd75c7","system_id":"levelo_inurba_marseille","lat":43.29258,"lon":5.38441,"is_reserved":false,"is_disabled":false,"rental_uris":{"android":"levelo://app?vid=fd6e516b-14ee-4341-b605-f5f0e5dd75c7","ios":"levelo://app?vid=fd6e516b-14ee-4341-b605-f5f0e5dd75c7"},"vehicle_type_id":"4","last_reported":1750176838,"current_range_meters":12800,"station_id":"ce4bh692rcd13ifvqea0","pricing_plan_id":"cebpf4jnsgd1na2vs0mg"},{"bike_id":"cef0c399-5fa5-4965-a38e-894e987e8614","system_id":"levelo_inurba_marseille","lat":43.28411,"lon":5.34994,"is_reserved":false,"is_disabled":false,"rental_uris":{"android":"levelo://app?vid=cef0c399-5fa5-4965-a38e-894e987e8614","ios":"levelo://app?vid=cef0c399-5fa5-4965-a38e-894e987e8614"},"vehicle_type_id":"4","last_reported":1750176838,"current_range_meters":12800,"station_id":"ce4bhbh2rcd13ifvqepg","pricing_plan_id":"cebpf4jnsgd1na2vs0mg"},{"bike_id":"cdb41bb3-a100-440e-924c-115b6d6e3e5d","system_id":"levelo_inurba_marseille","lat":43.25112,"lon":5.40318,"is_reserved":false,"is_disabled":false,"rental_uris":{"android":"levelo://app?vid=cdb41bb3-a100-440e-924c-115b6d6e3e5d","ios":"levelo://app?vid=cdb41bb3-a100-440e-924c-115b6d6e3e5d"},"vehicle_type_id":"4","last_reported":1750176838,"current_range_meters":12800,"station_id":"ce4bhlh2rcd13ifvqgig","pricing_plan_id":"cebpf4jnsgd1na2vs0mg"},{"bike_id":"94556628-72cd-4618-b5b6-25b5cfa4141b","system_id":"levelo_inurba_marseille","lat":43.21189,"lon":5.35075,"is_reserved":false,"is_disabled":false,"rental_uris":{"android":"levelo://app?vid=94556628-72cd-4618-b5b6-25b5cfa4141b","ios":"levelo://app?vid=94556628-72cd-4618-b5b6-25b5cfa4141b"},"vehicle_type_id":"4","last_reported":1750176838,"current_range_meters":12800,"station_id":"st_cvj6sg6p6f1abm77japg","pricing_plan_id":"cebpf4jnsgd1na2vs0mg"},{"bike_id":"83cfee7d-980d-496a-98c8-745c7e44c68d","system_id":"levelo_inurba_marseille","lat":43.32891,"lon":5.39081,"is_reserved":false,"is_disabled":false,"rental_uris":{"android":"levelo://app?vid=83cfee7d-980d-496a-98c8-745c7e44c68d","ios":"levelo://app?vid=83cfee7d-980d-496a-98c8-745c7e44c68d"},"vehicle_type_id":"4","last_reported":1750176838,"current_range_meters":13600,"station_id":"","pricing_plan_id":"cebpf4jnsgd1na2vs0mg"},{"bike_id":"7ba7aa57-0fcd-46bb-8050-d55e3b1b935e","system_id":"levelo_inurba_marseille","lat":43.30789,"lon":5.38164,"is_reserved":false,"is_disabled":false,"rental_uris":{"android":"levelo://app?vid=7ba7aa57-0fcd-46bb-8050-d55e3b1b935e","ios":"levelo://app?vid=7ba7aa57-0fcd-46bb-8050-d55e3b1b935e"},"vehicle_type_id":"4","last_reported":1750176838,"current_range_meters":13600,"station_id":"ce4bgt12rcd13ifvqce0","pricing_plan_id":"cebpf4jnsgd1na2vs0mg"},{"bike_id":"cb3458a4-c620-493e-ad5a-d3372eaeed90","system_id":"levelo_inurba_marseille","lat":43.26061,"lon":5.39401,"is_reserved":false,"is_disabled":false,"rental_uris":{"android":"levelo://app?vid=cb3458a4-c620-493e-ad5a-d3372eaeed90","ios":"levelo://app?vid=cb3458a4-c620-493e-ad5a-d3372eaeed90"},"vehicle_type_id":"4","last_reported":1750176838,"current_range_meters":13600,"station_id":"ce4bhh92rcd13ifvqfj0","pricing_plan_id":"cebpf4jnsgd1na2vs0mg"},{"bike_id":"67ff43c2-d6f2-4c0e-9f84-c82bdf1fd4aa","system_id":"levelo_inurba_marseille","lat":43.2894,"lon":5.36634,"is_reserved":false,"is_disabled":false,"rental_uris":{"android":"levelo://app?vid=67ff43c2-d6f2-4c0e-9f84-c82bdf1fd4aa","ios":"levelo://app?vid=67ff43c2-d6f2-4c0e-9f84-c82bdf1fd4aa"},"vehicle_type_id":"4","last_reported":1750176838,"current_range_meters":14000,"station_id":"ce4bhap2rcd13ifvqek0","pricing_plan_id":"cebpf4jnsgd1na2vs0mg"},{"bike_id":"844bf093-9995-43f5-aeda-03074f1b80eb","system_id":"levelo_inurba_marseille","lat":43.2918,"lon":5.35812,"is_reserved":false,"is_disabled":false,"rental_uris":{"android":"levelo://app?vid=844bf093-9995-43f5-aeda-03074f1b80eb","ios":"levelo://app?vid=844bf093-9995-43f5-aeda-03074f1b80eb"},"vehicle_type_id":"4","last_reported":1750176838,"current_range_meters":14000,"station_id":"ce4bhb12rcd13ifvqel0","pricing_plan_id":"cebpf4jnsgd1na2vs0mg"},{"bike_id":"a146915a-a458-4036-b316-390fdfffc9ef","system_id":"levelo_inurba_marseille","lat":43.284725,"lon":5.384152,"is_reserved":false,"is_disabled":false,"rental_uris":{"android":"levelo://app?vid=a146915a-a458-4036-b316-390fdfffc9ef","ios":"levelo://app?vid=a146915a-a458-4036-b316-390fdfffc9ef"},"vehicle_type_id":"4","last_reported":1750176838,"current_range_meters":14400,"station_id":"ce4bh512rcd13ifvqe3g","pricing_plan_id":"cebpf4jnsgd1na2vs0mg"},{"bike_id":"f81f38fc-d462-4896-b8c4-955f9aec6351","system_id":"levelo_inurba_marseille","lat":43.24804,"lon":5.37456,"is_reserved":false,"is_disabled":false,"rental_uris":{"android":"levelo://app?vid=f81f38fc-d462-4896-b8c4-955f9aec6351","ios":"levelo://app?vid=f81f38fc-d462-4896-b8c4-955f9aec6351"},"vehicle_type_id":"4","last_reported":1750176838,"current_range_meters":14400,"station_id":"ce4bhgh2rcd13ifvqfb0","pricing_plan_id":"cebpf4jnsgd1na2vs0mg"},{"bike_id":"2090556a-ebe6-4fcd-b60b-df67d7c8e4f7","system_id":"levelo_inurba_marseille","lat":43.29933,"lon":5.43645,"is_reserved":false,"is_disabled":false,"rental_uris":{"android":"levelo://app?vid=2090556a-ebe6-4fcd-b60b-df67d7c8e4f7","ios":"levelo://app?vid=2090556a-ebe6-4fcd-b60b-df67d7c8e4f7"},"vehicle_type_id":"4","last_reported":1750176838,"current_range_meters":14400,"station_id":"ce4bhpp2rcd13ifvqhfg","pricing_plan_id":"cebpf4jnsgd1na2vs0mg"},{"bike_id":"952cccd3-dc05-4deb-b6b1-1ab020910064","system_id":"levelo_inurba_marseille","lat":43.29192,"lon":5.35783,"is_reserved":false,"is_disabled":false,"rental_uris":{"android":"levelo://app?vid=952cccd3-dc05-4deb-b6b1-1ab020910064","ios":"levelo://app?vid=952cccd3-dc05-4deb-b6b1-1ab020910064"},"vehicle_type_id":"4","last_reported":1750176838,"current_range_meters":14800,"station_id":"ce4bhb12rcd13ifvqel0","pricing_plan_id":"cebpf4jnsgd1na2vs0mg"},{"bike_id":"c9c38940-371a-4024-a6fd-9e614a9b4202","system_id":"levelo_inurba_marseille","lat":43.28862,"lon":5.35836,"is_reserved":false,"is_disabled":false,"rental_uris":{"android":"levelo://app?vid=c9c38940-371a-4024-a6fd-9e614a9b4202","ios":"levelo://app?vid=c9c38940-371a-4024-a6fd-9e614a9b4202"},"vehicle_type_id":"4","last_reported":1750176838,"current_range_meters":14800,"station_id":"ce4bhb12rcd13ifvqem0","pricing_plan_id":"cebpf4jnsgd1na2vs0mg"},{"bike_id":"314f4011-9412-460c-a918-2766965043b2","system_id":"levelo_inurba_marseille","lat":43.29003,"lon":5.35603,"is_reserved":false,"is_disabled":false,"rental_uris":{"android":"levelo://app?vid=314f4011-9412-460c-a918-2766965043b2","ios":"levelo://app?vid=314f4011-9412-460c-a918-2766965043b2"},"vehicle_type_id":"4","last_reported":1750176838,"current_range_meters":14800,"station_id":"ce4bhb92rcd13ifvqen0","pricing_plan_id":"cebpf4jnsgd1na2vs0mg"},{"bike_id":"c8dac77e-1323-47f7-8879-aff3eebb3ba2","system_id":"levelo_inurba_marseille","lat":43.2756,"lon":5.38424,"is_reserved":false,"is_disabled":false,"rental_uris":{"android":"levelo://app?vid=c8dac77e-1323-47f7-8879-aff3eebb3ba2","ios":"levelo://app?vid=c8dac77e-1323-47f7-8879-aff3eebb3ba2"},"vehicle_type_id":"4","last_reported":1750176838,"current_range_meters":14800,"station_id":"ce4bhh92rcd13ifvqfi0","pricing_plan_id":"cebpf4jnsgd1na2vs0mg"},{"bike_id":"8294296b-2596-40bf-ac83-56912bf5277b","system_id":"levelo_inurba_marseille","lat":43.24076,"lon":5.37757,"is_reserved":false,"is_disabled":false,"rental_uris":{"android":"levelo://app?vid=8294296b-2596-40bf-ac83-56912bf5277b","ios":"levelo://app?vid=8294296b-2596-40bf-ac83-56912bf5277b"},"vehicle_type_id":"4","last_reported":1750176838,"current_range_meters":14800,"station_id":"ce4bhnp2rcd13ifvqgvg","pricing_plan_id":"cebpf4jnsgd1na2vs0mg"},{"bike_id":"ae8524c6-7b10-43ef-8ed4-b8035f1213c1","system_id":"levelo_inurba_marseille","lat":43.3304,"lon":5.39221,"is_reserved":false,"is_disabled":false,"rental_uris":{"android":"levelo://app?vid=ae8524c6-7b10-43ef-8ed4-b8035f1213c1","ios":"levelo://app?vid=ae8524c6-7b10-43ef-8ed4-b8035f1213c1"},"vehicle_type_id":"4","last_reported":1750176838,"current_range_meters":15200,"station_id":"","pricing_plan_id":"cebpf4jnsgd1na2vs0mg"},{"bike_id":"d585f3c1-07ec-464f-8529-635f25e4b0f4","system_id":"levelo_inurba_marseille","lat":43.27373,"lon":5.36264,"is_reserved":false,"is_disabled":false,"rental_uris":{"android":"levelo://app?vid=d585f3c1-07ec-464f-8529-635f25e4b0f4","ios":"levelo://app?vid=d585f3c1-07ec-464f-8529-635f25e4b0f4"},"vehicle_type_id":"4","last_reported":1750176838,"current_range_meters":16000,"station_id":"ce4bhbh2rcd13ifvqeo0","pricing_plan_id":"cebpf4jnsgd1na2vs0mg"},{"bike_id":"1dca189b-e58d-407e-91a0-5d0b482c7bd9","system_id":"levelo_inurba_marseille","lat":43.28289,"lon":5.35081,"is_reserved":false,"is_disabled":false,"rental_uris":{"android":"levelo://app?vid=1dca189b-e58d-407e-91a0-5d0b482c7bd9","ios":"levelo://app?vid=1dca189b-e58d-407e-91a0-5d0b482c7bd9"},"vehicle_type_id":"4","last_reported":1750176838,"current_range_meters":16000,"station_id":"ce4bhbp2rcd13ifvqerg","pricing_plan_id":"cebpf4jnsgd1na2vs0mg"},{"bike_id":"424cbdd0-fa80-4bd3-ab59-43b225883da9","system_id":"levelo_inurba_marseille","lat":43.217403,"lon":5.34587,"is_reserved":false,"is_disabled":false,"rental_uris":{"android":"levelo://app?vid=424cbdd0-fa80-4bd3-ab59-43b225883da9","ios":"levelo://app?vid=424cbdd0-fa80-4bd3-ab59-43b225883da9"},"vehicle_type_id":"4","last_reported":1750176838,"current_range_meters":16000,"station_id":"st_cvj6r9ubvosntc0bgbag","pricing_plan_id":"cebpf4jnsgd1na2vs0mg"},{"bike_id":"3518210a-6d90-482f-a11b-11cb7c94acd1","system_id":"levelo_inurba_marseille","lat":43.26482,"lon":5.3924,"is_reserved":false,"is_disabled":false,"rental_uris":{"android":"levelo://app?vid=3518210a-6d90-482f-a11b-11cb7c94acd1","ios":"levelo://app?vid=3518210a-6d90-482f-a11b-11cb7c94acd1"},"vehicle_type_id":"4","last_reported":1750176838,"current_range_meters":16400,"station_id":"","pricing_plan_id":"cebpf4jnsgd1na2vs0mg"},{"bike_id":"de0f7c2b-5974-4035-a240-8ed367c0e3f3","system_id":"levelo_inurba_marseille","lat":43.31975,"lon":5.3761,"is_reserved":false,"is_disabled":false,"rental_uris":{"android":"levelo://app?vid=de0f7c2b-5974-4035-a240-8ed367c0e3f3","ios":"levelo://app?vid=de0f7c2b-5974-4035-a240-8ed367c0e3f3"},"vehicle_type_id":"4","last_reported":1750176838,"current_range_meters":16400,"station_id":"","pricing_plan_id":"cebpf4jnsgd1na2vs0mg"},{"bike_id":"30330710-fc18-4d95-a334-864af93924d4","system_id":"levelo_inurba_marseille","lat":43.29364,"lon":5.38349,"is_reserved":false,"is_disabled":false,"rental_uris":{"android":"levelo://app?vid=30330710-fc18-4d95-a334-864af93924d4","ios":"levelo://app?vid=30330710-fc18-4d95-a334-864af93924d4"},"vehicle_type_id":"4","last_reported":1750176838,"current_range_meters":16400,"station_id":"ce4bh092rcd13ifvqd20","pricing_plan_id":"cebpf4jnsgd1na2vs0mg"},{"bike_id":"fd46a9d6-234b-4e6a-94a5-46c78e5d9664","system_id":"levelo_inurba_marseille","lat":43.2926,"lon":5.38436,"is_reserved":false,"is_disabled":false,"rental_uris":{"android":"levelo://app?vid=fd46a9d6-234b-4e6a-94a5-46c78e5d9664","ios":"levelo://app?vid=fd46a9d6-234b-4e6a-94a5-46c78e5d9664"},"vehicle_type_id":"4","last_reported":1750176838,"current_range_meters":16400,"station_id":"ce4bh692rcd13ifvqea0","pricing_plan_id":"cebpf4jnsgd1na2vs0mg"},{"bike_id":"03d2ce32-ad3d-4a00-864b-76360c865ef6","system_id":"levelo_inurba_marseille","lat":43.290481,"lon":5.359252,"is_reserved":false,"is_disabled":false,"rental_uris":{"android":"levelo://app?vid=03d2ce32-ad3d-4a00-864b-76360c865ef6","ios":"levelo://app?vid=03d2ce32-ad3d-4a00-864b-76360c865ef6"},"vehicle_type_id":"4","last_reported":1750176838,"current_range_meters":16400,"station_id":"ce4bha92rcd13ifvqeg0","pricing_plan_id":"cebpf4jnsgd1na2vs0mg"},{"bike_id":"3e3e010e-8154-487f-b267-ec6ac92b9a0b","system_id":"levelo_inurba_marseille","lat":43.28417,"lon":5.34995,"is_reserved":false,"is_disabled":false,"rental_uris":{"android":"levelo://app?vid=3e3e010e-8154-487f-b267-ec6ac92b9a0b","ios":"levelo://app?vid=3e3e010e-8154-487f-b267-ec6ac92b9a0b"},"vehicle_type_id":"4","last_reported":1750176838,"current_range_meters":16400,"station_id":"ce4bhbh2rcd13ifvqepg","pricing_plan_id":"cebpf4jnsgd1na2vs0mg"},{"bike_id":"93dcba2d-d386-44f6-ad85-b9e6cf410e58","system_id":"levelo_inurba_marseille","lat":43.28414,"lon":5.34982,"is_reserved":false,"is_disabled":false,"rental_uris":{"android":"levelo://app?vid=93dcba2d-d386-44f6-ad85-b9e6cf410e58","ios":"levelo://app?vid=93dcba2d-d386-44f6-ad85-b9e6cf410e58"},"vehicle_type_id":"4","last_reported":1750176838,"current_range_meters":16400,"station_id":"ce4bhbh2rcd13ifvqepg","pricing_plan_id":"cebpf4jnsgd1na2vs0mg"},{"bike_id":"6189b32f-2684-4eba-998f-2e0e8fd41c98","system_id":"levelo_inurba_marseille","lat":43.29197,"lon":5.36076,"is_reserved":false,"is_disabled":false,"rental_uris":{"android":"levelo://app?vid=6189b32f-2684-4eba-998f-2e0e8fd41c98","ios":"levelo://app?vid=6189b32f-2684-4eba-998f-2e0e8fd41c98"},"vehicle_type_id":"4","last_reported":1750176838,"current_range_meters":16400,"station_id":"ce4bhbh2rcd13ifvqeqg","pricing_plan_id":"cebpf4jnsgd1na2vs0mg"},{"bike_id":"f6f31aa3-e91d-4bf1-9fdd-d2b77a513e1c","system_id":"levelo_inurba_marseille","lat":43.2403,"lon":5.37776,"is_reserved":false,"is_disabled":false,"rental_uris":{"android":"levelo://app?vid=f6f31aa3-e91d-4bf1-9fdd-d2b77a513e1c","ios":"levelo://app?vid=f6f31aa3-e91d-4bf1-9fdd-d2b77a513e1c"},"vehicle_type_id":"4","last_reported":1750176838,"current_range_meters":16400,"station_id":"ce4bhnp2rcd13ifvqgvg","pricing_plan_id":"cebpf4jnsgd1na2vs0mg"},{"bike_id":"529fe5fc-7d28-4973-a302-7f1d2d7fa0ad","system_id":"levelo_inurba_marseille","lat":43.22949,"lon":5.35372,"is_reserved":false,"is_disabled":false,"rental_uris":{"android":"levelo://app?vid=529fe5fc-7d28-4973-a302-7f1d2d7fa0ad","ios":"levelo://app?vid=529fe5fc-7d28-4973-a302-7f1d2d7fa0ad"},"vehicle_type_id":"4","last_reported":1750176838,"current_range_meters":16400,"station_id":"cpo3532slgdg3j2ikp40","pricing_plan_id":"cebpf4jnsgd1na2vs0mg"},{"bike_id":"2f0f7865-53e4-4955-8eb9-1bb98bf95595","system_id":"levelo_inurba_marseille","lat":43.31761,"lon":5.37591,"is_reserved":false,"is_disabled":false,"rental_uris":{"android":"levelo://app?vid=2f0f7865-53e4-4955-8eb9-1bb98bf95595","ios":"levelo://app?vid=2f0f7865-53e4-4955-8eb9-1bb98bf95595"},"vehicle_type_id":"4","last_reported":1750176838,"current_range_meters":16800,"station_id":"","pricing_plan_id":"cebpf4jnsgd1na2vs0mg"},{"bike_id":"fdbef3ae-5ffa-4cba-8614-4c40e8905b44","system_id":"levelo_inurba_marseille","lat":43.283142,"lon":5.350289,"is_reserved":false,"is_disabled":false,"rental_uris":{"android":"levelo://app?vid=fdbef3ae-5ffa-4cba-8614-4c40e8905b44","ios":"levelo://app?vid=fdbef3ae-5ffa-4cba-8614-4c40e8905b44"},"vehicle_type_id":"4","last_reported":1750176838,"current_range_meters":16800,"station_id":"ce4bhbp2rcd13ifvqerg","pricing_plan_id":"cebpf4jnsgd1na2vs0mg"},{"bike_id":"448ba436-6ff2-4bb3-979c-e95e14c74387","system_id":"levelo_inurba_marseille","lat":43.28258,"lon":5.35078,"is_reserved":false,"is_disabled":false,"rental_uris":{"android":"levelo://app?vid=448ba436-6ff2-4bb3-979c-e95e14c74387","ios":"levelo://app?vid=448ba436-6ff2-4bb3-979c-e95e14c74387"},"vehicle_type_id":"4","last_reported":1750176838,"current_range_meters":16800,"station_id":"ce4bhbp2rcd13ifvqerg","pricing_plan_id":"cebpf4jnsgd1na2vs0mg"},{"bike_id":"ddf07c9f-246d-4729-9fd5-9f8cd4e5c0bf","system_id":"levelo_inurba_marseille","lat":43.26552,"lon":5.37289,"is_reserved":false,"is_disabled":false,"rental_uris":{"android":"levelo://app?vid=ddf07c9f-246d-4729-9fd5-9f8cd4e5c0bf","ios":"levelo://app?vid=ddf07c9f-246d-4729-9fd5-9f8cd4e5c0bf"},"vehicle_type_id":"4","last_reported":1750176838,"current_range_meters":16800,"station_id":"ce4bhg12rcd13ifvqf70","pricing_plan_id":"cebpf4jnsgd1na2vs0mg"},{"bike_id":"62df3476-5340-4d9e-9c26-42aadb44597b","system_id":"levelo_inurba_marseille","lat":43.28697,"lon":5.38338,"is_reserved":false,"is_disabled":false,"rental_uris":{"android":"levelo://app?vid=62df3476-5340-4d9e-9c26-42aadb44597b","ios":"levelo://app?vid=62df3476-5340-4d9e-9c26-42aadb44597b"},"vehicle_type_id":"4","last_reported":1750176838,"current_range_meters":17200,"station_id":"","pricing_plan_id":"cebpf4jnsgd1na2vs0mg"},{"bike_id":"de0bda34-41a6-4231-8ed4-c93e07fc3176","system_id":"levelo_inurba_marseille","lat":43.32639,"lon":5.37523,"is_reserved":false,"is_disabled":false,"rental_uris":{"android":"levelo://app?vid=de0bda34-41a6-4231-8ed4-c93e07fc3176","ios":"levelo://app?vid=de0bda34-41a6-4231-8ed4-c93e07fc3176"},"vehicle_type_id":"4","last_reported":1750176838,"current_range_meters":17200,"station_id":"","pricing_plan_id":"cebpf4jnsgd1na2vs0mg"},{"bike_id":"7ec7867d-b9c0-4268-a5b4-125d2ba7b754","system_id":"levelo_inurba_marseille","lat":43.28859,"lon":5.35884,"is_reserved":false,"is_disabled":false,"rental_uris":{"android":"levelo://app?vid=7ec7867d-b9c0-4268-a5b4-125d2ba7b754","ios":"levelo://app?vid=7ec7867d-b9c0-4268-a5b4-125d2ba7b754"},"vehicle_type_id":"4","last_reported":1750176838,"current_range_meters":17200,"station_id":"ce4bhb12rcd13ifvqem0","pricing_plan_id":"cebpf4jnsgd1na2vs0mg"},{"bike_id":"b30516ab-1ed4-467b-9700-ada15a939813","system_id":"levelo_inurba_marseille","lat":43.231963,"lon":5.355583,"is_reserved":false,"is_disabled":false,"rental_uris":{"android":"levelo://app?vid=b30516ab-1ed4-467b-9700-ada15a939813","ios":"levelo://app?vid=b30516ab-1ed4-467b-9700-ada15a939813"},"vehicle_type_id":"4","last_reported":1750176838,"current_range_meters":17200,"station_id":"ce4bhu92rcd13ifvqi70","pricing_plan_id":"cebpf4jnsgd1na2vs0mg"},{"bike_id":"4b8da722-ee9e-48a4-a5e5-3a8a10364708","system_id":"levelo_inurba_marseille","lat":43.312248,"lon":5.378064,"is_reserved":false,"is_disabled":false,"rental_uris":{"android":"levelo://app?vid=4b8da722-ee9e-48a4-a5e5-3a8a10364708","ios":"levelo://app?vid=4b8da722-ee9e-48a4-a5e5-3a8a10364708"},"vehicle_type_id":"4","last_reported":1750176838,"current_range_meters":17600,"station_id":"","pricing_plan_id":"cebpf4jnsgd1na2vs0mg"},{"bike_id":"4ce5b165-f22d-40cf-abd3-1cb294861955","system_id":"levelo_inurba_marseille","lat":43.211972,"lon":5.350784,"is_reserved":false,"is_disabled":false,"rental_uris":{"android":"levelo://app?vid=4ce5b165-f22d-40cf-abd3-1cb294861955","ios":"levelo://app?vid=4ce5b165-f22d-40cf-abd3-1cb294861955"},"vehicle_type_id":"4","last_reported":1750176838,"current_range_meters":17600,"station_id":"","pricing_plan_id":"cebpf4jnsgd1na2vs0mg"},{"bike_id":"c3616969-4a2e-4f3c-b685-d66157c7a3cc","system_id":"levelo_inurba_marseille","lat":43.29538,"lon":5.38539,"is_reserved":false,"is_disabled":false,"rental_uris":{"android":"levelo://app?vid=c3616969-4a2e-4f3c-b685-d66157c7a3cc","ios":"levelo://app?vid=c3616969-4a2e-4f3c-b685-d66157c7a3cc"},"vehicle_type_id":"4","last_reported":1750176838,"current_range_meters":17600,"station_id":"ce4bgih2rcd13ifvqba0","pricing_plan_id":"cebpf4jnsgd1na2vs0mg"},{"bike_id":"5cbdd979-131e-4b0a-a5c9-96ef156802c9","system_id":"levelo_inurba_marseille","lat":43.28417,"lon":5.39241,"is_reserved":false,"is_disabled":false,"rental_uris":{"android":"levelo://app?vid=5cbdd979-131e-4b0a-a5c9-96ef156802c9","ios":"levelo://app?vid=5cbdd979-131e-4b0a-a5c9-96ef156802c9"},"vehicle_type_id":"4","last_reported":1750176838,"current_range_meters":17600,"station_id":"ce4bhoh2rcd13ifvqh5g","pricing_plan_id":"cebpf4jnsgd1na2vs0mg"},{"bike_id":"cc8086c3-023b-4662-b7ba-91199240f1a1","system_id":"levelo_inurba_marseille","lat":43.23053,"lon":5.35498,"is_reserved":false,"is_disabled":false,"rental_uris":{"android":"levelo://app?vid=cc8086c3-023b-4662-b7ba-91199240f1a1","ios":"levelo://app?vid=cc8086c3-023b-4662-b7ba-91199240f1a1"},"vehicle_type_id":"4","last_reported":1750176838,"current_range_meters":17600,"station_id":"cpo3342slgdg3j2ifvpg","pricing_plan_id":"cebpf4jnsgd1na2vs0mg"},{"bike_id":"29291b3e-d0d9-452a-92c6-f7d592134821","system_id":"levelo_inurba_marseille","lat":43.21754,"lon":5.34603,"is_reserved":false,"is_disabled":false,"rental_uris":{"android":"levelo://app?vid=29291b3e-d0d9-452a-92c6-f7d592134821","ios":"levelo://app?vid=29291b3e-d0d9-452a-92c6-f7d592134821"},"vehicle_type_id":"4","last_reported":1750176838,"current_range_meters":17600,"station_id":"st_cvj6r9ubvosntc0bgbag","pricing_plan_id":"cebpf4jnsgd1na2vs0mg"},{"bike_id":"0fdc182e-0b16-455d-a406-68b7efeb0a33","system_id":"levelo_inurba_marseille","lat":43.21746,"lon":5.34608,"is_reserved":false,"is_disabled":false,"rental_uris":{"android":"levelo://app?vid=0fdc182e-0b16-455d-a406-68b7efeb0a33","ios":"levelo://app?vid=0fdc182e-0b16-455d-a406-68b7efeb0a33"},"vehicle_type_id":"4","last_reported":1750176838,"current_range_meters":17600,"station_id":"st_cvj6r9ubvosntc0bgbag","pricing_plan_id":"cebpf4jnsgd1na2vs0mg"},{"bike_id":"4cda9327-46c6-426e-87dd-c291d5dc5ff7","system_id":"levelo_inurba_marseille","lat":43.21202,"lon":5.3507,"is_reserved":false,"is_disabled":false,"rental_uris":{"android":"levelo://app?vid=4cda9327-46c6-426e-87dd-c291d5dc5ff7","ios":"levelo://app?vid=4cda9327-46c6-426e-87dd-c291d5dc5ff7"},"vehicle_type_id":"4","last_reported":1750176838,"current_range_meters":17600,"station_id":"st_cvj6sg6p6f1abm77japg","pricing_plan_id":"cebpf4jnsgd1na2vs0mg"},{"bike_id":"3a556026-c701-4f37-9192-c33892476639","system_id":"levelo_inurba_marseille","lat":43.21747,"lon":5.34602,"is_reserved":false,"is_disabled":false,"rental_uris":{"android":"levelo://app?vid=3a556026-c701-4f37-9192-c33892476639","ios":"levelo://app?vid=3a556026-c701-4f37-9192-c33892476639"},"vehicle_type_id":"4","last_reported":1750176838,"current_range_meters":18000,"station_id":"","pricing_plan_id":"cebpf4jnsgd1na2vs0mg"},{"bike_id":"77983e01-8fd2-41ee-9622-28f5257abaad","system_id":"levelo_inurba_marseille","lat":43.28444,"lon":5.39206,"is_reserved":false,"is_disabled":false,"rental_uris":{"android":"levelo://app?vid=77983e01-8fd2-41ee-9622-28f5257abaad","ios":"levelo://app?vid=77983e01-8fd2-41ee-9622-28f5257abaad"},"vehicle_type_id":"4","last_reported":1750176838,"current_range_meters":18000,"station_id":"","pricing_plan_id":"cebpf4jnsgd1na2vs0mg"},{"bike_id":"47550487-a851-4c92-9fec-c0b3a4664128","system_id":"levelo_inurba_marseille","lat":43.29536,"lon":5.38538,"is_reserved":false,"is_disabled":false,"rental_uris":{"android":"levelo://app?vid=47550487-a851-4c92-9fec-c0b3a4664128","ios":"levelo://app?vid=47550487-a851-4c92-9fec-c0b3a4664128"},"vehicle_type_id":"4","last_reported":1750176838,"current_range_meters":18000,"station_id":"ce4bgih2rcd13ifvqba0","pricing_plan_id":"cebpf4jnsgd1na2vs0mg"},{"bike_id":"1a30f111-6901-4dc3-b64c-894d4aa3d30f","system_id":"levelo_inurba_marseille","lat":43.30932,"lon":5.40127,"is_reserved":false,"is_disabled":false,"rental_uris":{"android":"levelo://app?vid=1a30f111-6901-4dc3-b64c-894d4aa3d30f","ios":"levelo://app?vid=1a30f111-6901-4dc3-b64c-894d4aa3d30f"},"vehicle_type_id":"4","last_reported":1750176838,"current_range_meters":18000,"station_id":"ce4bgvp2rcd13ifvqct0","pricing_plan_id":"cebpf4jnsgd1na2vs0mg"},{"bike_id":"2e9ac532-0bb8-4bc8-810c-f8cd4c7bd426","system_id":"levelo_inurba_marseille","lat":43.282075,"lon":5.379034,"is_reserved":false,"is_disabled":false,"rental_uris":{"android":"levelo://app?vid=2e9ac532-0bb8-4bc8-810c-f8cd4c7bd426","ios":"levelo://app?vid=2e9ac532-0bb8-4bc8-810c-f8cd4c7bd426"},"vehicle_type_id":"4","last_reported":1750176838,"current_range_meters":18000,"station_id":"ce4bha12rcd13ifvqee0","pricing_plan_id":"cebpf4jnsgd1na2vs0mg"},{"bike_id":"43c9ec49-f42d-4b26-bd27-97128f401b71","system_id":"levelo_inurba_marseille","lat":43.24056,"lon":5.37707,"is_reserved":false,"is_disabled":false,"rental_uris":{"android":"levelo://app?vid=43c9ec49-f42d-4b26-bd27-97128f401b71","ios":"levelo://app?vid=43c9ec49-f42d-4b26-bd27-97128f401b71"},"vehicle_type_id":"4","last_reported":1750176838,"current_range_meters":18000,"station_id":"ce4bhnp2rcd13ifvqgvg","pricing_plan_id":"cebpf4jnsgd1na2vs0mg"},{"bike_id":"653a05d9-205d-420f-b0c9-a638667f0917","system_id":"levelo_inurba_marseille","lat":43.21185,"lon":5.35069,"is_reserved":false,"is_disabled":false,"rental_uris":{"android":"levelo://app?vid=653a05d9-205d-420f-b0c9-a638667f0917","ios":"levelo://app?vid=653a05d9-205d-420f-b0c9-a638667f0917"},"vehicle_type_id":"4","last_reported":1750176838,"current_range_meters":18000,"station_id":"st_cvj6sg6p6f1abm77japg","pricing_plan_id":"cebpf4jnsgd1na2vs0mg"},{"bike_id":"69391ca7-3f01-4e51-a628-257cf9ff7306","system_id":"levelo_inurba_marseille","lat":43.33771,"lon":5.37411,"is_reserved":false,"is_disabled":false,"rental_uris":{"android":"levelo://app?vid=69391ca7-3f01-4e51-a628-257cf9ff7306","ios":"levelo://app?vid=69391ca7-3f01-4e51-a628-257cf9ff7306"},"vehicle_type_id":"4","last_reported":1750176838,"current_range_meters":18800,"station_id":"","pricing_plan_id":"cebpf4jnsgd1na2vs0mg"},{"bike_id":"268aafb4-1331-426c-97bc-a7d6564caeb6","system_id":"levelo_inurba_marseille","lat":43.32914,"lon":5.37934,"is_reserved":false,"is_disabled":false,"rental_uris":{"android":"levelo://app?vid=268aafb4-1331-426c-97bc-a7d6564caeb6","ios":"levelo://app?vid=268aafb4-1331-426c-97bc-a7d6564caeb6"},"vehicle_type_id":"4","last_reported":1750176838,"current_range_meters":18800,"station_id":"","pricing_plan_id":"cebpf4jnsgd1na2vs0mg"},{"bike_id":"d9c54f11-09ee-43e5-a3ea-4d82e44b0b21","system_id":"levelo_inurba_marseille","lat":43.29307,"lon":5.37175,"is_reserved":false,"is_disabled":false,"rental_uris":{"android":"levelo://app?vid=d9c54f11-09ee-43e5-a3ea-4d82e44b0b21","ios":"levelo://app?vid=d9c54f11-09ee-43e5-a3ea-4d82e44b0b21"},"vehicle_type_id":"4","last_reported":1750176838,"current_range_meters":18800,"station_id":"ce4bgh92rcd13ifvqb40","pricing_plan_id":"cebpf4jnsgd1na2vs0mg"},{"bike_id":"64de0f22-829b-49fd-85c9-0258c69b57e3","system_id":"levelo_inurba_marseille","lat":43.31382,"lon":5.38491,"is_reserved":false,"is_disabled":false,"rental_uris":{"android":"levelo://app?vid=64de0f22-829b-49fd-85c9-0258c69b57e3","ios":"levelo://app?vid=64de0f22-829b-49fd-85c9-0258c69b57e3"},"vehicle_type_id":"4","last_reported":1750176838,"current_range_meters":18800,"station_id":"ce4bgt92rcd13ifvqcf0","pricing_plan_id":"cebpf4jnsgd1na2vs0mg"},{"bike_id":"e64cf272-61a9-4163-b785-e8b1636f3b34","system_id":"levelo_inurba_marseille","lat":43.29259,"lon":5.38429,"is_reserved":false,"is_disabled":false,"rental_uris":{"android":"levelo://app?vid=e64cf272-61a9-4163-b785-e8b1636f3b34","ios":"levelo://app?vid=e64cf272-61a9-4163-b785-e8b1636f3b34"},"vehicle_type_id":"4","last_reported":1750176838,"current_range_meters":18800,"station_id":"ce4bh692rcd13ifvqea0","pricing_plan_id":"cebpf4jnsgd1na2vs0mg"},{"bike_id":"a9f66a4d-210e-4af9-b1dc-39fc1d902320","system_id":"levelo_inurba_marseille","lat":43.29187,"lon":5.35807,"is_reserved":false,"is_disabled":false,"rental_uris":{"android":"levelo://app?vid=a9f66a4d-210e-4af9-b1dc-39fc1d902320","ios":"levelo://app?vid=a9f66a4d-210e-4af9-b1dc-39fc1d902320"},"vehicle_type_id":"4","last_reported":1750176838,"current_range_meters":18800,"station_id":"ce4bhb12rcd13ifvqel0","pricing_plan_id":"cebpf4jnsgd1na2vs0mg"},{"bike_id":"dc12feaf-c1b3-4f33-b967-35a3e51e53c9","system_id":"levelo_inurba_marseille","lat":43.28614,"lon":5.35105,"is_reserved":false,"is_disabled":false,"rental_uris":{"android":"levelo://app?vid=dc12feaf-c1b3-4f33-b967-35a3e51e53c9","ios":"levelo://app?vid=dc12feaf-c1b3-4f33-b967-35a3e51e53c9"},"vehicle_type_id":"4","last_reported":1750176838,"current_range_meters":18800,"station_id":"ce4bhch2rcd13ifvqeug","pricing_plan_id":"cebpf4jnsgd1na2vs0mg"},{"bike_id":"c43bc47b-a41e-493c-846e-c200bc5e09ab","system_id":"levelo_inurba_marseille","lat":43.24814,"lon":5.37453,"is_reserved":false,"is_disabled":false,"rental_uris":{"android":"levelo://app?vid=c43bc47b-a41e-493c-846e-c200bc5e09ab","ios":"levelo://app?vid=c43bc47b-a41e-493c-846e-c200bc5e09ab"},"vehicle_type_id":"4","last_reported":1750176838,"current_range_meters":18800,"station_id":"ce4bhgh2rcd13ifvqfb0","pricing_plan_id":"cebpf4jnsgd1na2vs0mg"},{"bike_id":"34011965-7337-4c76-bc6d-833dad6810be","system_id":"levelo_inurba_marseille","lat":43.26208,"lon":5.37443,"is_reserved":false,"is_disabled":false,"rental_uris":{"android":"levelo://app?vid=34011965-7337-4c76-bc6d-833dad6810be","ios":"levelo://app?vid=34011965-7337-4c76-bc6d-833dad6810be"},"vehicle_type_id":"4","last_reported":1750176838,"current_range_meters":18800,"station_id":"ce4bhgp2rcd13ifvqfc0","pricing_plan_id":"cebpf4jnsgd1na2vs0mg"},{"bike_id":"90936068-8440-41a3-9f7f-d5ad9dd2410d","system_id":"levelo_inurba_marseille","lat":43.27206,"lon":5.39176,"is_reserved":false,"is_disabled":false,"rental_uris":{"android":"levelo://app?vid=90936068-8440-41a3-9f7f-d5ad9dd2410d","ios":"levelo://app?vid=90936068-8440-41a3-9f7f-d5ad9dd2410d"},"vehicle_type_id":"4","last_reported":1750176838,"current_range_meters":18800,"station_id":"ce4bhhp2rcd13ifvqfm0","pricing_plan_id":"cebpf4jnsgd1na2vs0mg"},{"bike_id":"8b8e3452-c32b-408e-938b-44cc98f0f857","system_id":"levelo_inurba_marseille","lat":43.284179,"lon":5.349788,"is_reserved":false,"is_disabled":false,"rental_uris":{"android":"levelo://app?vid=8b8e3452-c32b-408e-938b-44cc98f0f857","ios":"levelo://app?vid=8b8e3452-c32b-408e-938b-44cc98f0f857"},"vehicle_type_id":"4","last_reported":1750176838,"current_range_meters":19200,"station_id":"ce4bhbh2rcd13ifvqepg","pricing_plan_id":"cebpf4jnsgd1na2vs0mg"},{"bike_id":"4d62b51b-c534-4a5d-9cda-aa82db63befb","system_id":"levelo_inurba_marseille","lat":43.25104,"lon":5.39514,"is_reserved":false,"is_disabled":false,"rental_uris":{"android":"levelo://app?vid=4d62b51b-c534-4a5d-9cda-aa82db63befb","ios":"levelo://app?vid=4d62b51b-c534-4a5d-9cda-aa82db63befb"},"vehicle_type_id":"4","last_reported":1750176838,"current_range_meters":19200,"station_id":"ce4bhm12rcd13ifvqgkg","pricing_plan_id":"cebpf4jnsgd1na2vs0mg"},{"bike_id":"744cf4fa-bb14-4576-929f-2f6effc633c9","system_id":"levelo_inurba_marseille","lat":43.29552,"lon":5.42292,"is_reserved":false,"is_disabled":false,"rental_uris":{"android":"levelo://app?vid=744cf4fa-bb14-4576-929f-2f6effc633c9","ios":"levelo://app?vid=744cf4fa-bb14-4576-929f-2f6effc633c9"},"vehicle_type_id":"4","last_reported":1750176838,"current_range_meters":19200,"station_id":"ce4bhph2rcd13ifvqhdg","pricing_plan_id":"cebpf4jnsgd1na2vs0mg"},{"bike_id":"7d323fe3-a48f-41da-8026-436298dd6903","system_id":"levelo_inurba_marseille","lat":43.28426,"lon":5.35003,"is_reserved":false,"is_disabled":false,"rental_uris":{"android":"levelo://app?vid=7d323fe3-a48f-41da-8026-436298dd6903","ios":"levelo://app?vid=7d323fe3-a48f-41da-8026-436298dd6903"},"vehicle_type_id":"4","last_reported":1750176838,"current_range_meters":19600,"station_id":"ce4bhbh2rcd13ifvqepg","pricing_plan_id":"cebpf4jnsgd1na2vs0mg"},{"bike_id":"b242a622-7fab-40d3-ae44-a212db7990a5","system_id":"levelo_inurba_marseille","lat":43.27922,"lon":5.39576,"is_reserved":false,"is_disabled":false,"rental_uris":{"android":"levelo://app?vid=b242a622-7fab-40d3-ae44-a212db7990a5","ios":"levelo://app?vid=b242a622-7fab-40d3-ae44-a212db7990a5"},"vehicle_type_id":"4","last_reported":1750176838,"current_range_meters":19600,"station_id":"ce4bhf92rcd13ifvqf40","pricing_plan_id":"cebpf4jnsgd1na2vs0mg"},{"bike_id":"8c195891-e8cb-494c-abee-0de9d178bc58","system_id":"levelo_inurba_marseille","lat":43.26677,"lon":5.3827,"is_reserved":false,"is_disabled":false,"rental_uris":{"android":"levelo://app?vid=8c195891-e8cb-494c-abee-0de9d178bc58","ios":"levelo://app?vid=8c195891-e8cb-494c-abee-0de9d178bc58"},"vehicle_type_id":"4","last_reported":1750176838,"current_range_meters":19600,"station_id":"ce4bhg92rcd13ifvqf90","pricing_plan_id":"cebpf4jnsgd1na2vs0mg"},{"bike_id":"3778dcfb-eb67-4b0a-b90a-f150bf1fd7cd","system_id":"levelo_inurba_marseille","lat":43.25823,"lon":5.39438,"is_reserved":false,"is_disabled":false,"rental_uris":{"android":"levelo://app?vid=3778dcfb-eb67-4b0a-b90a-f150bf1fd7cd","ios":"levelo://app?vid=3778dcfb-eb67-4b0a-b90a-f150bf1fd7cd"},"vehicle_type_id":"4","last_reported":1750176838,"current_range_meters":19600,"station_id":"ce4bhip2rcd13ifvqft0","pricing_plan_id":"cebpf4jnsgd1na2vs0mg"},{"bike_id":"f6ea18f4-d77c-4843-ab66-bba6fb8a9a88","system_id":"levelo_inurba_marseille","lat":43.251,"lon":5.40355,"is_reserved":false,"is_disabled":false,"rental_uris":{"android":"levelo://app?vid=f6ea18f4-d77c-4843-ab66-bba6fb8a9a88","ios":"levelo://app?vid=f6ea18f4-d77c-4843-ab66-bba6fb8a9a88"},"vehicle_type_id":"4","last_reported":1750176838,"current_range_meters":19600,"station_id":"ce4bhlh2rcd13ifvqgig","pricing_plan_id":"cebpf4jnsgd1na2vs0mg"},{"bike_id":"28701354-04db-4ccd-965d-529bbc82fcd5","system_id":"levelo_inurba_marseille","lat":43.211864,"lon":5.350733,"is_reserved":false,"is_disabled":false,"rental_uris":{"android":"levelo://app?vid=28701354-04db-4ccd-965d-529bbc82fcd5","ios":"levelo://app?vid=28701354-04db-4ccd-965d-529bbc82fcd5"},"vehicle_type_id":"4","last_reported":1750176838,"current_range_meters":19600,"station_id":"st_cvj6sg6p6f1abm77japg","pricing_plan_id":"cebpf4jnsgd1na2vs0mg"},{"bike_id":"d447716b-c3e9-4610-8d07-7266529a4665","system_id":"levelo_inurba_marseille","lat":43.31368,"lon":5.3849,"is_reserved":false,"is_disabled":false,"rental_uris":{"android":"levelo://app?vid=d447716b-c3e9-4610-8d07-7266529a4665","ios":"levelo://app?vid=d447716b-c3e9-4610-8d07-7266529a4665"},"vehicle_type_id":"4","last_reported":1750176838,"current_range_meters":20000,"station_id":"ce4bgt92rcd13ifvqcf0","pricing_plan_id":"cebpf4jnsgd1na2vs0mg"},{"bike_id":"9e982fff-cb27-4ef3-a3d5-5f2391e365f6","system_id":"levelo_inurba_marseille","lat":43.284149,"lon":5.375018,"is_reserved":false,"is_disabled":false,"rental_uris":{"android":"levelo://app?vid=9e982fff-cb27-4ef3-a3d5-5f2391e365f6","ios":"levelo://app?vid=9e982fff-cb27-4ef3-a3d5-5f2391e365f6"},"vehicle_type_id":"4","last_reported":1750176838,"current_range_meters":20000,"station_id":"ce4bh412rcd13ifvqds0","pricing_plan_id":"cebpf4jnsgd1na2vs0mg"},{"bike_id":"c1f010d4-2315-444e-bea5-8917443da6cd","system_id":"levelo_inurba_marseille","lat":43.284213,"lon":5.349862,"is_reserved":false,"is_disabled":false,"rental_uris":{"android":"levelo://app?vid=c1f010d4-2315-444e-bea5-8917443da6cd","ios":"levelo://app?vid=c1f010d4-2315-444e-bea5-8917443da6cd"},"vehicle_type_id":"4","last_reported":1750176838,"current_range_meters":20000,"station_id":"ce4bhbh2rcd13ifvqepg","pricing_plan_id":"cebpf4jnsgd1na2vs0mg"},{"bike_id":"dc10bf73-41c2-4d20-b599-84099832b030","system_id":"levelo_inurba_marseille","lat":43.24647,"lon":5.388909,"is_reserved":false,"is_disabled":false,"rental_uris":{"android":"levelo://app?vid=dc10bf73-41c2-4d20-b599-84099832b030","ios":"levelo://app?vid=dc10bf73-41c2-4d20-b599-84099832b030"},"vehicle_type_id":"4","last_reported":1750176838,"current_range_meters":20000,"station_id":"ce4bhg12rcd13ifvqf60","pricing_plan_id":"cebpf4jnsgd1na2vs0mg"},{"bike_id":"54cebbad-17db-4f40-8141-8eedac83be3f","system_id":"levelo_inurba_marseille","lat":43.3377,"lon":5.37439,"is_reserved":false,"is_disabled":false,"rental_uris":{"android":"levelo://app?vid=54cebbad-17db-4f40-8141-8eedac83be3f","ios":"levelo://app?vid=54cebbad-17db-4f40-8141-8eedac83be3f"},"vehicle_type_id":"4","last_reported":1750176838,"current_range_meters":20400,"station_id":"","pricing_plan_id":"cebpf4jnsgd1na2vs0mg"},{"bike_id":"f3cfb795-2a04-47e0-bfe9-37bd7ce42aeb","system_id":"levelo_inurba_marseille","lat":43.31267,"lon":5.40179,"is_reserved":false,"is_disabled":false,"rental_uris":{"android":"levelo://app?vid=f3cfb795-2a04-47e0-bfe9-37bd7ce42aeb","ios":"levelo://app?vid=f3cfb795-2a04-47e0-bfe9-37bd7ce42aeb"},"vehicle_type_id":"4","last_reported":1750176838,"current_range_meters":20400,"station_id":"ce4bh092rcd13ifvqd30","pricing_plan_id":"cebpf4jnsgd1na2vs0mg"},{"bike_id":"72127b8c-b327-4b7c-884a-78402d960965","system_id":"levelo_inurba_marseille","lat":43.29008,"lon":5.35612,"is_reserved":false,"is_disabled":false,"rental_uris":{"android":"levelo://app?vid=72127b8c-b327-4b7c-884a-78402d960965","ios":"levelo://app?vid=72127b8c-b327-4b7c-884a-78402d960965"},"vehicle_type_id":"4","last_reported":1750176838,"current_range_meters":20400,"station_id":"ce4bhb92rcd13ifvqen0","pricing_plan_id":"cebpf4jnsgd1na2vs0mg"},{"bike_id":"329fa638-5cae-4d80-84a0-f7375cb03d86","system_id":"levelo_inurba_marseille","lat":43.284166,"lon":5.349822,"is_reserved":false,"is_disabled":false,"rental_uris":{"android":"levelo://app?vid=329fa638-5cae-4d80-84a0-f7375cb03d86","ios":"levelo://app?vid=329fa638-5cae-4d80-84a0-f7375cb03d86"},"vehicle_type_id":"4","last_reported":1750176838,"current_range_meters":20400,"station_id":"ce4bhbh2rcd13ifvqepg","pricing_plan_id":"cebpf4jnsgd1na2vs0mg"},{"bike_id":"cde80bc7-e624-4f9a-b7d5-d9a9816d0ced","system_id":"levelo_inurba_marseille","lat":43.248049,"lon":5.374678,"is_reserved":false,"is_disabled":false,"rental_uris":{"android":"levelo://app?vid=cde80bc7-e624-4f9a-b7d5-d9a9816d0ced","ios":"levelo://app?vid=cde80bc7-e624-4f9a-b7d5-d9a9816d0ced"},"vehicle_type_id":"4","last_reported":1750176838,"current_range_meters":20400,"station_id":"ce4bhgh2rcd13ifvqfb0","pricing_plan_id":"cebpf4jnsgd1na2vs0mg"},{"bike_id":"e717042a-b52f-4e24-b402-730c7c94a381","system_id":"levelo_inurba_marseille","lat":43.2816,"lon":5.426572,"is_reserved":false,"is_disabled":false,"rental_uris":{"android":"levelo://app?vid=e717042a-b52f-4e24-b402-730c7c94a381","ios":"levelo://app?vid=e717042a-b52f-4e24-b402-730c7c94a381"},"vehicle_type_id":"4","last_reported":1750176838,"current_range_meters":20400,"station_id":"ce4bhnh2rcd13ifvqgug","pricing_plan_id":"cebpf4jnsgd1na2vs0mg"},{"bike_id":"eb229879-609e-44f7-93bf-4f5c7d45ba78","system_id":"levelo_inurba_marseille","lat":43.30151,"lon":5.37418,"is_reserved":false,"is_disabled":false,"rental_uris":{"android":"levelo://app?vid=eb229879-609e-44f7-93bf-4f5c7d45ba78","ios":"levelo://app?vid=eb229879-609e-44f7-93bf-4f5c7d45ba78"},"vehicle_type_id":"4","last_reported":1750176838,"current_range_meters":20800,"station_id":"ce4bgs92rcd13ifvqcc0","pricing_plan_id":"cebpf4jnsgd1na2vs0mg"},{"bike_id":"f7b82564-4b83-4840-89ea-da398aae7677","system_id":"levelo_inurba_marseille","lat":43.3093,"lon":5.40152,"is_reserved":false,"is_disabled":false,"rental_uris":{"android":"levelo://app?vid=f7b82564-4b83-4840-89ea-da398aae7677","ios":"levelo://app?vid=f7b82564-4b83-4840-89ea-da398aae7677"},"vehicle_type_id":"4","last_reported":1750176838,"current_range_meters":20800,"station_id":"ce4bgvp2rcd13ifvqct0","pricing_plan_id":"cebpf4jnsgd1na2vs0mg"},{"bike_id":"b16e8e6a-0287-499c-ab11-a45768e0e2ec","system_id":"levelo_inurba_marseille","lat":43.24806,"lon":5.37451,"is_reserved":false,"is_disabled":false,"rental_uris":{"android":"levelo://app?vid=b16e8e6a-0287-499c-ab11-a45768e0e2ec","ios":"levelo://app?vid=b16e8e6a-0287-499c-ab11-a45768e0e2ec"},"vehicle_type_id":"4","last_reported":1750176838,"current_range_meters":20800,"station_id":"ce4bhgh2rcd13ifvqfb0","pricing_plan_id":"cebpf4jnsgd1na2vs0mg"},{"bike_id":"e1cc47d9-ed33-4ce7-958c-114400a944a9","system_id":"levelo_inurba_marseille","lat":43.29553,"lon":5.42288,"is_reserved":false,"is_disabled":false,"rental_uris":{"android":"levelo://app?vid=e1cc47d9-ed33-4ce7-958c-114400a944a9","ios":"levelo://app?vid=e1cc47d9-ed33-4ce7-958c-114400a944a9"},"vehicle_type_id":"4","last_reported":1750176838,"current_range_meters":20800,"station_id":"ce4bhph2rcd13ifvqhdg","pricing_plan_id":"cebpf4jnsgd1na2vs0mg"},{"bike_id":"1331f39d-ba0b-4ed7-82f5-0e3d0d8fe6ba","system_id":"levelo_inurba_marseille","lat":43.28718,"lon":5.36088,"is_reserved":false,"is_disabled":false,"rental_uris":{"android":"levelo://app?vid=1331f39d-ba0b-4ed7-82f5-0e3d0d8fe6ba","ios":"levelo://app?vid=1331f39d-ba0b-4ed7-82f5-0e3d0d8fe6ba"},"vehicle_type_id":"4","last_reported":1750176838,"current_range_meters":20800,"station_id":"cki0cbj6b192h4jlfktg","pricing_plan_id":"cebpf4jnsgd1na2vs0mg"},{"bike_id":"b2372ff6-5571-42d5-b562-23ecdeb52de0","system_id":"levelo_inurba_marseille","lat":43.21163,"lon":5.35082,"is_reserved":false,"is_disabled":false,"rental_uris":{"android":"levelo://app?vid=b2372ff6-5571-42d5-b562-23ecdeb52de0","ios":"levelo://app?vid=b2372ff6-5571-42d5-b562-23ecdeb52de0"},"vehicle_type_id":"4","last_reported":1750176838,"current_range_meters":20800,"station_id":"st_cvj6sg6p6f1abm77japg","pricing_plan_id":"cebpf4jnsgd1na2vs0mg"},{"bike_id":"a0b9fdc6-275a-4c87-8931-37add6acbf23","system_id":"levelo_inurba_marseille","lat":43.30142,"lon":5.39856,"is_reserved":false,"is_disabled":false,"rental_uris":{"android":"levelo://app?vid=a0b9fdc6-275a-4c87-8931-37add6acbf23","ios":"levelo://app?vid=a0b9fdc6-275a-4c87-8931-37add6acbf23"},"vehicle_type_id":"4","last_reported":1750176838,"current_range_meters":21600,"station_id":"ce4bh0h2rcd13ifvqd40","pricing_plan_id":"cebpf4jnsgd1na2vs0mg"},{"bike_id":"a7bb094c-062b-41d2-b5ec-86fe64708b7c","system_id":"levelo_inurba_marseille","lat":43.27379,"lon":5.3626,"is_reserved":false,"is_disabled":false,"rental_uris":{"android":"levelo://app?vid=a7bb094c-062b-41d2-b5ec-86fe64708b7c","ios":"levelo://app?vid=a7bb094c-062b-41d2-b5ec-86fe64708b7c"},"vehicle_type_id":"4","last_reported":1750176838,"current_range_meters":21600,"station_id":"ce4bhbh2rcd13ifvqeo0","pricing_plan_id":"cebpf4jnsgd1na2vs0mg"},{"bike_id":"86d4aa42-ca5d-4b7b-9602-5acb9f3d211e","system_id":"levelo_inurba_marseille","lat":43.2841,"lon":5.34984,"is_reserved":false,"is_disabled":false,"rental_uris":{"android":"levelo://app?vid=86d4aa42-ca5d-4b7b-9602-5acb9f3d211e","ios":"levelo://app?vid=86d4aa42-ca5d-4b7b-9602-5acb9f3d211e"},"vehicle_type_id":"4","last_reported":1750176838,"current_range_meters":21600,"station_id":"ce4bhbh2rcd13ifvqepg","pricing_plan_id":"cebpf4jnsgd1na2vs0mg"},{"bike_id":"a7b727ef-422e-44dd-824e-bd27b92e47b4","system_id":"levelo_inurba_marseille","lat":43.27878,"lon":5.38033,"is_reserved":false,"is_disabled":false,"rental_uris":{"android":"levelo://app?vid=a7b727ef-422e-44dd-824e-bd27b92e47b4","ios":"levelo://app?vid=a7b727ef-422e-44dd-824e-bd27b92e47b4"},"vehicle_type_id":"4","last_reported":1750176838,"current_range_meters":21600,"station_id":"ce4bhf92rcd13ifvqf50","pricing_plan_id":"cebpf4jnsgd1na2vs0mg"},{"bike_id":"4ca51127-97c5-4420-ac6b-aa89ac44602f","system_id":"levelo_inurba_marseille","lat":43.23962,"lon":5.3664,"is_reserved":false,"is_disabled":false,"rental_uris":{"android":"levelo://app?vid=4ca51127-97c5-4420-ac6b-aa89ac44602f","ios":"levelo://app?vid=4ca51127-97c5-4420-ac6b-aa89ac44602f"},"vehicle_type_id":"4","last_reported":1750176838,"current_range_meters":21600,"station_id":"ce4bhi12rcd13ifvqfp0","pricing_plan_id":"cebpf4jnsgd1na2vs0mg"},{"bike_id":"b6d08869-2433-4025-8b11-4699812c385a","system_id":"levelo_inurba_marseille","lat":43.25109,"lon":5.40324,"is_reserved":false,"is_disabled":false,"rental_uris":{"android":"levelo://app?vid=b6d08869-2433-4025-8b11-4699812c385a","ios":"levelo://app?vid=b6d08869-2433-4025-8b11-4699812c385a"},"vehicle_type_id":"4","last_reported":1750176838,"current_range_meters":21600,"station_id":"ce4bhlh2rcd13ifvqgig","pricing_plan_id":"cebpf4jnsgd1na2vs0mg"},{"bike_id":"092b451a-ca1a-4ef4-ae94-87645936d24d","system_id":"levelo_inurba_marseille","lat":43.21756,"lon":5.34599,"is_reserved":false,"is_disabled":false,"rental_uris":{"android":"levelo://app?vid=092b451a-ca1a-4ef4-ae94-87645936d24d","ios":"levelo://app?vid=092b451a-ca1a-4ef4-ae94-87645936d24d"},"vehicle_type_id":"4","last_reported":1750176838,"current_range_meters":21600,"station_id":"st_cvj6r9ubvosntc0bgbag","pricing_plan_id":"cebpf4jnsgd1na2vs0mg"},{"bike_id":"6b027232-c914-4b7b-ac31-54ae0f0bbe73","system_id":"levelo_inurba_marseille","lat":43.293016,"lon":5.374655,"is_reserved":false,"is_disabled":false,"rental_uris":{"android":"levelo://app?vid=6b027232-c914-4b7b-ac31-54ae0f0bbe73","ios":"levelo://app?vid=6b027232-c914-4b7b-ac31-54ae0f0bbe73"},"vehicle_type_id":"4","last_reported":1750176838,"current_range_meters":22000,"station_id":"","pricing_plan_id":"cebpf4jnsgd1na2vs0mg"},{"bike_id":"943b7e0c-a0d0-44d3-9561-ca113fac4543","system_id":"levelo_inurba_marseille","lat":43.28934,"lon":5.36644,"is_reserved":false,"is_disabled":false,"rental_uris":{"android":"levelo://app?vid=943b7e0c-a0d0-44d3-9561-ca113fac4543","ios":"levelo://app?vid=943b7e0c-a0d0-44d3-9561-ca113fac4543"},"vehicle_type_id":"4","last_reported":1750176838,"current_range_meters":22000,"station_id":"ce4bhap2rcd13ifvqek0","pricing_plan_id":"cebpf4jnsgd1na2vs0mg"},{"bike_id":"7b3ce3ef-a31f-4a37-83c9-d976f4c39733","system_id":"levelo_inurba_marseille","lat":43.23967,"lon":5.36628,"is_reserved":false,"is_disabled":false,"rental_uris":{"android":"levelo://app?vid=7b3ce3ef-a31f-4a37-83c9-d976f4c39733","ios":"levelo://app?vid=7b3ce3ef-a31f-4a37-83c9-d976f4c39733"},"vehicle_type_id":"4","last_reported":1750176838,"current_range_meters":22000,"station_id":"ce4bhi12rcd13ifvqfp0","pricing_plan_id":"cebpf4jnsgd1na2vs0mg"},{"bike_id":"d4529892-3f76-484f-924d-f7a6bd7328b9","system_id":"levelo_inurba_marseille","lat":43.28731,"lon":5.36098,"is_reserved":false,"is_disabled":false,"rental_uris":{"android":"levelo://app?vid=d4529892-3f76-484f-924d-f7a6bd7328b9","ios":"levelo://app?vid=d4529892-3f76-484f-924d-f7a6bd7328b9"},"vehicle_type_id":"4","last_reported":1750176838,"current_range_meters":22000,"station_id":"cki0cbj6b192h4jlfktg","pricing_plan_id":"cebpf4jnsgd1na2vs0mg"},{"bike_id":"9faf55fe-1e7f-43ab-8b2c-706b378e561c","system_id":"levelo_inurba_marseille","lat":43.21191,"lon":5.35077,"is_reserved":false,"is_disabled":false,"rental_uris":{"android":"levelo://app?vid=9faf55fe-1e7f-43ab-8b2c-706b378e561c","ios":"levelo://app?vid=9faf55fe-1e7f-43ab-8b2c-706b378e561c"},"vehicle_type_id":"4","last_reported":1750176838,"current_range_meters":22000,"station_id":"st_cvj6sg6p6f1abm77japg","pricing_plan_id":"cebpf4jnsgd1na2vs0mg"},{"bike_id":"c28fab6b-a9b5-4572-907c-4de0169c3ae6","system_id":"levelo_inurba_marseille","lat":43.28932,"lon":5.36664,"is_reserved":false,"is_disabled":false,"rental_uris":{"android":"levelo://app?vid=c28fab6b-a9b5-4572-907c-4de0169c3ae6","ios":"levelo://app?vid=c28fab6b-a9b5-4572-907c-4de0169c3ae6"},"vehicle_type_id":"4","last_reported":1750176838,"current_range_meters":22400,"station_id":"ce4bhap2rcd13ifvqek0","pricing_plan_id":"cebpf4jnsgd1na2vs0mg"},{"bike_id":"655a3052-bd15-4b2c-8ee7-e6f1f7ea8bef","system_id":"levelo_inurba_marseille","lat":43.28421,"lon":5.3499,"is_reserved":false,"is_disabled":false,"rental_uris":{"android":"levelo://app?vid=655a3052-bd15-4b2c-8ee7-e6f1f7ea8bef","ios":"levelo://app?vid=655a3052-bd15-4b2c-8ee7-e6f1f7ea8bef"},"vehicle_type_id":"4","last_reported":1750176838,"current_range_meters":22400,"station_id":"ce4bhbh2rcd13ifvqepg","pricing_plan_id":"cebpf4jnsgd1na2vs0mg"},{"bike_id":"bccf3f0c-cab7-44d2-8ffb-915e21563a12","system_id":"levelo_inurba_marseille","lat":43.337444,"lon":5.374475,"is_reserved":false,"is_disabled":false,"rental_uris":{"android":"levelo://app?vid=bccf3f0c-cab7-44d2-8ffb-915e21563a12","ios":"levelo://app?vid=bccf3f0c-cab7-44d2-8ffb-915e21563a12"},"vehicle_type_id":"4","last_reported":1750176838,"current_range_meters":22800,"station_id":"","pricing_plan_id":"cebpf4jnsgd1na2vs0mg"},{"bike_id":"16b23253-883f-465d-acc0-91f849653a38","system_id":"levelo_inurba_marseille","lat":43.26987,"lon":5.39865,"is_reserved":false,"is_disabled":false,"rental_uris":{"android":"levelo://app?vid=16b23253-883f-465d-acc0-91f849653a38","ios":"levelo://app?vid=16b23253-883f-465d-acc0-91f849653a38"},"vehicle_type_id":"4","last_reported":1750176838,"current_range_meters":22800,"station_id":"","pricing_plan_id":"cebpf4jnsgd1na2vs0mg"},{"bike_id":"78ca4df6-49ab-4ef9-bb11-d1e3629e1483","system_id":"levelo_inurba_marseille","lat":43.31325,"lon":5.39697,"is_reserved":false,"is_disabled":false,"rental_uris":{"android":"levelo://app?vid=78ca4df6-49ab-4ef9-bb11-d1e3629e1483","ios":"levelo://app?vid=78ca4df6-49ab-4ef9-bb11-d1e3629e1483"},"vehicle_type_id":"4","last_reported":1750176838,"current_range_meters":22800,"station_id":"ce4bgvp2rcd13ifvqcu0","pricing_plan_id":"cebpf4jnsgd1na2vs0mg"},{"bike_id":"2ce54e30-531f-48eb-86f2-ece980a5ff31","system_id":"levelo_inurba_marseille","lat":43.28937,"lon":5.36633,"is_reserved":false,"is_disabled":false,"rental_uris":{"android":"levelo://app?vid=2ce54e30-531f-48eb-86f2-ece980a5ff31","ios":"levelo://app?vid=2ce54e30-531f-48eb-86f2-ece980a5ff31"},"vehicle_type_id":"4","last_reported":1750176838,"current_range_meters":22800,"station_id":"ce4bhap2rcd13ifvqek0","pricing_plan_id":"cebpf4jnsgd1na2vs0mg"},{"bike_id":"4abd83c3-88bc-4d02-88d6-3adce95329e5","system_id":"levelo_inurba_marseille","lat":43.28416,"lon":5.34985,"is_reserved":false,"is_disabled":false,"rental_uris":{"android":"levelo://app?vid=4abd83c3-88bc-4d02-88d6-3adce95329e5","ios":"levelo://app?vid=4abd83c3-88bc-4d02-88d6-3adce95329e5"},"vehicle_type_id":"4","last_reported":1750176838,"current_range_meters":22800,"station_id":"ce4bhbh2rcd13ifvqepg","pricing_plan_id":"cebpf4jnsgd1na2vs0mg"},{"bike_id":"2c2f8084-5c11-4178-a719-148604807281","system_id":"levelo_inurba_marseille","lat":43.2842,"lon":5.34985,"is_reserved":false,"is_disabled":false,"rental_uris":{"android":"levelo://app?vid=2c2f8084-5c11-4178-a719-148604807281","ios":"levelo://app?vid=2c2f8084-5c11-4178-a719-148604807281"},"vehicle_type_id":"4","last_reported":1750176838,"current_range_meters":22800,"station_id":"ce4bhbh2rcd13ifvqepg","pricing_plan_id":"cebpf4jnsgd1na2vs0mg"},{"bike_id":"03de9a8f-c39d-4e83-ae9e-fa1037b5e93a","system_id":"levelo_inurba_marseille","lat":43.251162,"lon":5.403099,"is_reserved":false,"is_disabled":false,"rental_uris":{"android":"levelo://app?vid=03de9a8f-c39d-4e83-ae9e-fa1037b5e93a","ios":"levelo://app?vid=03de9a8f-c39d-4e83-ae9e-fa1037b5e93a"},"vehicle_type_id":"4","last_reported":1750176838,"current_range_meters":22800,"station_id":"ce4bhlh2rcd13ifvqgig","pricing_plan_id":"cebpf4jnsgd1na2vs0mg"},{"bike_id":"58175c1f-8464-441e-97a8-fd9ca8a04721","system_id":"levelo_inurba_marseille","lat":43.28152,"lon":5.42646,"is_reserved":false,"is_disabled":false,"rental_uris":{"android":"levelo://app?vid=58175c1f-8464-441e-97a8-fd9ca8a04721","ios":"levelo://app?vid=58175c1f-8464-441e-97a8-fd9ca8a04721"},"vehicle_type_id":"4","last_reported":1750176838,"current_range_meters":22800,"station_id":"ce4bhnh2rcd13ifvqgug","pricing_plan_id":"cebpf4jnsgd1na2vs0mg"},{"bike_id":"27cd7138-8b58-4d27-b6bb-d957b614e63b","system_id":"levelo_inurba_marseille","lat":43.30158,"lon":5.3699,"is_reserved":false,"is_disabled":false,"rental_uris":{"android":"levelo://app?vid=27cd7138-8b58-4d27-b6bb-d957b614e63b","ios":"levelo://app?vid=27cd7138-8b58-4d27-b6bb-d957b614e63b"},"vehicle_type_id":"4","last_reported":1750176838,"current_range_meters":23200,"station_id":"","pricing_plan_id":"cebpf4jnsgd1na2vs0mg"},{"bike_id":"7fc4c2f7-2c90-4c86-af50-bcb989aac9ca","system_id":"levelo_inurba_marseille","lat":43.29254,"lon":5.38432,"is_reserved":false,"is_disabled":false,"rental_uris":{"android":"levelo://app?vid=7fc4c2f7-2c90-4c86-af50-bcb989aac9ca","ios":"levelo://app?vid=7fc4c2f7-2c90-4c86-af50-bcb989aac9ca"},"vehicle_type_id":"4","last_reported":1750176838,"current_range_meters":23200,"station_id":"ce4bh692rcd13ifvqea0","pricing_plan_id":"cebpf4jnsgd1na2vs0mg"},{"bike_id":"7605d42f-a2e2-4338-9637-cb003ed94184","system_id":"levelo_inurba_marseille","lat":43.29005,"lon":5.35611,"is_reserved":false,"is_disabled":false,"rental_uris":{"android":"levelo://app?vid=7605d42f-a2e2-4338-9637-cb003ed94184","ios":"levelo://app?vid=7605d42f-a2e2-4338-9637-cb003ed94184"},"vehicle_type_id":"4","last_reported":1750176838,"current_range_meters":23200,"station_id":"ce4bhb92rcd13ifvqen0","pricing_plan_id":"cebpf4jnsgd1na2vs0mg"},{"bike_id":"f073d921-01fd-4981-a7a1-dd061415b091","system_id":"levelo_inurba_marseille","lat":43.29005,"lon":5.35611,"is_reserved":false,"is_disabled":false,"rental_uris":{"android":"levelo://app?vid=f073d921-01fd-4981-a7a1-dd061415b091","ios":"levelo://app?vid=f073d921-01fd-4981-a7a1-dd061415b091"},"vehicle_type_id":"4","last_reported":1750176838,"current_range_meters":23200,"station_id":"ce4bhb92rcd13ifvqen0","pricing_plan_id":"cebpf4jnsgd1na2vs0mg"},{"bike_id":"a7dc4588-ee26-43a2-a918-95a83d6f6d4b","system_id":"levelo_inurba_marseille","lat":43.24807,"lon":5.37452,"is_reserved":false,"is_disabled":false,"rental_uris":{"android":"levelo://app?vid=a7dc4588-ee26-43a2-a918-95a83d6f6d4b","ios":"levelo://app?vid=a7dc4588-ee26-43a2-a918-95a83d6f6d4b"},"vehicle_type_id":"4","last_reported":1750176838,"current_range_meters":23200,"station_id":"ce4bhgh2rcd13ifvqfb0","pricing_plan_id":"cebpf4jnsgd1na2vs0mg"},{"bike_id":"095365e9-f3f9-42dd-be04-9388ebc295a6","system_id":"levelo_inurba_marseille","lat":43.25115,"lon":5.4032,"is_reserved":false,"is_disabled":false,"rental_uris":{"android":"levelo://app?vid=095365e9-f3f9-42dd-be04-9388ebc295a6","ios":"levelo://app?vid=095365e9-f3f9-42dd-be04-9388ebc295a6"},"vehicle_type_id":"4","last_reported":1750176838,"current_range_meters":23200,"station_id":"ce4bhlh2rcd13ifvqgig","pricing_plan_id":"cebpf4jnsgd1na2vs0mg"},{"bike_id":"03c2a29e-b3f5-47e4-b1dd-27f95de76333","system_id":"levelo_inurba_marseille","lat":43.280749,"lon":5.396513,"is_reserved":false,"is_disabled":false,"rental_uris":{"android":"levelo://app?vid=03c2a29e-b3f5-47e4-b1dd-27f95de76333","ios":"levelo://app?vid=03c2a29e-b3f5-47e4-b1dd-27f95de76333"},"vehicle_type_id":"4","last_reported":1750176838,"current_range_meters":23200,"station_id":"ce4bho12rcd13ifvqh2g","pricing_plan_id":"cebpf4jnsgd1na2vs0mg"},{"bike_id":"ec3cb4dd-c2cb-4dad-b69b-3e4afa813b79","system_id":"levelo_inurba_marseille","lat":43.28423,"lon":5.39173,"is_reserved":false,"is_disabled":false,"rental_uris":{"android":"levelo://app?vid=ec3cb4dd-c2cb-4dad-b69b-3e4afa813b79","ios":"levelo://app?vid=ec3cb4dd-c2cb-4dad-b69b-3e4afa813b79"},"vehicle_type_id":"4","last_reported":1750176838,"current_range_meters":23200,"station_id":"ce4bhoh2rcd13ifvqh5g","pricing_plan_id":"cebpf4jnsgd1na2vs0mg"},{"bike_id":"a1eae881-13da-4d28-8627-fcb4d13b4464","system_id":"levelo_inurba_marseille","lat":43.28724,"lon":5.36079,"is_reserved":false,"is_disabled":false,"rental_uris":{"android":"levelo://app?vid=a1eae881-13da-4d28-8627-fcb4d13b4464","ios":"levelo://app?vid=a1eae881-13da-4d28-8627-fcb4d13b4464"},"vehicle_type_id":"4","last_reported":1750176838,"current_range_meters":23200,"station_id":"cki0cbj6b192h4jlfktg","pricing_plan_id":"cebpf4jnsgd1na2vs0mg"},{"bike_id":"c7ae576c-9e45-4946-95f1-1d357dc0ad95","system_id":"levelo_inurba_marseille","lat":43.28703,"lon":5.37407,"is_reserved":false,"is_disabled":false,"rental_uris":{"android":"levelo://app?vid=c7ae576c-9e45-4946-95f1-1d357dc0ad95","ios":"levelo://app?vid=c7ae576c-9e45-4946-95f1-1d357dc0ad95"},"vehicle_type_id":"4","last_reported":1750176838,"current_range_meters":24000,"station_id":"ce4bh3p2rcd13ifvqdq0","pricing_plan_id":"cebpf4jnsgd1na2vs0mg"},{"bike_id":"a7e3a7fb-00ec-4957-ba1e-e92aa3704747","system_id":"levelo_inurba_marseille","lat":43.29041,"lon":5.37567,"is_reserved":false,"is_disabled":false,"rental_uris":{"android":"levelo://app?vid=a7e3a7fb-00ec-4957-ba1e-e92aa3704747","ios":"levelo://app?vid=a7e3a7fb-00ec-4957-ba1e-e92aa3704747"},"vehicle_type_id":"4","last_reported":1750176838,"current_range_meters":24000,"station_id":"ce4bh692rcd13ifvqe90","pricing_plan_id":"cebpf4jnsgd1na2vs0mg"},{"bike_id":"07c74ae7-02d1-4a9c-9233-0bef69a264b4","system_id":"levelo_inurba_marseille","lat":43.23199,"lon":5.35555,"is_reserved":false,"is_disabled":false,"rental_uris":{"android":"levelo://app?vid=07c74ae7-02d1-4a9c-9233-0bef69a264b4","ios":"levelo://app?vid=07c74ae7-02d1-4a9c-9233-0bef69a264b4"},"vehicle_type_id":"4","last_reported":1750176838,"current_range_meters":24000,"station_id":"ce4bhu92rcd13ifvqi70","pricing_plan_id":"cebpf4jnsgd1na2vs0mg"},{"bike_id":"74966967-4262-47a8-b898-c10e45c1f375","system_id":"levelo_inurba_marseille","lat":43.21192,"lon":5.35082,"is_reserved":false,"is_disabled":false,"rental_uris":{"android":"levelo://app?vid=74966967-4262-47a8-b898-c10e45c1f375","ios":"levelo://app?vid=74966967-4262-47a8-b898-c10e45c1f375"},"vehicle_type_id":"4","last_reported":1750176838,"current_range_meters":24000,"station_id":"st_cvj6sg6p6f1abm77japg","pricing_plan_id":"cebpf4jnsgd1na2vs0mg"},{"bike_id":"3c81b915-8573-4c12-b4f1-3cdae1f3ac0d","system_id":"levelo_inurba_marseille","lat":43.29609,"lon":5.40594,"is_reserved":false,"is_disabled":false,"rental_uris":{"android":"levelo://app?vid=3c81b915-8573-4c12-b4f1-3cdae1f3ac0d","ios":"levelo://app?vid=3c81b915-8573-4c12-b4f1-3cdae1f3ac0d"},"vehicle_type_id":"4","last_reported":1750176838,"current_range_meters":24400,"station_id":"","pricing_plan_id":"cebpf4jnsgd1na2vs0mg"},{"bike_id":"db9f2228-7d60-4f90-9f73-0fa394bb1d83","system_id":"levelo_inurba_marseille","lat":43.3092,"lon":5.40142,"is_reserved":false,"is_disabled":false,"rental_uris":{"android":"levelo://app?vid=db9f2228-7d60-4f90-9f73-0fa394bb1d83","ios":"levelo://app?vid=db9f2228-7d60-4f90-9f73-0fa394bb1d83"},"vehicle_type_id":"4","last_reported":1750176838,"current_range_meters":24400,"station_id":"ce4bgvp2rcd13ifvqct0","pricing_plan_id":"cebpf4jnsgd1na2vs0mg"},{"bike_id":"6b3e81e0-19e3-4319-bb9a-1a4115e3e2ed","system_id":"levelo_inurba_marseille","lat":43.28413,"lon":5.37504,"is_reserved":false,"is_disabled":false,"rental_uris":{"android":"levelo://app?vid=6b3e81e0-19e3-4319-bb9a-1a4115e3e2ed","ios":"levelo://app?vid=6b3e81e0-19e3-4319-bb9a-1a4115e3e2ed"},"vehicle_type_id":"4","last_reported":1750176838,"current_range_meters":24400,"station_id":"ce4bh412rcd13ifvqds0","pricing_plan_id":"cebpf4jnsgd1na2vs0mg"},{"bike_id":"f6d037a0-49b2-4c96-9b81-8ef3f4365e90","system_id":"levelo_inurba_marseille","lat":43.28106,"lon":5.37841,"is_reserved":false,"is_disabled":false,"rental_uris":{"android":"levelo://app?vid=f6d037a0-49b2-4c96-9b81-8ef3f4365e90","ios":"levelo://app?vid=f6d037a0-49b2-4c96-9b81-8ef3f4365e90"},"vehicle_type_id":"4","last_reported":1750176838,"current_range_meters":24400,"station_id":"ce4bha12rcd13ifvqee0","pricing_plan_id":"cebpf4jnsgd1na2vs0mg"},{"bike_id":"15cfdff1-249a-4ac8-bb4f-29921564a5e7","system_id":"levelo_inurba_marseille","lat":43.2885,"lon":5.35848,"is_reserved":false,"is_disabled":false,"rental_uris":{"android":"levelo://app?vid=15cfdff1-249a-4ac8-bb4f-29921564a5e7","ios":"levelo://app?vid=15cfdff1-249a-4ac8-bb4f-29921564a5e7"},"vehicle_type_id":"4","last_reported":1750176838,"current_range_meters":24400,"station_id":"ce4bhb12rcd13ifvqem0","pricing_plan_id":"cebpf4jnsgd1na2vs0mg"},{"bike_id":"f581a6ad-403c-42ed-89c8-25a681270ca7","system_id":"levelo_inurba_marseille","lat":43.273673,"lon":5.36229,"is_reserved":false,"is_disabled":false,"rental_uris":{"android":"levelo://app?vid=f581a6ad-403c-42ed-89c8-25a681270ca7","ios":"levelo://app?vid=f581a6ad-403c-42ed-89c8-25a681270ca7"},"vehicle_type_id":"4","last_reported":1750176838,"current_range_meters":24400,"station_id":"ce4bhbh2rcd13ifvqeo0","pricing_plan_id":"cebpf4jnsgd1na2vs0mg"},{"bike_id":"2ed2ae7b-e303-451e-8041-e68de903730f","system_id":"levelo_inurba_marseille","lat":43.24061,"lon":5.37758,"is_reserved":false,"is_disabled":false,"rental_uris":{"android":"levelo://app?vid=2ed2ae7b-e303-451e-8041-e68de903730f","ios":"levelo://app?vid=2ed2ae7b-e303-451e-8041-e68de903730f"},"vehicle_type_id":"4","last_reported":1750176838,"current_range_meters":24400,"station_id":"ce4bhnp2rcd13ifvqgvg","pricing_plan_id":"cebpf4jnsgd1na2vs0mg"},{"bike_id":"a230355a-88aa-4179-9b86-80de9202e7e5","system_id":"levelo_inurba_marseille","lat":43.24057,"lon":5.37754,"is_reserved":false,"is_disabled":false,"rental_uris":{"android":"levelo://app?vid=a230355a-88aa-4179-9b86-80de9202e7e5","ios":"levelo://app?vid=a230355a-88aa-4179-9b86-80de9202e7e5"},