{"last_updated":1739041648,"ttl":60,"version":"2.2","data":{"bikes":[{"bike_id":"b5915fec-635f-4cd9-af3e-fa7e247711b4","system_id":"levelo_inurba_marseille","lat":43.28408,"lon":5.37505,"is_reserved":false,"is_disabled":false,"rental_uris":{"android":"levelo://app?vid=b5915fec-635f-4cd9-af3e-fa7e247711b4","ios":"levelo://app?vid=b5915fec-635f-4cd9-af3e-fa7e247711b4"},"vehicle_type_id":"4","last_reported":1739041648,"current_range_meters":24000,"station_id":"ce4bh412rcd13ifvqds0","pricing_plan_id":"cebpf4jnsgd1na2vs0mg"},{"bike_id":"8bf9c0d5-b42b-43f3-ac16-58c6303bc32c","system_id":"levelo_inurba_marseille","lat":43.27066,"lon":5.42265,"is_reserved":false,"is_disabled":false,"rental_uris":{"android":"levelo://app?vid=8bf9c0d5-b42b-43f3-ac16-58c6303bc32c","ios":"levelo://app?vid=8bf9c0d5-b42b-43f3-ac16-58c6303bc32c"},"vehicle_type_id":"4","last_reported":1739041648,"current_range_meters":18800,"station_id":"ce4bhk92rcd13ifvqgb0","pricing_plan_id":"cebpf4jnsgd1na2vs0mg"},{"bike_id":"24e6347d-30fc-429d-a054-000bdfd80c76","system_id":"levelo_inurba_marseille","lat":43.2827,"lon":5.35055,"is_reserved":false,"is_disabled":false,"rental_uris":{"android":"levelo://app?vid=24e6347d-30fc-429d-a054-000bdfd80c76","ios":"levelo://app?vid=24e6347d-30fc-429d-a054-000bdfd80c76"},"vehicle_type_id":"4","last_reported":1739041648,"current_range_meters":38400,"station_id":"ce4bhbp2rcd13ifvqerg","pricing_plan_id":"cebpf4jnsgd1na2vs0mg"},{"bike_id":"cfa7f1cc-5150-48ed-843c-f6960ddad1e1","system_id":"levelo_inurba_marseille","lat":43.26502,"lon":5.39562,"is_reserved":false,"is_disabled":true,"rental_uris":{"android":"levelo://app?vid=cfa7f1cc-5150-48ed-843c-f6960ddad1e1","ios":"levelo://app?vid=cfa7f1cc-5150-48ed-843c-f6960ddad1e1"},"vehicle_type_id":"4","last_reported":1739041648,"current_range_meters":12800,"station_id":"ce4bhi12rcd13ifvqfq0","pricing_plan_id":"cebpf4jnsgd1na2vs0mg"},{"bike_id":"fb0e234e-108f-4e2d-9520-e41bff530764","system_id":"levelo_inurba_marseille","lat":43.24666,"lon":5.38154,"is_reserved":false,"is_disabled":false,"rental_uris":{"android":"levelo://app?vid=fb0e234e-108f-4e2d-9520-e41bff530764","ios":"levelo://app?vid=fb0e234e-108f-4e2d-9520-e41bff530764"},"vehicle_type_id":"4","last_reported":1739041648,"current_range_meters":35200,"station_id":"ce4bhih2rcd13ifvqfr0","pricing_plan_id":"cebpf4jnsgd1na2vs0mg"},{"bike_id":"e06bad01-5d50-47d2-96c7-a75ef9dc120d","system_id":"levelo_inurba_marseille","lat":43.33754,"lon":5.375,"is_reserved":false,"is_disabled":false,"rental_uris":{"android":"levelo://app?vid=e06bad01-5d50-47d2-96c7-a75ef9dc120d","ios":"levelo://app?vid=e06bad01-5d50-47d2-96c7-a75ef9dc120d"},"vehicle_type_id":"4","last_reported":1739041648,"current_range_meters":24400,"station_id":"","pricing_plan_id":"cebpf4jnsgd1na2vs0mg"},{"bike_id":"f2e06baa-60fe-40f3-9f0e-2b7a9f451081","system_id":"levelo_inurba_marseille","lat":43.2918,"lon":5.39317,"is_reserved":false,"is_disabled":false,"rental_uris":{"android":"levelo://app?vid=f2e06baa-60fe-40f3-9f0e-2b7a9f451081","ios":"levelo://app?vid=f2e06baa-60fe-40f3-9f0e-2b7a9f451081"},"vehicle_type_id":"4","last_reported":1739041648,"current_range_meters":34000,"station_id":"ce4bh192rcd13ifvqdd0","pricing_plan_id":"cebpf4jnsgd1na2vs0mg"},{"bike_id":"7e8bec65-5945-4fa0-8df6-04403a22eb14","system_id":"levelo_inurba_marseille","lat":43.27286,"lon":5.39102,"is_reserved":false,"is_disabled":false,"rental_uris":{"android":"levelo://app?vid=7e8bec65-5945-4fa0-8df6-04403a22eb14","ios":"levelo://app?vid=7e8bec65-5945-4fa0-8df6-04403a22eb14"},"vehicle_type_id":"4","last_reported":1739041648,"current_range_meters":25200,"station_id":"ce4bhgp2rcd13ifvqfe0","pricing_plan_id":"cebpf4jnsgd1na2vs0mg"},{"bike_id":"15c96056-3eec-481e-ae97-810456b5f874","system_id":"levelo_inurba_marseille","lat":43.29514,"lon":5.39027,"is_reserved":false,"is_disabled":false,"rental_uris":{"android":"levelo://app?vid=15c96056-3eec-481e-ae97-810456b5f874","ios":"levelo://app?vid=15c96056-3eec-481e-ae97-810456b5f874"},"vehicle_type_id":"4","last_reported":1739041648,"current_range_meters":39200,"station_id":"ce4bh3p2rcd13ifvqdp0","pricing_plan_id":"cebpf4jnsgd1na2vs0mg"},{"bike_id":"7d76beb3-3577-4e70-b961-5c1ce14ac0c3","system_id":"levelo_inurba_marseille","lat":43.279005,"lon":5.38007,"is_reserved":false,"is_disabled":false,"rental_uris":{"android":"levelo://app?vid=7d76beb3-3577-4e70-b961-5c1ce14ac0c3","ios":"levelo://app?vid=7d76beb3-3577-4e70-b961-5c1ce14ac0c3"},"vehicle_type_id":"4","last_reported":1739041648,"current_range_meters":38800,"station_id":"ce4bhf92rcd13ifvqf50","pricing_plan_id":"cebpf4jnsgd1na2vs0mg"},{"bike_id":"952ab6ee-c71f-431a-a116-28c771dc3a24","system_id":"levelo_inurba_marseille","lat":43.27958,"lon":5.41026,"is_reserved":false,"is_disabled":true,"rental_uris":{"android":"levelo://app?vid=952ab6ee-c71f-431a-a116-28c771dc3a24","ios":"levelo://app?vid=952ab6ee-c71f-431a-a116-28c771dc3a24"},"vehicle_type_id":"4","last_reported":1739041648,"current_range_meters":0,"station_id":"ce4bhnp2rcd13ifvqh0g","pricing_plan_id":"cebpf4jnsgd1na2vs0mg"},{"bike_id":"16179672-8e57-4bd7-883c-f6b0c3f5487d","system_id":"levelo_inurba_marseille","lat":43.29264,"lon":5.38442,"is_reserved":false,"is_disabled":false,"rental_uris":{"android":"levelo://app?vid=16179672-8e57-4bd7-883c-f6b0c3f5487d","ios":"levelo://app?vid=16179672-8e57-4bd7-883c-f6b0c3f5487d"},"vehicle_type_id":"4","last_reported":1739041648,"current_range_meters":20400,"station_id":"ce4bh692rcd13ifvqea0","pricing_plan_id":"cebpf4jnsgd1na2vs0mg"},{"bike_id":"748060b5-b076-40e0-8ffa-ae2ef61bee30","system_id":"levelo_inurba_marseille","lat":43.294171,"lon":5.386257,"is_reserved":false,"is_disabled":false,"rental_uris":{"android":"levelo://app?vid=748060b5-b076-40e0-8ffa-ae2ef61bee30","ios":"levelo://app?vid=748060b5-b076-40e0-8ffa-ae2ef61bee30"},"vehicle_type_id":"4","last_reported":1739041648,"current_range_meters":35200,"station_id":"ce4bh2h2rcd13ifvqdh0","pricing_plan_id":"cebpf4jnsgd1na2vs0mg"},{"bike_id":"f648c896-ae04-434b-b716-9058c2568c14","system_id":"levelo_inurba_marseille","lat":43.29536,"lon":5.38537,"is_reserved":false,"is_disabled":false,"rental_uris":{"android":"levelo://app?vid=f648c896-ae04-434b-b716-9058c2568c14","ios":"levelo://app?vid=f648c896-ae04-434b-b716-9058c2568c14"},"vehicle_type_id":"4","last_reported":1739041648,"current_range_meters":37600,"station_id":"ce4bgih2rcd13ifvqba0","pricing_plan_id":"cebpf4jnsgd1na2vs0mg"},{"bike_id":"f930e62b-f909-4b47-86ea-f616facf64cc","system_id":"levelo_inurba_marseille","lat":43.29934,"lon":5.36525,"is_reserved":false,"is_disabled":false,"rental_uris":{"android":"levelo://app?vid=f930e62b-f909-4b47-86ea-f616facf64cc","ios":"levelo://app?vid=f930e62b-f909-4b47-86ea-f616facf64cc"},"vehicle_type_id":"4","last_reported":1739041648,"current_range_meters":28800,"station_id":"ce4bgm92rcd13ifvqbr0","pricing_plan_id":"cebpf4jnsgd1na2vs0mg"},{"bike_id":"0b570336-f0af-448d-b9b7-744840b1cd28","system_id":"levelo_inurba_marseille","lat":43.29268,"lon":5.3685,"is_reserved":false,"is_disabled":false,"rental_uris":{"android":"levelo://app?vid=0b570336-f0af-448d-b9b7-744840b1cd28","ios":"levelo://app?vid=0b570336-f0af-448d-b9b7-744840b1cd28"},"vehicle_type_id":"4","last_reported":1739041648,"current_range_meters":33200,"station_id":"ce4bhbp2rcd13ifvqesg","pricing_plan_id":"cebpf4jnsgd1na2vs0mg"},{"bike_id":"949ecb89-56e4-4c04-a100-83de2f0eaaf9","system_id":"levelo_inurba_marseille","lat":43.27855,"lon":5.40742,"is_reserved":false,"is_disabled":false,"rental_uris":{"android":"levelo://app?vid=949ecb89-56e4-4c04-a100-83de2f0eaaf9","ios":"levelo://app?vid=949ecb89-56e4-4c04-a100-83de2f0eaaf9"},"vehicle_type_id":"4","last_reported":1739041648,"current_range_meters":27600,"station_id":"","pricing_plan_id":"cebpf4jnsgd1na2vs0mg"},{"bike_id":"6a3bf5dc-6406-4053-977a-019d33b4193c","system_id":"levelo_inurba_marseille","lat":43.28407,"lon":5.37518,"is_reserved":false,"is_disabled":false,"rental_uris":{"android":"levelo://app?vid=6a3bf5dc-6406-4053-977a-019d33b4193c","ios":"levelo://app?vid=6a3bf5dc-6406-4053-977a-019d33b4193c"},"vehicle_type_id":"4","last_reported":1739041648,"current_range_meters":28000,"station_id":"ce4bh412rcd13ifvqds0","pricing_plan_id":"cebpf4jnsgd1na2vs0mg"},{"bike_id":"7b211d7b-aa01-469d-86ee-5ef414e1deef","system_id":"levelo_inurba_marseille","lat":43.29782,"lon":5.39344,"is_reserved":false,"is_disabled":false,"rental_uris":{"android":"levelo://app?vid=7b211d7b-aa01-469d-86ee-5ef414e1deef","ios":"levelo://app?vid=7b211d7b-aa01-469d-86ee-5ef414e1deef"},"vehicle_type_id":"4","last_reported":1739041648,"current_range_meters":19200,"station_id":"chh1huq6cuj3fo74tm60","pricing_plan_id":"cebpf4jnsgd1na2vs0mg"},{"bike_id":"a92bc0c3-079a-47f0-99e6-d552134d15f5","system_id":"levelo_inurba_marseille","lat":43.2755,"lon":5.38417,"is_reserved":false,"is_disabled":false,"rental_uris":{"android":"levelo://app?vid=a92bc0c3-079a-47f0-99e6-d552134d15f5","ios":"levelo://app?vid=a92bc0c3-079a-47f0-99e6-d552134d15f5"},"vehicle_type_id":"4","last_reported":1739041648,"current_range_meters":34800,"station_id":"ce4bhh92rcd13ifvqfi0","pricing_plan_id":"cebpf4jnsgd1na2vs0mg"},{"bike_id":"cd0b1f26-229a-49dc-a632-abc582d835cd","system_id":"levelo_inurba_marseille","lat":43.24543,"lon":5.39527,"is_reserved":false,"is_disabled":false,"rental_uris":{"android":"levelo://app?vid=cd0b1f26-229a-49dc-a632-abc582d835cd","ios":"levelo://app?vid=cd0b1f26-229a-49dc-a632-abc582d835cd"},"vehicle_type_id":"4","last_reported":1739041648,"current_range_meters":38400,"station_id":"ce4bhlp2rcd13ifvqgjg","pricing_plan_id":"cebpf4jnsgd1na2vs0mg"},{"bike_id":"af3b94d5-ac48-4a4f-9581-92e0687b680b","system_id":"levelo_inurba_marseille","lat":43.28695,"lon":5.37389,"is_reserved":false,"is_disabled":false,"rental_uris":{"android":"levelo://app?vid=af3b94d5-ac48-4a4f-9581-92e0687b680b","ios":"levelo://app?vid=af3b94d5-ac48-4a4f-9581-92e0687b680b"},"vehicle_type_id":"4","last_reported":1739041648,"current_range_meters":16400,"station_id":"ce4bh3p2rcd13ifvqdq0","pricing_plan_id":"cebpf4jnsgd1na2vs0mg"},{"bike_id":"cc5be222-f5b9-4564-8357-792e36ef3901","system_id":"levelo_inurba_marseille","lat":43.28025,"lon":5.36948,"is_reserved":false,"is_disabled":false,"rental_uris":{"android":"levelo://app?vid=cc5be222-f5b9-4564-8357-792e36ef3901","ios":"levelo://app?vid=cc5be222-f5b9-4564-8357-792e36ef3901"},"vehicle_type_id":"4","last_reported":1739041648,"current_range_meters":39200,"station_id":"ce4bha12rcd13ifvqef0","pricing_plan_id":"cebpf4jnsgd1na2vs0mg"},{"bike_id":"43a54d2f-1353-44d5-85b7-8a4b39cd0664","system_id":"levelo_inurba_marseille","lat":43.31363,"lon":5.38493,"is_reserved":false,"is_disabled":false,"rental_uris":{"android":"levelo://app?vid=43a54d2f-1353-44d5-85b7-8a4b39cd0664","ios":"levelo://app?vid=43a54d2f-1353-44d5-85b7-8a4b39cd0664"},"vehicle_type_id":"4","last_reported":1739041648,"current_range_meters":32000,"station_id":"ce4bgt92rcd13ifvqcf0","pricing_plan_id":"cebpf4jnsgd1na2vs0mg"},{"bike_id":"3711b840-d678-4287-b469-a5aa91bfc0be","system_id":"levelo_inurba_marseille","lat":43.26211,"lon":5.37443,"is_reserved":false,"is_disabled":false,"rental_uris":{"android":"levelo://app?vid=3711b840-d678-4287-b469-a5aa91bfc0be","ios":"levelo://app?vid=3711b840-d678-4287-b469-a5aa91bfc0be"},"vehicle_type_id":"4","last_reported":1739041648,"current_range_meters":30000,"station_id":"ce4bhgp2rcd13ifvqfc0","pricing_plan_id":"cebpf4jnsgd1na2vs0mg"},{"bike_id":"e1e14f36-dd31-41b8-b8b0-20a6a3868610","system_id":"levelo_inurba_marseille","lat":43.28577,"lon":5.3949,"is_reserved":false,"is_disabled":false,"rental_uris":{"android":"levelo://app?vid=e1e14f36-dd31-41b8-b8b0-20a6a3868610","ios":"levelo://app?vid=e1e14f36-dd31-41b8-b8b0-20a6a3868610"},"vehicle_type_id":"4","last_reported":1739041648,"current_range_meters":35600,"station_id":"ce4bh292rcd13ifvqdg0","pricing_plan_id":"cebpf4jnsgd1na2vs0mg"},{"bike_id":"c7214087-f338-4aa0-87d4-4c782ee32a35","system_id":"levelo_inurba_marseille","lat":43.23967,"lon":5.36651,"is_reserved":false,"is_disabled":false,"rental_uris":{"android":"levelo://app?vid=c7214087-f338-4aa0-87d4-4c782ee32a35","ios":"levelo://app?vid=c7214087-f338-4aa0-87d4-4c782ee32a35"},"vehicle_type_id":"4","last_reported":1739041648,"current_range_meters":16400,"station_id":"ce4bhi12rcd13ifvqfp0","pricing_plan_id":"cebpf4jnsgd1na2vs0mg"},{"bike_id":"d25eec51-bb4e-43cd-9e78-510d5472253f","system_id":"levelo_inurba_marseille","lat":43.262137,"lon":5.374429,"is_reserved":false,"is_disabled":false,"rental_uris":{"android":"levelo://app?vid=d25eec51-bb4e-43cd-9e78-510d5472253f","ios":"levelo://app?vid=d25eec51-bb4e-43cd-9e78-510d5472253f"},"vehicle_type_id":"4","last_reported":1739041648,"current_range_meters":38800,"station_id":"ce4bhgp2rcd13ifvqfc0","pricing_plan_id":"cebpf4jnsgd1na2vs0mg"},{"bike_id":"3047d67e-3367-4bab-bf66-c059c6caf2a6","system_id":"levelo_inurba_marseille","lat":43.26257,"lon":5.40341,"is_reserved":false,"is_disabled":false,"rental_uris":{"android":"levelo://app?vid=3047d67e-3367-4bab-bf66-c059c6caf2a6","ios":"levelo://app?vid=3047d67e-3367-4bab-bf66-c059c6caf2a6"},"vehicle_type_id":"4","last_reported":1739041648,"current_range_meters":28400,"station_id":"ce4bhmh2rcd13ifvqgmg","pricing_plan_id":"cebpf4jnsgd1na2vs0mg"},{"bike_id":"d25bc6a0-30b5-4aa4-922b-fcf83a985386","system_id":"levelo_inurba_marseille","lat":43.23964,"lon":5.36607,"is_reserved":false,"is_disabled":false,"rental_uris":{"android":"levelo://app?vid=d25bc6a0-30b5-4aa4-922b-fcf83a985386","ios":"levelo://app?vid=d25bc6a0-30b5-4aa4-922b-fcf83a985386"},"vehicle_type_id":"4","last_reported":1739041648,"current_range_meters":33600,"station_id":"ce4bhi12rcd13ifvqfp0","pricing_plan_id":"cebpf4jnsgd1na2vs0mg"},{"bike_id":"a70f1194-919c-41f2-a37b-56d6c8618d3f","system_id":"levelo_inurba_marseille","lat":43.26795,"lon":5.39406,"is_reserved":false,"is_disabled":false,"rental_uris":{"android":"levelo://app?vid=a70f1194-919c-41f2-a37b-56d6c8618d3f","ios":"levelo://app?vid=a70f1194-919c-41f2-a37b-56d6c8618d3f"},"vehicle_type_id":"4","last_reported":1739041648,"current_range_meters":12400,"station_id":"ce4bhh12rcd13ifvqfg0","pricing_plan_id":"cebpf4jnsgd1na2vs0mg"},{"bike_id":"db17e1ea-c776-42a7-84e1-d008d91b30e8","system_id":"levelo_inurba_marseille","lat":43.29291,"lon":5.37449,"is_reserved":false,"is_disabled":false,"rental_uris":{"android":"levelo://app?vid=db17e1ea-c776-42a7-84e1-d008d91b30e8","ios":"levelo://app?vid=db17e1ea-c776-42a7-84e1-d008d91b30e8"},"vehicle_type_id":"4","last_reported":1739041648,"current_range_meters":32400,"station_id":"ce4bgi12rcd13ifvqb70","pricing_plan_id":"cebpf4jnsgd1na2vs0mg"},{"bike_id":"5b1ad23e-98a1-47d5-88de-be663b65ff48","system_id":"levelo_inurba_marseille","lat":43.25582,"lon":5.38228,"is_reserved":false,"is_disabled":false,"rental_uris":{"android":"levelo://app?vid=5b1ad23e-98a1-47d5-88de-be663b65ff48","ios":"levelo://app?vid=5b1ad23e-98a1-47d5-88de-be663b65ff48"},"vehicle_type_id":"4","last_reported":1739041648,"current_range_meters":21600,"station_id":"ce4bhih2rcd13ifvqfs0","pricing_plan_id":"cebpf4jnsgd1na2vs0mg"},{"bike_id":"2d6a2e4c-47bb-4bf8-8e22-1e9c987f8b16","system_id":"levelo_inurba_marseille","lat":43.239716,"lon":5.366243,"is_reserved":false,"is_disabled":false,"rental_uris":{"android":"levelo://app?vid=2d6a2e4c-47bb-4bf8-8e22-1e9c987f8b16","ios":"levelo://app?vid=2d6a2e4c-47bb-4bf8-8e22-1e9c987f8b16"},"vehicle_type_id":"4","last_reported":1739041648,"current_range_meters":10800,"station_id":"ce4bhi12rcd13ifvqfp0","pricing_plan_id":"cebpf4jnsgd1na2vs0mg"},{"bike_id":"7dd1a804-3494-49db-a5bb-759f5479bdbd","system_id":"levelo_inurba_marseille","lat":43.28602,"lon":5.37069,"is_reserved":false,"is_disabled":false,"rental_uris":{"android":"levelo://app?vid=7dd1a804-3494-49db-a5bb-759f5479bdbd","ios":"levelo://app?vid=7dd1a804-3494-49db-a5bb-759f5479bdbd"},"vehicle_type_id":"4","last_reported":1739041648,"current_range_meters":38000,"station_id":"ce4bht12rcd13ifvqi60","pricing_plan_id":"cebpf4jnsgd1na2vs0mg"},{"bike_id":"25896d29-b168-42e8-a209-12561d26af8b","system_id":"levelo_inurba_marseille","lat":43.25873,"lon":5.39901,"is_reserved":false,"is_disabled":false,"rental_uris":{"android":"levelo://app?vid=25896d29-b168-42e8-a209-12561d26af8b","ios":"levelo://app?vid=25896d29-b168-42e8-a209-12561d26af8b"},"vehicle_type_id":"4","last_reported":1739041648,"current_range_meters":36800,"station_id":"ce4bhl92rcd13ifvqghg","pricing_plan_id":"cebpf4jnsgd1na2vs0mg"},{"bike_id":"c30965ef-938e-4e04-b1bf-ec639e5d1dc0","system_id":"levelo_inurba_marseille","lat":43.30168,"lon":5.38069,"is_reserved":false,"is_disabled":false,"rental_uris":{"android":"levelo://app?vid=c30965ef-938e-4e04-b1bf-ec639e5d1dc0","ios":"levelo://app?vid=c30965ef-938e-4e04-b1bf-ec639e5d1dc0"},"vehicle_type_id":"4","last_reported":1739041648,"current_range_meters":38800,"station_id":"ce4bgjp2rcd13ifvqbh0","pricing_plan_id":"cebpf4jnsgd1na2vs0mg"},{"bike_id":"098d220b-e449-43ea-8d6d-9fc78e0abad9","system_id":"levelo_inurba_marseille","lat":43.22925,"lon":5.35371,"is_reserved":false,"is_disabled":false,"rental_uris":{"android":"levelo://app?vid=098d220b-e449-43ea-8d6d-9fc78e0abad9","ios":"levelo://app?vid=098d220b-e449-43ea-8d6d-9fc78e0abad9"},"vehicle_type_id":"4","last_reported":1739041648,"current_range_meters":39200,"station_id":"cpo3532slgdg3j2ikp40","pricing_plan_id":"cebpf4jnsgd1na2vs0mg"},{"bike_id":"50f4af82-face-4cc1-836e-cfca28029fd2","system_id":"levelo_inurba_marseille","lat":43.29384,"lon":5.3783,"is_reserved":false,"is_disabled":false,"rental_uris":{"android":"levelo://app?vid=50f4af82-face-4cc1-836e-cfca28029fd2","ios":"levelo://app?vid=50f4af82-face-4cc1-836e-cfca28029fd2"},"vehicle_type_id":"4","last_reported":1739041648,"current_range_meters":38800,"station_id":"ce4bgjh2rcd13ifvqbf0","pricing_plan_id":"cebpf4jnsgd1na2vs0mg"},{"bike_id":"e1dbee30-3f5f-441b-a0c7-2f8908a82158","system_id":"levelo_inurba_marseille","lat":43.2846,"lon":5.35888,"is_reserved":false,"is_disabled":false,"rental_uris":{"android":"levelo://app?vid=e1dbee30-3f5f-441b-a0c7-2f8908a82158","ios":"levelo://app?vid=e1dbee30-3f5f-441b-a0c7-2f8908a82158"},"vehicle_type_id":"4","last_reported":1739041648,"current_range_meters":33200,"station_id":"ce4bhah2rcd13ifvqei0","pricing_plan_id":"cebpf4jnsgd1na2vs0mg"},{"bike_id":"25265f47-6177-48e9-b4ee-d5d5e25bf867","system_id":"levelo_inurba_marseille","lat":43.25741,"lon":5.41115,"is_reserved":false,"is_disabled":false,"rental_uris":{"android":"levelo://app?vid=25265f47-6177-48e9-b4ee-d5d5e25bf867","ios":"levelo://app?vid=25265f47-6177-48e9-b4ee-d5d5e25bf867"},"vehicle_type_id":"4","last_reported":1739041648,"current_range_meters":11600,"station_id":"ce4bhkp2rcd13ifvqgd0","pricing_plan_id":"cebpf4jnsgd1na2vs0mg"},{"bike_id":"e8e7974d-086b-4c50-812d-fcd3fae9665a","system_id":"levelo_inurba_marseille","lat":43.28458,"lon":5.3588,"is_reserved":false,"is_disabled":false,"rental_uris":{"android":"levelo://app?vid=e8e7974d-086b-4c50-812d-fcd3fae9665a","ios":"levelo://app?vid=e8e7974d-086b-4c50-812d-fcd3fae9665a"},"vehicle_type_id":"4","last_reported":1739041648,"current_range_meters":38800,"station_id":"ce4bhah2rcd13ifvqei0","pricing_plan_id":"cebpf4jnsgd1na2vs0mg"},{"bike_id":"eaa3992a-8004-4130-80f3-11e50ecf6c63","system_id":"levelo_inurba_marseille","lat":43.28159,"lon":5.42644,"is_reserved":false,"is_disabled":false,"rental_uris":{"android":"levelo://app?vid=eaa3992a-8004-4130-80f3-11e50ecf6c63","ios":"levelo://app?vid=eaa3992a-8004-4130-80f3-11e50ecf6c63"},"vehicle_type_id":"4","last_reported":1739041648,"current_range_meters":38400,"station_id":"ce4bhnh2rcd13ifvqgug","pricing_plan_id":"cebpf4jnsgd1na2vs0mg"},{"bike_id":"109d8d07-d605-45c4-912d-3e7b38f9a9ae","system_id":"levelo_inurba_marseille","lat":43.24168,"lon":5.36391,"is_reserved":false,"is_disabled":false,"rental_uris":{"android":"levelo://app?vid=109d8d07-d605-45c4-912d-3e7b38f9a9ae","ios":"levelo://app?vid=109d8d07-d605-45c4-912d-3e7b38f9a9ae"},"vehicle_type_id":"4","last_reported":1739041648,"current_range_meters":12000,"station_id":"cpo36qri1sfpv3e86is0","pricing_plan_id":"cebpf4jnsgd1na2vs0mg"},{"bike_id":"25942210-cb49-4e7b-986a-27edd939ad3b","system_id":"levelo_inurba_marseille","lat":43.29007,"lon":5.35619,"is_reserved":false,"is_disabled":false,"rental_uris":{"android":"levelo://app?vid=25942210-cb49-4e7b-986a-27edd939ad3b","ios":"levelo://app?vid=25942210-cb49-4e7b-986a-27edd939ad3b"},"vehicle_type_id":"4","last_reported":1739041648,"current_range_meters":13600,"station_id":"ce4bhb92rcd13ifvqen0","pricing_plan_id":"cebpf4jnsgd1na2vs0mg"},{"bike_id":"e07b323e-81a3-4658-85e3-e50f80e55552","system_id":"levelo_inurba_marseille","lat":43.2989,"lon":5.38895,"is_reserved":false,"is_disabled":false,"rental_uris":{"android":"levelo://app?vid=e07b323e-81a3-4658-85e3-e50f80e55552","ios":"levelo://app?vid=e07b323e-81a3-4658-85e3-e50f80e55552"},"vehicle_type_id":"4","last_reported":1739041648,"current_range_meters":9600,"station_id":"ce4bh392rcd13ifvqdl0","pricing_plan_id":"cebpf4jnsgd1na2vs0mg"},{"bike_id":"2ebd233c-fd15-4f13-9700-c155c053523f","system_id":"levelo_inurba_marseille","lat":43.25915,"lon":5.40885,"is_reserved":false,"is_disabled":true,"rental_uris":{"android":"levelo://app?vid=2ebd233c-fd15-4f13-9700-c155c053523f","ios":"levelo://app?vid=2ebd233c-fd15-4f13-9700-c155c053523f"},"vehicle_type_id":"4","last_reported":1739041648,"current_range_meters":22800,"station_id":"ce4bhm92rcd13ifvqglg","pricing_plan_id":"cebpf4jnsgd1na2vs0mg"},{"bike_id":"39236380-f9cb-4f30-b319-f9333c13c808","system_id":"levelo_inurba_marseille","lat":43.29535,"lon":5.38546,"is_reserved":false,"is_disabled":false,"rental_uris":{"android":"levelo://app?vid=39236380-f9cb-4f30-b319-f9333c13c808","ios":"levelo://app?vid=39236380-f9cb-4f30-b319-f9333c13c808"},"vehicle_type_id":"4","last_reported":1739041648,"current_range_meters":11600,"station_id":"ce4bgih2rcd13ifvqba0","pricing_plan_id":"cebpf4jnsgd1na2vs0mg"},{"bike_id":"2a2e3980-18fd-4908-8900-d9747c29422e","system_id":"levelo_inurba_marseille","lat":43.29892,"lon":5.38166,"is_reserved":false,"is_disabled":false,"rental_uris":{"android":"levelo://app?vid=2a2e3980-18fd-4908-8900-d9747c29422e","ios":"levelo://app?vid=2a2e3980-18fd-4908-8900-d9747c29422e"},"vehicle_type_id":"4","last_reported":1739041648,"current_range_meters":28000,"station_id":"ce4bgj12rcd13ifvqbc0","pricing_plan_id":"cebpf4jnsgd1na2vs0mg"},{"bike_id":"8fdc9d99-5dd6-46ed-933b-a92898878e61","system_id":"levelo_inurba_marseille","lat":43.28099,"lon":5.37902,"is_reserved":false,"is_disabled":false,"rental_uris":{"android":"levelo://app?vid=8fdc9d99-5dd6-46ed-933b-a92898878e61","ios":"levelo://app?vid=8fdc9d99-5dd6-46ed-933b-a92898878e61"},"vehicle_type_id":"4","last_reported":1739041648,"current_range_meters":13600,"station_id":"ce4bha12rcd13ifvqee0","pricing_plan_id":"cebpf4jnsgd1na2vs0mg"},{"bike_id":"c13ae62e-d5d6-4d3f-b979-0be4fe4644ed","system_id":"levelo_inurba_marseille","lat":43.2467,"lon":5.38164,"is_reserved":false,"is_disabled":false,"rental_uris":{"android":"levelo://app?vid=c13ae62e-d5d6-4d3f-b979-0be4fe4644ed","ios":"levelo://app?vid=c13ae62e-d5d6-4d3f-b979-0be4fe4644ed"},"vehicle_type_id":"4","last_reported":1739041648,"current_range_meters":19200,"station_id":"ce4bhih2rcd13ifvqfr0","pricing_plan_id":"cebpf4jnsgd1na2vs0mg"},{"bike_id":"53f878f6-0e30-4d53-86de-bf99042d55b2","system_id":"levelo_inurba_marseille","lat":43.29692,"lon":5.37695,"is_reserved":false,"is_disabled":false,"rental_uris":{"android":"levelo://app?vid=53f878f6-0e30-4d53-86de-bf99042d55b2","ios":"levelo://app?vid=53f878f6-0e30-4d53-86de-bf99042d55b2"},"vehicle_type_id":"4","last_reported":1739041648,"current_range_meters":34000,"station_id":"ce4bgkh2rcd13ifvqbl0","pricing_plan_id":"cebpf4jnsgd1na2vs0mg"},{"bike_id":"31531767-ab87-4aae-a024-597eb257d640","system_id":"levelo_inurba_marseille","lat":43.31193,"lon":5.38705,"is_reserved":false,"is_disabled":false,"rental_uris":{"android":"levelo://app?vid=31531767-ab87-4aae-a024-597eb257d640","ios":"levelo://app?vid=31531767-ab87-4aae-a024-597eb257d640"},"vehicle_type_id":"4","last_reported":1739041648,"current_range_meters":28000,"station_id":"ce4bgv12rcd13ifvqcp0","pricing_plan_id":"cebpf4jnsgd1na2vs0mg"},{"bike_id":"b705f561-dbe8-4485-90d5-75b92e94f765","system_id":"levelo_inurba_marseille","lat":43.27603,"lon":5.38392,"is_reserved":false,"is_disabled":false,"rental_uris":{"android":"levelo://app?vid=b705f561-dbe8-4485-90d5-75b92e94f765","ios":"levelo://app?vid=b705f561-dbe8-4485-90d5-75b92e94f765"},"vehicle_type_id":"4","last_reported":1739041648,"current_range_meters":26800,"station_id":"","pricing_plan_id":"cebpf4jnsgd1na2vs0mg"},{"bike_id":"05248eb5-7269-4903-9e59-0e8e45454d8f","system_id":"levelo_inurba_marseille","lat":43.26948,"lon":5.38633,"is_reserved":false,"is_disabled":false,"rental_uris":{"android":"levelo://app?vid=05248eb5-7269-4903-9e59-0e8e45454d8f","ios":"levelo://app?vid=05248eb5-7269-4903-9e59-0e8e45454d8f"},"vehicle_type_id":"4","last_reported":1739041648,"current_range_meters":36800,"station_id":"ce4bhh92rcd13ifvqfh0","pricing_plan_id":"cebpf4jnsgd1na2vs0mg"},{"bike_id":"dd0ef353-f4d0-4343-891f-decfdefa5c22","system_id":"levelo_inurba_marseille","lat":43.27608,"lon":5.36107,"is_reserved":false,"is_disabled":false,"rental_uris":{"android":"levelo://app?vid=dd0ef353-f4d0-4343-891f-decfdefa5c22","ios":"levelo://app?vid=dd0ef353-f4d0-4343-891f-decfdefa5c22"},"vehicle_type_id":"4","last_reported":1739041648,"current_range_meters":38800,"station_id":"ce4bgj92rcd13ifvqbe0","pricing_plan_id":"cebpf4jnsgd1na2vs0mg"},{"bike_id":"6986b042-d67b-490d-a174-01e67df97cbc","system_id":"levelo_inurba_marseille","lat":43.284201,"lon":5.349888,"is_reserved":false,"is_disabled":false,"rental_uris":{"android":"levelo://app?vid=6986b042-d67b-490d-a174-01e67df97cbc","ios":"levelo://app?vid=6986b042-d67b-490d-a174-01e67df97cbc"},"vehicle_type_id":"4","last_reported":1739041648,"current_range_meters":33600,"station_id":"ce4bhbh2rcd13ifvqepg","pricing_plan_id":"cebpf4jnsgd1na2vs0mg"},{"bike_id":"1026c232-bfb4-4162-9f47-6800f4a5b03a","system_id":"levelo_inurba_marseille","lat":43.31554,"lon":5.37311,"is_reserved":false,"is_disabled":false,"rental_uris":{"android":"levelo://app?vid=1026c232-bfb4-4162-9f47-6800f4a5b03a","ios":"levelo://app?vid=1026c232-bfb4-4162-9f47-6800f4a5b03a"},"vehicle_type_id":"4","last_reported":1739041648,"current_range_meters":34000,"station_id":"","pricing_plan_id":"cebpf4jnsgd1na2vs0mg"},{"bike_id":"89912e32-c5f0-448f-82d2-e236e4d6d653","system_id":"levelo_inurba_marseille","lat":43.28239,"lon":5.40776,"is_reserved":false,"is_disabled":true,"rental_uris":{"android":"levelo://app?vid=89912e32-c5f0-448f-82d2-e236e4d6d653","ios":"levelo://app?vid=89912e32-c5f0-448f-82d2-e236e4d6d653"},"vehicle_type_id":"4","last_reported":1739041648,"current_range_meters":800,"station_id":"","pricing_plan_id":"cebpf4jnsgd1na2vs0mg"},{"bike_id":"d9a64ed3-68f3-407b-88f0-734a3b3f9ebb","system_id":"levelo_inurba_marseille","lat":43.26543,"lon":5.37316,"is_reserved":false,"is_disabled":false,"rental_uris":{"android":"levelo://app?vid=d9a64ed3-68f3-407b-88f0-734a3b3f9ebb","ios":"levelo://app?vid=d9a64ed3-68f3-407b-88f0-734a3b3f9ebb"},"vehicle_type_id":"4","last_reported":1739041648,"current_range_meters":32000,"station_id":"ce4bhg12rcd13ifvqf70","pricing_plan_id":"cebpf4jnsgd1na2vs0mg"},{"bike_id":"07b0c9c7-9389-4511-bb38-b45465fdc042","system_id":"levelo_inurba_marseille","lat":43.28477,"lon":5.35894,"is_reserved":false,"is_disabled":false,"rental_uris":{"android":"levelo://app?vid=07b0c9c7-9389-4511-bb38-b45465fdc042","ios":"levelo://app?vid=07b0c9c7-9389-4511-bb38-b45465fdc042"},"vehicle_type_id":"4","last_reported":1739041648,"current_range_meters":38800,"station_id":"ce4bhah2rcd13ifvqei0","pricing_plan_id":"cebpf4jnsgd1na2vs0mg"},{"bike_id":"a436e2ca-3b1c-44d4-a575-314946b32f12","system_id":"levelo_inurba_marseille","lat":43.25497,"lon":5.37648,"is_reserved":false,"is_disabled":false,"rental_uris":{"android":"levelo://app?vid=a436e2ca-3b1c-44d4-a575-314946b32f12","ios":"levelo://app?vid=a436e2ca-3b1c-44d4-a575-314946b32f12"},"vehicle_type_id":"4","last_reported":1739041648,"current_range_meters":38400,"station_id":"ce4bhh12rcd13ifvqff0","pricing_plan_id":"cebpf4jnsgd1na2vs0mg"},{"bike_id":"fb5a704f-a51b-458c-a6e9-f5586a789b94","system_id":"levelo_inurba_marseille","lat":43.24166,"lon":5.36397,"is_reserved":false,"is_disabled":false,"rental_uris":{"android":"levelo://app?vid=fb5a704f-a51b-458c-a6e9-f5586a789b94","ios":"levelo://app?vid=fb5a704f-a51b-458c-a6e9-f5586a789b94"},"vehicle_type_id":"4","last_reported":1739041648,"current_range_meters":36800,"station_id":"cpo36qri1sfpv3e86is0","pricing_plan_id":"cebpf4jnsgd1na2vs0mg"},{"bike_id":"ec1fc395-8ce7-4960-968b-a938a8fa5732","system_id":"levelo_inurba_marseille","lat":43.28008,"lon":5.40007,"is_reserved":false,"is_disabled":false,"rental_uris":{"android":"levelo://app?vid=ec1fc395-8ce7-4960-968b-a938a8fa5732","ios":"levelo://app?vid=ec1fc395-8ce7-4960-968b-a938a8fa5732"},"vehicle_type_id":"4","last_reported":1739041648,"current_range_meters":38800,"station_id":"ce4bho92rcd13ifvqh4g","pricing_plan_id":"cebpf4jnsgd1na2vs0mg"},{"bike_id":"259246d2-dc7a-4755-b3eb-43d5276244dd","system_id":"levelo_inurba_marseille","lat":43.25867,"lon":5.39894,"is_reserved":false,"is_disabled":false,"rental_uris":{"android":"levelo://app?vid=259246d2-dc7a-4755-b3eb-43d5276244dd","ios":"levelo://app?vid=259246d2-dc7a-4755-b3eb-43d5276244dd"},"vehicle_type_id":"4","last_reported":1739041648,"current_range_meters":8000,"station_id":"ce4bhl92rcd13ifvqghg","pricing_plan_id":"cebpf4jnsgd1na2vs0mg"},{"bike_id":"45a469fc-248d-4b7b-a774-c415d73710b0","system_id":"levelo_inurba_marseille","lat":43.31362,"lon":5.38497,"is_reserved":false,"is_disabled":false,"rental_uris":{"android":"levelo://app?vid=45a469fc-248d-4b7b-a774-c415d73710b0","ios":"levelo://app?vid=45a469fc-248d-4b7b-a774-c415d73710b0"},"vehicle_type_id":"4","last_reported":1739041648,"current_range_meters":39200,"station_id":"ce4bgt92rcd13ifvqcf0","pricing_plan_id":"cebpf4jnsgd1na2vs0mg"},{"bike_id":"a67f595a-d39a-4aa9-a3ca-d876dac175ee","system_id":"levelo_inurba_marseille","lat":43.28856,"lon":5.35857,"is_reserved":false,"is_disabled":false,"rental_uris":{"android":"levelo://app?vid=a67f595a-d39a-4aa9-a3ca-d876dac175ee","ios":"levelo://app?vid=a67f595a-d39a-4aa9-a3ca-d876dac175ee"},"vehicle_type_id":"4","last_reported":1739041648,"current_range_meters":22800,"station_id":"ce4bhb12rcd13ifvqem0","pricing_plan_id":"cebpf4jnsgd1na2vs0mg"},{"bike_id":"ab54e2d0-4c2c-486a-84c7-811ed9008ddc","system_id":"levelo_inurba_marseille","lat":43.27949,"lon":5.42366,"is_reserved":false,"is_disabled":true,"rental_uris":{"android":"levelo://app?vid=ab54e2d0-4c2c-486a-84c7-811ed9008ddc","ios":"levelo://app?vid=ab54e2d0-4c2c-486a-84c7-811ed9008ddc"},"vehicle_type_id":"4","last_reported":1739041648,"current_range_meters":0,"station_id":"","pricing_plan_id":"cebpf4jnsgd1na2vs0mg"},{"bike_id":"04e9976f-fc67-4b3f-9a5f-08268a5eb49c","system_id":"levelo_inurba_marseille","lat":43.2942,"lon":5.38611,"is_reserved":false,"is_disabled":true,"rental_uris":{"android":"levelo://app?vid=04e9976f-fc67-4b3f-9a5f-08268a5eb49c","ios":"levelo://app?vid=04e9976f-fc67-4b3f-9a5f-08268a5eb49c"},"vehicle_type_id":"4","last_reported":1739041648,"current_range_meters":7200,"station_id":"ce4bh2h2rcd13ifvqdh0","pricing_plan_id":"cebpf4jnsgd1na2vs0mg"},{"bike_id":"57e2e598-b5b3-4410-ab59-7bf25a44175d","system_id":"levelo_inurba_marseille","lat":43.29423,"lon":5.38638,"is_reserved":false,"is_disabled":false,"rental_uris":{"android":"levelo://app?vid=57e2e598-b5b3-4410-ab59-7bf25a44175d","ios":"levelo://app?vid=57e2e598-b5b3-4410-ab59-7bf25a44175d"},"vehicle_type_id":"4","last_reported":1739041648,"current_range_meters":34800,"station_id":"ce4bh2h2rcd13ifvqdh0","pricing_plan_id":"cebpf4jnsgd1na2vs0mg"},{"bike_id":"93543844-e0d3-4a0d-8327-7cb4acff52fc","system_id":"levelo_inurba_marseille","lat":43.2943,"lon":5.38633,"is_reserved":false,"is_disabled":false,"rental_uris":{"android":"levelo://app?vid=93543844-e0d3-4a0d-8327-7cb4acff52fc","ios":"levelo://app?vid=93543844-e0d3-4a0d-8327-7cb4acff52fc"},"vehicle_type_id":"4","last_reported":1739041648,"current_range_meters":14800,"station_id":"ce4bh2h2rcd13ifvqdh0","pricing_plan_id":"cebpf4jnsgd1na2vs0mg"},{"bike_id":"b5135d91-2dbc-4326-bda2-20e06e74cbe2","system_id":"levelo_inurba_marseille","lat":43.29627,"lon":5.37016,"is_reserved":false,"is_disabled":false,"rental_uris":{"android":"levelo://app?vid=b5135d91-2dbc-4326-bda2-20e06e74cbe2","ios":"levelo://app?vid=b5135d91-2dbc-4326-bda2-20e06e74cbe2"},"vehicle_type_id":"4","last_reported":1739041648,"current_range_meters":19600,"station_id":"","pricing_plan_id":"cebpf4jnsgd1na2vs0mg"},{"bike_id":"6835673f-f138-4499-8bdd-83c3f3bccf33","system_id":"levelo_inurba_marseille","lat":43.28,"lon":5.40015,"is_reserved":false,"is_disabled":false,"rental_uris":{"android":"levelo://app?vid=6835673f-f138-4499-8bdd-83c3f3bccf33","ios":"levelo://app?vid=6835673f-f138-4499-8bdd-83c3f3bccf33"},"vehicle_type_id":"4","last_reported":1739041648,"current_range_meters":33600,"station_id":"ce4bho92rcd13ifvqh4g","pricing_plan_id":"cebpf4jnsgd1na2vs0mg"},{"bike_id":"bb1bab95-412e-41ba-879a-c483b6ec0924","system_id":"levelo_inurba_marseille","lat":43.27798,"lon":5.40721,"is_reserved":false,"is_disabled":false,"rental_uris":{"android":"levelo://app?vid=bb1bab95-412e-41ba-879a-c483b6ec0924","ios":"levelo://app?vid=bb1bab95-412e-41ba-879a-c483b6ec0924"},"vehicle_type_id":"4","last_reported":1739041648,"current_range_meters":11600,"station_id":"ce4bhnh2rcd13ifvqgtg","pricing_plan_id":"cebpf4jnsgd1na2vs0mg"},{"bike_id":"6e358927-ff7d-49ba-8b74-937ec069bd4e","system_id":"levelo_inurba_marseille","lat":43.28622,"lon":5.35129,"is_reserved":false,"is_disabled":false,"rental_uris":{"android":"levelo://app?vid=6e358927-ff7d-49ba-8b74-937ec069bd4e","ios":"levelo://app?vid=6e358927-ff7d-49ba-8b74-937ec069bd4e"},"vehicle_type_id":"4","last_reported":1739041648,"current_range_meters":20400,"station_id":"ce4bhch2rcd13ifvqeug","pricing_plan_id":"cebpf4jnsgd1na2vs0mg"},{"bike_id":"6a58dd11-a579-4519-84ef-72d462a0e689","system_id":"levelo_inurba_marseille","lat":43.3249,"lon":5.42968,"is_reserved":false,"is_disabled":false,"rental_uris":{"android":"levelo://app?vid=6a58dd11-a579-4519-84ef-72d462a0e689","ios":"levelo://app?vid=6a58dd11-a579-4519-84ef-72d462a0e689"},"vehicle_type_id":"4","last_reported":1739041648,"current_range_meters":23200,"station_id":"","pricing_plan_id":"cebpf4jnsgd1na2vs0mg"},{"bike_id":"5e4cfe55-ab3e-4fab-97ff-7a70b51ae8c0","system_id":"levelo_inurba_marseille","lat":43.2961,"lon":5.381,"is_reserved":false,"is_disabled":false,"rental_uris":{"android":"levelo://app?vid=5e4cfe55-ab3e-4fab-97ff-7a70b51ae8c0","ios":"levelo://app?vid=5e4cfe55-ab3e-4fab-97ff-7a70b51ae8c0"},"vehicle_type_id":"4","last_reported":1739041648,"current_range_meters":36000,"station_id":"ce4bgl12rcd13ifvqbo0","pricing_plan_id":"cebpf4jnsgd1na2vs0mg"},{"bike_id":"9ee17cc6-94b6-42f9-a180-22e25ec3ed8d","system_id":"levelo_inurba_marseille","lat":43.28693,"lon":5.37388,"is_reserved":false,"is_disabled":true,"rental_uris":{"android":"levelo://app?vid=9ee17cc6-94b6-42f9-a180-22e25ec3ed8d","ios":"levelo://app?vid=9ee17cc6-94b6-42f9-a180-22e25ec3ed8d"},"vehicle_type_id":"4","last_reported":1739041648,"current_range_meters":11600,"station_id":"ce4bh3p2rcd13ifvqdq0","pricing_plan_id":"cebpf4jnsgd1na2vs0mg"},{"bike_id":"a9faae4d-75a6-46b9-b2bf-bee95ee027d1","system_id":"levelo_inurba_marseille","lat":43.29116,"lon":5.38168,"is_reserved":false,"is_disabled":false,"rental_uris":{"android":"levelo://app?vid=a9faae4d-75a6-46b9-b2bf-bee95ee027d1","ios":"levelo://app?vid=a9faae4d-75a6-46b9-b2bf-bee95ee027d1"},"vehicle_type_id":"4","last_reported":1739041648,"current_range_meters":38800,"station_id":"ce4bh512rcd13ifvqe2g","pricing_plan_id":"cebpf4jnsgd1na2vs0mg"},{"bike_id":"9b7a8c62-e473-4d07-971b-e94975d6428e","system_id":"levelo_inurba_marseille","lat":43.32376,"lon":5.38877,"is_reserved":false,"is_disabled":false,"rental_uris":{"android":"levelo://app?vid=9b7a8c62-e473-4d07-971b-e94975d6428e","ios":"levelo://app?vid=9b7a8c62-e473-4d07-971b-e94975d6428e"},"vehicle_type_id":"4","last_reported":1739041648,"current_range_meters":13600,"station_id":"ce4bhqp2rcd13ifvqhog","pricing_plan_id":"cebpf4jnsgd1na2vs0mg"},{"bike_id":"70ac1a4f-6f86-42ba-b8c6-93e2a4c4f9f8","system_id":"levelo_inurba_marseille","lat":43.25505,"lon":5.37648,"is_reserved":false,"is_disabled":false,"rental_uris":{"android":"levelo://app?vid=70ac1a4f-6f86-42ba-b8c6-93e2a4c4f9f8","ios":"levelo://app?vid=70ac1a4f-6f86-42ba-b8c6-93e2a4c4f9f8"},"vehicle_type_id":"4","last_reported":1739041648,"current_range_meters":38800,"station_id":"ce4bhh12rcd13ifvqff0","pricing_plan_id":"cebpf4jnsgd1na2vs0mg"},{"bike_id":"2e0cc48f-a05e-4597-918e-2adbfd2eaa2f","system_id":"levelo_inurba_marseille","lat":43.29434,"lon":5.38618,"is_reserved":false,"is_disabled":false,"rental_uris":{"android":"levelo://app?vid=2e0cc48f-a05e-4597-918e-2adbfd2eaa2f","ios":"levelo://app?vid=2e0cc48f-a05e-4597-918e-2adbfd2eaa2f"},"vehicle_type_id":"4","last_reported":1739041648,"current_range_meters":38400,"station_id":"ce4bh2h2rcd13ifvqdh0","pricing_plan_id":"cebpf4jnsgd1na2vs0mg"},{"bike_id":"d7cfd9fc-9f1a-4a50-b63e-d046f2d7ec5b","system_id":"levelo_inurba_marseille","lat":43.29626,"lon":5.37152,"is_reserved":false,"is_disabled":false,"rental_uris":{"android":"levelo://app?vid=d7cfd9fc-9f1a-4a50-b63e-d046f2d7ec5b","ios":"levelo://app?vid=d7cfd9fc-9f1a-4a50-b63e-d046f2d7ec5b"},"vehicle_type_id":"4","last_reported":1739041648,"current_range_meters":36400,"station_id":"ce4bgnh2rcd13ifvqc0g","pricing_plan_id":"cebpf4jnsgd1na2vs0mg"},{"bike_id":"b8592e76-a51f-490c-9e3b-ff63d3a6602e","system_id":"levelo_inurba_marseille","lat":43.27301,"lon":5.39129,"is_reserved":false,"is_disabled":false,"rental_uris":{"android":"levelo://app?vid=b8592e76-a51f-490c-9e3b-ff63d3a6602e","ios":"levelo://app?vid=b8592e76-a51f-490c-9e3b-ff63d3a6602e"},"vehicle_type_id":"4","last_reported":1739041648,"current_range_meters":14400,"station_id":"ce4bhgp2rcd13ifvqfe0","pricing_plan_id":"cebpf4jnsgd1na2vs0mg"},{"bike_id":"77bce0c4-dfc6-4a87-8330-293a6fda88a5","system_id":"levelo_inurba_marseille","lat":43.30895,"lon":5.37184,"is_reserved":false,"is_disabled":false,"rental_uris":{"android":"levelo://app?vid=77bce0c4-dfc6-4a87-8330-293a6fda88a5","ios":"levelo://app?vid=77bce0c4-dfc6-4a87-8330-293a6fda88a5"},"vehicle_type_id":"4","last_reported":1739041648,"current_range_meters":11600,"station_id":"ce4bguh2rcd13ifvqckg","pricing_plan_id":"cebpf4jnsgd1na2vs0mg"},{"bike_id":"187375a2-49e4-46d1-b02c-429ac3db4d24","system_id":"levelo_inurba_marseille","lat":43.28607,"lon":5.35103,"is_reserved":false,"is_disabled":false,"rental_uris":{"android":"levelo://app?vid=187375a2-49e4-46d1-b02c-429ac3db4d24","ios":"levelo://app?vid=187375a2-49e4-46d1-b02c-429ac3db4d24"},"vehicle_type_id":"4","last_reported":1739041648,"current_range_meters":26800,"station_id":"ce4bhch2rcd13ifvqeug","pricing_plan_id":"cebpf4jnsgd1na2vs0mg"},{"bike_id":"ee3923b2-9a73-4656-9d0a-7dd3b9627528","system_id":"levelo_inurba_marseille","lat":43.29288,"lon":5.37152,"is_reserved":false,"is_disabled":false,"rental_uris":{"android":"levelo://app?vid=ee3923b2-9a73-4656-9d0a-7dd3b9627528","ios":"levelo://app?vid=ee3923b2-9a73-4656-9d0a-7dd3b9627528"},"vehicle_type_id":"4","last_reported":1739041648,"current_range_meters":36000,"station_id":"ce4bgh92rcd13ifvqb40","pricing_plan_id":"cebpf4jnsgd1na2vs0mg"},{"bike_id":"0ccae692-16fa-48e3-88e0-236b5491d838","system_id":"levelo_inurba_marseille","lat":43.33732,"lon":5.39185,"is_reserved":false,"is_disabled":false,"rental_uris":{"android":"levelo://app?vid=0ccae692-16fa-48e3-88e0-236b5491d838","ios":"levelo://app?vid=0ccae692-16fa-48e3-88e0-236b5491d838"},"vehicle_type_id":"4","last_reported":1739041648,"current_range_meters":38800,"station_id":"ce4bhr92rcd13ifvqhsg","pricing_plan_id":"cebpf4jnsgd1na2vs0mg"},{"bike_id":"4e53624a-1341-4269-a631-c3beec6255ac","system_id":"levelo_inurba_marseille","lat":43.31342,"lon":5.39705,"is_reserved":false,"is_disabled":false,"rental_uris":{"android":"levelo://app?vid=4e53624a-1341-4269-a631-c3beec6255ac","ios":"levelo://app?vid=4e53624a-1341-4269-a631-c3beec6255ac"},"vehicle_type_id":"4","last_reported":1739041648,"current_range_meters":38800,"station_id":"ce4bgvp2rcd13ifvqcu0","pricing_plan_id":"cebpf4jnsgd1na2vs0mg"},{"bike_id":"bb6f1455-5425-407a-883d-18fcd200300e","system_id":"levelo_inurba_marseille","lat":43.29263,"lon":5.38443,"is_reserved":false,"is_disabled":false,"rental_uris":{"android":"levelo://app?vid=bb6f1455-5425-407a-883d-18fcd200300e","ios":"levelo://app?vid=bb6f1455-5425-407a-883d-18fcd200300e"},"vehicle_type_id":"4","last_reported":1739041648,"current_range_meters":36800,"station_id":"ce4bh692rcd13ifvqea0","pricing_plan_id":"cebpf4jnsgd1na2vs0mg"},{"bike_id":"7451a950-b3d2-4f9d-acf4-2ab5eea81be4","system_id":"levelo_inurba_marseille","lat":43.29571,"lon":5.3998,"is_reserved":false,"is_disabled":false,"rental_uris":{"android":"levelo://app?vid=7451a950-b3d2-4f9d-acf4-2ab5eea81be4","ios":"levelo://app?vid=7451a950-b3d2-4f9d-acf4-2ab5eea81be4"},"vehicle_type_id":"4","last_reported":1739041648,"current_range_meters":38800,"station_id":"ce4bh312rcd13ifvqdj0","pricing_plan_id":"cebpf4jnsgd1na2vs0mg"},{"bike_id":"24e9877f-a032-43da-83b1-014de9cc02bd","system_id":"levelo_inurba_marseille","lat":43.31893,"lon":5.40735,"is_reserved":false,"is_disabled":false,"rental_uris":{"android":"levelo://app?vid=24e9877f-a032-43da-83b1-014de9cc02bd","ios":"levelo://app?vid=24e9877f-a032-43da-83b1-014de9cc02bd"},"vehicle_type_id":"4","last_reported":1739041648,"current_range_meters":38400,"station_id":"ce4bhq12rcd13ifvqhig","pricing_plan_id":"cebpf4jnsgd1na2vs0mg"},{"bike_id":"e0bf26a6-5b95-4cf1-acec-2b57815a9a76","system_id":"levelo_inurba_marseille","lat":43.248,"lon":5.37461,"is_reserved":false,"is_disabled":false,"rental_uris":{"android":"levelo://app?vid=e0bf26a6-5b95-4cf1-acec-2b57815a9a76","ios":"levelo://app?vid=e0bf26a6-5b95-4cf1-acec-2b57815a9a76"},"vehicle_type_id":"4","last_reported":1739041648,"current_range_meters":15200,"station_id":"ce4bhgh2rcd13ifvqfb0","pricing_plan_id":"cebpf4jnsgd1na2vs0mg"},{"bike_id":"c9b8d1e0-58df-44e2-9deb-07982b74bf5a","system_id":"levelo_inurba_marseille","lat":43.287,"lon":5.37384,"is_reserved":false,"is_disabled":false,"rental_uris":{"android":"levelo://app?vid=c9b8d1e0-58df-44e2-9deb-07982b74bf5a","ios":"levelo://app?vid=c9b8d1e0-58df-44e2-9deb-07982b74bf5a"},"vehicle_type_id":"4","last_reported":1739041648,"current_range_meters":12800,"station_id":"ce4bh3p2rcd13ifvqdq0","pricing_plan_id":"cebpf4jnsgd1na2vs0mg"},{"bike_id":"38fdb758-c3be-4256-aad6-df19b41d8d0a","system_id":"levelo_inurba_marseille","lat":43.31764,"lon":5.39022,"is_reserved":false,"is_disabled":false,"rental_uris":{"android":"levelo://app?vid=38fdb758-c3be-4256-aad6-df19b41d8d0a","ios":"levelo://app?vid=38fdb758-c3be-4256-aad6-df19b41d8d0a"},"vehicle_type_id":"4","last_reported":1739041648,"current_range_meters":36800,"station_id":"ce4bhqp2rcd13ifvqhng","pricing_plan_id":"cebpf4jnsgd1na2vs0mg"},{"bike_id":"5a59290d-9728-4814-baf8-9c6b635a9a2a","system_id":"levelo_inurba_marseille","lat":43.32498,"lon":5.36563,"is_reserved":false,"is_disabled":false,"rental_uris":{"android":"levelo://app?vid=5a59290d-9728-4814-baf8-9c6b635a9a2a","ios":"levelo://app?vid=5a59290d-9728-4814-baf8-9c6b635a9a2a"},"vehicle_type_id":"4","last_reported":1739041648,"current_range_meters":39200,"station_id":"ce4bhs12rcd13ifvqhvg","pricing_plan_id":"cebpf4jnsgd1na2vs0mg"},{"bike_id":"330fbe93-53ac-47fe-a1df-4554404fe37b","system_id":"levelo_inurba_marseille","lat":43.30884,"lon":5.37189,"is_reserved":false,"is_disabled":false,"rental_uris":{"android":"levelo://app?vid=330fbe93-53ac-47fe-a1df-4554404fe37b","ios":"levelo://app?vid=330fbe93-53ac-47fe-a1df-4554404fe37b"},"vehicle_type_id":"4","last_reported":1739041648,"current_range_meters":27600,"station_id":"ce4bguh2rcd13ifvqckg","pricing_plan_id":"cebpf4jnsgd1na2vs0mg"},{"bike_id":"71f25586-0a06-455d-a7ed-26c4be85f9ec","system_id":"levelo_inurba_marseille","lat":43.28602,"lon":5.37058,"is_reserved":false,"is_disabled":false,"rental_uris":{"android":"levelo://app?vid=71f25586-0a06-455d-a7ed-26c4be85f9ec","ios":"levelo://app?vid=71f25586-0a06-455d-a7ed-26c4be85f9ec"},"vehicle_type_id":"4","last_reported":1739041648,"current_range_meters":24800,"station_id":"ce4bht12rcd13ifvqi60","pricing_plan_id":"cebpf4jnsgd1na2vs0mg"},{"bike_id":"52fe56a9-f0a8-42d0-b5b4-0783f930fcd4","system_id":"levelo_inurba_marseille","lat":43.3302,"lon":5.39031,"is_reserved":false,"is_disabled":false,"rental_uris":{"android":"levelo://app?vid=52fe56a9-f0a8-42d0-b5b4-0783f930fcd4","ios":"levelo://app?vid=52fe56a9-f0a8-42d0-b5b4-0783f930fcd4"},"vehicle_type_id":"4","last_reported":1739041648,"current_range_meters":24000,"station_id":"ce4bhr92rcd13ifvqhrg","pricing_plan_id":"cebpf4jnsgd1na2vs0mg"},{"bike_id":"f67b7531-6c63-4f46-a9d4-4fdf588facb0","system_id":"levelo_inurba_marseille","lat":43.278699,"lon":5.406086,"is_reserved":false,"is_disabled":true,"rental_uris":{"android":"levelo://app?vid=f67b7531-6c63-4f46-a9d4-4fdf588facb0","ios":"levelo://app?vid=f67b7531-6c63-4f46-a9d4-4fdf588facb0"},"vehicle_type_id":"4","last_reported":1739041648,"current_range_meters":0,"station_id":"","pricing_plan_id":"cebpf4jnsgd1na2vs0mg"},{"bike_id":"49ccfcf8-6b00-40b0-8f5f-6dae137ad16c","system_id":"levelo_inurba_marseille","lat":43.30274,"lon":5.36891,"is_reserved":false,"is_disabled":false,"rental_uris":{"android":"levelo://app?vid=49ccfcf8-6b00-40b0-8f5f-6dae137ad16c","ios":"levelo://app?vid=49ccfcf8-6b00-40b0-8f5f-6dae137ad16c"},"vehicle_type_id":"4","last_reported":1739041648,"current_range_meters":36400,"station_id":"ce4bgqh2rcd13ifvqc5g","pricing_plan_id":"cebpf4jnsgd1na2vs0mg"},{"bike_id":"ccc0d99a-4f06-4847-88ea-bfbf26a9a708","system_id":"levelo_inurba_marseille","lat":43.27369,"lon":5.36258,"is_reserved":false,"is_disabled":false,"rental_uris":{"android":"levelo://app?vid=ccc0d99a-4f06-4847-88ea-bfbf26a9a708","ios":"levelo://app?vid=ccc0d99a-4f06-4847-88ea-bfbf26a9a708"},"vehicle_type_id":"4","last_reported":1739041648,"current_range_meters":38800,"station_id":"ce4bhbh2rcd13ifvqeo0","pricing_plan_id":"cebpf4jnsgd1na2vs0mg"},{"bike_id":"daccefc5-f4f0-499c-b0ad-e75d5edba8c7","system_id":"levelo_inurba_marseille","lat":43.2943,"lon":5.38627,"is_reserved":false,"is_disabled":false,"rental_uris":{"android":"levelo://app?vid=daccefc5-f4f0-499c-b0ad-e75d5edba8c7","ios":"levelo://app?vid=daccefc5-f4f0-499c-b0ad-e75d5edba8c7"},"vehicle_type_id":"4","last_reported":1739041648,"current_range_meters":38800,"station_id":"ce4bh2h2rcd13ifvqdh0","pricing_plan_id":"cebpf4jnsgd1na2vs0mg"},{"bike_id":"a1ff6a73-36b2-4a61-a88f-8f0cc16371c7","system_id":"levelo_inurba_marseille","lat":43.2622,"lon":5.4045,"is_reserved":false,"is_disabled":false,"rental_uris":{"android":"levelo://app?vid=a1ff6a73-36b2-4a61-a88f-8f0cc16371c7","ios":"levelo://app?vid=a1ff6a73-36b2-4a61-a88f-8f0cc16371c7"},"vehicle_type_id":"4","last_reported":1739041648,"current_range_meters":32000,"station_id":"ce4bhmh2rcd13ifvqgmg","pricing_plan_id":"cebpf4jnsgd1na2vs0mg"},{"bike_id":"95142193-e7ab-4f84-8e06-dfbe95511df7","system_id":"levelo_inurba_marseille","lat":43.29324,"lon":5.37439,"is_reserved":false,"is_disabled":false,"rental_uris":{"android":"levelo://app?vid=95142193-e7ab-4f84-8e06-dfbe95511df7","ios":"levelo://app?vid=95142193-e7ab-4f84-8e06-dfbe95511df7"},"vehicle_type_id":"4","last_reported":1739041648,"current_range_meters":24800,"station_id":"ce4bgi12rcd13ifvqb70","pricing_plan_id":"cebpf4jnsgd1na2vs0mg"},{"bike_id":"359b6247-0c56-4066-9203-ed98a21ba5b2","system_id":"levelo_inurba_marseille","lat":43.27547,"lon":5.3842,"is_reserved":false,"is_disabled":false,"rental_uris":{"android":"levelo://app?vid=359b6247-0c56-4066-9203-ed98a21ba5b2","ios":"levelo://app?vid=359b6247-0c56-4066-9203-ed98a21ba5b2"},"vehicle_type_id":"4","last_reported":1739041648,"current_range_meters":38800,"station_id":"ce4bhh92rcd13ifvqfi0","pricing_plan_id":"cebpf4jnsgd1na2vs0mg"},{"bike_id":"40b221ed-8398-44a6-9294-97ea8af9ebdc","system_id":"levelo_inurba_marseille","lat":43.28031,"lon":5.36944,"is_reserved":false,"is_disabled":false,"rental_uris":{"android":"levelo://app?vid=40b221ed-8398-44a6-9294-97ea8af9ebdc","ios":"levelo://app?vid=40b221ed-8398-44a6-9294-97ea8af9ebdc"},"vehicle_type_id":"4","last_reported":1739041648,"current_range_meters":31200,"station_id":"ce4bha12rcd13ifvqef0","pricing_plan_id":"cebpf4jnsgd1na2vs0mg"},{"bike_id":"6582ead2-31f7-4ffd-b92e-c00d93770478","system_id":"levelo_inurba_marseille","lat":43.29194,"lon":5.393,"is_reserved":false,"is_disabled":false,"rental_uris":{"android":"levelo://app?vid=6582ead2-31f7-4ffd-b92e-c00d93770478","ios":"levelo://app?vid=6582ead2-31f7-4ffd-b92e-c00d93770478"},"vehicle_type_id":"4","last_reported":1739041648,"current_range_meters":16800,"station_id":"ce4bh192rcd13ifvqdd0","pricing_plan_id":"cebpf4jnsgd1na2vs0mg"},{"bike_id":"913b075c-01e4-4282-8e86-8307769ca068","system_id":"levelo_inurba_marseille","lat":43.293022,"lon":5.371715,"is_reserved":false,"is_disabled":false,"rental_uris":{"android":"levelo://app?vid=913b075c-01e4-4282-8e86-8307769ca068","ios":"levelo://app?vid=913b075c-01e4-4282-8e86-8307769ca068"},"vehicle_type_id":"4","last_reported":1739041648,"current_range_meters":36800,"station_id":"ce4bgh92rcd13ifvqb40","pricing_plan_id":"cebpf4jnsgd1na2vs0mg"},{"bike_id":"eeb1626b-d9a7-4181-8530-ac28fa96e047","system_id":"levelo_inurba_marseille","lat":43.29042,"lon":5.35911,"is_reserved":false,"is_disabled":false,"rental_uris":{"android":"levelo://app?vid=eeb1626b-d9a7-4181-8530-ac28fa96e047","ios":"levelo://app?vid=eeb1626b-d9a7-4181-8530-ac28fa96e047"},"vehicle_type_id":"4","last_reported":1739041648,"current_range_meters":35200,"station_id":"ce4bha92rcd13ifvqeg0","pricing_plan_id":"cebpf4jnsgd1na2vs0mg"},{"bike_id":"07ab6819-0209-411c-99c4-14fb9ed8b3d8","system_id":"levelo_inurba_marseille","lat":43.29424,"lon":5.38645,"is_reserved":false,"is_disabled":false,"rental_uris":{"android":"levelo://app?vid=07ab6819-0209-411c-99c4-14fb9ed8b3d8","ios":"levelo://app?vid=07ab6819-0209-411c-99c4-14fb9ed8b3d8"},"vehicle_type_id":"4","last_reported":1739041648,"current_range_meters":25200,"station_id":"ce4bh2h2rcd13ifvqdh0","pricing_plan_id":"cebpf4jnsgd1na2vs0mg"},{"bike_id":"23644462-c1de-4e99-a2e9-4d0c9cf86788","system_id":"levelo_inurba_marseille","lat":43.3121,"lon":5.36879,"is_reserved":false,"is_disabled":false,"rental_uris":{"android":"levelo://app?vid=23644462-c1de-4e99-a2e9-4d0c9cf86788","ios":"levelo://app?vid=23644462-c1de-4e99-a2e9-4d0c9cf86788"},"vehicle_type_id":"4","last_reported":1739041648,"current_range_meters":34000,"station_id":"ce4bgl92rcd13ifvqbq0","pricing_plan_id":"cebpf4jnsgd1na2vs0mg"},{"bike_id":"dc0bd5cb-7c4c-4766-a75c-252e7bb9898a","system_id":"levelo_inurba_marseille","lat":43.31359,"lon":5.38485,"is_reserved":false,"is_disabled":false,"rental_uris":{"android":"levelo://app?vid=dc0bd5cb-7c4c-4766-a75c-252e7bb9898a","ios":"levelo://app?vid=dc0bd5cb-7c4c-4766-a75c-252e7bb9898a"},"vehicle_type_id":"4","last_reported":1739041648,"current_range_meters":36800,"station_id":"ce4bgt92rcd13ifvqcf0","pricing_plan_id":"cebpf4jnsgd1na2vs0mg"},{"bike_id":"328f0fee-14df-4fdb-9b48-360d557747e5","system_id":"levelo_inurba_marseille","lat":43.26028,"lon":5.37536,"is_reserved":false,"is_disabled":false,"rental_uris":{"android":"levelo://app?vid=328f0fee-14df-4fdb-9b48-360d557747e5","ios":"levelo://app?vid=328f0fee-14df-4fdb-9b48-360d557747e5"},"vehicle_type_id":"4","last_reported":1739041648,"current_range_meters":38800,"station_id":"ce4bhgh2rcd13ifvqfa0","pricing_plan_id":"cebpf4jnsgd1na2vs0mg"},{"bike_id":"e0b07caf-0c67-4761-bf76-d21392cab016","system_id":"levelo_inurba_marseille","lat":43.27812,"lon":5.40706,"is_reserved":false,"is_disabled":false,"rental_uris":{"android":"levelo://app?vid=e0b07caf-0c67-4761-bf76-d21392cab016","ios":"levelo://app?vid=e0b07caf-0c67-4761-bf76-d21392cab016"},"vehicle_type_id":"4","last_reported":1739041648,"current_range_meters":19200,"station_id":"ce4bhnh2rcd13ifvqgtg","pricing_plan_id":"cebpf4jnsgd1na2vs0mg"},{"bike_id":"d1309ebe-19e1-42a9-9538-70a9f6ed6f48","system_id":"levelo_inurba_marseille","lat":43.29279,"lon":5.4012,"is_reserved":false,"is_disabled":false,"rental_uris":{"android":"levelo://app?vid=d1309ebe-19e1-42a9-9538-70a9f6ed6f48","ios":"levelo://app?vid=d1309ebe-19e1-42a9-9538-70a9f6ed6f48"},"vehicle_type_id":"4","last_reported":1739041648,"current_range_meters":8400,"station_id":"ce4bh312rcd13ifvqdk0","pricing_plan_id":"cebpf4jnsgd1na2vs0mg"},{"bike_id":"22219a69-ff6e-4128-9c66-6e0ba4f7f3c6","system_id":"levelo_inurba_marseille","lat":43.26213,"lon":5.37914,"is_reserved":false,"is_disabled":false,"rental_uris":{"android":"levelo://app?vid=22219a69-ff6e-4128-9c66-6e0ba4f7f3c6","ios":"levelo://app?vid=22219a69-ff6e-4128-9c66-6e0ba4f7f3c6"},"vehicle_type_id":"4","last_reported":1739041648,"current_range_meters":38800,"station_id":"ce4bhjp2rcd13ifvqg90","pricing_plan_id":"cebpf4jnsgd1na2vs0mg"},{"bike_id":"0183f406-ed65-4b89-9e11-0aa1281bad01","system_id":"levelo_inurba_marseille","lat":43.28849,"lon":5.39306,"is_reserved":false,"is_disabled":false,"rental_uris":{"android":"levelo://app?vid=0183f406-ed65-4b89-9e11-0aa1281bad01","ios":"levelo://app?vid=0183f406-ed65-4b89-9e11-0aa1281bad01"},"vehicle_type_id":"4","last_reported":1739041648,"current_range_meters":34000,"station_id":"ce4bh2p2rcd13ifvqdi0","pricing_plan_id":"cebpf4jnsgd1na2vs0mg"},{"bike_id":"3c434100-0ec7-4174-be49-81df709efba1","system_id":"levelo_inurba_marseille","lat":43.2653,"lon":5.39539,"is_reserved":false,"is_disabled":false,"rental_uris":{"android":"levelo://app?vid=3c434100-0ec7-4174-be49-81df709efba1","ios":"levelo://app?vid=3c434100-0ec7-4174-be49-81df709efba1"},"vehicle_type_id":"4","last_reported":1739041648,"current_range_meters":23200,"station_id":"ce4bhi12rcd13ifvqfq0","pricing_plan_id":"cebpf4jnsgd1na2vs0mg"},{"bike_id":"c6fc4b4a-5347-4905-8d96-67ea4d004656","system_id":"levelo_inurba_marseille","lat":43.23213,"lon":5.35543,"is_reserved":false,"is_disabled":false,"rental_uris":{"android":"levelo://app?vid=c6fc4b4a-5347-4905-8d96-67ea4d004656","ios":"levelo://app?vid=c6fc4b4a-5347-4905-8d96-67ea4d004656"},"vehicle_type_id":"4","last_reported":1739041648,"current_range_meters":6800,"station_id":"ce4bhu92rcd13ifvqi70","pricing_plan_id":"cebpf4jnsgd1na2vs0mg"},{"bike_id":"1da8b17b-ad28-4780-a711-431647c244ed","system_id":"levelo_inurba_marseille","lat":43.23962,"lon":5.36616,"is_reserved":false,"is_disabled":false,"rental_uris":{"android":"levelo://app?vid=1da8b17b-ad28-4780-a711-431647c244ed","ios":"levelo://app?vid=1da8b17b-ad28-4780-a711-431647c244ed"},"vehicle_type_id":"4","last_reported":1739041648,"current_range_meters":24000,"station_id":"ce4bhi12rcd13ifvqfp0","pricing_plan_id":"cebpf4jnsgd1na2vs0mg"},{"bike_id":"aed974ad-784f-441d-8c17-0817d91787d9","system_id":"levelo_inurba_marseille","lat":43.31122,"lon":5.37757,"is_reserved":false,"is_disabled":false,"rental_uris":{"android":"levelo://app?vid=aed974ad-784f-441d-8c17-0817d91787d9","ios":"levelo://app?vid=aed974ad-784f-441d-8c17-0817d91787d9"},"vehicle_type_id":"4","last_reported":1739041648,"current_range_meters":29600,"station_id":"ce4bgt92rcd13ifvqcg0","pricing_plan_id":"cebpf4jnsgd1na2vs0mg"},{"bike_id":"eed963be-4d3d-48fc-88b8-538665b85dfb","system_id":"levelo_inurba_marseille","lat":43.28472,"lon":5.35892,"is_reserved":false,"is_disabled":false,"rental_uris":{"android":"levelo://app?vid=eed963be-4d3d-48fc-88b8-538665b85dfb","ios":"levelo://app?vid=eed963be-4d3d-48fc-88b8-538665b85dfb"},"vehicle_type_id":"4","last_reported":1739041648,"current_range_meters":14000,"station_id":"ce4bhah2rcd13ifvqei0","pricing_plan_id":"cebpf4jnsgd1na2vs0mg"},{"bike_id":"f78952aa-a1e4-42f8-b5d2-31338580d315","system_id":"levelo_inurba_marseille","lat":43.23965,"lon":5.36624,"is_reserved":false,"is_disabled":false,"rental_uris":{"android":"levelo://app?vid=f78952aa-a1e4-42f8-b5d2-31338580d315","ios":"levelo://app?vid=f78952aa-a1e4-42f8-b5d2-31338580d315"},"vehicle_type_id":"4","last_reported":1739041648,"current_range_meters":16400,"station_id":"ce4bhi12rcd13ifvqfp0","pricing_plan_id":"cebpf4jnsgd1na2vs0mg"},{"bike_id":"e8c128f6-3600-4cc4-a50d-c34ca79d7d43","system_id":"levelo_inurba_marseille","lat":43.28382,"lon":5.38638,"is_reserved":false,"is_disabled":false,"rental_uris":{"android":"levelo://app?vid=e8c128f6-3600-4cc4-a50d-c34ca79d7d43","ios":"levelo://app?vid=e8c128f6-3600-4cc4-a50d-c34ca79d7d43"},"vehicle_type_id":"4","last_reported":1739041648,"current_range_meters":38000,"station_id":"ce4bh492rcd13ifvqdvg","pricing_plan_id":"cebpf4jnsgd1na2vs0mg"},{"bike_id":"985ea620-1838-4cc4-9f45-6622855b2de9","system_id":"levelo_inurba_marseille","lat":43.27996,"lon":5.40019,"is_reserved":false,"is_disabled":false,"rental_uris":{"android":"levelo://app?vid=985ea620-1838-4cc4-9f45-6622855b2de9","ios":"levelo://app?vid=985ea620-1838-4cc4-9f45-6622855b2de9"},"vehicle_type_id":"4","last_reported":1739041648,"current_range_meters":38800,"station_id":"ce4bho92rcd13ifvqh4g","pricing_plan_id":"cebpf4jnsgd1na2vs0mg"},{"bike_id":"e94abe13-d844-415c-b9f7-1e84c45b8719","system_id":"levelo_inurba_marseille","lat":43.25587,"lon":5.38253,"is_reserved":false,"is_disabled":false,"rental_uris":{"android":"levelo://app?vid=e94abe13-d844-415c-b9f7-1e84c45b8719","ios":"levelo://app?vid=e94abe13-d844-415c-b9f7-1e84c45b8719"},"vehicle_type_id":"4","last_reported":1739041648,"current_range_meters":38800,"station_id":"ce4bhih2rcd13ifvqfs0","pricing_plan_id":"cebpf4jnsgd1na2vs0mg"},{"bike_id":"e408d721-1719-4f3b-bfb2-ee76b97560c7","system_id":"levelo_inurba_marseille","lat":43.24653,"lon":5.38887,"is_reserved":false,"is_disabled":false,"rental_uris":{"android":"levelo://app?vid=e408d721-1719-4f3b-bfb2-ee76b97560c7","ios":"levelo://app?vid=e408d721-1719-4f3b-bfb2-ee76b97560c7"},"vehicle_type_id":"4","last_reported":1739041648,"current_range_meters":38800,"station_id":"ce4bhg12rcd13ifvqf60","pricing_plan_id":"cebpf4jnsgd1na2vs0mg"},{"bike_id":"36387823-60f3-4f4f-850e-337b320d69f2","system_id":"levelo_inurba_marseille","lat":43.26481,"lon":5.3956,"is_reserved":false,"is_disabled":false,"rental_uris":{"android":"levelo://app?vid=36387823-60f3-4f4f-850e-337b320d69f2","ios":"levelo://app?vid=36387823-60f3-4f4f-850e-337b320d69f2"},"vehicle_type_id":"4","last_reported":1739041648,"current_range_meters":28400,"station_id":"ce4bhi12rcd13ifvqfq0","pricing_plan_id":"cebpf4jnsgd1na2vs0mg"},{"bike_id":"7b9e0bab-610c-4749-84d1-9fd6d2de8c6c","system_id":"levelo_inurba_marseille","lat":43.30656,"lon":5.40057,"is_reserved":false,"is_disabled":false,"rental_uris":{"android":"levelo://app?vid=7b9e0bab-610c-4749-84d1-9fd6d2de8c6c","ios":"levelo://app?vid=7b9e0bab-610c-4749-84d1-9fd6d2de8c6c"},"vehicle_type_id":"4","last_reported":1739041648,"current_range_meters":28000,"station_id":"ce4bh112rcd13ifvqda0","pricing_plan_id":"cebpf4jnsgd1na2vs0mg"},{"bike_id":"44c009d3-c0dc-4027-abdf-110ade9a1957","system_id":"levelo_inurba_marseille","lat":43.33018,"lon":5.3904,"is_reserved":false,"is_disabled":false,"rental_uris":{"android":"levelo://app?vid=44c009d3-c0dc-4027-abdf-110ade9a1957","ios":"levelo://app?vid=44c009d3-c0dc-4027-abdf-110ade9a1957"},"vehicle_type_id":"4","last_reported":1739041648,"current_range_meters":34800,"station_id":"ce4bhr92rcd13ifvqhrg","pricing_plan_id":"cebpf4jnsgd1na2vs0mg"},{"bike_id":"25fdac05-a70f-4b72-83dd-9bdea423f893","system_id":"levelo_inurba_marseille","lat":43.2988,"lon":5.39728,"is_reserved":false,"is_disabled":false,"rental_uris":{"android":"levelo://app?vid=25fdac05-a70f-4b72-83dd-9bdea423f893","ios":"levelo://app?vid=25fdac05-a70f-4b72-83dd-9bdea423f893"},"vehicle_type_id":"4","last_reported":1739041648,"current_range_meters":36800,"station_id":"ce4bh0h2rcd13ifvqd50","pricing_plan_id":"cebpf4jnsgd1na2vs0mg"},{"bike_id":"c8467e20-c52a-4fa4-90f2-f69c646cb59f","system_id":"levelo_inurba_marseille","lat":43.30807,"lon":5.43522,"is_reserved":false,"is_disabled":false,"rental_uris":{"android":"levelo://app?vid=c8467e20-c52a-4fa4-90f2-f69c646cb59f","ios":"levelo://app?vid=c8467e20-c52a-4fa4-90f2-f69c646cb59f"},"vehicle_type_id":"4","last_reported":1739041648,"current_range_meters":27600,"station_id":"ce4bhph2rcd13ifvqheg","pricing_plan_id":"cebpf4jnsgd1na2vs0mg"},{"bike_id":"98e94504-c053-4b0c-9854-733c2355c8fa","system_id":"levelo_inurba_marseille","lat":43.30144,"lon":5.37418,"is_reserved":false,"is_disabled":false,"rental_uris":{"android":"levelo://app?vid=98e94504-c053-4b0c-9854-733c2355c8fa","ios":"levelo://app?vid=98e94504-c053-4b0c-9854-733c2355c8fa"},"vehicle_type_id":"4","last_reported":1739041648,"current_range_meters":28000,"station_id":"ce4bgs92rcd13ifvqcc0","pricing_plan_id":"cebpf4jnsgd1na2vs0mg"},{"bike_id":"113dc618-9c86-44b2-818a-cf35bc35d92c","system_id":"levelo_inurba_marseille","lat":43.29193,"lon":5.39302,"is_reserved":false,"is_disabled":false,"rental_uris":{"android":"levelo://app?vid=113dc618-9c86-44b2-818a-cf35bc35d92c","ios":"levelo://app?vid=113dc618-9c86-44b2-818a-cf35bc35d92c"},"vehicle_type_id":"4","last_reported":1739041648,"current_range_meters":38800,"station_id":"ce4bh192rcd13ifvqdd0","pricing_plan_id":"cebpf4jnsgd1na2vs0mg"},{"bike_id":"22b480ba-f7c6-49f1-b122-a8794292c9ba","system_id":"levelo_inurba_marseille","lat":43.29036,"lon":5.38135,"is_reserved":false,"is_disabled":false,"rental_uris":{"android":"levelo://app?vid=22b480ba-f7c6-49f1-b122-a8794292c9ba","ios":"levelo://app?vid=22b480ba-f7c6-49f1-b122-a8794292c9ba"},"vehicle_type_id":"4","last_reported":1739041648,"current_range_meters":38800,"station_id":"ce4bh4p2rcd13ifvqe1g","pricing_plan_id":"cebpf4jnsgd1na2vs0mg"},{"bike_id":"88d55e63-8299-4315-9bbb-9bf0942f4012","system_id":"levelo_inurba_marseille","lat":43.3014,"lon":5.3741,"is_reserved":false,"is_disabled":false,"rental_uris":{"android":"levelo://app?vid=88d55e63-8299-4315-9bbb-9bf0942f4012","ios":"levelo://app?vid=88d55e63-8299-4315-9bbb-9bf0942f4012"},"vehicle_type_id":"4","last_reported":1739041648,"current_range_meters":37600,"station_id":"ce4bgs92rcd13ifvqcc0","pricing_plan_id":"cebpf4jnsgd1na2vs0mg"},{"bike_id":"afd073ab-b7d7-4d06-a610-4d1b18b5fb42","system_id":"levelo_inurba_marseille","lat":43.27665,"lon":5.38928,"is_reserved":false,"is_disabled":false,"rental_uris":{"android":"levelo://app?vid=afd073ab-b7d7-4d06-a610-4d1b18b5fb42","ios":"levelo://app?vid=afd073ab-b7d7-4d06-a610-4d1b18b5fb42"},"vehicle_type_id":"4","last_reported":1739041648,"current_range_meters":38800,"station_id":"ce4bhi12rcd13ifvqfo0","pricing_plan_id":"cebpf4jnsgd1na2vs0mg"},{"bike_id":"fd7f60dd-1b52-46f9-9b6b-de4b0fe7477f","system_id":"levelo_inurba_marseille","lat":43.27062,"lon":5.42273,"is_reserved":false,"is_disabled":true,"rental_uris":{"android":"levelo://app?vid=fd7f60dd-1b52-46f9-9b6b-de4b0fe7477f","ios":"levelo://app?vid=fd7f60dd-1b52-46f9-9b6b-de4b0fe7477f"},"vehicle_type_id":"4","last_reported":1739041648,"current_range_meters":37600,"station_id":"ce4bhk92rcd13ifvqgb0","pricing_plan_id":"cebpf4jnsgd1na2vs0mg"},{"bike_id":"1fffece1-5ae6-44ef-a889-944ec0af2697","system_id":"levelo_inurba_marseille","lat":43.274444,"lon":5.361453,"is_reserved":false,"is_disabled":true,"rental_uris":{"android":"levelo://app?vid=1fffece1-5ae6-44ef-a889-944ec0af2697","ios":"levelo://app?vid=1fffece1-5ae6-44ef-a889-944ec0af2697"},"vehicle_type_id":"4","last_reported":1739041648,"current_range_meters":2000,"station_id":"ce4bhbh2rcd13ifvqeo0","pricing_plan_id":"cebpf4jnsgd1na2vs0mg"},{"bike_id":"cfd667cc-9bb2-4dfd-a685-3d64a02e740a","system_id":"levelo_inurba_marseille","lat":43.29274,"lon":5.38439,"is_reserved":false,"is_disabled":false,"rental_uris":{"android":"levelo://app?vid=cfd667cc-9bb2-4dfd-a685-3d64a02e740a","ios":"levelo://app?vid=cfd667cc-9bb2-4dfd-a685-3d64a02e740a"},"vehicle_type_id":"4","last_reported":1739041648,"current_range_meters":18800,"station_id":"ce4bh692rcd13ifvqea0","pricing_plan_id":"cebpf4jnsgd1na2vs0mg"},{"bike_id":"71af4c3a-fa26-4039-9ee7-f5d24e009142","system_id":"levelo_inurba_marseille","lat":43.24807,"lon":5.37455,"is_reserved":false,"is_disabled":false,"rental_uris":{"android":"levelo://app?vid=71af4c3a-fa26-4039-9ee7-f5d24e009142","ios":"levelo://app?vid=71af4c3a-fa26-4039-9ee7-f5d24e009142"},"vehicle_type_id":"4","last_reported":1739041648,"current_range_meters":39200,"station_id":"ce4bhgh2rcd13ifvqfb0","pricing_plan_id":"cebpf4jnsgd1na2vs0mg"},{"bike_id":"d4aed399-0d88-46d5-8778-3c2b39e20f06","system_id":"levelo_inurba_marseille","lat":43.24636,"lon":5.38125,"is_reserved":false,"is_disabled":false,"rental_uris":{"android":"levelo://app?vid=d4aed399-0d88-46d5-8778-3c2b39e20f06","ios":"levelo://app?vid=d4aed399-0d88-46d5-8778-3c2b39e20f06"},"vehicle_type_id":"4","last_reported":1739041648,"current_range_meters":39200,"station_id":"ce4bhih2rcd13ifvqfr0","pricing_plan_id":"cebpf4jnsgd1na2vs0mg"},{"bike_id":"86e7fe57-f8b6-4306-adb2-c48a1d6d6515","system_id":"levelo_inurba_marseille","lat":43.25719,"lon":5.41114,"is_reserved":false,"is_disabled":false,"rental_uris":{"android":"levelo://app?vid=86e7fe57-f8b6-4306-adb2-c48a1d6d6515","ios":"levelo://app?vid=86e7fe57-f8b6-4306-adb2-c48a1d6d6515"},"vehicle_type_id":"4","last_reported":1739041648,"current_range_meters":39200,"station_id":"ce4bhkp2rcd13ifvqgd0","pricing_plan_id":"cebpf4jnsgd1na2vs0mg"},{"bike_id":"244783fc-e553-4b13-97c4-77dee0149449","system_id":"levelo_inurba_marseille","lat":43.31325,"lon":5.39718,"is_reserved":false,"is_disabled":false,"rental_uris":{"android":"levelo://app?vid=244783fc-e553-4b13-97c4-77dee0149449","ios":"levelo://app?vid=244783fc-e553-4b13-97c4-77dee0149449"},"vehicle_type_id":"4","last_reported":1739041648,"current_range_meters":27600,"station_id":"ce4bgvp2rcd13ifvqcu0","pricing_plan_id":"cebpf4jnsgd1na2vs0mg"},{"bike_id":"2d93e85a-65e7-4a5b-a324-00f4511865a9","system_id":"levelo_inurba_marseille","lat":43.24386,"lon":5.37054,"is_reserved":false,"is_disabled":false,"rental_uris":{"android":"levelo://app?vid=2d93e85a-65e7-4a5b-a324-00f4511865a9","ios":"levelo://app?vid=2d93e85a-65e7-4a5b-a324-00f4511865a9"},"vehicle_type_id":"4","last_reported":1739041648,"current_range_meters":38800,"station_id":"ce4bhhh2rcd13ifvqfk0","pricing_plan_id":"cebpf4jnsgd1na2vs0mg"},{"bike_id":"bf3aa4aa-354f-4fbe-8127-60a749c72897","system_id":"levelo_inurba_marseille","lat":43.29906,"lon":5.37477,"is_reserved":false,"is_disabled":false,"rental_uris":{"android":"levelo://app?vid=bf3aa4aa-354f-4fbe-8127-60a749c72897","ios":"levelo://app?vid=bf3aa4aa-354f-4fbe-8127-60a749c72897"},"vehicle_type_id":"4","last_reported":1739041648,"current_range_meters":39200,"station_id":"ce4bgjh2rcd13ifvqbg0","pricing_plan_id":"cebpf4jnsgd1na2vs0mg"},{"bike_id":"4599987c-383e-4228-baf4-fb1911bb67ec","system_id":"levelo_inurba_marseille","lat":43.29411,"lon":5.38617,"is_reserved":false,"is_disabled":false,"rental_uris":{"android":"levelo://app?vid=4599987c-383e-4228-baf4-fb1911bb67ec","ios":"levelo://app?vid=4599987c-383e-4228-baf4-fb1911bb67ec"},"vehicle_type_id":"4","last_reported":1739041648,"current_range_meters":28400,"station_id":"ce4bh2h2rcd13ifvqdh0","pricing_plan_id":"cebpf4jnsgd1na2vs0mg"},{"bike_id":"d5fd2a14-8ff1-4b6e-a72e-8f7d6ba6ec2f","system_id":"levelo_inurba_marseille","lat":43.28271,"lon":5.35054,"is_reserved":false,"is_disabled":false,"rental_uris":{"android":"levelo://app?vid=d5fd2a14-8ff1-4b6e-a72e-8f7d6ba6ec2f","ios":"levelo://app?vid=d5fd2a14-8ff1-4b6e-a72e-8f7d6ba6ec2f"},"vehicle_type_id":"4","last_reported":1739041648,"current_range_meters":25600,"station_id":"ce4bhbp2rcd13ifvqerg","pricing_plan_id":"cebpf4jnsgd1na2vs0mg"},{"bike_id":"e7e21c1e-dbe2-402d-9581-ec29bed00df3","system_id":"levelo_inurba_marseille","lat":43.29629,"lon":5.3773,"is_reserved":false,"is_disabled":false,"rental_uris":{"android":"levelo://app?vid=e7e21c1e-dbe2-402d-9581-ec29bed00df3","ios":"levelo://app?vid=e7e21c1e-dbe2-402d-9581-ec29bed00df3"},"vehicle_type_id":"4","last_reported":1739041648,"current_range_meters":38800,"station_id":"ce4bgi92rcd13ifvqb90","pricing_plan_id":"cebpf4jnsgd1na2vs0mg"},{"bike_id":"f121b4f3-9ce7-4c6a-b725-2596a1176eb8","system_id":"levelo_inurba_marseille","lat":43.26492,"lon":5.39537,"is_reserved":false,"is_disabled":false,"rental_uris":{"android":"levelo://app?vid=f121b4f3-9ce7-4c6a-b725-2596a1176eb8","ios":"levelo://app?vid=f121b4f3-9ce7-4c6a-b725-2596a1176eb8"},"vehicle_type_id":"4","last_reported":1739041648,"current_range_meters":17600,"station_id":"ce4bhi12rcd13ifvqfq0","pricing_plan_id":"cebpf4jnsgd1na2vs0mg"},{"bike_id":"c6f92ca4-91f7-4b27-a97d-0ada5b4e29ae","system_id":"levelo_inurba_marseille","lat":43.2469,"lon":5.38138,"is_reserved":false,"is_disabled":false,"rental_uris":{"android":"levelo://app?vid=c6f92ca4-91f7-4b27-a97d-0ada5b4e29ae","ios":"levelo://app?vid=c6f92ca4-91f7-4b27-a97d-0ada5b4e29ae"},"vehicle_type_id":"4","last_reported":1739041648,"current_range_meters":27200,"station_id":"ce4bhih2rcd13ifvqfr0","pricing_plan_id":"cebpf4jnsgd1na2vs0mg"},{"bike_id":"a860e58a-e256-498d-8d5b-7ace0dfda41e","system_id":"levelo_inurba_marseille","lat":43.28101,"lon":5.39652,"is_reserved":false,"is_disabled":false,"rental_uris":{"android":"levelo://app?vid=a860e58a-e256-498d-8d5b-7ace0dfda41e","ios":"levelo://app?vid=a860e58a-e256-498d-8d5b-7ace0dfda41e"},"vehicle_type_id":"4","last_reported":1739041648,"current_range_meters":37600,"station_id":"ce4bho12rcd13ifvqh2g","pricing_plan_id":"cebpf4jnsgd1na2vs0mg"},{"bike_id":"f335f4ea-f372-4b4d-97e9-cf4e01ad5b70","system_id":"levelo_inurba_marseille","lat":43.31935,"lon":5.39011,"is_reserved":false,"is_disabled":false,"rental_uris":{"android":"levelo://app?vid=f335f4ea-f372-4b4d-97e9-cf4e01ad5b70","ios":"levelo://app?vid=f335f4ea-f372-4b4d-97e9-cf4e01ad5b70"},"vehicle_type_id":"4","last_reported":1739041648,"current_range_meters":20800,"station_id":"","pricing_plan_id":"cebpf4jnsgd1na2vs0mg"},{"bike_id":"cac0ef70-4b31-40ea-ab01-f55b2bc45e5a","system_id":"levelo_inurba_marseille","lat":43.26211,"lon":5.37443,"is_reserved":false,"is_disabled":false,"rental_uris":{"android":"levelo://app?vid=cac0ef70-4b31-40ea-ab01-f55b2bc45e5a","ios":"levelo://app?vid=cac0ef70-4b31-40ea-ab01-f55b2bc45e5a"},"vehicle_type_id":"4","last_reported":1739041648,"current_range_meters":26000,"station_id":"ce4bhgp2rcd13ifvqfc0","pricing_plan_id":"cebpf4jnsgd1na2vs0mg"},{"bike_id":"e413b001-75cf-48be-a5ea-8e8cd504eae7","system_id":"levelo_inurba_marseille","lat":43.29535,"lon":5.38535,"is_reserved":false,"is_disabled":false,"rental_uris":{"android":"levelo://app?vid=e413b001-75cf-48be-a5ea-8e8cd504eae7","ios":"levelo://app?vid=e413b001-75cf-48be-a5ea-8e8cd504eae7"},"vehicle_type_id":"4","last_reported":1739041648,"current_range_meters":35200,"station_id":"ce4bgih2rcd13ifvqba0","pricing_plan_id":"cebpf4jnsgd1na2vs0mg"},{"bike_id":"00acf672-47c1-42d5-ae81-0c2dd5fc2c7a","system_id":"levelo_inurba_marseille","lat":43.279254,"lon":5.410635,"is_reserved":false,"is_disabled":false,"rental_uris":{"android":"levelo://app?vid=00acf672-47c1-42d5-ae81-0c2dd5fc2c7a","ios":"levelo://app?vid=00acf672-47c1-42d5-ae81-0c2dd5fc2c7a"},"vehicle_type_id":"4","last_reported":1739041648,"current_range_meters":30000,"station_id":"ce4bhnp2rcd13ifvqh0g","pricing_plan_id":"cebpf4jnsgd1na2vs0mg"},{"bike_id":"c5789181-d252-4c46-b75d-908f3a6a38fe","system_id":"levelo_inurba_marseille","lat":43.33741,"lon":5.3919,"is_reserved":false,"is_disabled":false,"rental_uris":{"android":"levelo://app?vid=c5789181-d252-4c46-b75d-908f3a6a38fe","ios":"levelo://app?vid=c5789181-d252-4c46-b75d-908f3a6a38fe"},"vehicle_type_id":"4","last_reported":1739041648,"current_range_meters":38800,"station_id":"ce4bhr92rcd13ifvqhsg","pricing_plan_id":"cebpf4jnsgd1na2vs0mg"},{"bike_id":"11063cc8-8844-425d-a2ec-e05845fb5b1a","system_id":"levelo_inurba_marseille","lat":43.31358,"lon":5.38494,"is_reserved":false,"is_disabled":false,"rental_uris":{"android":"levelo://app?vid=11063cc8-8844-425d-a2ec-e05845fb5b1a","ios":"levelo://app?vid=11063cc8-8844-425d-a2ec-e05845fb5b1a"},"vehicle_type_id":"4","last_reported":1739041648,"current_range_meters":36800,"station_id":"ce4bgt92rcd13ifvqcf0","pricing_plan_id":"cebpf4jnsgd1na2vs0mg"},{"bike_id":"eb65df7b-ace4-46d3-a8a3-abf40b582584","system_id":"levelo_inurba_marseille","lat":43.29912,"lon":5.38147,"is_reserved":false,"is_disabled":false,"rental_uris":{"android":"levelo://app?vid=eb65df7b-ace4-46d3-a8a3-abf40b582584","ios":"levelo://app?vid=eb65df7b-ace4-46d3-a8a3-abf40b582584"},"vehicle_type_id":"4","last_reported":1739041648,"current_range_meters":10800,"station_id":"ce4bgj12rcd13ifvqbc0","pricing_plan_id":"cebpf4jnsgd1na2vs0mg"},{"bike_id":"0d3e6358-f538-48e4-97b5-cfd7ffaf7479","system_id":"levelo_inurba_marseille","lat":43.2717,"lon":5.4099,"is_reserved":false,"is_disabled":false,"rental_uris":{"android":"levelo://app?vid=0d3e6358-f538-48e4-97b5-cfd7ffaf7479","ios":"levelo://app?vid=0d3e6358-f538-48e4-97b5-cfd7ffaf7479"},"vehicle_type_id":"4","last_reported":1739041648,"current_range_meters":32800,"station_id":"ce4bhl12rcd13ifvqgf0","pricing_plan_id":"cebpf4jnsgd1na2vs0mg"},{"bike_id":"4b346763-af4b-47bb-8f20-016bb4fee202","system_id":"levelo_inurba_marseille","lat":43.27827,"lon":5.4074,"is_reserved":false,"is_disabled":false,"rental_uris":{"android":"levelo://app?vid=4b346763-af4b-47bb-8f20-016bb4fee202","ios":"levelo://app?vid=4b346763-af4b-47bb-8f20-016bb4fee202"},"vehicle_type_id":"4","last_reported":1739041648,"current_range_meters":38800,"station_id":"ce4bhnh2rcd13ifvqgtg","pricing_plan_id":"cebpf4jnsgd1na2vs0mg"},{"bike_id":"b3896a3a-63cf-42f3-bae4-7adf79a0873e","system_id":"levelo_inurba_marseille","lat":43.24078,"lon":5.37752,"is_reserved":false,"is_disabled":false,"rental_uris":{"android":"levelo://app?vid=b3896a3a-63cf-42f3-bae4-7adf79a0873e","ios":"levelo://app?vid=b3896a3a-63cf-42f3-bae4-7adf79a0873e"},"vehicle_type_id":"4","last_reported":1739041648,"current_range_meters":5600,"station_id":"ce4bhnp2rcd13ifvqgvg","pricing_plan_id":"cebpf4jnsgd1na2vs0mg"},{"bike_id":"85031609-8913-48dc-bb86-4f4d422aa463","system_id":"levelo_inurba_marseille","lat":43.29416,"lon":5.38622,"is_reserved":false,"is_disabled":false,"rental_uris":{"android":"levelo://app?vid=85031609-8913-48dc-bb86-4f4d422aa463","ios":"levelo://app?vid=85031609-8913-48dc-bb86-4f4d422aa463"},"vehicle_type_id":"4","last_reported":1739041648,"current_range_meters":38000,"station_id":"ce4bh2h2rcd13ifvqdh0","pricing_plan_id":"cebpf4jnsgd1na2vs0mg"},{"bike_id":"09710415-4dac-4e4c-a5b2-403eafa59e89","system_id":"levelo_inurba_marseille","lat":43.23968,"lon":5.36638,"is_reserved":false,"is_disabled":false,"rental_uris":{"android":"levelo://app?vid=09710415-4dac-4e4c-a5b2-403eafa59e89","ios":"levelo://app?vid=09710415-4dac-4e4c-a5b2-403eafa59e89"},"vehicle_type_id":"4","last_reported":1739041648,"current_range_meters":38000,"station_id":"ce4bhi12rcd13ifvqfp0","pricing_plan_id":"cebpf4jnsgd1na2vs0mg"},{"bike_id":"81a7b224-08a7-43fb-b446-a9b7ce9f4b97","system_id":"levelo_inurba_marseille","lat":43.29428,"lon":5.38624,"is_reserved":false,"is_disabled":false,"rental_uris":{"android":"levelo://app?vid=81a7b224-08a7-43fb-b446-a9b7ce9f4b97","ios":"levelo://app?vid=81a7b224-08a7-43fb-b446-a9b7ce9f4b97"},"vehicle_type_id":"4","last_reported":1739041648,"current_range_meters":28000,"station_id":"ce4bgt12rcd13ifvqce0","pricing_plan_id":"cebpf4jnsgd1na2vs0mg"},{"bike_id":"cda70a47-1966-4606-a6ee-e81748054c04","system_id":"levelo_inurba_marseille","lat":43.23961,"lon":5.36637,"is_reserved":false,"is_disabled":false,"rental_uris":{"android":"levelo://app?vid=cda70a47-1966-4606-a6ee-e81748054c04","ios":"levelo://app?vid=cda70a47-1966-4606-a6ee-e81748054c04"},"vehicle_type_id":"4","last_reported":1739041648,"current_range_meters":35200,"station_id":"ce4bhi12rcd13ifvqfp0","pricing_plan_id":"cebpf4jnsgd1na2vs0mg"},{"bike_id":"d127a229-8836-4c0f-a071-964ec5978504","system_id":"levelo_inurba_marseille","lat":43.27207,"lon":5.40987,"is_reserved":false,"is_disabled":false,"rental_uris":{"android":"levelo://app?vid=d127a229-8836-4c0f-a071-964ec5978504","ios":"levelo://app?vid=d127a229-8836-4c0f-a071-964ec5978504"},"vehicle_type_id":"4","last_reported":1739041648,"current_range_meters":38800,"station_id":"ce4bhl12rcd13ifvqgf0","pricing_plan_id":"cebpf4jnsgd1na2vs0mg"},{"bike_id":"118b1d9a-bc00-428d-ac60-6949e2e1ff6b","system_id":"levelo_inurba_marseille","lat":43.247953,"lon":5.37457,"is_reserved":false,"is_disabled":false,"rental_uris":{"android":"levelo://app?vid=118b1d9a-bc00-428d-ac60-6949e2e1ff6b","ios":"levelo://app?vid=118b1d9a-bc00-428d-ac60-6949e2e1ff6b"},"vehicle_type_id":"4","last_reported":1739041648,"current_range_meters":32000,"station_id":"ce4bhgh2rcd13ifvqfb0","pricing_plan_id":"cebpf4jnsgd1na2vs0mg"},{"bike_id":"1fafa707-5097-48ee-9191-a4336f9e1996","system_id":"levelo_inurba_marseille","lat":43.29152,"lon":5.40889,"is_reserved":false,"is_disabled":false,"rental_uris":{"android":"levelo://app?vid=1fafa707-5097-48ee-9191-a4336f9e1996","ios":"levelo://app?vid=1fafa707-5097-48ee-9191-a4336f9e1996"},"vehicle_type_id":"4","last_reported":1739041648,"current_range_meters":8800,"station_id":"","pricing_plan_id":"cebpf4jnsgd1na2vs0mg"},{"bike_id":"af62d40d-43f5-4ce3-a384-9e3b7f747689","system_id":"levelo_inurba_marseille","lat":43.26192,"lon":5.37449,"is_reserved":false,"is_disabled":false,"rental_uris":{"android":"levelo://app?vid=af62d40d-43f5-4ce3-a384-9e3b7f747689","ios":"levelo://app?vid=af62d40d-43f5-4ce3-a384-9e3b7f747689"},"vehicle_type_id":"4","last_reported":1739041648,"current_range_meters":14000,"station_id":"ce4bhgp2rcd13ifvqfc0","pricing_plan_id":"cebpf4jnsgd1na2vs0mg"},{"bike_id":"15b1a084-c2e3-4bb1-9ea7-2bfcd7d54939","system_id":"levelo_inurba_marseille","lat":43.29544,"lon":5.3751,"is_reserved":false,"is_disabled":false,"rental_uris":{"android":"levelo://app?vid=15b1a084-c2e3-4bb1-9ea7-2bfcd7d54939","ios":"levelo://app?vid=15b1a084-c2e3-4bb1-9ea7-2bfcd7d54939"},"vehicle_type_id":"4","last_reported":1739041648,"current_range_meters":28000,"station_id":"ce4bgkp2rcd13ifvqbmg","pricing_plan_id":"cebpf4jnsgd1na2vs0mg"},{"bike_id":"272f9d9b-71c0-44ba-8418-bb5adedfc368","system_id":"levelo_inurba_marseille","lat":43.29421,"lon":5.38621,"is_reserved":false,"is_disabled":false,"rental_uris":{"android":"levelo://app?vid=272f9d9b-71c0-44ba-8418-bb5adedfc368","ios":"levelo://app?vid=272f9d9b-71c0-44ba-8418-bb5adedfc368"},"vehicle_type_id":"4","last_reported":1739041648,"current_range_meters":38000,"station_id":"ce4bh2h2rcd13ifvqdh0","pricing_plan_id":"cebpf4jnsgd1na2vs0mg"},{"bike_id":"3b3893b1-5492-49cf-84e6-2c95a33170e2","system_id":"levelo_inurba_marseille","lat":43.28682,"lon":5.38662,"is_reserved":false,"is_disabled":false,"rental_uris":{"android":"levelo://app?vid=3b3893b1-5492-49cf-84e6-2c95a33170e2","ios":"levelo://app?vid=3b3893b1-5492-49cf-84e6-2c95a33170e2"},"vehicle_type_id":"4","last_reported":1739041648,"current_range_meters":38000,"station_id":"ce4bh492rcd13ifvqdug","pricing_plan_id":"cebpf4jnsgd1na2vs0mg"},{"bike_id":"7d221946-c821-4ef5-bf57-7a380b8ee00b","system_id":"levelo_inurba_marseille","lat":43.28567,"lon":5.39472,"is_reserved":false,"is_disabled":false,"rental_uris":{"android":"levelo://app?vid=7d221946-c821-4ef5-bf57-7a380b8ee00b","ios":"levelo://app?vid=7d221946-c821-4ef5-bf57-7a380b8ee00b"},"vehicle_type_id":"4","last_reported":1739041648,"current_range_meters":38000,"station_id":"ce4bh292rcd13ifvqdg0","pricing_plan_id":"cebpf4jnsgd1na2vs0mg"},{"bike_id":"889ef476-f99b-42ff-95f8-28ea11857507","system_id":"levelo_inurba_marseille","lat":43.23964,"lon":5.36609,"is_reserved":false,"is_disabled":false,"rental_uris":{"android":"levelo://app?vid=889ef476-f99b-42ff-95f8-28ea11857507","ios":"levelo://app?vid=889ef476-f99b-42ff-95f8-28ea11857507"},"vehicle_type_id":"4","last_reported":1739041648,"current_range_meters":30400,"station_id":"ce4bhi12rcd13ifvqfp0","pricing_plan_id":"cebpf4jnsgd1na2vs0mg"},{"bike_id":"7f2deb56-183c-436c-981c-cfbcfece13e6","system_id":"levelo_inurba_marseille","lat":43.23961,"lon":5.36623,"is_reserved":false,"is_disabled":false,"rental_uris":{"android":"levelo://app?vid=7f2deb56-183c-436c-981c-cfbcfece13e6","ios":"levelo://app?vid=7f2deb56-183c-436c-981c-cfbcfece13e6"},"vehicle_type_id":"4","last_reported":1739041648,"current_range_meters":36800,"station_id":"ce4bhi12rcd13ifvqfp0","pricing_plan_id":"cebpf4jnsgd1na2vs0mg"},{"bike_id":"aac5a4ca-b8d0-4641-93c3-6c5e80d60918","system_id":"levelo_inurba_marseille","lat":43.31212,"lon":5.36849,"is_reserved":false,"is_disabled":false,"rental_uris":{"android":"levelo://app?vid=aac5a4ca-b8d0-4641-93c3-6c5e80d60918","ios":"levelo://app?vid=aac5a4ca-b8d0-4641-93c3-6c5e80d60918"},"vehicle_type_id":"4","last_reported":1739041648,"current_range_meters":38800,"station_id":"ce4bgl92rcd13ifvqbq0","pricing_plan_id":"cebpf4jnsgd1na2vs0mg"},{"bike_id":"0f780f3b-8e9f-4b20-a9dd-66e0b8b2a792","system_id":"levelo_inurba_marseille","lat":43.27932,"lon":5.39591,"is_reserved":false,"is_disabled":false,"rental_uris":{"android":"levelo://app?vid=0f780f3b-8e9f-4b20-a9dd-66e0b8b2a792","ios":"levelo://app?vid=0f780f3b-8e9f-4b20-a9dd-66e0b8b2a792"},"vehicle_type_id":"4","last_reported":1739041648,"current_range_meters":16800,"station_id":"ce4bhf92rcd13ifvqf40","pricing_plan_id":"cebpf4jnsgd1na2vs0mg"},{"bike_id":"6186afb6-fd6f-42d8-8215-07291eb97707","system_id":"levelo_inurba_marseille","lat":43.24141,"lon":5.39715,"is_reserved":false,"is_disabled":false,"rental_uris":{"android":"levelo://app?vid=6186afb6-fd6f-42d8-8215-07291eb97707","ios":"levelo://app?vid=6186afb6-fd6f-42d8-8215-07291eb97707"},"vehicle_type_id":"4","last_reported":1739041648,"current_range_meters":25200,"station_id":"ce4bhn12rcd13ifvqgpg","pricing_plan_id":"cebpf4jnsgd1na2vs0mg"},{"bike_id":"2f37c01b-9dbf-4f25-a6c6-88a6b88e248f","system_id":"levelo_inurba_marseille","lat":43.292691,"lon":5.368562,"is_reserved":false,"is_disabled":false,"rental_uris":{"android":"levelo://app?vid=2f37c01b-9dbf-4f25-a6c6-88a6b88e248f","ios":"levelo://app?vid=2f37c01b-9dbf-4f25-a6c6-88a6b88e248f"},"vehicle_type_id":"4","last_reported":1739041648,"current_range_meters":38800,"station_id":"ce4bhbp2rcd13ifvqesg","pricing_plan_id":"cebpf4jnsgd1na2vs0mg"},{"bike_id":"c1994bca-8c74-4142-b569-d2f7c47c698f","system_id":"levelo_inurba_marseille","lat":43.27814,"lon":5.40713,"is_reserved":false,"is_disabled":false,"rental_uris":{"android":"levelo://app?vid=c1994bca-8c74-4142-b569-d2f7c47c698f","ios":"levelo://app?vid=c1994bca-8c74-4142-b569-d2f7c47c698f"},"vehicle_type_id":"4","last_reported":1739041648,"current_range_meters":28000,"station_id":"ce4bhnh2rcd13ifvqgtg","pricing_plan_id":"cebpf4jnsgd1na2vs0mg"},{"bike_id":"f2df57fd-48fb-42b4-9b53-5e639c9b06ad","system_id":"levelo_inurba_marseille","lat":43.323739,"lon":5.388869,"is_reserved":false,"is_disabled":false,"rental_uris":{"android":"levelo://app?vid=f2df57fd-48fb-42b4-9b53-5e639c9b06ad","ios":"levelo://app?vid=f2df57fd-48fb-42b4-9b53-5e639c9b06ad"},"vehicle_type_id":"4","last_reported":1739041648,"current_range_meters":33200,"station_id":"ce4bhqp2rcd13ifvqhog","pricing_plan_id":"cebpf4jnsgd1na2vs0mg"},{"bike_id":"aaa34935-1279-4709-8f0a-a124f9432eec","system_id":"levelo_inurba_marseille","lat":43.29023,"lon":5.38634,"is_reserved":false,"is_disabled":false,"rental_uris":{"android":"levelo://app?vid=aaa34935-1279-4709-8f0a-a124f9432eec","ios":"levelo://app?vid=aaa34935-1279-4709-8f0a-a124f9432eec"},"vehicle_type_id":"4","last_reported":1739041648,"current_range_meters":38400,"station_id":"ce4bh4p2rcd13ifvqe0g","pricing_plan_id":"cebpf4jnsgd1na2vs0mg"},{"bike_id":"9f7cf945-ba46-4a30-a487-0537ff799f4a","system_id":"levelo_inurba_marseille","lat":43.2799,"lon":5.40018,"is_reserved":false,"is_disabled":false,"rental_uris":{"android":"levelo://app?vid=9f7cf945-ba46-4a30-a487-0537ff799f4a","ios":"levelo://app?vid=9f7cf945-ba46-4a30-a487-0537ff799f4a"},"vehicle_type_id":"4","last_reported":1739041648,"current_range_meters":19200,"station_id":"ce4bho92rcd13ifvqh4g","pricing_plan_id":"cebpf4jnsgd1na2vs0mg"},{"bike_id":"59db9156-837c-4bef-bdf0-6cb05d00fb23","system_id":"levelo_inurba_marseille","lat":43.24165,"lon":5.36442,"is_reserved":false,"is_disabled":false,"rental_uris":{"android":"levelo://app?vid=59db9156-837c-4bef-bdf0-6cb05d00fb23","ios":"levelo://app?vid=59db9156-837c-4bef-bdf0-6cb05d00fb23"},"vehicle_type_id":"4","last_reported":1739041648,"current_range_meters":26800,"station_id":"cpo36qri1sfpv3e86is0","pricing_plan_id":"cebpf4jnsgd1na2vs0mg"},{"bike_id":"e5e1235c-0a3a-41b2-8814-cdcf6db15bc4","system_id":"levelo_inurba_marseille","lat":43.29531,"lon":5.38542,"is_reserved":false,"is_disabled":false,"rental_uris":{"android":"levelo://app?vid=e5e1235c-0a3a-41b2-8814-cdcf6db15bc4","ios":"levelo://app?vid=e5e1235c-0a3a-41b2-8814-cdcf6db15bc4"},"vehicle_type_id":"4","last_reported":1739041648,"current_range_meters":25200,"station_id":"ce4bgih2rcd13ifvqba0","pricing_plan_id":"cebpf4jnsgd1na2vs0mg"},{"bike_id":"0ed84333-b932-4d64-b2f5-6fbac997e6bb","system_id":"levelo_inurba_marseille","lat":43.28032,"lon":5.36952,"is_reserved":false,"is_disabled":false,"rental_uris":{"android":"levelo://app?vid=0ed84333-b932-4d64-b2f5-6fbac997e6bb","ios":"levelo://app?vid=0ed84333-b932-4d64-b2f5-6fbac997e6bb"},"vehicle_type_id":"4","last_reported":1739041648,"current_range_meters":38800,"station_id":"ce4bha12rcd13ifvqef0","pricing_plan_id":"cebpf4jnsgd1na2vs0mg"},{"bike_id":"a35cf4c9-a6f6-463f-bf92-4d0b3dfcb4a9","system_id":"levelo_inurba_marseille","lat":43.24675,"lon":5.38151,"is_reserved":false,"is_disabled":false,"rental_uris":{"android":"levelo://app?vid=a35cf4c9-a6f6-463f-bf92-4d0b3dfcb4a9","ios":"levelo://app?vid=a35cf4c9-a6f6-463f-bf92-4d0b3dfcb4a9"},"vehicle_type_id":"4","last_reported":1739041648,"current_range_meters":38800,"station_id":"ce4bhih2rcd13ifvqfr0","pricing_plan_id":"cebpf4jnsgd1na2vs0mg"},{"bike_id":"25779db4-1979-4bf8-9051-93f244d3242a","system_id":"levelo_inurba_marseille","lat":43.3168,"lon":5.39475,"is_reserved":false,"is_disabled":false,"rental_uris":{"android":"levelo://app?vid=25779db4-1979-4bf8-9051-93f244d3242a","ios":"levelo://app?vid=25779db4-1979-4bf8-9051-93f244d3242a"},"vehicle_type_id":"4","last_reported":1739041648,"current_range_meters":30000,"station_id":"","pricing_plan_id":"cebpf4jnsgd1na2vs0mg"},{"bike_id":"7e424a35-8cf7-4c71-b98f-4231461d22a0","system_id":"levelo_inurba_marseille","lat":43.27511,"lon":5.38985,"is_reserved":false,"is_disabled":false,"rental_uris":{"android":"levelo://app?vid=7e424a35-8cf7-4c71-b98f-4231461d22a0","ios":"levelo://app?vid=7e424a35-8cf7-4c71-b98f-4231461d22a0"},"vehicle_type_id":"4","last_reported":1739041648,"current_range_meters":35200,"station_id":"","pricing_plan_id":"cebpf4jnsgd1na2vs0mg"},{"bike_id":"af9d7bb7-48e5-4298-8b4f-786d891d5ea9","system_id":"levelo_inurba_marseille","lat":43.25727,"lon":5.41101,"is_reserved":false,"is_disabled":false,"rental_uris":{"android":"levelo://app?vid=af9d7bb7-48e5-4298-8b4f-786d891d5ea9","ios":"levelo://app?vid=af9d7bb7-48e5-4298-8b4f-786d891d5ea9"},"vehicle_type_id":"4","last_reported":1739041648,"current_range_meters":14400,"station_id":"ce4bhkp2rcd13ifvqgd0","pricing_plan_id":"cebpf4jnsgd1na2vs0mg"},{"bike_id":"183985eb-6ff5-43d1-a72c-d1ca4b0fdfa8","system_id":"levelo_inurba_marseille","lat":43.295174,"lon":5.375084,"is_reserved":false,"is_disabled":false,"rental_uris":{"android":"levelo://app?vid=183985eb-6ff5-43d1-a72c-d1ca4b0fdfa8","ios":"levelo://app?vid=183985eb-6ff5-43d1-a72c-d1ca4b0fdfa8"},"vehicle_type_id":"4","last_reported":1739041648,"current_range_meters":19200,"station_id":"ce4bgkp2rcd13ifvqbmg","pricing_plan_id":"cebpf4jnsgd1na2vs0mg"},{"bike_id":"688cb102-28ba-4c7e-885f-41414f9433e9","system_id":"levelo_inurba_marseille","lat":43.25611,"lon":5.38236,"is_reserved":false,"is_disabled":false,"rental_uris":{"android":"levelo://app?vid=688cb102-28ba-4c7e-885f-41414f9433e9","ios":"levelo://app?vid=688cb102-28ba-4c7e-885f-41414f9433e9"},"vehicle_type_id":"4","last_reported":1739041648,"current_range_meters":22000,"station_id":"ce4bhih2rcd13ifvqfs0","pricing_plan_id":"cebpf4jnsgd1na2vs0mg"},{"bike_id":"3b238840-8a24-4ce8-868e-201f349633f5","system_id":"levelo_inurba_marseille","lat":43.27622,"lon":5.36119,"is_reserved":false,"is_disabled":false,"rental_uris":{"android":"levelo://app?vid=3b238840-8a24-4ce8-868e-201f349633f5","ios":"levelo://app?vid=3b238840-8a24-4ce8-868e-201f349633f5"},"vehicle_type_id":"4","last_reported":1739041648,"current_range_meters":38800,"station_id":"ce4bgj92rcd13ifvqbe0","pricing_plan_id":"cebpf4jnsgd1na2vs0mg"},{"bike_id":"758cfaa5-8993-4f1d-ba80-b2434960a63f","system_id":"levelo_inurba_marseille","lat":43.2872,"lon":5.36078,"is_reserved":false,"is_disabled":false,"rental_uris":{"android":"levelo://app?vid=758cfaa5-8993-4f1d-ba80-b2434960a63f","ios":"levelo://app?vid=758cfaa5-8993-4f1d-ba80-b2434960a63f"},"vehicle_type_id":"4","last_reported":1739041648,"current_range_meters":36000,"station_id":"cki0cbj6b192h4jlfktg","pricing_plan_id":"cebpf4jnsgd1na2vs0mg"},{"bike_id":"b557dda7-73c9-4e4b-95b0-603097b3ec6b","system_id":"levelo_inurba_marseille","lat":43.26195,"lon":5.37933,"is_reserved":false,"is_disabled":false,"rental_uris":{"android":"levelo://app?vid=b557dda7-73c9-4e4b-95b0-603097b3ec6b","ios":"levelo://app?vid=b557dda7-73c9-4e4b-95b0-603097b3ec6b"},"vehicle_type_id":"4","last_reported":1739041648,"current_range_meters":38800,"station_id":"ce4bhjp2rcd13ifvqg90","pricing_plan_id":"cebpf4jnsgd1na2vs0mg"},{"bike_id":"8add4d4c-2058-4aa0-a13c-7cf1c78db7de","system_id":"levelo_inurba_marseille","lat":43.30882,"lon":5.39652,"is_reserved":false,"is_disabled":false,"rental_uris":{"android":"levelo://app?vid=8add4d4c-2058-4aa0-a13c-7cf1c78db7de","ios":"levelo://app?vid=8add4d4c-2058-4aa0-a13c-7cf1c78db7de"},"vehicle_type_id":"4","last_reported":1739041648,"current_range_meters":22800,"station_id":"ce4bh012rcd13ifvqcv0","pricing_plan_id":"cebpf4jnsgd1na2vs0mg"},{"bike_id":"6ff781d1-2621-44d1-b299-83b571f09432","system_id":"levelo_inurba_marseille","lat":43.34067,"lon":5.3851,"is_reserved":false,"is_disabled":true,"rental_uris":{"android":"levelo://app?vid=6ff781d1-2621-44d1-b299-83b571f09432","ios":"levelo://app?vid=6ff781d1-2621-44d1-b299-83b571f09432"},"vehicle_type_id":"4","last_reported":1739041648,"current_range_meters":1600,"station_id":"","pricing_plan_id":"cebpf4jnsgd1na2vs0mg"},{"bike_id":"0a484fee-0ef1-47de-86d9-acd71bab934b","system_id":"levelo_inurba_marseille","lat":43.23266,"lon":5.39781,"is_reserved":false,"is_disabled":false,"rental_uris":{"android":"levelo://app?vid=0a484fee-0ef1-47de-86d9-acd71bab934b","ios":"levelo://app?vid=0a484fee-0ef1-47de-86d9-acd71bab934b"},"vehicle_type_id":"4","last_reported":1739041648,"current_range_meters":38800,"station_id":"ce4bhn12rcd13ifvqgqg","pricing_plan_id":"cebpf4jnsgd1na2vs0mg"},{"bike_id":"81c178fa-6760-4d32-94ce-61c662236661","system_id":"levelo_inurba_marseille","lat":43.31534,"lon":5.38021,"is_reserved":false,"is_disabled":false,"rental_uris":{"android":"levelo://app?vid=81c178fa-6760-4d32-94ce-61c662236661","ios":"levelo://app?vid=81c178fa-6760-4d32-94ce-61c662236661"},"vehicle_type_id":"4","last_reported":1739041648,"current_range_meters":37600,"station_id":"ce4bhsp2rcd13ifvqi50","pricing_plan_id":"cebpf4jnsgd1na2vs0mg"},{"bike_id":"8bec6f5e-e450-4c2b-8557-aced9db82d7a","system_id":"levelo_inurba_marseille","lat":43.25702,"lon":5.411,"is_reserved":false,"is_disabled":false,"rental_uris":{"android":"levelo://app?vid=8bec6f5e-e450-4c2b-8557-aced9db82d7a","ios":"levelo://app?vid=8bec6f5e-e450-4c2b-8557-aced9db82d7a"},"vehicle_type_id":"4","last_reported":1739041648,"current_range_meters":36000,"station_id":"ce4bhkp2rcd13ifvqgd0","pricing_plan_id":"cebpf4jnsgd1na2vs0mg"},{"bike_id":"7066fa73-2ce5-4902-9dee-576e0327258e","system_id":"levelo_inurba_marseille","lat":43.28154,"lon":5.42645,"is_reserved":false,"is_disabled":false,"rental_uris":{"android":"levelo://app?vid=7066fa73-2ce5-4902-9dee-576e0327258e","ios":"levelo://app?vid=7066fa73-2ce5-4902-9dee-576e0327258e"},"vehicle_type_id":"4","last_reported":1739041648,"current_range_meters":4000,"station_id":"ce4bhnh2rcd13ifvqgug","pricing_plan_id":"cebpf4jnsgd1na2vs0mg"},{"bike_id":"fc27cc67-0de9-4972-9ba4-f0b467e96b7c","system_id":"levelo_inurba_marseille","lat":43.24672,"lon":5.38149,"is_reserved":false,"is_disabled":false,"rental_uris":{"android":"levelo://app?vid=fc27cc67-0de9-4972-9ba4-f0b467e96b7c","ios":"levelo://app?vid=fc27cc67-0de9-4972-9ba4-f0b467e96b7c"},"vehicle_type_id":"4","last_reported":1739041648,"current_range_meters":27600,"station_id":"ce4bhih2rcd13ifvqfr0","pricing_plan_id":"cebpf4jnsgd1na2vs0mg"},{"bike_id":"2dca6627-c5f1-4737-9255-3e1fe99c9bda","system_id":"levelo_inurba_marseille","lat":43.30094,"lon":5.39075,"is_reserved":false,"is_disabled":false,"rental_uris":{"android":"levelo://app?vid=2dca6627-c5f1-4737-9255-3e1fe99c9bda","ios":"levelo://app?vid=2dca6627-c5f1-4737-9255-3e1fe99c9bda"},"vehicle_type_id":"4","last_reported":1739041648,"current_range_meters":39200,"station_id":"ce4bh192rcd13ifvqdb0","pricing_plan_id":"cebpf4jnsgd1na2vs0mg"},{"bike_id":"d38745a8-c134-4c35-b845-3f8bd3e6fd53","system_id":"levelo_inurba_marseille","lat":43.28559,"lon":5.395,"is_reserved":false,"is_disabled":false,"rental_uris":{"android":"levelo://app?vid=d38745a8-c134-4c35-b845-3f8bd3e6fd53","ios":"levelo://app?vid=d38745a8-c134-4c35-b845-3f8bd3e6fd53"},"vehicle_type_id":"4","last_reported":1739041648,"current_range_meters":39200,"station_id":"ce4bh292rcd13ifvqdg0","pricing_plan_id":"cebpf4jnsgd1na2vs0mg"},{"bike_id":"d2884647-5890-469e-8da2-ec88553e78b0","system_id":"levelo_inurba_marseille","lat":43.29535,"lon":5.38541,"is_reserved":false,"is_disabled":false,"rental_uris":{"android":"levelo://app?vid=d2884647-5890-469e-8da2-ec88553e78b0","ios":"levelo://app?vid=d2884647-5890-469e-8da2-ec88553e78b0"},"vehicle_type_id":"4","last_reported":1739041648,"current_range_meters":31200,"station_id":"ce4bgih2rcd13ifvqba0","pricing_plan_id":"cebpf4jnsgd1na2vs0mg"},{"bike_id":"1b6c11de-53ae-4301-9525-bedaf616803c","system_id":"levelo_inurba_marseille","lat":43.29292,"lon":5.40118,"is_reserved":false,"is_disabled":false,"rental_uris":{"android":"levelo://app?vid=1b6c11de-53ae-4301-9525-bedaf616803c","ios":"levelo://app?vid=1b6c11de-53ae-4301-9525-bedaf616803c"},"vehicle_type_id":"4","last_reported":1739041648,"current_range_meters":38000,"station_id":"ce4bh312rcd13ifvqdk0","pricing_plan_id":"cebpf4jnsgd1na2vs0mg"},{"bike_id":"e2200dc8-d2f7-4f30-b1b2-4f395de74e61","system_id":"levelo_inurba_marseille","lat":43.31143,"lon":5.37773,"is_reserved":false,"is_disabled":false,"rental_uris":{"android":"levelo://app?vid=e2200dc8-d2f7-4f30-b1b2-4f395de74e61","ios":"levelo://app?vid=e2200dc8-d2f7-4f30-b1b2-4f395de74e61"},"vehicle_type_id":"4","last_reported":1739041648,"current_range_meters":28400,"station_id":"ce4bgt92rcd13ifvqcg0","pricing_plan_id":"cebpf4jnsgd1na2vs0mg"},{"bike_id":"d302f3f8-0083-4d61-8245-148049cbf11f","system_id":"levelo_inurba_marseille","lat":43.29286,"lon":5.38445,"is_reserved":false,"is_disabled":false,"rental_uris":{"android":"levelo://app?vid=d302f3f8-0083-4d61-8245-148049cbf11f","ios":"levelo://app?vid=d302f3f8-0083-4d61-8245-148049cbf11f"},"vehicle_type_id":"4","last_reported":1739041648,"current_range_meters":34000,"station_id":"ce4bh692rcd13ifvqea0","pricing_plan_id":"cebpf4jnsgd1na2vs0mg"},{"bike_id":"e2cd53c3-05b5-4ba8-8d5b-5a634dda313e","system_id":"levelo_inurba_marseille","lat":43.2844,"lon":5.3918,"is_reserved":false,"is_disabled":false,"rental_uris":{"android":"levelo://app?vid=e2cd53c3-05b5-4ba8-8d5b-5a634dda313e","ios":"levelo://app?vid=e2cd53c3-05b5-4ba8-8d5b-5a634dda313e"},"vehicle_type_id":"4","last_reported":1739041648,"current_range_meters":39200,"station_id":"ce4bhoh2rcd13ifvqh5g","pricing_plan_id":"cebpf4jnsgd1na2vs0mg"},{"bike_id":"8ddc9968-3cce-4751-a149-3a86d0f3c99c","system_id":"levelo_inurba_marseille","lat":43.28705,"lon":5.39981,"is_reserved":false,"is_disabled":false,"rental_uris":{"android":"levelo://app?vid=8ddc9968-3cce-4751-a149-3a86d0f3c99c","ios":"levelo://app?vid=8ddc9968-3cce-4751-a149-3a86d0f3c99c"},"vehicle_type_id":"4","last_reported":1739041648,"current_range_meters":38800,"station_id":"ce4bho92rcd13ifvqh3g","pricing_plan_id":"cebpf4jnsgd1na2vs0mg"},{"bike_id":"55922e5d-9617-41e3-bae5-f93752853521","system_id":"levelo_inurba_marseille","lat":43.31982,"lon":5.38138,"is_reserved":false,"is_disabled":false,"rental_uris":{"android":"levelo://app?vid=55922e5d-9617-41e3-bae5-f93752853521","ios":"levelo://app?vid=55922e5d-9617-41e3-bae5-f93752853521"},"vehicle_type_id":"4","last_reported":1739041648,"current_range_meters":36800,"station_id":"ce4bhr12rcd13ifvqhpg","pricing_plan_id":"cebpf4jnsgd1na2vs0mg"},{"bike_id":"b6be6d2d-71f7-4051-90a7-2961d293eab1","system_id":"levelo_inurba_marseille","lat":43.29429,"lon":5.3863,"is_reserved":false,"is_disabled":false,"rental_uris":{"android":"levelo://app?vid=b6be6d2d-71f7-4051-90a7-2961d293eab1","ios":"levelo://app?vid=b6be6d2d-71f7-4051-90a7-2961d293eab1"},"vehicle_type_id":"4","last_reported":1739041648,"current_range_meters":32400,"station_id":"ce4bh2h2rcd13ifvqdh0","pricing_plan_id":"cebpf4jnsgd1na2vs0mg"},{"bike_id":"2b335244-6a2f-4b0e-9a5b-bcc02d5f5a2d","system_id":"levelo_inurba_marseille","lat":43.31126,"lon":5.3776,"is_reserved":false,"is_disabled":false,"rental_uris":{"android":"levelo://app?vid=2b335244-6a2f-4b0e-9a5b-bcc02d5f5a2d","ios":"levelo://app?vid=2b335244-6a2f-4b0e-9a5b-bcc02d5f5a2d"},"vehicle_type_id":"4","last_reported":1739041648,"current_range_meters":30400,"station_id":"ce4bgt92rcd13ifvqcg0","pricing_plan_id":"cebpf4jnsgd1na2vs0mg"},{"bike_id":"e82fa571-a0a5-482d-a191-562866bf1df5","system_id":"levelo_inurba_marseille","lat":43.27375,"lon":5.36264,"is_reserved":false,"is_disabled":false,"rental_uris":{"android":"levelo://app?vid=e82fa571-a0a5-482d-a191-562866bf1df5","ios":"levelo://app?vid=e82fa571-a0a5-482d-a191-562866bf1df5"},"vehicle_type_id":"4","last_reported":1739041648,"current_range_meters":38800,"station_id":"ce4bhbh2rcd13ifvqeo0","pricing_plan_id":"cebpf4jnsgd1na2vs0mg"},{"bike_id":"54821b8f-03ba-4360-abc1-91db00db4644","system_id":"levelo_inurba_marseille","lat":43.25493,"lon":5.3766,"is_reserved":false,"is_disabled":false,"rental_uris":{"android":"levelo://app?vid=54821b8f-03ba-4360-abc1-91db00db4644","ios":"levelo://app?vid=54821b8f-03ba-4360-abc1-91db00db4644"},"vehicle_type_id":"4","last_reported":1739041648,"current_range_meters":38800,"station_id":"ce4bhh12rcd13ifvqff0","pricing_plan_id":"cebpf4jnsgd1na2vs0mg"},{"bike_id":"a6e1b439-04e4-421f-a5a6-259ce9531499","system_id":"levelo_inurba_marseille","lat":43.270611,"lon":5.402624,"is_reserved":false,"is_disabled":false,"rental_uris":{"android":"levelo://app?vid=a6e1b439-04e4-421f-a5a6-259ce9531499","ios":"levelo://app?vid=a6e1b439-04e4-421f-a5a6-259ce9531499"},"vehicle_type_id":"4","last_reported":1739041648,"current_range_meters":29600,"station_id":"ce4bhk92rcd13ifvqgc0","pricing_plan_id":"cebpf4jnsgd1na2vs0mg"},{"bike_id":"38680d34-2678-41b5-8e56-3bc86008333d","system_id":"levelo_inurba_marseille","lat":43.29261,"lon":5.40899,"is_reserved":false,"is_disabled":false,"rental_uris":{"android":"levelo://app?vid=38680d34-2678-41b5-8e56-3bc86008333d","ios":"levelo://app?vid=38680d34-2678-41b5-8e56-3bc86008333d"},"vehicle_type_id":"4","last_reported":1739041648,"current_range_meters":30800,"station_id":"ce4bh192rcd13ifvqdc0","pricing_plan_id":"cebpf4jnsgd1na2vs0mg"},