{"last_updated":1744794650,"ttl":60,"version":"2.2","data":{"bikes":[{"bike_id":"acc90782-aeb5-4c34-9bfc-169307ebd502","system_id":"levelo_inurba_marseille","lat":43.30924,"lon":5.40147,"is_reserved":false,"is_disabled":false,"rental_uris":{"android":"levelo://app?vid=acc90782-aeb5-4c34-9bfc-169307ebd502","ios":"levelo://app?vid=acc90782-aeb5-4c34-9bfc-169307ebd502"},"vehicle_type_id":"4","last_reported":1744794650,"current_range_meters":2800,"station_id":"ce4bgvp2rcd13ifvqct0","pricing_plan_id":"cebpf4jnsgd1na2vs0mg"},{"bike_id":"e0b3c9be-4f43-4b5d-b2aa-6aa919976fa1","system_id":"levelo_inurba_marseille","lat":43.28334,"lon":5.37533,"is_reserved":false,"is_disabled":false,"rental_uris":{"android":"levelo://app?vid=e0b3c9be-4f43-4b5d-b2aa-6aa919976fa1","ios":"levelo://app?vid=e0b3c9be-4f43-4b5d-b2aa-6aa919976fa1"},"vehicle_type_id":"4","last_reported":1744794650,"current_range_meters":3200,"station_id":"ce4bhap2rcd13ifvqek0","pricing_plan_id":"cebpf4jnsgd1na2vs0mg"},{"bike_id":"88dc6a23-9b04-48b0-bf85-c177443d0763","system_id":"levelo_inurba_marseille","lat":43.33608,"lon":5.410076,"is_reserved":false,"is_disabled":false,"rental_uris":{"android":"levelo://app?vid=88dc6a23-9b04-48b0-bf85-c177443d0763","ios":"levelo://app?vid=88dc6a23-9b04-48b0-bf85-c177443d0763"},"vehicle_type_id":"4","last_reported":1744794650,"current_range_meters":3200,"station_id":"ce4bhqh2rcd13ifvqhmg","pricing_plan_id":"cebpf4jnsgd1na2vs0mg"},{"bike_id":"6ce553e6-60e2-4f33-922e-40962f99a63b","system_id":"levelo_inurba_marseille","lat":43.31688,"lon":5.40462,"is_reserved":false,"is_disabled":false,"rental_uris":{"android":"levelo://app?vid=6ce553e6-60e2-4f33-922e-40962f99a63b","ios":"levelo://app?vid=6ce553e6-60e2-4f33-922e-40962f99a63b"},"vehicle_type_id":"4","last_reported":1744794650,"current_range_meters":3600,"station_id":"ce4bh012rcd13ifvqd00","pricing_plan_id":"cebpf4jnsgd1na2vs0mg"},{"bike_id":"217daf66-49c9-4b7f-9ef3-e00ea0f230b9","system_id":"levelo_inurba_marseille","lat":43.31344,"lon":5.36737,"is_reserved":false,"is_disabled":false,"rental_uris":{"android":"levelo://app?vid=217daf66-49c9-4b7f-9ef3-e00ea0f230b9","ios":"levelo://app?vid=217daf66-49c9-4b7f-9ef3-e00ea0f230b9"},"vehicle_type_id":"4","last_reported":1744794650,"current_range_meters":3600,"station_id":"ce4bgr92rcd13ifvqc6g","pricing_plan_id":"cebpf4jnsgd1na2vs0mg"},{"bike_id":"d034f06c-f97e-4729-9354-6348be20338c","system_id":"levelo_inurba_marseille","lat":43.31689,"lon":5.40472,"is_reserved":false,"is_disabled":false,"rental_uris":{"android":"levelo://app?vid=d034f06c-f97e-4729-9354-6348be20338c","ios":"levelo://app?vid=d034f06c-f97e-4729-9354-6348be20338c"},"vehicle_type_id":"4","last_reported":1744794650,"current_range_meters":4000,"station_id":"ce4bh012rcd13ifvqd00","pricing_plan_id":"cebpf4jnsgd1na2vs0mg"},{"bike_id":"18732393-3419-419f-948d-5449399ba16a","system_id":"levelo_inurba_marseille","lat":43.30962,"lon":5.39053,"is_reserved":false,"is_disabled":true,"rental_uris":{"android":"levelo://app?vid=18732393-3419-419f-948d-5449399ba16a","ios":"levelo://app?vid=18732393-3419-419f-948d-5449399ba16a"},"vehicle_type_id":"4","last_reported":1744794650,"current_range_meters":4400,"station_id":"ce4bgup2rcd13ifvqco0","pricing_plan_id":"cebpf4jnsgd1na2vs0mg"},{"bike_id":"33c49ce4-4511-40dc-97c7-faab16b44ba4","system_id":"levelo_inurba_marseille","lat":43.29523,"lon":5.39043,"is_reserved":false,"is_disabled":false,"rental_uris":{"android":"levelo://app?vid=33c49ce4-4511-40dc-97c7-faab16b44ba4","ios":"levelo://app?vid=33c49ce4-4511-40dc-97c7-faab16b44ba4"},"vehicle_type_id":"4","last_reported":1744794650,"current_range_meters":4400,"station_id":"ce4bh3p2rcd13ifvqdp0","pricing_plan_id":"cebpf4jnsgd1na2vs0mg"},{"bike_id":"f08d3f9d-c0e1-4cbf-b616-89470bb4b53b","system_id":"levelo_inurba_marseille","lat":43.296975,"lon":5.366048,"is_reserved":false,"is_disabled":false,"rental_uris":{"android":"levelo://app?vid=f08d3f9d-c0e1-4cbf-b616-89470bb4b53b","ios":"levelo://app?vid=f08d3f9d-c0e1-4cbf-b616-89470bb4b53b"},"vehicle_type_id":"4","last_reported":1744794650,"current_range_meters":4400,"station_id":"","pricing_plan_id":"cebpf4jnsgd1na2vs0mg"},{"bike_id":"7bb0084d-3c8a-46ef-80a8-1e376b3726a4","system_id":"levelo_inurba_marseille","lat":43.265,"lon":5.395348,"is_reserved":false,"is_disabled":false,"rental_uris":{"android":"levelo://app?vid=7bb0084d-3c8a-46ef-80a8-1e376b3726a4","ios":"levelo://app?vid=7bb0084d-3c8a-46ef-80a8-1e376b3726a4"},"vehicle_type_id":"4","last_reported":1744794650,"current_range_meters":5600,"station_id":"ce4bhi12rcd13ifvqfq0","pricing_plan_id":"cebpf4jnsgd1na2vs0mg"},{"bike_id":"a31dcb55-39f3-41e9-862f-c18fe765540e","system_id":"levelo_inurba_marseille","lat":43.297553,"lon":5.385408,"is_reserved":false,"is_disabled":false,"rental_uris":{"android":"levelo://app?vid=a31dcb55-39f3-41e9-862f-c18fe765540e","ios":"levelo://app?vid=a31dcb55-39f3-41e9-862f-c18fe765540e"},"vehicle_type_id":"4","last_reported":1744794650,"current_range_meters":5600,"station_id":"ce4bh692rcd13ifvqea0","pricing_plan_id":"cebpf4jnsgd1na2vs0mg"},{"bike_id":"fa746b3f-52b3-45b8-9252-bd11f556e21d","system_id":"levelo_inurba_marseille","lat":43.29027,"lon":5.39976,"is_reserved":false,"is_disabled":false,"rental_uris":{"android":"levelo://app?vid=fa746b3f-52b3-45b8-9252-bd11f556e21d","ios":"levelo://app?vid=fa746b3f-52b3-45b8-9252-bd11f556e21d"},"vehicle_type_id":"4","last_reported":1744794650,"current_range_meters":6000,"station_id":"ce4bh392rcd13ifvqdm0","pricing_plan_id":"cebpf4jnsgd1na2vs0mg"},{"bike_id":"8ed04f84-4f60-4210-8826-66c2d615b742","system_id":"levelo_inurba_marseille","lat":43.23058,"lon":5.35488,"is_reserved":false,"is_disabled":false,"rental_uris":{"android":"levelo://app?vid=8ed04f84-4f60-4210-8826-66c2d615b742","ios":"levelo://app?vid=8ed04f84-4f60-4210-8826-66c2d615b742"},"vehicle_type_id":"4","last_reported":1744794650,"current_range_meters":6000,"station_id":"cpo3342slgdg3j2ifvpg","pricing_plan_id":"cebpf4jnsgd1na2vs0mg"},{"bike_id":"207b15a7-69f1-4c4a-a29d-f91df1564475","system_id":"levelo_inurba_marseille","lat":43.24081,"lon":5.37748,"is_reserved":false,"is_disabled":false,"rental_uris":{"android":"levelo://app?vid=207b15a7-69f1-4c4a-a29d-f91df1564475","ios":"levelo://app?vid=207b15a7-69f1-4c4a-a29d-f91df1564475"},"vehicle_type_id":"4","last_reported":1744794650,"current_range_meters":6000,"station_id":"ce4bhnp2rcd13ifvqgvg","pricing_plan_id":"cebpf4jnsgd1na2vs0mg"},{"bike_id":"a668abbc-a092-49f5-9124-b0b71b0d2e46","system_id":"levelo_inurba_marseille","lat":43.22925,"lon":5.35371,"is_reserved":false,"is_disabled":false,"rental_uris":{"android":"levelo://app?vid=a668abbc-a092-49f5-9124-b0b71b0d2e46","ios":"levelo://app?vid=a668abbc-a092-49f5-9124-b0b71b0d2e46"},"vehicle_type_id":"4","last_reported":1744794650,"current_range_meters":6400,"station_id":"cpo3532slgdg3j2ikp40","pricing_plan_id":"cebpf4jnsgd1na2vs0mg"},{"bike_id":"4d5c9219-dab2-4a84-8f6e-9bff1ce514f0","system_id":"levelo_inurba_marseille","lat":43.278349,"lon":5.392094,"is_reserved":false,"is_disabled":false,"rental_uris":{"android":"levelo://app?vid=4d5c9219-dab2-4a84-8f6e-9bff1ce514f0","ios":"levelo://app?vid=4d5c9219-dab2-4a84-8f6e-9bff1ce514f0"},"vehicle_type_id":"4","last_reported":1744794650,"current_range_meters":6400,"station_id":"ce4bhjp2rcd13ifvqga0","pricing_plan_id":"cebpf4jnsgd1na2vs0mg"},{"bike_id":"c273cedc-5337-4dec-91b4-1636fd7d09ad","system_id":"levelo_inurba_marseille","lat":43.31454,"lon":5.37597,"is_reserved":false,"is_disabled":false,"rental_uris":{"android":"levelo://app?vid=c273cedc-5337-4dec-91b4-1636fd7d09ad","ios":"levelo://app?vid=c273cedc-5337-4dec-91b4-1636fd7d09ad"},"vehicle_type_id":"4","last_reported":1744794650,"current_range_meters":6800,"station_id":"","pricing_plan_id":"cebpf4jnsgd1na2vs0mg"},{"bike_id":"a8bce765-48d7-4f94-907d-9b3fef87e2cf","system_id":"levelo_inurba_marseille","lat":43.27832,"lon":5.39205,"is_reserved":false,"is_disabled":true,"rental_uris":{"android":"levelo://app?vid=a8bce765-48d7-4f94-907d-9b3fef87e2cf","ios":"levelo://app?vid=a8bce765-48d7-4f94-907d-9b3fef87e2cf"},"vehicle_type_id":"4","last_reported":1744794650,"current_range_meters":6800,"station_id":"ce4bhjp2rcd13ifvqga0","pricing_plan_id":"cebpf4jnsgd1na2vs0mg"},{"bike_id":"f443cfdb-db2e-4f4b-a88d-615075e28818","system_id":"levelo_inurba_marseille","lat":43.30556,"lon":5.36534,"is_reserved":false,"is_disabled":false,"rental_uris":{"android":"levelo://app?vid=f443cfdb-db2e-4f4b-a88d-615075e28818","ios":"levelo://app?vid=f443cfdb-db2e-4f4b-a88d-615075e28818"},"vehicle_type_id":"4","last_reported":1744794650,"current_range_meters":7200,"station_id":"ce4bgs12rcd13ifvqcag","pricing_plan_id":"cebpf4jnsgd1na2vs0mg"},{"bike_id":"1c48df39-3fc3-4302-9f36-3d9e8161bba5","system_id":"levelo_inurba_marseille","lat":43.28676,"lon":5.3866,"is_reserved":false,"is_disabled":false,"rental_uris":{"android":"levelo://app?vid=1c48df39-3fc3-4302-9f36-3d9e8161bba5","ios":"levelo://app?vid=1c48df39-3fc3-4302-9f36-3d9e8161bba5"},"vehicle_type_id":"4","last_reported":1744794650,"current_range_meters":7200,"station_id":"ce4bh492rcd13ifvqdug","pricing_plan_id":"cebpf4jnsgd1na2vs0mg"},{"bike_id":"2aeae2b2-290f-45a9-895e-86c5fa9642be","system_id":"levelo_inurba_marseille","lat":43.29257,"lon":5.40908,"is_reserved":false,"is_disabled":false,"rental_uris":{"android":"levelo://app?vid=2aeae2b2-290f-45a9-895e-86c5fa9642be","ios":"levelo://app?vid=2aeae2b2-290f-45a9-895e-86c5fa9642be"},"vehicle_type_id":"4","last_reported":1744794650,"current_range_meters":7200,"station_id":"ce4bh192rcd13ifvqdc0","pricing_plan_id":"cebpf4jnsgd1na2vs0mg"},{"bike_id":"e1103876-639d-4bb4-8300-d22110ae76d3","system_id":"levelo_inurba_marseille","lat":43.273,"lon":5.41084,"is_reserved":false,"is_disabled":false,"rental_uris":{"android":"levelo://app?vid=e1103876-639d-4bb4-8300-d22110ae76d3","ios":"levelo://app?vid=e1103876-639d-4bb4-8300-d22110ae76d3"},"vehicle_type_id":"4","last_reported":1744794650,"current_range_meters":7200,"station_id":"","pricing_plan_id":"cebpf4jnsgd1na2vs0mg"},{"bike_id":"a0636e31-c89e-4ae1-aea4-880988d0da0e","system_id":"levelo_inurba_marseille","lat":43.29591,"lon":5.42308,"is_reserved":false,"is_disabled":false,"rental_uris":{"android":"levelo://app?vid=a0636e31-c89e-4ae1-aea4-880988d0da0e","ios":"levelo://app?vid=a0636e31-c89e-4ae1-aea4-880988d0da0e"},"vehicle_type_id":"4","last_reported":1744794650,"current_range_meters":7200,"station_id":"ce4bhph2rcd13ifvqhdg","pricing_plan_id":"cebpf4jnsgd1na2vs0mg"},{"bike_id":"4ca1fc76-01c8-4686-94a5-a46dd951837f","system_id":"levelo_inurba_marseille","lat":43.27809,"lon":5.40725,"is_reserved":false,"is_disabled":false,"rental_uris":{"android":"levelo://app?vid=4ca1fc76-01c8-4686-94a5-a46dd951837f","ios":"levelo://app?vid=4ca1fc76-01c8-4686-94a5-a46dd951837f"},"vehicle_type_id":"4","last_reported":1744794650,"current_range_meters":7200,"station_id":"ce4bhnh2rcd13ifvqgtg","pricing_plan_id":"cebpf4jnsgd1na2vs0mg"},{"bike_id":"27a55245-8dd2-4f1a-af63-95a9d7b71690","system_id":"levelo_inurba_marseille","lat":43.310667,"lon":5.378471,"is_reserved":false,"is_disabled":false,"rental_uris":{"android":"levelo://app?vid=27a55245-8dd2-4f1a-af63-95a9d7b71690","ios":"levelo://app?vid=27a55245-8dd2-4f1a-af63-95a9d7b71690"},"vehicle_type_id":"4","last_reported":1744794650,"current_range_meters":7200,"station_id":"","pricing_plan_id":"cebpf4jnsgd1na2vs0mg"},{"bike_id":"019aebdb-ca21-4835-a2d5-7cb30e9a1a5c","system_id":"levelo_inurba_marseille","lat":43.21748,"lon":5.34601,"is_reserved":false,"is_disabled":false,"rental_uris":{"android":"levelo://app?vid=019aebdb-ca21-4835-a2d5-7cb30e9a1a5c","ios":"levelo://app?vid=019aebdb-ca21-4835-a2d5-7cb30e9a1a5c"},"vehicle_type_id":"4","last_reported":1744794650,"current_range_meters":8000,"station_id":"st_cvj6r9ubvosntc0bgbag","pricing_plan_id":"cebpf4jnsgd1na2vs0mg"},{"bike_id":"e7c0e1be-7958-4267-aa15-c0fb9dd26871","system_id":"levelo_inurba_marseille","lat":43.29272,"lon":5.36846,"is_reserved":false,"is_disabled":false,"rental_uris":{"android":"levelo://app?vid=e7c0e1be-7958-4267-aa15-c0fb9dd26871","ios":"levelo://app?vid=e7c0e1be-7958-4267-aa15-c0fb9dd26871"},"vehicle_type_id":"4","last_reported":1744794650,"current_range_meters":8000,"station_id":"ce4bhbp2rcd13ifvqesg","pricing_plan_id":"cebpf4jnsgd1na2vs0mg"},{"bike_id":"b7ab99ba-94bb-4274-aca7-e6131d0e5ab1","system_id":"levelo_inurba_marseille","lat":43.24178,"lon":5.36399,"is_reserved":false,"is_disabled":false,"rental_uris":{"android":"levelo://app?vid=b7ab99ba-94bb-4274-aca7-e6131d0e5ab1","ios":"levelo://app?vid=b7ab99ba-94bb-4274-aca7-e6131d0e5ab1"},"vehicle_type_id":"4","last_reported":1744794650,"current_range_meters":8000,"station_id":"cpo36qri1sfpv3e86is0","pricing_plan_id":"cebpf4jnsgd1na2vs0mg"},{"bike_id":"36b557d5-4b1a-4056-b98a-fa1a5029df07","system_id":"levelo_inurba_marseille","lat":43.30947,"lon":5.39044,"is_reserved":false,"is_disabled":false,"rental_uris":{"android":"levelo://app?vid=36b557d5-4b1a-4056-b98a-fa1a5029df07","ios":"levelo://app?vid=36b557d5-4b1a-4056-b98a-fa1a5029df07"},"vehicle_type_id":"4","last_reported":1744794650,"current_range_meters":8000,"station_id":"ce4bgup2rcd13ifvqco0","pricing_plan_id":"cebpf4jnsgd1na2vs0mg"},{"bike_id":"875aae9c-097c-48ea-a470-526298dc2097","system_id":"levelo_inurba_marseille","lat":43.240808,"lon":5.377485,"is_reserved":false,"is_disabled":false,"rental_uris":{"android":"levelo://app?vid=875aae9c-097c-48ea-a470-526298dc2097","ios":"levelo://app?vid=875aae9c-097c-48ea-a470-526298dc2097"},"vehicle_type_id":"4","last_reported":1744794650,"current_range_meters":8000,"station_id":"ce4bhnp2rcd13ifvqgvg","pricing_plan_id":"cebpf4jnsgd1na2vs0mg"},{"bike_id":"9f64dba0-3982-4db9-beae-6b00969aa4cd","system_id":"levelo_inurba_marseille","lat":43.30959,"lon":5.39084,"is_reserved":false,"is_disabled":false,"rental_uris":{"android":"levelo://app?vid=9f64dba0-3982-4db9-beae-6b00969aa4cd","ios":"levelo://app?vid=9f64dba0-3982-4db9-beae-6b00969aa4cd"},"vehicle_type_id":"4","last_reported":1744794650,"current_range_meters":8000,"station_id":"ce4bgup2rcd13ifvqco0","pricing_plan_id":"cebpf4jnsgd1na2vs0mg"},{"bike_id":"7b9b4628-1a20-4984-8485-64a109f0d4ae","system_id":"levelo_inurba_marseille","lat":43.29259,"lon":5.37621,"is_reserved":false,"is_disabled":false,"rental_uris":{"android":"levelo://app?vid=7b9b4628-1a20-4984-8485-64a109f0d4ae","ios":"levelo://app?vid=7b9b4628-1a20-4984-8485-64a109f0d4ae"},"vehicle_type_id":"4","last_reported":1744794650,"current_range_meters":8000,"station_id":"ce4bgi12rcd13ifvqb80","pricing_plan_id":"cebpf4jnsgd1na2vs0mg"},{"bike_id":"2f6df327-2b9e-4e96-91cc-f38c6cef3b8b","system_id":"levelo_inurba_marseille","lat":43.24145,"lon":5.39702,"is_reserved":false,"is_disabled":false,"rental_uris":{"android":"levelo://app?vid=2f6df327-2b9e-4e96-91cc-f38c6cef3b8b","ios":"levelo://app?vid=2f6df327-2b9e-4e96-91cc-f38c6cef3b8b"},"vehicle_type_id":"4","last_reported":1744794650,"current_range_meters":8400,"station_id":"ce4bhn12rcd13ifvqgpg","pricing_plan_id":"cebpf4jnsgd1na2vs0mg"},{"bike_id":"43b14ed2-aebe-4ab3-b543-9cbb36a3d628","system_id":"levelo_inurba_marseille","lat":43.2984,"lon":5.36287,"is_reserved":false,"is_disabled":false,"rental_uris":{"android":"levelo://app?vid=43b14ed2-aebe-4ab3-b543-9cbb36a3d628","ios":"levelo://app?vid=43b14ed2-aebe-4ab3-b543-9cbb36a3d628"},"vehicle_type_id":"4","last_reported":1744794650,"current_range_meters":8400,"station_id":"ce4bgpp2rcd13ifvqc3g","pricing_plan_id":"cebpf4jnsgd1na2vs0mg"},{"bike_id":"25e230f4-e34c-445f-87cd-877f61101b31","system_id":"levelo_inurba_marseille","lat":43.31117,"lon":5.36835,"is_reserved":false,"is_disabled":false,"rental_uris":{"android":"levelo://app?vid=25e230f4-e34c-445f-87cd-877f61101b31","ios":"levelo://app?vid=25e230f4-e34c-445f-87cd-877f61101b31"},"vehicle_type_id":"4","last_reported":1744794650,"current_range_meters":8400,"station_id":"ce4bgl92rcd13ifvqbq0","pricing_plan_id":"cebpf4jnsgd1na2vs0mg"},{"bike_id":"81e8879f-42db-4e92-9db7-7fa8b86649d0","system_id":"levelo_inurba_marseille","lat":43.265682,"lon":5.372894,"is_reserved":false,"is_disabled":false,"rental_uris":{"android":"levelo://app?vid=81e8879f-42db-4e92-9db7-7fa8b86649d0","ios":"levelo://app?vid=81e8879f-42db-4e92-9db7-7fa8b86649d0"},"vehicle_type_id":"4","last_reported":1744794650,"current_range_meters":8400,"station_id":"ce4bhg12rcd13ifvqf70","pricing_plan_id":"cebpf4jnsgd1na2vs0mg"},{"bike_id":"ee13f1b9-2318-4bfa-987a-761291b58b20","system_id":"levelo_inurba_marseille","lat":43.28158,"lon":5.42643,"is_reserved":false,"is_disabled":false,"rental_uris":{"android":"levelo://app?vid=ee13f1b9-2318-4bfa-987a-761291b58b20","ios":"levelo://app?vid=ee13f1b9-2318-4bfa-987a-761291b58b20"},"vehicle_type_id":"4","last_reported":1744794650,"current_range_meters":8400,"station_id":"ce4bhnh2rcd13ifvqgug","pricing_plan_id":"cebpf4jnsgd1na2vs0mg"},{"bike_id":"cfe682df-d0ce-4143-9cdc-c9c6578e1b0d","system_id":"levelo_inurba_marseille","lat":43.30252,"lon":5.40046,"is_reserved":false,"is_disabled":true,"rental_uris":{"android":"levelo://app?vid=cfe682df-d0ce-4143-9cdc-c9c6578e1b0d","ios":"levelo://app?vid=cfe682df-d0ce-4143-9cdc-c9c6578e1b0d"},"vehicle_type_id":"4","last_reported":1744794650,"current_range_meters":8800,"station_id":"ce4bgvh2rcd13ifvqcs0","pricing_plan_id":"cebpf4jnsgd1na2vs0mg"},{"bike_id":"2797dcdb-c4e1-48b2-82d6-5677d371fa39","system_id":"levelo_inurba_marseille","lat":43.24183,"lon":5.364,"is_reserved":false,"is_disabled":false,"rental_uris":{"android":"levelo://app?vid=2797dcdb-c4e1-48b2-82d6-5677d371fa39","ios":"levelo://app?vid=2797dcdb-c4e1-48b2-82d6-5677d371fa39"},"vehicle_type_id":"4","last_reported":1744794650,"current_range_meters":9200,"station_id":"cpo36qri1sfpv3e86is0","pricing_plan_id":"cebpf4jnsgd1na2vs0mg"},{"bike_id":"3b64116b-629b-4b33-81b1-aebb5edb9957","system_id":"levelo_inurba_marseille","lat":43.31488,"lon":5.37308,"is_reserved":false,"is_disabled":false,"rental_uris":{"android":"levelo://app?vid=3b64116b-629b-4b33-81b1-aebb5edb9957","ios":"levelo://app?vid=3b64116b-629b-4b33-81b1-aebb5edb9957"},"vehicle_type_id":"4","last_reported":1744794650,"current_range_meters":9200,"station_id":"ce4bgt12rcd13ifvqcd0","pricing_plan_id":"cebpf4jnsgd1na2vs0mg"},{"bike_id":"943d835e-e441-49d4-b7f7-4724ffc66162","system_id":"levelo_inurba_marseille","lat":43.25,"lon":5.38942,"is_reserved":false,"is_disabled":false,"rental_uris":{"android":"levelo://app?vid=943d835e-e441-49d4-b7f7-4724ffc66162","ios":"levelo://app?vid=943d835e-e441-49d4-b7f7-4724ffc66162"},"vehicle_type_id":"4","last_reported":1744794650,"current_range_meters":9200,"station_id":"ce4bhgp2rcd13ifvqfd0","pricing_plan_id":"cebpf4jnsgd1na2vs0mg"},{"bike_id":"376f754b-7bba-4962-babe-b49b1468281c","system_id":"levelo_inurba_marseille","lat":43.30926,"lon":5.4015,"is_reserved":false,"is_disabled":true,"rental_uris":{"android":"levelo://app?vid=376f754b-7bba-4962-babe-b49b1468281c","ios":"levelo://app?vid=376f754b-7bba-4962-babe-b49b1468281c"},"vehicle_type_id":"4","last_reported":1744794650,"current_range_meters":9200,"station_id":"ce4bgvp2rcd13ifvqct0","pricing_plan_id":"cebpf4jnsgd1na2vs0mg"},{"bike_id":"68bb5c2f-fd19-492d-b0bb-5841e6724b4a","system_id":"levelo_inurba_marseille","lat":43.22922,"lon":5.35345,"is_reserved":false,"is_disabled":false,"rental_uris":{"android":"levelo://app?vid=68bb5c2f-fd19-492d-b0bb-5841e6724b4a","ios":"levelo://app?vid=68bb5c2f-fd19-492d-b0bb-5841e6724b4a"},"vehicle_type_id":"4","last_reported":1744794650,"current_range_meters":9600,"station_id":"cpo3532slgdg3j2ikp40","pricing_plan_id":"cebpf4jnsgd1na2vs0mg"},{"bike_id":"a258853b-4042-487e-ab9f-ab82b0c24a5f","system_id":"levelo_inurba_marseille","lat":43.30402,"lon":5.38113,"is_reserved":false,"is_disabled":false,"rental_uris":{"android":"levelo://app?vid=a258853b-4042-487e-ab9f-ab82b0c24a5f","ios":"levelo://app?vid=a258853b-4042-487e-ab9f-ab82b0c24a5f"},"vehicle_type_id":"4","last_reported":1744794650,"current_range_meters":9600,"station_id":"","pricing_plan_id":"cebpf4jnsgd1na2vs0mg"},{"bike_id":"dd8f0ff9-117f-4fd9-bc7c-ef5d85c7f322","system_id":"levelo_inurba_marseille","lat":43.31995,"lon":5.3814,"is_reserved":false,"is_disabled":false,"rental_uris":{"android":"levelo://app?vid=dd8f0ff9-117f-4fd9-bc7c-ef5d85c7f322","ios":"levelo://app?vid=dd8f0ff9-117f-4fd9-bc7c-ef5d85c7f322"},"vehicle_type_id":"4","last_reported":1744794650,"current_range_meters":9600,"station_id":"ce4bhr12rcd13ifvqhpg","pricing_plan_id":"cebpf4jnsgd1na2vs0mg"},{"bike_id":"03c8cee0-a6a5-48f4-b783-f14451736b24","system_id":"levelo_inurba_marseille","lat":43.27182,"lon":5.41023,"is_reserved":false,"is_disabled":false,"rental_uris":{"android":"levelo://app?vid=03c8cee0-a6a5-48f4-b783-f14451736b24","ios":"levelo://app?vid=03c8cee0-a6a5-48f4-b783-f14451736b24"},"vehicle_type_id":"4","last_reported":1744794650,"current_range_meters":9600,"station_id":"ce4bhl12rcd13ifvqgf0","pricing_plan_id":"cebpf4jnsgd1na2vs0mg"},{"bike_id":"f90e6c46-64ce-4c34-b026-356152967d21","system_id":"levelo_inurba_marseille","lat":43.295254,"lon":5.390401,"is_reserved":false,"is_disabled":false,"rental_uris":{"android":"levelo://app?vid=f90e6c46-64ce-4c34-b026-356152967d21","ios":"levelo://app?vid=f90e6c46-64ce-4c34-b026-356152967d21"},"vehicle_type_id":"4","last_reported":1744794650,"current_range_meters":9600,"station_id":"ce4bh3p2rcd13ifvqdp0","pricing_plan_id":"cebpf4jnsgd1na2vs0mg"},{"bike_id":"a4b5d8e9-a03a-42b0-80df-d51521de0235","system_id":"levelo_inurba_marseille","lat":43.31349,"lon":5.36745,"is_reserved":false,"is_disabled":false,"rental_uris":{"android":"levelo://app?vid=a4b5d8e9-a03a-42b0-80df-d51521de0235","ios":"levelo://app?vid=a4b5d8e9-a03a-42b0-80df-d51521de0235"},"vehicle_type_id":"4","last_reported":1744794650,"current_range_meters":10000,"station_id":"ce4bgr92rcd13ifvqc6g","pricing_plan_id":"cebpf4jnsgd1na2vs0mg"},{"bike_id":"a8132d22-4ce6-4e24-9e2c-e02042e4181b","system_id":"levelo_inurba_marseille","lat":43.21769,"lon":5.34603,"is_reserved":false,"is_disabled":false,"rental_uris":{"android":"levelo://app?vid=a8132d22-4ce6-4e24-9e2c-e02042e4181b","ios":"levelo://app?vid=a8132d22-4ce6-4e24-9e2c-e02042e4181b"},"vehicle_type_id":"4","last_reported":1744794650,"current_range_meters":10800,"station_id":"st_cvj6r9ubvosntc0bgbag","pricing_plan_id":"cebpf4jnsgd1na2vs0mg"},{"bike_id":"ecc26774-7f80-4834-883f-3a8990a5fcbe","system_id":"levelo_inurba_marseille","lat":43.23972,"lon":5.3664,"is_reserved":false,"is_disabled":false,"rental_uris":{"android":"levelo://app?vid=ecc26774-7f80-4834-883f-3a8990a5fcbe","ios":"levelo://app?vid=ecc26774-7f80-4834-883f-3a8990a5fcbe"},"vehicle_type_id":"4","last_reported":1744794650,"current_range_meters":10800,"station_id":"ce4bhi12rcd13ifvqfp0","pricing_plan_id":"cebpf4jnsgd1na2vs0mg"},{"bike_id":"45c6b552-68fd-454d-84d3-cf79221aaee4","system_id":"levelo_inurba_marseille","lat":43.29864,"lon":5.40867,"is_reserved":false,"is_disabled":false,"rental_uris":{"android":"levelo://app?vid=45c6b552-68fd-454d-84d3-cf79221aaee4","ios":"levelo://app?vid=45c6b552-68fd-454d-84d3-cf79221aaee4"},"vehicle_type_id":"4","last_reported":1744794650,"current_range_meters":10800,"station_id":"","pricing_plan_id":"cebpf4jnsgd1na2vs0mg"},{"bike_id":"1c0c17d4-38c5-4a1c-8a19-a752fa5d90ed","system_id":"levelo_inurba_marseille","lat":43.2318,"lon":5.39994,"is_reserved":false,"is_disabled":false,"rental_uris":{"android":"levelo://app?vid=1c0c17d4-38c5-4a1c-8a19-a752fa5d90ed","ios":"levelo://app?vid=1c0c17d4-38c5-4a1c-8a19-a752fa5d90ed"},"vehicle_type_id":"4","last_reported":1744794650,"current_range_meters":10800,"station_id":"ce4bhn12rcd13ifvqgqg","pricing_plan_id":"cebpf4jnsgd1na2vs0mg"},{"bike_id":"cabd05a9-db85-4a2d-b325-b3ffb6027715","system_id":"levelo_inurba_marseille","lat":43.3248,"lon":5.36581,"is_reserved":false,"is_disabled":false,"rental_uris":{"android":"levelo://app?vid=cabd05a9-db85-4a2d-b325-b3ffb6027715","ios":"levelo://app?vid=cabd05a9-db85-4a2d-b325-b3ffb6027715"},"vehicle_type_id":"4","last_reported":1744794650,"current_range_meters":11200,"station_id":"ce4bhs12rcd13ifvqhvg","pricing_plan_id":"cebpf4jnsgd1na2vs0mg"},{"bike_id":"7eacb872-0584-4b06-8fad-feb612d3799a","system_id":"levelo_inurba_marseille","lat":43.29708,"lon":5.38145,"is_reserved":false,"is_disabled":false,"rental_uris":{"android":"levelo://app?vid=7eacb872-0584-4b06-8fad-feb612d3799a","ios":"levelo://app?vid=7eacb872-0584-4b06-8fad-feb612d3799a"},"vehicle_type_id":"4","last_reported":1744794650,"current_range_meters":11200,"station_id":"","pricing_plan_id":"cebpf4jnsgd1na2vs0mg"},{"bike_id":"99fe2376-b759-4455-bca2-2621e3a5750a","system_id":"levelo_inurba_marseille","lat":43.27443,"lon":5.394297,"is_reserved":false,"is_disabled":false,"rental_uris":{"android":"levelo://app?vid=99fe2376-b759-4455-bca2-2621e3a5750a","ios":"levelo://app?vid=99fe2376-b759-4455-bca2-2621e3a5750a"},"vehicle_type_id":"4","last_reported":1744794650,"current_range_meters":11200,"station_id":"ce4bhdp2rcd13ifvqf20","pricing_plan_id":"cebpf4jnsgd1na2vs0mg"},{"bike_id":"2d8e7909-426d-40fe-90db-bd8eae028fde","system_id":"levelo_inurba_marseille","lat":43.30479,"lon":5.37898,"is_reserved":false,"is_disabled":false,"rental_uris":{"android":"levelo://app?vid=2d8e7909-426d-40fe-90db-bd8eae028fde","ios":"levelo://app?vid=2d8e7909-426d-40fe-90db-bd8eae028fde"},"vehicle_type_id":"4","last_reported":1744794650,"current_range_meters":11600,"station_id":"ce4bgup2rcd13ifvqcn0","pricing_plan_id":"cebpf4jnsgd1na2vs0mg"},{"bike_id":"ee465a00-80df-4308-a2c3-b5ea33f92667","system_id":"levelo_inurba_marseille","lat":43.32115,"lon":5.36792,"is_reserved":false,"is_disabled":false,"rental_uris":{"android":"levelo://app?vid=ee465a00-80df-4308-a2c3-b5ea33f92667","ios":"levelo://app?vid=ee465a00-80df-4308-a2c3-b5ea33f92667"},"vehicle_type_id":"4","last_reported":1744794650,"current_range_meters":11600,"station_id":"ce4bhrh2rcd13ifvqhug","pricing_plan_id":"cebpf4jnsgd1na2vs0mg"},{"bike_id":"88459915-6303-4a52-b637-0ef7efe8ee7e","system_id":"levelo_inurba_marseille","lat":43.31365,"lon":5.36626,"is_reserved":false,"is_disabled":false,"rental_uris":{"android":"levelo://app?vid=88459915-6303-4a52-b637-0ef7efe8ee7e","ios":"levelo://app?vid=88459915-6303-4a52-b637-0ef7efe8ee7e"},"vehicle_type_id":"4","last_reported":1744794650,"current_range_meters":11600,"station_id":"","pricing_plan_id":"cebpf4jnsgd1na2vs0mg"},{"bike_id":"fddbf161-763e-43b8-a34a-7e9a7ea8869d","system_id":"levelo_inurba_marseille","lat":43.31482,"lon":5.37318,"is_reserved":false,"is_disabled":false,"rental_uris":{"android":"levelo://app?vid=fddbf161-763e-43b8-a34a-7e9a7ea8869d","ios":"levelo://app?vid=fddbf161-763e-43b8-a34a-7e9a7ea8869d"},"vehicle_type_id":"4","last_reported":1744794650,"current_range_meters":11600,"station_id":"ce4bgt12rcd13ifvqcd0","pricing_plan_id":"cebpf4jnsgd1na2vs0mg"},{"bike_id":"44e9a3ab-8fdf-42de-ab68-05fc71d990a6","system_id":"levelo_inurba_marseille","lat":43.26691,"lon":5.38265,"is_reserved":false,"is_disabled":false,"rental_uris":{"android":"levelo://app?vid=44e9a3ab-8fdf-42de-ab68-05fc71d990a6","ios":"levelo://app?vid=44e9a3ab-8fdf-42de-ab68-05fc71d990a6"},"vehicle_type_id":"4","last_reported":1744794650,"current_range_meters":12000,"station_id":"ce4bhg92rcd13ifvqf90","pricing_plan_id":"cebpf4jnsgd1na2vs0mg"},{"bike_id":"eeec4aa3-87e9-4496-be2e-938ceb91cf85","system_id":"levelo_inurba_marseille","lat":43.29319,"lon":5.37215,"is_reserved":false,"is_disabled":true,"rental_uris":{"android":"levelo://app?vid=eeec4aa3-87e9-4496-be2e-938ceb91cf85","ios":"levelo://app?vid=eeec4aa3-87e9-4496-be2e-938ceb91cf85"},"vehicle_type_id":"4","last_reported":1744794650,"current_range_meters":12000,"station_id":"ce4bgh92rcd13ifvqb40","pricing_plan_id":"cebpf4jnsgd1na2vs0mg"},{"bike_id":"a3779612-3a29-455d-a2df-edb45382ad70","system_id":"levelo_inurba_marseille","lat":43.27173,"lon":5.40994,"is_reserved":false,"is_disabled":false,"rental_uris":{"android":"levelo://app?vid=a3779612-3a29-455d-a2df-edb45382ad70","ios":"levelo://app?vid=a3779612-3a29-455d-a2df-edb45382ad70"},"vehicle_type_id":"4","last_reported":1744794650,"current_range_meters":12000,"station_id":"ce4bhl12rcd13ifvqgf0","pricing_plan_id":"cebpf4jnsgd1na2vs0mg"},{"bike_id":"9df4d04c-49c0-4cc9-90fb-8c204c2453c2","system_id":"levelo_inurba_marseille","lat":43.25931,"lon":5.409102,"is_reserved":false,"is_disabled":false,"rental_uris":{"android":"levelo://app?vid=9df4d04c-49c0-4cc9-90fb-8c204c2453c2","ios":"levelo://app?vid=9df4d04c-49c0-4cc9-90fb-8c204c2453c2"},"vehicle_type_id":"4","last_reported":1744794650,"current_range_meters":12000,"station_id":"ce4bhm92rcd13ifvqglg","pricing_plan_id":"cebpf4jnsgd1na2vs0mg"},{"bike_id":"561936ef-54e4-4d15-b2a7-dfd018b9e12e","system_id":"levelo_inurba_marseille","lat":43.29814,"lon":5.40251,"is_reserved":false,"is_disabled":false,"rental_uris":{"android":"levelo://app?vid=561936ef-54e4-4d15-b2a7-dfd018b9e12e","ios":"levelo://app?vid=561936ef-54e4-4d15-b2a7-dfd018b9e12e"},"vehicle_type_id":"4","last_reported":1744794650,"current_range_meters":12400,"station_id":"","pricing_plan_id":"cebpf4jnsgd1na2vs0mg"},{"bike_id":"5bd2378a-0ba2-4601-8114-ff49dc777988","system_id":"levelo_inurba_marseille","lat":43.30904,"lon":5.36849,"is_reserved":false,"is_disabled":false,"rental_uris":{"android":"levelo://app?vid=5bd2378a-0ba2-4601-8114-ff49dc777988","ios":"levelo://app?vid=5bd2378a-0ba2-4601-8114-ff49dc777988"},"vehicle_type_id":"4","last_reported":1744794650,"current_range_meters":12800,"station_id":"ce4bgn92rcd13ifvqbvg","pricing_plan_id":"cebpf4jnsgd1na2vs0mg"},{"bike_id":"e8412f40-a8dc-44ee-bbc2-e01b1cf2ab9a","system_id":"levelo_inurba_marseille","lat":43.27832,"lon":5.39199,"is_reserved":false,"is_disabled":false,"rental_uris":{"android":"levelo://app?vid=e8412f40-a8dc-44ee-bbc2-e01b1cf2ab9a","ios":"levelo://app?vid=e8412f40-a8dc-44ee-bbc2-e01b1cf2ab9a"},"vehicle_type_id":"4","last_reported":1744794650,"current_range_meters":12800,"station_id":"ce4bhjp2rcd13ifvqga0","pricing_plan_id":"cebpf4jnsgd1na2vs0mg"},{"bike_id":"4220a71d-b00b-46df-8353-e10f2175efff","system_id":"levelo_inurba_marseille","lat":43.32362,"lon":5.36767,"is_reserved":false,"is_disabled":false,"rental_uris":{"android":"levelo://app?vid=4220a71d-b00b-46df-8353-e10f2175efff","ios":"levelo://app?vid=4220a71d-b00b-46df-8353-e10f2175efff"},"vehicle_type_id":"4","last_reported":1744794650,"current_range_meters":12800,"station_id":"ce4bhsh2rcd13ifvqi2g","pricing_plan_id":"cebpf4jnsgd1na2vs0mg"},{"bike_id":"da0699e6-fffb-42fd-bda2-fa249cfedfd8","system_id":"levelo_inurba_marseille","lat":43.3148,"lon":5.37304,"is_reserved":false,"is_disabled":false,"rental_uris":{"android":"levelo://app?vid=da0699e6-fffb-42fd-bda2-fa249cfedfd8","ios":"levelo://app?vid=da0699e6-fffb-42fd-bda2-fa249cfedfd8"},"vehicle_type_id":"4","last_reported":1744794650,"current_range_meters":13600,"station_id":"ce4bgt12rcd13ifvqcd0","pricing_plan_id":"cebpf4jnsgd1na2vs0mg"},{"bike_id":"08665e19-be9b-4b06-a7d4-30f714f1faad","system_id":"levelo_inurba_marseille","lat":43.25681,"lon":5.41062,"is_reserved":false,"is_disabled":false,"rental_uris":{"android":"levelo://app?vid=08665e19-be9b-4b06-a7d4-30f714f1faad","ios":"levelo://app?vid=08665e19-be9b-4b06-a7d4-30f714f1faad"},"vehicle_type_id":"4","last_reported":1744794650,"current_range_meters":13600,"station_id":"ce4bhkp2rcd13ifvqgd0","pricing_plan_id":"cebpf4jnsgd1na2vs0mg"},{"bike_id":"249718ad-d191-42bd-8cc8-b04e6c697849","system_id":"levelo_inurba_marseille","lat":43.299713,"lon":5.371831,"is_reserved":false,"is_disabled":false,"rental_uris":{"android":"levelo://app?vid=249718ad-d191-42bd-8cc8-b04e6c697849","ios":"levelo://app?vid=249718ad-d191-42bd-8cc8-b04e6c697849"},"vehicle_type_id":"4","last_reported":1744794650,"current_range_meters":13600,"station_id":"ce4bgr92rcd13ifvqc7g","pricing_plan_id":"cebpf4jnsgd1na2vs0mg"},{"bike_id":"ce86423c-7fda-4347-b51e-6014b639a5a1","system_id":"levelo_inurba_marseille","lat":43.310625,"lon":5.38339,"is_reserved":false,"is_disabled":false,"rental_uris":{"android":"levelo://app?vid=ce86423c-7fda-4347-b51e-6014b639a5a1","ios":"levelo://app?vid=ce86423c-7fda-4347-b51e-6014b639a5a1"},"vehicle_type_id":"4","last_reported":1744794650,"current_range_meters":13600,"station_id":"ce4bgv92rcd13ifvqcr0","pricing_plan_id":"cebpf4jnsgd1na2vs0mg"},{"bike_id":"a1427a95-ba58-4cef-bff9-e3ff7e276b19","system_id":"levelo_inurba_marseille","lat":43.24388,"lon":5.37063,"is_reserved":false,"is_disabled":false,"rental_uris":{"android":"levelo://app?vid=a1427a95-ba58-4cef-bff9-e3ff7e276b19","ios":"levelo://app?vid=a1427a95-ba58-4cef-bff9-e3ff7e276b19"},"vehicle_type_id":"4","last_reported":1744794650,"current_range_meters":14000,"station_id":"ce4bhhh2rcd13ifvqfk0","pricing_plan_id":"cebpf4jnsgd1na2vs0mg"},{"bike_id":"1a12f76f-c4c8-4232-81ce-882565aac43f","system_id":"levelo_inurba_marseille","lat":43.26686,"lon":5.38266,"is_reserved":false,"is_disabled":false,"rental_uris":{"android":"levelo://app?vid=1a12f76f-c4c8-4232-81ce-882565aac43f","ios":"levelo://app?vid=1a12f76f-c4c8-4232-81ce-882565aac43f"},"vehicle_type_id":"4","last_reported":1744794650,"current_range_meters":14400,"station_id":"ce4bhg92rcd13ifvqf90","pricing_plan_id":"cebpf4jnsgd1na2vs0mg"},{"bike_id":"834ec9e1-9d50-4bee-85ae-d1db335c55e5","system_id":"levelo_inurba_marseille","lat":43.31917,"lon":5.36764,"is_reserved":false,"is_disabled":false,"rental_uris":{"android":"levelo://app?vid=834ec9e1-9d50-4bee-85ae-d1db335c55e5","ios":"levelo://app?vid=834ec9e1-9d50-4bee-85ae-d1db335c55e5"},"vehicle_type_id":"4","last_reported":1744794650,"current_range_meters":14400,"station_id":"","pricing_plan_id":"cebpf4jnsgd1na2vs0mg"},{"bike_id":"5e7dbbb6-2bda-4869-af5c-44f496d02050","system_id":"levelo_inurba_marseille","lat":43.28469,"lon":5.38416,"is_reserved":false,"is_disabled":false,"rental_uris":{"android":"levelo://app?vid=5e7dbbb6-2bda-4869-af5c-44f496d02050","ios":"levelo://app?vid=5e7dbbb6-2bda-4869-af5c-44f496d02050"},"vehicle_type_id":"4","last_reported":1744794650,"current_range_meters":14000,"station_id":"ce4bh512rcd13ifvqe3g","pricing_plan_id":"cebpf4jnsgd1na2vs0mg"},{"bike_id":"a80e86d7-b659-4905-99ee-6dd9cdeba17e","system_id":"levelo_inurba_marseille","lat":43.31993,"lon":5.38165,"is_reserved":false,"is_disabled":false,"rental_uris":{"android":"levelo://app?vid=a80e86d7-b659-4905-99ee-6dd9cdeba17e","ios":"levelo://app?vid=a80e86d7-b659-4905-99ee-6dd9cdeba17e"},"vehicle_type_id":"4","last_reported":1744794650,"current_range_meters":14400,"station_id":"ce4bhr12rcd13ifvqhpg","pricing_plan_id":"cebpf4jnsgd1na2vs0mg"},{"bike_id":"4c0ede51-6b22-44f8-8575-b86906a20779","system_id":"levelo_inurba_marseille","lat":43.21751,"lon":5.34609,"is_reserved":false,"is_disabled":false,"rental_uris":{"android":"levelo://app?vid=4c0ede51-6b22-44f8-8575-b86906a20779","ios":"levelo://app?vid=4c0ede51-6b22-44f8-8575-b86906a20779"},"vehicle_type_id":"4","last_reported":1744794650,"current_range_meters":15200,"station_id":"st_cvj6r9ubvosntc0bgbag","pricing_plan_id":"cebpf4jnsgd1na2vs0mg"},{"bike_id":"4e0b610a-6f3a-4dda-a6be-02dd48ce4bef","system_id":"levelo_inurba_marseille","lat":43.31339,"lon":5.36678,"is_reserved":false,"is_disabled":false,"rental_uris":{"android":"levelo://app?vid=4e0b610a-6f3a-4dda-a6be-02dd48ce4bef","ios":"levelo://app?vid=4e0b610a-6f3a-4dda-a6be-02dd48ce4bef"},"vehicle_type_id":"4","last_reported":1744794650,"current_range_meters":15200,"station_id":"ce4bgr92rcd13ifvqc6g","pricing_plan_id":"cebpf4jnsgd1na2vs0mg"},{"bike_id":"80640775-4c85-4436-9764-91f3a9d41241","system_id":"levelo_inurba_marseille","lat":43.28709,"lon":5.37404,"is_reserved":false,"is_disabled":false,"rental_uris":{"android":"levelo://app?vid=80640775-4c85-4436-9764-91f3a9d41241","ios":"levelo://app?vid=80640775-4c85-4436-9764-91f3a9d41241"},"vehicle_type_id":"4","last_reported":1744794650,"current_range_meters":15200,"station_id":"ce4bh3p2rcd13ifvqdq0","pricing_plan_id":"cebpf4jnsgd1na2vs0mg"},{"bike_id":"90aab251-1ff9-4010-ba90-86de6b1ffc35","system_id":"levelo_inurba_marseille","lat":43.2315,"lon":5.43722,"is_reserved":false,"is_disabled":false,"rental_uris":{"android":"levelo://app?vid=90aab251-1ff9-4010-ba90-86de6b1ffc35","ios":"levelo://app?vid=90aab251-1ff9-4010-ba90-86de6b1ffc35"},"vehicle_type_id":"4","last_reported":1744794650,"current_range_meters":15200,"station_id":"ce4bhmp2rcd13ifvqgog","pricing_plan_id":"cebpf4jnsgd1na2vs0mg"},{"bike_id":"ff162f2a-f6f4-4605-8b55-1799935229e9","system_id":"levelo_inurba_marseille","lat":43.2937,"lon":5.37828,"is_reserved":false,"is_disabled":false,"rental_uris":{"android":"levelo://app?vid=ff162f2a-f6f4-4605-8b55-1799935229e9","ios":"levelo://app?vid=ff162f2a-f6f4-4605-8b55-1799935229e9"},"vehicle_type_id":"4","last_reported":1744794650,"current_range_meters":16000,"station_id":"ce4bgjh2rcd13ifvqbf0","pricing_plan_id":"cebpf4jnsgd1na2vs0mg"},{"bike_id":"dda27a58-e2ca-4fce-a851-41cf6185682c","system_id":"levelo_inurba_marseille","lat":43.30273,"lon":5.37703,"is_reserved":false,"is_disabled":false,"rental_uris":{"android":"levelo://app?vid=dda27a58-e2ca-4fce-a851-41cf6185682c","ios":"levelo://app?vid=dda27a58-e2ca-4fce-a851-41cf6185682c"},"vehicle_type_id":"4","last_reported":1744794650,"current_range_meters":16000,"station_id":"ce4bguh2rcd13ifvqcj0","pricing_plan_id":"cebpf4jnsgd1na2vs0mg"},{"bike_id":"4328369a-71e3-42f0-af9b-b3d103933d00","system_id":"levelo_inurba_marseille","lat":43.33612,"lon":5.40988,"is_reserved":false,"is_disabled":false,"rental_uris":{"android":"levelo://app?vid=4328369a-71e3-42f0-af9b-b3d103933d00","ios":"levelo://app?vid=4328369a-71e3-42f0-af9b-b3d103933d00"},"vehicle_type_id":"4","last_reported":1744794650,"current_range_meters":16000,"station_id":"ce4bhqh2rcd13ifvqhmg","pricing_plan_id":"cebpf4jnsgd1na2vs0mg"},{"bike_id":"c1404c22-3a48-4367-bbbd-d0bf216e29bc","system_id":"levelo_inurba_marseille","lat":43.30952,"lon":5.39066,"is_reserved":false,"is_disabled":false,"rental_uris":{"android":"levelo://app?vid=c1404c22-3a48-4367-bbbd-d0bf216e29bc","ios":"levelo://app?vid=c1404c22-3a48-4367-bbbd-d0bf216e29bc"},"vehicle_type_id":"4","last_reported":1744794650,"current_range_meters":16000,"station_id":"ce4bgup2rcd13ifvqco0","pricing_plan_id":"cebpf4jnsgd1na2vs0mg"},{"bike_id":"3412972c-0cd5-416f-9d97-05d228ab18d2","system_id":"levelo_inurba_marseille","lat":43.29027,"lon":5.39972,"is_reserved":false,"is_disabled":false,"rental_uris":{"android":"levelo://app?vid=3412972c-0cd5-416f-9d97-05d228ab18d2","ios":"levelo://app?vid=3412972c-0cd5-416f-9d97-05d228ab18d2"},"vehicle_type_id":"4","last_reported":1744794650,"current_range_meters":16000,"station_id":"ce4bh392rcd13ifvqdm0","pricing_plan_id":"cebpf4jnsgd1na2vs0mg"},{"bike_id":"34c5bc73-50bf-477d-ac7c-999dfa1d218d","system_id":"levelo_inurba_marseille","lat":43.28666,"lon":5.3867,"is_reserved":false,"is_disabled":false,"rental_uris":{"android":"levelo://app?vid=34c5bc73-50bf-477d-ac7c-999dfa1d218d","ios":"levelo://app?vid=34c5bc73-50bf-477d-ac7c-999dfa1d218d"},"vehicle_type_id":"4","last_reported":1744794650,"current_range_meters":16000,"station_id":"ce4bh492rcd13ifvqdug","pricing_plan_id":"cebpf4jnsgd1na2vs0mg"},{"bike_id":"fa8b5d88-c56b-4501-99c1-1b5a6dfd1f66","system_id":"levelo_inurba_marseille","lat":43.21204,"lon":5.35047,"is_reserved":false,"is_disabled":false,"rental_uris":{"android":"levelo://app?vid=fa8b5d88-c56b-4501-99c1-1b5a6dfd1f66","ios":"levelo://app?vid=fa8b5d88-c56b-4501-99c1-1b5a6dfd1f66"},"vehicle_type_id":"4","last_reported":1744794650,"current_range_meters":16000,"station_id":"st_cvj6sg6p6f1abm77japg","pricing_plan_id":"cebpf4jnsgd1na2vs0mg"},{"bike_id":"6bf5a380-400e-4cd6-bc1e-356afac9ee45","system_id":"levelo_inurba_marseille","lat":43.24186,"lon":5.3639,"is_reserved":false,"is_disabled":false,"rental_uris":{"android":"levelo://app?vid=6bf5a380-400e-4cd6-bc1e-356afac9ee45","ios":"levelo://app?vid=6bf5a380-400e-4cd6-bc1e-356afac9ee45"},"vehicle_type_id":"4","last_reported":1744794650,"current_range_meters":16400,"station_id":"cpo36qri1sfpv3e86is0","pricing_plan_id":"cebpf4jnsgd1na2vs0mg"},{"bike_id":"6c103f9f-c959-46ad-a2e8-e44f9660c68e","system_id":"levelo_inurba_marseille","lat":43.211929,"lon":5.350709,"is_reserved":false,"is_disabled":false,"rental_uris":{"android":"levelo://app?vid=6c103f9f-c959-46ad-a2e8-e44f9660c68e","ios":"levelo://app?vid=6c103f9f-c959-46ad-a2e8-e44f9660c68e"},"vehicle_type_id":"4","last_reported":1744794650,"current_range_meters":16400,"station_id":"st_cvj6sg6p6f1abm77japg","pricing_plan_id":"cebpf4jnsgd1na2vs0mg"},{"bike_id":"f8205049-59cf-4c67-95d9-2ae60dd41d42","system_id":"levelo_inurba_marseille","lat":43.26066,"lon":5.39393,"is_reserved":false,"is_disabled":false,"rental_uris":{"android":"levelo://app?vid=f8205049-59cf-4c67-95d9-2ae60dd41d42","ios":"levelo://app?vid=f8205049-59cf-4c67-95d9-2ae60dd41d42"},"vehicle_type_id":"4","last_reported":1744794650,"current_range_meters":16400,"station_id":"ce4bhh92rcd13ifvqfj0","pricing_plan_id":"cebpf4jnsgd1na2vs0mg"},{"bike_id":"d7a27231-8fda-4a0b-9405-fe82734c0486","system_id":"levelo_inurba_marseille","lat":43.30138,"lon":5.37416,"is_reserved":false,"is_disabled":false,"rental_uris":{"android":"levelo://app?vid=d7a27231-8fda-4a0b-9405-fe82734c0486","ios":"levelo://app?vid=d7a27231-8fda-4a0b-9405-fe82734c0486"},"vehicle_type_id":"4","last_reported":1744794650,"current_range_meters":16400,"station_id":"ce4bgs92rcd13ifvqcc0","pricing_plan_id":"cebpf4jnsgd1na2vs0mg"},{"bike_id":"e671135f-6e8d-4f7d-b793-34acac25fdfc","system_id":"levelo_inurba_marseille","lat":43.32361,"lon":5.36757,"is_reserved":false,"is_disabled":false,"rental_uris":{"android":"levelo://app?vid=e671135f-6e8d-4f7d-b793-34acac25fdfc","ios":"levelo://app?vid=e671135f-6e8d-4f7d-b793-34acac25fdfc"},"vehicle_type_id":"4","last_reported":1744794650,"current_range_meters":16400,"station_id":"ce4bhsh2rcd13ifvqi2g","pricing_plan_id":"cebpf4jnsgd1na2vs0mg"},{"bike_id":"2be2e8c5-ff49-4a5a-963a-4bbeabb11512","system_id":"levelo_inurba_marseille","lat":43.30752,"lon":5.42456,"is_reserved":false,"is_disabled":false,"rental_uris":{"android":"levelo://app?vid=2be2e8c5-ff49-4a5a-963a-4bbeabb11512","ios":"levelo://app?vid=2be2e8c5-ff49-4a5a-963a-4bbeabb11512"},"vehicle_type_id":"4","last_reported":1744794650,"current_range_meters":16400,"station_id":"st_cvj6ca6bvosntc0bfgr0","pricing_plan_id":"cebpf4jnsgd1na2vs0mg"},{"bike_id":"2e22b106-aea9-45e1-bcac-d7b2225a2c8c","system_id":"levelo_inurba_marseille","lat":43.25003,"lon":5.38923,"is_reserved":false,"is_disabled":false,"rental_uris":{"android":"levelo://app?vid=2e22b106-aea9-45e1-bcac-d7b2225a2c8c","ios":"levelo://app?vid=2e22b106-aea9-45e1-bcac-d7b2225a2c8c"},"vehicle_type_id":"4","last_reported":1744794650,"current_range_meters":16800,"station_id":"ce4bhgp2rcd13ifvqfd0","pricing_plan_id":"cebpf4jnsgd1na2vs0mg"},{"bike_id":"b453c917-0db1-40bd-ad8a-e14424b609f7","system_id":"levelo_inurba_marseille","lat":43.270529,"lon":5.402623,"is_reserved":false,"is_disabled":false,"rental_uris":{"android":"levelo://app?vid=b453c917-0db1-40bd-ad8a-e14424b609f7","ios":"levelo://app?vid=b453c917-0db1-40bd-ad8a-e14424b609f7"},"vehicle_type_id":"4","last_reported":1744794650,"current_range_meters":16800,"station_id":"ce4bhnh2rcd13ifvqgtg","pricing_plan_id":"cebpf4jnsgd1na2vs0mg"},{"bike_id":"0b3927f3-0c75-444e-8f1c-7411096ba871","system_id":"levelo_inurba_marseille","lat":43.33604,"lon":5.40991,"is_reserved":false,"is_disabled":false,"rental_uris":{"android":"levelo://app?vid=0b3927f3-0c75-444e-8f1c-7411096ba871","ios":"levelo://app?vid=0b3927f3-0c75-444e-8f1c-7411096ba871"},"vehicle_type_id":"4","last_reported":1744794650,"current_range_meters":16800,"station_id":"ce4bhqh2rcd13ifvqhmg","pricing_plan_id":"cebpf4jnsgd1na2vs0mg"},{"bike_id":"e3670510-219d-4ce8-90e9-deef08906868","system_id":"levelo_inurba_marseille","lat":43.320025,"lon":5.381709,"is_reserved":false,"is_disabled":false,"rental_uris":{"android":"levelo://app?vid=e3670510-219d-4ce8-90e9-deef08906868","ios":"levelo://app?vid=e3670510-219d-4ce8-90e9-deef08906868"},"vehicle_type_id":"4","last_reported":1744794650,"current_range_meters":16800,"station_id":"ce4bhr12rcd13ifvqhpg","pricing_plan_id":"cebpf4jnsgd1na2vs0mg"},{"bike_id":"716e0994-3af9-4373-bc31-d08b578d6ca5","system_id":"levelo_inurba_marseille","lat":43.31343,"lon":5.36707,"is_reserved":false,"is_disabled":false,"rental_uris":{"android":"levelo://app?vid=716e0994-3af9-4373-bc31-d08b578d6ca5","ios":"levelo://app?vid=716e0994-3af9-4373-bc31-d08b578d6ca5"},"vehicle_type_id":"4","last_reported":1744794650,"current_range_meters":16800,"station_id":"ce4bgr92rcd13ifvqc6g","pricing_plan_id":"cebpf4jnsgd1na2vs0mg"},{"bike_id":"a6d451ba-0fef-4616-9459-0a9167b4802c","system_id":"levelo_inurba_marseille","lat":43.29362,"lon":5.37853,"is_reserved":false,"is_disabled":false,"rental_uris":{"android":"levelo://app?vid=a6d451ba-0fef-4616-9459-0a9167b4802c","ios":"levelo://app?vid=a6d451ba-0fef-4616-9459-0a9167b4802c"},"vehicle_type_id":"4","last_reported":1744794650,"current_range_meters":16800,"station_id":"ce4bgjh2rcd13ifvqbf0","pricing_plan_id":"cebpf4jnsgd1na2vs0mg"},{"bike_id":"b082caf9-1aa9-41e8-8081-4da72e64e8e4","system_id":"levelo_inurba_marseille","lat":43.30924,"lon":5.40205,"is_reserved":false,"is_disabled":true,"rental_uris":{"android":"levelo://app?vid=b082caf9-1aa9-41e8-8081-4da72e64e8e4","ios":"levelo://app?vid=b082caf9-1aa9-41e8-8081-4da72e64e8e4"},"vehicle_type_id":"4","last_reported":1744794650,"current_range_meters":16800,"station_id":"ce4bgvp2rcd13ifvqct0","pricing_plan_id":"cebpf4jnsgd1na2vs0mg"},{"bike_id":"10a05b79-c3d5-4be7-a18b-8140be240501","system_id":"levelo_inurba_marseille","lat":43.29606,"lon":5.38087,"is_reserved":false,"is_disabled":false,"rental_uris":{"android":"levelo://app?vid=10a05b79-c3d5-4be7-a18b-8140be240501","ios":"levelo://app?vid=10a05b79-c3d5-4be7-a18b-8140be240501"},"vehicle_type_id":"4","last_reported":1744794650,"current_range_meters":17200,"station_id":"ce4bgl12rcd13ifvqbo0","pricing_plan_id":"cebpf4jnsgd1na2vs0mg"},{"bike_id":"c31c0ecc-e896-4522-8f59-f94ab8194ac3","system_id":"levelo_inurba_marseille","lat":43.31708,"lon":5.40454,"is_reserved":false,"is_disabled":false,"rental_uris":{"android":"levelo://app?vid=c31c0ecc-e896-4522-8f59-f94ab8194ac3","ios":"levelo://app?vid=c31c0ecc-e896-4522-8f59-f94ab8194ac3"},"vehicle_type_id":"4","last_reported":1744794650,"current_range_meters":17200,"station_id":"ce4bh012rcd13ifvqd00","pricing_plan_id":"cebpf4jnsgd1na2vs0mg"},{"bike_id":"6c753cfd-e2a2-46b2-a74f-cf2c42d3ccc5","system_id":"levelo_inurba_marseille","lat":43.30471,"lon":5.37901,"is_reserved":false,"is_disabled":false,"rental_uris":{"android":"levelo://app?vid=6c753cfd-e2a2-46b2-a74f-cf2c42d3ccc5","ios":"levelo://app?vid=6c753cfd-e2a2-46b2-a74f-cf2c42d3ccc5"},"vehicle_type_id":"4","last_reported":1744794650,"current_range_meters":17200,"station_id":"ce4bgup2rcd13ifvqcn0","pricing_plan_id":"cebpf4jnsgd1na2vs0mg"},{"bike_id":"94441217-5d39-4012-8eb1-53c52f8530f0","system_id":"levelo_inurba_marseille","lat":43.22932,"lon":5.35375,"is_reserved":false,"is_disabled":false,"rental_uris":{"android":"levelo://app?vid=94441217-5d39-4012-8eb1-53c52f8530f0","ios":"levelo://app?vid=94441217-5d39-4012-8eb1-53c52f8530f0"},"vehicle_type_id":"4","last_reported":1744794650,"current_range_meters":17200,"station_id":"cpo3532slgdg3j2ikp40","pricing_plan_id":"cebpf4jnsgd1na2vs0mg"},{"bike_id":"f8b9d4bf-ce39-4c8f-8ede-ac8473a114a4","system_id":"levelo_inurba_marseille","lat":43.31352,"lon":5.36748,"is_reserved":false,"is_disabled":false,"rental_uris":{"android":"levelo://app?vid=f8b9d4bf-ce39-4c8f-8ede-ac8473a114a4","ios":"levelo://app?vid=f8b9d4bf-ce39-4c8f-8ede-ac8473a114a4"},"vehicle_type_id":"4","last_reported":1744794650,"current_range_meters":17200,"station_id":"ce4bgr92rcd13ifvqc6g","pricing_plan_id":"cebpf4jnsgd1na2vs0mg"},{"bike_id":"b6b4fba7-65bd-4354-9ef8-9be346fbbc8a","system_id":"levelo_inurba_marseille","lat":43.30294,"lon":5.37696,"is_reserved":false,"is_disabled":false,"rental_uris":{"android":"levelo://app?vid=b6b4fba7-65bd-4354-9ef8-9be346fbbc8a","ios":"levelo://app?vid=b6b4fba7-65bd-4354-9ef8-9be346fbbc8a"},"vehicle_type_id":"4","last_reported":1744794650,"current_range_meters":17600,"station_id":"ce4bguh2rcd13ifvqcj0","pricing_plan_id":"cebpf4jnsgd1na2vs0mg"},{"bike_id":"f3a17301-f4cd-4211-8c74-a7b1a492d742","system_id":"levelo_inurba_marseille","lat":43.28082,"lon":5.407776,"is_reserved":false,"is_disabled":false,"rental_uris":{"android":"levelo://app?vid=f3a17301-f4cd-4211-8c74-a7b1a492d742","ios":"levelo://app?vid=f3a17301-f4cd-4211-8c74-a7b1a492d742"},"vehicle_type_id":"4","last_reported":1744794650,"current_range_meters":17600,"station_id":"","pricing_plan_id":"cebpf4jnsgd1na2vs0mg"},{"bike_id":"6d808110-2d8c-4565-a3c5-2c4f66ab2217","system_id":"levelo_inurba_marseille","lat":43.29718,"lon":5.37701,"is_reserved":false,"is_disabled":false,"rental_uris":{"android":"levelo://app?vid=6d808110-2d8c-4565-a3c5-2c4f66ab2217","ios":"levelo://app?vid=6d808110-2d8c-4565-a3c5-2c4f66ab2217"},"vehicle_type_id":"4","last_reported":1744794650,"current_range_meters":17600,"station_id":"ce4bgkh2rcd13ifvqbl0","pricing_plan_id":"cebpf4jnsgd1na2vs0mg"},{"bike_id":"57406be6-c0b4-4691-8abf-3f6842e4ec81","system_id":"levelo_inurba_marseille","lat":43.28461,"lon":5.39184,"is_reserved":false,"is_disabled":true,"rental_uris":{"android":"levelo://app?vid=57406be6-c0b4-4691-8abf-3f6842e4ec81","ios":"levelo://app?vid=57406be6-c0b4-4691-8abf-3f6842e4ec81"},"vehicle_type_id":"4","last_reported":1744794650,"current_range_meters":17600,"station_id":"ce4bhoh2rcd13ifvqh5g","pricing_plan_id":"cebpf4jnsgd1na2vs0mg"},{"bike_id":"6a8e9068-2a8d-4c93-8c2d-e30f03079545","system_id":"levelo_inurba_marseille","lat":43.25712,"lon":5.41072,"is_reserved":false,"is_disabled":true,"rental_uris":{"android":"levelo://app?vid=6a8e9068-2a8d-4c93-8c2d-e30f03079545","ios":"levelo://app?vid=6a8e9068-2a8d-4c93-8c2d-e30f03079545"},"vehicle_type_id":"4","last_reported":1744794650,"current_range_meters":17600,"station_id":"ce4bhkp2rcd13ifvqgd0","pricing_plan_id":"cebpf4jnsgd1na2vs0mg"},{"bike_id":"e7d9dedd-8705-482e-bcfd-a128c28d923a","system_id":"levelo_inurba_marseille","lat":43.2894,"lon":5.36644,"is_reserved":false,"is_disabled":false,"rental_uris":{"android":"levelo://app?vid=e7d9dedd-8705-482e-bcfd-a128c28d923a","ios":"levelo://app?vid=e7d9dedd-8705-482e-bcfd-a128c28d923a"},"vehicle_type_id":"4","last_reported":1744794650,"current_range_meters":17600,"station_id":"ce4bhap2rcd13ifvqek0","pricing_plan_id":"cebpf4jnsgd1na2vs0mg"},{"bike_id":"3d3e85b3-b957-4512-ade2-580297bfc019","system_id":"levelo_inurba_marseille","lat":43.27207,"lon":5.3919,"is_reserved":false,"is_disabled":true,"rental_uris":{"android":"levelo://app?vid=3d3e85b3-b957-4512-ade2-580297bfc019","ios":"levelo://app?vid=3d3e85b3-b957-4512-ade2-580297bfc019"},"vehicle_type_id":"4","last_reported":1744794650,"current_range_meters":18000,"station_id":"ce4bhhp2rcd13ifvqfm0","pricing_plan_id":"cebpf4jnsgd1na2vs0mg"},{"bike_id":"2448a463-c433-4721-99cc-7ae555d60c13","system_id":"levelo_inurba_marseille","lat":43.29535,"lon":5.37512,"is_reserved":false,"is_disabled":false,"rental_uris":{"android":"levelo://app?vid=2448a463-c433-4721-99cc-7ae555d60c13","ios":"levelo://app?vid=2448a463-c433-4721-99cc-7ae555d60c13"},"vehicle_type_id":"4","last_reported":1744794650,"current_range_meters":18000,"station_id":"ce4bgkp2rcd13ifvqbmg","pricing_plan_id":"cebpf4jnsgd1na2vs0mg"},{"bike_id":"bc13145e-268c-4497-9045-eeda58329375","system_id":"levelo_inurba_marseille","lat":43.31213,"lon":5.36846,"is_reserved":false,"is_disabled":false,"rental_uris":{"android":"levelo://app?vid=bc13145e-268c-4497-9045-eeda58329375","ios":"levelo://app?vid=bc13145e-268c-4497-9045-eeda58329375"},"vehicle_type_id":"4","last_reported":1744794650,"current_range_meters":18000,"station_id":"ce4bgl92rcd13ifvqbq0","pricing_plan_id":"cebpf4jnsgd1na2vs0mg"},{"bike_id":"01a73ca1-e723-4dea-b5a5-a65ff5d3ba09","system_id":"levelo_inurba_marseille","lat":43.29273,"lon":5.3685,"is_reserved":false,"is_disabled":false,"rental_uris":{"android":"levelo://app?vid=01a73ca1-e723-4dea-b5a5-a65ff5d3ba09","ios":"levelo://app?vid=01a73ca1-e723-4dea-b5a5-a65ff5d3ba09"},"vehicle_type_id":"4","last_reported":1744794650,"current_range_meters":18000,"station_id":"ce4bhbp2rcd13ifvqesg","pricing_plan_id":"cebpf4jnsgd1na2vs0mg"},{"bike_id":"ef372a5e-4fde-4cce-a6b9-36c336b8ff05","system_id":"levelo_inurba_marseille","lat":43.270865,"lon":5.403372,"is_reserved":false,"is_disabled":false,"rental_uris":{"android":"levelo://app?vid=ef372a5e-4fde-4cce-a6b9-36c336b8ff05","ios":"levelo://app?vid=ef372a5e-4fde-4cce-a6b9-36c336b8ff05"},"vehicle_type_id":"4","last_reported":1744794650,"current_range_meters":18000,"station_id":"","pricing_plan_id":"cebpf4jnsgd1na2vs0mg"},{"bike_id":"4cb67eec-0e45-47a9-9453-fa307935ee48","system_id":"levelo_inurba_marseille","lat":43.28154,"lon":5.42638,"is_reserved":false,"is_disabled":false,"rental_uris":{"android":"levelo://app?vid=4cb67eec-0e45-47a9-9453-fa307935ee48","ios":"levelo://app?vid=4cb67eec-0e45-47a9-9453-fa307935ee48"},"vehicle_type_id":"4","last_reported":1744794650,"current_range_meters":18000,"station_id":"ce4bhnh2rcd13ifvqgug","pricing_plan_id":"cebpf4jnsgd1na2vs0mg"},{"bike_id":"bac8cada-45d8-42a0-871d-8bfddf55dd77","system_id":"levelo_inurba_marseille","lat":43.28466,"lon":5.35893,"is_reserved":false,"is_disabled":true,"rental_uris":{"android":"levelo://app?vid=bac8cada-45d8-42a0-871d-8bfddf55dd77","ios":"levelo://app?vid=bac8cada-45d8-42a0-871d-8bfddf55dd77"},"vehicle_type_id":"4","last_reported":1744794650,"current_range_meters":18800,"station_id":"ce4bhah2rcd13ifvqei0","pricing_plan_id":"cebpf4jnsgd1na2vs0mg"},{"bike_id":"71e94148-75c9-4d56-b41d-f80df28d87b0","system_id":"levelo_inurba_marseille","lat":43.32,"lon":5.38146,"is_reserved":false,"is_disabled":false,"rental_uris":{"android":"levelo://app?vid=71e94148-75c9-4d56-b41d-f80df28d87b0","ios":"levelo://app?vid=71e94148-75c9-4d56-b41d-f80df28d87b0"},"vehicle_type_id":"4","last_reported":1744794650,"current_range_meters":18800,"station_id":"ce4bhr12rcd13ifvqhpg","pricing_plan_id":"cebpf4jnsgd1na2vs0mg"},{"bike_id":"9f3a5dd8-a360-4b18-82ad-d26b0a34023d","system_id":"levelo_inurba_marseille","lat":43.30543,"lon":5.36556,"is_reserved":false,"is_disabled":false,"rental_uris":{"android":"levelo://app?vid=9f3a5dd8-a360-4b18-82ad-d26b0a34023d","ios":"levelo://app?vid=9f3a5dd8-a360-4b18-82ad-d26b0a34023d"},"vehicle_type_id":"4","last_reported":1744794650,"current_range_meters":18800,"station_id":"ce4bgs12rcd13ifvqcag","pricing_plan_id":"cebpf4jnsgd1na2vs0mg"},{"bike_id":"1b5a0e84-aed2-4a97-8ed8-8d5e21adaf42","system_id":"levelo_inurba_marseille","lat":43.29779,"lon":5.37113,"is_reserved":false,"is_disabled":false,"rental_uris":{"android":"levelo://app?vid=1b5a0e84-aed2-4a97-8ed8-8d5e21adaf42","ios":"levelo://app?vid=1b5a0e84-aed2-4a97-8ed8-8d5e21adaf42"},"vehicle_type_id":"4","last_reported":1744794650,"current_range_meters":18800,"station_id":"ce4bgop2rcd13ifvqc1g","pricing_plan_id":"cebpf4jnsgd1na2vs0mg"},{"bike_id":"315ed96d-e208-4e1c-abb5-5fdce13094c7","system_id":"levelo_inurba_marseille","lat":43.29301,"lon":5.37458,"is_reserved":false,"is_disabled":false,"rental_uris":{"android":"levelo://app?vid=315ed96d-e208-4e1c-abb5-5fdce13094c7","ios":"levelo://app?vid=315ed96d-e208-4e1c-abb5-5fdce13094c7"},"vehicle_type_id":"4","last_reported":1744794650,"current_range_meters":18800,"station_id":"ce4bgi12rcd13ifvqb70","pricing_plan_id":"cebpf4jnsgd1na2vs0mg"},{"bike_id":"3a65632c-120d-4ce3-9161-2ac549b0aad3","system_id":"levelo_inurba_marseille","lat":43.24807,"lon":5.37457,"is_reserved":false,"is_disabled":false,"rental_uris":{"android":"levelo://app?vid=3a65632c-120d-4ce3-9161-2ac549b0aad3","ios":"levelo://app?vid=3a65632c-120d-4ce3-9161-2ac549b0aad3"},"vehicle_type_id":"4","last_reported":1744794650,"current_range_meters":18800,"station_id":"ce4bhgh2rcd13ifvqfb0","pricing_plan_id":"cebpf4jnsgd1na2vs0mg"},{"bike_id":"253cb408-1292-4456-8381-70bdc9615886","system_id":"levelo_inurba_marseille","lat":43.25,"lon":5.389254,"is_reserved":false,"is_disabled":false,"rental_uris":{"android":"levelo://app?vid=253cb408-1292-4456-8381-70bdc9615886","ios":"levelo://app?vid=253cb408-1292-4456-8381-70bdc9615886"},"vehicle_type_id":"4","last_reported":1744794650,"current_range_meters":18800,"station_id":"ce4bhgp2rcd13ifvqfd0","pricing_plan_id":"cebpf4jnsgd1na2vs0mg"},{"bike_id":"d07f3575-c570-4366-9138-201949d4b627","system_id":"levelo_inurba_marseille","lat":43.22936,"lon":5.35388,"is_reserved":false,"is_disabled":false,"rental_uris":{"android":"levelo://app?vid=d07f3575-c570-4366-9138-201949d4b627","ios":"levelo://app?vid=d07f3575-c570-4366-9138-201949d4b627"},"vehicle_type_id":"4","last_reported":1744794650,"current_range_meters":19200,"station_id":"cpo3532slgdg3j2ikp40","pricing_plan_id":"cebpf4jnsgd1na2vs0mg"},{"bike_id":"2d03e3c2-09e4-4978-8dbc-31228f7e9fd5","system_id":"levelo_inurba_marseille","lat":43.25559,"lon":5.38234,"is_reserved":false,"is_disabled":false,"rental_uris":{"android":"levelo://app?vid=2d03e3c2-09e4-4978-8dbc-31228f7e9fd5","ios":"levelo://app?vid=2d03e3c2-09e4-4978-8dbc-31228f7e9fd5"},"vehicle_type_id":"4","last_reported":1744794650,"current_range_meters":19200,"station_id":"ce4bhih2rcd13ifvqfs0","pricing_plan_id":"cebpf4jnsgd1na2vs0mg"},{"bike_id":"a48200e6-981c-4d33-bbb5-8915bbcf22e3","system_id":"levelo_inurba_marseille","lat":43.25573,"lon":5.38233,"is_reserved":false,"is_disabled":false,"rental_uris":{"android":"levelo://app?vid=a48200e6-981c-4d33-bbb5-8915bbcf22e3","ios":"levelo://app?vid=a48200e6-981c-4d33-bbb5-8915bbcf22e3"},"vehicle_type_id":"4","last_reported":1744794650,"current_range_meters":19200,"station_id":"ce4bhih2rcd13ifvqfs0","pricing_plan_id":"cebpf4jnsgd1na2vs0mg"},{"bike_id":"67bec80b-3af2-4acd-9daa-4500c6ed3654","system_id":"levelo_inurba_marseille","lat":43.24166,"lon":5.36393,"is_reserved":false,"is_disabled":false,"rental_uris":{"android":"levelo://app?vid=67bec80b-3af2-4acd-9daa-4500c6ed3654","ios":"levelo://app?vid=67bec80b-3af2-4acd-9daa-4500c6ed3654"},"vehicle_type_id":"4","last_reported":1744794650,"current_range_meters":19200,"station_id":"cpo36qri1sfpv3e86is0","pricing_plan_id":"cebpf4jnsgd1na2vs0mg"},{"bike_id":"6f23923f-fc67-460a-b0b8-5119c016d5b0","system_id":"levelo_inurba_marseille","lat":43.26939,"lon":5.38919,"is_reserved":false,"is_disabled":false,"rental_uris":{"android":"levelo://app?vid=6f23923f-fc67-460a-b0b8-5119c016d5b0","ios":"levelo://app?vid=6f23923f-fc67-460a-b0b8-5119c016d5b0"},"vehicle_type_id":"4","last_reported":1744794650,"current_range_meters":18800,"station_id":"ce4bhhh2rcd13ifvqfl0","pricing_plan_id":"cebpf4jnsgd1na2vs0mg"},{"bike_id":"495a8619-f186-4986-9e48-387e35476996","system_id":"levelo_inurba_marseille","lat":43.29279,"lon":5.36844,"is_reserved":false,"is_disabled":false,"rental_uris":{"android":"levelo://app?vid=495a8619-f186-4986-9e48-387e35476996","ios":"levelo://app?vid=495a8619-f186-4986-9e48-387e35476996"},"vehicle_type_id":"4","last_reported":1744794650,"current_range_meters":19200,"station_id":"ce4bhbp2rcd13ifvqesg","pricing_plan_id":"cebpf4jnsgd1na2vs0mg"},{"bike_id":"479d5a5f-271f-4ac2-a568-4c71926ce846","system_id":"levelo_inurba_marseille","lat":43.26222,"lon":5.37444,"is_reserved":false,"is_disabled":false,"rental_uris":{"android":"levelo://app?vid=479d5a5f-271f-4ac2-a568-4c71926ce846","ios":"levelo://app?vid=479d5a5f-271f-4ac2-a568-4c71926ce846"},"vehicle_type_id":"4","last_reported":1744794650,"current_range_meters":19200,"station_id":"ce4bhgp2rcd13ifvqfc0","pricing_plan_id":"cebpf4jnsgd1na2vs0mg"},{"bike_id":"6c487cab-9039-4e4d-95bb-543c7e84bc90","system_id":"levelo_inurba_marseille","lat":43.25578,"lon":5.38228,"is_reserved":false,"is_disabled":false,"rental_uris":{"android":"levelo://app?vid=6c487cab-9039-4e4d-95bb-543c7e84bc90","ios":"levelo://app?vid=6c487cab-9039-4e4d-95bb-543c7e84bc90"},"vehicle_type_id":"4","last_reported":1744794650,"current_range_meters":19200,"station_id":"ce4bhih2rcd13ifvqfs0","pricing_plan_id":"cebpf4jnsgd1na2vs0mg"},{"bike_id":"a0ddb0a5-f7f0-4281-aa27-9e82747cc573","system_id":"levelo_inurba_marseille","lat":43.33753,"lon":5.37486,"is_reserved":false,"is_disabled":false,"rental_uris":{"android":"levelo://app?vid=a0ddb0a5-f7f0-4281-aa27-9e82747cc573","ios":"levelo://app?vid=a0ddb0a5-f7f0-4281-aa27-9e82747cc573"},"vehicle_type_id":"4","last_reported":1744794650,"current_range_meters":19200,"station_id":"","pricing_plan_id":"cebpf4jnsgd1na2vs0mg"},{"bike_id":"0a412f45-4c20-436a-ba13-978ca35b4733","system_id":"levelo_inurba_marseille","lat":43.296283,"lon":5.377152,"is_reserved":false,"is_disabled":false,"rental_uris":{"android":"levelo://app?vid=0a412f45-4c20-436a-ba13-978ca35b4733","ios":"levelo://app?vid=0a412f45-4c20-436a-ba13-978ca35b4733"},"vehicle_type_id":"4","last_reported":1744794650,"current_range_meters":19600,"station_id":"ce4bgi92rcd13ifvqb90","pricing_plan_id":"cebpf4jnsgd1na2vs0mg"},{"bike_id":"bf4659ae-1e1e-46e0-aae0-87527cd1ccd6","system_id":"levelo_inurba_marseille","lat":43.28175,"lon":5.4266,"is_reserved":false,"is_disabled":false,"rental_uris":{"android":"levelo://app?vid=bf4659ae-1e1e-46e0-aae0-87527cd1ccd6","ios":"levelo://app?vid=bf4659ae-1e1e-46e0-aae0-87527cd1ccd6"},"vehicle_type_id":"4","last_reported":1744794650,"current_range_meters":19600,"station_id":"ce4bhnh2rcd13ifvqgug","pricing_plan_id":"cebpf4jnsgd1na2vs0mg"},{"bike_id":"e3bbf163-eadf-423b-85c5-996bf8a4e270","system_id":"levelo_inurba_marseille","lat":43.24077,"lon":5.37766,"is_reserved":false,"is_disabled":false,"rental_uris":{"android":"levelo://app?vid=e3bbf163-eadf-423b-85c5-996bf8a4e270","ios":"levelo://app?vid=e3bbf163-eadf-423b-85c5-996bf8a4e270"},"vehicle_type_id":"4","last_reported":1744794650,"current_range_meters":19600,"station_id":"ce4bhnp2rcd13ifvqgvg","pricing_plan_id":"cebpf4jnsgd1na2vs0mg"},{"bike_id":"a041bb46-822b-4579-8326-ce98c510e938","system_id":"levelo_inurba_marseille","lat":43.31227,"lon":5.36861,"is_reserved":false,"is_disabled":false,"rental_uris":{"android":"levelo://app?vid=a041bb46-822b-4579-8326-ce98c510e938","ios":"levelo://app?vid=a041bb46-822b-4579-8326-ce98c510e938"},"vehicle_type_id":"4","last_reported":1744794650,"current_range_meters":20000,"station_id":"ce4bgl92rcd13ifvqbq0","pricing_plan_id":"cebpf4jnsgd1na2vs0mg"},{"bike_id":"f4f2a3c2-2e88-42f2-a842-4b821963dedc","system_id":"levelo_inurba_marseille","lat":43.22954,"lon":5.35385,"is_reserved":false,"is_disabled":false,"rental_uris":{"android":"levelo://app?vid=f4f2a3c2-2e88-42f2-a842-4b821963dedc","ios":"levelo://app?vid=f4f2a3c2-2e88-42f2-a842-4b821963dedc"},"vehicle_type_id":"4","last_reported":1744794650,"current_range_meters":19600,"station_id":"cpo3532slgdg3j2ikp40","pricing_plan_id":"cebpf4jnsgd1na2vs0mg"},{"bike_id":"cecbbe1c-7a48-41b9-9872-625dad6f9e8a","system_id":"levelo_inurba_marseille","lat":43.32013,"lon":5.38154,"is_reserved":false,"is_disabled":false,"rental_uris":{"android":"levelo://app?vid=cecbbe1c-7a48-41b9-9872-625dad6f9e8a","ios":"levelo://app?vid=cecbbe1c-7a48-41b9-9872-625dad6f9e8a"},"vehicle_type_id":"4","last_reported":1744794650,"current_range_meters":19600,"station_id":"ce4bhr12rcd13ifvqhpg","pricing_plan_id":"cebpf4jnsgd1na2vs0mg"},{"bike_id":"88f3759b-2c1f-4762-b11a-067d1d7bb035","system_id":"levelo_inurba_marseille","lat":43.24178,"lon":5.3974,"is_reserved":false,"is_disabled":false,"rental_uris":{"android":"levelo://app?vid=88f3759b-2c1f-4762-b11a-067d1d7bb035","ios":"levelo://app?vid=88f3759b-2c1f-4762-b11a-067d1d7bb035"},"vehicle_type_id":"4","last_reported":1744794650,"current_range_meters":19600,"station_id":"ce4bhn12rcd13ifvqgpg","pricing_plan_id":"cebpf4jnsgd1na2vs0mg"},{"bike_id":"6693f05a-2713-4f8e-9ce4-fb5b8dc76112","system_id":"levelo_inurba_marseille","lat":43.31362,"lon":5.38484,"is_reserved":false,"is_disabled":false,"rental_uris":{"android":"levelo://app?vid=6693f05a-2713-4f8e-9ce4-fb5b8dc76112","ios":"levelo://app?vid=6693f05a-2713-4f8e-9ce4-fb5b8dc76112"},"vehicle_type_id":"4","last_reported":1744794650,"current_range_meters":19600,"station_id":"ce4bgt92rcd13ifvqcf0","pricing_plan_id":"cebpf4jnsgd1na2vs0mg"},{"bike_id":"58a6c056-c4c9-496e-9a01-a9dc486c603a","system_id":"levelo_inurba_marseille","lat":43.31496,"lon":5.37293,"is_reserved":false,"is_disabled":false,"rental_uris":{"android":"levelo://app?vid=58a6c056-c4c9-496e-9a01-a9dc486c603a","ios":"levelo://app?vid=58a6c056-c4c9-496e-9a01-a9dc486c603a"},"vehicle_type_id":"4","last_reported":1744794650,"current_range_meters":20000,"station_id":"ce4bgt12rcd13ifvqcd0","pricing_plan_id":"cebpf4jnsgd1na2vs0mg"},{"bike_id":"ceb52a59-0806-44d8-9596-f48eeae7037e","system_id":"levelo_inurba_marseille","lat":43.23152,"lon":5.4372,"is_reserved":false,"is_disabled":false,"rental_uris":{"android":"levelo://app?vid=ceb52a59-0806-44d8-9596-f48eeae7037e","ios":"levelo://app?vid=ceb52a59-0806-44d8-9596-f48eeae7037e"},"vehicle_type_id":"4","last_reported":1744794650,"current_range_meters":20000,"station_id":"ce4bhmp2rcd13ifvqgog","pricing_plan_id":"cebpf4jnsgd1na2vs0mg"},{"bike_id":"439c6cb6-7b03-4e89-b858-34cc7d6863ae","system_id":"levelo_inurba_marseille","lat":43.31196,"lon":5.36864,"is_reserved":false,"is_disabled":false,"rental_uris":{"android":"levelo://app?vid=439c6cb6-7b03-4e89-b858-34cc7d6863ae","ios":"levelo://app?vid=439c6cb6-7b03-4e89-b858-34cc7d6863ae"},"vehicle_type_id":"4","last_reported":1744794650,"current_range_meters":20000,"station_id":"ce4bgl92rcd13ifvqbq0","pricing_plan_id":"cebpf4jnsgd1na2vs0mg"},{"bike_id":"fab5cd6a-61b6-4d16-aad7-01dc9fa23b11","system_id":"levelo_inurba_marseille","lat":43.3054,"lon":5.36524,"is_reserved":false,"is_disabled":false,"rental_uris":{"android":"levelo://app?vid=fab5cd6a-61b6-4d16-aad7-01dc9fa23b11","ios":"levelo://app?vid=fab5cd6a-61b6-4d16-aad7-01dc9fa23b11"},"vehicle_type_id":"4","last_reported":1744794650,"current_range_meters":20400,"station_id":"ce4bgs12rcd13ifvqcag","pricing_plan_id":"cebpf4jnsgd1na2vs0mg"},{"bike_id":"cb2339f4-0371-4078-a89b-835123189f9a","system_id":"levelo_inurba_marseille","lat":43.25727,"lon":5.41112,"is_reserved":false,"is_disabled":false,"rental_uris":{"android":"levelo://app?vid=cb2339f4-0371-4078-a89b-835123189f9a","ios":"levelo://app?vid=cb2339f4-0371-4078-a89b-835123189f9a"},"vehicle_type_id":"4","last_reported":1744794650,"current_range_meters":20400,"station_id":"ce4bhkp2rcd13ifvqgd0","pricing_plan_id":"cebpf4jnsgd1na2vs0mg"},{"bike_id":"eb2c19a1-62aa-4899-868a-04e9d024bfdd","system_id":"levelo_inurba_marseille","lat":43.27985,"lon":5.41659,"is_reserved":false,"is_disabled":false,"rental_uris":{"android":"levelo://app?vid=eb2c19a1-62aa-4899-868a-04e9d024bfdd","ios":"levelo://app?vid=eb2c19a1-62aa-4899-868a-04e9d024bfdd"},"vehicle_type_id":"4","last_reported":1744794650,"current_range_meters":20400,"station_id":"ce4bho12rcd13ifvqh1g","pricing_plan_id":"cebpf4jnsgd1na2vs0mg"},{"bike_id":"ac97cdf7-f8a5-4c5a-81ec-38c6ebcfe2d7","system_id":"levelo_inurba_marseille","lat":43.245842,"lon":5.380438,"is_reserved":false,"is_disabled":false,"rental_uris":{"android":"levelo://app?vid=ac97cdf7-f8a5-4c5a-81ec-38c6ebcfe2d7","ios":"levelo://app?vid=ac97cdf7-f8a5-4c5a-81ec-38c6ebcfe2d7"},"vehicle_type_id":"4","last_reported":1744794650,"current_range_meters":20400,"station_id":"ce4bhgh2rcd13ifvqfb0","pricing_plan_id":"cebpf4jnsgd1na2vs0mg"},{"bike_id":"7c7fb11f-ef96-49e3-863c-ce283e7f4076","system_id":"levelo_inurba_marseille","lat":43.29261,"lon":5.38445,"is_reserved":false,"is_disabled":false,"rental_uris":{"android":"levelo://app?vid=7c7fb11f-ef96-49e3-863c-ce283e7f4076","ios":"levelo://app?vid=7c7fb11f-ef96-49e3-863c-ce283e7f4076"},"vehicle_type_id":"4","last_reported":1744794650,"current_range_meters":20800,"station_id":"ce4bh692rcd13ifvqea0","pricing_plan_id":"cebpf4jnsgd1na2vs0mg"},{"bike_id":"7bed040b-9d65-4254-ae2c-e2a18b358087","system_id":"levelo_inurba_marseille","lat":43.262109,"lon":5.374442,"is_reserved":false,"is_disabled":false,"rental_uris":{"android":"levelo://app?vid=7bed040b-9d65-4254-ae2c-e2a18b358087","ios":"levelo://app?vid=7bed040b-9d65-4254-ae2c-e2a18b358087"},"vehicle_type_id":"4","last_reported":1744794650,"current_range_meters":20800,"station_id":"ce4bhgp2rcd13ifvqfc0","pricing_plan_id":"cebpf4jnsgd1na2vs0mg"},{"bike_id":"5f5add70-6b5c-42c7-8fa1-24bd1510cd36","system_id":"levelo_inurba_marseille","lat":43.29256,"lon":5.38438,"is_reserved":false,"is_disabled":false,"rental_uris":{"android":"levelo://app?vid=5f5add70-6b5c-42c7-8fa1-24bd1510cd36","ios":"levelo://app?vid=5f5add70-6b5c-42c7-8fa1-24bd1510cd36"},"vehicle_type_id":"4","last_reported":1744794650,"current_range_meters":20800,"station_id":"ce4bh692rcd13ifvqea0","pricing_plan_id":"cebpf4jnsgd1na2vs0mg"},{"bike_id":"280329e7-0f63-46af-8d8b-663255fa9eb4","system_id":"levelo_inurba_marseille","lat":43.31495,"lon":5.37308,"is_reserved":false,"is_disabled":false,"rental_uris":{"android":"levelo://app?vid=280329e7-0f63-46af-8d8b-663255fa9eb4","ios":"levelo://app?vid=280329e7-0f63-46af-8d8b-663255fa9eb4"},"vehicle_type_id":"4","last_reported":1744794650,"current_range_meters":20800,"station_id":"ce4bgt12rcd13ifvqcd0","pricing_plan_id":"cebpf4jnsgd1na2vs0mg"},{"bike_id":"60d0714a-3481-4c64-af3e-796bab009e39","system_id":"levelo_inurba_marseille","lat":43.23152,"lon":5.43719,"is_reserved":false,"is_disabled":false,"rental_uris":{"android":"levelo://app?vid=60d0714a-3481-4c64-af3e-796bab009e39","ios":"levelo://app?vid=60d0714a-3481-4c64-af3e-796bab009e39"},"vehicle_type_id":"4","last_reported":1744794650,"current_range_meters":20800,"station_id":"ce4bhmp2rcd13ifvqgog","pricing_plan_id":"cebpf4jnsgd1na2vs0mg"},{"bike_id":"c97de97d-b4c8-420a-98bd-5fdc4157f12b","system_id":"levelo_inurba_marseille","lat":43.29367,"lon":5.3784,"is_reserved":false,"is_disabled":false,"rental_uris":{"android":"levelo://app?vid=c97de97d-b4c8-420a-98bd-5fdc4157f12b","ios":"levelo://app?vid=c97de97d-b4c8-420a-98bd-5fdc4157f12b"},"vehicle_type_id":"4","last_reported":1744794650,"current_range_meters":20800,"station_id":"ce4bgjh2rcd13ifvqbf0","pricing_plan_id":"cebpf4jnsgd1na2vs0mg"},{"bike_id":"f9294aff-5b6f-4d62-9db7-b7bdca4ffaf5","system_id":"levelo_inurba_marseille","lat":43.3253,"lon":5.41412,"is_reserved":false,"is_disabled":false,"rental_uris":{"android":"levelo://app?vid=f9294aff-5b6f-4d62-9db7-b7bdca4ffaf5","ios":"levelo://app?vid=f9294aff-5b6f-4d62-9db7-b7bdca4ffaf5"},"vehicle_type_id":"4","last_reported":1744794650,"current_range_meters":20800,"station_id":"ce4bhq12rcd13ifvqhhg","pricing_plan_id":"cebpf4jnsgd1na2vs0mg"},{"bike_id":"d3c9bcc2-010e-439f-b957-5a27a2d46170","system_id":"levelo_inurba_marseille","lat":43.28403,"lon":5.37511,"is_reserved":false,"is_disabled":false,"rental_uris":{"android":"levelo://app?vid=d3c9bcc2-010e-439f-b957-5a27a2d46170","ios":"levelo://app?vid=d3c9bcc2-010e-439f-b957-5a27a2d46170"},"vehicle_type_id":"4","last_reported":1744794650,"current_range_meters":20800,"station_id":"ce4bh412rcd13ifvqds0","pricing_plan_id":"cebpf4jnsgd1na2vs0mg"},{"bike_id":"d55c55b0-51de-4280-a623-5ebf8562de0a","system_id":"levelo_inurba_marseille","lat":43.25012,"lon":5.38964,"is_reserved":false,"is_disabled":false,"rental_uris":{"android":"levelo://app?vid=d55c55b0-51de-4280-a623-5ebf8562de0a","ios":"levelo://app?vid=d55c55b0-51de-4280-a623-5ebf8562de0a"},"vehicle_type_id":"4","last_reported":1744794650,"current_range_meters":20800,"station_id":"ce4bhgp2rcd13ifvqfd0","pricing_plan_id":"cebpf4jnsgd1na2vs0mg"},{"bike_id":"bc0837a1-279f-4396-af1b-42270f8cd9b7","system_id":"levelo_inurba_marseille","lat":43.262263,"lon":5.404656,"is_reserved":false,"is_disabled":false,"rental_uris":{"android":"levelo://app?vid=bc0837a1-279f-4396-af1b-42270f8cd9b7","ios":"levelo://app?vid=bc0837a1-279f-4396-af1b-42270f8cd9b7"},"vehicle_type_id":"4","last_reported":1744794650,"current_range_meters":20800,"station_id":"ce4bhmh2rcd13ifvqgmg","pricing_plan_id":"cebpf4jnsgd1na2vs0mg"},{"bike_id":"c0329216-12e6-4d65-a447-d5cff99ee33d","system_id":"levelo_inurba_marseille","lat":43.29025,"lon":5.37572,"is_reserved":false,"is_disabled":false,"rental_uris":{"android":"levelo://app?vid=c0329216-12e6-4d65-a447-d5cff99ee33d","ios":"levelo://app?vid=c0329216-12e6-4d65-a447-d5cff99ee33d"},"vehicle_type_id":"4","last_reported":1744794650,"current_range_meters":21600,"station_id":"ce4bh692rcd13ifvqe90","pricing_plan_id":"cebpf4jnsgd1na2vs0mg"},{"bike_id":"d750596a-6ac6-4755-84cc-45acd4464f3d","system_id":"levelo_inurba_marseille","lat":43.24394,"lon":5.37084,"is_reserved":false,"is_disabled":false,"rental_uris":{"android":"levelo://app?vid=d750596a-6ac6-4755-84cc-45acd4464f3d","ios":"levelo://app?vid=d750596a-6ac6-4755-84cc-45acd4464f3d"},"vehicle_type_id":"4","last_reported":1744794650,"current_range_meters":22000,"station_id":"ce4bhhh2rcd13ifvqfk0","pricing_plan_id":"cebpf4jnsgd1na2vs0mg"},{"bike_id":"acd867a0-846f-41ea-9a6e-9ad4ad67fd4a","system_id":"levelo_inurba_marseille","lat":43.28713,"lon":5.37931,"is_reserved":false,"is_disabled":false,"rental_uris":{"android":"levelo://app?vid=acd867a0-846f-41ea-9a6e-9ad4ad67fd4a","ios":"levelo://app?vid=acd867a0-846f-41ea-9a6e-9ad4ad67fd4a"},"vehicle_type_id":"4","last_reported":1744794650,"current_range_meters":22000,"station_id":"ce4bh9p2rcd13ifvqec0","pricing_plan_id":"cebpf4jnsgd1na2vs0mg"},{"bike_id":"08f4dcee-7656-4957-9022-f13783bb2667","system_id":"levelo_inurba_marseille","lat":43.29703,"lon":5.37242,"is_reserved":false,"is_disabled":false,"rental_uris":{"android":"levelo://app?vid=08f4dcee-7656-4957-9022-f13783bb2667","ios":"levelo://app?vid=08f4dcee-7656-4957-9022-f13783bb2667"},"vehicle_type_id":"4","last_reported":1744794650,"current_range_meters":22000,"station_id":"ce4bgk12rcd13ifvqbj0","pricing_plan_id":"cebpf4jnsgd1na2vs0mg"},{"bike_id":"d39e5537-c00a-4bf8-9f22-53966b448679","system_id":"levelo_inurba_marseille","lat":43.29558,"lon":5.42282,"is_reserved":false,"is_disabled":false,"rental_uris":{"android":"levelo://app?vid=d39e5537-c00a-4bf8-9f22-53966b448679","ios":"levelo://app?vid=d39e5537-c00a-4bf8-9f22-53966b448679"},"vehicle_type_id":"4","last_reported":1744794650,"current_range_meters":22000,"station_id":"ce4bhph2rcd13ifvqhdg","pricing_plan_id":"cebpf4jnsgd1na2vs0mg"},{"bike_id":"0e1760d9-0b59-494a-9ad2-31bdd575a638","system_id":"levelo_inurba_marseille","lat":43.29966,"lon":5.38491,"is_reserved":false,"is_disabled":false,"rental_uris":{"android":"levelo://app?vid=0e1760d9-0b59-494a-9ad2-31bdd575a638","ios":"levelo://app?vid=0e1760d9-0b59-494a-9ad2-31bdd575a638"},"vehicle_type_id":"4","last_reported":1744794650,"current_range_meters":22000,"station_id":"ce4bgj92rcd13ifvqbd0","pricing_plan_id":"cebpf4jnsgd1na2vs0mg"},{"bike_id":"5dcdba20-c421-403e-9fc9-2e0f516a830a","system_id":"levelo_inurba_marseille","lat":43.30279,"lon":5.37692,"is_reserved":false,"is_disabled":false,"rental_uris":{"android":"levelo://app?vid=5dcdba20-c421-403e-9fc9-2e0f516a830a","ios":"levelo://app?vid=5dcdba20-c421-403e-9fc9-2e0f516a830a"},"vehicle_type_id":"4","last_reported":1744794650,"current_range_meters":22000,"station_id":"ce4bguh2rcd13ifvqcj0","pricing_plan_id":"cebpf4jnsgd1na2vs0mg"},{"bike_id":"4ab43c8f-2442-44d2-844d-0e2cb5bfba0c","system_id":"levelo_inurba_marseille","lat":43.30557,"lon":5.36549,"is_reserved":false,"is_disabled":false,"rental_uris":{"android":"levelo://app?vid=4ab43c8f-2442-44d2-844d-0e2cb5bfba0c","ios":"levelo://app?vid=4ab43c8f-2442-44d2-844d-0e2cb5bfba0c"},"vehicle_type_id":"4","last_reported":1744794650,"current_range_meters":22000,"station_id":"ce4bgs12rcd13ifvqcag","pricing_plan_id":"cebpf4jnsgd1na2vs0mg"},{"bike_id":"ccb7a8e4-757c-4e6f-90e3-f97fac7da5b7","system_id":"levelo_inurba_marseille","lat":43.292584,"lon":5.384369,"is_reserved":false,"is_disabled":false,"rental_uris":{"android":"levelo://app?vid=ccb7a8e4-757c-4e6f-90e3-f97fac7da5b7","ios":"levelo://app?vid=ccb7a8e4-757c-4e6f-90e3-f97fac7da5b7"},"vehicle_type_id":"4","last_reported":1744794650,"current_range_meters":22000,"station_id":"ce4bh692rcd13ifvqea0","pricing_plan_id":"cebpf4jnsgd1na2vs0mg"},{"bike_id":"37b199bb-46ff-4c9b-bc14-aa0d1a46077c","system_id":"levelo_inurba_marseille","lat":43.285163,"lon":5.360041,"is_reserved":false,"is_disabled":false,"rental_uris":{"android":"levelo://app?vid=37b199bb-46ff-4c9b-bc14-aa0d1a46077c","ios":"levelo://app?vid=37b199bb-46ff-4c9b-bc14-aa0d1a46077c"},"vehicle_type_id":"4","last_reported":1744794650,"current_range_meters":22000,"station_id":"ce4bgrh2rcd13ifvqc8g","pricing_plan_id":"cebpf4jnsgd1na2vs0mg"},{"bike_id":"6f2360da-5688-4f6a-8ebd-9e32ee7c678f","system_id":"levelo_inurba_marseille","lat":43.31709,"lon":5.40455,"is_reserved":false,"is_disabled":false,"rental_uris":{"android":"levelo://app?vid=6f2360da-5688-4f6a-8ebd-9e32ee7c678f","ios":"levelo://app?vid=6f2360da-5688-4f6a-8ebd-9e32ee7c678f"},"vehicle_type_id":"4","last_reported":1744794650,"current_range_meters":22000,"station_id":"ce4bh012rcd13ifvqd00","pricing_plan_id":"cebpf4jnsgd1na2vs0mg"},{"bike_id":"6bf6871e-2941-427a-b652-aef272651f3f","system_id":"levelo_inurba_marseille","lat":43.241787,"lon":5.397237,"is_reserved":false,"is_disabled":false,"rental_uris":{"android":"levelo://app?vid=6bf6871e-2941-427a-b652-aef272651f3f","ios":"levelo://app?vid=6bf6871e-2941-427a-b652-aef272651f3f"},"vehicle_type_id":"4","last_reported":1744794650,"current_range_meters":22000,"station_id":"ce4bhn12rcd13ifvqgpg","pricing_plan_id":"cebpf4jnsgd1na2vs0mg"},{"bike_id":"822d671d-529a-4c69-a4e7-e63e3fed1450","system_id":"levelo_inurba_marseille","lat":43.2511,"lon":5.40323,"is_reserved":false,"is_disabled":false,"rental_uris":{"android":"levelo://app?vid=822d671d-529a-4c69-a4e7-e63e3fed1450","ios":"levelo://app?vid=822d671d-529a-4c69-a4e7-e63e3fed1450"},"vehicle_type_id":"4","last_reported":1744794650,"current_range_meters":22000,"station_id":"ce4bhlh2rcd13ifvqgig","pricing_plan_id":"cebpf4jnsgd1na2vs0mg"},{"bike_id":"221415bd-9c9e-49b9-9d9d-685af1ddf6c5","system_id":"levelo_inurba_marseille","lat":43.30543,"lon":5.36536,"is_reserved":false,"is_disabled":false,"rental_uris":{"android":"levelo://app?vid=221415bd-9c9e-49b9-9d9d-685af1ddf6c5","ios":"levelo://app?vid=221415bd-9c9e-49b9-9d9d-685af1ddf6c5"},"vehicle_type_id":"4","last_reported":1744794650,"current_range_meters":22400,"station_id":"ce4bgs12rcd13ifvqcag","pricing_plan_id":"cebpf4jnsgd1na2vs0mg"},{"bike_id":"fd2e9bd5-6aa2-47a2-a5d1-9e4a436a0b5f","system_id":"levelo_inurba_marseille","lat":43.320035,"lon":5.381486,"is_reserved":false,"is_disabled":false,"rental_uris":{"android":"levelo://app?vid=fd2e9bd5-6aa2-47a2-a5d1-9e4a436a0b5f","ios":"levelo://app?vid=fd2e9bd5-6aa2-47a2-a5d1-9e4a436a0b5f"},"vehicle_type_id":"4","last_reported":1744794650,"current_range_meters":22400,"station_id":"ce4bhr12rcd13ifvqhpg","pricing_plan_id":"cebpf4jnsgd1na2vs0mg"},{"bike_id":"f6cbbdcb-fdad-4b33-b45c-6ebf1ba2ee1d","system_id":"levelo_inurba_marseille","lat":43.2827,"lon":5.35075,"is_reserved":false,"is_disabled":false,"rental_uris":{"android":"levelo://app?vid=f6cbbdcb-fdad-4b33-b45c-6ebf1ba2ee1d","ios":"levelo://app?vid=f6cbbdcb-fdad-4b33-b45c-6ebf1ba2ee1d"},"vehicle_type_id":"4","last_reported":1744794650,"current_range_meters":22400,"station_id":"ce4bhbp2rcd13ifvqerg","pricing_plan_id":"cebpf4jnsgd1na2vs0mg"},{"bike_id":"ae5433ba-42ca-4b31-bb65-b1cb5613431f","system_id":"levelo_inurba_marseille","lat":43.30559,"lon":5.36531,"is_reserved":false,"is_disabled":false,"rental_uris":{"android":"levelo://app?vid=ae5433ba-42ca-4b31-bb65-b1cb5613431f","ios":"levelo://app?vid=ae5433ba-42ca-4b31-bb65-b1cb5613431f"},"vehicle_type_id":"4","last_reported":1744794650,"current_range_meters":22400,"station_id":"ce4bgs12rcd13ifvqcag","pricing_plan_id":"cebpf4jnsgd1na2vs0mg"},{"bike_id":"3f761246-0d21-4df1-9aa1-2fe452c29abd","system_id":"levelo_inurba_marseille","lat":43.21751,"lon":5.34594,"is_reserved":false,"is_disabled":false,"rental_uris":{"android":"levelo://app?vid=3f761246-0d21-4df1-9aa1-2fe452c29abd","ios":"levelo://app?vid=3f761246-0d21-4df1-9aa1-2fe452c29abd"},"vehicle_type_id":"4","last_reported":1744794650,"current_range_meters":22400,"station_id":"st_cvj6r9ubvosntc0bgbag","pricing_plan_id":"cebpf4jnsgd1na2vs0mg"},{"bike_id":"e09b4c34-6357-43c3-84ad-0a95a8ec10e5","system_id":"levelo_inurba_marseille","lat":43.22497,"lon":5.34777,"is_reserved":false,"is_disabled":false,"rental_uris":{"android":"levelo://app?vid=e09b4c34-6357-43c3-84ad-0a95a8ec10e5","ios":"levelo://app?vid=e09b4c34-6357-43c3-84ad-0a95a8ec10e5"},"vehicle_type_id":"4","last_reported":1744794650,"current_range_meters":22800,"station_id":"","pricing_plan_id":"cebpf4jnsgd1na2vs0mg"},{"bike_id":"7ed9a81a-169b-437d-a718-7d28a51c26a5","system_id":"levelo_inurba_marseille","lat":43.26701,"lon":5.38279,"is_reserved":false,"is_disabled":false,"rental_uris":{"android":"levelo://app?vid=7ed9a81a-169b-437d-a718-7d28a51c26a5","ios":"levelo://app?vid=7ed9a81a-169b-437d-a718-7d28a51c26a5"},"vehicle_type_id":"4","last_reported":1744794650,"current_range_meters":22800,"station_id":"ce4bhg92rcd13ifvqf90","pricing_plan_id":"cebpf4jnsgd1na2vs0mg"},{"bike_id":"f49c4e21-3368-4dd3-b8d1-f136aaf28dbc","system_id":"levelo_inurba_marseille","lat":43.31195,"lon":5.36908,"is_reserved":false,"is_disabled":false,"rental_uris":{"android":"levelo://app?vid=f49c4e21-3368-4dd3-b8d1-f136aaf28dbc","ios":"levelo://app?vid=f49c4e21-3368-4dd3-b8d1-f136aaf28dbc"},"vehicle_type_id":"4","last_reported":1744794650,"current_range_meters":22800,"station_id":"ce4bgl92rcd13ifvqbq0","pricing_plan_id":"cebpf4jnsgd1na2vs0mg"},{"bike_id":"94c8b160-29dd-45c4-9d5f-86d40f79a61c","system_id":"levelo_inurba_marseille","lat":43.26196,"lon":5.40484,"is_reserved":false,"is_disabled":false,"rental_uris":{"android":"levelo://app?vid=94c8b160-29dd-45c4-9d5f-86d40f79a61c","ios":"levelo://app?vid=94c8b160-29dd-45c4-9d5f-86d40f79a61c"},"vehicle_type_id":"4","last_reported":1744794650,"current_range_meters":22800,"station_id":"ce4bhmh2rcd13ifvqgmg","pricing_plan_id":"cebpf4jnsgd1na2vs0mg"},{"bike_id":"64e35fe8-77b5-4c35-afd4-bf23c065d9b0","system_id":"levelo_inurba_marseille","lat":43.309102,"lon":5.368559,"is_reserved":false,"is_disabled":false,"rental_uris":{"android":"levelo://app?vid=64e35fe8-77b5-4c35-afd4-bf23c065d9b0","ios":"levelo://app?vid=64e35fe8-77b5-4c35-afd4-bf23c065d9b0"},"vehicle_type_id":"4","last_reported":1744794650,"current_range_meters":22800,"station_id":"ce4bgn92rcd13ifvqbvg","pricing_plan_id":"cebpf4jnsgd1na2vs0mg"},{"bike_id":"bbd56014-1027-4a24-b1a9-fb0ca4b43b0a","system_id":"levelo_inurba_marseille","lat":43.278038,"lon":5.40722,"is_reserved":false,"is_disabled":false,"rental_uris":{"android":"levelo://app?vid=bbd56014-1027-4a24-b1a9-fb0ca4b43b0a","ios":"levelo://app?vid=bbd56014-1027-4a24-b1a9-fb0ca4b43b0a"},"vehicle_type_id":"4","last_reported":1744794650,"current_range_meters":22800,"station_id":"ce4bhnh2rcd13ifvqgtg","pricing_plan_id":"cebpf4jnsgd1na2vs0mg"},{"bike_id":"95cb4257-47a7-43ca-9e16-7d5e93c960cc","system_id":"levelo_inurba_marseille","lat":43.312235,"lon":5.36844,"is_reserved":false,"is_disabled":false,"rental_uris":{"android":"levelo://app?vid=95cb4257-47a7-43ca-9e16-7d5e93c960cc","ios":"levelo://app?vid=95cb4257-47a7-43ca-9e16-7d5e93c960cc"},"vehicle_type_id":"4","last_reported":1744794650,"current_range_meters":22800,"station_id":"ce4bgl92rcd13ifvqbq0","pricing_plan_id":"cebpf4jnsgd1na2vs0mg"},{"bike_id":"321f8297-7ad2-489f-a42f-a4a224d1020b","system_id":"levelo_inurba_marseille","lat":43.29882,"lon":5.38914,"is_reserved":false,"is_disabled":false,"rental_uris":{"android":"levelo://app?vid=321f8297-7ad2-489f-a42f-a4a224d1020b","ios":"levelo://app?vid=321f8297-7ad2-489f-a42f-a4a224d1020b"},"vehicle_type_id":"4","last_reported":1744794650,"current_range_meters":22800,"station_id":"ce4bh392rcd13ifvqdl0","pricing_plan_id":"cebpf4jnsgd1na2vs0mg"},{"bike_id":"714b5d52-0c40-45e3-8e81-9ebd8c1251e6","system_id":"levelo_inurba_marseille","lat":43.26562,"lon":5.37288,"is_reserved":false,"is_disabled":false,"rental_uris":{"android":"levelo://app?vid=714b5d52-0c40-45e3-8e81-9ebd8c1251e6","ios":"levelo://app?vid=714b5d52-0c40-45e3-8e81-9ebd8c1251e6"},"vehicle_type_id":"4","last_reported":1744794650,"current_range_meters":23200,"station_id":"ce4bhg12rcd13ifvqf70","pricing_plan_id":"cebpf4jnsgd1na2vs0mg"},{"bike_id":"8d631704-7df1-4c86-bc42-234be877196a","system_id":"levelo_inurba_marseille","lat":43.30544,"lon":5.36532,"is_reserved":false,"is_disabled":false,"rental_uris":{"android":"levelo://app?vid=8d631704-7df1-4c86-bc42-234be877196a","ios":"levelo://app?vid=8d631704-7df1-4c86-bc42-234be877196a"},"vehicle_type_id":"4","last_reported":1744794650,"current_range_meters":23200,"station_id":"ce4bgs12rcd13ifvqcag","pricing_plan_id":"cebpf4jnsgd1na2vs0mg"},{"bike_id":"a4d2a5b5-8241-4f16-90b2-1eee7415dbb2","system_id":"levelo_inurba_marseille","lat":43.29794,"lon":5.37103,"is_reserved":false,"is_disabled":false,"rental_uris":{"android":"levelo://app?vid=a4d2a5b5-8241-4f16-90b2-1eee7415dbb2","ios":"levelo://app?vid=a4d2a5b5-8241-4f16-90b2-1eee7415dbb2"},"vehicle_type_id":"4","last_reported":1744794650,"current_range_meters":23200,"station_id":"ce4bgop2rcd13ifvqc1g","pricing_plan_id":"cebpf4jnsgd1na2vs0mg"},{"bike_id":"104c915d-5eaa-4c11-ab50-52fadd533a54","system_id":"levelo_inurba_marseille","lat":43.29224,"lon":5.36077,"is_reserved":false,"is_disabled":false,"rental_uris":{"android":"levelo://app?vid=104c915d-5eaa-4c11-ab50-52fadd533a54","ios":"levelo://app?vid=104c915d-5eaa-4c11-ab50-52fadd533a54"},"vehicle_type_id":"4","last_reported":1744794650,"current_range_meters":23200,"station_id":"ce4bhbh2rcd13ifvqeqg","pricing_plan_id":"cebpf4jnsgd1na2vs0mg"},{"bike_id":"8934c9ff-b955-4903-b5d2-c595dc711b7c","system_id":"levelo_inurba_marseille","lat":43.29557,"lon":5.39961,"is_reserved":false,"is_disabled":true,"rental_uris":{"android":"levelo://app?vid=8934c9ff-b955-4903-b5d2-c595dc711b7c","ios":"levelo://app?vid=8934c9ff-b955-4903-b5d2-c595dc711b7c"},"vehicle_type_id":"4","last_reported":1744794650,"current_range_meters":23200,"station_id":"ce4bh312rcd13ifvqdj0","pricing_plan_id":"cebpf4jnsgd1na2vs0mg"},{"bike_id":"c4ced4a0-1335-4eda-9d1a-3ebff32c21a1","system_id":"levelo_inurba_marseille","lat":43.28936,"lon":5.36641,"is_reserved":false,"is_disabled":false,"rental_uris":{"android":"levelo://app?vid=c4ced4a0-1335-4eda-9d1a-3ebff32c21a1","ios":"levelo://app?vid=c4ced4a0-1335-4eda-9d1a-3ebff32c21a1"},"vehicle_type_id":"4","last_reported":1744794650,"current_range_meters":22800,"station_id":"ce4bhap2rcd13ifvqek0","pricing_plan_id":"cebpf4jnsgd1na2vs0mg"},{"bike_id":"d173482c-33fe-4e3f-b3dc-50194ba6dd74","system_id":"levelo_inurba_marseille","lat":43.24181,"lon":5.39699,"is_reserved":false,"is_disabled":false,"rental_uris":{"android":"levelo://app?vid=d173482c-33fe-4e3f-b3dc-50194ba6dd74","ios":"levelo://app?vid=d173482c-33fe-4e3f-b3dc-50194ba6dd74"},"vehicle_type_id":"4","last_reported":1744794650,"current_range_meters":23200,"station_id":"ce4bhn12rcd13ifvqgpg","pricing_plan_id":"cebpf4jnsgd1na2vs0mg"},{"bike_id":"12dd0287-38f8-406f-b7e0-fad92c423565","system_id":"levelo_inurba_marseille","lat":43.29226,"lon":5.36083,"is_reserved":false,"is_disabled":true,"rental_uris":{"android":"levelo://app?vid=12dd0287-38f8-406f-b7e0-fad92c423565","ios":"levelo://app?vid=12dd0287-38f8-406f-b7e0-fad92c423565"},"vehicle_type_id":"4","last_reported":1744794650,"current_range_meters":23200,"station_id":"ce4bhbh2rcd13ifvqeqg","pricing_plan_id":"cebpf4jnsgd1na2vs0mg"},{"bike_id":"413ffa97-a7b9-4367-aa23-abb8a0c49da3","system_id":"levelo_inurba_marseille","lat":43.299714,"lon":5.384911,"is_reserved":false,"is_disabled":false,"rental_uris":{"android":"levelo://app?vid=413ffa97-a7b9-4367-aa23-abb8a0c49da3","ios":"levelo://app?vid=413ffa97-a7b9-4367-aa23-abb8a0c49da3"},"vehicle_type_id":"4","last_reported":1744794650,"current_range_meters":23200,"station_id":"ce4bgj92rcd13ifvqbd0","pricing_plan_id":"cebpf4jnsgd1na2vs0mg"},{"bike_id":"b9ad2841-9497-4520-83ee-75be09780355","system_id":"levelo_inurba_marseille","lat":43.298502,"lon":5.362904,"is_reserved":false,"is_disabled":false,"rental_uris":{"android":"levelo://app?vid=b9ad2841-9497-4520-83ee-75be09780355","ios":"levelo://app?vid=b9ad2841-9497-4520-83ee-75be09780355"},"vehicle_type_id":"4","last_reported":1744794650,"current_range_meters":23200,"station_id":"","pricing_plan_id":"cebpf4jnsgd1na2vs0mg"},{"bike_id":"a5d079ef-c3f1-42cb-9fd2-959a41d55a70","system_id":"levelo_inurba_marseille","lat":43.32488,"lon":5.36568,"is_reserved":false,"is_disabled":false,"rental_uris":{"android":"levelo://app?vid=a5d079ef-c3f1-42cb-9fd2-959a41d55a70","ios":"levelo://app?vid=a5d079ef-c3f1-42cb-9fd2-959a41d55a70"},"vehicle_type_id":"4","last_reported":1744794650,"current_range_meters":23200,"station_id":"ce4bhs12rcd13ifvqhvg","pricing_plan_id":"cebpf4jnsgd1na2vs0mg"},{"bike_id":"f8c485d0-2bf1-4401-9529-65b5821968c8","system_id":"levelo_inurba_marseille","lat":43.259374,"lon":5.409024,"is_reserved":false,"is_disabled":false,"rental_uris":{"android":"levelo://app?vid=f8c485d0-2bf1-4401-9529-65b5821968c8","ios":"levelo://app?vid=f8c485d0-2bf1-4401-9529-65b5821968c8"},"vehicle_type_id":"4","last_reported":1744794650,"current_range_meters":23200,"station_id":"ce4bhm92rcd13ifvqglg","pricing_plan_id":"cebpf4jnsgd1na2vs0mg"},{"bike_id":"272ea20a-4c31-4d01-a01c-10f418156f2e","system_id":"levelo_inurba_marseille","lat":43.2315,"lon":5.437,"is_reserved":false,"is_disabled":false,"rental_uris":{"android":"levelo://app?vid=272ea20a-4c31-4d01-a01c-10f418156f2e","ios":"levelo://app?vid=272ea20a-4c31-4d01-a01c-10f418156f2e"},"vehicle_type_id":"4","last_reported":1744794650,"current_range_meters":23200,"station_id":"ce4bhmp2rcd13ifvqgog","pricing_plan_id":"cebpf4jnsgd1na2vs0mg"},{"bike_id":"f4c69777-4974-401f-817d-b79514aea718","system_id":"levelo_inurba_marseille","lat":43.26228,"lon":5.37469,"is_reserved":false,"is_disabled":false,"rental_uris":{"android":"levelo://app?vid=f4c69777-4974-401f-817d-b79514aea718","ios":"levelo://app?vid=f4c69777-4974-401f-817d-b79514aea718"},"vehicle_type_id":"4","last_reported":1744794650,"current_range_meters":24000,"station_id":"ce4bhgp2rcd13ifvqfc0","pricing_plan_id":"cebpf4jnsgd1na2vs0mg"},{"bike_id":"41fb0398-f2fe-4abb-ae37-a38f47615ea9","system_id":"levelo_inurba_marseille","lat":43.32351,"lon":5.3676,"is_reserved":false,"is_disabled":false,"rental_uris":{"android":"levelo://app?vid=41fb0398-f2fe-4abb-ae37-a38f47615ea9","ios":"levelo://app?vid=41fb0398-f2fe-4abb-ae37-a38f47615ea9"},"vehicle_type_id":"4","last_reported":1744794650,"current_range_meters":24000,"station_id":"ce4bhsh2rcd13ifvqi2g","pricing_plan_id":"cebpf4jnsgd1na2vs0mg"},{"bike_id":"81c05693-29fe-499a-b36c-cefaf4e6effa","system_id":"levelo_inurba_marseille","lat":43.31335,"lon":5.36727,"is_reserved":false,"is_disabled":false,"rental_uris":{"android":"levelo://app?vid=81c05693-29fe-499a-b36c-cefaf4e6effa","ios":"levelo://app?vid=81c05693-29fe-499a-b36c-cefaf4e6effa"},"vehicle_type_id":"4","last_reported":1744794650,"current_range_meters":24000,"station_id":"ce4bgr92rcd13ifvqc6g","pricing_plan_id":"cebpf4jnsgd1na2vs0mg"},{"bike_id":"984ab748-36e5-4932-95e9-df064bf3393e","system_id":"levelo_inurba_marseille","lat":43.27499,"lon":5.42471,"is_reserved":false,"is_disabled":true,"rental_uris":{"android":"levelo://app?vid=984ab748-36e5-4932-95e9-df064bf3393e","ios":"levelo://app?vid=984ab748-36e5-4932-95e9-df064bf3393e"},"vehicle_type_id":"4","last_reported":1744794650,"current_range_meters":24000,"station_id":"ce4bhn92rcd13ifvqgrg","pricing_plan_id":"cebpf4jnsgd1na2vs0mg"},{"bike_id":"91c6b3ff-53f7-4f2d-b135-7dac42216f39","system_id":"levelo_inurba_marseille","lat":43.29036,"lon":5.39976,"is_reserved":false,"is_disabled":false,"rental_uris":{"android":"levelo://app?vid=91c6b3ff-53f7-4f2d-b135-7dac42216f39","ios":"levelo://app?vid=91c6b3ff-53f7-4f2d-b135-7dac42216f39"},"vehicle_type_id":"4","last_reported":1744794650,"current_range_meters":24000,"station_id":"ce4bh392rcd13ifvqdm0","pricing_plan_id":"cebpf4jnsgd1na2vs0mg"},{"bike_id":"c73ab921-dd9a-4810-95bf-f34353c47ee8","system_id":"levelo_inurba_marseille","lat":43.30297,"lon":5.37694,"is_reserved":false,"is_disabled":false,"rental_uris":{"android":"levelo://app?vid=c73ab921-dd9a-4810-95bf-f34353c47ee8","ios":"levelo://app?vid=c73ab921-dd9a-4810-95bf-f34353c47ee8"},"vehicle_type_id":"4","last_reported":1744794650,"current_range_meters":24000,"station_id":"ce4bguh2rcd13ifvqcj0","pricing_plan_id":"cebpf4jnsgd1na2vs0mg"},{"bike_id":"c9d52395-1588-4b32-bf04-c2f25abd84a4","system_id":"levelo_inurba_marseille","lat":43.26687,"lon":5.3827,"is_reserved":false,"is_disabled":false,"rental_uris":{"android":"levelo://app?vid=c9d52395-1588-4b32-bf04-c2f25abd84a4","ios":"levelo://app?vid=c9d52395-1588-4b32-bf04-c2f25abd84a4"},"vehicle_type_id":"4","last_reported":1744794650,"current_range_meters":24000,"station_id":"ce4bhg92rcd13ifvqf90","pricing_plan_id":"cebpf4jnsgd1na2vs0mg"},{"bike_id":"88b4ffd6-92c2-41da-8102-4b84c85d2047","system_id":"levelo_inurba_marseille","lat":43.30144,"lon":5.38083,"is_reserved":false,"is_disabled":false,"rental_uris":{"android":"levelo://app?vid=88b4ffd6-92c2-41da-8102-4b84c85d2047","ios":"levelo://app?vid=88b4ffd6-92c2-41da-8102-4b84c85d2047"},"vehicle_type_id":"4","last_reported":1744794650,"current_range_meters":24400,"station_id":"","pricing_plan_id":"cebpf4jnsgd1na2vs0mg"},{"bike_id":"9b32d9b0-b425-4d34-812f-0c610ee31565","system_id":"levelo_inurba_marseille","lat":43.30222,"lon":5.39455,"is_reserved":false,"is_disabled":true,"rental_uris":{"android":"levelo://app?vid=9b32d9b0-b425-4d34-812f-0c610ee31565","ios":"levelo://app?vid=9b32d9b0-b425-4d34-812f-0c610ee31565"},"vehicle_type_id":"4","last_reported":1744794650,"current_range_meters":24400,"station_id":"ce4bh0p2rcd13ifvqd70","pricing_plan_id":"cebpf4jnsgd1na2vs0mg"},{"bike_id":"2871b996-1526-413f-bba0-78dccafdad22","system_id":"levelo_inurba_marseille","lat":43.2998,"lon":5.37184,"is_reserved":false,"is_disabled":false,"rental_uris":{"android":"levelo://app?vid=2871b996-1526-413f-bba0-78dccafdad22","ios":"levelo://app?vid=2871b996-1526-413f-bba0-78dccafdad22"},"vehicle_type_id":"4","last_reported":1744794650,"current_range_meters":24400,"station_id":"ce4bgr92rcd13ifvqc7g","pricing_plan_id":"cebpf4jnsgd1na2vs0mg"},{"bike_id":"0f1f7a77-09e0-4e89-93d1-8f66b799b48e","system_id":"levelo_inurba_marseille","lat":43.29279,"lon":5.36829,"is_reserved":false,"is_disabled":false,"rental_uris":{"android":"levelo://app?vid=0f1f7a77-09e0-4e89-93d1-8f66b799b48e","ios":"levelo://app?vid=0f1f7a77-09e0-4e89-93d1-8f66b799b48e"},"vehicle_type_id":"4","last_reported":1744794650,"current_range_meters":24400,"station_id":"ce4bhbp2rcd13ifvqesg","pricing_plan_id":"cebpf4jnsgd1na2vs0mg"},{"bike_id":"3b3b55a1-8472-46ff-a2c8-c4d253be9046","system_id":"levelo_inurba_marseille","lat":43.30542,"lon":5.36708,"is_reserved":false,"is_disabled":false,"rental_uris":{"android":"levelo://app?vid=3b3b55a1-8472-46ff-a2c8-c4d253be9046","ios":"levelo://app?vid=3b3b55a1-8472-46ff-a2c8-c4d253be9046"},"vehicle_type_id":"4","last_reported":1744794650,"current_range_meters":24400,"station_id":"ce4bgrp2rcd13ifvqc9g","pricing_plan_id":"cebpf4jnsgd1na2vs0mg"},{"bike_id":"789c3822-56ca-4769-bcd4-8845bdea2fda","system_id":"levelo_inurba_marseille","lat":43.2416,"lon":5.36414,"is_reserved":false,"is_disabled":false,"rental_uris":{"android":"levelo://app?vid=789c3822-56ca-4769-bcd4-8845bdea2fda","ios":"levelo://app?vid=789c3822-56ca-4769-bcd4-8845bdea2fda"},"vehicle_type_id":"4","last_reported":1744794650,"current_range_meters":24400,"station_id":"cpo36qri1sfpv3e86is0","pricing_plan_id":"cebpf4jnsgd1na2vs0mg"},{"bike_id":"c075e5f9-7973-48ad-adba-ff01af506039","system_id":"levelo_inurba_marseille","lat":43.305558,"lon":5.365567,"is_reserved":false,"is_disabled":false,"rental_uris":{"android":"levelo://app?vid=c075e5f9-7973-48ad-adba-ff01af506039","ios":"levelo://app?vid=c075e5f9-7973-48ad-adba-ff01af506039"},"vehicle_type_id":"4","last_reported":1744794650,"current_range_meters":24400,"station_id":"ce4bgs12rcd13ifvqcag","pricing_plan_id":"cebpf4jnsgd1na2vs0mg"},{"bike_id":"1efc9367-b53c-442a-8845-da1ca175712b","system_id":"levelo_inurba_marseille","lat":43.24391,"lon":5.37083,"is_reserved":false,"is_disabled":true,"rental_uris":{"android":"levelo://app?vid=1efc9367-b53c-442a-8845-da1ca175712b","ios":"levelo://app?vid=1efc9367-b53c-442a-8845-da1ca175712b"},"vehicle_type_id":"4","last_reported":1744794650,"current_range_meters":24400,"station_id":"ce4bhhh2rcd13ifvqfk0","pricing_plan_id":"cebpf4jnsgd1na2vs0mg"},{"bike_id":"1cce2708-47f0-41b8-b43e-4f146f0bba8f","system_id":"levelo_inurba_marseille","lat":43.29523,"lon":5.39404,"is_reserved":false,"is_disabled":false,"rental_uris":{"android":"levelo://app?vid=1cce2708-47f0-41b8-b43e-4f146f0bba8f","ios":"levelo://app?vid=1cce2708-47f0-41b8-b43e-4f146f0bba8f"},"vehicle_type_id":"4","last_reported":1744794650,"current_range_meters":24400,"station_id":"ce4bh292rcd13ifvqdf0","pricing_plan_id":"cebpf4jnsgd1na2vs0mg"},{"bike_id":"16060b9a-c898-42ee-8a6d-8898f963fe14","system_id":"levelo_inurba_marseille","lat":43.3361,"lon":5.40995,"is_reserved":false,"is_disabled":false,"rental_uris":{"android":"levelo://app?vid=16060b9a-c898-42ee-8a6d-8898f963fe14","ios":"levelo://app?vid=16060b9a-c898-42ee-8a6d-8898f963fe14"},"vehicle_type_id":"4","last_reported":1744794650,"current_range_meters":24400,"station_id":"ce4bhqh2rcd13ifvqhmg","pricing_plan_id":"cebpf4jnsgd1na2vs0mg"},{"bike_id":"4c27a0ed-b645-44a5-b4f2-e85eeb89e041","system_id":"levelo_inurba_marseille","lat":43.27571,"lon":5.38406,"is_reserved":false,"is_disabled":false,"rental_uris":{"android":"levelo://app?vid=4c27a0ed-b645-44a5-b4f2-e85eeb89e041","ios":"levelo://app?vid=4c27a0ed-b645-44a5-b4f2-e85eeb89e041"},"vehicle_type_id":"4","last_reported":1744794650,"current_range_meters":24400,"station_id":"ce4bhh92rcd13ifvqfi0","pricing_plan_id":"cebpf4jnsgd1na2vs0mg"},{"bike_id":"5891fd25-d739-4bd6-b5ae-59f77398faaf","system_id":"levelo_inurba_marseille","lat":43.30544,"lon":5.36531,"is_reserved":false,"is_disabled":false,"rental_uris":{"android":"levelo://app?vid=5891fd25-d739-4bd6-b5ae-59f77398faaf","ios":"levelo://app?vid=5891fd25-d739-4bd6-b5ae-59f77398faaf"},"vehicle_type_id":"4","last_reported":1744794650,"current_range_meters":24400,"station_id":"ce4bgs12rcd13ifvqcag","pricing_plan_id":"cebpf4jnsgd1na2vs0mg"},{"bike_id":"bc140d56-5426-4329-8de2-925ded4c3ae5","system_id":"levelo_inurba_marseille","lat":43.30558,"lon":5.36687,"is_reserved":false,"is_disabled":false,"rental_uris":{"android":"levelo://app?vid=bc140d56-5426-4329-8de2-925ded4c3ae5","ios":"levelo://app?vid=bc140d56-5426-4329-8de2-925ded4c3ae5"},"vehicle_type_id":"4","last_reported":1744794650,"current_range_meters":24400,"station_id":"ce4bgrp2rcd13ifvqc9g","pricing_plan_id":"cebpf4jnsgd1na2vs0mg"},{"bike_id":"97f3e45c-1ebe-4b9d-97b9-7baa223f6f2e","system_id":"levelo_inurba_marseille","lat":43.26962,"lon":5.38624,"is_reserved":false,"is_disabled":false,"rental_uris":{"android":"levelo://app?vid=97f3e45c-1ebe-4b9d-97b9-7baa223f6f2e","ios":"levelo://app?vid=97f3e45c-1ebe-4b9d-97b9-7baa223f6f2e"},"vehicle_type_id":"4","last_reported":1744794650,"current_range_meters":24400,"station_id":"ce4bhh92rcd13ifvqfh0","pricing_plan_id":"cebpf4jnsgd1na2vs0mg"},{"bike_id":"1dc86cf3-7bd1-4566-ba30-ac0f292a93cb","system_id":"levelo_inurba_marseille","lat":43.30322,"lon":5.36911,"is_reserved":false,"is_disabled":false,"rental_uris":{"android":"levelo://app?vid=1dc86cf3-7bd1-4566-ba30-ac0f292a93cb","ios":"levelo://app?vid=1dc86cf3-7bd1-4566-ba30-ac0f292a93cb"},"vehicle_type_id":"4","last_reported":1744794650,"current_range_meters":24400,"station_id":"ce4bgqh2rcd13ifvqc5g","pricing_plan_id":"cebpf4jnsgd1na2vs0mg"},