{"last_updated":1735308459,"ttl":60,"version":"2.2","data":{"bikes":[{"bike_id":"d041f2f2-9068-4e64-b5bd-8f32d02eb035","system_id":"levelo_inurba_marseille","lat":43.29556,"lon":5.36749,"is_reserved":false,"is_disabled":false,"rental_uris":{"android":"levelo://app?vid=d041f2f2-9068-4e64-b5bd-8f32d02eb035","ios":"levelo://app?vid=d041f2f2-9068-4e64-b5bd-8f32d02eb035"},"vehicle_type_id":"4","last_reported":1735308459,"current_range_meters":39200,"station_id":"ce4bgph2rcd13ifvqc2g","pricing_plan_id":"cebpf4jnsgd1na2vs0mg"},{"bike_id":"f52c2897-0e1e-4374-ae77-9ce773cee8d5","system_id":"levelo_inurba_marseille","lat":43.27901,"lon":5.38001,"is_reserved":false,"is_disabled":false,"rental_uris":{"android":"levelo://app?vid=f52c2897-0e1e-4374-ae77-9ce773cee8d5","ios":"levelo://app?vid=f52c2897-0e1e-4374-ae77-9ce773cee8d5"},"vehicle_type_id":"4","last_reported":1735308459,"current_range_meters":33600,"station_id":"ce4bhf92rcd13ifvqf50","pricing_plan_id":"cebpf4jnsgd1na2vs0mg"},{"bike_id":"015f3506-0edf-4591-879e-490275f7a7d2","system_id":"levelo_inurba_marseille","lat":43.23963,"lon":5.36634,"is_reserved":false,"is_disabled":false,"rental_uris":{"android":"levelo://app?vid=015f3506-0edf-4591-879e-490275f7a7d2","ios":"levelo://app?vid=015f3506-0edf-4591-879e-490275f7a7d2"},"vehicle_type_id":"4","last_reported":1735308459,"current_range_meters":24800,"station_id":"ce4bhi12rcd13ifvqfp0","pricing_plan_id":"cebpf4jnsgd1na2vs0mg"},{"bike_id":"43018bbb-f5df-4f0b-b23d-13d1a6852495","system_id":"levelo_inurba_marseille","lat":43.28929,"lon":5.36639,"is_reserved":false,"is_disabled":false,"rental_uris":{"android":"levelo://app?vid=43018bbb-f5df-4f0b-b23d-13d1a6852495","ios":"levelo://app?vid=43018bbb-f5df-4f0b-b23d-13d1a6852495"},"vehicle_type_id":"4","last_reported":1735308459,"current_range_meters":30000,"station_id":"ce4bhap2rcd13ifvqek0","pricing_plan_id":"cebpf4jnsgd1na2vs0mg"},{"bike_id":"2b592331-6e0f-4410-af9b-ae9a7c72d5e1","system_id":"levelo_inurba_marseille","lat":43.29796,"lon":5.38097,"is_reserved":false,"is_disabled":false,"rental_uris":{"android":"levelo://app?vid=2b592331-6e0f-4410-af9b-ae9a7c72d5e1","ios":"levelo://app?vid=2b592331-6e0f-4410-af9b-ae9a7c72d5e1"},"vehicle_type_id":"4","last_reported":1735308459,"current_range_meters":33600,"station_id":"ce4bgip2rcd13ifvqbb0","pricing_plan_id":"cebpf4jnsgd1na2vs0mg"},{"bike_id":"38923ff1-46a7-415e-8199-0d7888bfa74a","system_id":"levelo_inurba_marseille","lat":43.31224,"lon":5.36859,"is_reserved":false,"is_disabled":false,"rental_uris":{"android":"levelo://app?vid=38923ff1-46a7-415e-8199-0d7888bfa74a","ios":"levelo://app?vid=38923ff1-46a7-415e-8199-0d7888bfa74a"},"vehicle_type_id":"4","last_reported":1735308459,"current_range_meters":34000,"station_id":"ce4bgl92rcd13ifvqbq0","pricing_plan_id":"cebpf4jnsgd1na2vs0mg"},{"bike_id":"3991aac2-ec7f-43c8-801f-23e11845f2d6","system_id":"levelo_inurba_marseille","lat":43.28154,"lon":5.42648,"is_reserved":false,"is_disabled":false,"rental_uris":{"android":"levelo://app?vid=3991aac2-ec7f-43c8-801f-23e11845f2d6","ios":"levelo://app?vid=3991aac2-ec7f-43c8-801f-23e11845f2d6"},"vehicle_type_id":"4","last_reported":1735308459,"current_range_meters":38800,"station_id":"ce4bhnh2rcd13ifvqgug","pricing_plan_id":"cebpf4jnsgd1na2vs0mg"},{"bike_id":"2a01c622-b952-4335-9e5f-f58ef59f7d5d","system_id":"levelo_inurba_marseille","lat":43.30307,"lon":5.40454,"is_reserved":false,"is_disabled":false,"rental_uris":{"android":"levelo://app?vid=2a01c622-b952-4335-9e5f-f58ef59f7d5d","ios":"levelo://app?vid=2a01c622-b952-4335-9e5f-f58ef59f7d5d"},"vehicle_type_id":"4","last_reported":1735308459,"current_range_meters":38800,"station_id":"ce4bh012rcd13ifvqd10","pricing_plan_id":"cebpf4jnsgd1na2vs0mg"},{"bike_id":"aa910906-3ca2-4107-80e1-4fe46d1472a6","system_id":"levelo_inurba_marseille","lat":43.32025,"lon":5.41574,"is_reserved":false,"is_disabled":false,"rental_uris":{"android":"levelo://app?vid=aa910906-3ca2-4107-80e1-4fe46d1472a6","ios":"levelo://app?vid=aa910906-3ca2-4107-80e1-4fe46d1472a6"},"vehicle_type_id":"4","last_reported":1735308459,"current_range_meters":35200,"station_id":"ce4bhq92rcd13ifvqhkg","pricing_plan_id":"cebpf4jnsgd1na2vs0mg"},{"bike_id":"6ce1c022-acc8-490f-a6d1-40494c9ad385","system_id":"levelo_inurba_marseille","lat":43.25721,"lon":5.411,"is_reserved":false,"is_disabled":false,"rental_uris":{"android":"levelo://app?vid=6ce1c022-acc8-490f-a6d1-40494c9ad385","ios":"levelo://app?vid=6ce1c022-acc8-490f-a6d1-40494c9ad385"},"vehicle_type_id":"4","last_reported":1735308459,"current_range_meters":35600,"station_id":"ce4bhkp2rcd13ifvqgd0","pricing_plan_id":"cebpf4jnsgd1na2vs0mg"},{"bike_id":"cb35f7d8-c204-4a7f-801e-8a8f1f547ed7","system_id":"levelo_inurba_marseille","lat":43.2721,"lon":5.39185,"is_reserved":false,"is_disabled":false,"rental_uris":{"android":"levelo://app?vid=cb35f7d8-c204-4a7f-801e-8a8f1f547ed7","ios":"levelo://app?vid=cb35f7d8-c204-4a7f-801e-8a8f1f547ed7"},"vehicle_type_id":"4","last_reported":1735308459,"current_range_meters":38800,"station_id":"ce4bhhp2rcd13ifvqfm0","pricing_plan_id":"cebpf4jnsgd1na2vs0mg"},{"bike_id":"0feeddb6-fb6a-45bd-9ffe-d6c53999b4b5","system_id":"levelo_inurba_marseille","lat":43.30565,"lon":5.36534,"is_reserved":false,"is_disabled":false,"rental_uris":{"android":"levelo://app?vid=0feeddb6-fb6a-45bd-9ffe-d6c53999b4b5","ios":"levelo://app?vid=0feeddb6-fb6a-45bd-9ffe-d6c53999b4b5"},"vehicle_type_id":"4","last_reported":1735308459,"current_range_meters":16000,"station_id":"ce4bgs12rcd13ifvqcag","pricing_plan_id":"cebpf4jnsgd1na2vs0mg"},{"bike_id":"4b0fd93f-ab44-4d17-9609-4abb396d054c","system_id":"levelo_inurba_marseille","lat":43.23193,"lon":5.35553,"is_reserved":false,"is_disabled":false,"rental_uris":{"android":"levelo://app?vid=4b0fd93f-ab44-4d17-9609-4abb396d054c","ios":"levelo://app?vid=4b0fd93f-ab44-4d17-9609-4abb396d054c"},"vehicle_type_id":"4","last_reported":1735308459,"current_range_meters":38800,"station_id":"ce4bhu92rcd13ifvqi70","pricing_plan_id":"cebpf4jnsgd1na2vs0mg"},{"bike_id":"0d1a290a-5fe1-4374-9cc0-659193d3d110","system_id":"levelo_inurba_marseille","lat":43.27349,"lon":5.39107,"is_reserved":false,"is_disabled":false,"rental_uris":{"android":"levelo://app?vid=0d1a290a-5fe1-4374-9cc0-659193d3d110","ios":"levelo://app?vid=0d1a290a-5fe1-4374-9cc0-659193d3d110"},"vehicle_type_id":"4","last_reported":1735308459,"current_range_meters":20400,"station_id":"ce4bhgp2rcd13ifvqfe0","pricing_plan_id":"cebpf4jnsgd1na2vs0mg"},{"bike_id":"7f3a2316-532f-486c-a85d-e9c4ad8acc74","system_id":"levelo_inurba_marseille","lat":43.26053,"lon":5.39403,"is_reserved":false,"is_disabled":false,"rental_uris":{"android":"levelo://app?vid=7f3a2316-532f-486c-a85d-e9c4ad8acc74","ios":"levelo://app?vid=7f3a2316-532f-486c-a85d-e9c4ad8acc74"},"vehicle_type_id":"4","last_reported":1735308459,"current_range_meters":28000,"station_id":"ce4bhh92rcd13ifvqfj0","pricing_plan_id":"cebpf4jnsgd1na2vs0mg"},{"bike_id":"c4291b18-841c-47d1-b17c-99016ab7f166","system_id":"levelo_inurba_marseille","lat":43.28276,"lon":5.35079,"is_reserved":false,"is_disabled":false,"rental_uris":{"android":"levelo://app?vid=c4291b18-841c-47d1-b17c-99016ab7f166","ios":"levelo://app?vid=c4291b18-841c-47d1-b17c-99016ab7f166"},"vehicle_type_id":"4","last_reported":1735308459,"current_range_meters":20800,"station_id":"ce4bhbp2rcd13ifvqerg","pricing_plan_id":"cebpf4jnsgd1na2vs0mg"},{"bike_id":"3fcb2f6f-39f4-445d-a829-8626c3812c7e","system_id":"levelo_inurba_marseille","lat":43.27675,"lon":5.38889,"is_reserved":false,"is_disabled":false,"rental_uris":{"android":"levelo://app?vid=3fcb2f6f-39f4-445d-a829-8626c3812c7e","ios":"levelo://app?vid=3fcb2f6f-39f4-445d-a829-8626c3812c7e"},"vehicle_type_id":"4","last_reported":1735308459,"current_range_meters":26000,"station_id":"ce4bhi12rcd13ifvqfo0","pricing_plan_id":"cebpf4jnsgd1na2vs0mg"},{"bike_id":"54e82adf-653a-40bc-8212-b0e67d34d16f","system_id":"levelo_inurba_marseille","lat":43.29919,"lon":5.36538,"is_reserved":false,"is_disabled":false,"rental_uris":{"android":"levelo://app?vid=54e82adf-653a-40bc-8212-b0e67d34d16f","ios":"levelo://app?vid=54e82adf-653a-40bc-8212-b0e67d34d16f"},"vehicle_type_id":"4","last_reported":1735308459,"current_range_meters":38800,"station_id":"ce4bgm92rcd13ifvqbr0","pricing_plan_id":"cebpf4jnsgd1na2vs0mg"},{"bike_id":"857344dd-6be1-4d34-90e7-6f62afbbef2e","system_id":"levelo_inurba_marseille","lat":43.32104,"lon":5.3678,"is_reserved":false,"is_disabled":false,"rental_uris":{"android":"levelo://app?vid=857344dd-6be1-4d34-90e7-6f62afbbef2e","ios":"levelo://app?vid=857344dd-6be1-4d34-90e7-6f62afbbef2e"},"vehicle_type_id":"4","last_reported":1735308459,"current_range_meters":36800,"station_id":"ce4bhrh2rcd13ifvqhug","pricing_plan_id":"cebpf4jnsgd1na2vs0mg"},{"bike_id":"65ad3fd7-5368-4b88-91dc-4258b32e99a5","system_id":"levelo_inurba_marseille","lat":43.28822,"lon":5.39314,"is_reserved":false,"is_disabled":false,"rental_uris":{"android":"levelo://app?vid=65ad3fd7-5368-4b88-91dc-4258b32e99a5","ios":"levelo://app?vid=65ad3fd7-5368-4b88-91dc-4258b32e99a5"},"vehicle_type_id":"4","last_reported":1735308459,"current_range_meters":30400,"station_id":"ce4bh2p2rcd13ifvqdi0","pricing_plan_id":"cebpf4jnsgd1na2vs0mg"},{"bike_id":"cd4c556a-1ca0-4785-843f-9e0bb52ee97e","system_id":"levelo_inurba_marseille","lat":43.29619,"lon":5.37711,"is_reserved":false,"is_disabled":false,"rental_uris":{"android":"levelo://app?vid=cd4c556a-1ca0-4785-843f-9e0bb52ee97e","ios":"levelo://app?vid=cd4c556a-1ca0-4785-843f-9e0bb52ee97e"},"vehicle_type_id":"4","last_reported":1735308459,"current_range_meters":13600,"station_id":"ce4bgi92rcd13ifvqb90","pricing_plan_id":"cebpf4jnsgd1na2vs0mg"},{"bike_id":"721c1c7f-f5c5-437c-8a8d-3564f4f522ad","system_id":"levelo_inurba_marseille","lat":43.30432,"lon":5.39752,"is_reserved":false,"is_disabled":false,"rental_uris":{"android":"levelo://app?vid=721c1c7f-f5c5-437c-8a8d-3564f4f522ad","ios":"levelo://app?vid=721c1c7f-f5c5-437c-8a8d-3564f4f522ad"},"vehicle_type_id":"4","last_reported":1735308459,"current_range_meters":33600,"station_id":"ce4bh092rcd13ifvqd20","pricing_plan_id":"cebpf4jnsgd1na2vs0mg"},{"bike_id":"4bd7f16b-a13a-408c-8f0b-645b687ee475","system_id":"levelo_inurba_marseille","lat":43.24081,"lon":5.37756,"is_reserved":false,"is_disabled":false,"rental_uris":{"android":"levelo://app?vid=4bd7f16b-a13a-408c-8f0b-645b687ee475","ios":"levelo://app?vid=4bd7f16b-a13a-408c-8f0b-645b687ee475"},"vehicle_type_id":"4","last_reported":1735308459,"current_range_meters":36800,"station_id":"ce4bhnp2rcd13ifvqgvg","pricing_plan_id":"cebpf4jnsgd1na2vs0mg"},{"bike_id":"4da183fc-e7a3-44f1-8e7a-d3a6ce860538","system_id":"levelo_inurba_marseille","lat":43.27206,"lon":5.39185,"is_reserved":false,"is_disabled":false,"rental_uris":{"android":"levelo://app?vid=4da183fc-e7a3-44f1-8e7a-d3a6ce860538","ios":"levelo://app?vid=4da183fc-e7a3-44f1-8e7a-d3a6ce860538"},"vehicle_type_id":"4","last_reported":1735308459,"current_range_meters":4400,"station_id":"ce4bhhp2rcd13ifvqfm0","pricing_plan_id":"cebpf4jnsgd1na2vs0mg"},{"bike_id":"ad66ce9d-e2b2-4064-ae7f-fe87403c632b","system_id":"levelo_inurba_marseille","lat":43.23067,"lon":5.35489,"is_reserved":false,"is_disabled":false,"rental_uris":{"android":"levelo://app?vid=ad66ce9d-e2b2-4064-ae7f-fe87403c632b","ios":"levelo://app?vid=ad66ce9d-e2b2-4064-ae7f-fe87403c632b"},"vehicle_type_id":"4","last_reported":1735308459,"current_range_meters":25200,"station_id":"cpo3342slgdg3j2ifvpg","pricing_plan_id":"cebpf4jnsgd1na2vs0mg"},{"bike_id":"5eb4bfac-fe1c-4677-8ebb-817dcd999dff","system_id":"levelo_inurba_marseille","lat":43.28611,"lon":5.35092,"is_reserved":false,"is_disabled":false,"rental_uris":{"android":"levelo://app?vid=5eb4bfac-fe1c-4677-8ebb-817dcd999dff","ios":"levelo://app?vid=5eb4bfac-fe1c-4677-8ebb-817dcd999dff"},"vehicle_type_id":"4","last_reported":1735308459,"current_range_meters":36400,"station_id":"ce4bhch2rcd13ifvqeug","pricing_plan_id":"cebpf4jnsgd1na2vs0mg"},{"bike_id":"56b6b8fe-7ba0-44c1-9ed1-0f7ea82c8919","system_id":"levelo_inurba_marseille","lat":43.295787,"lon":5.375006,"is_reserved":false,"is_disabled":false,"rental_uris":{"android":"levelo://app?vid=56b6b8fe-7ba0-44c1-9ed1-0f7ea82c8919","ios":"levelo://app?vid=56b6b8fe-7ba0-44c1-9ed1-0f7ea82c8919"},"vehicle_type_id":"4","last_reported":1735308459,"current_range_meters":38800,"station_id":"ce4bgh92rcd13ifvqb50","pricing_plan_id":"cebpf4jnsgd1na2vs0mg"},{"bike_id":"ced76378-03ce-491e-8851-299c9e2a0e28","system_id":"levelo_inurba_marseille","lat":43.27209,"lon":5.39187,"is_reserved":false,"is_disabled":false,"rental_uris":{"android":"levelo://app?vid=ced76378-03ce-491e-8851-299c9e2a0e28","ios":"levelo://app?vid=ced76378-03ce-491e-8851-299c9e2a0e28"},"vehicle_type_id":"4","last_reported":1735308459,"current_range_meters":38800,"station_id":"ce4bhhp2rcd13ifvqfm0","pricing_plan_id":"cebpf4jnsgd1na2vs0mg"},{"bike_id":"01a5ff22-84d7-4c4a-8c16-3a738f5156aa","system_id":"levelo_inurba_marseille","lat":43.30532,"lon":5.3653,"is_reserved":false,"is_disabled":false,"rental_uris":{"android":"levelo://app?vid=01a5ff22-84d7-4c4a-8c16-3a738f5156aa","ios":"levelo://app?vid=01a5ff22-84d7-4c4a-8c16-3a738f5156aa"},"vehicle_type_id":"4","last_reported":1735308459,"current_range_meters":38800,"station_id":"ce4bgs12rcd13ifvqcag","pricing_plan_id":"cebpf4jnsgd1na2vs0mg"},{"bike_id":"d0533ccb-11ce-46dc-9cca-daa9f7a4985a","system_id":"levelo_inurba_marseille","lat":43.29549,"lon":5.42288,"is_reserved":false,"is_disabled":false,"rental_uris":{"android":"levelo://app?vid=d0533ccb-11ce-46dc-9cca-daa9f7a4985a","ios":"levelo://app?vid=d0533ccb-11ce-46dc-9cca-daa9f7a4985a"},"vehicle_type_id":"4","last_reported":1735308459,"current_range_meters":38800,"station_id":"ce4bhph2rcd13ifvqhdg","pricing_plan_id":"cebpf4jnsgd1na2vs0mg"},{"bike_id":"e83cd2d5-2fe6-4392-98e0-662f8e196681","system_id":"levelo_inurba_marseille","lat":43.262,"lon":5.37935,"is_reserved":false,"is_disabled":false,"rental_uris":{"android":"levelo://app?vid=e83cd2d5-2fe6-4392-98e0-662f8e196681","ios":"levelo://app?vid=e83cd2d5-2fe6-4392-98e0-662f8e196681"},"vehicle_type_id":"4","last_reported":1735308459,"current_range_meters":38000,"station_id":"ce4bhjp2rcd13ifvqg90","pricing_plan_id":"cebpf4jnsgd1na2vs0mg"},{"bike_id":"9df6a86e-973a-4959-9331-7febd711fb7d","system_id":"levelo_inurba_marseille","lat":43.28947,"lon":5.36646,"is_reserved":false,"is_disabled":false,"rental_uris":{"android":"levelo://app?vid=9df6a86e-973a-4959-9331-7febd711fb7d","ios":"levelo://app?vid=9df6a86e-973a-4959-9331-7febd711fb7d"},"vehicle_type_id":"4","last_reported":1735308459,"current_range_meters":27600,"station_id":"ce4bhap2rcd13ifvqek0","pricing_plan_id":"cebpf4jnsgd1na2vs0mg"},{"bike_id":"e45580eb-1aaf-4177-b0a8-caf2bc449fd3","system_id":"levelo_inurba_marseille","lat":43.29965,"lon":5.37198,"is_reserved":false,"is_disabled":false,"rental_uris":{"android":"levelo://app?vid=e45580eb-1aaf-4177-b0a8-caf2bc449fd3","ios":"levelo://app?vid=e45580eb-1aaf-4177-b0a8-caf2bc449fd3"},"vehicle_type_id":"4","last_reported":1735308459,"current_range_meters":38800,"station_id":"ce4bgr92rcd13ifvqc7g","pricing_plan_id":"cebpf4jnsgd1na2vs0mg"},{"bike_id":"b32fb18a-c8a8-4404-98aa-9a585746a89d","system_id":"levelo_inurba_marseille","lat":43.31777,"lon":5.40583,"is_reserved":false,"is_disabled":false,"rental_uris":{"android":"levelo://app?vid=b32fb18a-c8a8-4404-98aa-9a585746a89d","ios":"levelo://app?vid=b32fb18a-c8a8-4404-98aa-9a585746a89d"},"vehicle_type_id":"4","last_reported":1735308459,"current_range_meters":28400,"station_id":"","pricing_plan_id":"cebpf4jnsgd1na2vs0mg"},{"bike_id":"fb65f68e-01b9-464f-abae-a60e8b871ed3","system_id":"levelo_inurba_marseille","lat":43.27917,"lon":5.395888,"is_reserved":false,"is_disabled":false,"rental_uris":{"android":"levelo://app?vid=fb65f68e-01b9-464f-abae-a60e8b871ed3","ios":"levelo://app?vid=fb65f68e-01b9-464f-abae-a60e8b871ed3"},"vehicle_type_id":"4","last_reported":1735308459,"current_range_meters":27600,"station_id":"ce4bhf92rcd13ifvqf40","pricing_plan_id":"cebpf4jnsgd1na2vs0mg"},{"bike_id":"6dce4481-54c2-4c2f-84d4-7dceb5b23b22","system_id":"levelo_inurba_marseille","lat":43.26781,"lon":5.39413,"is_reserved":false,"is_disabled":false,"rental_uris":{"android":"levelo://app?vid=6dce4481-54c2-4c2f-84d4-7dceb5b23b22","ios":"levelo://app?vid=6dce4481-54c2-4c2f-84d4-7dceb5b23b22"},"vehicle_type_id":"4","last_reported":1735308459,"current_range_meters":36800,"station_id":"ce4bhh12rcd13ifvqfg0","pricing_plan_id":"cebpf4jnsgd1na2vs0mg"},{"bike_id":"8945d0ae-de7c-47f8-bcb0-1536c9716097","system_id":"levelo_inurba_marseille","lat":43.29521,"lon":5.39029,"is_reserved":false,"is_disabled":true,"rental_uris":{"android":"levelo://app?vid=8945d0ae-de7c-47f8-bcb0-1536c9716097","ios":"levelo://app?vid=8945d0ae-de7c-47f8-bcb0-1536c9716097"},"vehicle_type_id":"4","last_reported":1735308459,"current_range_meters":36400,"station_id":"ce4bh3p2rcd13ifvqdp0","pricing_plan_id":"cebpf4jnsgd1na2vs0mg"},{"bike_id":"417a3b93-35ae-43df-b252-fc6e1dccb29d","system_id":"levelo_inurba_marseille","lat":43.30142,"lon":5.39868,"is_reserved":false,"is_disabled":false,"rental_uris":{"android":"levelo://app?vid=417a3b93-35ae-43df-b252-fc6e1dccb29d","ios":"levelo://app?vid=417a3b93-35ae-43df-b252-fc6e1dccb29d"},"vehicle_type_id":"4","last_reported":1735308459,"current_range_meters":38800,"station_id":"ce4bh0h2rcd13ifvqd40","pricing_plan_id":"cebpf4jnsgd1na2vs0mg"},{"bike_id":"71d370eb-36d3-4b16-a166-aa4873ad2504","system_id":"levelo_inurba_marseille","lat":43.27314,"lon":5.39079,"is_reserved":false,"is_disabled":false,"rental_uris":{"android":"levelo://app?vid=71d370eb-36d3-4b16-a166-aa4873ad2504","ios":"levelo://app?vid=71d370eb-36d3-4b16-a166-aa4873ad2504"},"vehicle_type_id":"4","last_reported":1735308459,"current_range_meters":6400,"station_id":"ce4bhgp2rcd13ifvqfe0","pricing_plan_id":"cebpf4jnsgd1na2vs0mg"},{"bike_id":"2b08ca99-c6f3-4395-ab2d-aeebc3305aa4","system_id":"levelo_inurba_marseille","lat":43.3376,"lon":5.37445,"is_reserved":false,"is_disabled":false,"rental_uris":{"android":"levelo://app?vid=2b08ca99-c6f3-4395-ab2d-aeebc3305aa4","ios":"levelo://app?vid=2b08ca99-c6f3-4395-ab2d-aeebc3305aa4"},"vehicle_type_id":"4","last_reported":1735308459,"current_range_meters":38400,"station_id":"","pricing_plan_id":"cebpf4jnsgd1na2vs0mg"},{"bike_id":"23e25e04-dd29-4836-8ab5-f117edae0dca","system_id":"levelo_inurba_marseille","lat":43.30132,"lon":5.37407,"is_reserved":false,"is_disabled":false,"rental_uris":{"android":"levelo://app?vid=23e25e04-dd29-4836-8ab5-f117edae0dca","ios":"levelo://app?vid=23e25e04-dd29-4836-8ab5-f117edae0dca"},"vehicle_type_id":"4","last_reported":1735308459,"current_range_meters":38800,"station_id":"ce4bgs92rcd13ifvqcc0","pricing_plan_id":"cebpf4jnsgd1na2vs0mg"},{"bike_id":"b127a35d-b7ce-4f77-8d9a-e00b19875b1d","system_id":"levelo_inurba_marseille","lat":43.29528,"lon":5.37496,"is_reserved":false,"is_disabled":false,"rental_uris":{"android":"levelo://app?vid=b127a35d-b7ce-4f77-8d9a-e00b19875b1d","ios":"levelo://app?vid=b127a35d-b7ce-4f77-8d9a-e00b19875b1d"},"vehicle_type_id":"4","last_reported":1735308459,"current_range_meters":27600,"station_id":"ce4bgkp2rcd13ifvqbmg","pricing_plan_id":"cebpf4jnsgd1na2vs0mg"},{"bike_id":"33e4c278-497a-4992-9269-3f4bd7a2ca60","system_id":"levelo_inurba_marseille","lat":43.29922,"lon":5.37472,"is_reserved":false,"is_disabled":false,"rental_uris":{"android":"levelo://app?vid=33e4c278-497a-4992-9269-3f4bd7a2ca60","ios":"levelo://app?vid=33e4c278-497a-4992-9269-3f4bd7a2ca60"},"vehicle_type_id":"4","last_reported":1735308459,"current_range_meters":38800,"station_id":"ce4bgjh2rcd13ifvqbg0","pricing_plan_id":"cebpf4jnsgd1na2vs0mg"},{"bike_id":"4e1b440e-dc87-47f0-92e1-32a898eeb09a","system_id":"levelo_inurba_marseille","lat":43.32037,"lon":5.41572,"is_reserved":false,"is_disabled":false,"rental_uris":{"android":"levelo://app?vid=4e1b440e-dc87-47f0-92e1-32a898eeb09a","ios":"levelo://app?vid=4e1b440e-dc87-47f0-92e1-32a898eeb09a"},"vehicle_type_id":"4","last_reported":1735308459,"current_range_meters":8400,"station_id":"ce4bhq92rcd13ifvqhkg","pricing_plan_id":"cebpf4jnsgd1na2vs0mg"},{"bike_id":"3c05e8da-d803-4ee1-9e38-b3f9d89e9be8","system_id":"levelo_inurba_marseille","lat":43.22935,"lon":5.35386,"is_reserved":false,"is_disabled":false,"rental_uris":{"android":"levelo://app?vid=3c05e8da-d803-4ee1-9e38-b3f9d89e9be8","ios":"levelo://app?vid=3c05e8da-d803-4ee1-9e38-b3f9d89e9be8"},"vehicle_type_id":"4","last_reported":1735308459,"current_range_meters":38000,"station_id":"cpo3532slgdg3j2ikp40","pricing_plan_id":"cebpf4jnsgd1na2vs0mg"},{"bike_id":"c0c3e5c6-edc3-41c4-8feb-85aaa21b750a","system_id":"levelo_inurba_marseille","lat":43.32047,"lon":5.41566,"is_reserved":false,"is_disabled":false,"rental_uris":{"android":"levelo://app?vid=c0c3e5c6-edc3-41c4-8feb-85aaa21b750a","ios":"levelo://app?vid=c0c3e5c6-edc3-41c4-8feb-85aaa21b750a"},"vehicle_type_id":"4","last_reported":1735308459,"current_range_meters":38800,"station_id":"ce4bhq92rcd13ifvqhkg","pricing_plan_id":"cebpf4jnsgd1na2vs0mg"},{"bike_id":"b5656570-3315-4cb5-bf48-7ff14d1a0a27","system_id":"levelo_inurba_marseille","lat":43.29562,"lon":5.37495,"is_reserved":false,"is_disabled":false,"rental_uris":{"android":"levelo://app?vid=b5656570-3315-4cb5-bf48-7ff14d1a0a27","ios":"levelo://app?vid=b5656570-3315-4cb5-bf48-7ff14d1a0a27"},"vehicle_type_id":"4","last_reported":1735308459,"current_range_meters":11600,"station_id":"ce4bgkp2rcd13ifvqbmg","pricing_plan_id":"cebpf4jnsgd1na2vs0mg"},{"bike_id":"18bc1f72-2985-4563-8c4b-a663b4aade98","system_id":"levelo_inurba_marseille","lat":43.28942,"lon":5.3664,"is_reserved":false,"is_disabled":false,"rental_uris":{"android":"levelo://app?vid=18bc1f72-2985-4563-8c4b-a663b4aade98","ios":"levelo://app?vid=18bc1f72-2985-4563-8c4b-a663b4aade98"},"vehicle_type_id":"4","last_reported":1735308459,"current_range_meters":6800,"station_id":"ce4bhap2rcd13ifvqek0","pricing_plan_id":"cebpf4jnsgd1na2vs0mg"},{"bike_id":"ec31cf3c-cb5a-4639-89ed-66c774666725","system_id":"levelo_inurba_marseille","lat":43.25723,"lon":5.41123,"is_reserved":false,"is_disabled":false,"rental_uris":{"android":"levelo://app?vid=ec31cf3c-cb5a-4639-89ed-66c774666725","ios":"levelo://app?vid=ec31cf3c-cb5a-4639-89ed-66c774666725"},"vehicle_type_id":"4","last_reported":1735308459,"current_range_meters":26800,"station_id":"ce4bhkp2rcd13ifvqgd0","pricing_plan_id":"cebpf4jnsgd1na2vs0mg"},{"bike_id":"5170d391-870d-4447-ba4d-77827ede61ee","system_id":"levelo_inurba_marseille","lat":43.26795,"lon":5.39412,"is_reserved":false,"is_disabled":false,"rental_uris":{"android":"levelo://app?vid=5170d391-870d-4447-ba4d-77827ede61ee","ios":"levelo://app?vid=5170d391-870d-4447-ba4d-77827ede61ee"},"vehicle_type_id":"4","last_reported":1735308459,"current_range_meters":25600,"station_id":"ce4bhh12rcd13ifvqfg0","pricing_plan_id":"cebpf4jnsgd1na2vs0mg"},{"bike_id":"e49de1cd-0acd-4a78-8121-d4a34beac4ee","system_id":"levelo_inurba_marseille","lat":43.29267,"lon":5.38449,"is_reserved":false,"is_disabled":false,"rental_uris":{"android":"levelo://app?vid=e49de1cd-0acd-4a78-8121-d4a34beac4ee","ios":"levelo://app?vid=e49de1cd-0acd-4a78-8121-d4a34beac4ee"},"vehicle_type_id":"4","last_reported":1735308459,"current_range_meters":35200,"station_id":"ce4bh692rcd13ifvqea0","pricing_plan_id":"cebpf4jnsgd1na2vs0mg"},{"bike_id":"6f19e641-3614-4dc2-a405-a53b8ca1667d","system_id":"levelo_inurba_marseille","lat":43.299901,"lon":5.384823,"is_reserved":false,"is_disabled":false,"rental_uris":{"android":"levelo://app?vid=6f19e641-3614-4dc2-a405-a53b8ca1667d","ios":"levelo://app?vid=6f19e641-3614-4dc2-a405-a53b8ca1667d"},"vehicle_type_id":"4","last_reported":1735308459,"current_range_meters":14000,"station_id":"ce4bgj92rcd13ifvqbd0","pricing_plan_id":"cebpf4jnsgd1na2vs0mg"},{"bike_id":"51380689-00d9-4638-9e8c-ba05d22870af","system_id":"levelo_inurba_marseille","lat":43.30136,"lon":5.39866,"is_reserved":false,"is_disabled":false,"rental_uris":{"android":"levelo://app?vid=51380689-00d9-4638-9e8c-ba05d22870af","ios":"levelo://app?vid=51380689-00d9-4638-9e8c-ba05d22870af"},"vehicle_type_id":"4","last_reported":1735308459,"current_range_meters":36000,"station_id":"ce4bh0h2rcd13ifvqd40","pricing_plan_id":"cebpf4jnsgd1na2vs0mg"},{"bike_id":"fc8f1da3-b1e2-4b23-8e38-b05bd9cb00eb","system_id":"levelo_inurba_marseille","lat":43.29681,"lon":5.37293,"is_reserved":false,"is_disabled":false,"rental_uris":{"android":"levelo://app?vid=fc8f1da3-b1e2-4b23-8e38-b05bd9cb00eb","ios":"levelo://app?vid=fc8f1da3-b1e2-4b23-8e38-b05bd9cb00eb"},"vehicle_type_id":"4","last_reported":1735308459,"current_range_meters":35600,"station_id":"ce4bgk12rcd13ifvqbj0","pricing_plan_id":"cebpf4jnsgd1na2vs0mg"},{"bike_id":"fb86dc07-2dc6-4bfa-b85e-9957685650ab","system_id":"levelo_inurba_marseille","lat":43.23059,"lon":5.35489,"is_reserved":false,"is_disabled":false,"rental_uris":{"android":"levelo://app?vid=fb86dc07-2dc6-4bfa-b85e-9957685650ab","ios":"levelo://app?vid=fb86dc07-2dc6-4bfa-b85e-9957685650ab"},"vehicle_type_id":"4","last_reported":1735308459,"current_range_meters":22800,"station_id":"cpo3342slgdg3j2ifvpg","pricing_plan_id":"cebpf4jnsgd1na2vs0mg"},{"bike_id":"780b9330-893f-4673-86df-559bb1c44589","system_id":"levelo_inurba_marseille","lat":43.30591,"lon":5.3935,"is_reserved":false,"is_disabled":false,"rental_uris":{"android":"levelo://app?vid=780b9330-893f-4673-86df-559bb1c44589","ios":"levelo://app?vid=780b9330-893f-4673-86df-559bb1c44589"},"vehicle_type_id":"4","last_reported":1735308459,"current_range_meters":25600,"station_id":"ce4bh0p2rcd13ifvqd80","pricing_plan_id":"cebpf4jnsgd1na2vs0mg"},{"bike_id":"50cc3f7f-80e4-4920-8f6f-d954c6c2e60d","system_id":"levelo_inurba_marseille","lat":43.29596,"lon":5.38099,"is_reserved":false,"is_disabled":false,"rental_uris":{"android":"levelo://app?vid=50cc3f7f-80e4-4920-8f6f-d954c6c2e60d","ios":"levelo://app?vid=50cc3f7f-80e4-4920-8f6f-d954c6c2e60d"},"vehicle_type_id":"4","last_reported":1735308459,"current_range_meters":25200,"station_id":"ce4bgl12rcd13ifvqbo0","pricing_plan_id":"cebpf4jnsgd1na2vs0mg"},{"bike_id":"471fd747-196e-479b-a3b0-2ff6d2290112","system_id":"levelo_inurba_marseille","lat":43.26568,"lon":5.37292,"is_reserved":false,"is_disabled":false,"rental_uris":{"android":"levelo://app?vid=471fd747-196e-479b-a3b0-2ff6d2290112","ios":"levelo://app?vid=471fd747-196e-479b-a3b0-2ff6d2290112"},"vehicle_type_id":"4","last_reported":1735308459,"current_range_meters":20800,"station_id":"ce4bhg12rcd13ifvqf70","pricing_plan_id":"cebpf4jnsgd1na2vs0mg"},{"bike_id":"69368558-4204-4eaa-a79c-61be1f693387","system_id":"levelo_inurba_marseille","lat":43.29796,"lon":5.40413,"is_reserved":false,"is_disabled":false,"rental_uris":{"android":"levelo://app?vid=69368558-4204-4eaa-a79c-61be1f693387","ios":"levelo://app?vid=69368558-4204-4eaa-a79c-61be1f693387"},"vehicle_type_id":"4","last_reported":1735308459,"current_range_meters":38800,"station_id":"ce4bh112rcd13ifvqd90","pricing_plan_id":"cebpf4jnsgd1na2vs0mg"},{"bike_id":"90c172aa-3547-4264-b50c-23d915ab5756","system_id":"levelo_inurba_marseille","lat":43.30594,"lon":5.39358,"is_reserved":false,"is_disabled":false,"rental_uris":{"android":"levelo://app?vid=90c172aa-3547-4264-b50c-23d915ab5756","ios":"levelo://app?vid=90c172aa-3547-4264-b50c-23d915ab5756"},"vehicle_type_id":"4","last_reported":1735308459,"current_range_meters":38800,"station_id":"ce4bh0p2rcd13ifvqd80","pricing_plan_id":"cebpf4jnsgd1na2vs0mg"},{"bike_id":"258867d5-6dcc-426b-90e6-82a3c252e630","system_id":"levelo_inurba_marseille","lat":43.29582,"lon":5.37509,"is_reserved":false,"is_disabled":false,"rental_uris":{"android":"levelo://app?vid=258867d5-6dcc-426b-90e6-82a3c252e630","ios":"levelo://app?vid=258867d5-6dcc-426b-90e6-82a3c252e630"},"vehicle_type_id":"4","last_reported":1735308459,"current_range_meters":38000,"station_id":"ce4bgh92rcd13ifvqb50","pricing_plan_id":"cebpf4jnsgd1na2vs0mg"},{"bike_id":"09898dd2-84ad-4911-a21d-d1f0823964b3","system_id":"levelo_inurba_marseille","lat":43.29583,"lon":5.37757,"is_reserved":false,"is_disabled":false,"rental_uris":{"android":"levelo://app?vid=09898dd2-84ad-4911-a21d-d1f0823964b3","ios":"levelo://app?vid=09898dd2-84ad-4911-a21d-d1f0823964b3"},"vehicle_type_id":"4","last_reported":1735308459,"current_range_meters":39200,"station_id":"ce4bgi92rcd13ifvqb90","pricing_plan_id":"cebpf4jnsgd1na2vs0mg"},{"bike_id":"60968da4-eb7b-45c8-944b-65c3601ac59f","system_id":"levelo_inurba_marseille","lat":43.29606,"lon":5.38109,"is_reserved":false,"is_disabled":false,"rental_uris":{"android":"levelo://app?vid=60968da4-eb7b-45c8-944b-65c3601ac59f","ios":"levelo://app?vid=60968da4-eb7b-45c8-944b-65c3601ac59f"},"vehicle_type_id":"4","last_reported":1735308459,"current_range_meters":22400,"station_id":"ce4bgl12rcd13ifvqbo0","pricing_plan_id":"cebpf4jnsgd1na2vs0mg"},{"bike_id":"40eee063-b95d-4d32-aca8-c581cf8477cf","system_id":"levelo_inurba_marseille","lat":43.25034,"lon":5.38936,"is_reserved":false,"is_disabled":false,"rental_uris":{"android":"levelo://app?vid=40eee063-b95d-4d32-aca8-c581cf8477cf","ios":"levelo://app?vid=40eee063-b95d-4d32-aca8-c581cf8477cf"},"vehicle_type_id":"4","last_reported":1735308459,"current_range_meters":28800,"station_id":"ce4bhgp2rcd13ifvqfd0","pricing_plan_id":"cebpf4jnsgd1na2vs0mg"},{"bike_id":"1fdfecd6-5b6b-494f-b907-724fe04b1d45","system_id":"levelo_inurba_marseille","lat":43.30794,"lon":5.37649,"is_reserved":false,"is_disabled":false,"rental_uris":{"android":"levelo://app?vid=1fdfecd6-5b6b-494f-b907-724fe04b1d45","ios":"levelo://app?vid=1fdfecd6-5b6b-494f-b907-724fe04b1d45"},"vehicle_type_id":"4","last_reported":1735308459,"current_range_meters":39200,"station_id":"ce4bgv92rcd13ifvqcq0","pricing_plan_id":"cebpf4jnsgd1na2vs0mg"},{"bike_id":"671c95d0-2645-41c7-b503-82c8d7a3ee35","system_id":"levelo_inurba_marseille","lat":43.3043,"lon":5.38896,"is_reserved":false,"is_disabled":false,"rental_uris":{"android":"levelo://app?vid=671c95d0-2645-41c7-b503-82c8d7a3ee35","ios":"levelo://app?vid=671c95d0-2645-41c7-b503-82c8d7a3ee35"},"vehicle_type_id":"4","last_reported":1735308459,"current_range_meters":38800,"station_id":"ce4bgk12rcd13ifvqbi0","pricing_plan_id":"cebpf4jnsgd1na2vs0mg"},{"bike_id":"02d9720a-6116-424c-96d4-8178e4f37ecf","system_id":"levelo_inurba_marseille","lat":43.29627,"lon":5.37161,"is_reserved":false,"is_disabled":false,"rental_uris":{"android":"levelo://app?vid=02d9720a-6116-424c-96d4-8178e4f37ecf","ios":"levelo://app?vid=02d9720a-6116-424c-96d4-8178e4f37ecf"},"vehicle_type_id":"4","last_reported":1735308459,"current_range_meters":29600,"station_id":"","pricing_plan_id":"cebpf4jnsgd1na2vs0mg"},{"bike_id":"6fc39219-982d-4feb-9b3b-e1ba4db40afe","system_id":"levelo_inurba_marseille","lat":43.29578,"lon":5.38103,"is_reserved":false,"is_disabled":false,"rental_uris":{"android":"levelo://app?vid=6fc39219-982d-4feb-9b3b-e1ba4db40afe","ios":"levelo://app?vid=6fc39219-982d-4feb-9b3b-e1ba4db40afe"},"vehicle_type_id":"4","last_reported":1735308459,"current_range_meters":38800,"station_id":"ce4bgl12rcd13ifvqbo0","pricing_plan_id":"cebpf4jnsgd1na2vs0mg"},{"bike_id":"e73e6057-e6e9-407b-a17e-f4e119a96aba","system_id":"levelo_inurba_marseille","lat":43.32105,"lon":5.36775,"is_reserved":false,"is_disabled":false,"rental_uris":{"android":"levelo://app?vid=e73e6057-e6e9-407b-a17e-f4e119a96aba","ios":"levelo://app?vid=e73e6057-e6e9-407b-a17e-f4e119a96aba"},"vehicle_type_id":"4","last_reported":1735308459,"current_range_meters":22000,"station_id":"ce4bhrh2rcd13ifvqhug","pricing_plan_id":"cebpf4jnsgd1na2vs0mg"},{"bike_id":"3ff64cbe-5267-4b47-90a4-ecf84ad2fe1c","system_id":"levelo_inurba_marseille","lat":43.29286,"lon":5.37449,"is_reserved":false,"is_disabled":false,"rental_uris":{"android":"levelo://app?vid=3ff64cbe-5267-4b47-90a4-ecf84ad2fe1c","ios":"levelo://app?vid=3ff64cbe-5267-4b47-90a4-ecf84ad2fe1c"},"vehicle_type_id":"4","last_reported":1735308459,"current_range_meters":31200,"station_id":"ce4bgi12rcd13ifvqb70","pricing_plan_id":"cebpf4jnsgd1na2vs0mg"},{"bike_id":"274dc03f-7642-4208-8dd1-a434a54a0ac7","system_id":"levelo_inurba_marseille","lat":43.27996,"lon":5.40025,"is_reserved":false,"is_disabled":false,"rental_uris":{"android":"levelo://app?vid=274dc03f-7642-4208-8dd1-a434a54a0ac7","ios":"levelo://app?vid=274dc03f-7642-4208-8dd1-a434a54a0ac7"},"vehicle_type_id":"4","last_reported":1735308459,"current_range_meters":35200,"station_id":"ce4bho92rcd13ifvqh4g","pricing_plan_id":"cebpf4jnsgd1na2vs0mg"},{"bike_id":"4457ac0b-5759-4724-82b6-65c4e675216e","system_id":"levelo_inurba_marseille","lat":43.27809,"lon":5.40714,"is_reserved":false,"is_disabled":false,"rental_uris":{"android":"levelo://app?vid=4457ac0b-5759-4724-82b6-65c4e675216e","ios":"levelo://app?vid=4457ac0b-5759-4724-82b6-65c4e675216e"},"vehicle_type_id":"4","last_reported":1735308459,"current_range_meters":4800,"station_id":"ce4bhnh2rcd13ifvqgtg","pricing_plan_id":"cebpf4jnsgd1na2vs0mg"},{"bike_id":"2fde4d1c-24e2-46d6-8477-1c60e6e605f9","system_id":"levelo_inurba_marseille","lat":43.27534,"lon":5.39552,"is_reserved":false,"is_disabled":false,"rental_uris":{"android":"levelo://app?vid=2fde4d1c-24e2-46d6-8477-1c60e6e605f9","ios":"levelo://app?vid=2fde4d1c-24e2-46d6-8477-1c60e6e605f9"},"vehicle_type_id":"4","last_reported":1735308459,"current_range_meters":26800,"station_id":"","pricing_plan_id":"cebpf4jnsgd1na2vs0mg"},{"bike_id":"f63f5337-03ae-46cd-8ef7-915402171e98","system_id":"levelo_inurba_marseille","lat":43.28268,"lon":5.35075,"is_reserved":false,"is_disabled":false,"rental_uris":{"android":"levelo://app?vid=f63f5337-03ae-46cd-8ef7-915402171e98","ios":"levelo://app?vid=f63f5337-03ae-46cd-8ef7-915402171e98"},"vehicle_type_id":"4","last_reported":1735308459,"current_range_meters":24800,"station_id":"ce4bhbp2rcd13ifvqerg","pricing_plan_id":"cebpf4jnsgd1na2vs0mg"},{"bike_id":"2c7b1210-4c8b-48ac-b49f-64e2a4a91518","system_id":"levelo_inurba_marseille","lat":43.22929,"lon":5.35379,"is_reserved":false,"is_disabled":false,"rental_uris":{"android":"levelo://app?vid=2c7b1210-4c8b-48ac-b49f-64e2a4a91518","ios":"levelo://app?vid=2c7b1210-4c8b-48ac-b49f-64e2a4a91518"},"vehicle_type_id":"4","last_reported":1735308459,"current_range_meters":33600,"station_id":"cpo3532slgdg3j2ikp40","pricing_plan_id":"cebpf4jnsgd1na2vs0mg"},{"bike_id":"39c2c987-3b88-4998-bc24-3c208058baed","system_id":"levelo_inurba_marseille","lat":43.29912,"lon":5.37473,"is_reserved":false,"is_disabled":false,"rental_uris":{"android":"levelo://app?vid=39c2c987-3b88-4998-bc24-3c208058baed","ios":"levelo://app?vid=39c2c987-3b88-4998-bc24-3c208058baed"},"vehicle_type_id":"4","last_reported":1735308459,"current_range_meters":28800,"station_id":"ce4bgjh2rcd13ifvqbg0","pricing_plan_id":"cebpf4jnsgd1na2vs0mg"},{"bike_id":"731ba9de-00dd-4cec-ab12-769c3978dcf6","system_id":"levelo_inurba_marseille","lat":43.32035,"lon":5.4157,"is_reserved":false,"is_disabled":false,"rental_uris":{"android":"levelo://app?vid=731ba9de-00dd-4cec-ab12-769c3978dcf6","ios":"levelo://app?vid=731ba9de-00dd-4cec-ab12-769c3978dcf6"},"vehicle_type_id":"4","last_reported":1735308459,"current_range_meters":37600,"station_id":"ce4bhq92rcd13ifvqhkg","pricing_plan_id":"cebpf4jnsgd1na2vs0mg"},{"bike_id":"68211a07-215f-49bd-a9fa-0420bab04946","system_id":"levelo_inurba_marseille","lat":43.29784,"lon":5.3709,"is_reserved":false,"is_disabled":false,"rental_uris":{"android":"levelo://app?vid=68211a07-215f-49bd-a9fa-0420bab04946","ios":"levelo://app?vid=68211a07-215f-49bd-a9fa-0420bab04946"},"vehicle_type_id":"4","last_reported":1735308459,"current_range_meters":24800,"station_id":"ce4bgop2rcd13ifvqc1g","pricing_plan_id":"cebpf4jnsgd1na2vs0mg"},{"bike_id":"96e14c54-0140-4802-a4fb-b66404aabb9d","system_id":"levelo_inurba_marseille","lat":43.29622,"lon":5.37707,"is_reserved":false,"is_disabled":false,"rental_uris":{"android":"levelo://app?vid=96e14c54-0140-4802-a4fb-b66404aabb9d","ios":"levelo://app?vid=96e14c54-0140-4802-a4fb-b66404aabb9d"},"vehicle_type_id":"4","last_reported":1735308459,"current_range_meters":27600,"station_id":"ce4bgi92rcd13ifvqb90","pricing_plan_id":"cebpf4jnsgd1na2vs0mg"},{"bike_id":"04c29ac3-3cac-4f72-89a4-807f64bb822e","system_id":"levelo_inurba_marseille","lat":43.29526,"lon":5.39408,"is_reserved":false,"is_disabled":false,"rental_uris":{"android":"levelo://app?vid=04c29ac3-3cac-4f72-89a4-807f64bb822e","ios":"levelo://app?vid=04c29ac3-3cac-4f72-89a4-807f64bb822e"},"vehicle_type_id":"4","last_reported":1735308459,"current_range_meters":38800,"station_id":"ce4bh292rcd13ifvqdf0","pricing_plan_id":"cebpf4jnsgd1na2vs0mg"},{"bike_id":"8de14881-ba42-4f66-b67e-b6a0530bf13a","system_id":"levelo_inurba_marseille","lat":43.27369,"lon":5.36249,"is_reserved":false,"is_disabled":false,"rental_uris":{"android":"levelo://app?vid=8de14881-ba42-4f66-b67e-b6a0530bf13a","ios":"levelo://app?vid=8de14881-ba42-4f66-b67e-b6a0530bf13a"},"vehicle_type_id":"4","last_reported":1735308459,"current_range_meters":28400,"station_id":"ce4bhbh2rcd13ifvqeo0","pricing_plan_id":"cebpf4jnsgd1na2vs0mg"},{"bike_id":"8703ddc2-abd8-4ed3-8052-d2dedbc6fd5c","system_id":"levelo_inurba_marseille","lat":43.26953,"lon":5.38628,"is_reserved":false,"is_disabled":false,"rental_uris":{"android":"levelo://app?vid=8703ddc2-abd8-4ed3-8052-d2dedbc6fd5c","ios":"levelo://app?vid=8703ddc2-abd8-4ed3-8052-d2dedbc6fd5c"},"vehicle_type_id":"4","last_reported":1735308459,"current_range_meters":39200,"station_id":"ce4bhh92rcd13ifvqfh0","pricing_plan_id":"cebpf4jnsgd1na2vs0mg"},{"bike_id":"5f900647-c14e-451e-b352-f30b00097dda","system_id":"levelo_inurba_marseille","lat":43.30526,"lon":5.36701,"is_reserved":false,"is_disabled":false,"rental_uris":{"android":"levelo://app?vid=5f900647-c14e-451e-b352-f30b00097dda","ios":"levelo://app?vid=5f900647-c14e-451e-b352-f30b00097dda"},"vehicle_type_id":"4","last_reported":1735308459,"current_range_meters":38800,"station_id":"ce4bgrp2rcd13ifvqc9g","pricing_plan_id":"cebpf4jnsgd1na2vs0mg"},{"bike_id":"9609b93f-d4e4-498f-9877-c06863aef471","system_id":"levelo_inurba_marseille","lat":43.22925,"lon":5.35374,"is_reserved":false,"is_disabled":false,"rental_uris":{"android":"levelo://app?vid=9609b93f-d4e4-498f-9877-c06863aef471","ios":"levelo://app?vid=9609b93f-d4e4-498f-9877-c06863aef471"},"vehicle_type_id":"4","last_reported":1735308459,"current_range_meters":6800,"station_id":"cpo3532slgdg3j2ikp40","pricing_plan_id":"cebpf4jnsgd1na2vs0mg"},{"bike_id":"dad6db58-f5bc-4da2-b0b4-3d5d1002166b","system_id":"levelo_inurba_marseille","lat":43.32115,"lon":5.36769,"is_reserved":false,"is_disabled":false,"rental_uris":{"android":"levelo://app?vid=dad6db58-f5bc-4da2-b0b4-3d5d1002166b","ios":"levelo://app?vid=dad6db58-f5bc-4da2-b0b4-3d5d1002166b"},"vehicle_type_id":"4","last_reported":1735308459,"current_range_meters":16400,"station_id":"ce4bhrh2rcd13ifvqhug","pricing_plan_id":"cebpf4jnsgd1na2vs0mg"},{"bike_id":"bc19133f-b3ac-48a4-8157-f71ea14a102e","system_id":"levelo_inurba_marseille","lat":43.2846,"lon":5.35898,"is_reserved":false,"is_disabled":false,"rental_uris":{"android":"levelo://app?vid=bc19133f-b3ac-48a4-8157-f71ea14a102e","ios":"levelo://app?vid=bc19133f-b3ac-48a4-8157-f71ea14a102e"},"vehicle_type_id":"4","last_reported":1735308459,"current_range_meters":28800,"station_id":"ce4bhah2rcd13ifvqei0","pricing_plan_id":"cebpf4jnsgd1na2vs0mg"},{"bike_id":"c4d90cb8-8ccf-4cc4-828a-b9406ae0d439","system_id":"levelo_inurba_marseille","lat":43.27371,"lon":5.36259,"is_reserved":false,"is_disabled":false,"rental_uris":{"android":"levelo://app?vid=c4d90cb8-8ccf-4cc4-828a-b9406ae0d439","ios":"levelo://app?vid=c4d90cb8-8ccf-4cc4-828a-b9406ae0d439"},"vehicle_type_id":"4","last_reported":1735308459,"current_range_meters":15200,"station_id":"ce4bhbh2rcd13ifvqeo0","pricing_plan_id":"cebpf4jnsgd1na2vs0mg"},{"bike_id":"a3b5e29c-4425-483d-9fe4-2d25fea7803f","system_id":"levelo_inurba_marseille","lat":43.250044,"lon":5.38921,"is_reserved":false,"is_disabled":true,"rental_uris":{"android":"levelo://app?vid=a3b5e29c-4425-483d-9fe4-2d25fea7803f","ios":"levelo://app?vid=a3b5e29c-4425-483d-9fe4-2d25fea7803f"},"vehicle_type_id":"4","last_reported":1735308459,"current_range_meters":32000,"station_id":"ce4bhgp2rcd13ifvqfd0","pricing_plan_id":"cebpf4jnsgd1na2vs0mg"},{"bike_id":"396c5533-5cfa-4087-be42-c0b4bf33858d","system_id":"levelo_inurba_marseille","lat":43.32653,"lon":5.40994,"is_reserved":false,"is_disabled":false,"rental_uris":{"android":"levelo://app?vid=396c5533-5cfa-4087-be42-c0b4bf33858d","ios":"levelo://app?vid=396c5533-5cfa-4087-be42-c0b4bf33858d"},"vehicle_type_id":"4","last_reported":1735308459,"current_range_meters":10800,"station_id":"ce4bhpp2rcd13ifvqhgg","pricing_plan_id":"cebpf4jnsgd1na2vs0mg"},{"bike_id":"5f4a2e38-74b5-4a61-9b7b-9f8a076c61ce","system_id":"levelo_inurba_marseille","lat":43.28939,"lon":5.36636,"is_reserved":false,"is_disabled":false,"rental_uris":{"android":"levelo://app?vid=5f4a2e38-74b5-4a61-9b7b-9f8a076c61ce","ios":"levelo://app?vid=5f4a2e38-74b5-4a61-9b7b-9f8a076c61ce"},"vehicle_type_id":"4","last_reported":1735308459,"current_range_meters":32400,"station_id":"ce4bhap2rcd13ifvqek0","pricing_plan_id":"cebpf4jnsgd1na2vs0mg"},{"bike_id":"8d01eb90-bc0e-47b8-a7e1-4bdcd2bfe599","system_id":"levelo_inurba_marseille","lat":43.28481,"lon":5.38406,"is_reserved":false,"is_disabled":false,"rental_uris":{"android":"levelo://app?vid=8d01eb90-bc0e-47b8-a7e1-4bdcd2bfe599","ios":"levelo://app?vid=8d01eb90-bc0e-47b8-a7e1-4bdcd2bfe599"},"vehicle_type_id":"4","last_reported":1735308459,"current_range_meters":12800,"station_id":"ce4bh512rcd13ifvqe3g","pricing_plan_id":"cebpf4jnsgd1na2vs0mg"},{"bike_id":"fe58fe4f-f963-48b8-969e-67ae20a4b464","system_id":"levelo_inurba_marseille","lat":43.27659,"lon":5.38905,"is_reserved":false,"is_disabled":false,"rental_uris":{"android":"levelo://app?vid=fe58fe4f-f963-48b8-969e-67ae20a4b464","ios":"levelo://app?vid=fe58fe4f-f963-48b8-969e-67ae20a4b464"},"vehicle_type_id":"4","last_reported":1735308459,"current_range_meters":11200,"station_id":"ce4bhi12rcd13ifvqfo0","pricing_plan_id":"cebpf4jnsgd1na2vs0mg"},{"bike_id":"5d78fcac-8516-413f-aee0-8e19d04556bb","system_id":"levelo_inurba_marseille","lat":43.282612,"lon":5.35071,"is_reserved":false,"is_disabled":false,"rental_uris":{"android":"levelo://app?vid=5d78fcac-8516-413f-aee0-8e19d04556bb","ios":"levelo://app?vid=5d78fcac-8516-413f-aee0-8e19d04556bb"},"vehicle_type_id":"4","last_reported":1735308459,"current_range_meters":34800,"station_id":"ce4bhbp2rcd13ifvqerg","pricing_plan_id":"cebpf4jnsgd1na2vs0mg"},{"bike_id":"27ba1944-f402-4802-990e-afebe4e687d9","system_id":"levelo_inurba_marseille","lat":43.28856,"lon":5.39332,"is_reserved":false,"is_disabled":false,"rental_uris":{"android":"levelo://app?vid=27ba1944-f402-4802-990e-afebe4e687d9","ios":"levelo://app?vid=27ba1944-f402-4802-990e-afebe4e687d9"},"vehicle_type_id":"4","last_reported":1735308459,"current_range_meters":24000,"station_id":"ce4bh2p2rcd13ifvqdi0","pricing_plan_id":"cebpf4jnsgd1na2vs0mg"},{"bike_id":"93075745-fba3-4e09-ac16-7cb8ef034b8f","system_id":"levelo_inurba_marseille","lat":43.24664,"lon":5.38169,"is_reserved":false,"is_disabled":false,"rental_uris":{"android":"levelo://app?vid=93075745-fba3-4e09-ac16-7cb8ef034b8f","ios":"levelo://app?vid=93075745-fba3-4e09-ac16-7cb8ef034b8f"},"vehicle_type_id":"4","last_reported":1735308459,"current_range_meters":11600,"station_id":"ce4bhih2rcd13ifvqfr0","pricing_plan_id":"cebpf4jnsgd1na2vs0mg"},{"bike_id":"341738ef-5889-4ad9-9747-8c8fe8e1f661","system_id":"levelo_inurba_marseille","lat":43.29975,"lon":5.38498,"is_reserved":false,"is_disabled":false,"rental_uris":{"android":"levelo://app?vid=341738ef-5889-4ad9-9747-8c8fe8e1f661","ios":"levelo://app?vid=341738ef-5889-4ad9-9747-8c8fe8e1f661"},"vehicle_type_id":"4","last_reported":1735308459,"current_range_meters":37600,"station_id":"ce4bgj92rcd13ifvqbd0","pricing_plan_id":"cebpf4jnsgd1na2vs0mg"},{"bike_id":"821d987d-d104-4e4b-b2f2-ae7d66aa4bb2","system_id":"levelo_inurba_marseille","lat":43.289763,"lon":5.378351,"is_reserved":false,"is_disabled":false,"rental_uris":{"android":"levelo://app?vid=821d987d-d104-4e4b-b2f2-ae7d66aa4bb2","ios":"levelo://app?vid=821d987d-d104-4e4b-b2f2-ae7d66aa4bb2"},"vehicle_type_id":"4","last_reported":1735308459,"current_range_meters":39200,"station_id":"ce4bh9p2rcd13ifvqed0","pricing_plan_id":"cebpf4jnsgd1na2vs0mg"},{"bike_id":"78d75c4c-b3ca-4e96-a8b0-e3c5ee506096","system_id":"levelo_inurba_marseille","lat":43.30353,"lon":5.41881,"is_reserved":false,"is_disabled":false,"rental_uris":{"android":"levelo://app?vid=78d75c4c-b3ca-4e96-a8b0-e3c5ee506096","ios":"levelo://app?vid=78d75c4c-b3ca-4e96-a8b0-e3c5ee506096"},"vehicle_type_id":"4","last_reported":1735308459,"current_range_meters":38000,"station_id":"ce4bhop2rcd13ifvqh7g","pricing_plan_id":"cebpf4jnsgd1na2vs0mg"},{"bike_id":"1f03e07b-50b0-4a9e-bd03-dc766534a5b3","system_id":"levelo_inurba_marseille","lat":43.25581,"lon":5.38246,"is_reserved":false,"is_disabled":false,"rental_uris":{"android":"levelo://app?vid=1f03e07b-50b0-4a9e-bd03-dc766534a5b3","ios":"levelo://app?vid=1f03e07b-50b0-4a9e-bd03-dc766534a5b3"},"vehicle_type_id":"4","last_reported":1735308459,"current_range_meters":38800,"station_id":"ce4bhih2rcd13ifvqfs0","pricing_plan_id":"cebpf4jnsgd1na2vs0mg"},{"bike_id":"aaf1aa19-ffff-4e74-a4a3-b75b3a29f183","system_id":"levelo_inurba_marseille","lat":43.27851,"lon":5.39214,"is_reserved":false,"is_disabled":false,"rental_uris":{"android":"levelo://app?vid=aaf1aa19-ffff-4e74-a4a3-b75b3a29f183","ios":"levelo://app?vid=aaf1aa19-ffff-4e74-a4a3-b75b3a29f183"},"vehicle_type_id":"4","last_reported":1735308459,"current_range_meters":31200,"station_id":"ce4bhjp2rcd13ifvqga0","pricing_plan_id":"cebpf4jnsgd1na2vs0mg"},{"bike_id":"c6834b76-82f1-466a-8b2d-118839d142cc","system_id":"levelo_inurba_marseille","lat":43.29894,"lon":5.436591,"is_reserved":false,"is_disabled":false,"rental_uris":{"android":"levelo://app?vid=c6834b76-82f1-466a-8b2d-118839d142cc","ios":"levelo://app?vid=c6834b76-82f1-466a-8b2d-118839d142cc"},"vehicle_type_id":"4","last_reported":1735308459,"current_range_meters":38000,"station_id":"ce4bhpp2rcd13ifvqhfg","pricing_plan_id":"cebpf4jnsgd1na2vs0mg"},{"bike_id":"0987d57b-f76d-42a4-8958-c8175287043e","system_id":"levelo_inurba_marseille","lat":43.29881,"lon":5.39735,"is_reserved":false,"is_disabled":false,"rental_uris":{"android":"levelo://app?vid=0987d57b-f76d-42a4-8958-c8175287043e","ios":"levelo://app?vid=0987d57b-f76d-42a4-8958-c8175287043e"},"vehicle_type_id":"4","last_reported":1735308459,"current_range_meters":34800,"station_id":"ce4bh0h2rcd13ifvqd50","pricing_plan_id":"cebpf4jnsgd1na2vs0mg"},{"bike_id":"1107b56a-98a5-4a01-8449-9eba086fee5a","system_id":"levelo_inurba_marseille","lat":43.29073,"lon":5.39883,"is_reserved":false,"is_disabled":false,"rental_uris":{"android":"levelo://app?vid=1107b56a-98a5-4a01-8449-9eba086fee5a","ios":"levelo://app?vid=1107b56a-98a5-4a01-8449-9eba086fee5a"},"vehicle_type_id":"4","last_reported":1735308459,"current_range_meters":23200,"station_id":"","pricing_plan_id":"cebpf4jnsgd1na2vs0mg"},{"bike_id":"6f68edfd-fb24-4919-b968-971a44d10505","system_id":"levelo_inurba_marseille","lat":43.33677,"lon":5.39175,"is_reserved":false,"is_disabled":false,"rental_uris":{"android":"levelo://app?vid=6f68edfd-fb24-4919-b968-971a44d10505","ios":"levelo://app?vid=6f68edfd-fb24-4919-b968-971a44d10505"},"vehicle_type_id":"4","last_reported":1735308459,"current_range_meters":38800,"station_id":"ce4bhr92rcd13ifvqhsg","pricing_plan_id":"cebpf4jnsgd1na2vs0mg"},{"bike_id":"2925bf33-bacb-4473-8d24-718819fb0c15","system_id":"levelo_inurba_marseille","lat":43.29794,"lon":5.40412,"is_reserved":false,"is_disabled":false,"rental_uris":{"android":"levelo://app?vid=2925bf33-bacb-4473-8d24-718819fb0c15","ios":"levelo://app?vid=2925bf33-bacb-4473-8d24-718819fb0c15"},"vehicle_type_id":"4","last_reported":1735308459,"current_range_meters":38800,"station_id":"ce4bh112rcd13ifvqd90","pricing_plan_id":"cebpf4jnsgd1na2vs0mg"},{"bike_id":"011402b4-5a26-4984-8433-55d86d515fdd","system_id":"levelo_inurba_marseille","lat":43.27813,"lon":5.40713,"is_reserved":false,"is_disabled":false,"rental_uris":{"android":"levelo://app?vid=011402b4-5a26-4984-8433-55d86d515fdd","ios":"levelo://app?vid=011402b4-5a26-4984-8433-55d86d515fdd"},"vehicle_type_id":"4","last_reported":1735308459,"current_range_meters":32800,"station_id":"ce4bhnh2rcd13ifvqgtg","pricing_plan_id":"cebpf4jnsgd1na2vs0mg"},{"bike_id":"e00dfb05-17e3-4fe6-bb2e-302de9c485a7","system_id":"levelo_inurba_marseille","lat":43.29601,"lon":5.38105,"is_reserved":false,"is_disabled":false,"rental_uris":{"android":"levelo://app?vid=e00dfb05-17e3-4fe6-bb2e-302de9c485a7","ios":"levelo://app?vid=e00dfb05-17e3-4fe6-bb2e-302de9c485a7"},"vehicle_type_id":"4","last_reported":1735308459,"current_range_meters":30800,"station_id":"ce4bgl12rcd13ifvqbo0","pricing_plan_id":"cebpf4jnsgd1na2vs0mg"},{"bike_id":"5608df94-b66e-460e-9f45-682a8f36b500","system_id":"levelo_inurba_marseille","lat":43.26918,"lon":5.38933,"is_reserved":false,"is_disabled":false,"rental_uris":{"android":"levelo://app?vid=5608df94-b66e-460e-9f45-682a8f36b500","ios":"levelo://app?vid=5608df94-b66e-460e-9f45-682a8f36b500"},"vehicle_type_id":"4","last_reported":1735308459,"current_range_meters":37600,"station_id":"ce4bhhh2rcd13ifvqfl0","pricing_plan_id":"cebpf4jnsgd1na2vs0mg"},{"bike_id":"3fbbac4e-077e-476b-9b1a-9cc6e989ecb0","system_id":"levelo_inurba_marseille","lat":43.25013,"lon":5.38924,"is_reserved":false,"is_disabled":false,"rental_uris":{"android":"levelo://app?vid=3fbbac4e-077e-476b-9b1a-9cc6e989ecb0","ios":"levelo://app?vid=3fbbac4e-077e-476b-9b1a-9cc6e989ecb0"},"vehicle_type_id":"4","last_reported":1735308459,"current_range_meters":38400,"station_id":"ce4bhgp2rcd13ifvqfd0","pricing_plan_id":"cebpf4jnsgd1na2vs0mg"},{"bike_id":"52096130-b4a8-446c-9b4b-6aa4b2cc4f7f","system_id":"levelo_inurba_marseille","lat":43.31221,"lon":5.36868,"is_reserved":false,"is_disabled":false,"rental_uris":{"android":"levelo://app?vid=52096130-b4a8-446c-9b4b-6aa4b2cc4f7f","ios":"levelo://app?vid=52096130-b4a8-446c-9b4b-6aa4b2cc4f7f"},"vehicle_type_id":"4","last_reported":1735308459,"current_range_meters":38400,"station_id":"ce4bgl92rcd13ifvqbq0","pricing_plan_id":"cebpf4jnsgd1na2vs0mg"},{"bike_id":"d0ac690d-0efe-47fa-9059-f0f7881223f1","system_id":"levelo_inurba_marseille","lat":43.29733,"lon":5.37699,"is_reserved":false,"is_disabled":false,"rental_uris":{"android":"levelo://app?vid=d0ac690d-0efe-47fa-9059-f0f7881223f1","ios":"levelo://app?vid=d0ac690d-0efe-47fa-9059-f0f7881223f1"},"vehicle_type_id":"4","last_reported":1735308459,"current_range_meters":36000,"station_id":"ce4bgkh2rcd13ifvqbl0","pricing_plan_id":"cebpf4jnsgd1na2vs0mg"},{"bike_id":"e203eede-93d4-4367-be9a-c6d93cdc799f","system_id":"levelo_inurba_marseille","lat":43.29931,"lon":5.36541,"is_reserved":false,"is_disabled":false,"rental_uris":{"android":"levelo://app?vid=e203eede-93d4-4367-be9a-c6d93cdc799f","ios":"levelo://app?vid=e203eede-93d4-4367-be9a-c6d93cdc799f"},"vehicle_type_id":"4","last_reported":1735308459,"current_range_meters":21600,"station_id":"ce4bgm92rcd13ifvqbr0","pricing_plan_id":"cebpf4jnsgd1na2vs0mg"},{"bike_id":"41120cbf-bc5b-424d-9746-9dedf3547a24","system_id":"levelo_inurba_marseille","lat":43.26788,"lon":5.39414,"is_reserved":false,"is_disabled":false,"rental_uris":{"android":"levelo://app?vid=41120cbf-bc5b-424d-9746-9dedf3547a24","ios":"levelo://app?vid=41120cbf-bc5b-424d-9746-9dedf3547a24"},"vehicle_type_id":"4","last_reported":1735308459,"current_range_meters":38400,"station_id":"ce4bhh12rcd13ifvqfg0","pricing_plan_id":"cebpf4jnsgd1na2vs0mg"},{"bike_id":"3df8c541-4f0b-4d49-9397-413e6a48e6cd","system_id":"levelo_inurba_marseille","lat":43.30345,"lon":5.41878,"is_reserved":false,"is_disabled":false,"rental_uris":{"android":"levelo://app?vid=3df8c541-4f0b-4d49-9397-413e6a48e6cd","ios":"levelo://app?vid=3df8c541-4f0b-4d49-9397-413e6a48e6cd"},"vehicle_type_id":"4","last_reported":1735308459,"current_range_meters":38800,"station_id":"ce4bhop2rcd13ifvqh7g","pricing_plan_id":"cebpf4jnsgd1na2vs0mg"},{"bike_id":"41e441a8-4ad2-4bf0-81ba-96c35feaf6d8","system_id":"levelo_inurba_marseille","lat":43.28153,"lon":5.42639,"is_reserved":false,"is_disabled":false,"rental_uris":{"android":"levelo://app?vid=41e441a8-4ad2-4bf0-81ba-96c35feaf6d8","ios":"levelo://app?vid=41e441a8-4ad2-4bf0-81ba-96c35feaf6d8"},"vehicle_type_id":"4","last_reported":1735308459,"current_range_meters":38400,"station_id":"ce4bhnh2rcd13ifvqgug","pricing_plan_id":"cebpf4jnsgd1na2vs0mg"},{"bike_id":"96e85a3c-d0b9-4bcc-91df-9ef22101545b","system_id":"levelo_inurba_marseille","lat":43.28359,"lon":5.35027,"is_reserved":false,"is_disabled":false,"rental_uris":{"android":"levelo://app?vid=96e85a3c-d0b9-4bcc-91df-9ef22101545b","ios":"levelo://app?vid=96e85a3c-d0b9-4bcc-91df-9ef22101545b"},"vehicle_type_id":"4","last_reported":1735308459,"current_range_meters":38800,"station_id":"","pricing_plan_id":"cebpf4jnsgd1na2vs0mg"},{"bike_id":"a25819d3-be17-4947-b999-ef13378a38e4","system_id":"levelo_inurba_marseille","lat":43.299059,"lon":5.374652,"is_reserved":false,"is_disabled":false,"rental_uris":{"android":"levelo://app?vid=a25819d3-be17-4947-b999-ef13378a38e4","ios":"levelo://app?vid=a25819d3-be17-4947-b999-ef13378a38e4"},"vehicle_type_id":"4","last_reported":1735308459,"current_range_meters":30000,"station_id":"ce4bgjh2rcd13ifvqbg0","pricing_plan_id":"cebpf4jnsgd1na2vs0mg"},{"bike_id":"a77ac02d-1de6-4704-b703-f35a2827429f","system_id":"levelo_inurba_marseille","lat":43.29522,"lon":5.39418,"is_reserved":false,"is_disabled":false,"rental_uris":{"android":"levelo://app?vid=a77ac02d-1de6-4704-b703-f35a2827429f","ios":"levelo://app?vid=a77ac02d-1de6-4704-b703-f35a2827429f"},"vehicle_type_id":"4","last_reported":1735308459,"current_range_meters":35200,"station_id":"ce4bh292rcd13ifvqdf0","pricing_plan_id":"cebpf4jnsgd1na2vs0mg"},{"bike_id":"57d65774-f73c-4be4-b79d-df6c62563381","system_id":"levelo_inurba_marseille","lat":43.28103,"lon":5.37846,"is_reserved":false,"is_disabled":false,"rental_uris":{"android":"levelo://app?vid=57d65774-f73c-4be4-b79d-df6c62563381","ios":"levelo://app?vid=57d65774-f73c-4be4-b79d-df6c62563381"},"vehicle_type_id":"4","last_reported":1735308459,"current_range_meters":38000,"station_id":"ce4bha12rcd13ifvqee0","pricing_plan_id":"cebpf4jnsgd1na2vs0mg"},{"bike_id":"4e04e3c8-bad8-47c2-a784-0c5eba8b5d4f","system_id":"levelo_inurba_marseille","lat":43.27073,"lon":5.42279,"is_reserved":false,"is_disabled":false,"rental_uris":{"android":"levelo://app?vid=4e04e3c8-bad8-47c2-a784-0c5eba8b5d4f","ios":"levelo://app?vid=4e04e3c8-bad8-47c2-a784-0c5eba8b5d4f"},"vehicle_type_id":"4","last_reported":1735308459,"current_range_meters":30000,"station_id":"ce4bhk92rcd13ifvqgb0","pricing_plan_id":"cebpf4jnsgd1na2vs0mg"},{"bike_id":"807925e0-3c01-43e3-b6e8-2dacd5eae631","system_id":"levelo_inurba_marseille","lat":43.28415,"lon":5.34988,"is_reserved":false,"is_disabled":false,"rental_uris":{"android":"levelo://app?vid=807925e0-3c01-43e3-b6e8-2dacd5eae631","ios":"levelo://app?vid=807925e0-3c01-43e3-b6e8-2dacd5eae631"},"vehicle_type_id":"4","last_reported":1735308459,"current_range_meters":22000,"station_id":"ce4bhbh2rcd13ifvqepg","pricing_plan_id":"cebpf4jnsgd1na2vs0mg"},{"bike_id":"22ff3201-b7a3-4c5e-970c-2a89343fabf7","system_id":"levelo_inurba_marseille","lat":43.30555,"lon":5.36543,"is_reserved":false,"is_disabled":false,"rental_uris":{"android":"levelo://app?vid=22ff3201-b7a3-4c5e-970c-2a89343fabf7","ios":"levelo://app?vid=22ff3201-b7a3-4c5e-970c-2a89343fabf7"},"vehicle_type_id":"4","last_reported":1735308459,"current_range_meters":38800,"station_id":"ce4bgs12rcd13ifvqcag","pricing_plan_id":"cebpf4jnsgd1na2vs0mg"},{"bike_id":"03350f70-f6b0-4c73-9b04-89800e70085e","system_id":"levelo_inurba_marseille","lat":43.29568,"lon":5.36759,"is_reserved":false,"is_disabled":false,"rental_uris":{"android":"levelo://app?vid=03350f70-f6b0-4c73-9b04-89800e70085e","ios":"levelo://app?vid=03350f70-f6b0-4c73-9b04-89800e70085e"},"vehicle_type_id":"4","last_reported":1735308459,"current_range_meters":38800,"station_id":"ce4bgph2rcd13ifvqc2g","pricing_plan_id":"cebpf4jnsgd1na2vs0mg"},{"bike_id":"3f7a318f-fdf1-4435-b854-c851cb9da146","system_id":"levelo_inurba_marseille","lat":43.26044,"lon":5.37551,"is_reserved":false,"is_disabled":false,"rental_uris":{"android":"levelo://app?vid=3f7a318f-fdf1-4435-b854-c851cb9da146","ios":"levelo://app?vid=3f7a318f-fdf1-4435-b854-c851cb9da146"},"vehicle_type_id":"4","last_reported":1735308459,"current_range_meters":25200,"station_id":"ce4bhgh2rcd13ifvqfa0","pricing_plan_id":"cebpf4jnsgd1na2vs0mg"},{"bike_id":"9729fc41-f9c3-49f6-b29a-3e005f0daeb5","system_id":"levelo_inurba_marseille","lat":43.23061,"lon":5.35492,"is_reserved":false,"is_disabled":false,"rental_uris":{"android":"levelo://app?vid=9729fc41-f9c3-49f6-b29a-3e005f0daeb5","ios":"levelo://app?vid=9729fc41-f9c3-49f6-b29a-3e005f0daeb5"},"vehicle_type_id":"4","last_reported":1735308459,"current_range_meters":22800,"station_id":"cpo3342slgdg3j2ifvpg","pricing_plan_id":"cebpf4jnsgd1na2vs0mg"},{"bike_id":"68748034-e5dc-43d6-9c47-2c8088710c68","system_id":"levelo_inurba_marseille","lat":43.29556,"lon":5.42294,"is_reserved":false,"is_disabled":false,"rental_uris":{"android":"levelo://app?vid=68748034-e5dc-43d6-9c47-2c8088710c68","ios":"levelo://app?vid=68748034-e5dc-43d6-9c47-2c8088710c68"},"vehicle_type_id":"4","last_reported":1735308459,"current_range_meters":37600,"station_id":"ce4bhph2rcd13ifvqhdg","pricing_plan_id":"cebpf4jnsgd1na2vs0mg"},{"bike_id":"97c672d0-c134-4330-b6f9-642cfb44e6b4","system_id":"levelo_inurba_marseille","lat":43.27812,"lon":5.40709,"is_reserved":false,"is_disabled":false,"rental_uris":{"android":"levelo://app?vid=97c672d0-c134-4330-b6f9-642cfb44e6b4","ios":"levelo://app?vid=97c672d0-c134-4330-b6f9-642cfb44e6b4"},"vehicle_type_id":"4","last_reported":1735308459,"current_range_meters":38800,"station_id":"ce4bhnh2rcd13ifvqgtg","pricing_plan_id":"cebpf4jnsgd1na2vs0mg"},{"bike_id":"356fd92d-e963-40e6-b40e-58fc72ac9553","system_id":"levelo_inurba_marseille","lat":43.32097,"lon":5.36768,"is_reserved":false,"is_disabled":false,"rental_uris":{"android":"levelo://app?vid=356fd92d-e963-40e6-b40e-58fc72ac9553","ios":"levelo://app?vid=356fd92d-e963-40e6-b40e-58fc72ac9553"},"vehicle_type_id":"4","last_reported":1735308459,"current_range_meters":19600,"station_id":"ce4bhrh2rcd13ifvqhug","pricing_plan_id":"cebpf4jnsgd1na2vs0mg"},{"bike_id":"093ea325-05ba-493a-9614-250e339137b8","system_id":"levelo_inurba_marseille","lat":43.24792,"lon":5.37448,"is_reserved":false,"is_disabled":false,"rental_uris":{"android":"levelo://app?vid=093ea325-05ba-493a-9614-250e339137b8","ios":"levelo://app?vid=093ea325-05ba-493a-9614-250e339137b8"},"vehicle_type_id":"4","last_reported":1735308459,"current_range_meters":38800,"station_id":"ce4bhgh2rcd13ifvqfb0","pricing_plan_id":"cebpf4jnsgd1na2vs0mg"},{"bike_id":"90c942c7-cc9f-4ca0-a4bf-cccb4ac71e6f","system_id":"levelo_inurba_marseille","lat":43.25708,"lon":5.41124,"is_reserved":false,"is_disabled":false,"rental_uris":{"android":"levelo://app?vid=90c942c7-cc9f-4ca0-a4bf-cccb4ac71e6f","ios":"levelo://app?vid=90c942c7-cc9f-4ca0-a4bf-cccb4ac71e6f"},"vehicle_type_id":"4","last_reported":1735308459,"current_range_meters":36400,"station_id":"ce4bhkp2rcd13ifvqgd0","pricing_plan_id":"cebpf4jnsgd1na2vs0mg"},{"bike_id":"58c37885-f36d-4080-8133-b4d8b8de18bf","system_id":"levelo_inurba_marseille","lat":43.302017,"lon":5.394797,"is_reserved":false,"is_disabled":false,"rental_uris":{"android":"levelo://app?vid=58c37885-f36d-4080-8133-b4d8b8de18bf","ios":"levelo://app?vid=58c37885-f36d-4080-8133-b4d8b8de18bf"},"vehicle_type_id":"4","last_reported":1735308459,"current_range_meters":38800,"station_id":"ce4bh0p2rcd13ifvqd70","pricing_plan_id":"cebpf4jnsgd1na2vs0mg"},{"bike_id":"9fad57d8-e11d-4f64-80a7-948d8458d278","system_id":"levelo_inurba_marseille","lat":43.29574,"lon":5.37503,"is_reserved":false,"is_disabled":false,"rental_uris":{"android":"levelo://app?vid=9fad57d8-e11d-4f64-80a7-948d8458d278","ios":"levelo://app?vid=9fad57d8-e11d-4f64-80a7-948d8458d278"},"vehicle_type_id":"4","last_reported":1735308459,"current_range_meters":17200,"station_id":"ce4bgh92rcd13ifvqb50","pricing_plan_id":"cebpf4jnsgd1na2vs0mg"},{"bike_id":"8ccd8f06-9f8e-4a94-8efd-e3fae518e20d","system_id":"levelo_inurba_marseille","lat":43.30527,"lon":5.3653,"is_reserved":false,"is_disabled":false,"rental_uris":{"android":"levelo://app?vid=8ccd8f06-9f8e-4a94-8efd-e3fae518e20d","ios":"levelo://app?vid=8ccd8f06-9f8e-4a94-8efd-e3fae518e20d"},"vehicle_type_id":"4","last_reported":1735308459,"current_range_meters":31200,"station_id":"ce4bgs12rcd13ifvqcag","pricing_plan_id":"cebpf4jnsgd1na2vs0mg"},{"bike_id":"f9d7a6aa-83a7-4384-8969-5637dd508436","system_id":"levelo_inurba_marseille","lat":43.27818,"lon":5.40717,"is_reserved":false,"is_disabled":false,"rental_uris":{"android":"levelo://app?vid=f9d7a6aa-83a7-4384-8969-5637dd508436","ios":"levelo://app?vid=f9d7a6aa-83a7-4384-8969-5637dd508436"},"vehicle_type_id":"4","last_reported":1735308459,"current_range_meters":38800,"station_id":"ce4bhnh2rcd13ifvqgtg","pricing_plan_id":"cebpf4jnsgd1na2vs0mg"},{"bike_id":"01fed048-1469-43f6-badd-acb5b8823391","system_id":"levelo_inurba_marseille","lat":43.30915,"lon":5.40157,"is_reserved":false,"is_disabled":false,"rental_uris":{"android":"levelo://app?vid=01fed048-1469-43f6-badd-acb5b8823391","ios":"levelo://app?vid=01fed048-1469-43f6-badd-acb5b8823391"},"vehicle_type_id":"4","last_reported":1735308459,"current_range_meters":26800,"station_id":"ce4bgvp2rcd13ifvqct0","pricing_plan_id":"cebpf4jnsgd1na2vs0mg"},{"bike_id":"673ed0fe-3027-4e1f-9efc-2804b0e32190","system_id":"levelo_inurba_marseille","lat":43.2668,"lon":5.38272,"is_reserved":false,"is_disabled":false,"rental_uris":{"android":"levelo://app?vid=673ed0fe-3027-4e1f-9efc-2804b0e32190","ios":"levelo://app?vid=673ed0fe-3027-4e1f-9efc-2804b0e32190"},"vehicle_type_id":"4","last_reported":1735308459,"current_range_meters":18000,"station_id":"ce4bhg92rcd13ifvqf90","pricing_plan_id":"cebpf4jnsgd1na2vs0mg"},{"bike_id":"d21bc744-9c32-46ee-b407-4891190bedce","system_id":"levelo_inurba_marseille","lat":43.27618,"lon":5.3611,"is_reserved":false,"is_disabled":false,"rental_uris":{"android":"levelo://app?vid=d21bc744-9c32-46ee-b407-4891190bedce","ios":"levelo://app?vid=d21bc744-9c32-46ee-b407-4891190bedce"},"vehicle_type_id":"4","last_reported":1735308459,"current_range_meters":15200,"station_id":"ce4bgj92rcd13ifvqbe0","pricing_plan_id":"cebpf4jnsgd1na2vs0mg"},{"bike_id":"16dce88e-6947-485f-87a2-d3975a189eb3","system_id":"levelo_inurba_marseille","lat":43.29571,"lon":5.37498,"is_reserved":false,"is_disabled":false,"rental_uris":{"android":"levelo://app?vid=16dce88e-6947-485f-87a2-d3975a189eb3","ios":"levelo://app?vid=16dce88e-6947-485f-87a2-d3975a189eb3"},"vehicle_type_id":"4","last_reported":1735308459,"current_range_meters":38800,"station_id":"ce4bgh92rcd13ifvqb50","pricing_plan_id":"cebpf4jnsgd1na2vs0mg"},{"bike_id":"e5da7a22-3d35-4225-a91e-7c6df686c633","system_id":"levelo_inurba_marseille","lat":43.284845,"lon":5.385579,"is_reserved":false,"is_disabled":false,"rental_uris":{"android":"levelo://app?vid=e5da7a22-3d35-4225-a91e-7c6df686c633","ios":"levelo://app?vid=e5da7a22-3d35-4225-a91e-7c6df686c633"},"vehicle_type_id":"4","last_reported":1735308459,"current_range_meters":39200,"station_id":"ce4bh8p2rcd13ifvqeb0","pricing_plan_id":"cebpf4jnsgd1na2vs0mg"},{"bike_id":"911e384d-5f9a-468f-bec2-9d9087d71bb2","system_id":"levelo_inurba_marseille","lat":43.29619,"lon":5.37747,"is_reserved":false,"is_disabled":false,"rental_uris":{"android":"levelo://app?vid=911e384d-5f9a-468f-bec2-9d9087d71bb2","ios":"levelo://app?vid=911e384d-5f9a-468f-bec2-9d9087d71bb2"},"vehicle_type_id":"4","last_reported":1735308459,"current_range_meters":20400,"station_id":"ce4bgi92rcd13ifvqb90","pricing_plan_id":"cebpf4jnsgd1na2vs0mg"},{"bike_id":"57663385-6cdb-4311-861a-81fbd6633d2f","system_id":"levelo_inurba_marseille","lat":43.28272,"lon":5.3507,"is_reserved":false,"is_disabled":false,"rental_uris":{"android":"levelo://app?vid=57663385-6cdb-4311-861a-81fbd6633d2f","ios":"levelo://app?vid=57663385-6cdb-4311-861a-81fbd6633d2f"},"vehicle_type_id":"4","last_reported":1735308459,"current_range_meters":35200,"station_id":"ce4bhbp2rcd13ifvqerg","pricing_plan_id":"cebpf4jnsgd1na2vs0mg"},{"bike_id":"bfe51a22-dc58-4d57-ac93-06356f443b18","system_id":"levelo_inurba_marseille","lat":43.29765,"lon":5.3709,"is_reserved":false,"is_disabled":false,"rental_uris":{"android":"levelo://app?vid=bfe51a22-dc58-4d57-ac93-06356f443b18","ios":"levelo://app?vid=bfe51a22-dc58-4d57-ac93-06356f443b18"},"vehicle_type_id":"4","last_reported":1735308459,"current_range_meters":32800,"station_id":"ce4bgop2rcd13ifvqc1g","pricing_plan_id":"cebpf4jnsgd1na2vs0mg"},{"bike_id":"cadf8335-6df2-49c1-9678-5228c753266c","system_id":"levelo_inurba_marseille","lat":43.28074,"lon":5.39663,"is_reserved":false,"is_disabled":true,"rental_uris":{"android":"levelo://app?vid=cadf8335-6df2-49c1-9678-5228c753266c","ios":"levelo://app?vid=cadf8335-6df2-49c1-9678-5228c753266c"},"vehicle_type_id":"4","last_reported":1735308459,"current_range_meters":800,"station_id":"ce4bho12rcd13ifvqh2g","pricing_plan_id":"cebpf4jnsgd1na2vs0mg"},{"bike_id":"af5219a6-3ed9-4c37-ad2c-5b0df701a749","system_id":"levelo_inurba_marseille","lat":43.31473,"lon":5.37325,"is_reserved":false,"is_disabled":false,"rental_uris":{"android":"levelo://app?vid=af5219a6-3ed9-4c37-ad2c-5b0df701a749","ios":"levelo://app?vid=af5219a6-3ed9-4c37-ad2c-5b0df701a749"},"vehicle_type_id":"4","last_reported":1735308459,"current_range_meters":38800,"station_id":"ce4bgt12rcd13ifvqcd0","pricing_plan_id":"cebpf4jnsgd1na2vs0mg"},{"bike_id":"7fa60e51-b540-45b0-aa9f-35cfb04d90db","system_id":"levelo_inurba_marseille","lat":43.23142,"lon":5.43721,"is_reserved":false,"is_disabled":false,"rental_uris":{"android":"levelo://app?vid=7fa60e51-b540-45b0-aa9f-35cfb04d90db","ios":"levelo://app?vid=7fa60e51-b540-45b0-aa9f-35cfb04d90db"},"vehicle_type_id":"4","last_reported":1735308459,"current_range_meters":8400,"station_id":"ce4bhmp2rcd13ifvqgog","pricing_plan_id":"cebpf4jnsgd1na2vs0mg"},{"bike_id":"0d356a97-93db-4905-a410-a6d23d3b385c","system_id":"levelo_inurba_marseille","lat":43.28869,"lon":5.3581,"is_reserved":false,"is_disabled":false,"rental_uris":{"android":"levelo://app?vid=0d356a97-93db-4905-a410-a6d23d3b385c","ios":"levelo://app?vid=0d356a97-93db-4905-a410-a6d23d3b385c"},"vehicle_type_id":"4","last_reported":1735308459,"current_range_meters":14400,"station_id":"ce4bhb12rcd13ifvqem0","pricing_plan_id":"cebpf4jnsgd1na2vs0mg"},{"bike_id":"7f6642f1-d736-4ba3-90f2-31d62622029c","system_id":"levelo_inurba_marseille","lat":43.31213,"lon":5.36849,"is_reserved":false,"is_disabled":false,"rental_uris":{"android":"levelo://app?vid=7f6642f1-d736-4ba3-90f2-31d62622029c","ios":"levelo://app?vid=7f6642f1-d736-4ba3-90f2-31d62622029c"},"vehicle_type_id":"4","last_reported":1735308459,"current_range_meters":36800,"station_id":"ce4bgl92rcd13ifvqbq0","pricing_plan_id":"cebpf4jnsgd1na2vs0mg"},{"bike_id":"3c400fb2-71d9-4c47-b928-39de34f52592","system_id":"levelo_inurba_marseille","lat":43.26563,"lon":5.39015,"is_reserved":false,"is_disabled":false,"rental_uris":{"android":"levelo://app?vid=3c400fb2-71d9-4c47-b928-39de34f52592","ios":"levelo://app?vid=3c400fb2-71d9-4c47-b928-39de34f52592"},"vehicle_type_id":"4","last_reported":1735308459,"current_range_meters":18800,"station_id":"ce4bhe12rcd13ifvqf30","pricing_plan_id":"cebpf4jnsgd1na2vs0mg"},{"bike_id":"2ee1a73a-0ebb-4b47-b30d-6cd2a5bbe97c","system_id":"levelo_inurba_marseille","lat":43.26955,"lon":5.3862,"is_reserved":false,"is_disabled":false,"rental_uris":{"android":"levelo://app?vid=2ee1a73a-0ebb-4b47-b30d-6cd2a5bbe97c","ios":"levelo://app?vid=2ee1a73a-0ebb-4b47-b30d-6cd2a5bbe97c"},"vehicle_type_id":"4","last_reported":1735308459,"current_range_meters":25600,"station_id":"ce4bhh92rcd13ifvqfh0","pricing_plan_id":"cebpf4jnsgd1na2vs0mg"},{"bike_id":"d36bb8df-822e-49e3-adc4-c36f4503a77d","system_id":"levelo_inurba_marseille","lat":43.27496,"lon":5.42451,"is_reserved":false,"is_disabled":false,"rental_uris":{"android":"levelo://app?vid=d36bb8df-822e-49e3-adc4-c36f4503a77d","ios":"levelo://app?vid=d36bb8df-822e-49e3-adc4-c36f4503a77d"},"vehicle_type_id":"4","last_reported":1735308459,"current_range_meters":6000,"station_id":"ce4bhn92rcd13ifvqgrg","pricing_plan_id":"cebpf4jnsgd1na2vs0mg"},{"bike_id":"7890a301-a88f-4909-b599-1892e02f226c","system_id":"levelo_inurba_marseille","lat":43.29535,"lon":5.375,"is_reserved":false,"is_disabled":false,"rental_uris":{"android":"levelo://app?vid=7890a301-a88f-4909-b599-1892e02f226c","ios":"levelo://app?vid=7890a301-a88f-4909-b599-1892e02f226c"},"vehicle_type_id":"4","last_reported":1735308459,"current_range_meters":30400,"station_id":"ce4bgkp2rcd13ifvqbmg","pricing_plan_id":"cebpf4jnsgd1na2vs0mg"},{"bike_id":"4f5db02c-99f9-460e-a880-3ca7100df048","system_id":"levelo_inurba_marseille","lat":43.27429,"lon":5.39413,"is_reserved":false,"is_disabled":false,"rental_uris":{"android":"levelo://app?vid=4f5db02c-99f9-460e-a880-3ca7100df048","ios":"levelo://app?vid=4f5db02c-99f9-460e-a880-3ca7100df048"},"vehicle_type_id":"4","last_reported":1735308459,"current_range_meters":36800,"station_id":"ce4bhdp2rcd13ifvqf20","pricing_plan_id":"cebpf4jnsgd1na2vs0mg"},{"bike_id":"f23c36ea-42cd-4e18-bbb8-14549f0275ff","system_id":"levelo_inurba_marseille","lat":43.31482,"lon":5.37306,"is_reserved":false,"is_disabled":false,"rental_uris":{"android":"levelo://app?vid=f23c36ea-42cd-4e18-bbb8-14549f0275ff","ios":"levelo://app?vid=f23c36ea-42cd-4e18-bbb8-14549f0275ff"},"vehicle_type_id":"4","last_reported":1735308459,"current_range_meters":34000,"station_id":"ce4bgt12rcd13ifvqcd0","pricing_plan_id":"cebpf4jnsgd1na2vs0mg"},{"bike_id":"d5ddbfd8-c695-45c7-8f75-3f1b7776c13d","system_id":"levelo_inurba_marseille","lat":43.22924,"lon":5.35371,"is_reserved":false,"is_disabled":false,"rental_uris":{"android":"levelo://app?vid=d5ddbfd8-c695-45c7-8f75-3f1b7776c13d","ios":"levelo://app?vid=d5ddbfd8-c695-45c7-8f75-3f1b7776c13d"},"vehicle_type_id":"4","last_reported":1735308459,"current_range_meters":28400,"station_id":"cpo3532slgdg3j2ikp40","pricing_plan_id":"cebpf4jnsgd1na2vs0mg"},{"bike_id":"59e07e0f-0ffc-4b9f-be37-e8870a48ad28","system_id":"levelo_inurba_marseille","lat":43.25816,"lon":5.39434,"is_reserved":false,"is_disabled":false,"rental_uris":{"android":"levelo://app?vid=59e07e0f-0ffc-4b9f-be37-e8870a48ad28","ios":"levelo://app?vid=59e07e0f-0ffc-4b9f-be37-e8870a48ad28"},"vehicle_type_id":"4","last_reported":1735308459,"current_range_meters":14400,"station_id":"ce4bhip2rcd13ifvqft0","pricing_plan_id":"cebpf4jnsgd1na2vs0mg"},{"bike_id":"30e6c0a6-8073-452c-9bff-4470ff1055af","system_id":"levelo_inurba_marseille","lat":43.28423,"lon":5.34981,"is_reserved":false,"is_disabled":false,"rental_uris":{"android":"levelo://app?vid=30e6c0a6-8073-452c-9bff-4470ff1055af","ios":"levelo://app?vid=30e6c0a6-8073-452c-9bff-4470ff1055af"},"vehicle_type_id":"4","last_reported":1735308459,"current_range_meters":20000,"station_id":"ce4bhbh2rcd13ifvqepg","pricing_plan_id":"cebpf4jnsgd1na2vs0mg"},{"bike_id":"e6278b4f-c638-433f-b5de-bcd45d589e8f","system_id":"levelo_inurba_marseille","lat":43.29026,"lon":5.37565,"is_reserved":false,"is_disabled":false,"rental_uris":{"android":"levelo://app?vid=e6278b4f-c638-433f-b5de-bcd45d589e8f","ios":"levelo://app?vid=e6278b4f-c638-433f-b5de-bcd45d589e8f"},"vehicle_type_id":"4","last_reported":1735308459,"current_range_meters":39200,"station_id":"ce4bh692rcd13ifvqe90","pricing_plan_id":"cebpf4jnsgd1na2vs0mg"},{"bike_id":"5477d212-35e2-4622-b27a-bfe5ff434d03","system_id":"levelo_inurba_marseille","lat":43.337603,"lon":5.374424,"is_reserved":false,"is_disabled":false,"rental_uris":{"android":"levelo://app?vid=5477d212-35e2-4622-b27a-bfe5ff434d03","ios":"levelo://app?vid=5477d212-35e2-4622-b27a-bfe5ff434d03"},"vehicle_type_id":"4","last_reported":1735308459,"current_range_meters":29600,"station_id":"","pricing_plan_id":"cebpf4jnsgd1na2vs0mg"},{"bike_id":"57151d96-7e57-49ce-8dfd-99102322f915","system_id":"levelo_inurba_marseille","lat":43.260277,"lon":5.375567,"is_reserved":false,"is_disabled":false,"rental_uris":{"android":"levelo://app?vid=57151d96-7e57-49ce-8dfd-99102322f915","ios":"levelo://app?vid=57151d96-7e57-49ce-8dfd-99102322f915"},"vehicle_type_id":"4","last_reported":1735308459,"current_range_meters":28000,"station_id":"ce4bhgh2rcd13ifvqfa0","pricing_plan_id":"cebpf4jnsgd1na2vs0mg"},{"bike_id":"0a8e39f0-6e11-481d-b026-38145360f4e7","system_id":"levelo_inurba_marseille","lat":43.27305,"lon":5.39128,"is_reserved":false,"is_disabled":false,"rental_uris":{"android":"levelo://app?vid=0a8e39f0-6e11-481d-b026-38145360f4e7","ios":"levelo://app?vid=0a8e39f0-6e11-481d-b026-38145360f4e7"},"vehicle_type_id":"4","last_reported":1735308459,"current_range_meters":36000,"station_id":"ce4bhgp2rcd13ifvqfe0","pricing_plan_id":"cebpf4jnsgd1na2vs0mg"},{"bike_id":"b3202def-da0b-4ad3-b2d6-53e83d3a2473","system_id":"levelo_inurba_marseille","lat":43.29705,"lon":5.37704,"is_reserved":false,"is_disabled":false,"rental_uris":{"android":"levelo://app?vid=b3202def-da0b-4ad3-b2d6-53e83d3a2473","ios":"levelo://app?vid=b3202def-da0b-4ad3-b2d6-53e83d3a2473"},"vehicle_type_id":"4","last_reported":1735308459,"current_range_meters":22400,"station_id":"ce4bgkh2rcd13ifvqbl0","pricing_plan_id":"cebpf4jnsgd1na2vs0mg"},{"bike_id":"d051bf13-7445-45ad-86d7-0bc2c858622c","system_id":"levelo_inurba_marseille","lat":43.29192,"lon":5.35793,"is_reserved":false,"is_disabled":false,"rental_uris":{"android":"levelo://app?vid=d051bf13-7445-45ad-86d7-0bc2c858622c","ios":"levelo://app?vid=d051bf13-7445-45ad-86d7-0bc2c858622c"},"vehicle_type_id":"4","last_reported":1735308459,"current_range_meters":23200,"station_id":"ce4bhb12rcd13ifvqel0","pricing_plan_id":"cebpf4jnsgd1na2vs0mg"},{"bike_id":"1786334d-2721-40c5-be60-f94ab6a924f7","system_id":"levelo_inurba_marseille","lat":43.26198,"lon":5.379256,"is_reserved":false,"is_disabled":false,"rental_uris":{"android":"levelo://app?vid=1786334d-2721-40c5-be60-f94ab6a924f7","ios":"levelo://app?vid=1786334d-2721-40c5-be60-f94ab6a924f7"},"vehicle_type_id":"4","last_reported":1735308459,"current_range_meters":39200,"station_id":"ce4bhjp2rcd13ifvqg90","pricing_plan_id":"cebpf4jnsgd1na2vs0mg"},{"bike_id":"e5f82e7d-a5f8-4fe8-bb0b-deff16b79097","system_id":"levelo_inurba_marseille","lat":43.3025,"lon":5.40072,"is_reserved":false,"is_disabled":false,"rental_uris":{"android":"levelo://app?vid=e5f82e7d-a5f8-4fe8-bb0b-deff16b79097","ios":"levelo://app?vid=e5f82e7d-a5f8-4fe8-bb0b-deff16b79097"},"vehicle_type_id":"4","last_reported":1735308459,"current_range_meters":36400,"station_id":"ce4bgvh2rcd13ifvqcs0","pricing_plan_id":"cebpf4jnsgd1na2vs0mg"},{"bike_id":"25d352db-68ac-4e8d-94ad-94f606cff092","system_id":"levelo_inurba_marseille","lat":43.30549,"lon":5.36544,"is_reserved":false,"is_disabled":false,"rental_uris":{"android":"levelo://app?vid=25d352db-68ac-4e8d-94ad-94f606cff092","ios":"levelo://app?vid=25d352db-68ac-4e8d-94ad-94f606cff092"},"vehicle_type_id":"4","last_reported":1735308459,"current_range_meters":34000,"station_id":"ce4bgs12rcd13ifvqcag","pricing_plan_id":"cebpf4jnsgd1na2vs0mg"},{"bike_id":"34a1d328-c1ee-4745-820e-42dccfd88d49","system_id":"levelo_inurba_marseille","lat":43.30428,"lon":5.39755,"is_reserved":false,"is_disabled":false,"rental_uris":{"android":"levelo://app?vid=34a1d328-c1ee-4745-820e-42dccfd88d49","ios":"levelo://app?vid=34a1d328-c1ee-4745-820e-42dccfd88d49"},"vehicle_type_id":"4","last_reported":1735308459,"current_range_meters":26800,"station_id":"ce4bh092rcd13ifvqd20","pricing_plan_id":"cebpf4jnsgd1na2vs0mg"},{"bike_id":"4c561fe5-8cf0-4c70-befb-f4afd4dc4933","system_id":"levelo_inurba_marseille","lat":43.29043,"lon":5.37576,"is_reserved":false,"is_disabled":false,"rental_uris":{"android":"levelo://app?vid=4c561fe5-8cf0-4c70-befb-f4afd4dc4933","ios":"levelo://app?vid=4c561fe5-8cf0-4c70-befb-f4afd4dc4933"},"vehicle_type_id":"4","last_reported":1735308459,"current_range_meters":38800,"station_id":"ce4bh692rcd13ifvqe90","pricing_plan_id":"cebpf4jnsgd1na2vs0mg"},{"bike_id":"a32cd1e7-cc87-4292-9d06-455d298daf7c","system_id":"levelo_inurba_marseille","lat":43.304206,"lon":5.397491,"is_reserved":false,"is_disabled":false,"rental_uris":{"android":"levelo://app?vid=a32cd1e7-cc87-4292-9d06-455d298daf7c","ios":"levelo://app?vid=a32cd1e7-cc87-4292-9d06-455d298daf7c"},"vehicle_type_id":"4","last_reported":1735308459,"current_range_meters":38000,"station_id":"ce4bh092rcd13ifvqd20","pricing_plan_id":"cebpf4jnsgd1na2vs0mg"},{"bike_id":"294562ad-8566-45c0-94df-3d7c657064da","system_id":"levelo_inurba_marseille","lat":43.29617,"lon":5.37726,"is_reserved":false,"is_disabled":false,"rental_uris":{"android":"levelo://app?vid=294562ad-8566-45c0-94df-3d7c657064da","ios":"levelo://app?vid=294562ad-8566-45c0-94df-3d7c657064da"},"vehicle_type_id":"4","last_reported":1735308459,"current_range_meters":25200,"station_id":"ce4bgi92rcd13ifvqb90","pricing_plan_id":"cebpf4jnsgd1na2vs0mg"},{"bike_id":"28bd3904-ffcb-4595-8c51-c947161caafc","system_id":"levelo_inurba_marseille","lat":43.29611,"lon":5.3772,"is_reserved":false,"is_disabled":false,"rental_uris":{"android":"levelo://app?vid=28bd3904-ffcb-4595-8c51-c947161caafc","ios":"levelo://app?vid=28bd3904-ffcb-4595-8c51-c947161caafc"},"vehicle_type_id":"4","last_reported":1735308459,"current_range_meters":22000,"station_id":"ce4bgi92rcd13ifvqb90","pricing_plan_id":"cebpf4jnsgd1na2vs0mg"},{"bike_id":"f304224e-bd64-42ce-af73-a4d0c50d08e4","system_id":"levelo_inurba_marseille","lat":43.29853,"lon":5.36279,"is_reserved":false,"is_disabled":false,"rental_uris":{"android":"levelo://app?vid=f304224e-bd64-42ce-af73-a4d0c50d08e4","ios":"levelo://app?vid=f304224e-bd64-42ce-af73-a4d0c50d08e4"},"vehicle_type_id":"4","last_reported":1735308459,"current_range_meters":38000,"station_id":"ce4bgpp2rcd13ifvqc3g","pricing_plan_id":"cebpf4jnsgd1na2vs0mg"},{"bike_id":"66a71b38-1b38-41f2-b33a-36bd30d82075","system_id":"levelo_inurba_marseille","lat":43.29699,"lon":5.37293,"is_reserved":false,"is_disabled":false,"rental_uris":{"android":"levelo://app?vid=66a71b38-1b38-41f2-b33a-36bd30d82075","ios":"levelo://app?vid=66a71b38-1b38-41f2-b33a-36bd30d82075"},"vehicle_type_id":"4","last_reported":1735308459,"current_range_meters":28000,"station_id":"ce4bgk12rcd13ifvqbj0","pricing_plan_id":"cebpf4jnsgd1na2vs0mg"},{"bike_id":"b450c364-4a2c-4300-a269-383ecd16a3f7","system_id":"levelo_inurba_marseille","lat":43.27699,"lon":5.40752,"is_reserved":false,"is_disabled":false,"rental_uris":{"android":"levelo://app?vid=b450c364-4a2c-4300-a269-383ecd16a3f7","ios":"levelo://app?vid=b450c364-4a2c-4300-a269-383ecd16a3f7"},"vehicle_type_id":"4","last_reported":1735308459,"current_range_meters":24400,"station_id":"","pricing_plan_id":"cebpf4jnsgd1na2vs0mg"},{"bike_id":"3961f130-2a72-44bb-9639-a46a323141fd","system_id":"levelo_inurba_marseille","lat":43.28264,"lon":5.35072,"is_reserved":false,"is_disabled":false,"rental_uris":{"android":"levelo://app?vid=3961f130-2a72-44bb-9639-a46a323141fd","ios":"levelo://app?vid=3961f130-2a72-44bb-9639-a46a323141fd"},"vehicle_type_id":"4","last_reported":1735308459,"current_range_meters":38800,"station_id":"ce4bhbp2rcd13ifvqerg","pricing_plan_id":"cebpf4jnsgd1na2vs0mg"},{"bike_id":"8f2a6914-bba4-4ace-a8cf-6c59b4633c74","system_id":"levelo_inurba_marseille","lat":43.27613,"lon":5.36099,"is_reserved":false,"is_disabled":true,"rental_uris":{"android":"levelo://app?vid=8f2a6914-bba4-4ace-a8cf-6c59b4633c74","ios":"levelo://app?vid=8f2a6914-bba4-4ace-a8cf-6c59b4633c74"},"vehicle_type_id":"4","last_reported":1735308459,"current_range_meters":17600,"station_id":"ce4bgj92rcd13ifvqbe0","pricing_plan_id":"cebpf4jnsgd1na2vs0mg"},{"bike_id":"9e7f76ae-6412-4324-b65a-77b9d7097865","system_id":"levelo_inurba_marseille","lat":43.26209,"lon":5.37445,"is_reserved":false,"is_disabled":false,"rental_uris":{"android":"levelo://app?vid=9e7f76ae-6412-4324-b65a-77b9d7097865","ios":"levelo://app?vid=9e7f76ae-6412-4324-b65a-77b9d7097865"},"vehicle_type_id":"4","last_reported":1735308459,"current_range_meters":12000,"station_id":"ce4bhgp2rcd13ifvqfc0","pricing_plan_id":"cebpf4jnsgd1na2vs0mg"},{"bike_id":"421c6551-132c-4015-aab8-f2eccc5315e9","system_id":"levelo_inurba_marseille","lat":43.318829,"lon":5.40739,"is_reserved":false,"is_disabled":false,"rental_uris":{"android":"levelo://app?vid=421c6551-132c-4015-aab8-f2eccc5315e9","ios":"levelo://app?vid=421c6551-132c-4015-aab8-f2eccc5315e9"},"vehicle_type_id":"4","last_reported":1735308459,"current_range_meters":2800,"station_id":"ce4bhq12rcd13ifvqhig","pricing_plan_id":"cebpf4jnsgd1na2vs0mg"},{"bike_id":"62fbeee0-2418-4e49-84cb-878150dffed7","system_id":"levelo_inurba_marseille","lat":43.29564,"lon":5.37508,"is_reserved":false,"is_disabled":false,"rental_uris":{"android":"levelo://app?vid=62fbeee0-2418-4e49-84cb-878150dffed7","ios":"levelo://app?vid=62fbeee0-2418-4e49-84cb-878150dffed7"},"vehicle_type_id":"4","last_reported":1735308459,"current_range_meters":28000,"station_id":"ce4bgh92rcd13ifvqb50","pricing_plan_id":"cebpf4jnsgd1na2vs0mg"},{"bike_id":"ecc3069f-ed87-41d9-ac7d-367b2e369d31","system_id":"levelo_inurba_marseille","lat":43.29259,"lon":5.38442,"is_reserved":false,"is_disabled":false,"rental_uris":{"android":"levelo://app?vid=ecc3069f-ed87-41d9-ac7d-367b2e369d31","ios":"levelo://app?vid=ecc3069f-ed87-41d9-ac7d-367b2e369d31"},"vehicle_type_id":"4","last_reported":1735308459,"current_range_meters":22000,"station_id":"ce4bh692rcd13ifvqea0","pricing_plan_id":"cebpf4jnsgd1na2vs0mg"},{"bike_id":"b54f3533-e3d4-4e83-a9a5-549d19173afe","system_id":"levelo_inurba_marseille","lat":43.2978,"lon":5.37098,"is_reserved":false,"is_disabled":false,"rental_uris":{"android":"levelo://app?vid=b54f3533-e3d4-4e83-a9a5-549d19173afe","ios":"levelo://app?vid=b54f3533-e3d4-4e83-a9a5-549d19173afe"},"vehicle_type_id":"4","last_reported":1735308459,"current_range_meters":38800,"station_id":"ce4bgop2rcd13ifvqc1g","pricing_plan_id":"cebpf4jnsgd1na2vs0mg"},{"bike_id":"522d2191-517f-43ee-a1d2-4adc54e3bdc3","system_id":"levelo_inurba_marseille","lat":43.26195,"lon":5.37449,"is_reserved":false,"is_disabled":false,"rental_uris":{"android":"levelo://app?vid=522d2191-517f-43ee-a1d2-4adc54e3bdc3","ios":"levelo://app?vid=522d2191-517f-43ee-a1d2-4adc54e3bdc3"},"vehicle_type_id":"4","last_reported":1735308459,"current_range_meters":30000,"station_id":"ce4bhgp2rcd13ifvqfc0","pricing_plan_id":"cebpf4jnsgd1na2vs0mg"},{"bike_id":"9b033979-22fb-4fbe-862b-12b59af70025","system_id":"levelo_inurba_marseille","lat":43.23054,"lon":5.35494,"is_reserved":false,"is_disabled":false,"rental_uris":{"android":"levelo://app?vid=9b033979-22fb-4fbe-862b-12b59af70025","ios":"levelo://app?vid=9b033979-22fb-4fbe-862b-12b59af70025"},"vehicle_type_id":"4","last_reported":1735308459,"current_range_meters":32800,"station_id":"cpo3342slgdg3j2ifvpg","pricing_plan_id":"cebpf4jnsgd1na2vs0mg"},{"bike_id":"55607653-1a8c-42bf-be2a-e1dc027812e5","system_id":"levelo_inurba_marseille","lat":43.28845,"lon":5.39311,"is_reserved":false,"is_disabled":false,"rental_uris":{"android":"levelo://app?vid=55607653-1a8c-42bf-be2a-e1dc027812e5","ios":"levelo://app?vid=55607653-1a8c-42bf-be2a-e1dc027812e5"},"vehicle_type_id":"4","last_reported":1735308459,"current_range_meters":16800,"station_id":"ce4bh2p2rcd13ifvqdi0","pricing_plan_id":"cebpf4jnsgd1na2vs0mg"},{"bike_id":"ffa38dfd-3feb-4380-b4af-c248fd430ebf","system_id":"levelo_inurba_marseille","lat":43.29295,"lon":5.37464,"is_reserved":false,"is_disabled":false,"rental_uris":{"android":"levelo://app?vid=ffa38dfd-3feb-4380-b4af-c248fd430ebf","ios":"levelo://app?vid=ffa38dfd-3feb-4380-b4af-c248fd430ebf"},"vehicle_type_id":"4","last_reported":1735308459,"current_range_meters":17600,"station_id":"ce4bgi12rcd13ifvqb70","pricing_plan_id":"cebpf4jnsgd1na2vs0mg"},{"bike_id":"f91d41be-51ed-459c-b67e-2e7259fde805","system_id":"levelo_inurba_marseille","lat":43.26922,"lon":5.38914,"is_reserved":false,"is_disabled":false,"rental_uris":{"android":"levelo://app?vid=f91d41be-51ed-459c-b67e-2e7259fde805","ios":"levelo://app?vid=f91d41be-51ed-459c-b67e-2e7259fde805"},"vehicle_type_id":"4","last_reported":1735308459,"current_range_meters":38800,"station_id":"ce4bhhh2rcd13ifvqfl0","pricing_plan_id":"cebpf4jnsgd1na2vs0mg"},{"bike_id":"28614f0f-83c7-4a5e-aa82-6698d8d0f203","system_id":"levelo_inurba_marseille","lat":43.24804,"lon":5.37452,"is_reserved":false,"is_disabled":false,"rental_uris":{"android":"levelo://app?vid=28614f0f-83c7-4a5e-aa82-6698d8d0f203","ios":"levelo://app?vid=28614f0f-83c7-4a5e-aa82-6698d8d0f203"},"vehicle_type_id":"4","last_reported":1735308459,"current_range_meters":38800,"station_id":"ce4bhgh2rcd13ifvqfb0","pricing_plan_id":"cebpf4jnsgd1na2vs0mg"},{"bike_id":"3fd0ce8b-62e5-482c-86d5-ed88c92ffef8","system_id":"levelo_inurba_marseille","lat":43.27411,"lon":5.394,"is_reserved":false,"is_disabled":false,"rental_uris":{"android":"levelo://app?vid=3fd0ce8b-62e5-482c-86d5-ed88c92ffef8","ios":"levelo://app?vid=3fd0ce8b-62e5-482c-86d5-ed88c92ffef8"},"vehicle_type_id":"4","last_reported":1735308459,"current_range_meters":16800,"station_id":"ce4bhdp2rcd13ifvqf20","pricing_plan_id":"cebpf4jnsgd1na2vs0mg"},{"bike_id":"c9e5d6c6-5601-4769-be5c-20fef93ca121","system_id":"levelo_inurba_marseille","lat":43.2417,"lon":5.36385,"is_reserved":false,"is_disabled":false,"rental_uris":{"android":"levelo://app?vid=c9e5d6c6-5601-4769-be5c-20fef93ca121","ios":"levelo://app?vid=c9e5d6c6-5601-4769-be5c-20fef93ca121"},"vehicle_type_id":"4","last_reported":1735308459,"current_range_meters":22800,"station_id":"cpo36qri1sfpv3e86is0","pricing_plan_id":"cebpf4jnsgd1na2vs0mg"},{"bike_id":"9b33aced-f9c2-4eab-84ad-f850ec5607a5","system_id":"levelo_inurba_marseille","lat":43.27049,"lon":5.40265,"is_reserved":false,"is_disabled":false,"rental_uris":{"android":"levelo://app?vid=9b33aced-f9c2-4eab-84ad-f850ec5607a5","ios":"levelo://app?vid=9b33aced-f9c2-4eab-84ad-f850ec5607a5"},"vehicle_type_id":"4","last_reported":1735308459,"current_range_meters":38000,"station_id":"ce4bhk92rcd13ifvqgc0","pricing_plan_id":"cebpf4jnsgd1na2vs0mg"},{"bike_id":"69965e05-3ff1-4807-a3fd-18bc35fa9075","system_id":"levelo_inurba_marseille","lat":43.29028,"lon":5.38152,"is_reserved":false,"is_disabled":false,"rental_uris":{"android":"levelo://app?vid=69965e05-3ff1-4807-a3fd-18bc35fa9075","ios":"levelo://app?vid=69965e05-3ff1-4807-a3fd-18bc35fa9075"},"vehicle_type_id":"4","last_reported":1735308459,"current_range_meters":38800,"station_id":"ce4bh4p2rcd13ifvqe1g","pricing_plan_id":"cebpf4jnsgd1na2vs0mg"},{"bike_id":"8dc0edca-2d83-43db-b2b6-d78e1244e192","system_id":"levelo_inurba_marseille","lat":43.23055,"lon":5.35497,"is_reserved":false,"is_disabled":false,"rental_uris":{"android":"levelo://app?vid=8dc0edca-2d83-43db-b2b6-d78e1244e192","ios":"levelo://app?vid=8dc0edca-2d83-43db-b2b6-d78e1244e192"},"vehicle_type_id":"4","last_reported":1735308459,"current_range_meters":8000,"station_id":"cpo3342slgdg3j2ifvpg","pricing_plan_id":"cebpf4jnsgd1na2vs0mg"},{"bike_id":"36a76f4a-f3e1-4715-b874-c20e7811aa38","system_id":"levelo_inurba_marseille","lat":43.30887,"lon":5.37191,"is_reserved":false,"is_disabled":false,"rental_uris":{"android":"levelo://app?vid=36a76f4a-f3e1-4715-b874-c20e7811aa38","ios":"levelo://app?vid=36a76f4a-f3e1-4715-b874-c20e7811aa38"},"vehicle_type_id":"4","last_reported":1735308459,"current_range_meters":34800,"station_id":"ce4bguh2rcd13ifvqckg","pricing_plan_id":"cebpf4jnsgd1na2vs0mg"},{"bike_id":"81e73dc8-5c25-4ac8-b54e-5e9eb0d86ec7","system_id":"levelo_inurba_marseille","lat":43.298455,"lon":5.362792,"is_reserved":false,"is_disabled":false,"rental_uris":{"android":"levelo://app?vid=81e73dc8-5c25-4ac8-b54e-5e9eb0d86ec7","ios":"levelo://app?vid=81e73dc8-5c25-4ac8-b54e-5e9eb0d86ec7"},"vehicle_type_id":"4","last_reported":1735308459,"current_range_meters":29600,"station_id":"ce4bgpp2rcd13ifvqc3g","pricing_plan_id":"cebpf4jnsgd1na2vs0mg"},{"bike_id":"ce06d800-94a9-426b-a30a-462c03b8d0e0","system_id":"levelo_inurba_marseille","lat":43.27374,"lon":5.36266,"is_reserved":false,"is_disabled":false,"rental_uris":{"android":"levelo://app?vid=ce06d800-94a9-426b-a30a-462c03b8d0e0","ios":"levelo://app?vid=ce06d800-94a9-426b-a30a-462c03b8d0e0"},"vehicle_type_id":"4","last_reported":1735308459,"current_range_meters":32000,"station_id":"ce4bhbh2rcd13ifvqeo0","pricing_plan_id":"cebpf4jnsgd1na2vs0mg"},{"bike_id":"e6ab2031-fd71-4eaa-840b-95f020640a17","system_id":"levelo_inurba_marseille","lat":43.29712,"lon":5.36611,"is_reserved":false,"is_disabled":false,"rental_uris":{"android":"levelo://app?vid=e6ab2031-fd71-4eaa-840b-95f020640a17","ios":"levelo://app?vid=e6ab2031-fd71-4eaa-840b-95f020640a17"},"vehicle_type_id":"4","last_reported":1735308459,"current_range_meters":38000,"station_id":"ce4bgn12rcd13ifvqbt0","pricing_plan_id":"cebpf4jnsgd1na2vs0mg"},{"bike_id":"772f8c90-106c-4dd1-81fc-372dfa7d2ea9","system_id":"levelo_inurba_marseille","lat":43.27661,"lon":5.38889,"is_reserved":false,"is_disabled":false,"rental_uris":{"android":"levelo://app?vid=772f8c90-106c-4dd1-81fc-372dfa7d2ea9","ios":"levelo://app?vid=772f8c90-106c-4dd1-81fc-372dfa7d2ea9"},"vehicle_type_id":"4","last_reported":1735308459,"current_range_meters":27600,"station_id":"ce4bhi12rcd13ifvqfo0","pricing_plan_id":"cebpf4jnsgd1na2vs0mg"},{"bike_id":"4125345e-e251-4246-8362-7f93eea4fbfe","system_id":"levelo_inurba_marseille","lat":43.30532,"lon":5.3654,"is_reserved":false,"is_disabled":false,"rental_uris":{"android":"levelo://app?vid=4125345e-e251-4246-8362-7f93eea4fbfe","ios":"levelo://app?vid=4125345e-e251-4246-8362-7f93eea4fbfe"},"vehicle_type_id":"4","last_reported":1735308459,"current_range_meters":28400,"station_id":"ce4bgs12rcd13ifvqcag","pricing_plan_id":"cebpf4jnsgd1na2vs0mg"},{"bike_id":"416ba99e-1bb9-405f-a8e0-6899c73a3d41","system_id":"levelo_inurba_marseille","lat":43.26562,"lon":5.39031,"is_reserved":false,"is_disabled":false,"rental_uris":{"android":"levelo://app?vid=416ba99e-1bb9-405f-a8e0-6899c73a3d41","ios":"levelo://app?vid=416ba99e-1bb9-405f-a8e0-6899c73a3d41"},"vehicle_type_id":"4","last_reported":1735308459,"current_range_meters":38800,"station_id":"ce4bhe12rcd13ifvqf30","pricing_plan_id":"cebpf4jnsgd1na2vs0mg"},{"bike_id":"8748b2e0-73dd-4e3e-98d4-c750871aaaa3","system_id":"levelo_inurba_marseille","lat":43.30352,"lon":5.41895,"is_reserved":false,"is_disabled":false,"rental_uris":{"android":"levelo://app?vid=8748b2e0-73dd-4e3e-98d4-c750871aaaa3","ios":"levelo://app?vid=8748b2e0-73dd-4e3e-98d4-c750871aaaa3"},"vehicle_type_id":"4","last_reported":1735308459,"current_range_meters":38400,"station_id":"ce4bhop2rcd13ifvqh7g","pricing_plan_id":"cebpf4jnsgd1na2vs0mg"},{"bike_id":"deb74dd6-caed-4958-9dd1-d5f6f39c849d","system_id":"levelo_inurba_marseille","lat":43.29913,"lon":5.36388,"is_reserved":false,"is_disabled":false,"rental_uris":{"android":"levelo://app?vid=deb74dd6-caed-4958-9dd1-d5f6f39c849d","ios":"levelo://app?vid=deb74dd6-caed-4958-9dd1-d5f6f39c849d"},"vehicle_type_id":"4","last_reported":1735308459,"current_range_meters":30000,"station_id":"","pricing_plan_id":"cebpf4jnsgd1na2vs0mg"},{"bike_id":"c9c69409-09d8-4c5f-9a2a-29415ca3afc2","system_id":"levelo_inurba_marseille","lat":43.29843,"lon":5.36278,"is_reserved":false,"is_disabled":false,"rental_uris":{"android":"levelo://app?vid=c9c69409-09d8-4c5f-9a2a-29415ca3afc2","ios":"levelo://app?vid=c9c69409-09d8-4c5f-9a2a-29415ca3afc2"},"vehicle_type_id":"4","last_reported":1735308459,"current_range_meters":29600,"station_id":"ce4bgpp2rcd13ifvqc3g","pricing_plan_id":"cebpf4jnsgd1na2vs0mg"},{"bike_id":"41becbe0-31ce-4941-828d-b4e44498a200","system_id":"levelo_inurba_marseille","lat":43.30301,"lon":5.36909,"is_reserved":false,"is_disabled":false,"rental_uris":{"android":"levelo://app?vid=41becbe0-31ce-4941-828d-b4e44498a200","ios":"levelo://app?vid=41becbe0-31ce-4941-828d-b4e44498a200"},"vehicle_type_id":"4","last_reported":1735308459,"current_range_meters":38800,"station_id":"ce4bgqh2rcd13ifvqc5g","pricing_plan_id":"cebpf4jnsgd1na2vs0mg"},{"bike_id":"cfa6fa81-7b2e-446e-a9e7-239fc840bb22","system_id":"levelo_inurba_marseille","lat":43.29518,"lon":5.37508,"is_reserved":false,"is_disabled":false,"rental_uris":{"android":"levelo://app?vid=cfa6fa81-7b2e-446e-a9e7-239fc840bb22","ios":"levelo://app?vid=cfa6fa81-7b2e-446e-a9e7-239fc840bb22"},"vehicle_type_id":"4","last_reported":1735308459,"current_range_meters":38800,"station_id":"ce4bgkp2rcd13ifvqbmg","pricing_plan_id":"cebpf4jnsgd1na2vs0mg"},{"bike_id":"3015b0e3-9e1c-44bb-be1b-43e3357b2143","system_id":"levelo_inurba_marseille","lat":43.31752,"lon":5.39019,"is_reserved":false,"is_disabled":false,"rental_uris":{"android":"levelo://app?vid=3015b0e3-9e1c-44bb-be1b-43e3357b2143","ios":"levelo://app?vid=3015b0e3-9e1c-44bb-be1b-43e3357b2143"},"vehicle_type_id":"4","last_reported":1735308459,"current_range_meters":24800,"station_id":"ce4bhqp2rcd13ifvqhng","pricing_plan_id":"cebpf4jnsgd1na2vs0mg"},{"bike_id":"a1c9af49-1121-45a0-9403-8da49a14b00d","system_id":"levelo_inurba_marseille","lat":43.26949,"lon":5.38678,"is_reserved":false,"is_disabled":false,"rental_uris":{"android":"levelo://app?vid=a1c9af49-1121-45a0-9403-8da49a14b00d","ios":"levelo://app?vid=a1c9af49-1121-45a0-9403-8da49a14b00d"},"vehicle_type_id":"4","last_reported":1735308459,"current_range_meters":19200,"station_id":"ce4bhh92rcd13ifvqfh0","pricing_plan_id":"cebpf4jnsgd1na2vs0mg"},{"bike_id":"366b8a1c-5775-4f3a-8550-c9fceeab4b80","system_id":"levelo_inurba_marseille","lat":43.30183,"lon":5.36622,"is_reserved":false,"is_disabled":false,"rental_uris":{"android":"levelo://app?vid=366b8a1c-5775-4f3a-8550-c9fceeab4b80","ios":"levelo://app?vid=366b8a1c-5775-4f3a-8550-c9fceeab4b80"},"vehicle_type_id":"4","last_reported":1735308459,"current_range_meters":36800,"station_id":"ce4bgrh2rcd13ifvqc8g","pricing_plan_id":"cebpf4jnsgd1na2vs0mg"},{"bike_id":"674318a0-587e-4d0e-84cb-7dd16631fc90","system_id":"levelo_inurba_marseille","lat":43.33609,"lon":5.41038,"is_reserved":false,"is_disabled":false,"rental_uris":{"android":"levelo://app?vid=674318a0-587e-4d0e-84cb-7dd16631fc90","ios":"levelo://app?vid=674318a0-587e-4d0e-84cb-7dd16631fc90"},"vehicle_type_id":"4","last_reported":1735308459,"current_range_meters":38800,"station_id":"ce4bhqh2rcd13ifvqhmg","pricing_plan_id":"cebpf4jnsgd1na2vs0mg"},{"bike_id":"491a606a-5a0e-411b-9789-9c74b8b5e4f2","system_id":"levelo_inurba_marseille","lat":43.25825,"lon":5.39455,"is_reserved":false,"is_disabled":false,"rental_uris":{"android":"levelo://app?vid=491a606a-5a0e-411b-9789-9c74b8b5e4f2","ios":"levelo://app?vid=491a606a-5a0e-411b-9789-9c74b8b5e4f2"},"vehicle_type_id":"4","last_reported":1735308459,"current_range_meters":38400,"station_id":"ce4bhip2rcd13ifvqft0","pricing_plan_id":"cebpf4jnsgd1na2vs0mg"},{"bike_id":"dac94ecf-3203-4c89-acc0-21c14e979588","system_id":"levelo_inurba_marseille","lat":43.26722,"lon":5.38251,"is_reserved":false,"is_disabled":false,"rental_uris":{"android":"levelo://app?vid=dac94ecf-3203-4c89-acc0-21c14e979588","ios":"levelo://app?vid=dac94ecf-3203-4c89-acc0-21c14e979588"},"vehicle_type_id":"4","last_reported":1735308459,"current_range_meters":35600,"station_id":"ce4bhg92rcd13ifvqf90","pricing_plan_id":"cebpf4jnsgd1na2vs0mg"},{"bike_id":"f0cafae0-f29d-4301-add9-cbd6aefdfe71","system_id":"levelo_inurba_marseille","lat":43.27072,"lon":5.42275,"is_reserved":false,"is_disabled":false,"rental_uris":{"android":"levelo://app?vid=f0cafae0-f29d-4301-add9-cbd6aefdfe71","ios":"levelo://app?vid=f0cafae0-f29d-4301-add9-cbd6aefdfe71"},"vehicle_type_id":"4","last_reported":1735308459,"current_range_meters":28400,"station_id":"ce4bhk92rcd13ifvqgb0","pricing_plan_id":"cebpf4jnsgd1na2vs0mg"},{"bike_id":"dcf7e4b7-8fe2-46b3-a225-7933cc962569","system_id":"levelo_inurba_marseille","lat":43.31212,"lon":5.38707,"is_reserved":false,"is_disabled":false,"rental_uris":{"android":"levelo://app?vid=dcf7e4b7-8fe2-46b3-a225-7933cc962569","ios":"levelo://app?vid=dcf7e4b7-8fe2-46b3-a225-7933cc962569"},"vehicle_type_id":"4","last_reported":1735308459,"current_range_meters":32800,"station_id":"ce4bgv12rcd13ifvqcp0","pricing_plan_id":"cebpf4jnsgd1na2vs0mg"},{"bike_id":"c35792fe-a7db-43e2-acae-2042c400859b","system_id":"levelo_inurba_marseille","lat":43.29976,"lon":5.38485,"is_reserved":false,"is_disabled":false,"rental_uris":{"android":"levelo://app?vid=c35792fe-a7db-43e2-acae-2042c400859b","ios":"levelo://app?vid=c35792fe-a7db-43e2-acae-2042c400859b"},"vehicle_type_id":"4","last_reported":1735308459,"current_range_meters":36400,"station_id":"ce4bgj92rcd13ifvqbd0","pricing_plan_id":"cebpf4jnsgd1na2vs0mg"},{"bike_id":"5b4d3f8e-90d7-4939-9ef9-4e665878e1bd","system_id":"levelo_inurba_marseille","lat":43.29305,"lon":5.37184,"is_reserved":false,"is_disabled":false,"rental_uris":{"android":"levelo://app?vid=5b4d3f8e-90d7-4939-9ef9-4e665878e1bd","ios":"levelo://app?vid=5b4d3f8e-90d7-4939-9ef9-4e665878e1bd"},"vehicle_type_id":"4","last_reported":1735308459,"current_range_meters":26000,"station_id":"ce4bgh92rcd13ifvqb40","pricing_plan_id":"cebpf4jnsgd1na2vs0mg"},{"bike_id":"8fc8be8f-0c81-4004-a54b-bcfa71f20968","system_id":"levelo_inurba_marseille","lat":43.32284,"lon":5.38264,"is_reserved":false,"is_disabled":false,"rental_uris":{"android":"levelo://app?vid=8fc8be8f-0c81-4004-a54b-bcfa71f20968","ios":"levelo://app?vid=8fc8be8f-0c81-4004-a54b-bcfa71f20968"},"vehicle_type_id":"4","last_reported":1735308459,"current_range_meters":38000,"station_id":"ce4bhr12rcd13ifvqhqg","pricing_plan_id":"cebpf4jnsgd1na2vs0mg"},{"bike_id":"59526d5c-60df-425d-b350-c52aa56c61a0","system_id":"levelo_inurba_marseille","lat":43.28609,"lon":5.37066,"is_reserved":false,"is_disabled":false,"rental_uris":{"android":"levelo://app?vid=59526d5c-60df-425d-b350-c52aa56c61a0","ios":"levelo://app?vid=59526d5c-60df-425d-b350-c52aa56c61a0"},"vehicle_type_id":"4","last_reported":1735308459,"current_range_meters":38800,"station_id":"ce4bht12rcd13ifvqi60","pricing_plan_id":"cebpf4jnsgd1na2vs0mg"},{"bike_id":"7b1c41a3-6a2e-4420-a856-9b0139eb480b","system_id":"levelo_inurba_marseille","lat":43.27496,"lon":5.4245,"is_reserved":false,"is_disabled":false,"rental_uris":{"android":"levelo://app?vid=7b1c41a3-6a2e-4420-a856-9b0139eb480b","ios":"levelo://app?vid=7b1c41a3-6a2e-4420-a856-9b0139eb480b"},"vehicle_type_id":"4","last_reported":1735308459,"current_range_meters":36800,"station_id":"ce4bhn92rcd13ifvqgrg","pricing_plan_id":"cebpf4jnsgd1na2vs0mg"},{"bike_id":"8161d291-8117-4d02-85d0-1cbcfba217f3","system_id":"levelo_inurba_marseille","lat":43.29309,"lon":5.37168,"is_reserved":false,"is_disabled":false,"rental_uris":{"android":"levelo://app?vid=8161d291-8117-4d02-85d0-1cbcfba217f3","ios":"levelo://app?vid=8161d291-8117-4d02-85d0-1cbcfba217f3"},"vehicle_type_id":"4","last_reported":1735308459,"current_range_meters":38800,"station_id":"ce4bgh92rcd13ifvqb40","pricing_plan_id":"cebpf4jnsgd1na2vs0mg"},{"bike_id":"6c8c8021-fb0d-44c0-b567-6ffbd94066ad","system_id":"levelo_inurba_marseille","lat":43.26063,"lon":5.39395,"is_reserved":false,"is_disabled":false,"rental_uris":{"android":"levelo://app?vid=6c8c8021-fb0d-44c0-b567-6ffbd94066ad","ios":"levelo://app?vid=6c8c8021-fb0d-44c0-b567-6ffbd94066ad"},"vehicle_type_id":"4","last_reported":1735308459,"current_range_meters":14800,"station_id":"ce4bhh92rcd13ifvqfj0","pricing_plan_id":"cebpf4jnsgd1na2vs0mg"},{"bike_id":"1975fedc-2fca-473f-9382-e4f3506e8f03","system_id":"levelo_inurba_marseille","lat":43.31691,"lon":5.40463,"is_reserved":false,"is_disabled":false,"rental_uris":{"android":"levelo://app?vid=1975fedc-2fca-473f-9382-e4f3506e8f03","ios":"levelo://app?vid=1975fedc-2fca-473f-9382-e4f3506e8f03"},"vehicle_type_id":"4","last_reported":1735308459,"current_range_meters":24800,"station_id":"ce4bh012rcd13ifvqd00","pricing_plan_id":"cebpf4jnsgd1na2vs0mg"},