{"last_updated":1730840912,"ttl":60,"version":"2.2","data":{"bikes":[{"bike_id":"2f303e9d-7400-40a4-a59c-f412d183bbe2","system_id":"levelo_inurba_marseille","lat":43.32363,"lon":5.3888,"is_reserved":false,"is_disabled":false,"rental_uris":{"android":"levelo://app?vid=2f303e9d-7400-40a4-a59c-f412d183bbe2","ios":"levelo://app?vid=2f303e9d-7400-40a4-a59c-f412d183bbe2"},"vehicle_type_id":"4","last_reported":1730840912,"current_range_meters":38800,"station_id":"ce4bhqp2rcd13ifvqhog","pricing_plan_id":"cebpf4jnsgd1na2vs0mg"},{"bike_id":"e983a3a2-b468-48ef-a374-a54128068ac7","system_id":"levelo_inurba_marseille","lat":43.33019,"lon":5.39037,"is_reserved":false,"is_disabled":false,"rental_uris":{"android":"levelo://app?vid=e983a3a2-b468-48ef-a374-a54128068ac7","ios":"levelo://app?vid=e983a3a2-b468-48ef-a374-a54128068ac7"},"vehicle_type_id":"4","last_reported":1730840912,"current_range_meters":28400,"station_id":"ce4bhr92rcd13ifvqhrg","pricing_plan_id":"cebpf4jnsgd1na2vs0mg"},{"bike_id":"bc869811-1aad-4ece-b858-9965c373b037","system_id":"levelo_inurba_marseille","lat":43.23158,"lon":5.43701,"is_reserved":false,"is_disabled":false,"rental_uris":{"android":"levelo://app?vid=bc869811-1aad-4ece-b858-9965c373b037","ios":"levelo://app?vid=bc869811-1aad-4ece-b858-9965c373b037"},"vehicle_type_id":"4","last_reported":1730840912,"current_range_meters":38800,"station_id":"ce4bhmp2rcd13ifvqgog","pricing_plan_id":"cebpf4jnsgd1na2vs0mg"},{"bike_id":"6ec4e730-c54a-4330-8601-6a8d69259da3","system_id":"levelo_inurba_marseille","lat":43.24067,"lon":5.37763,"is_reserved":false,"is_disabled":false,"rental_uris":{"android":"levelo://app?vid=6ec4e730-c54a-4330-8601-6a8d69259da3","ios":"levelo://app?vid=6ec4e730-c54a-4330-8601-6a8d69259da3"},"vehicle_type_id":"4","last_reported":1730840912,"current_range_meters":16800,"station_id":"ce4bhnp2rcd13ifvqgvg","pricing_plan_id":"cebpf4jnsgd1na2vs0mg"},{"bike_id":"d43d5285-f672-442b-81bf-c6b155099aef","system_id":"levelo_inurba_marseille","lat":43.29183,"lon":5.35783,"is_reserved":false,"is_disabled":false,"rental_uris":{"android":"levelo://app?vid=d43d5285-f672-442b-81bf-c6b155099aef","ios":"levelo://app?vid=d43d5285-f672-442b-81bf-c6b155099aef"},"vehicle_type_id":"4","last_reported":1730840912,"current_range_meters":16000,"station_id":"ce4bhb12rcd13ifvqel0","pricing_plan_id":"cebpf4jnsgd1na2vs0mg"},{"bike_id":"66e44f5c-a204-465a-ad96-13b05ee3452b","system_id":"levelo_inurba_marseille","lat":43.29634,"lon":5.406,"is_reserved":false,"is_disabled":false,"rental_uris":{"android":"levelo://app?vid=66e44f5c-a204-465a-ad96-13b05ee3452b","ios":"levelo://app?vid=66e44f5c-a204-465a-ad96-13b05ee3452b"},"vehicle_type_id":"4","last_reported":1730840912,"current_range_meters":38800,"station_id":"ce4bh0h2rcd13ifvqd60","pricing_plan_id":"cebpf4jnsgd1na2vs0mg"},{"bike_id":"26935c43-786c-4005-9088-a7cf195aa345","system_id":"levelo_inurba_marseille","lat":43.29036,"lon":5.35919,"is_reserved":false,"is_disabled":false,"rental_uris":{"android":"levelo://app?vid=26935c43-786c-4005-9088-a7cf195aa345","ios":"levelo://app?vid=26935c43-786c-4005-9088-a7cf195aa345"},"vehicle_type_id":"4","last_reported":1730840912,"current_range_meters":38800,"station_id":"ce4bha92rcd13ifvqeg0","pricing_plan_id":"cebpf4jnsgd1na2vs0mg"},{"bike_id":"029dd0e8-fda9-475b-bb89-169dc926aec2","system_id":"levelo_inurba_marseille","lat":43.2926,"lon":5.38437,"is_reserved":false,"is_disabled":false,"rental_uris":{"android":"levelo://app?vid=029dd0e8-fda9-475b-bb89-169dc926aec2","ios":"levelo://app?vid=029dd0e8-fda9-475b-bb89-169dc926aec2"},"vehicle_type_id":"4","last_reported":1730840912,"current_range_meters":38800,"station_id":"ce4bh692rcd13ifvqea0","pricing_plan_id":"cebpf4jnsgd1na2vs0mg"},{"bike_id":"7e9aea2b-0621-47d7-ae97-92ebc91aee95","system_id":"levelo_inurba_marseille","lat":43.2991,"lon":5.37476,"is_reserved":false,"is_disabled":false,"rental_uris":{"android":"levelo://app?vid=7e9aea2b-0621-47d7-ae97-92ebc91aee95","ios":"levelo://app?vid=7e9aea2b-0621-47d7-ae97-92ebc91aee95"},"vehicle_type_id":"4","last_reported":1730840912,"current_range_meters":6800,"station_id":"ce4bgjh2rcd13ifvqbg0","pricing_plan_id":"cebpf4jnsgd1na2vs0mg"},{"bike_id":"77b9b196-d0d9-435c-836a-42e5ac0ab4ac","system_id":"levelo_inurba_marseille","lat":43.27571,"lon":5.38411,"is_reserved":false,"is_disabled":false,"rental_uris":{"android":"levelo://app?vid=77b9b196-d0d9-435c-836a-42e5ac0ab4ac","ios":"levelo://app?vid=77b9b196-d0d9-435c-836a-42e5ac0ab4ac"},"vehicle_type_id":"4","last_reported":1730840912,"current_range_meters":14800,"station_id":"ce4bhh92rcd13ifvqfi0","pricing_plan_id":"cebpf4jnsgd1na2vs0mg"},{"bike_id":"ebe33179-e1dc-4a94-86fc-954f574b04d1","system_id":"levelo_inurba_marseille","lat":43.31529,"lon":5.3803,"is_reserved":false,"is_disabled":false,"rental_uris":{"android":"levelo://app?vid=ebe33179-e1dc-4a94-86fc-954f574b04d1","ios":"levelo://app?vid=ebe33179-e1dc-4a94-86fc-954f574b04d1"},"vehicle_type_id":"4","last_reported":1730840912,"current_range_meters":31200,"station_id":"ce4bhsp2rcd13ifvqi50","pricing_plan_id":"cebpf4jnsgd1na2vs0mg"},{"bike_id":"c4c19a0c-8d82-42b0-9ed3-22a2537291ef","system_id":"levelo_inurba_marseille","lat":43.28861,"lon":5.35856,"is_reserved":false,"is_disabled":false,"rental_uris":{"android":"levelo://app?vid=c4c19a0c-8d82-42b0-9ed3-22a2537291ef","ios":"levelo://app?vid=c4c19a0c-8d82-42b0-9ed3-22a2537291ef"},"vehicle_type_id":"4","last_reported":1730840912,"current_range_meters":27200,"station_id":"ce4bhb12rcd13ifvqem0","pricing_plan_id":"cebpf4jnsgd1na2vs0mg"},{"bike_id":"88e82857-93e6-40e7-8eba-a685b4188420","system_id":"levelo_inurba_marseille","lat":43.29256,"lon":5.38432,"is_reserved":false,"is_disabled":false,"rental_uris":{"android":"levelo://app?vid=88e82857-93e6-40e7-8eba-a685b4188420","ios":"levelo://app?vid=88e82857-93e6-40e7-8eba-a685b4188420"},"vehicle_type_id":"4","last_reported":1730840912,"current_range_meters":32800,"station_id":"ce4bh692rcd13ifvqea0","pricing_plan_id":"cebpf4jnsgd1na2vs0mg"},{"bike_id":"d7d20756-0263-4239-b190-2bf90f8edd36","system_id":"levelo_inurba_marseille","lat":43.29862,"lon":5.39734,"is_reserved":false,"is_disabled":false,"rental_uris":{"android":"levelo://app?vid=d7d20756-0263-4239-b190-2bf90f8edd36","ios":"levelo://app?vid=d7d20756-0263-4239-b190-2bf90f8edd36"},"vehicle_type_id":"4","last_reported":1730840912,"current_range_meters":26000,"station_id":"ce4bh0h2rcd13ifvqd50","pricing_plan_id":"cebpf4jnsgd1na2vs0mg"},{"bike_id":"fed8aea5-ea25-4e53-a697-072657c02681","system_id":"levelo_inurba_marseille","lat":43.28704,"lon":5.39982,"is_reserved":false,"is_disabled":false,"rental_uris":{"android":"levelo://app?vid=fed8aea5-ea25-4e53-a697-072657c02681","ios":"levelo://app?vid=fed8aea5-ea25-4e53-a697-072657c02681"},"vehicle_type_id":"4","last_reported":1730840912,"current_range_meters":25200,"station_id":"ce4bho92rcd13ifvqh3g","pricing_plan_id":"cebpf4jnsgd1na2vs0mg"},{"bike_id":"f81328c6-e29c-4933-98da-7e5cc6f9bd09","system_id":"levelo_inurba_marseille","lat":43.29528,"lon":5.38544,"is_reserved":false,"is_disabled":false,"rental_uris":{"android":"levelo://app?vid=f81328c6-e29c-4933-98da-7e5cc6f9bd09","ios":"levelo://app?vid=f81328c6-e29c-4933-98da-7e5cc6f9bd09"},"vehicle_type_id":"4","last_reported":1730840912,"current_range_meters":36800,"station_id":"ce4bgih2rcd13ifvqba0","pricing_plan_id":"cebpf4jnsgd1na2vs0mg"},{"bike_id":"a5ef8a2e-9523-4905-8e56-a854e572cdc9","system_id":"levelo_inurba_marseille","lat":43.29253,"lon":5.38432,"is_reserved":false,"is_disabled":false,"rental_uris":{"android":"levelo://app?vid=a5ef8a2e-9523-4905-8e56-a854e572cdc9","ios":"levelo://app?vid=a5ef8a2e-9523-4905-8e56-a854e572cdc9"},"vehicle_type_id":"4","last_reported":1730840912,"current_range_meters":6800,"station_id":"ce4bh692rcd13ifvqea0","pricing_plan_id":"cebpf4jnsgd1na2vs0mg"},{"bike_id":"9ed341e7-8dd8-4a79-bad4-560fb0374227","system_id":"levelo_inurba_marseille","lat":43.28446,"lon":5.39195,"is_reserved":false,"is_disabled":false,"rental_uris":{"android":"levelo://app?vid=9ed341e7-8dd8-4a79-bad4-560fb0374227","ios":"levelo://app?vid=9ed341e7-8dd8-4a79-bad4-560fb0374227"},"vehicle_type_id":"4","last_reported":1730840912,"current_range_meters":38800,"station_id":"ce4bhoh2rcd13ifvqh5g","pricing_plan_id":"cebpf4jnsgd1na2vs0mg"},{"bike_id":"35cf71f5-f37e-4bbb-b151-04fa72375f7a","system_id":"levelo_inurba_marseille","lat":43.2315,"lon":5.43716,"is_reserved":false,"is_disabled":false,"rental_uris":{"android":"levelo://app?vid=35cf71f5-f37e-4bbb-b151-04fa72375f7a","ios":"levelo://app?vid=35cf71f5-f37e-4bbb-b151-04fa72375f7a"},"vehicle_type_id":"4","last_reported":1730840912,"current_range_meters":38800,"station_id":"ce4bhmp2rcd13ifvqgog","pricing_plan_id":"cebpf4jnsgd1na2vs0mg"},{"bike_id":"4147bbfb-4b14-4aca-b782-8ec6c0473609","system_id":"levelo_inurba_marseille","lat":43.23599,"lon":5.40339,"is_reserved":false,"is_disabled":false,"rental_uris":{"android":"levelo://app?vid=4147bbfb-4b14-4aca-b782-8ec6c0473609","ios":"levelo://app?vid=4147bbfb-4b14-4aca-b782-8ec6c0473609"},"vehicle_type_id":"4","last_reported":1730840912,"current_range_meters":6800,"station_id":"","pricing_plan_id":"cebpf4jnsgd1na2vs0mg"},{"bike_id":"14457bf0-60c9-4487-a4b5-fea5b2f33228","system_id":"levelo_inurba_marseille","lat":43.29518,"lon":5.39041,"is_reserved":false,"is_disabled":false,"rental_uris":{"android":"levelo://app?vid=14457bf0-60c9-4487-a4b5-fea5b2f33228","ios":"levelo://app?vid=14457bf0-60c9-4487-a4b5-fea5b2f33228"},"vehicle_type_id":"4","last_reported":1730840912,"current_range_meters":24000,"station_id":"ce4bh3p2rcd13ifvqdp0","pricing_plan_id":"cebpf4jnsgd1na2vs0mg"},{"bike_id":"779788a3-0ca9-4722-b039-e61a73a72dff","system_id":"levelo_inurba_marseille","lat":43.31221,"lon":5.36869,"is_reserved":false,"is_disabled":false,"rental_uris":{"android":"levelo://app?vid=779788a3-0ca9-4722-b039-e61a73a72dff","ios":"levelo://app?vid=779788a3-0ca9-4722-b039-e61a73a72dff"},"vehicle_type_id":"4","last_reported":1730840912,"current_range_meters":17200,"station_id":"ce4bgl92rcd13ifvqbq0","pricing_plan_id":"cebpf4jnsgd1na2vs0mg"},{"bike_id":"875c3b51-709b-4cf8-8c4f-9465fa317359","system_id":"levelo_inurba_marseille","lat":43.27562,"lon":5.38421,"is_reserved":false,"is_disabled":false,"rental_uris":{"android":"levelo://app?vid=875c3b51-709b-4cf8-8c4f-9465fa317359","ios":"levelo://app?vid=875c3b51-709b-4cf8-8c4f-9465fa317359"},"vehicle_type_id":"4","last_reported":1730840912,"current_range_meters":9200,"station_id":"ce4bhh92rcd13ifvqfi0","pricing_plan_id":"cebpf4jnsgd1na2vs0mg"},{"bike_id":"e31e4cf5-101c-478b-86ee-892913430e27","system_id":"levelo_inurba_marseille","lat":43.31167,"lon":5.3872,"is_reserved":false,"is_disabled":false,"rental_uris":{"android":"levelo://app?vid=e31e4cf5-101c-478b-86ee-892913430e27","ios":"levelo://app?vid=e31e4cf5-101c-478b-86ee-892913430e27"},"vehicle_type_id":"4","last_reported":1730840912,"current_range_meters":38800,"station_id":"ce4bgv12rcd13ifvqcp0","pricing_plan_id":"cebpf4jnsgd1na2vs0mg"},{"bike_id":"24a3d39f-1696-494b-8f08-a48d1f392780","system_id":"levelo_inurba_marseille","lat":43.32271,"lon":5.38265,"is_reserved":false,"is_disabled":false,"rental_uris":{"android":"levelo://app?vid=24a3d39f-1696-494b-8f08-a48d1f392780","ios":"levelo://app?vid=24a3d39f-1696-494b-8f08-a48d1f392780"},"vehicle_type_id":"4","last_reported":1730840912,"current_range_meters":38800,"station_id":"ce4bhr12rcd13ifvqhqg","pricing_plan_id":"cebpf4jnsgd1na2vs0mg"},{"bike_id":"0f6f9e13-1c56-4c95-83dd-d021d04dec6f","system_id":"levelo_inurba_marseille","lat":43.29103,"lon":5.38142,"is_reserved":false,"is_disabled":false,"rental_uris":{"android":"levelo://app?vid=0f6f9e13-1c56-4c95-83dd-d021d04dec6f","ios":"levelo://app?vid=0f6f9e13-1c56-4c95-83dd-d021d04dec6f"},"vehicle_type_id":"4","last_reported":1730840912,"current_range_meters":8400,"station_id":"ce4bh512rcd13ifvqe2g","pricing_plan_id":"cebpf4jnsgd1na2vs0mg"},{"bike_id":"252c55bf-e591-4d14-919e-dbd97fec18c3","system_id":"levelo_inurba_marseille","lat":43.30297,"lon":5.39222,"is_reserved":false,"is_disabled":false,"rental_uris":{"android":"levelo://app?vid=252c55bf-e591-4d14-919e-dbd97fec18c3","ios":"levelo://app?vid=252c55bf-e591-4d14-919e-dbd97fec18c3"},"vehicle_type_id":"4","last_reported":1730840912,"current_range_meters":31200,"station_id":"ce4bgkh2rcd13ifvqbk0","pricing_plan_id":"cebpf4jnsgd1na2vs0mg"},{"bike_id":"35d46972-faca-4525-a2d2-3f928f24f16c","system_id":"levelo_inurba_marseille","lat":43.24172,"lon":5.36406,"is_reserved":false,"is_disabled":false,"rental_uris":{"android":"levelo://app?vid=35d46972-faca-4525-a2d2-3f928f24f16c","ios":"levelo://app?vid=35d46972-faca-4525-a2d2-3f928f24f16c"},"vehicle_type_id":"4","last_reported":1730840912,"current_range_meters":36400,"station_id":"cpo36qri1sfpv3e86is0","pricing_plan_id":"cebpf4jnsgd1na2vs0mg"},{"bike_id":"eb089fb3-dadc-4447-8591-ed467d8a78fc","system_id":"levelo_inurba_marseille","lat":43.28847,"lon":5.35847,"is_reserved":false,"is_disabled":false,"rental_uris":{"android":"levelo://app?vid=eb089fb3-dadc-4447-8591-ed467d8a78fc","ios":"levelo://app?vid=eb089fb3-dadc-4447-8591-ed467d8a78fc"},"vehicle_type_id":"4","last_reported":1730840912,"current_range_meters":38800,"station_id":"ce4bhb12rcd13ifvqem0","pricing_plan_id":"cebpf4jnsgd1na2vs0mg"},{"bike_id":"692f31da-ed64-4e18-b7cc-350f01a2fb79","system_id":"levelo_inurba_marseille","lat":43.29893,"lon":5.43669,"is_reserved":false,"is_disabled":false,"rental_uris":{"android":"levelo://app?vid=692f31da-ed64-4e18-b7cc-350f01a2fb79","ios":"levelo://app?vid=692f31da-ed64-4e18-b7cc-350f01a2fb79"},"vehicle_type_id":"4","last_reported":1730840912,"current_range_meters":23200,"station_id":"ce4bhpp2rcd13ifvqhfg","pricing_plan_id":"cebpf4jnsgd1na2vs0mg"},{"bike_id":"1b358c2a-4546-44d6-8702-db48f79b8243","system_id":"levelo_inurba_marseille","lat":43.30258,"lon":5.40072,"is_reserved":false,"is_disabled":false,"rental_uris":{"android":"levelo://app?vid=1b358c2a-4546-44d6-8702-db48f79b8243","ios":"levelo://app?vid=1b358c2a-4546-44d6-8702-db48f79b8243"},"vehicle_type_id":"4","last_reported":1730840912,"current_range_meters":27600,"station_id":"ce4bgvh2rcd13ifvqcs0","pricing_plan_id":"cebpf4jnsgd1na2vs0mg"},{"bike_id":"ffbdc1bf-2027-4294-abc4-95123ba94de0","system_id":"levelo_inurba_marseille","lat":43.29529,"lon":5.38533,"is_reserved":false,"is_disabled":false,"rental_uris":{"android":"levelo://app?vid=ffbdc1bf-2027-4294-abc4-95123ba94de0","ios":"levelo://app?vid=ffbdc1bf-2027-4294-abc4-95123ba94de0"},"vehicle_type_id":"4","last_reported":1730840912,"current_range_meters":38800,"station_id":"ce4bgih2rcd13ifvqba0","pricing_plan_id":"cebpf4jnsgd1na2vs0mg"},{"bike_id":"1800b41e-0be0-429f-824d-a8d01ec3a2eb","system_id":"levelo_inurba_marseille","lat":43.27906,"lon":5.38015,"is_reserved":false,"is_disabled":false,"rental_uris":{"android":"levelo://app?vid=1800b41e-0be0-429f-824d-a8d01ec3a2eb","ios":"levelo://app?vid=1800b41e-0be0-429f-824d-a8d01ec3a2eb"},"vehicle_type_id":"4","last_reported":1730840912,"current_range_meters":18800,"station_id":"ce4bhf92rcd13ifvqf50","pricing_plan_id":"cebpf4jnsgd1na2vs0mg"},{"bike_id":"2b397c84-a387-4574-9e55-6c4b87626aa9","system_id":"levelo_inurba_marseille","lat":43.27969,"lon":5.38752,"is_reserved":false,"is_disabled":false,"rental_uris":{"android":"levelo://app?vid=2b397c84-a387-4574-9e55-6c4b87626aa9","ios":"levelo://app?vid=2b397c84-a387-4574-9e55-6c4b87626aa9"},"vehicle_type_id":"4","last_reported":1730840912,"current_range_meters":9600,"station_id":"ce4bhg12rcd13ifvqf80","pricing_plan_id":"cebpf4jnsgd1na2vs0mg"},{"bike_id":"81a6a1d3-210c-4fab-bee3-a7c23191472a","system_id":"levelo_inurba_marseille","lat":43.30257,"lon":5.40073,"is_reserved":false,"is_disabled":false,"rental_uris":{"android":"levelo://app?vid=81a6a1d3-210c-4fab-bee3-a7c23191472a","ios":"levelo://app?vid=81a6a1d3-210c-4fab-bee3-a7c23191472a"},"vehicle_type_id":"4","last_reported":1730840912,"current_range_meters":34800,"station_id":"ce4bgvh2rcd13ifvqcs0","pricing_plan_id":"cebpf4jnsgd1na2vs0mg"},{"bike_id":"123b698a-8ba8-4c67-8b6e-d0086f916b91","system_id":"levelo_inurba_marseille","lat":43.28566,"lon":5.39496,"is_reserved":false,"is_disabled":false,"rental_uris":{"android":"levelo://app?vid=123b698a-8ba8-4c67-8b6e-d0086f916b91","ios":"levelo://app?vid=123b698a-8ba8-4c67-8b6e-d0086f916b91"},"vehicle_type_id":"4","last_reported":1730840912,"current_range_meters":3200,"station_id":"ce4bh292rcd13ifvqdg0","pricing_plan_id":"cebpf4jnsgd1na2vs0mg"},{"bike_id":"5b3b2920-3bc4-4716-ad17-0814b3652e1c","system_id":"levelo_inurba_marseille","lat":43.29035,"lon":5.35915,"is_reserved":false,"is_disabled":false,"rental_uris":{"android":"levelo://app?vid=5b3b2920-3bc4-4716-ad17-0814b3652e1c","ios":"levelo://app?vid=5b3b2920-3bc4-4716-ad17-0814b3652e1c"},"vehicle_type_id":"4","last_reported":1730840912,"current_range_meters":38400,"station_id":"ce4bha92rcd13ifvqeg0","pricing_plan_id":"cebpf4jnsgd1na2vs0mg"},{"bike_id":"0b7cad0a-1409-4296-ac40-3fdf34c1f8a6","system_id":"levelo_inurba_marseille","lat":43.27499,"lon":5.42456,"is_reserved":false,"is_disabled":false,"rental_uris":{"android":"levelo://app?vid=0b7cad0a-1409-4296-ac40-3fdf34c1f8a6","ios":"levelo://app?vid=0b7cad0a-1409-4296-ac40-3fdf34c1f8a6"},"vehicle_type_id":"4","last_reported":1730840912,"current_range_meters":17200,"station_id":"ce4bhn92rcd13ifvqgrg","pricing_plan_id":"cebpf4jnsgd1na2vs0mg"},{"bike_id":"b7714781-d668-438d-8d4e-7166167a7e37","system_id":"levelo_inurba_marseille","lat":43.23181,"lon":5.39978,"is_reserved":false,"is_disabled":false,"rental_uris":{"android":"levelo://app?vid=b7714781-d668-438d-8d4e-7166167a7e37","ios":"levelo://app?vid=b7714781-d668-438d-8d4e-7166167a7e37"},"vehicle_type_id":"4","last_reported":1730840912,"current_range_meters":24800,"station_id":"ce4bhn12rcd13ifvqgqg","pricing_plan_id":"cebpf4jnsgd1na2vs0mg"},{"bike_id":"e5ab461b-0652-4b1b-bbc1-00d165375057","system_id":"levelo_inurba_marseille","lat":43.28001,"lon":5.40016,"is_reserved":false,"is_disabled":false,"rental_uris":{"android":"levelo://app?vid=e5ab461b-0652-4b1b-bbc1-00d165375057","ios":"levelo://app?vid=e5ab461b-0652-4b1b-bbc1-00d165375057"},"vehicle_type_id":"4","last_reported":1730840912,"current_range_meters":5600,"station_id":"ce4bho92rcd13ifvqh4g","pricing_plan_id":"cebpf4jnsgd1na2vs0mg"},{"bike_id":"504a2677-e7f9-490d-8752-2a9c4e557185","system_id":"levelo_inurba_marseille","lat":43.27185,"lon":5.40995,"is_reserved":false,"is_disabled":false,"rental_uris":{"android":"levelo://app?vid=504a2677-e7f9-490d-8752-2a9c4e557185","ios":"levelo://app?vid=504a2677-e7f9-490d-8752-2a9c4e557185"},"vehicle_type_id":"4","last_reported":1730840912,"current_range_meters":33600,"station_id":"ce4bhl12rcd13ifvqgf0","pricing_plan_id":"cebpf4jnsgd1na2vs0mg"},{"bike_id":"092894e6-e170-4676-a600-e4761a2ebbfa","system_id":"levelo_inurba_marseille","lat":43.29909,"lon":5.38154,"is_reserved":false,"is_disabled":false,"rental_uris":{"android":"levelo://app?vid=092894e6-e170-4676-a600-e4761a2ebbfa","ios":"levelo://app?vid=092894e6-e170-4676-a600-e4761a2ebbfa"},"vehicle_type_id":"4","last_reported":1730840912,"current_range_meters":28800,"station_id":"ce4bgj12rcd13ifvqbc0","pricing_plan_id":"cebpf4jnsgd1na2vs0mg"},{"bike_id":"cf5b8554-36d9-4a8f-8767-b284231be69e","system_id":"levelo_inurba_marseille","lat":43.28477,"lon":5.38542,"is_reserved":false,"is_disabled":false,"rental_uris":{"android":"levelo://app?vid=cf5b8554-36d9-4a8f-8767-b284231be69e","ios":"levelo://app?vid=cf5b8554-36d9-4a8f-8767-b284231be69e"},"vehicle_type_id":"4","last_reported":1730840912,"current_range_meters":38800,"station_id":"ce4bh8p2rcd13ifvqeb0","pricing_plan_id":"cebpf4jnsgd1na2vs0mg"},{"bike_id":"92b62fb0-c338-4197-92bf-0a0a78d91d3f","system_id":"levelo_inurba_marseille","lat":43.27672,"lon":5.38895,"is_reserved":false,"is_disabled":false,"rental_uris":{"android":"levelo://app?vid=92b62fb0-c338-4197-92bf-0a0a78d91d3f","ios":"levelo://app?vid=92b62fb0-c338-4197-92bf-0a0a78d91d3f"},"vehicle_type_id":"4","last_reported":1730840912,"current_range_meters":9200,"station_id":"ce4bhi12rcd13ifvqfo0","pricing_plan_id":"cebpf4jnsgd1na2vs0mg"},{"bike_id":"30eb9235-2b25-441f-aa71-5f4c675a078c","system_id":"levelo_inurba_marseille","lat":43.24648,"lon":5.38892,"is_reserved":false,"is_disabled":false,"rental_uris":{"android":"levelo://app?vid=30eb9235-2b25-441f-aa71-5f4c675a078c","ios":"levelo://app?vid=30eb9235-2b25-441f-aa71-5f4c675a078c"},"vehicle_type_id":"4","last_reported":1730840912,"current_range_meters":29600,"station_id":"ce4bhg12rcd13ifvqf60","pricing_plan_id":"cebpf4jnsgd1na2vs0mg"},{"bike_id":"ebffee7c-cae5-47c5-9bdb-6d314ad8c91e","system_id":"levelo_inurba_marseille","lat":43.33026,"lon":5.39043,"is_reserved":false,"is_disabled":false,"rental_uris":{"android":"levelo://app?vid=ebffee7c-cae5-47c5-9bdb-6d314ad8c91e","ios":"levelo://app?vid=ebffee7c-cae5-47c5-9bdb-6d314ad8c91e"},"vehicle_type_id":"4","last_reported":1730840912,"current_range_meters":38800,"station_id":"ce4bhr92rcd13ifvqhrg","pricing_plan_id":"cebpf4jnsgd1na2vs0mg"},{"bike_id":"3a1c507a-5c4e-4112-b2b7-bcbbcdbf39af","system_id":"levelo_inurba_marseille","lat":43.2717,"lon":5.40992,"is_reserved":false,"is_disabled":false,"rental_uris":{"android":"levelo://app?vid=3a1c507a-5c4e-4112-b2b7-bcbbcdbf39af","ios":"levelo://app?vid=3a1c507a-5c4e-4112-b2b7-bcbbcdbf39af"},"vehicle_type_id":"4","last_reported":1730840912,"current_range_meters":17600,"station_id":"ce4bhl12rcd13ifvqgf0","pricing_plan_id":"cebpf4jnsgd1na2vs0mg"},{"bike_id":"39197203-4730-4039-a31c-aa4b535e43d6","system_id":"levelo_inurba_marseille","lat":43.279644,"lon":5.387499,"is_reserved":false,"is_disabled":false,"rental_uris":{"android":"levelo://app?vid=39197203-4730-4039-a31c-aa4b535e43d6","ios":"levelo://app?vid=39197203-4730-4039-a31c-aa4b535e43d6"},"vehicle_type_id":"4","last_reported":1730840912,"current_range_meters":12400,"station_id":"ce4bhg12rcd13ifvqf80","pricing_plan_id":"cebpf4jnsgd1na2vs0mg"},{"bike_id":"42163e3e-5009-401f-a1ce-f09eb7e2a510","system_id":"levelo_inurba_marseille","lat":43.31325,"lon":5.39704,"is_reserved":false,"is_disabled":false,"rental_uris":{"android":"levelo://app?vid=42163e3e-5009-401f-a1ce-f09eb7e2a510","ios":"levelo://app?vid=42163e3e-5009-401f-a1ce-f09eb7e2a510"},"vehicle_type_id":"4","last_reported":1730840912,"current_range_meters":38800,"station_id":"ce4bgvp2rcd13ifvqcu0","pricing_plan_id":"cebpf4jnsgd1na2vs0mg"},{"bike_id":"42f1053f-43d7-49b0-a29f-f7d1ff81c5d2","system_id":"levelo_inurba_marseille","lat":43.24809,"lon":5.37455,"is_reserved":false,"is_disabled":false,"rental_uris":{"android":"levelo://app?vid=42f1053f-43d7-49b0-a29f-f7d1ff81c5d2","ios":"levelo://app?vid=42f1053f-43d7-49b0-a29f-f7d1ff81c5d2"},"vehicle_type_id":"4","last_reported":1730840912,"current_range_meters":32400,"station_id":"ce4bhgh2rcd13ifvqfb0","pricing_plan_id":"cebpf4jnsgd1na2vs0mg"},{"bike_id":"679768bc-ebe5-47e4-8e67-960726d0f63f","system_id":"levelo_inurba_marseille","lat":43.3089,"lon":5.39658,"is_reserved":false,"is_disabled":false,"rental_uris":{"android":"levelo://app?vid=679768bc-ebe5-47e4-8e67-960726d0f63f","ios":"levelo://app?vid=679768bc-ebe5-47e4-8e67-960726d0f63f"},"vehicle_type_id":"4","last_reported":1730840912,"current_range_meters":38800,"station_id":"ce4bh012rcd13ifvqcv0","pricing_plan_id":"cebpf4jnsgd1na2vs0mg"},{"bike_id":"975c9234-f477-4849-a4e3-e3d7d0b25fab","system_id":"levelo_inurba_marseille","lat":43.31322,"lon":5.39693,"is_reserved":false,"is_disabled":false,"rental_uris":{"android":"levelo://app?vid=975c9234-f477-4849-a4e3-e3d7d0b25fab","ios":"levelo://app?vid=975c9234-f477-4849-a4e3-e3d7d0b25fab"},"vehicle_type_id":"4","last_reported":1730840912,"current_range_meters":33200,"station_id":"ce4bgvp2rcd13ifvqcu0","pricing_plan_id":"cebpf4jnsgd1na2vs0mg"},{"bike_id":"096d6e34-275b-42b3-9cbb-d99caa6809df","system_id":"levelo_inurba_marseille","lat":43.280029,"lon":5.400088,"is_reserved":false,"is_disabled":false,"rental_uris":{"android":"levelo://app?vid=096d6e34-275b-42b3-9cbb-d99caa6809df","ios":"levelo://app?vid=096d6e34-275b-42b3-9cbb-d99caa6809df"},"vehicle_type_id":"4","last_reported":1730840912,"current_range_meters":4400,"station_id":"ce4bho92rcd13ifvqh4g","pricing_plan_id":"cebpf4jnsgd1na2vs0mg"},{"bike_id":"4cb040ae-ec69-4b85-8bd5-ac61c82dda01","system_id":"levelo_inurba_marseille","lat":43.29525,"lon":5.38537,"is_reserved":false,"is_disabled":false,"rental_uris":{"android":"levelo://app?vid=4cb040ae-ec69-4b85-8bd5-ac61c82dda01","ios":"levelo://app?vid=4cb040ae-ec69-4b85-8bd5-ac61c82dda01"},"vehicle_type_id":"4","last_reported":1730840912,"current_range_meters":34000,"station_id":"ce4bgih2rcd13ifvqba0","pricing_plan_id":"cebpf4jnsgd1na2vs0mg"},{"bike_id":"2be58595-1ee4-4e97-90d2-c6d933b5e1c7","system_id":"levelo_inurba_marseille","lat":43.29897,"lon":5.43672,"is_reserved":false,"is_disabled":false,"rental_uris":{"android":"levelo://app?vid=2be58595-1ee4-4e97-90d2-c6d933b5e1c7","ios":"levelo://app?vid=2be58595-1ee4-4e97-90d2-c6d933b5e1c7"},"vehicle_type_id":"4","last_reported":1730840912,"current_range_meters":24400,"station_id":"ce4bhpp2rcd13ifvqhfg","pricing_plan_id":"cebpf4jnsgd1na2vs0mg"},{"bike_id":"f5dd8b8e-f4ba-4b50-bf9f-31af57becbb7","system_id":"levelo_inurba_marseille","lat":43.25109,"lon":5.40329,"is_reserved":false,"is_disabled":false,"rental_uris":{"android":"levelo://app?vid=f5dd8b8e-f4ba-4b50-bf9f-31af57becbb7","ios":"levelo://app?vid=f5dd8b8e-f4ba-4b50-bf9f-31af57becbb7"},"vehicle_type_id":"4","last_reported":1730840912,"current_range_meters":38800,"station_id":"ce4bhlh2rcd13ifvqgig","pricing_plan_id":"cebpf4jnsgd1na2vs0mg"},{"bike_id":"7da45cf2-3e2c-4417-ae03-52387d64cc6d","system_id":"levelo_inurba_marseille","lat":43.29708,"lon":5.4079,"is_reserved":false,"is_disabled":false,"rental_uris":{"android":"levelo://app?vid=7da45cf2-3e2c-4417-ae03-52387d64cc6d","ios":"levelo://app?vid=7da45cf2-3e2c-4417-ae03-52387d64cc6d"},"vehicle_type_id":"4","last_reported":1730840912,"current_range_meters":16400,"station_id":"","pricing_plan_id":"cebpf4jnsgd1na2vs0mg"},{"bike_id":"82df5e43-294a-40cf-bafa-d607fa146d99","system_id":"levelo_inurba_marseille","lat":43.28372,"lon":5.38633,"is_reserved":false,"is_disabled":false,"rental_uris":{"android":"levelo://app?vid=82df5e43-294a-40cf-bafa-d607fa146d99","ios":"levelo://app?vid=82df5e43-294a-40cf-bafa-d607fa146d99"},"vehicle_type_id":"4","last_reported":1730840912,"current_range_meters":9600,"station_id":"ce4bh492rcd13ifvqdvg","pricing_plan_id":"cebpf4jnsgd1na2vs0mg"},{"bike_id":"f29f4159-c3d5-48e8-b13d-cd8d49ba56d0","system_id":"levelo_inurba_marseille","lat":43.29029,"lon":5.38625,"is_reserved":false,"is_disabled":false,"rental_uris":{"android":"levelo://app?vid=f29f4159-c3d5-48e8-b13d-cd8d49ba56d0","ios":"levelo://app?vid=f29f4159-c3d5-48e8-b13d-cd8d49ba56d0"},"vehicle_type_id":"4","last_reported":1730840912,"current_range_meters":27200,"station_id":"ce4bh4p2rcd13ifvqe0g","pricing_plan_id":"cebpf4jnsgd1na2vs0mg"},{"bike_id":"8ffe68bc-7a17-4113-aa95-49bb0542587f","system_id":"levelo_inurba_marseille","lat":43.28704,"lon":5.37388,"is_reserved":false,"is_disabled":false,"rental_uris":{"android":"levelo://app?vid=8ffe68bc-7a17-4113-aa95-49bb0542587f","ios":"levelo://app?vid=8ffe68bc-7a17-4113-aa95-49bb0542587f"},"vehicle_type_id":"4","last_reported":1730840912,"current_range_meters":34800,"station_id":"ce4bh3p2rcd13ifvqdq0","pricing_plan_id":"cebpf4jnsgd1na2vs0mg"},{"bike_id":"07b32d1e-1dd4-4029-b11e-bddc1e81d2f6","system_id":"levelo_inurba_marseille","lat":43.30419,"lon":5.38881,"is_reserved":false,"is_disabled":false,"rental_uris":{"android":"levelo://app?vid=07b32d1e-1dd4-4029-b11e-bddc1e81d2f6","ios":"levelo://app?vid=07b32d1e-1dd4-4029-b11e-bddc1e81d2f6"},"vehicle_type_id":"4","last_reported":1730840912,"current_range_meters":38400,"station_id":"ce4bgk12rcd13ifvqbi0","pricing_plan_id":"cebpf4jnsgd1na2vs0mg"},{"bike_id":"7d1cc712-4f0a-4d7c-a84c-f84148ad4c46","system_id":"levelo_inurba_marseille","lat":43.23154,"lon":5.43707,"is_reserved":false,"is_disabled":false,"rental_uris":{"android":"levelo://app?vid=7d1cc712-4f0a-4d7c-a84c-f84148ad4c46","ios":"levelo://app?vid=7d1cc712-4f0a-4d7c-a84c-f84148ad4c46"},"vehicle_type_id":"4","last_reported":1730840912,"current_range_meters":8000,"station_id":"ce4bhmp2rcd13ifvqgog","pricing_plan_id":"cebpf4jnsgd1na2vs0mg"},{"bike_id":"88b985b2-284f-4f9d-9144-31d13a720ace","system_id":"levelo_inurba_marseille","lat":43.31487,"lon":5.37302,"is_reserved":false,"is_disabled":false,"rental_uris":{"android":"levelo://app?vid=88b985b2-284f-4f9d-9144-31d13a720ace","ios":"levelo://app?vid=88b985b2-284f-4f9d-9144-31d13a720ace"},"vehicle_type_id":"4","last_reported":1730840912,"current_range_meters":38800,"station_id":"ce4bgt12rcd13ifvqcd0","pricing_plan_id":"cebpf4jnsgd1na2vs0mg"},{"bike_id":"87a2baf5-bfda-4f9c-9b76-3171f34d73d4","system_id":"levelo_inurba_marseille","lat":43.25093,"lon":5.3951,"is_reserved":false,"is_disabled":false,"rental_uris":{"android":"levelo://app?vid=87a2baf5-bfda-4f9c-9b76-3171f34d73d4","ios":"levelo://app?vid=87a2baf5-bfda-4f9c-9b76-3171f34d73d4"},"vehicle_type_id":"4","last_reported":1730840912,"current_range_meters":38800,"station_id":"ce4bhm12rcd13ifvqgkg","pricing_plan_id":"cebpf4jnsgd1na2vs0mg"},{"bike_id":"c5c918f0-7dbb-4e58-8cfc-640dc8a3af0e","system_id":"levelo_inurba_marseille","lat":43.28273,"lon":5.35067,"is_reserved":false,"is_disabled":false,"rental_uris":{"android":"levelo://app?vid=c5c918f0-7dbb-4e58-8cfc-640dc8a3af0e","ios":"levelo://app?vid=c5c918f0-7dbb-4e58-8cfc-640dc8a3af0e"},"vehicle_type_id":"4","last_reported":1730840912,"current_range_meters":38800,"station_id":"ce4bhbp2rcd13ifvqerg","pricing_plan_id":"cebpf4jnsgd1na2vs0mg"},{"bike_id":"b389ee16-6b09-4e68-9a18-616d27308de2","system_id":"levelo_inurba_marseille","lat":43.24658,"lon":5.38167,"is_reserved":false,"is_disabled":false,"rental_uris":{"android":"levelo://app?vid=b389ee16-6b09-4e68-9a18-616d27308de2","ios":"levelo://app?vid=b389ee16-6b09-4e68-9a18-616d27308de2"},"vehicle_type_id":"4","last_reported":1730840912,"current_range_meters":38800,"station_id":"ce4bhih2rcd13ifvqfr0","pricing_plan_id":"cebpf4jnsgd1na2vs0mg"},{"bike_id":"c18e3377-4dcd-4010-86ae-a2cf9f144b20","system_id":"levelo_inurba_marseille","lat":43.26557,"lon":5.37293,"is_reserved":false,"is_disabled":false,"rental_uris":{"android":"levelo://app?vid=c18e3377-4dcd-4010-86ae-a2cf9f144b20","ios":"levelo://app?vid=c18e3377-4dcd-4010-86ae-a2cf9f144b20"},"vehicle_type_id":"4","last_reported":1730840912,"current_range_meters":36800,"station_id":"ce4bhg12rcd13ifvqf70","pricing_plan_id":"cebpf4jnsgd1na2vs0mg"},{"bike_id":"6edcb5d2-dbf0-49f4-9f8b-5d93ccae943e","system_id":"levelo_inurba_marseille","lat":43.27909,"lon":5.38017,"is_reserved":false,"is_disabled":false,"rental_uris":{"android":"levelo://app?vid=6edcb5d2-dbf0-49f4-9f8b-5d93ccae943e","ios":"levelo://app?vid=6edcb5d2-dbf0-49f4-9f8b-5d93ccae943e"},"vehicle_type_id":"4","last_reported":1730840912,"current_range_meters":27200,"station_id":"ce4bhf92rcd13ifvqf50","pricing_plan_id":"cebpf4jnsgd1na2vs0mg"},{"bike_id":"340ee037-c5f9-4ff6-a16b-0e0f3098fa79","system_id":"levelo_inurba_marseille","lat":43.3048,"lon":5.40217,"is_reserved":false,"is_disabled":false,"rental_uris":{"android":"levelo://app?vid=340ee037-c5f9-4ff6-a16b-0e0f3098fa79","ios":"levelo://app?vid=340ee037-c5f9-4ff6-a16b-0e0f3098fa79"},"vehicle_type_id":"4","last_reported":1730840912,"current_range_meters":28800,"station_id":"","pricing_plan_id":"cebpf4jnsgd1na2vs0mg"},{"bike_id":"b7dac470-6c24-4dbd-b985-4c2ae60141ad","system_id":"levelo_inurba_marseille","lat":43.23155,"lon":5.437,"is_reserved":false,"is_disabled":false,"rental_uris":{"android":"levelo://app?vid=b7dac470-6c24-4dbd-b985-4c2ae60141ad","ios":"levelo://app?vid=b7dac470-6c24-4dbd-b985-4c2ae60141ad"},"vehicle_type_id":"4","last_reported":1730840912,"current_range_meters":24400,"station_id":"ce4bhmp2rcd13ifvqgog","pricing_plan_id":"cebpf4jnsgd1na2vs0mg"},{"bike_id":"fb6e0097-609c-4a31-a37d-72d195a0407b","system_id":"levelo_inurba_marseille","lat":43.29856,"lon":5.3974,"is_reserved":false,"is_disabled":false,"rental_uris":{"android":"levelo://app?vid=fb6e0097-609c-4a31-a37d-72d195a0407b","ios":"levelo://app?vid=fb6e0097-609c-4a31-a37d-72d195a0407b"},"vehicle_type_id":"4","last_reported":1730840912,"current_range_meters":11200,"station_id":"ce4bh0h2rcd13ifvqd50","pricing_plan_id":"cebpf4jnsgd1na2vs0mg"},{"bike_id":"6e7dca57-06bc-4102-8c2c-b936f9c883ae","system_id":"levelo_inurba_marseille","lat":43.23179,"lon":5.39987,"is_reserved":false,"is_disabled":false,"rental_uris":{"android":"levelo://app?vid=6e7dca57-06bc-4102-8c2c-b936f9c883ae","ios":"levelo://app?vid=6e7dca57-06bc-4102-8c2c-b936f9c883ae"},"vehicle_type_id":"4","last_reported":1730840912,"current_range_meters":38800,"station_id":"ce4bhn12rcd13ifvqgqg","pricing_plan_id":"cebpf4jnsgd1na2vs0mg"},{"bike_id":"805205aa-6868-4ae4-a501-7a6b89146641","system_id":"levelo_inurba_marseille","lat":43.27489,"lon":5.42447,"is_reserved":false,"is_disabled":false,"rental_uris":{"android":"levelo://app?vid=805205aa-6868-4ae4-a501-7a6b89146641","ios":"levelo://app?vid=805205aa-6868-4ae4-a501-7a6b89146641"},"vehicle_type_id":"4","last_reported":1730840912,"current_range_meters":38800,"station_id":"ce4bhn92rcd13ifvqgrg","pricing_plan_id":"cebpf4jnsgd1na2vs0mg"},{"bike_id":"7da964c5-865b-46e2-99e2-8c72ed7140e4","system_id":"levelo_inurba_marseille","lat":43.291809,"lon":5.357162,"is_reserved":false,"is_disabled":false,"rental_uris":{"android":"levelo://app?vid=7da964c5-865b-46e2-99e2-8c72ed7140e4","ios":"levelo://app?vid=7da964c5-865b-46e2-99e2-8c72ed7140e4"},"vehicle_type_id":"4","last_reported":1730840912,"current_range_meters":37600,"station_id":"ce4bhb12rcd13ifvqel0","pricing_plan_id":"cebpf4jnsgd1na2vs0mg"},{"bike_id":"9a5224c4-fe49-47c3-87e1-c09e0b4a5524","system_id":"levelo_inurba_marseille","lat":43.29269,"lon":5.40111,"is_reserved":false,"is_disabled":false,"rental_uris":{"android":"levelo://app?vid=9a5224c4-fe49-47c3-87e1-c09e0b4a5524","ios":"levelo://app?vid=9a5224c4-fe49-47c3-87e1-c09e0b4a5524"},"vehicle_type_id":"4","last_reported":1730840912,"current_range_meters":38800,"station_id":"ce4bh312rcd13ifvqdk0","pricing_plan_id":"cebpf4jnsgd1na2vs0mg"},{"bike_id":"9d9dc117-b422-4432-b305-2ee17862cef6","system_id":"levelo_inurba_marseille","lat":43.31207,"lon":5.36884,"is_reserved":false,"is_disabled":false,"rental_uris":{"android":"levelo://app?vid=9d9dc117-b422-4432-b305-2ee17862cef6","ios":"levelo://app?vid=9d9dc117-b422-4432-b305-2ee17862cef6"},"vehicle_type_id":"4","last_reported":1730840912,"current_range_meters":36000,"station_id":"ce4bgl92rcd13ifvqbq0","pricing_plan_id":"cebpf4jnsgd1na2vs0mg"},{"bike_id":"a2cb3339-f0df-43df-a54d-38596fafdbe3","system_id":"levelo_inurba_marseille","lat":43.29259,"lon":5.40899,"is_reserved":false,"is_disabled":false,"rental_uris":{"android":"levelo://app?vid=a2cb3339-f0df-43df-a54d-38596fafdbe3","ios":"levelo://app?vid=a2cb3339-f0df-43df-a54d-38596fafdbe3"},"vehicle_type_id":"4","last_reported":1730840912,"current_range_meters":3200,"station_id":"ce4bh192rcd13ifvqdc0","pricing_plan_id":"cebpf4jnsgd1na2vs0mg"},{"bike_id":"cad7064a-f388-4bba-95a0-b86da617831d","system_id":"levelo_inurba_marseille","lat":43.306,"lon":5.37226,"is_reserved":false,"is_disabled":false,"rental_uris":{"android":"levelo://app?vid=cad7064a-f388-4bba-95a0-b86da617831d","ios":"levelo://app?vid=cad7064a-f388-4bba-95a0-b86da617831d"},"vehicle_type_id":"4","last_reported":1730840912,"current_range_meters":1200,"station_id":"ce4bgqh2rcd13ifvqc4g","pricing_plan_id":"cebpf4jnsgd1na2vs0mg"},{"bike_id":"1f9427b0-5fa1-48cb-9b31-8a0b0ffec652","system_id":"levelo_inurba_marseille","lat":43.29191,"lon":5.39318,"is_reserved":false,"is_disabled":false,"rental_uris":{"android":"levelo://app?vid=1f9427b0-5fa1-48cb-9b31-8a0b0ffec652","ios":"levelo://app?vid=1f9427b0-5fa1-48cb-9b31-8a0b0ffec652"},"vehicle_type_id":"4","last_reported":1730840912,"current_range_meters":10000,"station_id":"ce4bh192rcd13ifvqdd0","pricing_plan_id":"cebpf4jnsgd1na2vs0mg"},{"bike_id":"f131adc3-fb5b-4b0d-845d-35ca7b81227f","system_id":"levelo_inurba_marseille","lat":43.29903,"lon":5.38111,"is_reserved":false,"is_disabled":false,"rental_uris":{"android":"levelo://app?vid=f131adc3-fb5b-4b0d-845d-35ca7b81227f","ios":"levelo://app?vid=f131adc3-fb5b-4b0d-845d-35ca7b81227f"},"vehicle_type_id":"4","last_reported":1730840912,"current_range_meters":22800,"station_id":"ce4bgj12rcd13ifvqbc0","pricing_plan_id":"cebpf4jnsgd1na2vs0mg"},{"bike_id":"b94af81a-fcab-4ced-939d-2117b6f59827","system_id":"levelo_inurba_marseille","lat":43.30259,"lon":5.40077,"is_reserved":false,"is_disabled":false,"rental_uris":{"android":"levelo://app?vid=b94af81a-fcab-4ced-939d-2117b6f59827","ios":"levelo://app?vid=b94af81a-fcab-4ced-939d-2117b6f59827"},"vehicle_type_id":"4","last_reported":1730840912,"current_range_meters":4800,"station_id":"ce4bgvh2rcd13ifvqcs0","pricing_plan_id":"cebpf4jnsgd1na2vs0mg"},{"bike_id":"00db643c-5868-4206-be55-7a08f1b86e96","system_id":"levelo_inurba_marseille","lat":43.23178,"lon":5.39986,"is_reserved":false,"is_disabled":false,"rental_uris":{"android":"levelo://app?vid=00db643c-5868-4206-be55-7a08f1b86e96","ios":"levelo://app?vid=00db643c-5868-4206-be55-7a08f1b86e96"},"vehicle_type_id":"4","last_reported":1730840912,"current_range_meters":18000,"station_id":"ce4bhn12rcd13ifvqgqg","pricing_plan_id":"cebpf4jnsgd1na2vs0mg"},{"bike_id":"09ae89aa-d8fd-468f-94dc-9a05a884115a","system_id":"levelo_inurba_marseille","lat":43.24078,"lon":5.37763,"is_reserved":false,"is_disabled":false,"rental_uris":{"android":"levelo://app?vid=09ae89aa-d8fd-468f-94dc-9a05a884115a","ios":"levelo://app?vid=09ae89aa-d8fd-468f-94dc-9a05a884115a"},"vehicle_type_id":"4","last_reported":1730840912,"current_range_meters":22800,"station_id":"ce4bhnp2rcd13ifvqgvg","pricing_plan_id":"cebpf4jnsgd1na2vs0mg"},{"bike_id":"7ba83686-4624-453c-8ee6-0564ccf6fcb6","system_id":"levelo_inurba_marseille","lat":43.2582,"lon":5.39439,"is_reserved":false,"is_disabled":false,"rental_uris":{"android":"levelo://app?vid=7ba83686-4624-453c-8ee6-0564ccf6fcb6","ios":"levelo://app?vid=7ba83686-4624-453c-8ee6-0564ccf6fcb6"},"vehicle_type_id":"4","last_reported":1730840912,"current_range_meters":6800,"station_id":"ce4bhip2rcd13ifvqft0","pricing_plan_id":"cebpf4jnsgd1na2vs0mg"},{"bike_id":"aaa32c29-f262-40a8-a501-7418891001d4","system_id":"levelo_inurba_marseille","lat":43.27811,"lon":5.40722,"is_reserved":false,"is_disabled":false,"rental_uris":{"android":"levelo://app?vid=aaa32c29-f262-40a8-a501-7418891001d4","ios":"levelo://app?vid=aaa32c29-f262-40a8-a501-7418891001d4"},"vehicle_type_id":"4","last_reported":1730840912,"current_range_meters":38800,"station_id":"ce4bhnh2rcd13ifvqgtg","pricing_plan_id":"cebpf4jnsgd1na2vs0mg"},{"bike_id":"b44b0b48-9a85-405c-b983-dc9cb4802105","system_id":"levelo_inurba_marseille","lat":43.28572,"lon":5.395,"is_reserved":false,"is_disabled":false,"rental_uris":{"android":"levelo://app?vid=b44b0b48-9a85-405c-b983-dc9cb4802105","ios":"levelo://app?vid=b44b0b48-9a85-405c-b983-dc9cb4802105"},"vehicle_type_id":"4","last_reported":1730840912,"current_range_meters":34000,"station_id":"ce4bh292rcd13ifvqdg0","pricing_plan_id":"cebpf4jnsgd1na2vs0mg"},{"bike_id":"814f224b-377e-4923-a420-cdcd4718352f","system_id":"levelo_inurba_marseille","lat":43.33019,"lon":5.39045,"is_reserved":false,"is_disabled":false,"rental_uris":{"android":"levelo://app?vid=814f224b-377e-4923-a420-cdcd4718352f","ios":"levelo://app?vid=814f224b-377e-4923-a420-cdcd4718352f"},"vehicle_type_id":"4","last_reported":1730840912,"current_range_meters":38800,"station_id":"ce4bhr92rcd13ifvqhrg","pricing_plan_id":"cebpf4jnsgd1na2vs0mg"},{"bike_id":"80e3e6ac-147b-4cbb-b0de-c7b890fedfd4","system_id":"levelo_inurba_marseille","lat":43.30797,"lon":5.43528,"is_reserved":false,"is_disabled":false,"rental_uris":{"android":"levelo://app?vid=80e3e6ac-147b-4cbb-b0de-c7b890fedfd4","ios":"levelo://app?vid=80e3e6ac-147b-4cbb-b0de-c7b890fedfd4"},"vehicle_type_id":"4","last_reported":1730840912,"current_range_meters":32400,"station_id":"ce4bhph2rcd13ifvqheg","pricing_plan_id":"cebpf4jnsgd1na2vs0mg"},{"bike_id":"22868da5-4c38-4ce5-8489-cbec9dcaa3b0","system_id":"levelo_inurba_marseille","lat":43.28033,"lon":5.36943,"is_reserved":false,"is_disabled":false,"rental_uris":{"android":"levelo://app?vid=22868da5-4c38-4ce5-8489-cbec9dcaa3b0","ios":"levelo://app?vid=22868da5-4c38-4ce5-8489-cbec9dcaa3b0"},"vehicle_type_id":"4","last_reported":1730840912,"current_range_meters":38800,"station_id":"ce4bha12rcd13ifvqef0","pricing_plan_id":"cebpf4jnsgd1na2vs0mg"},{"bike_id":"42dfb619-fde4-4d04-891a-519713912ffc","system_id":"levelo_inurba_marseille","lat":43.29369,"lon":5.37846,"is_reserved":false,"is_disabled":false,"rental_uris":{"android":"levelo://app?vid=42dfb619-fde4-4d04-891a-519713912ffc","ios":"levelo://app?vid=42dfb619-fde4-4d04-891a-519713912ffc"},"vehicle_type_id":"4","last_reported":1730840912,"current_range_meters":16800,"station_id":"ce4bgjh2rcd13ifvqbf0","pricing_plan_id":"cebpf4jnsgd1na2vs0mg"},{"bike_id":"7ba1c308-cf7f-478b-be7c-91d09437c3cf","system_id":"levelo_inurba_marseille","lat":43.30804,"lon":5.38157,"is_reserved":false,"is_disabled":false,"rental_uris":{"android":"levelo://app?vid=7ba1c308-cf7f-478b-be7c-91d09437c3cf","ios":"levelo://app?vid=7ba1c308-cf7f-478b-be7c-91d09437c3cf"},"vehicle_type_id":"4","last_reported":1730840912,"current_range_meters":38800,"station_id":"ce4bgt12rcd13ifvqce0","pricing_plan_id":"cebpf4jnsgd1na2vs0mg"},{"bike_id":"d5087937-1aea-4522-9f3e-f1abdc210b7f","system_id":"levelo_inurba_marseille","lat":43.30138,"lon":5.39877,"is_reserved":false,"is_disabled":false,"rental_uris":{"android":"levelo://app?vid=d5087937-1aea-4522-9f3e-f1abdc210b7f","ios":"levelo://app?vid=d5087937-1aea-4522-9f3e-f1abdc210b7f"},"vehicle_type_id":"4","last_reported":1730840912,"current_range_meters":38800,"station_id":"ce4bh0h2rcd13ifvqd40","pricing_plan_id":"cebpf4jnsgd1na2vs0mg"},{"bike_id":"437037e9-de2d-4c1f-b6d8-074d1c9b96f5","system_id":"levelo_inurba_marseille","lat":43.30796,"lon":5.38157,"is_reserved":false,"is_disabled":false,"rental_uris":{"android":"levelo://app?vid=437037e9-de2d-4c1f-b6d8-074d1c9b96f5","ios":"levelo://app?vid=437037e9-de2d-4c1f-b6d8-074d1c9b96f5"},"vehicle_type_id":"4","last_reported":1730840912,"current_range_meters":11600,"station_id":"ce4bgt12rcd13ifvqce0","pricing_plan_id":"cebpf4jnsgd1na2vs0mg"},{"bike_id":"8e8b985d-b1e1-41a2-8132-f0ba2ee524fd","system_id":"levelo_inurba_marseille","lat":43.31525,"lon":5.38033,"is_reserved":false,"is_disabled":false,"rental_uris":{"android":"levelo://app?vid=8e8b985d-b1e1-41a2-8132-f0ba2ee524fd","ios":"levelo://app?vid=8e8b985d-b1e1-41a2-8132-f0ba2ee524fd"},"vehicle_type_id":"4","last_reported":1730840912,"current_range_meters":18000,"station_id":"ce4bhsp2rcd13ifvqi50","pricing_plan_id":"cebpf4jnsgd1na2vs0mg"},{"bike_id":"38526b2a-8697-4aef-a174-e0c1be19b7a7","system_id":"levelo_inurba_marseille","lat":43.28842,"lon":5.35881,"is_reserved":false,"is_disabled":false,"rental_uris":{"android":"levelo://app?vid=38526b2a-8697-4aef-a174-e0c1be19b7a7","ios":"levelo://app?vid=38526b2a-8697-4aef-a174-e0c1be19b7a7"},"vehicle_type_id":"4","last_reported":1730840912,"current_range_meters":14800,"station_id":"ce4bhb12rcd13ifvqem0","pricing_plan_id":"cebpf4jnsgd1na2vs0mg"},{"bike_id":"da35fddd-6cbb-4e6c-9f9d-fb571fd29e9d","system_id":"levelo_inurba_marseille","lat":43.31065,"lon":5.38346,"is_reserved":false,"is_disabled":false,"rental_uris":{"android":"levelo://app?vid=da35fddd-6cbb-4e6c-9f9d-fb571fd29e9d","ios":"levelo://app?vid=da35fddd-6cbb-4e6c-9f9d-fb571fd29e9d"},"vehicle_type_id":"4","last_reported":1730840912,"current_range_meters":9600,"station_id":"ce4bgv92rcd13ifvqcr0","pricing_plan_id":"cebpf4jnsgd1na2vs0mg"},{"bike_id":"a98dc656-1033-49f7-ab4c-18b53d446b8c","system_id":"levelo_inurba_marseille","lat":43.28715,"lon":5.37939,"is_reserved":false,"is_disabled":false,"rental_uris":{"android":"levelo://app?vid=a98dc656-1033-49f7-ab4c-18b53d446b8c","ios":"levelo://app?vid=a98dc656-1033-49f7-ab4c-18b53d446b8c"},"vehicle_type_id":"4","last_reported":1730840912,"current_range_meters":38800,"station_id":"ce4bh9p2rcd13ifvqec0","pricing_plan_id":"cebpf4jnsgd1na2vs0mg"},{"bike_id":"8ba9bdd7-2fbb-4057-9790-39e8b8c10d48","system_id":"levelo_inurba_marseille","lat":43.28406,"lon":5.37915,"is_reserved":false,"is_disabled":false,"rental_uris":{"android":"levelo://app?vid=8ba9bdd7-2fbb-4057-9790-39e8b8c10d48","ios":"levelo://app?vid=8ba9bdd7-2fbb-4057-9790-39e8b8c10d48"},"vehicle_type_id":"4","last_reported":1730840912,"current_range_meters":19600,"station_id":"","pricing_plan_id":"cebpf4jnsgd1na2vs0mg"},{"bike_id":"bb10a7e5-28ee-4ce5-959a-fb4e69a519f8","system_id":"levelo_inurba_marseille","lat":43.28146,"lon":5.42641,"is_reserved":false,"is_disabled":false,"rental_uris":{"android":"levelo://app?vid=bb10a7e5-28ee-4ce5-959a-fb4e69a519f8","ios":"levelo://app?vid=bb10a7e5-28ee-4ce5-959a-fb4e69a519f8"},"vehicle_type_id":"4","last_reported":1730840912,"current_range_meters":25600,"station_id":"ce4bhnh2rcd13ifvqgug","pricing_plan_id":"cebpf4jnsgd1na2vs0mg"},{"bike_id":"3b336f68-e9cb-4a91-afff-e57d8f8fa6a7","system_id":"levelo_inurba_marseille","lat":43.27921,"lon":5.39573,"is_reserved":false,"is_disabled":false,"rental_uris":{"android":"levelo://app?vid=3b336f68-e9cb-4a91-afff-e57d8f8fa6a7","ios":"levelo://app?vid=3b336f68-e9cb-4a91-afff-e57d8f8fa6a7"},"vehicle_type_id":"4","last_reported":1730840912,"current_range_meters":35200,"station_id":"ce4bhf92rcd13ifvqf40","pricing_plan_id":"cebpf4jnsgd1na2vs0mg"},{"bike_id":"768074e4-7919-4266-950b-096b92801fea","system_id":"levelo_inurba_marseille","lat":43.303558,"lon":5.37908,"is_reserved":false,"is_disabled":false,"rental_uris":{"android":"levelo://app?vid=768074e4-7919-4266-950b-096b92801fea","ios":"levelo://app?vid=768074e4-7919-4266-950b-096b92801fea"},"vehicle_type_id":"4","last_reported":1730840912,"current_range_meters":1200,"station_id":"ce4bgup2rcd13ifvqcn0","pricing_plan_id":"cebpf4jnsgd1na2vs0mg"},{"bike_id":"146d593e-9d63-4ae3-aeee-336ab9ffefcf","system_id":"levelo_inurba_marseille","lat":43.24171,"lon":5.39736,"is_reserved":false,"is_disabled":false,"rental_uris":{"android":"levelo://app?vid=146d593e-9d63-4ae3-aeee-336ab9ffefcf","ios":"levelo://app?vid=146d593e-9d63-4ae3-aeee-336ab9ffefcf"},"vehicle_type_id":"4","last_reported":1730840912,"current_range_meters":17200,"station_id":"ce4bhn12rcd13ifvqgpg","pricing_plan_id":"cebpf4jnsgd1na2vs0mg"},{"bike_id":"b8d968c2-430e-4297-9b22-19cd8c0f916d","system_id":"levelo_inurba_marseille","lat":43.23154,"lon":5.43707,"is_reserved":false,"is_disabled":false,"rental_uris":{"android":"levelo://app?vid=b8d968c2-430e-4297-9b22-19cd8c0f916d","ios":"levelo://app?vid=b8d968c2-430e-4297-9b22-19cd8c0f916d"},"vehicle_type_id":"4","last_reported":1730840912,"current_range_meters":38800,"station_id":"ce4bhmp2rcd13ifvqgog","pricing_plan_id":"cebpf4jnsgd1na2vs0mg"},{"bike_id":"5b8bb2fb-1f89-4213-afcd-7b3734dbb455","system_id":"levelo_inurba_marseille","lat":43.29249,"lon":5.40911,"is_reserved":false,"is_disabled":false,"rental_uris":{"android":"levelo://app?vid=5b8bb2fb-1f89-4213-afcd-7b3734dbb455","ios":"levelo://app?vid=5b8bb2fb-1f89-4213-afcd-7b3734dbb455"},"vehicle_type_id":"4","last_reported":1730840912,"current_range_meters":4400,"station_id":"ce4bh192rcd13ifvqdc0","pricing_plan_id":"cebpf4jnsgd1na2vs0mg"},{"bike_id":"72ac38b5-f296-4227-933d-d722153af882","system_id":"levelo_inurba_marseille","lat":43.2919,"lon":5.39321,"is_reserved":false,"is_disabled":false,"rental_uris":{"android":"levelo://app?vid=72ac38b5-f296-4227-933d-d722153af882","ios":"levelo://app?vid=72ac38b5-f296-4227-933d-d722153af882"},"vehicle_type_id":"4","last_reported":1730840912,"current_range_meters":12000,"station_id":"ce4bh192rcd13ifvqdd0","pricing_plan_id":"cebpf4jnsgd1na2vs0mg"},{"bike_id":"5d5df8cd-1e52-4c79-9e88-c08e2600eae7","system_id":"levelo_inurba_marseille","lat":43.31883,"lon":5.40732,"is_reserved":false,"is_disabled":false,"rental_uris":{"android":"levelo://app?vid=5d5df8cd-1e52-4c79-9e88-c08e2600eae7","ios":"levelo://app?vid=5d5df8cd-1e52-4c79-9e88-c08e2600eae7"},"vehicle_type_id":"4","last_reported":1730840912,"current_range_meters":16400,"station_id":"ce4bhq12rcd13ifvqhig","pricing_plan_id":"cebpf4jnsgd1na2vs0mg"},{"bike_id":"6a87822b-56c3-4da7-b2a7-60cccedf23bf","system_id":"levelo_inurba_marseille","lat":43.28937,"lon":5.3663,"is_reserved":false,"is_disabled":false,"rental_uris":{"android":"levelo://app?vid=6a87822b-56c3-4da7-b2a7-60cccedf23bf","ios":"levelo://app?vid=6a87822b-56c3-4da7-b2a7-60cccedf23bf"},"vehicle_type_id":"4","last_reported":1730840912,"current_range_meters":38800,"station_id":"ce4bhap2rcd13ifvqek0","pricing_plan_id":"cebpf4jnsgd1na2vs0mg"},{"bike_id":"77f0f942-cc19-4114-9693-f96851c5cf8b","system_id":"levelo_inurba_marseille","lat":43.31065,"lon":5.38345,"is_reserved":false,"is_disabled":false,"rental_uris":{"android":"levelo://app?vid=77f0f942-cc19-4114-9693-f96851c5cf8b","ios":"levelo://app?vid=77f0f942-cc19-4114-9693-f96851c5cf8b"},"vehicle_type_id":"4","last_reported":1730840912,"current_range_meters":14800,"station_id":"ce4bgv92rcd13ifvqcr0","pricing_plan_id":"cebpf4jnsgd1na2vs0mg"},{"bike_id":"1600515d-2cf9-44bb-9b6a-9c97b427f289","system_id":"levelo_inurba_marseille","lat":43.31077,"lon":5.38352,"is_reserved":false,"is_disabled":false,"rental_uris":{"android":"levelo://app?vid=1600515d-2cf9-44bb-9b6a-9c97b427f289","ios":"levelo://app?vid=1600515d-2cf9-44bb-9b6a-9c97b427f289"},"vehicle_type_id":"4","last_reported":1730840912,"current_range_meters":28800,"station_id":"ce4bgv92rcd13ifvqcr0","pricing_plan_id":"cebpf4jnsgd1na2vs0mg"},{"bike_id":"d03cd0da-2078-40e6-aa8e-a279310bc067","system_id":"levelo_inurba_marseille","lat":43.30206,"lon":5.39463,"is_reserved":false,"is_disabled":false,"rental_uris":{"android":"levelo://app?vid=d03cd0da-2078-40e6-aa8e-a279310bc067","ios":"levelo://app?vid=d03cd0da-2078-40e6-aa8e-a279310bc067"},"vehicle_type_id":"4","last_reported":1730840912,"current_range_meters":38800,"station_id":"ce4bh0p2rcd13ifvqd70","pricing_plan_id":"cebpf4jnsgd1na2vs0mg"},{"bike_id":"f4d7e5fd-4e97-4e48-9e69-cdfb479025f6","system_id":"levelo_inurba_marseille","lat":43.25108,"lon":5.40323,"is_reserved":false,"is_disabled":false,"rental_uris":{"android":"levelo://app?vid=f4d7e5fd-4e97-4e48-9e69-cdfb479025f6","ios":"levelo://app?vid=f4d7e5fd-4e97-4e48-9e69-cdfb479025f6"},"vehicle_type_id":"4","last_reported":1730840912,"current_range_meters":38800,"station_id":"ce4bhlh2rcd13ifvqgig","pricing_plan_id":"cebpf4jnsgd1na2vs0mg"},{"bike_id":"f9dbc465-c3e6-4f70-a06a-5fa9ba885b5e","system_id":"levelo_inurba_marseille","lat":43.29552,"lon":5.42283,"is_reserved":false,"is_disabled":false,"rental_uris":{"android":"levelo://app?vid=f9dbc465-c3e6-4f70-a06a-5fa9ba885b5e","ios":"levelo://app?vid=f9dbc465-c3e6-4f70-a06a-5fa9ba885b5e"},"vehicle_type_id":"4","last_reported":1730840912,"current_range_meters":16400,"station_id":"ce4bhph2rcd13ifvqhdg","pricing_plan_id":"cebpf4jnsgd1na2vs0mg"},{"bike_id":"556aaf85-7935-4773-a360-fcfae354cf07","system_id":"levelo_inurba_marseille","lat":43.294169,"lon":5.365659,"is_reserved":false,"is_disabled":false,"rental_uris":{"android":"levelo://app?vid=556aaf85-7935-4773-a360-fcfae354cf07","ios":"levelo://app?vid=556aaf85-7935-4773-a360-fcfae354cf07"},"vehicle_type_id":"4","last_reported":1730840912,"current_range_meters":35200,"station_id":"ce4bhb92rcd13ifvqen0","pricing_plan_id":"cebpf4jnsgd1na2vs0mg"},{"bike_id":"115faa9b-d432-4765-b4c8-112a3cb07d60","system_id":"levelo_inurba_marseille","lat":43.31079,"lon":5.42433,"is_reserved":false,"is_disabled":false,"rental_uris":{"android":"levelo://app?vid=115faa9b-d432-4765-b4c8-112a3cb07d60","ios":"levelo://app?vid=115faa9b-d432-4765-b4c8-112a3cb07d60"},"vehicle_type_id":"4","last_reported":1730840912,"current_range_meters":2800,"station_id":"ce4bhp92rcd13ifvqhag","pricing_plan_id":"cebpf4jnsgd1na2vs0mg"},{"bike_id":"a6cec6af-6878-4121-86ca-2aa1b3ec484c","system_id":"levelo_inurba_marseille","lat":43.31166,"lon":5.38722,"is_reserved":false,"is_disabled":false,"rental_uris":{"android":"levelo://app?vid=a6cec6af-6878-4121-86ca-2aa1b3ec484c","ios":"levelo://app?vid=a6cec6af-6878-4121-86ca-2aa1b3ec484c"},"vehicle_type_id":"4","last_reported":1730840912,"current_range_meters":23200,"station_id":"ce4bgv12rcd13ifvqcp0","pricing_plan_id":"cebpf4jnsgd1na2vs0mg"},{"bike_id":"13b1728a-6ba8-4697-b953-7d5c1172b1be","system_id":"levelo_inurba_marseille","lat":43.29444,"lon":5.39751,"is_reserved":false,"is_disabled":false,"rental_uris":{"android":"levelo://app?vid=13b1728a-6ba8-4697-b953-7d5c1172b1be","ios":"levelo://app?vid=13b1728a-6ba8-4697-b953-7d5c1172b1be"},"vehicle_type_id":"4","last_reported":1730840912,"current_range_meters":38800,"station_id":"ce4bh3h2rcd13ifvqdo0","pricing_plan_id":"cebpf4jnsgd1na2vs0mg"},{"bike_id":"71ab47da-bfae-4dbc-83e1-967e92288ca2","system_id":"levelo_inurba_marseille","lat":43.2903,"lon":5.38636,"is_reserved":false,"is_disabled":false,"rental_uris":{"android":"levelo://app?vid=71ab47da-bfae-4dbc-83e1-967e92288ca2","ios":"levelo://app?vid=71ab47da-bfae-4dbc-83e1-967e92288ca2"},"vehicle_type_id":"4","last_reported":1730840912,"current_range_meters":10800,"station_id":"ce4bh4p2rcd13ifvqe0g","pricing_plan_id":"cebpf4jnsgd1na2vs0mg"},{"bike_id":"35b06bc8-da46-4ba5-8c07-e31dde1f57ed","system_id":"levelo_inurba_marseille","lat":43.30323,"lon":5.40433,"is_reserved":false,"is_disabled":false,"rental_uris":{"android":"levelo://app?vid=35b06bc8-da46-4ba5-8c07-e31dde1f57ed","ios":"levelo://app?vid=35b06bc8-da46-4ba5-8c07-e31dde1f57ed"},"vehicle_type_id":"4","last_reported":1730840912,"current_range_meters":36000,"station_id":"ce4bh012rcd13ifvqd10","pricing_plan_id":"cebpf4jnsgd1na2vs0mg"},{"bike_id":"96dca3f5-f584-466c-9e2a-018b75c82375","system_id":"levelo_inurba_marseille","lat":43.3136,"lon":5.38488,"is_reserved":false,"is_disabled":false,"rental_uris":{"android":"levelo://app?vid=96dca3f5-f584-466c-9e2a-018b75c82375","ios":"levelo://app?vid=96dca3f5-f584-466c-9e2a-018b75c82375"},"vehicle_type_id":"4","last_reported":1730840912,"current_range_meters":38800,"station_id":"ce4bgt92rcd13ifvqcf0","pricing_plan_id":"cebpf4jnsgd1na2vs0mg"},{"bike_id":"d411cf03-cce4-4b68-b4d2-e257e743e03b","system_id":"levelo_inurba_marseille","lat":43.31077,"lon":5.38352,"is_reserved":false,"is_disabled":false,"rental_uris":{"android":"levelo://app?vid=d411cf03-cce4-4b68-b4d2-e257e743e03b","ios":"levelo://app?vid=d411cf03-cce4-4b68-b4d2-e257e743e03b"},"vehicle_type_id":"4","last_reported":1730840912,"current_range_meters":9600,"station_id":"ce4bgv92rcd13ifvqcr0","pricing_plan_id":"cebpf4jnsgd1na2vs0mg"},{"bike_id":"2f49d284-52bf-45d7-bda8-784d0ed3fdf6","system_id":"levelo_inurba_marseille","lat":43.29781,"lon":5.3934,"is_reserved":false,"is_disabled":false,"rental_uris":{"android":"levelo://app?vid=2f49d284-52bf-45d7-bda8-784d0ed3fdf6","ios":"levelo://app?vid=2f49d284-52bf-45d7-bda8-784d0ed3fdf6"},"vehicle_type_id":"4","last_reported":1730840912,"current_range_meters":38000,"station_id":"chh1huq6cuj3fo74tm60","pricing_plan_id":"cebpf4jnsgd1na2vs0mg"},{"bike_id":"70e0d61b-4d76-49a8-a13c-d24eda1de38e","system_id":"levelo_inurba_marseille","lat":43.29445,"lon":5.39746,"is_reserved":false,"is_disabled":false,"rental_uris":{"android":"levelo://app?vid=70e0d61b-4d76-49a8-a13c-d24eda1de38e","ios":"levelo://app?vid=70e0d61b-4d76-49a8-a13c-d24eda1de38e"},"vehicle_type_id":"4","last_reported":1730840912,"current_range_meters":35200,"station_id":"ce4bh3h2rcd13ifvqdo0","pricing_plan_id":"cebpf4jnsgd1na2vs0mg"},{"bike_id":"55c76d5d-4688-4758-8197-2f55229e36aa","system_id":"levelo_inurba_marseille","lat":43.25087,"lon":5.39525,"is_reserved":false,"is_disabled":false,"rental_uris":{"android":"levelo://app?vid=55c76d5d-4688-4758-8197-2f55229e36aa","ios":"levelo://app?vid=55c76d5d-4688-4758-8197-2f55229e36aa"},"vehicle_type_id":"4","last_reported":1730840912,"current_range_meters":34800,"station_id":"ce4bhm12rcd13ifvqgkg","pricing_plan_id":"cebpf4jnsgd1na2vs0mg"},{"bike_id":"c3cc4d3c-939d-4f3c-b1cc-4aa798cb58cc","system_id":"levelo_inurba_marseille","lat":43.28847,"lon":5.3584,"is_reserved":false,"is_disabled":false,"rental_uris":{"android":"levelo://app?vid=c3cc4d3c-939d-4f3c-b1cc-4aa798cb58cc","ios":"levelo://app?vid=c3cc4d3c-939d-4f3c-b1cc-4aa798cb58cc"},"vehicle_type_id":"4","last_reported":1730840912,"current_range_meters":39200,"station_id":"ce4bhb12rcd13ifvqem0","pricing_plan_id":"cebpf4jnsgd1na2vs0mg"},{"bike_id":"dacb3127-cf48-43ba-ac28-e87e8fb962d2","system_id":"levelo_inurba_marseille","lat":43.24073,"lon":5.37762,"is_reserved":false,"is_disabled":false,"rental_uris":{"android":"levelo://app?vid=dacb3127-cf48-43ba-ac28-e87e8fb962d2","ios":"levelo://app?vid=dacb3127-cf48-43ba-ac28-e87e8fb962d2"},"vehicle_type_id":"4","last_reported":1730840912,"current_range_meters":9600,"station_id":"ce4bhnp2rcd13ifvqgvg","pricing_plan_id":"cebpf4jnsgd1na2vs0mg"},{"bike_id":"f11a2717-ae8c-467a-ae42-fad3965c7d51","system_id":"levelo_inurba_marseille","lat":43.28936,"lon":5.36381,"is_reserved":false,"is_disabled":false,"rental_uris":{"android":"levelo://app?vid=f11a2717-ae8c-467a-ae42-fad3965c7d51","ios":"levelo://app?vid=f11a2717-ae8c-467a-ae42-fad3965c7d51"},"vehicle_type_id":"4","last_reported":1730840912,"current_range_meters":38800,"station_id":"ce4bhc92rcd13ifvqetg","pricing_plan_id":"cebpf4jnsgd1na2vs0mg"},{"bike_id":"2c6cebc2-f5ba-4cf5-90c9-ed30ada0bbfd","system_id":"levelo_inurba_marseille","lat":43.29887,"lon":5.38904,"is_reserved":false,"is_disabled":false,"rental_uris":{"android":"levelo://app?vid=2c6cebc2-f5ba-4cf5-90c9-ed30ada0bbfd","ios":"levelo://app?vid=2c6cebc2-f5ba-4cf5-90c9-ed30ada0bbfd"},"vehicle_type_id":"4","last_reported":1730840912,"current_range_meters":38800,"station_id":"ce4bh392rcd13ifvqdl0","pricing_plan_id":"cebpf4jnsgd1na2vs0mg"},{"bike_id":"afce958e-c83c-4b70-a2e0-54c65d8b1ce1","system_id":"levelo_inurba_marseille","lat":43.31489,"lon":5.3731,"is_reserved":false,"is_disabled":false,"rental_uris":{"android":"levelo://app?vid=afce958e-c83c-4b70-a2e0-54c65d8b1ce1","ios":"levelo://app?vid=afce958e-c83c-4b70-a2e0-54c65d8b1ce1"},"vehicle_type_id":"4","last_reported":1730840912,"current_range_meters":20400,"station_id":"ce4bgt12rcd13ifvqcd0","pricing_plan_id":"cebpf4jnsgd1na2vs0mg"},{"bike_id":"97b5b96f-19cf-4526-a0ad-961adaa88761","system_id":"levelo_inurba_marseille","lat":43.29187,"lon":5.39321,"is_reserved":false,"is_disabled":false,"rental_uris":{"android":"levelo://app?vid=97b5b96f-19cf-4526-a0ad-961adaa88761","ios":"levelo://app?vid=97b5b96f-19cf-4526-a0ad-961adaa88761"},"vehicle_type_id":"4","last_reported":1730840912,"current_range_meters":6800,"station_id":"ce4bh192rcd13ifvqdd0","pricing_plan_id":"cebpf4jnsgd1na2vs0mg"},{"bike_id":"0a3c1a6b-eadc-4e53-adb5-ce60bbc39060","system_id":"levelo_inurba_marseille","lat":43.33017,"lon":5.3903,"is_reserved":false,"is_disabled":false,"rental_uris":{"android":"levelo://app?vid=0a3c1a6b-eadc-4e53-adb5-ce60bbc39060","ios":"levelo://app?vid=0a3c1a6b-eadc-4e53-adb5-ce60bbc39060"},"vehicle_type_id":"4","last_reported":1730840912,"current_range_meters":38800,"station_id":"ce4bhr92rcd13ifvqhrg","pricing_plan_id":"cebpf4jnsgd1na2vs0mg"},{"bike_id":"05f53b3d-d7cc-436f-b074-804da32a1bfa","system_id":"levelo_inurba_marseille","lat":43.29359,"lon":5.37835,"is_reserved":false,"is_disabled":false,"rental_uris":{"android":"levelo://app?vid=05f53b3d-d7cc-436f-b074-804da32a1bfa","ios":"levelo://app?vid=05f53b3d-d7cc-436f-b074-804da32a1bfa"},"vehicle_type_id":"4","last_reported":1730840912,"current_range_meters":20000,"station_id":"ce4bgjh2rcd13ifvqbf0","pricing_plan_id":"cebpf4jnsgd1na2vs0mg"},{"bike_id":"ac3085be-2aba-453a-b37c-d1057ee9d66b","system_id":"levelo_inurba_marseille","lat":43.3127,"lon":5.40166,"is_reserved":false,"is_disabled":false,"rental_uris":{"android":"levelo://app?vid=ac3085be-2aba-453a-b37c-d1057ee9d66b","ios":"levelo://app?vid=ac3085be-2aba-453a-b37c-d1057ee9d66b"},"vehicle_type_id":"4","last_reported":1730840912,"current_range_meters":7200,"station_id":"ce4bh092rcd13ifvqd30","pricing_plan_id":"cebpf4jnsgd1na2vs0mg"},{"bike_id":"5508b02d-fd20-4336-b4b3-1d4e07743d69","system_id":"levelo_inurba_marseille","lat":43.29418,"lon":5.38635,"is_reserved":false,"is_disabled":false,"rental_uris":{"android":"levelo://app?vid=5508b02d-fd20-4336-b4b3-1d4e07743d69","ios":"levelo://app?vid=5508b02d-fd20-4336-b4b3-1d4e07743d69"},"vehicle_type_id":"4","last_reported":1730840912,"current_range_meters":38800,"station_id":"ce4bh2h2rcd13ifvqdh0","pricing_plan_id":"cebpf4jnsgd1na2vs0mg"},{"bike_id":"82f5c55c-8fe7-4521-a75c-179bf85b9ff8","system_id":"levelo_inurba_marseille","lat":43.32657,"lon":5.40997,"is_reserved":false,"is_disabled":false,"rental_uris":{"android":"levelo://app?vid=82f5c55c-8fe7-4521-a75c-179bf85b9ff8","ios":"levelo://app?vid=82f5c55c-8fe7-4521-a75c-179bf85b9ff8"},"vehicle_type_id":"4","last_reported":1730840912,"current_range_meters":38800,"station_id":"ce4bhpp2rcd13ifvqhgg","pricing_plan_id":"cebpf4jnsgd1na2vs0mg"},{"bike_id":"671ee801-ed83-4222-b723-723fea4dce62","system_id":"levelo_inurba_marseille","lat":43.27846,"lon":5.40709,"is_reserved":false,"is_disabled":false,"rental_uris":{"android":"levelo://app?vid=671ee801-ed83-4222-b723-723fea4dce62","ios":"levelo://app?vid=671ee801-ed83-4222-b723-723fea4dce62"},"vehicle_type_id":"4","last_reported":1730840912,"current_range_meters":33600,"station_id":"ce4bhnh2rcd13ifvqgtg","pricing_plan_id":"cebpf4jnsgd1na2vs0mg"},{"bike_id":"818f01a2-70c1-4282-8f3e-a5df75b74421","system_id":"levelo_inurba_marseille","lat":43.23152,"lon":5.43708,"is_reserved":false,"is_disabled":false,"rental_uris":{"android":"levelo://app?vid=818f01a2-70c1-4282-8f3e-a5df75b74421","ios":"levelo://app?vid=818f01a2-70c1-4282-8f3e-a5df75b74421"},"vehicle_type_id":"4","last_reported":1730840912,"current_range_meters":19200,"station_id":"ce4bhmp2rcd13ifvqgog","pricing_plan_id":"cebpf4jnsgd1na2vs0mg"},{"bike_id":"3e867c82-b027-406e-8963-ee0a6178c49d","system_id":"levelo_inurba_marseille","lat":43.28956,"lon":5.36627,"is_reserved":false,"is_disabled":false,"rental_uris":{"android":"levelo://app?vid=3e867c82-b027-406e-8963-ee0a6178c49d","ios":"levelo://app?vid=3e867c82-b027-406e-8963-ee0a6178c49d"},"vehicle_type_id":"4","last_reported":1730840912,"current_range_meters":39200,"station_id":"ce4bhap2rcd13ifvqek0","pricing_plan_id":"cebpf4jnsgd1na2vs0mg"},{"bike_id":"333b0aae-276c-4843-ac1a-6be197ab7b09","system_id":"levelo_inurba_marseille","lat":43.28346,"lon":5.38113,"is_reserved":false,"is_disabled":false,"rental_uris":{"android":"levelo://app?vid=333b0aae-276c-4843-ac1a-6be197ab7b09","ios":"levelo://app?vid=333b0aae-276c-4843-ac1a-6be197ab7b09"},"vehicle_type_id":"4","last_reported":1730840912,"current_range_meters":38800,"station_id":"ce4bh412rcd13ifvqdr0","pricing_plan_id":"cebpf4jnsgd1na2vs0mg"},{"bike_id":"8770241d-63e5-44fd-b573-c66afef6a3ba","system_id":"levelo_inurba_marseille","lat":43.29188,"lon":5.39319,"is_reserved":false,"is_disabled":false,"rental_uris":{"android":"levelo://app?vid=8770241d-63e5-44fd-b573-c66afef6a3ba","ios":"levelo://app?vid=8770241d-63e5-44fd-b573-c66afef6a3ba"},"vehicle_type_id":"4","last_reported":1730840912,"current_range_meters":38000,"station_id":"ce4bh192rcd13ifvqdd0","pricing_plan_id":"cebpf4jnsgd1na2vs0mg"},{"bike_id":"9bc87e04-8a5b-4fcc-8519-de6ebc161855","system_id":"levelo_inurba_marseille","lat":43.29787,"lon":5.38098,"is_reserved":false,"is_disabled":false,"rental_uris":{"android":"levelo://app?vid=9bc87e04-8a5b-4fcc-8519-de6ebc161855","ios":"levelo://app?vid=9bc87e04-8a5b-4fcc-8519-de6ebc161855"},"vehicle_type_id":"4","last_reported":1730840912,"current_range_meters":14400,"station_id":"ce4bgip2rcd13ifvqbb0","pricing_plan_id":"cebpf4jnsgd1na2vs0mg"},{"bike_id":"57c90255-7e1f-484a-88be-3236b69dea5e","system_id":"levelo_inurba_marseille","lat":43.28351,"lon":5.38105,"is_reserved":false,"is_disabled":false,"rental_uris":{"android":"levelo://app?vid=57c90255-7e1f-484a-88be-3236b69dea5e","ios":"levelo://app?vid=57c90255-7e1f-484a-88be-3236b69dea5e"},"vehicle_type_id":"4","last_reported":1730840912,"current_range_meters":35600,"station_id":"ce4bh412rcd13ifvqdr0","pricing_plan_id":"cebpf4jnsgd1na2vs0mg"},{"bike_id":"1be6e434-9504-4264-aa18-882d7981ff78","system_id":"levelo_inurba_marseille","lat":43.25865,"lon":5.399,"is_reserved":false,"is_disabled":false,"rental_uris":{"android":"levelo://app?vid=1be6e434-9504-4264-aa18-882d7981ff78","ios":"levelo://app?vid=1be6e434-9504-4264-aa18-882d7981ff78"},"vehicle_type_id":"4","last_reported":1730840912,"current_range_meters":12000,"station_id":"ce4bhl92rcd13ifvqghg","pricing_plan_id":"cebpf4jnsgd1na2vs0mg"},{"bike_id":"83675056-f7fe-445c-8154-3884f1a3657c","system_id":"levelo_inurba_marseille","lat":43.24071,"lon":5.37768,"is_reserved":false,"is_disabled":false,"rental_uris":{"android":"levelo://app?vid=83675056-f7fe-445c-8154-3884f1a3657c","ios":"levelo://app?vid=83675056-f7fe-445c-8154-3884f1a3657c"},"vehicle_type_id":"4","last_reported":1730840912,"current_range_meters":32800,"station_id":"ce4bhnp2rcd13ifvqgvg","pricing_plan_id":"cebpf4jnsgd1na2vs0mg"},{"bike_id":"7a528e14-cf0e-4d63-9d40-5fb387a01743","system_id":"levelo_inurba_marseille","lat":43.30088,"lon":5.39085,"is_reserved":false,"is_disabled":false,"rental_uris":{"android":"levelo://app?vid=7a528e14-cf0e-4d63-9d40-5fb387a01743","ios":"levelo://app?vid=7a528e14-cf0e-4d63-9d40-5fb387a01743"},"vehicle_type_id":"4","last_reported":1730840912,"current_range_meters":28800,"station_id":"ce4bh192rcd13ifvqdb0","pricing_plan_id":"cebpf4jnsgd1na2vs0mg"},{"bike_id":"ebeb89f9-416e-487c-98db-accaa64ac807","system_id":"levelo_inurba_marseille","lat":43.28033,"lon":5.36945,"is_reserved":false,"is_disabled":false,"rental_uris":{"android":"levelo://app?vid=ebeb89f9-416e-487c-98db-accaa64ac807","ios":"levelo://app?vid=ebeb89f9-416e-487c-98db-accaa64ac807"},"vehicle_type_id":"4","last_reported":1730840912,"current_range_meters":16800,"station_id":"ce4bha12rcd13ifvqef0","pricing_plan_id":"cebpf4jnsgd1na2vs0mg"},{"bike_id":"7caad74d-aa77-4efc-940d-73314ceab0d0","system_id":"levelo_inurba_marseille","lat":43.28347,"lon":5.38107,"is_reserved":false,"is_disabled":false,"rental_uris":{"android":"levelo://app?vid=7caad74d-aa77-4efc-940d-73314ceab0d0","ios":"levelo://app?vid=7caad74d-aa77-4efc-940d-73314ceab0d0"},"vehicle_type_id":"4","last_reported":1730840912,"current_range_meters":38800,"station_id":"ce4bh412rcd13ifvqdr0","pricing_plan_id":"cebpf4jnsgd1na2vs0mg"},{"bike_id":"5d4cf290-2292-4a3f-a1cd-99091d4ab8ee","system_id":"levelo_inurba_marseille","lat":43.32364,"lon":5.38883,"is_reserved":false,"is_disabled":false,"rental_uris":{"android":"levelo://app?vid=5d4cf290-2292-4a3f-a1cd-99091d4ab8ee","ios":"levelo://app?vid=5d4cf290-2292-4a3f-a1cd-99091d4ab8ee"},"vehicle_type_id":"4","last_reported":1730840912,"current_range_meters":38800,"station_id":"ce4bhqp2rcd13ifvqhog","pricing_plan_id":"cebpf4jnsgd1na2vs0mg"},{"bike_id":"9048ebe6-0239-470a-af7d-c5634530ba1b","system_id":"levelo_inurba_marseille","lat":43.33024,"lon":5.39042,"is_reserved":false,"is_disabled":false,"rental_uris":{"android":"levelo://app?vid=9048ebe6-0239-470a-af7d-c5634530ba1b","ios":"levelo://app?vid=9048ebe6-0239-470a-af7d-c5634530ba1b"},"vehicle_type_id":"4","last_reported":1730840912,"current_range_meters":24400,"station_id":"ce4bhr92rcd13ifvqhrg","pricing_plan_id":"cebpf4jnsgd1na2vs0mg"},{"bike_id":"9a20bb40-75c3-4327-b0ec-ab5947482e03","system_id":"levelo_inurba_marseille","lat":43.29526,"lon":5.38546,"is_reserved":false,"is_disabled":false,"rental_uris":{"android":"levelo://app?vid=9a20bb40-75c3-4327-b0ec-ab5947482e03","ios":"levelo://app?vid=9a20bb40-75c3-4327-b0ec-ab5947482e03"},"vehicle_type_id":"4","last_reported":1730840912,"current_range_meters":38800,"station_id":"ce4bgih2rcd13ifvqba0","pricing_plan_id":"cebpf4jnsgd1na2vs0mg"},{"bike_id":"1d27b3a1-f13e-4920-8c40-27faf2c97a48","system_id":"levelo_inurba_marseille","lat":43.2319,"lon":5.3556,"is_reserved":false,"is_disabled":false,"rental_uris":{"android":"levelo://app?vid=1d27b3a1-f13e-4920-8c40-27faf2c97a48","ios":"levelo://app?vid=1d27b3a1-f13e-4920-8c40-27faf2c97a48"},"vehicle_type_id":"4","last_reported":1730840912,"current_range_meters":38800,"station_id":"ce4bhu92rcd13ifvqi70","pricing_plan_id":"cebpf4jnsgd1na2vs0mg"},{"bike_id":"b7f4d000-c0d4-4dae-9519-3bb78e25e433","system_id":"levelo_inurba_marseille","lat":43.29525,"lon":5.39408,"is_reserved":false,"is_disabled":false,"rental_uris":{"android":"levelo://app?vid=b7f4d000-c0d4-4dae-9519-3bb78e25e433","ios":"levelo://app?vid=b7f4d000-c0d4-4dae-9519-3bb78e25e433"},"vehicle_type_id":"4","last_reported":1730840912,"current_range_meters":38800,"station_id":"ce4bh292rcd13ifvqdf0","pricing_plan_id":"cebpf4jnsgd1na2vs0mg"},{"bike_id":"0e6adf64-635e-40e8-93e1-b384407d876d","system_id":"levelo_inurba_marseille","lat":43.29557,"lon":5.42281,"is_reserved":false,"is_disabled":false,"rental_uris":{"android":"levelo://app?vid=0e6adf64-635e-40e8-93e1-b384407d876d","ios":"levelo://app?vid=0e6adf64-635e-40e8-93e1-b384407d876d"},"vehicle_type_id":"4","last_reported":1730840912,"current_range_meters":39200,"station_id":"ce4bhph2rcd13ifvqhdg","pricing_plan_id":"cebpf4jnsgd1na2vs0mg"},{"bike_id":"9c3cf47b-55d6-41b8-abca-a44c147865fb","system_id":"levelo_inurba_marseille","lat":43.25087,"lon":5.39523,"is_reserved":false,"is_disabled":false,"rental_uris":{"android":"levelo://app?vid=9c3cf47b-55d6-41b8-abca-a44c147865fb","ios":"levelo://app?vid=9c3cf47b-55d6-41b8-abca-a44c147865fb"},"vehicle_type_id":"4","last_reported":1730840912,"current_range_meters":4000,"station_id":"ce4bhm12rcd13ifvqgkg","pricing_plan_id":"cebpf4jnsgd1na2vs0mg"},{"bike_id":"36ec6802-c073-4362-9791-8156f83cecde","system_id":"levelo_inurba_marseille","lat":43.28946,"lon":5.36636,"is_reserved":false,"is_disabled":false,"rental_uris":{"android":"levelo://app?vid=36ec6802-c073-4362-9791-8156f83cecde","ios":"levelo://app?vid=36ec6802-c073-4362-9791-8156f83cecde"},"vehicle_type_id":"4","last_reported":1730840912,"current_range_meters":3600,"station_id":"ce4bhap2rcd13ifvqek0","pricing_plan_id":"cebpf4jnsgd1na2vs0mg"},{"bike_id":"31c6d5e2-48b8-4846-9d30-11078a7a80f0","system_id":"levelo_inurba_marseille","lat":43.30186,"lon":5.3661,"is_reserved":false,"is_disabled":false,"rental_uris":{"android":"levelo://app?vid=31c6d5e2-48b8-4846-9d30-11078a7a80f0","ios":"levelo://app?vid=31c6d5e2-48b8-4846-9d30-11078a7a80f0"},"vehicle_type_id":"4","last_reported":1730840912,"current_range_meters":32000,"station_id":"ce4bgrh2rcd13ifvqc8g","pricing_plan_id":"cebpf4jnsgd1na2vs0mg"},{"bike_id":"b2a201f8-3cd5-4b26-96c1-71715b360909","system_id":"levelo_inurba_marseille","lat":43.2827,"lon":5.35077,"is_reserved":false,"is_disabled":false,"rental_uris":{"android":"levelo://app?vid=b2a201f8-3cd5-4b26-96c1-71715b360909","ios":"levelo://app?vid=b2a201f8-3cd5-4b26-96c1-71715b360909"},"vehicle_type_id":"4","last_reported":1730840912,"current_range_meters":14800,"station_id":"ce4bhbp2rcd13ifvqerg","pricing_plan_id":"cebpf4jnsgd1na2vs0mg"},{"bike_id":"2a8fee2e-5a98-40f7-a0f3-4c0440dac1e2","system_id":"levelo_inurba_marseille","lat":43.27723,"lon":5.38856,"is_reserved":false,"is_disabled":false,"rental_uris":{"android":"levelo://app?vid=2a8fee2e-5a98-40f7-a0f3-4c0440dac1e2","ios":"levelo://app?vid=2a8fee2e-5a98-40f7-a0f3-4c0440dac1e2"},"vehicle_type_id":"4","last_reported":1730840912,"current_range_meters":2000,"station_id":"ce4bhi12rcd13ifvqfo0","pricing_plan_id":"cebpf4jnsgd1na2vs0mg"},{"bike_id":"f6bcaf4d-6032-4ab5-be14-85a40c9ecc6c","system_id":"levelo_inurba_marseille","lat":43.29537,"lon":5.38539,"is_reserved":false,"is_disabled":false,"rental_uris":{"android":"levelo://app?vid=f6bcaf4d-6032-4ab5-be14-85a40c9ecc6c","ios":"levelo://app?vid=f6bcaf4d-6032-4ab5-be14-85a40c9ecc6c"},"vehicle_type_id":"4","last_reported":1730840912,"current_range_meters":38800,"station_id":"ce4bgih2rcd13ifvqba0","pricing_plan_id":"cebpf4jnsgd1na2vs0mg"},{"bike_id":"dda0ab10-f2a2-45f5-9271-e032dbc6687a","system_id":"levelo_inurba_marseille","lat":43.3078,"lon":5.37658,"is_reserved":false,"is_disabled":false,"rental_uris":{"android":"levelo://app?vid=dda0ab10-f2a2-45f5-9271-e032dbc6687a","ios":"levelo://app?vid=dda0ab10-f2a2-45f5-9271-e032dbc6687a"},"vehicle_type_id":"4","last_reported":1730840912,"current_range_meters":38800,"station_id":"ce4bgv92rcd13ifvqcq0","pricing_plan_id":"cebpf4jnsgd1na2vs0mg"},{"bike_id":"e7874ce2-f692-46c5-87b4-56890b100158","system_id":"levelo_inurba_marseille","lat":43.23064,"lon":5.35496,"is_reserved":false,"is_disabled":false,"rental_uris":{"android":"levelo://app?vid=e7874ce2-f692-46c5-87b4-56890b100158","ios":"levelo://app?vid=e7874ce2-f692-46c5-87b4-56890b100158"},"vehicle_type_id":"4","last_reported":1730840912,"current_range_meters":38800,"station_id":"cpo3342slgdg3j2ifvpg","pricing_plan_id":"cebpf4jnsgd1na2vs0mg"},{"bike_id":"3d66523d-b009-4de8-bcd1-7b4c4b4cf6e5","system_id":"levelo_inurba_marseille","lat":43.28272,"lon":5.35086,"is_reserved":false,"is_disabled":false,"rental_uris":{"android":"levelo://app?vid=3d66523d-b009-4de8-bcd1-7b4c4b4cf6e5","ios":"levelo://app?vid=3d66523d-b009-4de8-bcd1-7b4c4b4cf6e5"},"vehicle_type_id":"4","last_reported":1730840912,"current_range_meters":7200,"station_id":"ce4bhbp2rcd13ifvqerg","pricing_plan_id":"cebpf4jnsgd1na2vs0mg"},{"bike_id":"04c9d718-0be2-4fa0-81b6-ef7b939a5614","system_id":"levelo_inurba_marseille","lat":43.2942,"lon":5.3862,"is_reserved":false,"is_disabled":false,"rental_uris":{"android":"levelo://app?vid=04c9d718-0be2-4fa0-81b6-ef7b939a5614","ios":"levelo://app?vid=04c9d718-0be2-4fa0-81b6-ef7b939a5614"},"vehicle_type_id":"4","last_reported":1730840912,"current_range_meters":8000,"station_id":"ce4bh2h2rcd13ifvqdh0","pricing_plan_id":"cebpf4jnsgd1na2vs0mg"},{"bike_id":"fd252e28-b9de-4daa-a1cb-38a081e89224","system_id":"levelo_inurba_marseille","lat":43.26926,"lon":5.38922,"is_reserved":false,"is_disabled":false,"rental_uris":{"android":"levelo://app?vid=fd252e28-b9de-4daa-a1cb-38a081e89224","ios":"levelo://app?vid=fd252e28-b9de-4daa-a1cb-38a081e89224"},"vehicle_type_id":"4","last_reported":1730840912,"current_range_meters":22800,"station_id":"ce4bhhh2rcd13ifvqfl0","pricing_plan_id":"cebpf4jnsgd1na2vs0mg"},{"bike_id":"5e383f09-f64a-4578-88e6-a680831a6606","system_id":"levelo_inurba_marseille","lat":43.28616,"lon":5.35102,"is_reserved":false,"is_disabled":false,"rental_uris":{"android":"levelo://app?vid=5e383f09-f64a-4578-88e6-a680831a6606","ios":"levelo://app?vid=5e383f09-f64a-4578-88e6-a680831a6606"},"vehicle_type_id":"4","last_reported":1730840912,"current_range_meters":20800,"station_id":"ce4bhch2rcd13ifvqeug","pricing_plan_id":"cebpf4jnsgd1na2vs0mg"},{"bike_id":"4e9078bc-bc86-41b0-88b1-feae4c3c5785","system_id":"levelo_inurba_marseille","lat":43.24806,"lon":5.37456,"is_reserved":false,"is_disabled":false,"rental_uris":{"android":"levelo://app?vid=4e9078bc-bc86-41b0-88b1-feae4c3c5785","ios":"levelo://app?vid=4e9078bc-bc86-41b0-88b1-feae4c3c5785"},"vehicle_type_id":"4","last_reported":1730840912,"current_range_meters":19200,"station_id":"ce4bhgh2rcd13ifvqfb0","pricing_plan_id":"cebpf4jnsgd1na2vs0mg"},{"bike_id":"21d90bbb-c0dd-48d9-a589-6379a9c811c0","system_id":"levelo_inurba_marseille","lat":43.29525,"lon":5.39037,"is_reserved":false,"is_disabled":false,"rental_uris":{"android":"levelo://app?vid=21d90bbb-c0dd-48d9-a589-6379a9c811c0","ios":"levelo://app?vid=21d90bbb-c0dd-48d9-a589-6379a9c811c0"},"vehicle_type_id":"4","last_reported":1730840912,"current_range_meters":36800,"station_id":"ce4bh3p2rcd13ifvqdp0","pricing_plan_id":"cebpf4jnsgd1na2vs0mg"},{"bike_id":"1ad90c90-34d5-44dd-8036-6a38b76660f0","system_id":"levelo_inurba_marseille","lat":43.312744,"lon":5.401586,"is_reserved":false,"is_disabled":false,"rental_uris":{"android":"levelo://app?vid=1ad90c90-34d5-44dd-8036-6a38b76660f0","ios":"levelo://app?vid=1ad90c90-34d5-44dd-8036-6a38b76660f0"},"vehicle_type_id":"4","last_reported":1730840912,"current_range_meters":36800,"station_id":"ce4bh092rcd13ifvqd30","pricing_plan_id":"cebpf4jnsgd1na2vs0mg"},{"bike_id":"0a5e7c6c-f128-44e3-a982-8ff8945370d1","system_id":"levelo_inurba_marseille","lat":43.3089,"lon":5.37198,"is_reserved":false,"is_disabled":false,"rental_uris":{"android":"levelo://app?vid=0a5e7c6c-f128-44e3-a982-8ff8945370d1","ios":"levelo://app?vid=0a5e7c6c-f128-44e3-a982-8ff8945370d1"},"vehicle_type_id":"4","last_reported":1730840912,"current_range_meters":19600,"station_id":"ce4bguh2rcd13ifvqckg","pricing_plan_id":"cebpf4jnsgd1na2vs0mg"},{"bike_id":"9bf51cfd-59f7-461a-a1ce-1f518512b7ef","system_id":"levelo_inurba_marseille","lat":43.23967,"lon":5.36636,"is_reserved":false,"is_disabled":false,"rental_uris":{"android":"levelo://app?vid=9bf51cfd-59f7-461a-a1ce-1f518512b7ef","ios":"levelo://app?vid=9bf51cfd-59f7-461a-a1ce-1f518512b7ef"},"vehicle_type_id":"4","last_reported":1730840912,"current_range_meters":14800,"station_id":"ce4bhi12rcd13ifvqfp0","pricing_plan_id":"cebpf4jnsgd1na2vs0mg"},{"bike_id":"176ba104-5f69-4938-8359-625ff45324b0","system_id":"levelo_inurba_marseille","lat":43.31886,"lon":5.40743,"is_reserved":false,"is_disabled":false,"rental_uris":{"android":"levelo://app?vid=176ba104-5f69-4938-8359-625ff45324b0","ios":"levelo://app?vid=176ba104-5f69-4938-8359-625ff45324b0"},"vehicle_type_id":"4","last_reported":1730840912,"current_range_meters":3200,"station_id":"ce4bhq12rcd13ifvqhig","pricing_plan_id":"cebpf4jnsgd1na2vs0mg"},{"bike_id":"54ef9017-968f-4e6c-9a5c-ee671c48ea58","system_id":"levelo_inurba_marseille","lat":43.30098,"lon":5.39077,"is_reserved":false,"is_disabled":false,"rental_uris":{"android":"levelo://app?vid=54ef9017-968f-4e6c-9a5c-ee671c48ea58","ios":"levelo://app?vid=54ef9017-968f-4e6c-9a5c-ee671c48ea58"},"vehicle_type_id":"4","last_reported":1730840912,"current_range_meters":38800,"station_id":"ce4bh192rcd13ifvqdb0","pricing_plan_id":"cebpf4jnsgd1na2vs0mg"},{"bike_id":"ab60b8ae-f374-4abc-8cf7-2582b117f8f5","system_id":"levelo_inurba_marseille","lat":43.29885,"lon":5.38913,"is_reserved":false,"is_disabled":false,"rental_uris":{"android":"levelo://app?vid=ab60b8ae-f374-4abc-8cf7-2582b117f8f5","ios":"levelo://app?vid=ab60b8ae-f374-4abc-8cf7-2582b117f8f5"},"vehicle_type_id":"4","last_reported":1730840912,"current_range_meters":38800,"station_id":"ce4bh392rcd13ifvqdl0","pricing_plan_id":"cebpf4jnsgd1na2vs0mg"},{"bike_id":"eab47ed5-f83a-4939-80d1-ff052743bdd1","system_id":"levelo_inurba_marseille","lat":43.32105,"lon":5.36769,"is_reserved":false,"is_disabled":false,"rental_uris":{"android":"levelo://app?vid=eab47ed5-f83a-4939-80d1-ff052743bdd1","ios":"levelo://app?vid=eab47ed5-f83a-4939-80d1-ff052743bdd1"},"vehicle_type_id":"4","last_reported":1730840912,"current_range_meters":29600,"station_id":"ce4bhrh2rcd13ifvqhug","pricing_plan_id":"cebpf4jnsgd1na2vs0mg"},{"bike_id":"60ddff86-1fbc-46ae-bd48-385efc5ce05d","system_id":"levelo_inurba_marseille","lat":43.30144,"lon":5.38076,"is_reserved":false,"is_disabled":false,"rental_uris":{"android":"levelo://app?vid=60ddff86-1fbc-46ae-bd48-385efc5ce05d","ios":"levelo://app?vid=60ddff86-1fbc-46ae-bd48-385efc5ce05d"},"vehicle_type_id":"4","last_reported":1730840912,"current_range_meters":36400,"station_id":"ce4bgjp2rcd13ifvqbh0","pricing_plan_id":"cebpf4jnsgd1na2vs0mg"},{"bike_id":"2fac616e-c10f-4b93-9777-09eb2ba8f7e5","system_id":"levelo_inurba_marseille","lat":43.32492,"lon":5.36568,"is_reserved":false,"is_disabled":false,"rental_uris":{"android":"levelo://app?vid=2fac616e-c10f-4b93-9777-09eb2ba8f7e5","ios":"levelo://app?vid=2fac616e-c10f-4b93-9777-09eb2ba8f7e5"},"vehicle_type_id":"4","last_reported":1730840912,"current_range_meters":38400,"station_id":"ce4bhs12rcd13ifvqhvg","pricing_plan_id":"cebpf4jnsgd1na2vs0mg"},{"bike_id":"452cfd68-bf32-4eb4-a8bc-e296f10f526d","system_id":"levelo_inurba_marseille","lat":43.3089,"lon":5.39658,"is_reserved":false,"is_disabled":false,"rental_uris":{"android":"levelo://app?vid=452cfd68-bf32-4eb4-a8bc-e296f10f526d","ios":"levelo://app?vid=452cfd68-bf32-4eb4-a8bc-e296f10f526d"},"vehicle_type_id":"4","last_reported":1730840912,"current_range_meters":25600,"station_id":"ce4bh012rcd13ifvqcv0","pricing_plan_id":"cebpf4jnsgd1na2vs0mg"},{"bike_id":"f7f3f080-1fe9-44af-8121-185cbfed0652","system_id":"levelo_inurba_marseille","lat":43.29516,"lon":5.39399,"is_reserved":false,"is_disabled":false,"rental_uris":{"android":"levelo://app?vid=f7f3f080-1fe9-44af-8121-185cbfed0652","ios":"levelo://app?vid=f7f3f080-1fe9-44af-8121-185cbfed0652"},"vehicle_type_id":"4","last_reported":1730840912,"current_range_meters":28000,"station_id":"ce4bh292rcd13ifvqdf0","pricing_plan_id":"cebpf4jnsgd1na2vs0mg"},{"bike_id":"c6fc2448-f559-4022-b8f6-501ddb60da11","system_id":"levelo_inurba_marseille","lat":43.28846,"lon":5.35851,"is_reserved":false,"is_disabled":false,"rental_uris":{"android":"levelo://app?vid=c6fc2448-f559-4022-b8f6-501ddb60da11","ios":"levelo://app?vid=c6fc2448-f559-4022-b8f6-501ddb60da11"},"vehicle_type_id":"4","last_reported":1730840912,"current_range_meters":38800,"station_id":"ce4bhb12rcd13ifvqem0","pricing_plan_id":"cebpf4jnsgd1na2vs0mg"},{"bike_id":"972ed22a-dff1-4195-a93b-b405f5f60697","system_id":"levelo_inurba_marseille","lat":43.24658,"lon":5.38158,"is_reserved":false,"is_disabled":false,"rental_uris":{"android":"levelo://app?vid=972ed22a-dff1-4195-a93b-b405f5f60697","ios":"levelo://app?vid=972ed22a-dff1-4195-a93b-b405f5f60697"},"vehicle_type_id":"4","last_reported":1730840912,"current_range_meters":38800,"station_id":"ce4bhih2rcd13ifvqfr0","pricing_plan_id":"cebpf4jnsgd1na2vs0mg"},{"bike_id":"bda4766c-8397-407b-a6dd-4a419904b7f3","system_id":"levelo_inurba_marseille","lat":43.293664,"lon":5.378475,"is_reserved":false,"is_disabled":false,"rental_uris":{"android":"levelo://app?vid=bda4766c-8397-407b-a6dd-4a419904b7f3","ios":"levelo://app?vid=bda4766c-8397-407b-a6dd-4a419904b7f3"},"vehicle_type_id":"4","last_reported":1730840912,"current_range_meters":3200,"station_id":"ce4bh012rcd13ifvqcv0","pricing_plan_id":"cebpf4jnsgd1na2vs0mg"},{"bike_id":"82de5738-f020-469d-a0ef-48a955fe589f","system_id":"levelo_inurba_marseille","lat":43.29366,"lon":5.37835,"is_reserved":false,"is_disabled":false,"rental_uris":{"android":"levelo://app?vid=82de5738-f020-469d-a0ef-48a955fe589f","ios":"levelo://app?vid=82de5738-f020-469d-a0ef-48a955fe589f"},"vehicle_type_id":"4","last_reported":1730840912,"current_range_meters":38800,"station_id":"ce4bgjh2rcd13ifvqbf0","pricing_plan_id":"cebpf4jnsgd1na2vs0mg"},{"bike_id":"98f4caa1-5fd5-4afc-b0d3-3a7b4a88d6d8","system_id":"levelo_inurba_marseille","lat":43.27917,"lon":5.39588,"is_reserved":false,"is_disabled":false,"rental_uris":{"android":"levelo://app?vid=98f4caa1-5fd5-4afc-b0d3-3a7b4a88d6d8","ios":"levelo://app?vid=98f4caa1-5fd5-4afc-b0d3-3a7b4a88d6d8"},"vehicle_type_id":"4","last_reported":1730840912,"current_range_meters":36400,"station_id":"ce4bhf92rcd13ifvqf40","pricing_plan_id":"cebpf4jnsgd1na2vs0mg"},{"bike_id":"516614c7-f1c0-4087-9185-58babdb7b779","system_id":"levelo_inurba_marseille","lat":43.27173,"lon":5.40999,"is_reserved":false,"is_disabled":false,"rental_uris":{"android":"levelo://app?vid=516614c7-f1c0-4087-9185-58babdb7b779","ios":"levelo://app?vid=516614c7-f1c0-4087-9185-58babdb7b779"},"vehicle_type_id":"4","last_reported":1730840912,"current_range_meters":30800,"station_id":"ce4bhl12rcd13ifvqgf0","pricing_plan_id":"cebpf4jnsgd1na2vs0mg"},{"bike_id":"3475ff6f-efaa-48e3-bd80-9e63dfbe2874","system_id":"levelo_inurba_marseille","lat":43.32661,"lon":5.40985,"is_reserved":false,"is_disabled":false,"rental_uris":{"android":"levelo://app?vid=3475ff6f-efaa-48e3-bd80-9e63dfbe2874","ios":"levelo://app?vid=3475ff6f-efaa-48e3-bd80-9e63dfbe2874"},"vehicle_type_id":"4","last_reported":1730840912,"current_range_meters":33600,"station_id":"ce4bhpp2rcd13ifvqhgg","pricing_plan_id":"cebpf4jnsgd1na2vs0mg"},{"bike_id":"dcf112fe-317d-44ac-a4d1-8f66a08ae951","system_id":"levelo_inurba_marseille","lat":43.30426,"lon":5.38897,"is_reserved":false,"is_disabled":false,"rental_uris":{"android":"levelo://app?vid=dcf112fe-317d-44ac-a4d1-8f66a08ae951","ios":"levelo://app?vid=dcf112fe-317d-44ac-a4d1-8f66a08ae951"},"vehicle_type_id":"4","last_reported":1730840912,"current_range_meters":17600,"station_id":"ce4bgk12rcd13ifvqbi0","pricing_plan_id":"cebpf4jnsgd1na2vs0mg"},{"bike_id":"cc694830-d16a-4795-bc5f-1fb51113a8c0","system_id":"levelo_inurba_marseille","lat":43.29579,"lon":5.36736,"is_reserved":false,"is_disabled":false,"rental_uris":{"android":"levelo://app?vid=cc694830-d16a-4795-bc5f-1fb51113a8c0","ios":"levelo://app?vid=cc694830-d16a-4795-bc5f-1fb51113a8c0"},"vehicle_type_id":"4","last_reported":1730840912,"current_range_meters":14800,"station_id":"ce4bgph2rcd13ifvqc2g","pricing_plan_id":"cebpf4jnsgd1na2vs0mg"},{"bike_id":"7f316980-47ce-44c8-a098-7624e315058f","system_id":"levelo_inurba_marseille","lat":43.30795,"lon":5.38156,"is_reserved":false,"is_disabled":false,"rental_uris":{"android":"levelo://app?vid=7f316980-47ce-44c8-a098-7624e315058f","ios":"levelo://app?vid=7f316980-47ce-44c8-a098-7624e315058f"},"vehicle_type_id":"4","last_reported":1730840912,"current_range_meters":29600,"station_id":"ce4bgt12rcd13ifvqce0","pricing_plan_id":"cebpf4jnsgd1na2vs0mg"},{"bike_id":"98cef258-eb9e-4ec9-9913-db8f1dbd9527","system_id":"levelo_inurba_marseille","lat":43.31323,"lon":5.39694,"is_reserved":false,"is_disabled":false,"rental_uris":{"android":"levelo://app?vid=98cef258-eb9e-4ec9-9913-db8f1dbd9527","ios":"levelo://app?vid=98cef258-eb9e-4ec9-9913-db8f1dbd9527"},"vehicle_type_id":"4","last_reported":1730840912,"current_range_meters":8800,"station_id":"ce4bgvp2rcd13ifvqcu0","pricing_plan_id":"cebpf4jnsgd1na2vs0mg"},{"bike_id":"b7e928b1-d97f-48c0-88de-1012ee6485d1","system_id":"levelo_inurba_marseille","lat":43.302996,"lon":5.391552,"is_reserved":false,"is_disabled":false,"rental_uris":{"android":"levelo://app?vid=b7e928b1-d97f-48c0-88de-1012ee6485d1","ios":"levelo://app?vid=b7e928b1-d97f-48c0-88de-1012ee6485d1"},"vehicle_type_id":"4","last_reported":1730840912,"current_range_meters":36800,"station_id":"ce4bgkh2rcd13ifvqbk0","pricing_plan_id":"cebpf4jnsgd1na2vs0mg"},{"bike_id":"8392adcf-958d-4e55-9a15-d172d48b20a5","system_id":"levelo_inurba_marseille","lat":43.30606,"lon":5.37221,"is_reserved":false,"is_disabled":false,"rental_uris":{"android":"levelo://app?vid=8392adcf-958d-4e55-9a15-d172d48b20a5","ios":"levelo://app?vid=8392adcf-958d-4e55-9a15-d172d48b20a5"},"vehicle_type_id":"4","last_reported":1730840912,"current_range_meters":38800,"station_id":"ce4bgqh2rcd13ifvqc4g","pricing_plan_id":"cebpf4jnsgd1na2vs0mg"},{"bike_id":"2c8d8ecc-4dae-48c2-9c62-ee942c3e2953","system_id":"levelo_inurba_marseille","lat":43.23965,"lon":5.36627,"is_reserved":false,"is_disabled":false,"rental_uris":{"android":"levelo://app?vid=2c8d8ecc-4dae-48c2-9c62-ee942c3e2953","ios":"levelo://app?vid=2c8d8ecc-4dae-48c2-9c62-ee942c3e2953"},"vehicle_type_id":"4","last_reported":1730840912,"current_range_meters":8400,"station_id":"ce4bhi12rcd13ifvqfp0","pricing_plan_id":"cebpf4jnsgd1na2vs0mg"},{"bike_id":"88338970-6fd3-491d-b31a-a93eacb1e7c2","system_id":"levelo_inurba_marseille","lat":43.30649,"lon":5.40085,"is_reserved":false,"is_disabled":false,"rental_uris":{"android":"levelo://app?vid=88338970-6fd3-491d-b31a-a93eacb1e7c2","ios":"levelo://app?vid=88338970-6fd3-491d-b31a-a93eacb1e7c2"},"vehicle_type_id":"4","last_reported":1730840912,"current_range_meters":38800,"station_id":"ce4bh112rcd13ifvqda0","pricing_plan_id":"cebpf4jnsgd1na2vs0mg"},{"bike_id":"93a83a5c-0d3d-43a2-be24-e99a92c3575d","system_id":"levelo_inurba_marseille","lat":43.30835,"lon":5.37118,"is_reserved":false,"is_disabled":false,"rental_uris":{"android":"levelo://app?vid=93a83a5c-0d3d-43a2-be24-e99a92c3575d","ios":"levelo://app?vid=93a83a5c-0d3d-43a2-be24-e99a92c3575d"},"vehicle_type_id":"4","last_reported":1730840912,"current_range_meters":10800,"station_id":"ce4bguh2rcd13ifvqckg","pricing_plan_id":"cebpf4jnsgd1na2vs0mg"},{"bike_id":"50ac4f0d-58ac-48b7-819f-23d10ddc6246","system_id":"levelo_inurba_marseille","lat":43.30246,"lon":5.40061,"is_reserved":false,"is_disabled":false,"rental_uris":{"android":"levelo://app?vid=50ac4f0d-58ac-48b7-819f-23d10ddc6246","ios":"levelo://app?vid=50ac4f0d-58ac-48b7-819f-23d10ddc6246"},"vehicle_type_id":"4","last_reported":1730840912,"current_range_meters":39200,"station_id":"ce4bgvh2rcd13ifvqcs0","pricing_plan_id":"cebpf4jnsgd1na2vs0mg"},{"bike_id":"aa528395-73fa-4bfa-8072-bce8b52ee880","system_id":"levelo_inurba_marseille","lat":43.30322,"lon":5.40442,"is_reserved":false,"is_disabled":false,"rental_uris":{"android":"levelo://app?vid=aa528395-73fa-4bfa-8072-bce8b52ee880","ios":"levelo://app?vid=aa528395-73fa-4bfa-8072-bce8b52ee880"},"vehicle_type_id":"4","last_reported":1730840912,"current_range_meters":38800,"station_id":"ce4bh012rcd13ifvqd10","pricing_plan_id":"cebpf4jnsgd1na2vs0mg"},{"bike_id":"ab18e7b9-0341-475b-9bd8-21c8c5210225","system_id":"levelo_inurba_marseille","lat":43.30143,"lon":5.38781,"is_reserved":false,"is_disabled":false,"rental_uris":{"android":"levelo://app?vid=ab18e7b9-0341-475b-9bd8-21c8c5210225","ios":"levelo://app?vid=ab18e7b9-0341-475b-9bd8-21c8c5210225"},"vehicle_type_id":"4","last_reported":1730840912,"current_range_meters":38800,"station_id":"ce4bghh2rcd13ifvqb60","pricing_plan_id":"cebpf4jnsgd1na2vs0mg"},{"bike_id":"00fb05f1-cc89-40ff-9193-06a2b131cbf8","system_id":"levelo_inurba_marseille","lat":43.33602,"lon":5.41034,"is_reserved":false,"is_disabled":false,"rental_uris":{"android":"levelo://app?vid=00fb05f1-cc89-40ff-9193-06a2b131cbf8","ios":"levelo://app?vid=00fb05f1-cc89-40ff-9193-06a2b131cbf8"},"vehicle_type_id":"4","last_reported":1730840912,"current_range_meters":26800,"station_id":"ce4bhqh2rcd13ifvqhmg","pricing_plan_id":"cebpf4jnsgd1na2vs0mg"},{"bike_id":"e8afe8f4-7106-478a-abb1-1a1e7c8b4270","system_id":"levelo_inurba_marseille","lat":43.3199,"lon":5.38146,"is_reserved":false,"is_disabled":false,"rental_uris":{"android":"levelo://app?vid=e8afe8f4-7106-478a-abb1-1a1e7c8b4270","ios":"levelo://app?vid=e8afe8f4-7106-478a-abb1-1a1e7c8b4270"},"vehicle_type_id":"4","last_reported":1730840912,"current_range_meters":38800,"station_id":"ce4bhr12rcd13ifvqhpg","pricing_plan_id":"cebpf4jnsgd1na2vs0mg"},{"bike_id":"e1b2bdb2-8215-4674-b370-f369301e997f","system_id":"levelo_inurba_marseille","lat":43.28104,"lon":5.3784,"is_reserved":false,"is_disabled":false,"rental_uris":{"android":"levelo://app?vid=e1b2bdb2-8215-4674-b370-f369301e997f","ios":"levelo://app?vid=e1b2bdb2-8215-4674-b370-f369301e997f"},"vehicle_type_id":"4","last_reported":1730840912,"current_range_meters":24800,"station_id":"ce4bha12rcd13ifvqee0","pricing_plan_id":"cebpf4jnsgd1na2vs0mg"},{"bike_id":"9baafc20-eb9b-4933-8ebc-71eff2213a16","system_id":"levelo_inurba_marseille","lat":43.32365,"lon":5.38887,"is_reserved":false,"is_disabled":false,"rental_uris":{"android":"levelo://app?vid=9baafc20-eb9b-4933-8ebc-71eff2213a16","ios":"levelo://app?vid=9baafc20-eb9b-4933-8ebc-71eff2213a16"},"vehicle_type_id":"4","last_reported":1730840912,"current_range_meters":20400,"station_id":"ce4bhqp2rcd13ifvqhog","pricing_plan_id":"cebpf4jnsgd1na2vs0mg"},{"bike_id":"11d3eadb-31e4-4c0b-9661-0df41629177c","system_id":"levelo_inurba_marseille","lat":43.29872,"lon":5.39729,"is_reserved":false,"is_disabled":false,"rental_uris":{"android":"levelo://app?vid=11d3eadb-31e4-4c0b-9661-0df41629177c","ios":"levelo://app?vid=11d3eadb-31e4-4c0b-9661-0df41629177c"},"vehicle_type_id":"4","last_reported":1730840912,"current_range_meters":39200,"station_id":"ce4bh0h2rcd13ifvqd50","pricing_plan_id":"cebpf4jnsgd1na2vs0mg"},{"bike_id":"da2263fb-8c97-4e4d-9bd3-6cc97b38923c","system_id":"levelo_inurba_marseille","lat":43.25005,"lon":5.38915,"is_reserved":false,"is_disabled":false,"rental_uris":{"android":"levelo://app?vid=da2263fb-8c97-4e4d-9bd3-6cc97b38923c","ios":"levelo://app?vid=da2263fb-8c97-4e4d-9bd3-6cc97b38923c"},"vehicle_type_id":"4","last_reported":1730840912,"current_range_meters":38800,"station_id":"ce4bhgp2rcd13ifvqfd0","pricing_plan_id":"cebpf4jnsgd1na2vs0mg"},{"bike_id":"e70201de-cee3-400e-9fa9-034009b4246c","system_id":"levelo_inurba_marseille","lat":43.32283,"lon":5.38271,"is_reserved":false,"is_disabled":false,"rental_uris":{"android":"levelo://app?vid=e70201de-cee3-400e-9fa9-034009b4246c","ios":"levelo://app?vid=e70201de-cee3-400e-9fa9-034009b4246c"},"vehicle_type_id":"4","last_reported":1730840912,"current_range_meters":34000,"station_id":"ce4bhr12rcd13ifvqhqg","pricing_plan_id":"cebpf4jnsgd1na2vs0mg"},{"bike_id":"93bfb09f-7374-4ada-b52f-21c1b83be0ee","system_id":"levelo_inurba_marseille","lat":43.28698,"lon":5.39974,"is_reserved":false,"is_disabled":false,"rental_uris":{"android":"levelo://app?vid=93bfb09f-7374-4ada-b52f-21c1b83be0ee","ios":"levelo://app?vid=93bfb09f-7374-4ada-b52f-21c1b83be0ee"},"vehicle_type_id":"4","last_reported":1730840912,"current_range_meters":38400,"station_id":"ce4bho92rcd13ifvqh3g","pricing_plan_id":"cebpf4jnsgd1na2vs0mg"},{"bike_id":"661a3d8f-e8fa-4387-8edb-a2c534aef42f","system_id":"levelo_inurba_marseille","lat":43.30088,"lon":5.39072,"is_reserved":false,"is_disabled":false,"rental_uris":{"android":"levelo://app?vid=661a3d8f-e8fa-4387-8edb-a2c534aef42f","ios":"levelo://app?vid=661a3d8f-e8fa-4387-8edb-a2c534aef42f"},"vehicle_type_id":"4","last_reported":1730840912,"current_range_meters":18000,"station_id":"ce4bh192rcd13ifvqdb0","pricing_plan_id":"cebpf4jnsgd1na2vs0mg"},{"bike_id":"552d1c91-9f98-41e0-b67e-1c35605daa0a","system_id":"levelo_inurba_marseille","lat":43.28654,"lon":5.36342,"is_reserved":false,"is_disabled":false,"rental_uris":{"android":"levelo://app?vid=552d1c91-9f98-41e0-b67e-1c35605daa0a","ios":"levelo://app?vid=552d1c91-9f98-41e0-b67e-1c35605daa0a"},"vehicle_type_id":"4","last_reported":1730840912,"current_range_meters":37600,"station_id":"ce4bhah2rcd13ifvqej0","pricing_plan_id":"cebpf4jnsgd1na2vs0mg"},{"bike_id":"32326a45-adf4-4b2f-83c5-11e46cbe8158","system_id":"levelo_inurba_marseille","lat":43.3254,"lon":5.41422,"is_reserved":false,"is_disabled":false,"rental_uris":{"android":"levelo://app?vid=32326a45-adf4-4b2f-83c5-11e46cbe8158","ios":"levelo://app?vid=32326a45-adf4-4b2f-83c5-11e46cbe8158"},"vehicle_type_id":"4","last_reported":1730840912,"current_range_meters":33200,"station_id":"ce4bhq12rcd13ifvqhhg","pricing_plan_id":"cebpf4jnsgd1na2vs0mg"},{"bike_id":"b3d8af2c-0e67-4446-b901-3b97a8f6df5c","system_id":"levelo_inurba_marseille","lat":43.24649,"lon":5.3889,"is_reserved":false,"is_disabled":false,"rental_uris":{"android":"levelo://app?vid=b3d8af2c-0e67-4446-b901-3b97a8f6df5c","ios":"levelo://app?vid=b3d8af2c-0e67-4446-b901-3b97a8f6df5c"},"vehicle_type_id":"4","last_reported":1730840912,"current_range_meters":26800,"station_id":"ce4bhg12rcd13ifvqf60","pricing_plan_id":"cebpf4jnsgd1na2vs0mg"},{"bike_id":"ae0b390c-a9c9-4b2a-8f82-406c4e21cdcd","system_id":"levelo_inurba_marseille","lat":43.29736,"lon":5.35951,"is_reserved":false,"is_disabled":false,"rental_uris":{"android":"levelo://app?vid=ae0b390c-a9c9-4b2a-8f82-406c4e21cdcd","ios":"levelo://app?vid=ae0b390c-a9c9-4b2a-8f82-406c4e21cdcd"},"vehicle_type_id":"4","last_reported":1730840912,"current_range_meters":16400,"station_id":"","pricing_plan_id":"cebpf4jnsgd1na2vs0mg"},{"bike_id":"a82395bd-b6d1-455a-97a1-0a148b117c24","system_id":"levelo_inurba_marseille","lat":43.29529,"lon":5.39039,"is_reserved":false,"is_disabled":false,"rental_uris":{"android":"levelo://app?vid=a82395bd-b6d1-455a-97a1-0a148b117c24","ios":"levelo://app?vid=a82395bd-b6d1-455a-97a1-0a148b117c24"},"vehicle_type_id":"4","last_reported":1730840912,"current_range_meters":38800,"station_id":"ce4bh3p2rcd13ifvqdp0","pricing_plan_id":"cebpf4jnsgd1na2vs0mg"},{"bike_id":"08896e92-0fc4-46d9-b64d-06fd381dcb52","system_id":"levelo_inurba_marseille","lat":43.29528,"lon":5.38547,"is_reserved":false,"is_disabled":false,"rental_uris":{"android":"levelo://app?vid=08896e92-0fc4-46d9-b64d-06fd381dcb52","ios":"levelo://app?vid=08896e92-0fc4-46d9-b64d-06fd381dcb52"},"vehicle_type_id":"4","last_reported":1730840912,"current_range_meters":38800,"station_id":"ce4bgih2rcd13ifvqba0","pricing_plan_id":"cebpf4jnsgd1na2vs0mg"},{"bike_id":"88af0d3d-7fca-402c-976d-2579d3bd837a","system_id":"levelo_inurba_marseille","lat":43.326628,"lon":5.409938,"is_reserved":false,"is_disabled":false,"rental_uris":{"android":"levelo://app?vid=88af0d3d-7fca-402c-976d-2579d3bd837a","ios":"levelo://app?vid=88af0d3d-7fca-402c-976d-2579d3bd837a"},"vehicle_type_id":"4","last_reported":1730840912,"current_range_meters":32400,"station_id":"ce4bhpp2rcd13ifvqhgg","pricing_plan_id":"cebpf4jnsgd1na2vs0mg"},{"bike_id":"d74360a7-cce2-4782-982b-e9593aa5d07d","system_id":"levelo_inurba_marseille","lat":43.31321,"lon":5.39695,"is_reserved":false,"is_disabled":false,"rental_uris":{"android":"levelo://app?vid=d74360a7-cce2-4782-982b-e9593aa5d07d","ios":"levelo://app?vid=d74360a7-cce2-4782-982b-e9593aa5d07d"},"vehicle_type_id":"4","last_reported":1730840912,"current_range_meters":36400,"station_id":"ce4bgvp2rcd13ifvqcu0","pricing_plan_id":"cebpf4jnsgd1na2vs0mg"},{"bike_id":"845e9dec-7ed8-422c-b5c9-8b1d1459f61e","system_id":"levelo_inurba_marseille","lat":43.31888,"lon":5.40725,"is_reserved":false,"is_disabled":false,"rental_uris":{"android":"levelo://app?vid=845e9dec-7ed8-422c-b5c9-8b1d1459f61e","ios":"levelo://app?vid=845e9dec-7ed8-422c-b5c9-8b1d1459f61e"},"vehicle_type_id":"4","last_reported":1730840912,"current_range_meters":39200,"station_id":"ce4bhq12rcd13ifvqhig","pricing_plan_id":"cebpf4jnsgd1na2vs0mg"},{"bike_id":"36914c89-c53e-4456-8355-3bb8e39decce","system_id":"levelo_inurba_marseille","lat":43.31069,"lon":5.38344,"is_reserved":false,"is_disabled":false,"rental_uris":{"android":"levelo://app?vid=36914c89-c53e-4456-8355-3bb8e39decce","ios":"levelo://app?vid=36914c89-c53e-4456-8355-3bb8e39decce"},"vehicle_type_id":"4","last_reported":1730840912,"current_range_meters":38800,"station_id":"ce4bgv92rcd13ifvqcr0","pricing_plan_id":"cebpf4jnsgd1na2vs0mg"},{"bike_id":"4fd336fb-ec63-4d09-84d4-45cf143f4508","system_id":"levelo_inurba_marseille","lat":43.31334,"lon":5.39694,"is_reserved":false,"is_disabled":false,"rental_uris":{"android":"levelo://app?vid=4fd336fb-ec63-4d09-84d4-45cf143f4508","ios":"levelo://app?vid=4fd336fb-ec63-4d09-84d4-45cf143f4508"},"vehicle_type_id":"4","last_reported":1730840912,"current_range_meters":36800,"station_id":"ce4bgvp2rcd13ifvqcu0","pricing_plan_id":"cebpf4jnsgd1na2vs0mg"},{"bike_id":"e6e24777-65ce-45c2-8a70-93a72cac59dd","system_id":"levelo_inurba_marseille","lat":43.29527,"lon":5.38548,"is_reserved":false,"is_disabled":false,"rental_uris":{"android":"levelo://app?vid=e6e24777-65ce-45c2-8a70-93a72cac59dd","ios":"levelo://app?vid=e6e24777-65ce-45c2-8a70-93a72cac59dd"},"vehicle_type_id":"4","last_reported":1730840912,"current_range_meters":31200,"station_id":"ce4bgih2rcd13ifvqba0","pricing_plan_id":"cebpf4jnsgd1na2vs0mg"},{"bike_id":"488bf5bc-df31-48c0-89a5-fdf0bc16f473","system_id":"levelo_inurba_marseille","lat":43.30133,"lon":5.39866,"is_reserved":false,"is_disabled":false,"rental_uris":{"android":"levelo://app?vid=488bf5bc-df31-48c0-89a5-fdf0bc16f473","ios":"levelo://app?vid=488bf5bc-df31-48c0-89a5-fdf0bc16f473"},"vehicle_type_id":"4","last_reported":1730840912,"current_range_meters":38000,"station_id":"ce4bh0h2rcd13ifvqd40","pricing_plan_id":"cebpf4jnsgd1na2vs0mg"},{"bike_id":"8876fc84-8ef5-474e-a8c9-81c8c6b0f9b7","system_id":"levelo_inurba_marseille","lat":43.29517,"lon":5.39399,"is_reserved":false,"is_disabled":false,"rental_uris":{"android":"levelo://app?vid=8876fc84-8ef5-474e-a8c9-81c8c6b0f9b7","ios":"levelo://app?vid=8876fc84-8ef5-474e-a8c9-81c8c6b0f9b7"},"vehicle_type_id":"4","last_reported":1730840912,"current_range_meters":38800,"station_id":"ce4bh292rcd13ifvqdf0","pricing_plan_id":"cebpf4jnsgd1na2vs0mg"},