{"last_updated":1778335951,"ttl":60,"version":"2.2","data":{"bikes":[{"bike_id":"25582582-0344-4339-b082-473f9fcaca0a","system_id":"levelo_inurba_marseille","lat":43.29004,"lon":5.35603,"is_reserved":false,"is_disabled":false,"rental_uris":{"android":"levelo://app?vid=25582582-0344-4339-b082-473f9fcaca0a","ios":"levelo://app?vid=25582582-0344-4339-b082-473f9fcaca0a"},"vehicle_type_id":"4","last_reported":1778335952,"current_range_meters":800,"station_id":"ce4bhb92rcd13ifvqen0","pricing_plan_id":"cebpf4jnsgd1na2vs0mg"},{"bike_id":"44beebf0-2f28-482f-bd18-75062b85c37f","system_id":"levelo_inurba_marseille","lat":43.31172,"lon":5.38726,"is_reserved":false,"is_disabled":false,"rental_uris":{"android":"levelo://app?vid=44beebf0-2f28-482f-bd18-75062b85c37f","ios":"levelo://app?vid=44beebf0-2f28-482f-bd18-75062b85c37f"},"vehicle_type_id":"4","last_reported":1778335952,"current_range_meters":2800,"station_id":"ce4bgv12rcd13ifvqcp0","pricing_plan_id":"cebpf4jnsgd1na2vs0mg"},{"bike_id":"0ed32b82-8e4f-4f50-9c55-2769fae9d552","system_id":"levelo_inurba_marseille","lat":43.29966,"lon":5.385,"is_reserved":false,"is_disabled":false,"rental_uris":{"android":"levelo://app?vid=0ed32b82-8e4f-4f50-9c55-2769fae9d552","ios":"levelo://app?vid=0ed32b82-8e4f-4f50-9c55-2769fae9d552"},"vehicle_type_id":"4","last_reported":1778335952,"current_range_meters":2800,"station_id":"ce4bgj92rcd13ifvqbd0","pricing_plan_id":"cebpf4jnsgd1na2vs0mg"},{"bike_id":"777fb345-2c4d-461d-9c99-307a6ab19c1b","system_id":"levelo_inurba_marseille","lat":43.33669,"lon":5.37475,"is_reserved":false,"is_disabled":false,"rental_uris":{"android":"levelo://app?vid=777fb345-2c4d-461d-9c99-307a6ab19c1b","ios":"levelo://app?vid=777fb345-2c4d-461d-9c99-307a6ab19c1b"},"vehicle_type_id":"4","last_reported":1778335952,"current_range_meters":2800,"station_id":"","pricing_plan_id":"cebpf4jnsgd1na2vs0mg"},{"bike_id":"87deaab2-3c23-4905-83b5-74409fd27e0e","system_id":"levelo_inurba_marseille","lat":43.299736,"lon":5.384828,"is_reserved":false,"is_disabled":false,"rental_uris":{"android":"levelo://app?vid=87deaab2-3c23-4905-83b5-74409fd27e0e","ios":"levelo://app?vid=87deaab2-3c23-4905-83b5-74409fd27e0e"},"vehicle_type_id":"4","last_reported":1778335952,"current_range_meters":2800,"station_id":"ce4bgj92rcd13ifvqbd0","pricing_plan_id":"cebpf4jnsgd1na2vs0mg"},{"bike_id":"f9765471-797c-4251-b388-a11b5bbe30f0","system_id":"levelo_inurba_marseille","lat":43.33552,"lon":5.37522,"is_reserved":false,"is_disabled":false,"rental_uris":{"android":"levelo://app?vid=f9765471-797c-4251-b388-a11b5bbe30f0","ios":"levelo://app?vid=f9765471-797c-4251-b388-a11b5bbe30f0"},"vehicle_type_id":"4","last_reported":1778335952,"current_range_meters":2800,"station_id":"st_d46tts09ee8s73dlu43g","pricing_plan_id":"cebpf4jnsgd1na2vs0mg"},{"bike_id":"b57743b5-be40-4882-a74e-1ceabba44338","system_id":"levelo_inurba_marseille","lat":43.23145,"lon":5.43715,"is_reserved":false,"is_disabled":false,"rental_uris":{"android":"levelo://app?vid=b57743b5-be40-4882-a74e-1ceabba44338","ios":"levelo://app?vid=b57743b5-be40-4882-a74e-1ceabba44338"},"vehicle_type_id":"4","last_reported":1778335952,"current_range_meters":2800,"station_id":"ce4bhmp2rcd13ifvqgog","pricing_plan_id":"cebpf4jnsgd1na2vs0mg"},{"bike_id":"461f9e7a-ee63-41c7-87ac-bb026a94e595","system_id":"levelo_inurba_marseille","lat":43.27936,"lon":5.37215,"is_reserved":false,"is_disabled":false,"rental_uris":{"android":"levelo://app?vid=461f9e7a-ee63-41c7-87ac-bb026a94e595","ios":"levelo://app?vid=461f9e7a-ee63-41c7-87ac-bb026a94e595"},"vehicle_type_id":"4","last_reported":1778335952,"current_range_meters":2800,"station_id":"","pricing_plan_id":"cebpf4jnsgd1na2vs0mg"},{"bike_id":"c59e1bd6-ece3-4e94-9308-3c08876ef280","system_id":"levelo_inurba_marseille","lat":43.26491,"lon":5.38957,"is_reserved":false,"is_disabled":false,"rental_uris":{"android":"levelo://app?vid=c59e1bd6-ece3-4e94-9308-3c08876ef280","ios":"levelo://app?vid=c59e1bd6-ece3-4e94-9308-3c08876ef280"},"vehicle_type_id":"4","last_reported":1778335952,"current_range_meters":2800,"station_id":"","pricing_plan_id":"cebpf4jnsgd1na2vs0mg"},{"bike_id":"92d47218-2771-4776-a400-43c117101942","system_id":"levelo_inurba_marseille","lat":43.25078,"lon":5.39519,"is_reserved":false,"is_disabled":true,"rental_uris":{"android":"levelo://app?vid=92d47218-2771-4776-a400-43c117101942","ios":"levelo://app?vid=92d47218-2771-4776-a400-43c117101942"},"vehicle_type_id":"4","last_reported":1778335952,"current_range_meters":2800,"station_id":"ce4bhm12rcd13ifvqgkg","pricing_plan_id":"cebpf4jnsgd1na2vs0mg"},{"bike_id":"be26f49f-4166-4c9e-8ebb-1c9e84ce2067","system_id":"levelo_inurba_marseille","lat":43.2417,"lon":5.36402,"is_reserved":false,"is_disabled":false,"rental_uris":{"android":"levelo://app?vid=be26f49f-4166-4c9e-8ebb-1c9e84ce2067","ios":"levelo://app?vid=be26f49f-4166-4c9e-8ebb-1c9e84ce2067"},"vehicle_type_id":"4","last_reported":1778335952,"current_range_meters":2800,"station_id":"cpo36qri1sfpv3e86is0","pricing_plan_id":"cebpf4jnsgd1na2vs0mg"},{"bike_id":"8eea14e8-81f9-450a-9f42-646e56a018e2","system_id":"levelo_inurba_marseille","lat":43.28883,"lon":5.42528,"is_reserved":false,"is_disabled":true,"rental_uris":{"android":"levelo://app?vid=8eea14e8-81f9-450a-9f42-646e56a018e2","ios":"levelo://app?vid=8eea14e8-81f9-450a-9f42-646e56a018e2"},"vehicle_type_id":"4","last_reported":1778335952,"current_range_meters":2800,"station_id":"st_d3b462108ojc7389ooeg","pricing_plan_id":"cebpf4jnsgd1na2vs0mg"},{"bike_id":"643bb536-7a53-49ea-999f-a2524d56d091","system_id":"levelo_inurba_marseille","lat":43.279983,"lon":5.400141,"is_reserved":false,"is_disabled":false,"rental_uris":{"android":"levelo://app?vid=643bb536-7a53-49ea-999f-a2524d56d091","ios":"levelo://app?vid=643bb536-7a53-49ea-999f-a2524d56d091"},"vehicle_type_id":"4","last_reported":1778335952,"current_range_meters":2800,"station_id":"ce4bho92rcd13ifvqh4g","pricing_plan_id":"cebpf4jnsgd1na2vs0mg"},{"bike_id":"a95bde5f-8321-4d2c-9ab8-e05e831ced6c","system_id":"levelo_inurba_marseille","lat":43.282728,"lon":5.350765,"is_reserved":false,"is_disabled":false,"rental_uris":{"android":"levelo://app?vid=a95bde5f-8321-4d2c-9ab8-e05e831ced6c","ios":"levelo://app?vid=a95bde5f-8321-4d2c-9ab8-e05e831ced6c"},"vehicle_type_id":"4","last_reported":1778335952,"current_range_meters":2800,"station_id":"ce4bhbp2rcd13ifvqerg","pricing_plan_id":"cebpf4jnsgd1na2vs0mg"},{"bike_id":"d5fb4f03-7f65-48ee-987c-8eec4f38ec28","system_id":"levelo_inurba_marseille","lat":43.29601,"lon":5.38084,"is_reserved":false,"is_disabled":false,"rental_uris":{"android":"levelo://app?vid=d5fb4f03-7f65-48ee-987c-8eec4f38ec28","ios":"levelo://app?vid=d5fb4f03-7f65-48ee-987c-8eec4f38ec28"},"vehicle_type_id":"4","last_reported":1778335952,"current_range_meters":2800,"station_id":"ce4bgl12rcd13ifvqbo0","pricing_plan_id":"cebpf4jnsgd1na2vs0mg"},{"bike_id":"1709f6c4-df38-4392-a22b-79877bea9f71","system_id":"levelo_inurba_marseille","lat":43.26255,"lon":5.39144,"is_reserved":false,"is_disabled":false,"rental_uris":{"android":"levelo://app?vid=1709f6c4-df38-4392-a22b-79877bea9f71","ios":"levelo://app?vid=1709f6c4-df38-4392-a22b-79877bea9f71"},"vehicle_type_id":"4","last_reported":1778335952,"current_range_meters":3200,"station_id":"","pricing_plan_id":"cebpf4jnsgd1na2vs0mg"},{"bike_id":"f034d7c8-e0ea-47dd-916d-3c9be852f5e4","system_id":"levelo_inurba_marseille","lat":43.29007,"lon":5.35611,"is_reserved":false,"is_disabled":false,"rental_uris":{"android":"levelo://app?vid=f034d7c8-e0ea-47dd-916d-3c9be852f5e4","ios":"levelo://app?vid=f034d7c8-e0ea-47dd-916d-3c9be852f5e4"},"vehicle_type_id":"4","last_reported":1778335952,"current_range_meters":3200,"station_id":"ce4bhb92rcd13ifvqen0","pricing_plan_id":"cebpf4jnsgd1na2vs0mg"},{"bike_id":"d113a372-1544-4c34-9523-9387e9e9c2b5","system_id":"levelo_inurba_marseille","lat":43.29016,"lon":5.35602,"is_reserved":false,"is_disabled":false,"rental_uris":{"android":"levelo://app?vid=d113a372-1544-4c34-9523-9387e9e9c2b5","ios":"levelo://app?vid=d113a372-1544-4c34-9523-9387e9e9c2b5"},"vehicle_type_id":"4","last_reported":1778335952,"current_range_meters":3200,"station_id":"ce4bhb92rcd13ifvqen0","pricing_plan_id":"cebpf4jnsgd1na2vs0mg"},{"bike_id":"28591a20-c550-4108-9263-49d1bdca52ed","system_id":"levelo_inurba_marseille","lat":43.2848,"lon":5.48388,"is_reserved":false,"is_disabled":false,"rental_uris":{"android":"levelo://app?vid=28591a20-c550-4108-9263-49d1bdca52ed","ios":"levelo://app?vid=28591a20-c550-4108-9263-49d1bdca52ed"},"vehicle_type_id":"4","last_reported":1778335952,"current_range_meters":3200,"station_id":"","pricing_plan_id":"cebpf4jnsgd1na2vs0mg"},{"bike_id":"06ab7e03-6cc1-4519-8625-3652421fe315","system_id":"levelo_inurba_marseille","lat":43.33161,"lon":5.37695,"is_reserved":false,"is_disabled":false,"rental_uris":{"android":"levelo://app?vid=06ab7e03-6cc1-4519-8625-3652421fe315","ios":"levelo://app?vid=06ab7e03-6cc1-4519-8625-3652421fe315"},"vehicle_type_id":"4","last_reported":1778335952,"current_range_meters":3200,"station_id":"st_d46cu089ee8s73dldbu0","pricing_plan_id":"cebpf4jnsgd1na2vs0mg"},{"bike_id":"41d7c547-00f7-4c03-9375-ee8ca1f513f9","system_id":"levelo_inurba_marseille","lat":43.21201,"lon":5.35069,"is_reserved":false,"is_disabled":false,"rental_uris":{"android":"levelo://app?vid=41d7c547-00f7-4c03-9375-ee8ca1f513f9","ios":"levelo://app?vid=41d7c547-00f7-4c03-9375-ee8ca1f513f9"},"vehicle_type_id":"4","last_reported":1778335952,"current_range_meters":3200,"station_id":"st_cvj6sg6p6f1abm77japg","pricing_plan_id":"cebpf4jnsgd1na2vs0mg"},{"bike_id":"7a8b58a7-1b4f-40bd-8215-1425337c60e8","system_id":"levelo_inurba_marseille","lat":43.28264,"lon":5.35067,"is_reserved":false,"is_disabled":false,"rental_uris":{"android":"levelo://app?vid=7a8b58a7-1b4f-40bd-8215-1425337c60e8","ios":"levelo://app?vid=7a8b58a7-1b4f-40bd-8215-1425337c60e8"},"vehicle_type_id":"4","last_reported":1778335952,"current_range_meters":3200,"station_id":"","pricing_plan_id":"cebpf4jnsgd1na2vs0mg"},{"bike_id":"f0d57f16-0e79-411c-957a-3b0920215e25","system_id":"levelo_inurba_marseille","lat":43.311684,"lon":5.387144,"is_reserved":false,"is_disabled":false,"rental_uris":{"android":"levelo://app?vid=f0d57f16-0e79-411c-957a-3b0920215e25","ios":"levelo://app?vid=f0d57f16-0e79-411c-957a-3b0920215e25"},"vehicle_type_id":"4","last_reported":1778335952,"current_range_meters":3200,"station_id":"ce4bgv12rcd13ifvqcp0","pricing_plan_id":"cebpf4jnsgd1na2vs0mg"},{"bike_id":"2d1b38d4-9678-4d3d-b86a-40c375b59bd2","system_id":"levelo_inurba_marseille","lat":43.2903,"lon":5.38634,"is_reserved":false,"is_disabled":false,"rental_uris":{"android":"levelo://app?vid=2d1b38d4-9678-4d3d-b86a-40c375b59bd2","ios":"levelo://app?vid=2d1b38d4-9678-4d3d-b86a-40c375b59bd2"},"vehicle_type_id":"4","last_reported":1778335952,"current_range_meters":3200,"station_id":"ce4bh4p2rcd13ifvqe0g","pricing_plan_id":"cebpf4jnsgd1na2vs0mg"},{"bike_id":"389e51a8-20ad-422b-936d-a4985239bf95","system_id":"levelo_inurba_marseille","lat":43.21191,"lon":5.35069,"is_reserved":false,"is_disabled":false,"rental_uris":{"android":"levelo://app?vid=389e51a8-20ad-422b-936d-a4985239bf95","ios":"levelo://app?vid=389e51a8-20ad-422b-936d-a4985239bf95"},"vehicle_type_id":"4","last_reported":1778335952,"current_range_meters":3600,"station_id":"st_cvj6sg6p6f1abm77japg","pricing_plan_id":"cebpf4jnsgd1na2vs0mg"},{"bike_id":"1cd401f2-f9bb-4909-aef9-1482cfd7529d","system_id":"levelo_inurba_marseille","lat":43.28437,"lon":5.34984,"is_reserved":false,"is_disabled":false,"rental_uris":{"android":"levelo://app?vid=1cd401f2-f9bb-4909-aef9-1482cfd7529d","ios":"levelo://app?vid=1cd401f2-f9bb-4909-aef9-1482cfd7529d"},"vehicle_type_id":"4","last_reported":1778335952,"current_range_meters":3600,"station_id":"","pricing_plan_id":"cebpf4jnsgd1na2vs0mg"},{"bike_id":"4e341b75-c1fa-4bc5-b743-c2964f2f9578","system_id":"levelo_inurba_marseille","lat":43.29532,"lon":5.38553,"is_reserved":false,"is_disabled":false,"rental_uris":{"android":"levelo://app?vid=4e341b75-c1fa-4bc5-b743-c2964f2f9578","ios":"levelo://app?vid=4e341b75-c1fa-4bc5-b743-c2964f2f9578"},"vehicle_type_id":"4","last_reported":1778335952,"current_range_meters":3600,"station_id":"ce4bgih2rcd13ifvqba0","pricing_plan_id":"cebpf4jnsgd1na2vs0mg"},{"bike_id":"6400099d-f713-4246-a4ce-1b44f22e3329","system_id":"levelo_inurba_marseille","lat":43.32126,"lon":5.36818,"is_reserved":false,"is_disabled":false,"rental_uris":{"android":"levelo://app?vid=6400099d-f713-4246-a4ce-1b44f22e3329","ios":"levelo://app?vid=6400099d-f713-4246-a4ce-1b44f22e3329"},"vehicle_type_id":"4","last_reported":1778335952,"current_range_meters":3600,"station_id":"ce4bhrh2rcd13ifvqhug","pricing_plan_id":"cebpf4jnsgd1na2vs0mg"},{"bike_id":"9a3140d6-e3fa-492e-8460-9c6f22636700","system_id":"levelo_inurba_marseille","lat":43.3136,"lon":5.3996,"is_reserved":false,"is_disabled":false,"rental_uris":{"android":"levelo://app?vid=9a3140d6-e3fa-492e-8460-9c6f22636700","ios":"levelo://app?vid=9a3140d6-e3fa-492e-8460-9c6f22636700"},"vehicle_type_id":"4","last_reported":1778335952,"current_range_meters":3600,"station_id":"","pricing_plan_id":"cebpf4jnsgd1na2vs0mg"},{"bike_id":"7dd51341-d3c4-4cde-a5c6-f72281634d7a","system_id":"levelo_inurba_marseille","lat":43.21752,"lon":5.346,"is_reserved":false,"is_disabled":false,"rental_uris":{"android":"levelo://app?vid=7dd51341-d3c4-4cde-a5c6-f72281634d7a","ios":"levelo://app?vid=7dd51341-d3c4-4cde-a5c6-f72281634d7a"},"vehicle_type_id":"4","last_reported":1778335952,"current_range_meters":3600,"station_id":"st_cvj6r9ubvosntc0bgbag","pricing_plan_id":"cebpf4jnsgd1na2vs0mg"},{"bike_id":"6b5bf1b0-49e0-4f59-8df5-cb1c8bfa300a","system_id":"levelo_inurba_marseille","lat":43.25341,"lon":5.4217,"is_reserved":false,"is_disabled":false,"rental_uris":{"android":"levelo://app?vid=6b5bf1b0-49e0-4f59-8df5-cb1c8bfa300a","ios":"levelo://app?vid=6b5bf1b0-49e0-4f59-8df5-cb1c8bfa300a"},"vehicle_type_id":"4","last_reported":1778335952,"current_range_meters":3600,"station_id":"st_d2m65c5bi1j21697t3ng","pricing_plan_id":"cebpf4jnsgd1na2vs0mg"},{"bike_id":"573c2ed1-7a50-4005-af03-db00a5ca499d","system_id":"levelo_inurba_marseille","lat":43.28472,"lon":5.38423,"is_reserved":false,"is_disabled":false,"rental_uris":{"android":"levelo://app?vid=573c2ed1-7a50-4005-af03-db00a5ca499d","ios":"levelo://app?vid=573c2ed1-7a50-4005-af03-db00a5ca499d"},"vehicle_type_id":"4","last_reported":1778335952,"current_range_meters":3600,"station_id":"ce4bh512rcd13ifvqe3g","pricing_plan_id":"cebpf4jnsgd1na2vs0mg"},{"bike_id":"5a32b187-f2c8-445a-b0ce-fb8dd926d740","system_id":"levelo_inurba_marseille","lat":43.243905,"lon":5.370687,"is_reserved":false,"is_disabled":false,"rental_uris":{"android":"levelo://app?vid=5a32b187-f2c8-445a-b0ce-fb8dd926d740","ios":"levelo://app?vid=5a32b187-f2c8-445a-b0ce-fb8dd926d740"},"vehicle_type_id":"4","last_reported":1778335952,"current_range_meters":3600,"station_id":"ce4bhhh2rcd13ifvqfk0","pricing_plan_id":"cebpf4jnsgd1na2vs0mg"},{"bike_id":"a12f4f2b-6bd9-4c0d-ba46-84d636407d9f","system_id":"levelo_inurba_marseille","lat":43.23967,"lon":5.36629,"is_reserved":false,"is_disabled":false,"rental_uris":{"android":"levelo://app?vid=a12f4f2b-6bd9-4c0d-ba46-84d636407d9f","ios":"levelo://app?vid=a12f4f2b-6bd9-4c0d-ba46-84d636407d9f"},"vehicle_type_id":"4","last_reported":1778335952,"current_range_meters":3600,"station_id":"ce4bhi12rcd13ifvqfp0","pricing_plan_id":"cebpf4jnsgd1na2vs0mg"},{"bike_id":"97d7cd19-de5e-4aa2-a429-ae5ce327358d","system_id":"levelo_inurba_marseille","lat":43.21186,"lon":5.35092,"is_reserved":false,"is_disabled":false,"rental_uris":{"android":"levelo://app?vid=97d7cd19-de5e-4aa2-a429-ae5ce327358d","ios":"levelo://app?vid=97d7cd19-de5e-4aa2-a429-ae5ce327358d"},"vehicle_type_id":"4","last_reported":1778335952,"current_range_meters":4000,"station_id":"st_cvj6sg6p6f1abm77japg","pricing_plan_id":"cebpf4jnsgd1na2vs0mg"},{"bike_id":"c7bc22e7-edb2-428c-aa1e-14dd2028480e","system_id":"levelo_inurba_marseille","lat":43.28939,"lon":5.36678,"is_reserved":false,"is_disabled":false,"rental_uris":{"android":"levelo://app?vid=c7bc22e7-edb2-428c-aa1e-14dd2028480e","ios":"levelo://app?vid=c7bc22e7-edb2-428c-aa1e-14dd2028480e"},"vehicle_type_id":"4","last_reported":1778335952,"current_range_meters":4000,"station_id":"ce4bhap2rcd13ifvqek0","pricing_plan_id":"cebpf4jnsgd1na2vs0mg"},{"bike_id":"7f02780f-2cfe-4645-a778-3936ac26809c","system_id":"levelo_inurba_marseille","lat":43.28024,"lon":5.36932,"is_reserved":false,"is_disabled":false,"rental_uris":{"android":"levelo://app?vid=7f02780f-2cfe-4645-a778-3936ac26809c","ios":"levelo://app?vid=7f02780f-2cfe-4645-a778-3936ac26809c"},"vehicle_type_id":"4","last_reported":1778335952,"current_range_meters":4000,"station_id":"ce4bha12rcd13ifvqef0","pricing_plan_id":"cebpf4jnsgd1na2vs0mg"},{"bike_id":"b44a9cd4-5b24-4ba8-878e-e9ddbed75cb6","system_id":"levelo_inurba_marseille","lat":43.27985,"lon":5.38716,"is_reserved":false,"is_disabled":true,"rental_uris":{"android":"levelo://app?vid=b44a9cd4-5b24-4ba8-878e-e9ddbed75cb6","ios":"levelo://app?vid=b44a9cd4-5b24-4ba8-878e-e9ddbed75cb6"},"vehicle_type_id":"4","last_reported":1778335952,"current_range_meters":4000,"station_id":"ce4bhg12rcd13ifvqf80","pricing_plan_id":"cebpf4jnsgd1na2vs0mg"},{"bike_id":"6452db2c-1182-4afc-94bd-93e76ac56d68","system_id":"levelo_inurba_marseille","lat":43.27081,"lon":5.42266,"is_reserved":false,"is_disabled":false,"rental_uris":{"android":"levelo://app?vid=6452db2c-1182-4afc-94bd-93e76ac56d68","ios":"levelo://app?vid=6452db2c-1182-4afc-94bd-93e76ac56d68"},"vehicle_type_id":"4","last_reported":1778335952,"current_range_meters":4000,"station_id":"ce4bhk92rcd13ifvqgb0","pricing_plan_id":"cebpf4jnsgd1na2vs0mg"},{"bike_id":"537a4a53-bc4c-4f5a-b2a3-ff5e4b9e3784","system_id":"levelo_inurba_marseille","lat":43.27048,"lon":5.40263,"is_reserved":false,"is_disabled":false,"rental_uris":{"android":"levelo://app?vid=537a4a53-bc4c-4f5a-b2a3-ff5e4b9e3784","ios":"levelo://app?vid=537a4a53-bc4c-4f5a-b2a3-ff5e4b9e3784"},"vehicle_type_id":"4","last_reported":1778335952,"current_range_meters":4000,"station_id":"ce4bhk92rcd13ifvqgc0","pricing_plan_id":"cebpf4jnsgd1na2vs0mg"},{"bike_id":"f03e9416-653d-45fd-aba7-c2ee459eb1bb","system_id":"levelo_inurba_marseille","lat":43.33545,"lon":5.37458,"is_reserved":false,"is_disabled":false,"rental_uris":{"android":"levelo://app?vid=f03e9416-653d-45fd-aba7-c2ee459eb1bb","ios":"levelo://app?vid=f03e9416-653d-45fd-aba7-c2ee459eb1bb"},"vehicle_type_id":"4","last_reported":1778335952,"current_range_meters":4000,"station_id":"st_d46tts09ee8s73dlu43g","pricing_plan_id":"cebpf4jnsgd1na2vs0mg"},{"bike_id":"3e72b025-916e-49c0-8060-2b71198d5633","system_id":"levelo_inurba_marseille","lat":43.286088,"lon":5.370674,"is_reserved":false,"is_disabled":false,"rental_uris":{"android":"levelo://app?vid=3e72b025-916e-49c0-8060-2b71198d5633","ios":"levelo://app?vid=3e72b025-916e-49c0-8060-2b71198d5633"},"vehicle_type_id":"4","last_reported":1778335952,"current_range_meters":4000,"station_id":"ce4bht12rcd13ifvqi60","pricing_plan_id":"cebpf4jnsgd1na2vs0mg"},{"bike_id":"4b65741e-5ed9-4da8-8620-3a00f88659d6","system_id":"levelo_inurba_marseille","lat":43.28494,"lon":5.48391,"is_reserved":false,"is_disabled":false,"rental_uris":{"android":"levelo://app?vid=4b65741e-5ed9-4da8-8620-3a00f88659d6","ios":"levelo://app?vid=4b65741e-5ed9-4da8-8620-3a00f88659d6"},"vehicle_type_id":"4","last_reported":1778335952,"current_range_meters":4000,"station_id":"","pricing_plan_id":"cebpf4jnsgd1na2vs0mg"},{"bike_id":"0ecddad9-091b-47fd-a45d-db67559668c1","system_id":"levelo_inurba_marseille","lat":43.27972,"lon":5.38754,"is_reserved":false,"is_disabled":true,"rental_uris":{"android":"levelo://app?vid=0ecddad9-091b-47fd-a45d-db67559668c1","ios":"levelo://app?vid=0ecddad9-091b-47fd-a45d-db67559668c1"},"vehicle_type_id":"4","last_reported":1778335952,"current_range_meters":4000,"station_id":"ce4bhg12rcd13ifvqf80","pricing_plan_id":"cebpf4jnsgd1na2vs0mg"},{"bike_id":"37188877-340b-4706-8a6b-caa71d37779a","system_id":"levelo_inurba_marseille","lat":43.26065,"lon":5.39396,"is_reserved":false,"is_disabled":false,"rental_uris":{"android":"levelo://app?vid=37188877-340b-4706-8a6b-caa71d37779a","ios":"levelo://app?vid=37188877-340b-4706-8a6b-caa71d37779a"},"vehicle_type_id":"4","last_reported":1778335952,"current_range_meters":4000,"station_id":"ce4bhh92rcd13ifvqfj0","pricing_plan_id":"cebpf4jnsgd1na2vs0mg"},{"bike_id":"2c22ed9c-50fa-4740-85fd-a594b4097f4f","system_id":"levelo_inurba_marseille","lat":43.3054,"lon":5.36702,"is_reserved":false,"is_disabled":false,"rental_uris":{"android":"levelo://app?vid=2c22ed9c-50fa-4740-85fd-a594b4097f4f","ios":"levelo://app?vid=2c22ed9c-50fa-4740-85fd-a594b4097f4f"},"vehicle_type_id":"4","last_reported":1778335952,"current_range_meters":4000,"station_id":"ce4bgrp2rcd13ifvqc9g","pricing_plan_id":"cebpf4jnsgd1na2vs0mg"},{"bike_id":"1d523790-3cd7-4ae8-9ef9-30a756d2d36e","system_id":"levelo_inurba_marseille","lat":43.286124,"lon":5.37059,"is_reserved":false,"is_disabled":false,"rental_uris":{"android":"levelo://app?vid=1d523790-3cd7-4ae8-9ef9-30a756d2d36e","ios":"levelo://app?vid=1d523790-3cd7-4ae8-9ef9-30a756d2d36e"},"vehicle_type_id":"4","last_reported":1778335952,"current_range_meters":4000,"station_id":"ce4bht12rcd13ifvqi60","pricing_plan_id":"cebpf4jnsgd1na2vs0mg"},{"bike_id":"fa833790-fea7-4b87-ab01-22a9071ab066","system_id":"levelo_inurba_marseille","lat":43.28468,"lon":5.48404,"is_reserved":false,"is_disabled":false,"rental_uris":{"android":"levelo://app?vid=fa833790-fea7-4b87-ab01-22a9071ab066","ios":"levelo://app?vid=fa833790-fea7-4b87-ab01-22a9071ab066"},"vehicle_type_id":"4","last_reported":1778335952,"current_range_meters":4000,"station_id":"st_d3svhcjqgbts73a3dn0g","pricing_plan_id":"cebpf4jnsgd1na2vs0mg"},{"bike_id":"415142c7-f50e-411e-adf6-f39700e22f6d","system_id":"levelo_inurba_marseille","lat":43.32694,"lon":5.356,"is_reserved":false,"is_disabled":false,"rental_uris":{"android":"levelo://app?vid=415142c7-f50e-411e-adf6-f39700e22f6d","ios":"levelo://app?vid=415142c7-f50e-411e-adf6-f39700e22f6d"},"vehicle_type_id":"4","last_reported":1778335952,"current_range_meters":4000,"station_id":"","pricing_plan_id":"cebpf4jnsgd1na2vs0mg"},{"bike_id":"5fc85a70-cd51-491b-a363-a46b0850da15","system_id":"levelo_inurba_marseille","lat":43.32878,"lon":5.36688,"is_reserved":false,"is_disabled":false,"rental_uris":{"android":"levelo://app?vid=5fc85a70-cd51-491b-a363-a46b0850da15","ios":"levelo://app?vid=5fc85a70-cd51-491b-a363-a46b0850da15"},"vehicle_type_id":"4","last_reported":1778335952,"current_range_meters":4000,"station_id":"","pricing_plan_id":"cebpf4jnsgd1na2vs0mg"},{"bike_id":"d5bf5e53-dad2-4d96-a284-d5542da28301","system_id":"levelo_inurba_marseille","lat":43.29879,"lon":5.39739,"is_reserved":false,"is_disabled":false,"rental_uris":{"android":"levelo://app?vid=d5bf5e53-dad2-4d96-a284-d5542da28301","ios":"levelo://app?vid=d5bf5e53-dad2-4d96-a284-d5542da28301"},"vehicle_type_id":"4","last_reported":1778335952,"current_range_meters":4000,"station_id":"ce4bh0h2rcd13ifvqd50","pricing_plan_id":"cebpf4jnsgd1na2vs0mg"},{"bike_id":"ab2c458e-b4c5-4fea-a857-c1cc96d361d7","system_id":"levelo_inurba_marseille","lat":43.29005,"lon":5.3561,"is_reserved":false,"is_disabled":false,"rental_uris":{"android":"levelo://app?vid=ab2c458e-b4c5-4fea-a857-c1cc96d361d7","ios":"levelo://app?vid=ab2c458e-b4c5-4fea-a857-c1cc96d361d7"},"vehicle_type_id":"4","last_reported":1778335952,"current_range_meters":4000,"station_id":"ce4bhb92rcd13ifvqen0","pricing_plan_id":"cebpf4jnsgd1na2vs0mg"},{"bike_id":"c9975066-8bda-443d-b3a8-984a93afc960","system_id":"levelo_inurba_marseille","lat":43.28487,"lon":5.38565,"is_reserved":false,"is_disabled":false,"rental_uris":{"android":"levelo://app?vid=c9975066-8bda-443d-b3a8-984a93afc960","ios":"levelo://app?vid=c9975066-8bda-443d-b3a8-984a93afc960"},"vehicle_type_id":"4","last_reported":1778335952,"current_range_meters":4000,"station_id":"ce4bh8p2rcd13ifvqeb0","pricing_plan_id":"cebpf4jnsgd1na2vs0mg"},{"bike_id":"13b1bcc7-e9d8-48b8-a72f-6d1f9d17e51d","system_id":"levelo_inurba_marseille","lat":43.24896,"lon":5.38966,"is_reserved":false,"is_disabled":false,"rental_uris":{"android":"levelo://app?vid=13b1bcc7-e9d8-48b8-a72f-6d1f9d17e51d","ios":"levelo://app?vid=13b1bcc7-e9d8-48b8-a72f-6d1f9d17e51d"},"vehicle_type_id":"4","last_reported":1778335952,"current_range_meters":4000,"station_id":"","pricing_plan_id":"cebpf4jnsgd1na2vs0mg"},{"bike_id":"e08c7042-f61a-46b1-9fce-f22cb900ad82","system_id":"levelo_inurba_marseille","lat":43.2509,"lon":5.39508,"is_reserved":false,"is_disabled":false,"rental_uris":{"android":"levelo://app?vid=e08c7042-f61a-46b1-9fce-f22cb900ad82","ios":"levelo://app?vid=e08c7042-f61a-46b1-9fce-f22cb900ad82"},"vehicle_type_id":"4","last_reported":1778335952,"current_range_meters":4000,"station_id":"ce4bhm12rcd13ifvqgkg","pricing_plan_id":"cebpf4jnsgd1na2vs0mg"},{"bike_id":"456df6e8-00df-4772-b130-44072086dcef","system_id":"levelo_inurba_marseille","lat":43.26062,"lon":5.39391,"is_reserved":false,"is_disabled":false,"rental_uris":{"android":"levelo://app?vid=456df6e8-00df-4772-b130-44072086dcef","ios":"levelo://app?vid=456df6e8-00df-4772-b130-44072086dcef"},"vehicle_type_id":"4","last_reported":1778335952,"current_range_meters":4000,"station_id":"ce4bhh92rcd13ifvqfj0","pricing_plan_id":"cebpf4jnsgd1na2vs0mg"},{"bike_id":"5b17b337-4e55-486b-b310-212b10614e57","system_id":"levelo_inurba_marseille","lat":43.32375,"lon":5.36734,"is_reserved":false,"is_disabled":false,"rental_uris":{"android":"levelo://app?vid=5b17b337-4e55-486b-b310-212b10614e57","ios":"levelo://app?vid=5b17b337-4e55-486b-b310-212b10614e57"},"vehicle_type_id":"4","last_reported":1778335952,"current_range_meters":4000,"station_id":"ce4bhsh2rcd13ifvqi2g","pricing_plan_id":"cebpf4jnsgd1na2vs0mg"},{"bike_id":"8ea31eca-2381-4c23-a3ed-4839e9ae33ac","system_id":"levelo_inurba_marseille","lat":43.21196,"lon":5.35067,"is_reserved":false,"is_disabled":false,"rental_uris":{"android":"levelo://app?vid=8ea31eca-2381-4c23-a3ed-4839e9ae33ac","ios":"levelo://app?vid=8ea31eca-2381-4c23-a3ed-4839e9ae33ac"},"vehicle_type_id":"4","last_reported":1778335952,"current_range_meters":4000,"station_id":"st_cvj6sg6p6f1abm77japg","pricing_plan_id":"cebpf4jnsgd1na2vs0mg"},{"bike_id":"184f45b8-86aa-4791-a36e-c85df4ebb822","system_id":"levelo_inurba_marseille","lat":43.29945,"lon":5.38595,"is_reserved":false,"is_disabled":false,"rental_uris":{"android":"levelo://app?vid=184f45b8-86aa-4791-a36e-c85df4ebb822","ios":"levelo://app?vid=184f45b8-86aa-4791-a36e-c85df4ebb822"},"vehicle_type_id":"4","last_reported":1778335952,"current_range_meters":4000,"station_id":"","pricing_plan_id":"cebpf4jnsgd1na2vs0mg"},{"bike_id":"76815a2e-e69d-47e3-8199-b0e0d486f9bc","system_id":"levelo_inurba_marseille","lat":43.28615,"lon":5.35101,"is_reserved":false,"is_disabled":false,"rental_uris":{"android":"levelo://app?vid=76815a2e-e69d-47e3-8199-b0e0d486f9bc","ios":"levelo://app?vid=76815a2e-e69d-47e3-8199-b0e0d486f9bc"},"vehicle_type_id":"4","last_reported":1778335952,"current_range_meters":4000,"station_id":"ce4bhch2rcd13ifvqeug","pricing_plan_id":"cebpf4jnsgd1na2vs0mg"},{"bike_id":"2eff6c3c-b3c7-4f79-9177-294eb1d510e0","system_id":"levelo_inurba_marseille","lat":43.21189,"lon":5.35041,"is_reserved":false,"is_disabled":false,"rental_uris":{"android":"levelo://app?vid=2eff6c3c-b3c7-4f79-9177-294eb1d510e0","ios":"levelo://app?vid=2eff6c3c-b3c7-4f79-9177-294eb1d510e0"},"vehicle_type_id":"4","last_reported":1778335952,"current_range_meters":4000,"station_id":"st_cvj6sg6p6f1abm77japg","pricing_plan_id":"cebpf4jnsgd1na2vs0mg"},{"bike_id":"0bc66aaf-5baf-4527-9d78-345db4e62b37","system_id":"levelo_inurba_marseille","lat":43.2751,"lon":5.4162,"is_reserved":false,"is_disabled":false,"rental_uris":{"android":"levelo://app?vid=0bc66aaf-5baf-4527-9d78-345db4e62b37","ios":"levelo://app?vid=0bc66aaf-5baf-4527-9d78-345db4e62b37"},"vehicle_type_id":"4","last_reported":1778335952,"current_range_meters":4000,"station_id":"st_d6im8g6chgec73a5pndg","pricing_plan_id":"cebpf4jnsgd1na2vs0mg"},{"bike_id":"dbf11d63-1183-4bee-9836-07f3a16b302f","system_id":"levelo_inurba_marseille","lat":43.286621,"lon":5.386555,"is_reserved":false,"is_disabled":false,"rental_uris":{"android":"levelo://app?vid=dbf11d63-1183-4bee-9836-07f3a16b302f","ios":"levelo://app?vid=dbf11d63-1183-4bee-9836-07f3a16b302f"},"vehicle_type_id":"4","last_reported":1778335952,"current_range_meters":4400,"station_id":"ce4bh492rcd13ifvqdug","pricing_plan_id":"cebpf4jnsgd1na2vs0mg"},{"bike_id":"1c873075-6a79-474c-9a44-b713f6392796","system_id":"levelo_inurba_marseille","lat":43.29904,"lon":5.36162,"is_reserved":false,"is_disabled":false,"rental_uris":{"android":"levelo://app?vid=1c873075-6a79-474c-9a44-b713f6392796","ios":"levelo://app?vid=1c873075-6a79-474c-9a44-b713f6392796"},"vehicle_type_id":"4","last_reported":1778335952,"current_range_meters":4400,"station_id":"","pricing_plan_id":"cebpf4jnsgd1na2vs0mg"},{"bike_id":"95489a07-b280-4aea-935b-70fc8cc33653","system_id":"levelo_inurba_marseille","lat":43.21747,"lon":5.34605,"is_reserved":false,"is_disabled":true,"rental_uris":{"android":"levelo://app?vid=95489a07-b280-4aea-935b-70fc8cc33653","ios":"levelo://app?vid=95489a07-b280-4aea-935b-70fc8cc33653"},"vehicle_type_id":"4","last_reported":1778335952,"current_range_meters":4400,"station_id":"st_cvj6r9ubvosntc0bgbag","pricing_plan_id":"cebpf4jnsgd1na2vs0mg"},{"bike_id":"8d2effcf-a5f9-4c8b-96d0-246e3a6cfd8f","system_id":"levelo_inurba_marseille","lat":43.30295,"lon":5.39225,"is_reserved":false,"is_disabled":false,"rental_uris":{"android":"levelo://app?vid=8d2effcf-a5f9-4c8b-96d0-246e3a6cfd8f","ios":"levelo://app?vid=8d2effcf-a5f9-4c8b-96d0-246e3a6cfd8f"},"vehicle_type_id":"4","last_reported":1778335952,"current_range_meters":4400,"station_id":"ce4bgkh2rcd13ifvqbk0","pricing_plan_id":"cebpf4jnsgd1na2vs0mg"},{"bike_id":"277398ac-d1e5-48fd-aaed-dfa548a69a4f","system_id":"levelo_inurba_marseille","lat":43.29443,"lon":5.39752,"is_reserved":false,"is_disabled":false,"rental_uris":{"android":"levelo://app?vid=277398ac-d1e5-48fd-aaed-dfa548a69a4f","ios":"levelo://app?vid=277398ac-d1e5-48fd-aaed-dfa548a69a4f"},"vehicle_type_id":"4","last_reported":1778335952,"current_range_meters":4400,"station_id":"ce4bh3h2rcd13ifvqdo0","pricing_plan_id":"cebpf4jnsgd1na2vs0mg"},{"bike_id":"ba1a84df-99bc-4f91-b102-9b8b01f50ffc","system_id":"levelo_inurba_marseille","lat":43.319,"lon":5.36818,"is_reserved":false,"is_disabled":false,"rental_uris":{"android":"levelo://app?vid=ba1a84df-99bc-4f91-b102-9b8b01f50ffc","ios":"levelo://app?vid=ba1a84df-99bc-4f91-b102-9b8b01f50ffc"},"vehicle_type_id":"4","last_reported":1778335952,"current_range_meters":4800,"station_id":"st_d6o2h0d0559c73evc1b0","pricing_plan_id":"cebpf4jnsgd1na2vs0mg"},{"bike_id":"83c53200-e80f-47bb-b870-a7652825089e","system_id":"levelo_inurba_marseille","lat":43.24677,"lon":5.38186,"is_reserved":false,"is_disabled":false,"rental_uris":{"android":"levelo://app?vid=83c53200-e80f-47bb-b870-a7652825089e","ios":"levelo://app?vid=83c53200-e80f-47bb-b870-a7652825089e"},"vehicle_type_id":"4","last_reported":1778335952,"current_range_meters":4800,"station_id":"ce4bhih2rcd13ifvqfr0","pricing_plan_id":"cebpf4jnsgd1na2vs0mg"},{"bike_id":"91d78913-28b2-401d-850a-f1af99bf6768","system_id":"levelo_inurba_marseille","lat":43.28879,"lon":5.42527,"is_reserved":false,"is_disabled":false,"rental_uris":{"android":"levelo://app?vid=91d78913-28b2-401d-850a-f1af99bf6768","ios":"levelo://app?vid=91d78913-28b2-401d-850a-f1af99bf6768"},"vehicle_type_id":"4","last_reported":1778335952,"current_range_meters":4800,"station_id":"st_d3b462108ojc7389ooeg","pricing_plan_id":"cebpf4jnsgd1na2vs0mg"},{"bike_id":"f65a7636-a2e8-46f3-a51f-603268134927","system_id":"levelo_inurba_marseille","lat":43.231887,"lon":5.436354,"is_reserved":false,"is_disabled":false,"rental_uris":{"android":"levelo://app?vid=f65a7636-a2e8-46f3-a51f-603268134927","ios":"levelo://app?vid=f65a7636-a2e8-46f3-a51f-603268134927"},"vehicle_type_id":"4","last_reported":1778335952,"current_range_meters":4800,"station_id":"ce4bhmp2rcd13ifvqgog","pricing_plan_id":"cebpf4jnsgd1na2vs0mg"},{"bike_id":"09f03c71-3135-488b-aa1b-16f1834011a9","system_id":"levelo_inurba_marseille","lat":43.29198,"lon":5.35677,"is_reserved":false,"is_disabled":false,"rental_uris":{"android":"levelo://app?vid=09f03c71-3135-488b-aa1b-16f1834011a9","ios":"levelo://app?vid=09f03c71-3135-488b-aa1b-16f1834011a9"},"vehicle_type_id":"4","last_reported":1778335952,"current_range_meters":4800,"station_id":"","pricing_plan_id":"cebpf4jnsgd1na2vs0mg"},{"bike_id":"751cdc66-8641-4875-a1dd-40c6831f96d1","system_id":"levelo_inurba_marseille","lat":43.26784,"lon":5.39415,"is_reserved":false,"is_disabled":false,"rental_uris":{"android":"levelo://app?vid=751cdc66-8641-4875-a1dd-40c6831f96d1","ios":"levelo://app?vid=751cdc66-8641-4875-a1dd-40c6831f96d1"},"vehicle_type_id":"4","last_reported":1778335952,"current_range_meters":4800,"station_id":"ce4bhh12rcd13ifvqfg0","pricing_plan_id":"cebpf4jnsgd1na2vs0mg"},{"bike_id":"7c56137a-05b5-47d0-b192-873a2f490371","system_id":"levelo_inurba_marseille","lat":43.24408,"lon":5.37075,"is_reserved":false,"is_disabled":false,"rental_uris":{"android":"levelo://app?vid=7c56137a-05b5-47d0-b192-873a2f490371","ios":"levelo://app?vid=7c56137a-05b5-47d0-b192-873a2f490371"},"vehicle_type_id":"4","last_reported":1778335952,"current_range_meters":4800,"station_id":"ce4bhhh2rcd13ifvqfk0","pricing_plan_id":"cebpf4jnsgd1na2vs0mg"},{"bike_id":"691b0b24-b936-4810-8c50-2b40851a64d9","system_id":"levelo_inurba_marseille","lat":43.29199,"lon":5.35787,"is_reserved":false,"is_disabled":false,"rental_uris":{"android":"levelo://app?vid=691b0b24-b936-4810-8c50-2b40851a64d9","ios":"levelo://app?vid=691b0b24-b936-4810-8c50-2b40851a64d9"},"vehicle_type_id":"4","last_reported":1778335952,"current_range_meters":4800,"station_id":"ce4bhb12rcd13ifvqel0","pricing_plan_id":"cebpf4jnsgd1na2vs0mg"},{"bike_id":"f1d6bb76-b0f9-4a86-88ec-8e84bae710a4","system_id":"levelo_inurba_marseille","lat":43.30458,"lon":5.37906,"is_reserved":false,"is_disabled":false,"rental_uris":{"android":"levelo://app?vid=f1d6bb76-b0f9-4a86-88ec-8e84bae710a4","ios":"levelo://app?vid=f1d6bb76-b0f9-4a86-88ec-8e84bae710a4"},"vehicle_type_id":"4","last_reported":1778335952,"current_range_meters":4800,"station_id":"ce4bgup2rcd13ifvqcn0","pricing_plan_id":"cebpf4jnsgd1na2vs0mg"},{"bike_id":"9f135140-bc51-471a-99ba-2c149cd74964","system_id":"levelo_inurba_marseille","lat":43.22559,"lon":5.41637,"is_reserved":false,"is_disabled":false,"rental_uris":{"android":"levelo://app?vid=9f135140-bc51-471a-99ba-2c149cd74964","ios":"levelo://app?vid=9f135140-bc51-471a-99ba-2c149cd74964"},"vehicle_type_id":"4","last_reported":1778335952,"current_range_meters":4800,"station_id":"st_d2o4gvlbi1j2169b742g","pricing_plan_id":"cebpf4jnsgd1na2vs0mg"},{"bike_id":"c1b768b5-78ad-4562-8b11-acf628f13106","system_id":"levelo_inurba_marseille","lat":43.28,"lon":5.44222,"is_reserved":false,"is_disabled":false,"rental_uris":{"android":"levelo://app?vid=c1b768b5-78ad-4562-8b11-acf628f13106","ios":"levelo://app?vid=c1b768b5-78ad-4562-8b11-acf628f13106"},"vehicle_type_id":"4","last_reported":1778335952,"current_range_meters":4800,"station_id":"","pricing_plan_id":"cebpf4jnsgd1na2vs0mg"},{"bike_id":"3a4e4efb-cd45-4a10-925a-8c415f9ba11c","system_id":"levelo_inurba_marseille","lat":43.2315,"lon":5.4374,"is_reserved":false,"is_disabled":false,"rental_uris":{"android":"levelo://app?vid=3a4e4efb-cd45-4a10-925a-8c415f9ba11c","ios":"levelo://app?vid=3a4e4efb-cd45-4a10-925a-8c415f9ba11c"},"vehicle_type_id":"4","last_reported":1778335952,"current_range_meters":4800,"station_id":"ce4bhmp2rcd13ifvqgog","pricing_plan_id":"cebpf4jnsgd1na2vs0mg"},{"bike_id":"e8461b56-9af7-4d44-a288-92e063783260","system_id":"levelo_inurba_marseille","lat":43.26217,"lon":5.40439,"is_reserved":false,"is_disabled":false,"rental_uris":{"android":"levelo://app?vid=e8461b56-9af7-4d44-a288-92e063783260","ios":"levelo://app?vid=e8461b56-9af7-4d44-a288-92e063783260"},"vehicle_type_id":"4","last_reported":1778335952,"current_range_meters":4800,"station_id":"ce4bhmh2rcd13ifvqgmg","pricing_plan_id":"cebpf4jnsgd1na2vs0mg"},{"bike_id":"2505de3c-0304-40f5-8703-13ba3411cca8","system_id":"levelo_inurba_marseille","lat":43.26566,"lon":5.37322,"is_reserved":false,"is_disabled":false,"rental_uris":{"android":"levelo://app?vid=2505de3c-0304-40f5-8703-13ba3411cca8","ios":"levelo://app?vid=2505de3c-0304-40f5-8703-13ba3411cca8"},"vehicle_type_id":"4","last_reported":1778335952,"current_range_meters":4800,"station_id":"ce4bhg12rcd13ifvqf70","pricing_plan_id":"cebpf4jnsgd1na2vs0mg"},{"bike_id":"a6b067a9-0609-43ca-8dde-1d9ad656b974","system_id":"levelo_inurba_marseille","lat":43.230661,"lon":5.354893,"is_reserved":false,"is_disabled":false,"rental_uris":{"android":"levelo://app?vid=a6b067a9-0609-43ca-8dde-1d9ad656b974","ios":"levelo://app?vid=a6b067a9-0609-43ca-8dde-1d9ad656b974"},"vehicle_type_id":"4","last_reported":1778335952,"current_range_meters":4800,"station_id":"cpo3342slgdg3j2ifvpg","pricing_plan_id":"cebpf4jnsgd1na2vs0mg"},{"bike_id":"5c2001df-9050-4242-b24d-e3c125e275f6","system_id":"levelo_inurba_marseille","lat":43.2904,"lon":5.39963,"is_reserved":false,"is_disabled":false,"rental_uris":{"android":"levelo://app?vid=5c2001df-9050-4242-b24d-e3c125e275f6","ios":"levelo://app?vid=5c2001df-9050-4242-b24d-e3c125e275f6"},"vehicle_type_id":"4","last_reported":1778335952,"current_range_meters":5600,"station_id":"ce4bh392rcd13ifvqdm0","pricing_plan_id":"cebpf4jnsgd1na2vs0mg"},{"bike_id":"eee51eae-5aaa-4a90-b6bb-0ee2250819e2","system_id":"levelo_inurba_marseille","lat":43.27893,"lon":5.38775,"is_reserved":false,"is_disabled":false,"rental_uris":{"android":"levelo://app?vid=eee51eae-5aaa-4a90-b6bb-0ee2250819e2","ios":"levelo://app?vid=eee51eae-5aaa-4a90-b6bb-0ee2250819e2"},"vehicle_type_id":"4","last_reported":1778335952,"current_range_meters":5600,"station_id":"","pricing_plan_id":"cebpf4jnsgd1na2vs0mg"},{"bike_id":"36bf5966-883a-4820-975e-e8801ce08727","system_id":"levelo_inurba_marseille","lat":43.29317,"lon":5.37143,"is_reserved":false,"is_disabled":false,"rental_uris":{"android":"levelo://app?vid=36bf5966-883a-4820-975e-e8801ce08727","ios":"levelo://app?vid=36bf5966-883a-4820-975e-e8801ce08727"},"vehicle_type_id":"4","last_reported":1778335952,"current_range_meters":5600,"station_id":"ce4bgh92rcd13ifvqb40","pricing_plan_id":"cebpf4jnsgd1na2vs0mg"},{"bike_id":"066dd4d3-3ad6-4172-ad85-12e1b95a5884","system_id":"levelo_inurba_marseille","lat":43.283713,"lon":5.386338,"is_reserved":false,"is_disabled":false,"rental_uris":{"android":"levelo://app?vid=066dd4d3-3ad6-4172-ad85-12e1b95a5884","ios":"levelo://app?vid=066dd4d3-3ad6-4172-ad85-12e1b95a5884"},"vehicle_type_id":"4","last_reported":1778335952,"current_range_meters":5600,"station_id":"ce4bh492rcd13ifvqdvg","pricing_plan_id":"cebpf4jnsgd1na2vs0mg"},{"bike_id":"de57f760-2e8e-43a7-ab93-45b605cde9a5","system_id":"levelo_inurba_marseille","lat":43.30137,"lon":5.38786,"is_reserved":false,"is_disabled":false,"rental_uris":{"android":"levelo://app?vid=de57f760-2e8e-43a7-ab93-45b605cde9a5","ios":"levelo://app?vid=de57f760-2e8e-43a7-ab93-45b605cde9a5"},"vehicle_type_id":"4","last_reported":1778335952,"current_range_meters":5600,"station_id":"ce4bghh2rcd13ifvqb60","pricing_plan_id":"cebpf4jnsgd1na2vs0mg"},{"bike_id":"e9603e54-ff6b-4fae-9e9b-b17dd395cbe4","system_id":"levelo_inurba_marseille","lat":43.2636,"lon":5.39923,"is_reserved":false,"is_disabled":false,"rental_uris":{"android":"levelo://app?vid=e9603e54-ff6b-4fae-9e9b-b17dd395cbe4","ios":"levelo://app?vid=e9603e54-ff6b-4fae-9e9b-b17dd395cbe4"},"vehicle_type_id":"4","last_reported":1778335952,"current_range_meters":5600,"station_id":"","pricing_plan_id":"cebpf4jnsgd1na2vs0mg"},{"bike_id":"4e526641-a0ff-4409-9c86-f3386d3e81a5","system_id":"levelo_inurba_marseille","lat":43.289383,"lon":5.366413,"is_reserved":false,"is_disabled":false,"rental_uris":{"android":"levelo://app?vid=4e526641-a0ff-4409-9c86-f3386d3e81a5","ios":"levelo://app?vid=4e526641-a0ff-4409-9c86-f3386d3e81a5"},"vehicle_type_id":"4","last_reported":1778335952,"current_range_meters":5600,"station_id":"ce4bhap2rcd13ifvqek0","pricing_plan_id":"cebpf4jnsgd1na2vs0mg"},{"bike_id":"d5ec65c1-0a9e-4f98-9b75-4370bb69eb37","system_id":"levelo_inurba_marseille","lat":43.21751,"lon":5.34594,"is_reserved":false,"is_disabled":false,"rental_uris":{"android":"levelo://app?vid=d5ec65c1-0a9e-4f98-9b75-4370bb69eb37","ios":"levelo://app?vid=d5ec65c1-0a9e-4f98-9b75-4370bb69eb37"},"vehicle_type_id":"4","last_reported":1778335952,"current_range_meters":5600,"station_id":"st_cvj6r9ubvosntc0bgbag","pricing_plan_id":"cebpf4jnsgd1na2vs0mg"},{"bike_id":"f901c4c2-31d5-41c6-b39d-0f515dfbc618","system_id":"levelo_inurba_marseille","lat":43.31128,"lon":5.37765,"is_reserved":false,"is_disabled":false,"rental_uris":{"android":"levelo://app?vid=f901c4c2-31d5-41c6-b39d-0f515dfbc618","ios":"levelo://app?vid=f901c4c2-31d5-41c6-b39d-0f515dfbc618"},"vehicle_type_id":"4","last_reported":1778335952,"current_range_meters":5600,"station_id":"ce4bgt92rcd13ifvqcg0","pricing_plan_id":"cebpf4jnsgd1na2vs0mg"},{"bike_id":"ac345bfe-3175-48b7-8171-3054483d8bdd","system_id":"levelo_inurba_marseille","lat":43.2418,"lon":5.39726,"is_reserved":false,"is_disabled":false,"rental_uris":{"android":"levelo://app?vid=ac345bfe-3175-48b7-8171-3054483d8bdd","ios":"levelo://app?vid=ac345bfe-3175-48b7-8171-3054483d8bdd"},"vehicle_type_id":"4","last_reported":1778335952,"current_range_meters":5600,"station_id":"ce4bhn12rcd13ifvqgpg","pricing_plan_id":"cebpf4jnsgd1na2vs0mg"},{"bike_id":"5c743ffc-3b44-4cf9-8555-43e80cf8af8b","system_id":"levelo_inurba_marseille","lat":43.24659,"lon":5.38158,"is_reserved":false,"is_disabled":false,"rental_uris":{"android":"levelo://app?vid=5c743ffc-3b44-4cf9-8555-43e80cf8af8b","ios":"levelo://app?vid=5c743ffc-3b44-4cf9-8555-43e80cf8af8b"},"vehicle_type_id":"4","last_reported":1778335952,"current_range_meters":5600,"station_id":"ce4bhih2rcd13ifvqfr0","pricing_plan_id":"cebpf4jnsgd1na2vs0mg"},{"bike_id":"a91b507f-fd0d-4bc1-89f7-2ede5a0617a5","system_id":"levelo_inurba_marseille","lat":43.26578,"lon":5.39014,"is_reserved":false,"is_disabled":false,"rental_uris":{"android":"levelo://app?vid=a91b507f-fd0d-4bc1-89f7-2ede5a0617a5","ios":"levelo://app?vid=a91b507f-fd0d-4bc1-89f7-2ede5a0617a5"},"vehicle_type_id":"4","last_reported":1778335952,"current_range_meters":5600,"station_id":"ce4bhe12rcd13ifvqf30","pricing_plan_id":"cebpf4jnsgd1na2vs0mg"},{"bike_id":"07b32789-ba6e-4432-b9b9-82d38aee4c53","system_id":"levelo_inurba_marseille","lat":43.2417,"lon":5.364,"is_reserved":false,"is_disabled":false,"rental_uris":{"android":"levelo://app?vid=07b32789-ba6e-4432-b9b9-82d38aee4c53","ios":"levelo://app?vid=07b32789-ba6e-4432-b9b9-82d38aee4c53"},"vehicle_type_id":"4","last_reported":1778335952,"current_range_meters":5600,"station_id":"cpo36qri1sfpv3e86is0","pricing_plan_id":"cebpf4jnsgd1na2vs0mg"},{"bike_id":"ab8f1801-e360-4727-94a3-8c8cc0db8fb3","system_id":"levelo_inurba_marseille","lat":43.28274,"lon":5.35068,"is_reserved":false,"is_disabled":false,"rental_uris":{"android":"levelo://app?vid=ab8f1801-e360-4727-94a3-8c8cc0db8fb3","ios":"levelo://app?vid=ab8f1801-e360-4727-94a3-8c8cc0db8fb3"},"vehicle_type_id":"4","last_reported":1778335952,"current_range_meters":5600,"station_id":"ce4bhbp2rcd13ifvqerg","pricing_plan_id":"cebpf4jnsgd1na2vs0mg"},{"bike_id":"97767ccb-abfd-4a27-8dea-44c141fa667a","system_id":"levelo_inurba_marseille","lat":43.305306,"lon":5.367067,"is_reserved":false,"is_disabled":false,"rental_uris":{"android":"levelo://app?vid=97767ccb-abfd-4a27-8dea-44c141fa667a","ios":"levelo://app?vid=97767ccb-abfd-4a27-8dea-44c141fa667a"},"vehicle_type_id":"4","last_reported":1778335952,"current_range_meters":5600,"station_id":"ce4bgrp2rcd13ifvqc9g","pricing_plan_id":"cebpf4jnsgd1na2vs0mg"},{"bike_id":"c8f13be8-d399-4e68-9974-a09fea859501","system_id":"levelo_inurba_marseille","lat":43.28717,"lon":5.37932,"is_reserved":false,"is_disabled":false,"rental_uris":{"android":"levelo://app?vid=c8f13be8-d399-4e68-9974-a09fea859501","ios":"levelo://app?vid=c8f13be8-d399-4e68-9974-a09fea859501"},"vehicle_type_id":"4","last_reported":1778335952,"current_range_meters":5600,"station_id":"ce4bh9p2rcd13ifvqec0","pricing_plan_id":"cebpf4jnsgd1na2vs0mg"},{"bike_id":"75f59337-b493-444f-b711-8136760bba0b","system_id":"levelo_inurba_marseille","lat":43.21754,"lon":5.34609,"is_reserved":false,"is_disabled":false,"rental_uris":{"android":"levelo://app?vid=75f59337-b493-444f-b711-8136760bba0b","ios":"levelo://app?vid=75f59337-b493-444f-b711-8136760bba0b"},"vehicle_type_id":"4","last_reported":1778335952,"current_range_meters":6000,"station_id":"st_cvj6r9ubvosntc0bgbag","pricing_plan_id":"cebpf4jnsgd1na2vs0mg"},{"bike_id":"798dd442-ecce-41be-b4b9-436ee7f8a467","system_id":"levelo_inurba_marseille","lat":43.272094,"lon":5.390291,"is_reserved":false,"is_disabled":false,"rental_uris":{"android":"levelo://app?vid=798dd442-ecce-41be-b4b9-436ee7f8a467","ios":"levelo://app?vid=798dd442-ecce-41be-b4b9-436ee7f8a467"},"vehicle_type_id":"4","last_reported":1778335952,"current_range_meters":6000,"station_id":"ce4bhhp2rcd13ifvqfm0","pricing_plan_id":"cebpf4jnsgd1na2vs0mg"},{"bike_id":"7c5d82ce-db34-4500-8a70-ee0c59420005","system_id":"levelo_inurba_marseille","lat":43.21753,"lon":5.34621,"is_reserved":false,"is_disabled":false,"rental_uris":{"android":"levelo://app?vid=7c5d82ce-db34-4500-8a70-ee0c59420005","ios":"levelo://app?vid=7c5d82ce-db34-4500-8a70-ee0c59420005"},"vehicle_type_id":"4","last_reported":1778335952,"current_range_meters":6000,"station_id":"st_cvj6r9ubvosntc0bgbag","pricing_plan_id":"cebpf4jnsgd1na2vs0mg"},{"bike_id":"10c1c852-27c1-4a93-8a9e-687fcc741284","system_id":"levelo_inurba_marseille","lat":43.29849,"lon":5.362784,"is_reserved":false,"is_disabled":false,"rental_uris":{"android":"levelo://app?vid=10c1c852-27c1-4a93-8a9e-687fcc741284","ios":"levelo://app?vid=10c1c852-27c1-4a93-8a9e-687fcc741284"},"vehicle_type_id":"4","last_reported":1778335952,"current_range_meters":6000,"station_id":"ce4bgpp2rcd13ifvqc3g","pricing_plan_id":"cebpf4jnsgd1na2vs0mg"},{"bike_id":"83bca674-4d2e-40c8-9e1c-6006bd98869b","system_id":"levelo_inurba_marseille","lat":43.30557,"lon":5.36542,"is_reserved":false,"is_disabled":false,"rental_uris":{"android":"levelo://app?vid=83bca674-4d2e-40c8-9e1c-6006bd98869b","ios":"levelo://app?vid=83bca674-4d2e-40c8-9e1c-6006bd98869b"},"vehicle_type_id":"4","last_reported":1778335952,"current_range_meters":6000,"station_id":"ce4bgs12rcd13ifvqcag","pricing_plan_id":"cebpf4jnsgd1na2vs0mg"},{"bike_id":"07829fdc-c599-44a2-8a5d-d38b8b9f7bb8","system_id":"levelo_inurba_marseille","lat":43.30382,"lon":5.42494,"is_reserved":false,"is_disabled":true,"rental_uris":{"android":"levelo://app?vid=07829fdc-c599-44a2-8a5d-d38b8b9f7bb8","ios":"levelo://app?vid=07829fdc-c599-44a2-8a5d-d38b8b9f7bb8"},"vehicle_type_id":"4","last_reported":1778335952,"current_range_meters":6000,"station_id":"ce4bhoh2rcd13ifvqh6g","pricing_plan_id":"cebpf4jnsgd1na2vs0mg"},{"bike_id":"b8425fa1-a298-4679-ba8a-777546e14eca","system_id":"levelo_inurba_marseille","lat":43.33742,"lon":5.37409,"is_reserved":false,"is_disabled":false,"rental_uris":{"android":"levelo://app?vid=b8425fa1-a298-4679-ba8a-777546e14eca","ios":"levelo://app?vid=b8425fa1-a298-4679-ba8a-777546e14eca"},"vehicle_type_id":"4","last_reported":1778335952,"current_range_meters":6000,"station_id":"","pricing_plan_id":"cebpf4jnsgd1na2vs0mg"},{"bike_id":"04a7aabc-b659-4c6b-9dc8-3c785e942186","system_id":"levelo_inurba_marseille","lat":43.29985,"lon":5.38476,"is_reserved":false,"is_disabled":false,"rental_uris":{"android":"levelo://app?vid=04a7aabc-b659-4c6b-9dc8-3c785e942186","ios":"levelo://app?vid=04a7aabc-b659-4c6b-9dc8-3c785e942186"},"vehicle_type_id":"4","last_reported":1778335952,"current_range_meters":6000,"station_id":"ce4bgj92rcd13ifvqbd0","pricing_plan_id":"cebpf4jnsgd1na2vs0mg"},{"bike_id":"567c6efa-3311-4682-a1bd-69e8d8607b2e","system_id":"levelo_inurba_marseille","lat":43.26057,"lon":5.39396,"is_reserved":false,"is_disabled":false,"rental_uris":{"android":"levelo://app?vid=567c6efa-3311-4682-a1bd-69e8d8607b2e","ios":"levelo://app?vid=567c6efa-3311-4682-a1bd-69e8d8607b2e"},"vehicle_type_id":"4","last_reported":1778335952,"current_range_meters":6000,"station_id":"ce4bhh92rcd13ifvqfj0","pricing_plan_id":"cebpf4jnsgd1na2vs0mg"},{"bike_id":"53145447-0793-4574-8447-b92df1abafe4","system_id":"levelo_inurba_marseille","lat":43.265556,"lon":5.373002,"is_reserved":false,"is_disabled":false,"rental_uris":{"android":"levelo://app?vid=53145447-0793-4574-8447-b92df1abafe4","ios":"levelo://app?vid=53145447-0793-4574-8447-b92df1abafe4"},"vehicle_type_id":"4","last_reported":1778335952,"current_range_meters":6000,"station_id":"ce4bhg12rcd13ifvqf70","pricing_plan_id":"cebpf4jnsgd1na2vs0mg"},{"bike_id":"2a83a169-e85d-4fbc-a68e-eb75732f5013","system_id":"levelo_inurba_marseille","lat":43.2496,"lon":5.40495,"is_reserved":false,"is_disabled":false,"rental_uris":{"android":"levelo://app?vid=2a83a169-e85d-4fbc-a68e-eb75732f5013","ios":"levelo://app?vid=2a83a169-e85d-4fbc-a68e-eb75732f5013"},"vehicle_type_id":"4","last_reported":1778335952,"current_range_meters":6000,"station_id":"st_d2ngiaodas8pm72gd1h0","pricing_plan_id":"cebpf4jnsgd1na2vs0mg"},{"bike_id":"d1516357-e3eb-4a56-b981-d04ca5e02344","system_id":"levelo_inurba_marseille","lat":43.25576,"lon":5.38231,"is_reserved":false,"is_disabled":false,"rental_uris":{"android":"levelo://app?vid=d1516357-e3eb-4a56-b981-d04ca5e02344","ios":"levelo://app?vid=d1516357-e3eb-4a56-b981-d04ca5e02344"},"vehicle_type_id":"4","last_reported":1778335952,"current_range_meters":6000,"station_id":"ce4bhih2rcd13ifvqfs0","pricing_plan_id":"cebpf4jnsgd1na2vs0mg"},{"bike_id":"4100d1c9-7500-4ef7-94a9-bab8eb5d51b6","system_id":"levelo_inurba_marseille","lat":43.21186,"lon":5.35092,"is_reserved":false,"is_disabled":false,"rental_uris":{"android":"levelo://app?vid=4100d1c9-7500-4ef7-94a9-bab8eb5d51b6","ios":"levelo://app?vid=4100d1c9-7500-4ef7-94a9-bab8eb5d51b6"},"vehicle_type_id":"4","last_reported":1778335952,"current_range_meters":6400,"station_id":"st_cvj6sg6p6f1abm77japg","pricing_plan_id":"cebpf4jnsgd1na2vs0mg"},{"bike_id":"8fdbe986-716a-4dce-a50d-3af695e9688c","system_id":"levelo_inurba_marseille","lat":43.33545,"lon":5.37476,"is_reserved":false,"is_disabled":false,"rental_uris":{"android":"levelo://app?vid=8fdbe986-716a-4dce-a50d-3af695e9688c","ios":"levelo://app?vid=8fdbe986-716a-4dce-a50d-3af695e9688c"},"vehicle_type_id":"4","last_reported":1778335952,"current_range_meters":6400,"station_id":"st_d46tts09ee8s73dlu43g","pricing_plan_id":"cebpf4jnsgd1na2vs0mg"},{"bike_id":"240f83cd-e330-45fb-9f58-4a13270cfff0","system_id":"levelo_inurba_marseille","lat":43.28163,"lon":5.42671,"is_reserved":false,"is_disabled":false,"rental_uris":{"android":"levelo://app?vid=240f83cd-e330-45fb-9f58-4a13270cfff0","ios":"levelo://app?vid=240f83cd-e330-45fb-9f58-4a13270cfff0"},"vehicle_type_id":"4","last_reported":1778335952,"current_range_meters":6400,"station_id":"ce4bhnh2rcd13ifvqgug","pricing_plan_id":"cebpf4jnsgd1na2vs0mg"},{"bike_id":"9ec7a5e9-4d5d-445d-a5ee-e22905a0b4e3","system_id":"levelo_inurba_marseille","lat":43.24381,"lon":5.37097,"is_reserved":false,"is_disabled":false,"rental_uris":{"android":"levelo://app?vid=9ec7a5e9-4d5d-445d-a5ee-e22905a0b4e3","ios":"levelo://app?vid=9ec7a5e9-4d5d-445d-a5ee-e22905a0b4e3"},"vehicle_type_id":"4","last_reported":1778335952,"current_range_meters":6400,"station_id":"ce4bhhh2rcd13ifvqfk0","pricing_plan_id":"cebpf4jnsgd1na2vs0mg"},{"bike_id":"3e7e670d-2ef7-4b27-9465-54592fc35211","system_id":"levelo_inurba_marseille","lat":43.21208,"lon":5.35105,"is_reserved":false,"is_disabled":false,"rental_uris":{"android":"levelo://app?vid=3e7e670d-2ef7-4b27-9465-54592fc35211","ios":"levelo://app?vid=3e7e670d-2ef7-4b27-9465-54592fc35211"},"vehicle_type_id":"4","last_reported":1778335952,"current_range_meters":6400,"station_id":"st_cvj6sg6p6f1abm77japg","pricing_plan_id":"cebpf4jnsgd1na2vs0mg"},{"bike_id":"fdb713e6-d251-410f-9e97-3e096c7ed0f3","system_id":"levelo_inurba_marseille","lat":43.30089,"lon":5.39083,"is_reserved":false,"is_disabled":false,"rental_uris":{"android":"levelo://app?vid=fdb713e6-d251-410f-9e97-3e096c7ed0f3","ios":"levelo://app?vid=fdb713e6-d251-410f-9e97-3e096c7ed0f3"},"vehicle_type_id":"4","last_reported":1778335952,"current_range_meters":6400,"station_id":"ce4bh192rcd13ifvqdb0","pricing_plan_id":"cebpf4jnsgd1na2vs0mg"},{"bike_id":"5cee6a59-4984-4130-bbcb-eb18d26c0444","system_id":"levelo_inurba_marseille","lat":43.28273,"lon":5.35076,"is_reserved":false,"is_disabled":false,"rental_uris":{"android":"levelo://app?vid=5cee6a59-4984-4130-bbcb-eb18d26c0444","ios":"levelo://app?vid=5cee6a59-4984-4130-bbcb-eb18d26c0444"},"vehicle_type_id":"4","last_reported":1778335952,"current_range_meters":6400,"station_id":"ce4bhbp2rcd13ifvqerg","pricing_plan_id":"cebpf4jnsgd1na2vs0mg"},{"bike_id":"96c33c49-d970-4399-b982-f1b4166ac534","system_id":"levelo_inurba_marseille","lat":43.29014,"lon":5.35608,"is_reserved":false,"is_disabled":false,"rental_uris":{"android":"levelo://app?vid=96c33c49-d970-4399-b982-f1b4166ac534","ios":"levelo://app?vid=96c33c49-d970-4399-b982-f1b4166ac534"},"vehicle_type_id":"4","last_reported":1778335952,"current_range_meters":6400,"station_id":"ce4bhb92rcd13ifvqen0","pricing_plan_id":"cebpf4jnsgd1na2vs0mg"},{"bike_id":"c440543a-fc70-44c0-b21f-aa93407f1be5","system_id":"levelo_inurba_marseille","lat":43.34141,"lon":5.40952,"is_reserved":false,"is_disabled":true,"rental_uris":{"android":"levelo://app?vid=c440543a-fc70-44c0-b21f-aa93407f1be5","ios":"levelo://app?vid=c440543a-fc70-44c0-b21f-aa93407f1be5"},"vehicle_type_id":"4","last_reported":1778335952,"current_range_meters":6400,"station_id":"ce4bhqh2rcd13ifvqhlg","pricing_plan_id":"cebpf4jnsgd1na2vs0mg"},{"bike_id":"5a436f11-afe4-43ad-a9a1-056bd0578be1","system_id":"levelo_inurba_marseille","lat":43.27985,"lon":5.38722,"is_reserved":false,"is_disabled":true,"rental_uris":{"android":"levelo://app?vid=5a436f11-afe4-43ad-a9a1-056bd0578be1","ios":"levelo://app?vid=5a436f11-afe4-43ad-a9a1-056bd0578be1"},"vehicle_type_id":"4","last_reported":1778335952,"current_range_meters":6400,"station_id":"ce4bhg12rcd13ifvqf80","pricing_plan_id":"cebpf4jnsgd1na2vs0mg"},{"bike_id":"b04be0b9-e1f1-4b3a-a624-da85cca3a01a","system_id":"levelo_inurba_marseille","lat":43.24656,"lon":5.3816,"is_reserved":false,"is_disabled":false,"rental_uris":{"android":"levelo://app?vid=b04be0b9-e1f1-4b3a-a624-da85cca3a01a","ios":"levelo://app?vid=b04be0b9-e1f1-4b3a-a624-da85cca3a01a"},"vehicle_type_id":"4","last_reported":1778335952,"current_range_meters":6400,"station_id":"ce4bhih2rcd13ifvqfr0","pricing_plan_id":"cebpf4jnsgd1na2vs0mg"},{"bike_id":"496d9d23-0758-4b07-831b-1c112b733a7b","system_id":"levelo_inurba_marseille","lat":43.27916,"lon":5.38006,"is_reserved":false,"is_disabled":false,"rental_uris":{"android":"levelo://app?vid=496d9d23-0758-4b07-831b-1c112b733a7b","ios":"levelo://app?vid=496d9d23-0758-4b07-831b-1c112b733a7b"},"vehicle_type_id":"4","last_reported":1778335952,"current_range_meters":6400,"station_id":"ce4bhf92rcd13ifvqf50","pricing_plan_id":"cebpf4jnsgd1na2vs0mg"},{"bike_id":"ddf4a846-ab18-40b2-b00e-a6a52af97830","system_id":"levelo_inurba_marseille","lat":43.21202,"lon":5.35097,"is_reserved":false,"is_disabled":false,"rental_uris":{"android":"levelo://app?vid=ddf4a846-ab18-40b2-b00e-a6a52af97830","ios":"levelo://app?vid=ddf4a846-ab18-40b2-b00e-a6a52af97830"},"vehicle_type_id":"4","last_reported":1778335952,"current_range_meters":6400,"station_id":"st_cvj6sg6p6f1abm77japg","pricing_plan_id":"cebpf4jnsgd1na2vs0mg"},{"bike_id":"5c4cf8ba-ef08-40a7-b734-380b0f10abe6","system_id":"levelo_inurba_marseille","lat":43.30651,"lon":5.40086,"is_reserved":false,"is_disabled":false,"rental_uris":{"android":"levelo://app?vid=5c4cf8ba-ef08-40a7-b734-380b0f10abe6","ios":"levelo://app?vid=5c4cf8ba-ef08-40a7-b734-380b0f10abe6"},"vehicle_type_id":"4","last_reported":1778335952,"current_range_meters":6400,"station_id":"ce4bh112rcd13ifvqda0","pricing_plan_id":"cebpf4jnsgd1na2vs0mg"},{"bike_id":"ef4c0d2f-d37c-409b-be4c-7cceaa4aabfa","system_id":"levelo_inurba_marseille","lat":43.28483,"lon":5.48392,"is_reserved":false,"is_disabled":false,"rental_uris":{"android":"levelo://app?vid=ef4c0d2f-d37c-409b-be4c-7cceaa4aabfa","ios":"levelo://app?vid=ef4c0d2f-d37c-409b-be4c-7cceaa4aabfa"},"vehicle_type_id":"4","last_reported":1778335952,"current_range_meters":6800,"station_id":"st_d3svhcjqgbts73a3dn0g","pricing_plan_id":"cebpf4jnsgd1na2vs0mg"},{"bike_id":"6507b29f-a087-4025-9b05-a1b5f1cc43f1","system_id":"levelo_inurba_marseille","lat":43.25091,"lon":5.39525,"is_reserved":false,"is_disabled":false,"rental_uris":{"android":"levelo://app?vid=6507b29f-a087-4025-9b05-a1b5f1cc43f1","ios":"levelo://app?vid=6507b29f-a087-4025-9b05-a1b5f1cc43f1"},"vehicle_type_id":"4","last_reported":1778335952,"current_range_meters":6800,"station_id":"ce4bhm12rcd13ifvqgkg","pricing_plan_id":"cebpf4jnsgd1na2vs0mg"},{"bike_id":"3792518e-dbd5-4b0a-b32c-24d9a6d7d683","system_id":"levelo_inurba_marseille","lat":43.24182,"lon":5.3971,"is_reserved":false,"is_disabled":false,"rental_uris":{"android":"levelo://app?vid=3792518e-dbd5-4b0a-b32c-24d9a6d7d683","ios":"levelo://app?vid=3792518e-dbd5-4b0a-b32c-24d9a6d7d683"},"vehicle_type_id":"4","last_reported":1778335952,"current_range_meters":6800,"station_id":"ce4bhn12rcd13ifvqgpg","pricing_plan_id":"cebpf4jnsgd1na2vs0mg"},{"bike_id":"0905bf26-d1df-4967-bcf7-a2c7f347956a","system_id":"levelo_inurba_marseille","lat":43.28929,"lon":5.39651,"is_reserved":false,"is_disabled":true,"rental_uris":{"android":"levelo://app?vid=0905bf26-d1df-4967-bcf7-a2c7f347956a","ios":"levelo://app?vid=0905bf26-d1df-4967-bcf7-a2c7f347956a"},"vehicle_type_id":"4","last_reported":1778335952,"current_range_meters":6800,"station_id":"ce4bh3h2rcd13ifvqdn0","pricing_plan_id":"cebpf4jnsgd1na2vs0mg"},{"bike_id":"b16c9a61-8e55-40ab-a928-1f3e0177e542","system_id":"levelo_inurba_marseille","lat":43.21191,"lon":5.35079,"is_reserved":false,"is_disabled":false,"rental_uris":{"android":"levelo://app?vid=b16c9a61-8e55-40ab-a928-1f3e0177e542","ios":"levelo://app?vid=b16c9a61-8e55-40ab-a928-1f3e0177e542"},"vehicle_type_id":"4","last_reported":1778335952,"current_range_meters":6800,"station_id":"st_cvj6sg6p6f1abm77japg","pricing_plan_id":"cebpf4jnsgd1na2vs0mg"},{"bike_id":"a489a2d3-b8d0-4d49-bb0c-b595e1d2765f","system_id":"levelo_inurba_marseille","lat":43.31298,"lon":5.40248,"is_reserved":false,"is_disabled":false,"rental_uris":{"android":"levelo://app?vid=a489a2d3-b8d0-4d49-bb0c-b595e1d2765f","ios":"levelo://app?vid=a489a2d3-b8d0-4d49-bb0c-b595e1d2765f"},"vehicle_type_id":"4","last_reported":1778335952,"current_range_meters":6800,"station_id":"","pricing_plan_id":"cebpf4jnsgd1na2vs0mg"},{"bike_id":"407e9612-ad93-4d7c-a713-0ff1764d5034","system_id":"levelo_inurba_marseille","lat":43.31365,"lon":5.4148,"is_reserved":false,"is_disabled":false,"rental_uris":{"android":"levelo://app?vid=407e9612-ad93-4d7c-a713-0ff1764d5034","ios":"levelo://app?vid=407e9612-ad93-4d7c-a713-0ff1764d5034"},"vehicle_type_id":"4","last_reported":1778335952,"current_range_meters":6800,"station_id":"","pricing_plan_id":"cebpf4jnsgd1na2vs0mg"},{"bike_id":"e744fd51-d53a-4993-92a1-3a6752e7a33c","system_id":"levelo_inurba_marseille","lat":43.32107,"lon":5.36798,"is_reserved":false,"is_disabled":false,"rental_uris":{"android":"levelo://app?vid=e744fd51-d53a-4993-92a1-3a6752e7a33c","ios":"levelo://app?vid=e744fd51-d53a-4993-92a1-3a6752e7a33c"},"vehicle_type_id":"4","last_reported":1778335952,"current_range_meters":6800,"station_id":"ce4bhrh2rcd13ifvqhug","pricing_plan_id":"cebpf4jnsgd1na2vs0mg"},{"bike_id":"5dda00a1-f787-488a-aa64-058079c40c64","system_id":"levelo_inurba_marseille","lat":43.26917,"lon":5.39293,"is_reserved":false,"is_disabled":false,"rental_uris":{"android":"levelo://app?vid=5dda00a1-f787-488a-aa64-058079c40c64","ios":"levelo://app?vid=5dda00a1-f787-488a-aa64-058079c40c64"},"vehicle_type_id":"4","last_reported":1778335952,"current_range_meters":6800,"station_id":"","pricing_plan_id":"cebpf4jnsgd1na2vs0mg"},{"bike_id":"024c6892-203c-4eeb-b7a9-cce2defb82a6","system_id":"levelo_inurba_marseille","lat":43.27064,"lon":5.38295,"is_reserved":false,"is_disabled":false,"rental_uris":{"android":"levelo://app?vid=024c6892-203c-4eeb-b7a9-cce2defb82a6","ios":"levelo://app?vid=024c6892-203c-4eeb-b7a9-cce2defb82a6"},"vehicle_type_id":"4","last_reported":1778335952,"current_range_meters":6800,"station_id":"st_d3n2fo6cfp8s73cte1j0","pricing_plan_id":"cebpf4jnsgd1na2vs0mg"},{"bike_id":"296921d4-d837-47f5-8f08-d0f78154b13e","system_id":"levelo_inurba_marseille","lat":43.29786,"lon":5.38135,"is_reserved":false,"is_disabled":false,"rental_uris":{"android":"levelo://app?vid=296921d4-d837-47f5-8f08-d0f78154b13e","ios":"levelo://app?vid=296921d4-d837-47f5-8f08-d0f78154b13e"},"vehicle_type_id":"4","last_reported":1778335952,"current_range_meters":6800,"station_id":"ce4bgip2rcd13ifvqbb0","pricing_plan_id":"cebpf4jnsgd1na2vs0mg"},{"bike_id":"19aea3bc-f344-436b-b704-1f09b8e945ea","system_id":"levelo_inurba_marseille","lat":43.260341,"lon":5.375464,"is_reserved":false,"is_disabled":false,"rental_uris":{"android":"levelo://app?vid=19aea3bc-f344-436b-b704-1f09b8e945ea","ios":"levelo://app?vid=19aea3bc-f344-436b-b704-1f09b8e945ea"},"vehicle_type_id":"4","last_reported":1778335952,"current_range_meters":6800,"station_id":"ce4bhgh2rcd13ifvqfa0","pricing_plan_id":"cebpf4jnsgd1na2vs0mg"},{"bike_id":"0259c7f9-4a67-468b-967d-555f1f780b18","system_id":"levelo_inurba_marseille","lat":43.24656,"lon":5.38162,"is_reserved":false,"is_disabled":false,"rental_uris":{"android":"levelo://app?vid=0259c7f9-4a67-468b-967d-555f1f780b18","ios":"levelo://app?vid=0259c7f9-4a67-468b-967d-555f1f780b18"},"vehicle_type_id":"4","last_reported":1778335952,"current_range_meters":6800,"station_id":"ce4bhih2rcd13ifvqfr0","pricing_plan_id":"cebpf4jnsgd1na2vs0mg"},{"bike_id":"c74991ed-3578-4827-98b9-e12bf38aed62","system_id":"levelo_inurba_marseille","lat":43.22574,"lon":5.41602,"is_reserved":false,"is_disabled":false,"rental_uris":{"android":"levelo://app?vid=c74991ed-3578-4827-98b9-e12bf38aed62","ios":"levelo://app?vid=c74991ed-3578-4827-98b9-e12bf38aed62"},"vehicle_type_id":"4","last_reported":1778335952,"current_range_meters":6800,"station_id":"st_d2o4gvlbi1j2169b742g","pricing_plan_id":"cebpf4jnsgd1na2vs0mg"},{"bike_id":"80ce62aa-95db-4134-a27f-af6f321881d8","system_id":"levelo_inurba_marseille","lat":43.3303,"lon":5.39033,"is_reserved":false,"is_disabled":false,"rental_uris":{"android":"levelo://app?vid=80ce62aa-95db-4134-a27f-af6f321881d8","ios":"levelo://app?vid=80ce62aa-95db-4134-a27f-af6f321881d8"},"vehicle_type_id":"4","last_reported":1778335952,"current_range_meters":6800,"station_id":"ce4bhr92rcd13ifvqhrg","pricing_plan_id":"cebpf4jnsgd1na2vs0mg"},{"bike_id":"be274a86-f92b-4e01-a750-d63d18c1baa4","system_id":"levelo_inurba_marseille","lat":43.27057,"lon":5.40266,"is_reserved":false,"is_disabled":false,"rental_uris":{"android":"levelo://app?vid=be274a86-f92b-4e01-a750-d63d18c1baa4","ios":"levelo://app?vid=be274a86-f92b-4e01-a750-d63d18c1baa4"},"vehicle_type_id":"4","last_reported":1778335952,"current_range_meters":6800,"station_id":"ce4bhk92rcd13ifvqgc0","pricing_plan_id":"cebpf4jnsgd1na2vs0mg"},{"bike_id":"627ea465-4e71-4046-a508-023e31352421","system_id":"levelo_inurba_marseille","lat":43.25068,"lon":5.40496,"is_reserved":false,"is_disabled":false,"rental_uris":{"android":"levelo://app?vid=627ea465-4e71-4046-a508-023e31352421","ios":"levelo://app?vid=627ea465-4e71-4046-a508-023e31352421"},"vehicle_type_id":"4","last_reported":1778335952,"current_range_meters":6800,"station_id":"","pricing_plan_id":"cebpf4jnsgd1na2vs0mg"},{"bike_id":"7fbb9354-7444-4788-8db6-e53c95d31817","system_id":"levelo_inurba_marseille","lat":43.28418,"lon":5.34993,"is_reserved":false,"is_disabled":false,"rental_uris":{"android":"levelo://app?vid=7fbb9354-7444-4788-8db6-e53c95d31817","ios":"levelo://app?vid=7fbb9354-7444-4788-8db6-e53c95d31817"},"vehicle_type_id":"4","last_reported":1778335952,"current_range_meters":6800,"station_id":"ce4bhbh2rcd13ifvqepg","pricing_plan_id":"cebpf4jnsgd1na2vs0mg"},{"bike_id":"bf3c2992-c54d-4a78-a002-315bfc67c80a","system_id":"levelo_inurba_marseille","lat":43.29783,"lon":5.37117,"is_reserved":false,"is_disabled":false,"rental_uris":{"android":"levelo://app?vid=bf3c2992-c54d-4a78-a002-315bfc67c80a","ios":"levelo://app?vid=bf3c2992-c54d-4a78-a002-315bfc67c80a"},"vehicle_type_id":"4","last_reported":1778335952,"current_range_meters":7200,"station_id":"ce4bgop2rcd13ifvqc1g","pricing_plan_id":"cebpf4jnsgd1na2vs0mg"},{"bike_id":"9ec1db76-4bef-46de-9c13-e7fb97c2abf8","system_id":"levelo_inurba_marseille","lat":43.29592,"lon":5.36749,"is_reserved":false,"is_disabled":false,"rental_uris":{"android":"levelo://app?vid=9ec1db76-4bef-46de-9c13-e7fb97c2abf8","ios":"levelo://app?vid=9ec1db76-4bef-46de-9c13-e7fb97c2abf8"},"vehicle_type_id":"4","last_reported":1778335952,"current_range_meters":7200,"station_id":"ce4bgph2rcd13ifvqc2g","pricing_plan_id":"cebpf4jnsgd1na2vs0mg"},{"bike_id":"261442be-df01-487c-b82d-848abe824608","system_id":"levelo_inurba_marseille","lat":43.26222,"lon":5.40454,"is_reserved":false,"is_disabled":false,"rental_uris":{"android":"levelo://app?vid=261442be-df01-487c-b82d-848abe824608","ios":"levelo://app?vid=261442be-df01-487c-b82d-848abe824608"},"vehicle_type_id":"4","last_reported":1778335952,"current_range_meters":7200,"station_id":"ce4bhmh2rcd13ifvqgmg","pricing_plan_id":"cebpf4jnsgd1na2vs0mg"},{"bike_id":"d83574fa-77fd-48a2-badc-9c9b4388d7df","system_id":"levelo_inurba_marseille","lat":43.23134,"lon":5.4372,"is_reserved":false,"is_disabled":false,"rental_uris":{"android":"levelo://app?vid=d83574fa-77fd-48a2-badc-9c9b4388d7df","ios":"levelo://app?vid=d83574fa-77fd-48a2-badc-9c9b4388d7df"},"vehicle_type_id":"4","last_reported":1778335952,"current_range_meters":7200,"station_id":"ce4bhmp2rcd13ifvqgog","pricing_plan_id":"cebpf4jnsgd1na2vs0mg"},{"bike_id":"dd61b036-1479-4031-b546-26aad6f78000","system_id":"levelo_inurba_marseille","lat":43.29184,"lon":5.35796,"is_reserved":false,"is_disabled":false,"rental_uris":{"android":"levelo://app?vid=dd61b036-1479-4031-b546-26aad6f78000","ios":"levelo://app?vid=dd61b036-1479-4031-b546-26aad6f78000"},"vehicle_type_id":"4","last_reported":1778335952,"current_range_meters":7200,"station_id":"ce4bhb12rcd13ifvqel0","pricing_plan_id":"cebpf4jnsgd1na2vs0mg"},{"bike_id":"365f5c28-6148-41e1-9064-4136e9124cb6","system_id":"levelo_inurba_marseille","lat":43.26214,"lon":5.37931,"is_reserved":false,"is_disabled":false,"rental_uris":{"android":"levelo://app?vid=365f5c28-6148-41e1-9064-4136e9124cb6","ios":"levelo://app?vid=365f5c28-6148-41e1-9064-4136e9124cb6"},"vehicle_type_id":"4","last_reported":1778335952,"current_range_meters":7200,"station_id":"ce4bhjp2rcd13ifvqg90","pricing_plan_id":"cebpf4jnsgd1na2vs0mg"},{"bike_id":"ccdd668c-0828-489c-bb41-df905bd50566","system_id":"levelo_inurba_marseille","lat":43.28276,"lon":5.350755,"is_reserved":false,"is_disabled":false,"rental_uris":{"android":"levelo://app?vid=ccdd668c-0828-489c-bb41-df905bd50566","ios":"levelo://app?vid=ccdd668c-0828-489c-bb41-df905bd50566"},"vehicle_type_id":"4","last_reported":1778335952,"current_range_meters":7200,"station_id":"ce4bhbp2rcd13ifvqerg","pricing_plan_id":"cebpf4jnsgd1na2vs0mg"},{"bike_id":"e6bd8138-3d56-4ae6-9878-8794caa087c5","system_id":"levelo_inurba_marseille","lat":43.24474,"lon":5.42533,"is_reserved":false,"is_disabled":true,"rental_uris":{"android":"levelo://app?vid=e6bd8138-3d56-4ae6-9878-8794caa087c5","ios":"levelo://app?vid=e6bd8138-3d56-4ae6-9878-8794caa087c5"},"vehicle_type_id":"4","last_reported":1778335952,"current_range_meters":7200,"station_id":"st_d4a3vfp97mjs738cd8kg","pricing_plan_id":"cebpf4jnsgd1na2vs0mg"},{"bike_id":"baa89da4-6228-42c3-a655-661c86e8e873","system_id":"levelo_inurba_marseille","lat":43.24872,"lon":5.38796,"is_reserved":false,"is_disabled":false,"rental_uris":{"android":"levelo://app?vid=baa89da4-6228-42c3-a655-661c86e8e873","ios":"levelo://app?vid=baa89da4-6228-42c3-a655-661c86e8e873"},"vehicle_type_id":"4","last_reported":1778335952,"current_range_meters":7200,"station_id":"","pricing_plan_id":"cebpf4jnsgd1na2vs0mg"},{"bike_id":"d94bfef1-848d-4e1a-ac3f-4d71f5af2597","system_id":"levelo_inurba_marseille","lat":43.25107,"lon":5.40325,"is_reserved":false,"is_disabled":false,"rental_uris":{"android":"levelo://app?vid=d94bfef1-848d-4e1a-ac3f-4d71f5af2597","ios":"levelo://app?vid=d94bfef1-848d-4e1a-ac3f-4d71f5af2597"},"vehicle_type_id":"4","last_reported":1778335952,"current_range_meters":7200,"station_id":"ce4bhlh2rcd13ifvqgig","pricing_plan_id":"cebpf4jnsgd1na2vs0mg"},{"bike_id":"924e8a7f-30b6-4a45-8023-b0fed71dc0fc","system_id":"levelo_inurba_marseille","lat":43.26229,"lon":5.37435,"is_reserved":false,"is_disabled":false,"rental_uris":{"android":"levelo://app?vid=924e8a7f-30b6-4a45-8023-b0fed71dc0fc","ios":"levelo://app?vid=924e8a7f-30b6-4a45-8023-b0fed71dc0fc"},"vehicle_type_id":"4","last_reported":1778335952,"current_range_meters":7200,"station_id":"","pricing_plan_id":"cebpf4jnsgd1na2vs0mg"},{"bike_id":"f539bb17-16cf-4505-8a99-d64e79a69d9e","system_id":"levelo_inurba_marseille","lat":43.32115,"lon":5.36763,"is_reserved":false,"is_disabled":false,"rental_uris":{"android":"levelo://app?vid=f539bb17-16cf-4505-8a99-d64e79a69d9e","ios":"levelo://app?vid=f539bb17-16cf-4505-8a99-d64e79a69d9e"},"vehicle_type_id":"4","last_reported":1778335952,"current_range_meters":7200,"station_id":"ce4bhrh2rcd13ifvqhug","pricing_plan_id":"cebpf4jnsgd1na2vs0mg"},{"bike_id":"558ecc7a-7ed0-4d4d-8eaf-a0bf6d6ce907","system_id":"levelo_inurba_marseille","lat":43.28211,"lon":5.40609,"is_reserved":false,"is_disabled":false,"rental_uris":{"android":"levelo://app?vid=558ecc7a-7ed0-4d4d-8eaf-a0bf6d6ce907","ios":"levelo://app?vid=558ecc7a-7ed0-4d4d-8eaf-a0bf6d6ce907"},"vehicle_type_id":"4","last_reported":1778335952,"current_range_meters":7200,"station_id":"","pricing_plan_id":"cebpf4jnsgd1na2vs0mg"},{"bike_id":"a30008ae-a2df-4129-8ea6-0f377536b8ba","system_id":"levelo_inurba_marseille","lat":43.32085,"lon":5.36846,"is_reserved":false,"is_disabled":false,"rental_uris":{"android":"levelo://app?vid=a30008ae-a2df-4129-8ea6-0f377536b8ba","ios":"levelo://app?vid=a30008ae-a2df-4129-8ea6-0f377536b8ba"},"vehicle_type_id":"4","last_reported":1778335952,"current_range_meters":7200,"station_id":"ce4bhrh2rcd13ifvqhug","pricing_plan_id":"cebpf4jnsgd1na2vs0mg"},{"bike_id":"ac669cf6-3802-49e7-8567-a514ce79081d","system_id":"levelo_inurba_marseille","lat":43.2914,"lon":5.38519,"is_reserved":false,"is_disabled":true,"rental_uris":{"android":"levelo://app?vid=ac669cf6-3802-49e7-8567-a514ce79081d","ios":"levelo://app?vid=ac669cf6-3802-49e7-8567-a514ce79081d"},"vehicle_type_id":"4","last_reported":1778335952,"current_range_meters":7200,"station_id":"","pricing_plan_id":"cebpf4jnsgd1na2vs0mg"},{"bike_id":"b1eefa37-96ae-4f95-a344-438091e1d04d","system_id":"levelo_inurba_marseille","lat":43.31034,"lon":5.39391,"is_reserved":false,"is_disabled":false,"rental_uris":{"android":"levelo://app?vid=b1eefa37-96ae-4f95-a344-438091e1d04d","ios":"levelo://app?vid=b1eefa37-96ae-4f95-a344-438091e1d04d"},"vehicle_type_id":"4","last_reported":1778335952,"current_range_meters":7200,"station_id":"","pricing_plan_id":"cebpf4jnsgd1na2vs0mg"},{"bike_id":"4e461ce8-ba4e-4a34-802c-06e03329a34e","system_id":"levelo_inurba_marseille","lat":43.23196,"lon":5.35558,"is_reserved":false,"is_disabled":false,"rental_uris":{"android":"levelo://app?vid=4e461ce8-ba4e-4a34-802c-06e03329a34e","ios":"levelo://app?vid=4e461ce8-ba4e-4a34-802c-06e03329a34e"},"vehicle_type_id":"4","last_reported":1778335952,"current_range_meters":7200,"station_id":"ce4bhu92rcd13ifvqi70","pricing_plan_id":"cebpf4jnsgd1na2vs0mg"},{"bike_id":"fd15faf6-f969-4bda-be30-e042b3108596","system_id":"levelo_inurba_marseille","lat":43.2637,"lon":5.41076,"is_reserved":false,"is_disabled":false,"rental_uris":{"android":"levelo://app?vid=fd15faf6-f969-4bda-be30-e042b3108596","ios":"levelo://app?vid=fd15faf6-f969-4bda-be30-e042b3108596"},"vehicle_type_id":"4","last_reported":1778335952,"current_range_meters":7200,"station_id":"st_d4e5ca6na9uc73bfl5fg","pricing_plan_id":"cebpf4jnsgd1na2vs0mg"},{"bike_id":"74a938f2-f578-4294-9976-174677fe2f35","system_id":"levelo_inurba_marseille","lat":43.29483,"lon":5.43317,"is_reserved":false,"is_disabled":false,"rental_uris":{"android":"levelo://app?vid=74a938f2-f578-4294-9976-174677fe2f35","ios":"levelo://app?vid=74a938f2-f578-4294-9976-174677fe2f35"},"vehicle_type_id":"4","last_reported":1778335952,"current_range_meters":7200,"station_id":"st_d3j5ugp08ojc73fj9d10","pricing_plan_id":"cebpf4jnsgd1na2vs0mg"},{"bike_id":"f323b30c-8fe0-4174-a75e-2083e4860882","system_id":"levelo_inurba_marseille","lat":43.279093,"lon":5.380117,"is_reserved":false,"is_disabled":false,"rental_uris":{"android":"levelo://app?vid=f323b30c-8fe0-4174-a75e-2083e4860882","ios":"levelo://app?vid=f323b30c-8fe0-4174-a75e-2083e4860882"},"vehicle_type_id":"4","last_reported":1778335952,"current_range_meters":7200,"station_id":"ce4bhf92rcd13ifvqf50","pricing_plan_id":"cebpf4jnsgd1na2vs0mg"},{"bike_id":"6dfe43ac-6131-42a7-8c3d-86b7cfec6e79","system_id":"levelo_inurba_marseille","lat":43.28987,"lon":5.37231,"is_reserved":false,"is_disabled":false,"rental_uris":{"android":"levelo://app?vid=6dfe43ac-6131-42a7-8c3d-86b7cfec6e79","ios":"levelo://app?vid=6dfe43ac-6131-42a7-8c3d-86b7cfec6e79"},"vehicle_type_id":"4","last_reported":1778335952,"current_range_meters":7200,"station_id":"","pricing_plan_id":"cebpf4jnsgd1na2vs0mg"},{"bike_id":"0843f679-3079-4754-a5ed-b3832d792a54","system_id":"levelo_inurba_marseille","lat":43.28713,"lon":5.37942,"is_reserved":false,"is_disabled":false,"rental_uris":{"android":"levelo://app?vid=0843f679-3079-4754-a5ed-b3832d792a54","ios":"levelo://app?vid=0843f679-3079-4754-a5ed-b3832d792a54"},"vehicle_type_id":"4","last_reported":1778335952,"current_range_meters":7200,"station_id":"ce4bh9p2rcd13ifvqec0","pricing_plan_id":"cebpf4jnsgd1na2vs0mg"},{"bike_id":"37c48a4c-6488-4809-97d2-6f6d0c9bab7c","system_id":"levelo_inurba_marseille","lat":43.27211,"lon":5.39183,"is_reserved":false,"is_disabled":false,"rental_uris":{"android":"levelo://app?vid=37c48a4c-6488-4809-97d2-6f6d0c9bab7c","ios":"levelo://app?vid=37c48a4c-6488-4809-97d2-6f6d0c9bab7c"},"vehicle_type_id":"4","last_reported":1778335952,"current_range_meters":7200,"station_id":"ce4bhhp2rcd13ifvqfm0","pricing_plan_id":"cebpf4jnsgd1na2vs0mg"},{"bike_id":"2ba824d7-d72b-4bf5-97ff-4f7d932bb715","system_id":"levelo_inurba_marseille","lat":43.30535,"lon":5.36543,"is_reserved":false,"is_disabled":false,"rental_uris":{"android":"levelo://app?vid=2ba824d7-d72b-4bf5-97ff-4f7d932bb715","ios":"levelo://app?vid=2ba824d7-d72b-4bf5-97ff-4f7d932bb715"},"vehicle_type_id":"4","last_reported":1778335952,"current_range_meters":7200,"station_id":"ce4bgs12rcd13ifvqcag","pricing_plan_id":"cebpf4jnsgd1na2vs0mg"},{"bike_id":"27dfd98f-d85e-443b-86e5-d8a211395593","system_id":"levelo_inurba_marseille","lat":43.29751,"lon":5.3698,"is_reserved":false,"is_disabled":false,"rental_uris":{"android":"levelo://app?vid=27dfd98f-d85e-443b-86e5-d8a211395593","ios":"levelo://app?vid=27dfd98f-d85e-443b-86e5-d8a211395593"},"vehicle_type_id":"4","last_reported":1778335952,"current_range_meters":8000,"station_id":"","pricing_plan_id":"cebpf4jnsgd1na2vs0mg"},{"bike_id":"208c3a07-c266-400a-b73c-169ae31f5e08","system_id":"levelo_inurba_marseille","lat":43.30153,"lon":5.38097,"is_reserved":false,"is_disabled":false,"rental_uris":{"android":"levelo://app?vid=208c3a07-c266-400a-b73c-169ae31f5e08","ios":"levelo://app?vid=208c3a07-c266-400a-b73c-169ae31f5e08"},"vehicle_type_id":"4","last_reported":1778335952,"current_range_meters":8000,"station_id":"ce4bgjp2rcd13ifvqbh0","pricing_plan_id":"cebpf4jnsgd1na2vs0mg"},{"bike_id":"a9482527-188b-4a2e-8afd-2550db9e7df9","system_id":"levelo_inurba_marseille","lat":43.28411,"lon":5.34998,"is_reserved":false,"is_disabled":false,"rental_uris":{"android":"levelo://app?vid=a9482527-188b-4a2e-8afd-2550db9e7df9","ios":"levelo://app?vid=a9482527-188b-4a2e-8afd-2550db9e7df9"},"vehicle_type_id":"4","last_reported":1778335952,"current_range_meters":8000,"station_id":"ce4bhbh2rcd13ifvqepg","pricing_plan_id":"cebpf4jnsgd1na2vs0mg"},{"bike_id":"fc6eb602-b0d9-4416-a72d-22248ae28efe","system_id":"levelo_inurba_marseille","lat":43.30892,"lon":5.39649,"is_reserved":false,"is_disabled":false,"rental_uris":{"android":"levelo://app?vid=fc6eb602-b0d9-4416-a72d-22248ae28efe","ios":"levelo://app?vid=fc6eb602-b0d9-4416-a72d-22248ae28efe"},"vehicle_type_id":"4","last_reported":1778335952,"current_range_meters":8000,"station_id":"ce4bh012rcd13ifvqcv0","pricing_plan_id":"cebpf4jnsgd1na2vs0mg"},{"bike_id":"9a45abed-8a50-4591-a381-dce67a2e04c0","system_id":"levelo_inurba_marseille","lat":43.29778,"lon":5.3935,"is_reserved":false,"is_disabled":true,"rental_uris":{"android":"levelo://app?vid=9a45abed-8a50-4591-a381-dce67a2e04c0","ios":"levelo://app?vid=9a45abed-8a50-4591-a381-dce67a2e04c0"},"vehicle_type_id":"4","last_reported":1778335952,"current_range_meters":8000,"station_id":"chh1huq6cuj3fo74tm60","pricing_plan_id":"cebpf4jnsgd1na2vs0mg"},{"bike_id":"3c5f0f52-deec-4478-b1b8-43df5890b0b6","system_id":"levelo_inurba_marseille","lat":43.23957,"lon":5.36629,"is_reserved":false,"is_disabled":false,"rental_uris":{"android":"levelo://app?vid=3c5f0f52-deec-4478-b1b8-43df5890b0b6","ios":"levelo://app?vid=3c5f0f52-deec-4478-b1b8-43df5890b0b6"},"vehicle_type_id":"4","last_reported":1778335952,"current_range_meters":8000,"station_id":"ce4bhi12rcd13ifvqfp0","pricing_plan_id":"cebpf4jnsgd1na2vs0mg"},{"bike_id":"191eab24-3a4c-4f48-9b19-60b934e114c8","system_id":"levelo_inurba_marseille","lat":43.21739,"lon":5.34604,"is_reserved":false,"is_disabled":false,"rental_uris":{"android":"levelo://app?vid=191eab24-3a4c-4f48-9b19-60b934e114c8","ios":"levelo://app?vid=191eab24-3a4c-4f48-9b19-60b934e114c8"},"vehicle_type_id":"4","last_reported":1778335952,"current_range_meters":8000,"station_id":"st_cvj6r9ubvosntc0bgbag","pricing_plan_id":"cebpf4jnsgd1na2vs0mg"},{"bike_id":"a2ce7e0b-679f-41ac-b5a9-5d63bfdd5b43","system_id":"levelo_inurba_marseille","lat":43.21196,"lon":5.35066,"is_reserved":false,"is_disabled":false,"rental_uris":{"android":"levelo://app?vid=a2ce7e0b-679f-41ac-b5a9-5d63bfdd5b43","ios":"levelo://app?vid=a2ce7e0b-679f-41ac-b5a9-5d63bfdd5b43"},"vehicle_type_id":"4","last_reported":1778335952,"current_range_meters":8000,"station_id":"st_cvj6sg6p6f1abm77japg","pricing_plan_id":"cebpf4jnsgd1na2vs0mg"},{"bike_id":"ad46be44-d035-43df-a13b-1847592fe313","system_id":"levelo_inurba_marseille","lat":43.27951,"lon":5.41047,"is_reserved":false,"is_disabled":false,"rental_uris":{"android":"levelo://app?vid=ad46be44-d035-43df-a13b-1847592fe313","ios":"levelo://app?vid=ad46be44-d035-43df-a13b-1847592fe313"},"vehicle_type_id":"4","last_reported":1778335952,"current_range_meters":8000,"station_id":"ce4bhnp2rcd13ifvqh0g","pricing_plan_id":"cebpf4jnsgd1na2vs0mg"},{"bike_id":"f422b51e-1ef9-42a2-8365-1d33f807a8e0","system_id":"levelo_inurba_marseille","lat":43.23889,"lon":5.37476,"is_reserved":false,"is_disabled":true,"rental_uris":{"android":"levelo://app?vid=f422b51e-1ef9-42a2-8365-1d33f807a8e0","ios":"levelo://app?vid=f422b51e-1ef9-42a2-8365-1d33f807a8e0"},"vehicle_type_id":"4","last_reported":1778335952,"current_range_meters":8000,"station_id":"st_d6sm7csbq4hs73f8fpjg","pricing_plan_id":"cebpf4jnsgd1na2vs0mg"},{"bike_id":"19853c52-baea-4a08-a9a1-16e71ce3b9b4","system_id":"levelo_inurba_marseille","lat":43.26246,"lon":5.38818,"is_reserved":false,"is_disabled":false,"rental_uris":{"android":"levelo://app?vid=19853c52-baea-4a08-a9a1-16e71ce3b9b4","ios":"levelo://app?vid=19853c52-baea-4a08-a9a1-16e71ce3b9b4"},"vehicle_type_id":"4","last_reported":1778335952,"current_range_meters":8000,"station_id":"","pricing_plan_id":"cebpf4jnsgd1na2vs0mg"},{"bike_id":"ec9a1baf-fc53-4010-8830-c66dd145f5fc","system_id":"levelo_inurba_marseille","lat":43.31176,"lon":5.36829,"is_reserved":false,"is_disabled":false,"rental_uris":{"android":"levelo://app?vid=ec9a1baf-fc53-4010-8830-c66dd145f5fc","ios":"levelo://app?vid=ec9a1baf-fc53-4010-8830-c66dd145f5fc"},"vehicle_type_id":"4","last_reported":1778335952,"current_range_meters":8000,"station_id":"ce4bgl92rcd13ifvqbq0","pricing_plan_id":"cebpf4jnsgd1na2vs0mg"},{"bike_id":"3e63ca9f-52b9-4901-a1d9-7f430e423bd0","system_id":"levelo_inurba_marseille","lat":43.31442,"lon":5.44112,"is_reserved":false,"is_disabled":false,"rental_uris":{"android":"levelo://app?vid=3e63ca9f-52b9-4901-a1d9-7f430e423bd0","ios":"levelo://app?vid=3e63ca9f-52b9-4901-a1d9-7f430e423bd0"},"vehicle_type_id":"4","last_reported":1778335952,"current_range_meters":8000,"station_id":"","pricing_plan_id":"cebpf4jnsgd1na2vs0mg"},{"bike_id":"5119b639-f340-43d5-b8b2-c43f72c74ee5","system_id":"levelo_inurba_marseille","lat":43.30546,"lon":5.36557,"is_reserved":false,"is_disabled":false,"rental_uris":{"android":"levelo://app?vid=5119b639-f340-43d5-b8b2-c43f72c74ee5","ios":"levelo://app?vid=5119b639-f340-43d5-b8b2-c43f72c74ee5"},"vehicle_type_id":"4","last_reported":1778335952,"current_range_meters":8000,"station_id":"ce4bgs12rcd13ifvqcag","pricing_plan_id":"cebpf4jnsgd1na2vs0mg"},{"bike_id":"d0422a3d-e193-4cef-8d02-e1260b86002b","system_id":"levelo_inurba_marseille","lat":43.29266,"lon":5.37606,"is_reserved":false,"is_disabled":true,"rental_uris":{"android":"levelo://app?vid=d0422a3d-e193-4cef-8d02-e1260b86002b","ios":"levelo://app?vid=d0422a3d-e193-4cef-8d02-e1260b86002b"},"vehicle_type_id":"4","last_reported":1778335952,"current_range_meters":8400,"station_id":"ce4bgi12rcd13ifvqb80","pricing_plan_id":"cebpf4jnsgd1na2vs0mg"},{"bike_id":"5a28d04e-2eb5-47c1-bb9f-6dd56c626293","system_id":"levelo_inurba_marseille","lat":43.26391,"lon":5.41082,"is_reserved":false,"is_disabled":false,"rental_uris":{"android":"levelo://app?vid=5a28d04e-2eb5-47c1-bb9f-6dd56c626293","ios":"levelo://app?vid=5a28d04e-2eb5-47c1-bb9f-6dd56c626293"},"vehicle_type_id":"4","last_reported":1778335952,"current_range_meters":8400,"station_id":"st_d4e5ca6na9uc73bfl5fg","pricing_plan_id":"cebpf4jnsgd1na2vs0mg"},{"bike_id":"06bbfcaf-7678-43b5-855c-a3360069db8c","system_id":"levelo_inurba_marseille","lat":43.22539,"lon":5.3481,"is_reserved":false,"is_disabled":false,"rental_uris":{"android":"levelo://app?vid=06bbfcaf-7678-43b5-855c-a3360069db8c","ios":"levelo://app?vid=06bbfcaf-7678-43b5-855c-a3360069db8c"},"vehicle_type_id":"4","last_reported":1778335952,"current_range_meters":8400,"station_id":"st_cvj5dfep6f1abm77gieg","pricing_plan_id":"cebpf4jnsgd1na2vs0mg"},{"bike_id":"4fd5b212-cba9-47fe-a389-1fe7b66457c2","system_id":"levelo_inurba_marseille","lat":43.30313,"lon":5.36894,"is_reserved":false,"is_disabled":false,"rental_uris":{"android":"levelo://app?vid=4fd5b212-cba9-47fe-a389-1fe7b66457c2","ios":"levelo://app?vid=4fd5b212-cba9-47fe-a389-1fe7b66457c2"},"vehicle_type_id":"4","last_reported":1778335952,"current_range_meters":8400,"station_id":"ce4bgqh2rcd13ifvqc5g","pricing_plan_id":"cebpf4jnsgd1na2vs0mg"},{"bike_id":"d5001d3f-f5ab-4f62-bc83-c91230e3b662","system_id":"levelo_inurba_marseille","lat":43.26382,"lon":5.41066,"is_reserved":false,"is_disabled":false,"rental_uris":{"android":"levelo://app?vid=d5001d3f-f5ab-4f62-bc83-c91230e3b662","ios":"levelo://app?vid=d5001d3f-f5ab-4f62-bc83-c91230e3b662"},"vehicle_type_id":"4","last_reported":1778335952,"current_range_meters":8400,"station_id":"st_d4e5ca6na9uc73bfl5fg","pricing_plan_id":"cebpf4jnsgd1na2vs0mg"},{"bike_id":"d54653cb-e99e-44f1-9331-5e486852db25","system_id":"levelo_inurba_marseille","lat":43.26031,"lon":5.37544,"is_reserved":false,"is_disabled":false,"rental_uris":{"android":"levelo://app?vid=d54653cb-e99e-44f1-9331-5e486852db25","ios":"levelo://app?vid=d54653cb-e99e-44f1-9331-5e486852db25"},"vehicle_type_id":"4","last_reported":1778335952,"current_range_meters":8400,"station_id":"ce4bhgh2rcd13ifvqfa0","pricing_plan_id":"cebpf4jnsgd1na2vs0mg"},{"bike_id":"fadbe576-796b-47ff-bc51-342594de984b","system_id":"levelo_inurba_marseille","lat":43.26549,"lon":5.37329,"is_reserved":false,"is_disabled":false,"rental_uris":{"android":"levelo://app?vid=fadbe576-796b-47ff-bc51-342594de984b","ios":"levelo://app?vid=fadbe576-796b-47ff-bc51-342594de984b"},"vehicle_type_id":"4","last_reported":1778335952,"current_range_meters":8400,"station_id":"ce4bhg12rcd13ifvqf70","pricing_plan_id":"cebpf4jnsgd1na2vs0mg"},{"bike_id":"3416e7af-52e7-4da2-b70f-78401398d556","system_id":"levelo_inurba_marseille","lat":43.30948,"lon":5.39042,"is_reserved":false,"is_disabled":false,"rental_uris":{"android":"levelo://app?vid=3416e7af-52e7-4da2-b70f-78401398d556","ios":"levelo://app?vid=3416e7af-52e7-4da2-b70f-78401398d556"},"vehicle_type_id":"4","last_reported":1778335952,"current_range_meters":8400,"station_id":"ce4bgup2rcd13ifvqco0","pricing_plan_id":"cebpf4jnsgd1na2vs0mg"},{"bike_id":"808c4ecd-9bba-4ef5-91dc-62b4109dcc93","system_id":"levelo_inurba_marseille","lat":43.29502,"lon":5.3854,"is_reserved":false,"is_disabled":true,"rental_uris":{"android":"levelo://app?vid=808c4ecd-9bba-4ef5-91dc-62b4109dcc93","ios":"levelo://app?vid=808c4ecd-9bba-4ef5-91dc-62b4109dcc93"},"vehicle_type_id":"4","last_reported":1778335952,"current_range_meters":8400,"station_id":"ce4bgih2rcd13ifvqba0","pricing_plan_id":"cebpf4jnsgd1na2vs0mg"},{"bike_id":"4bc6302e-723c-444e-9c1c-2353d2969136","system_id":"levelo_inurba_marseille","lat":43.29454,"lon":5.39641,"is_reserved":false,"is_disabled":true,"rental_uris":{"android":"levelo://app?vid=4bc6302e-723c-444e-9c1c-2353d2969136","ios":"levelo://app?vid=4bc6302e-723c-444e-9c1c-2353d2969136"},"vehicle_type_id":"4","last_reported":1778335952,"current_range_meters":8400,"station_id":"","pricing_plan_id":"cebpf4jnsgd1na2vs0mg"},{"bike_id":"6b69d68b-543d-4835-a99e-135573d16c96","system_id":"levelo_inurba_marseille","lat":43.3058,"lon":5.36568,"is_reserved":false,"is_disabled":false,"rental_uris":{"android":"levelo://app?vid=6b69d68b-543d-4835-a99e-135573d16c96","ios":"levelo://app?vid=6b69d68b-543d-4835-a99e-135573d16c96"},"vehicle_type_id":"4","last_reported":1778335952,"current_range_meters":8400,"station_id":"ce4bgs12rcd13ifvqcag","pricing_plan_id":"cebpf4jnsgd1na2vs0mg"},{"bike_id":"675f8a66-3eba-4195-aec5-c27bdffa4bf6","system_id":"levelo_inurba_marseille","lat":43.24378,"lon":5.37083,"is_reserved":false,"is_disabled":false,"rental_uris":{"android":"levelo://app?vid=675f8a66-3eba-4195-aec5-c27bdffa4bf6","ios":"levelo://app?vid=675f8a66-3eba-4195-aec5-c27bdffa4bf6"},"vehicle_type_id":"4","last_reported":1778335952,"current_range_meters":8400,"station_id":"ce4bhhh2rcd13ifvqfk0","pricing_plan_id":"cebpf4jnsgd1na2vs0mg"},{"bike_id":"036022eb-f4b7-499f-bea2-49a36e1775a4","system_id":"levelo_inurba_marseille","lat":43.2251,"lon":5.34878,"is_reserved":false,"is_disabled":false,"rental_uris":{"android":"levelo://app?vid=036022eb-f4b7-499f-bea2-49a36e1775a4","ios":"levelo://app?vid=036022eb-f4b7-499f-bea2-49a36e1775a4"},"vehicle_type_id":"4","last_reported":1778335952,"current_range_meters":8400,"station_id":"st_cvj5dfep6f1abm77gieg","pricing_plan_id":"cebpf4jnsgd1na2vs0mg"},{"bike_id":"42991531-321c-49f8-ad5d-95836f1e134a","system_id":"levelo_inurba_marseille","lat":43.28044,"lon":5.36951,"is_reserved":false,"is_disabled":false,"rental_uris":{"android":"levelo://app?vid=42991531-321c-49f8-ad5d-95836f1e134a","ios":"levelo://app?vid=42991531-321c-49f8-ad5d-95836f1e134a"},"vehicle_type_id":"4","last_reported":1778335952,"current_range_meters":8400,"station_id":"ce4bha12rcd13ifvqef0","pricing_plan_id":"cebpf4jnsgd1na2vs0mg"},{"bike_id":"c2277f9d-93a6-480b-b9fc-a6864cbe3c7a","system_id":"levelo_inurba_marseille","lat":43.27683,"lon":5.40669,"is_reserved":false,"is_disabled":false,"rental_uris":{"android":"levelo://app?vid=c2277f9d-93a6-480b-b9fc-a6864cbe3c7a","ios":"levelo://app?vid=c2277f9d-93a6-480b-b9fc-a6864cbe3c7a"},"vehicle_type_id":"4","last_reported":1778335952,"current_range_meters":8400,"station_id":"","pricing_plan_id":"cebpf4jnsgd1na2vs0mg"},{"bike_id":"36033c57-e767-4008-8773-698c69d5afaa","system_id":"levelo_inurba_marseille","lat":43.28849,"lon":5.35847,"is_reserved":false,"is_disabled":false,"rental_uris":{"android":"levelo://app?vid=36033c57-e767-4008-8773-698c69d5afaa","ios":"levelo://app?vid=36033c57-e767-4008-8773-698c69d5afaa"},"vehicle_type_id":"4","last_reported":1778335952,"current_range_meters":8400,"station_id":"ce4bhb12rcd13ifvqem0","pricing_plan_id":"cebpf4jnsgd1na2vs0mg"},{"bike_id":"e88067db-06e7-43fb-8b26-0f29cfb1ca74","system_id":"levelo_inurba_marseille","lat":43.28707,"lon":5.46679,"is_reserved":false,"is_disabled":false,"rental_uris":{"android":"levelo://app?vid=e88067db-06e7-43fb-8b26-0f29cfb1ca74","ios":"levelo://app?vid=e88067db-06e7-43fb-8b26-0f29cfb1ca74"},"vehicle_type_id":"4","last_reported":1778335952,"current_range_meters":8400,"station_id":"st_d6tc3vkotcvc738tfjhg","pricing_plan_id":"cebpf4jnsgd1na2vs0mg"},{"bike_id":"06daa452-e1a7-4c14-aa64-26c1d98f98f8","system_id":"levelo_inurba_marseille","lat":43.28688,"lon":5.39988,"is_reserved":false,"is_disabled":false,"rental_uris":{"android":"levelo://app?vid=06daa452-e1a7-4c14-aa64-26c1d98f98f8","ios":"levelo://app?vid=06daa452-e1a7-4c14-aa64-26c1d98f98f8"},"vehicle_type_id":"4","last_reported":1778335952,"current_range_meters":8800,"station_id":"ce4bho92rcd13ifvqh3g","pricing_plan_id":"cebpf4jnsgd1na2vs0mg"},{"bike_id":"9978bf29-8be4-416d-9e1c-7cc044f2b9f1","system_id":"levelo_inurba_marseille","lat":43.33157,"lon":5.37701,"is_reserved":false,"is_disabled":false,"rental_uris":{"android":"levelo://app?vid=9978bf29-8be4-416d-9e1c-7cc044f2b9f1","ios":"levelo://app?vid=9978bf29-8be4-416d-9e1c-7cc044f2b9f1"},"vehicle_type_id":"4","last_reported":1778335952,"current_range_meters":8800,"station_id":"st_d46cu089ee8s73dldbu0","pricing_plan_id":"cebpf4jnsgd1na2vs0mg"},{"bike_id":"9dc61640-987a-437c-ada7-637d7471e1db","system_id":"levelo_inurba_marseille","lat":43.33157,"lon":5.37687,"is_reserved":false,"is_disabled":false,"rental_uris":{"android":"levelo://app?vid=9dc61640-987a-437c-ada7-637d7471e1db","ios":"levelo://app?vid=9dc61640-987a-437c-ada7-637d7471e1db"},"vehicle_type_id":"4","last_reported":1778335952,"current_range_meters":8800,"station_id":"st_d46cu089ee8s73dldbu0","pricing_plan_id":"cebpf4jnsgd1na2vs0mg"},{"bike_id":"58f02a01-2d6b-42fb-b6cf-a6eb2f8162a4","system_id":"levelo_inurba_marseille","lat":43.26085,"lon":5.39671,"is_reserved":false,"is_disabled":false,"rental_uris":{"android":"levelo://app?vid=58f02a01-2d6b-42fb-b6cf-a6eb2f8162a4","ios":"levelo://app?vid=58f02a01-2d6b-42fb-b6cf-a6eb2f8162a4"},"vehicle_type_id":"4","last_reported":1778335952,"current_range_meters":8800,"station_id":"","pricing_plan_id":"cebpf4jnsgd1na2vs0mg"},{"bike_id":"2423d970-1aee-44cb-a009-0ac80bc8c0be","system_id":"levelo_inurba_marseille","lat":43.21754,"lon":5.34602,"is_reserved":false,"is_disabled":false,"rental_uris":{"android":"levelo://app?vid=2423d970-1aee-44cb-a009-0ac80bc8c0be","ios":"levelo://app?vid=2423d970-1aee-44cb-a009-0ac80bc8c0be"},"vehicle_type_id":"4","last_reported":1778335952,"current_range_meters":8800,"station_id":"st_cvj6r9ubvosntc0bgbag","pricing_plan_id":"cebpf4jnsgd1na2vs0mg"},{"bike_id":"a94ab28b-3e0e-4d84-b67a-0bfaddde8c4a","system_id":"levelo_inurba_marseille","lat":43.26052,"lon":5.39448,"is_reserved":false,"is_disabled":false,"rental_uris":{"android":"levelo://app?vid=a94ab28b-3e0e-4d84-b67a-0bfaddde8c4a","ios":"levelo://app?vid=a94ab28b-3e0e-4d84-b67a-0bfaddde8c4a"},"vehicle_type_id":"4","last_reported":1778335952,"current_range_meters":8800,"station_id":"ce4bhh92rcd13ifvqfj0","pricing_plan_id":"cebpf4jnsgd1na2vs0mg"},{"bike_id":"e5f0fbb4-b8dc-4aa1-9466-61d5f4ac958f","system_id":"levelo_inurba_marseille","lat":43.29031,"lon":5.38133,"is_reserved":false,"is_disabled":true,"rental_uris":{"android":"levelo://app?vid=e5f0fbb4-b8dc-4aa1-9466-61d5f4ac958f","ios":"levelo://app?vid=e5f0fbb4-b8dc-4aa1-9466-61d5f4ac958f"},"vehicle_type_id":"4","last_reported":1778335952,"current_range_meters":8800,"station_id":"ce4bh4p2rcd13ifvqe1g","pricing_plan_id":"cebpf4jnsgd1na2vs0mg"},{"bike_id":"a45b8182-a6a4-4d65-a6e5-528cb58fe0bf","system_id":"levelo_inurba_marseille","lat":43.30135,"lon":5.37415,"is_reserved":false,"is_disabled":false,"rental_uris":{"android":"levelo://app?vid=a45b8182-a6a4-4d65-a6e5-528cb58fe0bf","ios":"levelo://app?vid=a45b8182-a6a4-4d65-a6e5-528cb58fe0bf"},"vehicle_type_id":"4","last_reported":1778335952,"current_range_meters":8800,"station_id":"ce4bgs92rcd13ifvqcc0","pricing_plan_id":"cebpf4jnsgd1na2vs0mg"},{"bike_id":"d74b55b1-7186-4fc2-a7a8-58c5cdd1325a","system_id":"levelo_inurba_marseille","lat":43.29847,"lon":5.36248,"is_reserved":false,"is_disabled":false,"rental_uris":{"android":"levelo://app?vid=d74b55b1-7186-4fc2-a7a8-58c5cdd1325a","ios":"levelo://app?vid=d74b55b1-7186-4fc2-a7a8-58c5cdd1325a"},"vehicle_type_id":"4","last_reported":1778335952,"current_range_meters":8800,"station_id":"ce4bgpp2rcd13ifvqc3g","pricing_plan_id":"cebpf4jnsgd1na2vs0mg"},{"bike_id":"519de5da-9122-4415-bc4f-daeac299c993","system_id":"levelo_inurba_marseille","lat":43.314941,"lon":5.373087,"is_reserved":false,"is_disabled":false,"rental_uris":{"android":"levelo://app?vid=519de5da-9122-4415-bc4f-daeac299c993","ios":"levelo://app?vid=519de5da-9122-4415-bc4f-daeac299c993"},"vehicle_type_id":"4","last_reported":1778335952,"current_range_meters":8800,"station_id":"ce4bgt12rcd13ifvqcd0","pricing_plan_id":"cebpf4jnsgd1na2vs0mg"},{"bike_id":"c081e2e6-b6d3-466f-b56c-4844cab8d639","system_id":"levelo_inurba_marseille","lat":43.23777,"lon":5.41445,"is_reserved":false,"is_disabled":false,"rental_uris":{"android":"levelo://app?vid=c081e2e6-b6d3-466f-b56c-4844cab8d639","ios":"levelo://app?vid=c081e2e6-b6d3-466f-b56c-4844cab8d639"},"vehicle_type_id":"4","last_reported":1778335952,"current_range_meters":8800,"station_id":"","pricing_plan_id":"cebpf4jnsgd1na2vs0mg"},{"bike_id":"c8ddc9fc-c09d-4ca2-a9e2-a0dcb9f611cd","system_id":"levelo_inurba_marseille","lat":43.28414,"lon":5.3495,"is_reserved":false,"is_disabled":false,"rental_uris":{"android":"levelo://app?vid=c8ddc9fc-c09d-4ca2-a9e2-a0dcb9f611cd","ios":"levelo://app?vid=c8ddc9fc-c09d-4ca2-a9e2-a0dcb9f611cd"},"vehicle_type_id":"4","last_reported":1778335952,"current_range_meters":8800,"station_id":"","pricing_plan_id":"cebpf4jnsgd1na2vs0mg"},{"bike_id":"d9d7b86f-9f7d-4555-8cb2-3623753929d6","system_id":"levelo_inurba_marseille","lat":43.32321,"lon":5.38541,"is_reserved":false,"is_disabled":false,"rental_uris":{"android":"levelo://app?vid=d9d7b86f-9f7d-4555-8cb2-3623753929d6","ios":"levelo://app?vid=d9d7b86f-9f7d-4555-8cb2-3623753929d6"},"vehicle_type_id":"4","last_reported":1778335952,"current_range_meters":8800,"station_id":"st_d45171o9ee8s73djdqug","pricing_plan_id":"cebpf4jnsgd1na2vs0mg"},{"bike_id":"494aba67-2f68-47ec-a2bf-c358c949074e","system_id":"levelo_inurba_marseille","lat":43.22531,"lon":5.34816,"is_reserved":false,"is_disabled":false,"rental_uris":{"android":"levelo://app?vid=494aba67-2f68-47ec-a2bf-c358c949074e","ios":"levelo://app?vid=494aba67-2f68-47ec-a2bf-c358c949074e"},"vehicle_type_id":"4","last_reported":1778335952,"current_range_meters":8800,"station_id":"st_cvj5dfep6f1abm77gieg","pricing_plan_id":"cebpf4jnsgd1na2vs0mg"},{"bike_id":"ea5de607-3bbe-45ab-812b-240cab9f0cba","system_id":"levelo_inurba_marseille","lat":43.311673,"lon":5.387158,"is_reserved":false,"is_disabled":false,"rental_uris":{"android":"levelo://app?vid=ea5de607-3bbe-45ab-812b-240cab9f0cba","ios":"levelo://app?vid=ea5de607-3bbe-45ab-812b-240cab9f0cba"},"vehicle_type_id":"4","last_reported":1778335952,"current_range_meters":8800,"station_id":"ce4bgv12rcd13ifvqcp0","pricing_plan_id":"cebpf4jnsgd1na2vs0mg"},{"bike_id":"107059b7-88e7-411c-8008-9b502e8173a0","system_id":"levelo_inurba_marseille","lat":43.23088,"lon":5.39512,"is_reserved":false,"is_disabled":false,"rental_uris":{"android":"levelo://app?vid=107059b7-88e7-411c-8008-9b502e8173a0","ios":"levelo://app?vid=107059b7-88e7-411c-8008-9b502e8173a0"},"vehicle_type_id":"4","last_reported":1778335952,"current_range_meters":8800,"station_id":"","pricing_plan_id":"cebpf4jnsgd1na2vs0mg"},{"bike_id":"43531d64-0874-43ca-90c3-a629c5fd04e7","system_id":"levelo_inurba_marseille","lat":43.29011,"lon":5.35609,"is_reserved":false,"is_disabled":false,"rental_uris":{"android":"levelo://app?vid=43531d64-0874-43ca-90c3-a629c5fd04e7","ios":"levelo://app?vid=43531d64-0874-43ca-90c3-a629c5fd04e7"},"vehicle_type_id":"4","last_reported":1778335952,"current_range_meters":8800,"station_id":"ce4bhb92rcd13ifvqen0","pricing_plan_id":"cebpf4jnsgd1na2vs0mg"},{"bike_id":"2b8b38d7-3296-487c-9120-9a19c99d5b08","system_id":"levelo_inurba_marseille","lat":43.29367,"lon":5.37833,"is_reserved":false,"is_disabled":false,"rental_uris":{"android":"levelo://app?vid=2b8b38d7-3296-487c-9120-9a19c99d5b08","ios":"levelo://app?vid=2b8b38d7-3296-487c-9120-9a19c99d5b08"},"vehicle_type_id":"4","last_reported":1778335952,"current_range_meters":8800,"station_id":"ce4bgjh2rcd13ifvqbf0","pricing_plan_id":"cebpf4jnsgd1na2vs0mg"},{"bike_id":"869761d3-25e2-4e7d-916a-3239dadebecd","system_id":"levelo_inurba_marseille","lat":43.29038,"lon":5.38652,"is_reserved":false,"is_disabled":false,"rental_uris":{"android":"levelo://app?vid=869761d3-25e2-4e7d-916a-3239dadebecd","ios":"levelo://app?vid=869761d3-25e2-4e7d-916a-3239dadebecd"},"vehicle_type_id":"4","last_reported":1778335952,"current_range_meters":8800,"station_id":"ce4bh4p2rcd13ifvqe0g","pricing_plan_id":"cebpf4jnsgd1na2vs0mg"},{"bike_id":"b180e359-f555-4e40-9323-d7d15b986e14","system_id":"levelo_inurba_marseille","lat":43.21753,"lon":5.34582,"is_reserved":false,"is_disabled":false,"rental_uris":{"android":"levelo://app?vid=b180e359-f555-4e40-9323-d7d15b986e14","ios":"levelo://app?vid=b180e359-f555-4e40-9323-d7d15b986e14"},"vehicle_type_id":"4","last_reported":1778335952,"current_range_meters":8800,"station_id":"st_cvj6r9ubvosntc0bgbag","pricing_plan_id":"cebpf4jnsgd1na2vs0mg"},{"bike_id":"7caf2a30-fb13-46be-876c-90a184fdf115","system_id":"levelo_inurba_marseille","lat":43.29055,"lon":5.3592,"is_reserved":false,"is_disabled":false,"rental_uris":{"android":"levelo://app?vid=7caf2a30-fb13-46be-876c-90a184fdf115","ios":"levelo://app?vid=7caf2a30-fb13-46be-876c-90a184fdf115"},"vehicle_type_id":"4","last_reported":1778335952,"current_range_meters":9200,"station_id":"ce4bha92rcd13ifvqeg0","pricing_plan_id":"cebpf4jnsgd1na2vs0mg"},{"bike_id":"2ab3f833-43b5-4bb8-966f-4fcf43c25f61","system_id":"levelo_inurba_marseille","lat":43.255066,"lon":5.376475,"is_reserved":false,"is_disabled":false,"rental_uris":{"android":"levelo://app?vid=2ab3f833-43b5-4bb8-966f-4fcf43c25f61","ios":"levelo://app?vid=2ab3f833-43b5-4bb8-966f-4fcf43c25f61"},"vehicle_type_id":"4","last_reported":1778335952,"current_range_meters":9200,"station_id":"ce4bhh12rcd13ifvqff0","pricing_plan_id":"cebpf4jnsgd1na2vs0mg"},{"bike_id":"8de89280-2a61-4268-b817-bf90021f9ced","system_id":"levelo_inurba_marseille","lat":43.32112,"lon":5.36805,"is_reserved":false,"is_disabled":false,"rental_uris":{"android":"levelo://app?vid=8de89280-2a61-4268-b817-bf90021f9ced","ios":"levelo://app?vid=8de89280-2a61-4268-b817-bf90021f9ced"},"vehicle_type_id":"4","last_reported":1778335952,"current_range_meters":9200,"station_id":"ce4bhrh2rcd13ifvqhug","pricing_plan_id":"cebpf4jnsgd1na2vs0mg"},