{"last_updated":1734527923,"ttl":60,"version":"2.2","data":{"bikes":[{"bike_id":"e6104320-5417-49d8-9b38-1c75866a7d01","system_id":"levelo_inurba_marseille","lat":43.2985,"lon":5.36285,"is_reserved":false,"is_disabled":false,"rental_uris":{"android":"levelo://app?vid=e6104320-5417-49d8-9b38-1c75866a7d01","ios":"levelo://app?vid=e6104320-5417-49d8-9b38-1c75866a7d01"},"vehicle_type_id":"4","last_reported":1734527923,"current_range_meters":37600,"station_id":"ce4bgpp2rcd13ifvqc3g","pricing_plan_id":"cebpf4jnsgd1na2vs0mg"},{"bike_id":"93e095a1-2285-4e5f-b945-85c0deee8cef","system_id":"levelo_inurba_marseille","lat":43.26949,"lon":5.38642,"is_reserved":false,"is_disabled":false,"rental_uris":{"android":"levelo://app?vid=93e095a1-2285-4e5f-b945-85c0deee8cef","ios":"levelo://app?vid=93e095a1-2285-4e5f-b945-85c0deee8cef"},"vehicle_type_id":"4","last_reported":1734527923,"current_range_meters":6800,"station_id":"ce4bhh92rcd13ifvqfh0","pricing_plan_id":"cebpf4jnsgd1na2vs0mg"},{"bike_id":"c691a868-9faf-4a6e-b174-52b8f08a124c","system_id":"levelo_inurba_marseille","lat":43.305452,"lon":5.365348,"is_reserved":false,"is_disabled":false,"rental_uris":{"android":"levelo://app?vid=c691a868-9faf-4a6e-b174-52b8f08a124c","ios":"levelo://app?vid=c691a868-9faf-4a6e-b174-52b8f08a124c"},"vehicle_type_id":"4","last_reported":1734527923,"current_range_meters":34800,"station_id":"ce4bgs12rcd13ifvqcag","pricing_plan_id":"cebpf4jnsgd1na2vs0mg"},{"bike_id":"855da9a6-8ded-42ad-a51c-1944d34be1b3","system_id":"levelo_inurba_marseille","lat":43.24548,"lon":5.39534,"is_reserved":false,"is_disabled":false,"rental_uris":{"android":"levelo://app?vid=855da9a6-8ded-42ad-a51c-1944d34be1b3","ios":"levelo://app?vid=855da9a6-8ded-42ad-a51c-1944d34be1b3"},"vehicle_type_id":"4","last_reported":1734527923,"current_range_meters":38800,"station_id":"ce4bhlp2rcd13ifvqgjg","pricing_plan_id":"cebpf4jnsgd1na2vs0mg"},{"bike_id":"5c5b62aa-5ec6-4ef9-8f5c-348906209378","system_id":"levelo_inurba_marseille","lat":43.337444,"lon":5.374475,"is_reserved":false,"is_disabled":false,"rental_uris":{"android":"levelo://app?vid=5c5b62aa-5ec6-4ef9-8f5c-348906209378","ios":"levelo://app?vid=5c5b62aa-5ec6-4ef9-8f5c-348906209378"},"vehicle_type_id":"4","last_reported":1734527923,"current_range_meters":38800,"station_id":"","pricing_plan_id":"cebpf4jnsgd1na2vs0mg"},{"bike_id":"65b07cf5-57cf-4613-8085-db187283694f","system_id":"levelo_inurba_marseille","lat":43.3054,"lon":5.36554,"is_reserved":false,"is_disabled":false,"rental_uris":{"android":"levelo://app?vid=65b07cf5-57cf-4613-8085-db187283694f","ios":"levelo://app?vid=65b07cf5-57cf-4613-8085-db187283694f"},"vehicle_type_id":"4","last_reported":1734527923,"current_range_meters":36400,"station_id":"ce4bgs12rcd13ifvqcag","pricing_plan_id":"cebpf4jnsgd1na2vs0mg"},{"bike_id":"0bea807c-caa2-4527-b20d-0491783c718b","system_id":"levelo_inurba_marseille","lat":43.29003,"lon":5.35618,"is_reserved":false,"is_disabled":false,"rental_uris":{"android":"levelo://app?vid=0bea807c-caa2-4527-b20d-0491783c718b","ios":"levelo://app?vid=0bea807c-caa2-4527-b20d-0491783c718b"},"vehicle_type_id":"4","last_reported":1734527923,"current_range_meters":16400,"station_id":"ce4bhb92rcd13ifvqen0","pricing_plan_id":"cebpf4jnsgd1na2vs0mg"},{"bike_id":"b1b1f756-c1a0-4e66-8530-9c85602c1813","system_id":"levelo_inurba_marseille","lat":43.32368,"lon":5.36741,"is_reserved":false,"is_disabled":false,"rental_uris":{"android":"levelo://app?vid=b1b1f756-c1a0-4e66-8530-9c85602c1813","ios":"levelo://app?vid=b1b1f756-c1a0-4e66-8530-9c85602c1813"},"vehicle_type_id":"4","last_reported":1734527923,"current_range_meters":18000,"station_id":"ce4bhsh2rcd13ifvqi2g","pricing_plan_id":"cebpf4jnsgd1na2vs0mg"},{"bike_id":"64ff5b0b-103b-402e-8007-73ab97fd567c","system_id":"levelo_inurba_marseille","lat":43.28413,"lon":5.34988,"is_reserved":false,"is_disabled":false,"rental_uris":{"android":"levelo://app?vid=64ff5b0b-103b-402e-8007-73ab97fd567c","ios":"levelo://app?vid=64ff5b0b-103b-402e-8007-73ab97fd567c"},"vehicle_type_id":"4","last_reported":1734527923,"current_range_meters":28000,"station_id":"ce4bhbh2rcd13ifvqepg","pricing_plan_id":"cebpf4jnsgd1na2vs0mg"},{"bike_id":"5b25f1fc-a301-4e56-b3d8-973d52c75cbb","system_id":"levelo_inurba_marseille","lat":43.26188,"lon":5.37452,"is_reserved":false,"is_disabled":false,"rental_uris":{"android":"levelo://app?vid=5b25f1fc-a301-4e56-b3d8-973d52c75cbb","ios":"levelo://app?vid=5b25f1fc-a301-4e56-b3d8-973d52c75cbb"},"vehicle_type_id":"4","last_reported":1734527923,"current_range_meters":30800,"station_id":"ce4bhgp2rcd13ifvqfc0","pricing_plan_id":"cebpf4jnsgd1na2vs0mg"},{"bike_id":"1ea39a5a-f978-4bb0-845c-7aea80f4d8ff","system_id":"levelo_inurba_marseille","lat":43.29567,"lon":5.37519,"is_reserved":false,"is_disabled":false,"rental_uris":{"android":"levelo://app?vid=1ea39a5a-f978-4bb0-845c-7aea80f4d8ff","ios":"levelo://app?vid=1ea39a5a-f978-4bb0-845c-7aea80f4d8ff"},"vehicle_type_id":"4","last_reported":1734527923,"current_range_meters":35600,"station_id":"ce4bgh92rcd13ifvqb50","pricing_plan_id":"cebpf4jnsgd1na2vs0mg"},{"bike_id":"a5bab296-af15-45a1-81e9-5b6f00bc7788","system_id":"levelo_inurba_marseille","lat":43.26906,"lon":5.40276,"is_reserved":false,"is_disabled":false,"rental_uris":{"android":"levelo://app?vid=a5bab296-af15-45a1-81e9-5b6f00bc7788","ios":"levelo://app?vid=a5bab296-af15-45a1-81e9-5b6f00bc7788"},"vehicle_type_id":"4","last_reported":1734527923,"current_range_meters":35200,"station_id":"cjm6bp8fraef2m0cb0m0","pricing_plan_id":"cebpf4jnsgd1na2vs0mg"},{"bike_id":"58be73d0-d5d6-49d5-a5d7-8c143188158e","system_id":"levelo_inurba_marseille","lat":43.29851,"lon":5.36275,"is_reserved":false,"is_disabled":false,"rental_uris":{"android":"levelo://app?vid=58be73d0-d5d6-49d5-a5d7-8c143188158e","ios":"levelo://app?vid=58be73d0-d5d6-49d5-a5d7-8c143188158e"},"vehicle_type_id":"4","last_reported":1734527923,"current_range_meters":33200,"station_id":"ce4bgpp2rcd13ifvqc3g","pricing_plan_id":"cebpf4jnsgd1na2vs0mg"},{"bike_id":"31e72509-ec39-407b-ac88-a268f165df18","system_id":"levelo_inurba_marseille","lat":43.30076,"lon":5.39079,"is_reserved":false,"is_disabled":false,"rental_uris":{"android":"levelo://app?vid=31e72509-ec39-407b-ac88-a268f165df18","ios":"levelo://app?vid=31e72509-ec39-407b-ac88-a268f165df18"},"vehicle_type_id":"4","last_reported":1734527923,"current_range_meters":38800,"station_id":"ce4bh192rcd13ifvqdb0","pricing_plan_id":"cebpf4jnsgd1na2vs0mg"},{"bike_id":"a2104b26-4a01-4dc6-b355-fbab2d119e02","system_id":"levelo_inurba_marseille","lat":43.32481,"lon":5.36566,"is_reserved":false,"is_disabled":false,"rental_uris":{"android":"levelo://app?vid=a2104b26-4a01-4dc6-b355-fbab2d119e02","ios":"levelo://app?vid=a2104b26-4a01-4dc6-b355-fbab2d119e02"},"vehicle_type_id":"4","last_reported":1734527923,"current_range_meters":35600,"station_id":"ce4bhs12rcd13ifvqhvg","pricing_plan_id":"cebpf4jnsgd1na2vs0mg"},{"bike_id":"61c0629c-ed8d-4aa4-960c-906523b66426","system_id":"levelo_inurba_marseille","lat":43.30071,"lon":5.39082,"is_reserved":false,"is_disabled":false,"rental_uris":{"android":"levelo://app?vid=61c0629c-ed8d-4aa4-960c-906523b66426","ios":"levelo://app?vid=61c0629c-ed8d-4aa4-960c-906523b66426"},"vehicle_type_id":"4","last_reported":1734527923,"current_range_meters":35600,"station_id":"ce4bh192rcd13ifvqdb0","pricing_plan_id":"cebpf4jnsgd1na2vs0mg"},{"bike_id":"f67d6542-dcd7-4cab-bf0b-31ec1c6f581d","system_id":"levelo_inurba_marseille","lat":43.29023,"lon":5.35927,"is_reserved":false,"is_disabled":false,"rental_uris":{"android":"levelo://app?vid=f67d6542-dcd7-4cab-bf0b-31ec1c6f581d","ios":"levelo://app?vid=f67d6542-dcd7-4cab-bf0b-31ec1c6f581d"},"vehicle_type_id":"4","last_reported":1734527923,"current_range_meters":38400,"station_id":"ce4bha92rcd13ifvqeg0","pricing_plan_id":"cebpf4jnsgd1na2vs0mg"},{"bike_id":"03983828-0444-4f98-9231-622d98391d75","system_id":"levelo_inurba_marseille","lat":43.3376,"lon":5.37464,"is_reserved":false,"is_disabled":false,"rental_uris":{"android":"levelo://app?vid=03983828-0444-4f98-9231-622d98391d75","ios":"levelo://app?vid=03983828-0444-4f98-9231-622d98391d75"},"vehicle_type_id":"4","last_reported":1734527923,"current_range_meters":36800,"station_id":"","pricing_plan_id":"cebpf4jnsgd1na2vs0mg"},{"bike_id":"abc13fbe-1b60-4a20-b24b-3075c1c7322f","system_id":"levelo_inurba_marseille","lat":43.2487,"lon":5.37485,"is_reserved":false,"is_disabled":false,"rental_uris":{"android":"levelo://app?vid=abc13fbe-1b60-4a20-b24b-3075c1c7322f","ios":"levelo://app?vid=abc13fbe-1b60-4a20-b24b-3075c1c7322f"},"vehicle_type_id":"4","last_reported":1734527923,"current_range_meters":33600,"station_id":"","pricing_plan_id":"cebpf4jnsgd1na2vs0mg"},{"bike_id":"083cefb4-b5e5-47c4-a201-6242080b2768","system_id":"levelo_inurba_marseille","lat":43.31339,"lon":5.36716,"is_reserved":false,"is_disabled":false,"rental_uris":{"android":"levelo://app?vid=083cefb4-b5e5-47c4-a201-6242080b2768","ios":"levelo://app?vid=083cefb4-b5e5-47c4-a201-6242080b2768"},"vehicle_type_id":"4","last_reported":1734527923,"current_range_meters":28800,"station_id":"ce4bgr92rcd13ifvqc6g","pricing_plan_id":"cebpf4jnsgd1na2vs0mg"},{"bike_id":"124e6c05-4926-4207-84f5-da69a7334d60","system_id":"levelo_inurba_marseille","lat":43.29044,"lon":5.38173,"is_reserved":false,"is_disabled":true,"rental_uris":{"android":"levelo://app?vid=124e6c05-4926-4207-84f5-da69a7334d60","ios":"levelo://app?vid=124e6c05-4926-4207-84f5-da69a7334d60"},"vehicle_type_id":"4","last_reported":1734527923,"current_range_meters":34000,"station_id":"","pricing_plan_id":"cebpf4jnsgd1na2vs0mg"},{"bike_id":"e997f56f-26a9-4ad1-9feb-f0c0c9894c03","system_id":"levelo_inurba_marseille","lat":43.30515,"lon":5.36716,"is_reserved":false,"is_disabled":false,"rental_uris":{"android":"levelo://app?vid=e997f56f-26a9-4ad1-9feb-f0c0c9894c03","ios":"levelo://app?vid=e997f56f-26a9-4ad1-9feb-f0c0c9894c03"},"vehicle_type_id":"4","last_reported":1734527923,"current_range_meters":11200,"station_id":"ce4bgrp2rcd13ifvqc9g","pricing_plan_id":"cebpf4jnsgd1na2vs0mg"},{"bike_id":"09bf9b9b-e333-4e1e-9806-ec7f2650f7c1","system_id":"levelo_inurba_marseille","lat":43.30961,"lon":5.39042,"is_reserved":false,"is_disabled":false,"rental_uris":{"android":"levelo://app?vid=09bf9b9b-e333-4e1e-9806-ec7f2650f7c1","ios":"levelo://app?vid=09bf9b9b-e333-4e1e-9806-ec7f2650f7c1"},"vehicle_type_id":"4","last_reported":1734527923,"current_range_meters":19600,"station_id":"ce4bgup2rcd13ifvqco0","pricing_plan_id":"cebpf4jnsgd1na2vs0mg"},{"bike_id":"83fbfb4e-19f2-467c-be15-f389a8d72c6d","system_id":"levelo_inurba_marseille","lat":43.26027,"lon":5.37549,"is_reserved":false,"is_disabled":false,"rental_uris":{"android":"levelo://app?vid=83fbfb4e-19f2-467c-be15-f389a8d72c6d","ios":"levelo://app?vid=83fbfb4e-19f2-467c-be15-f389a8d72c6d"},"vehicle_type_id":"4","last_reported":1734527923,"current_range_meters":16400,"station_id":"ce4bhgh2rcd13ifvqfa0","pricing_plan_id":"cebpf4jnsgd1na2vs0mg"},{"bike_id":"12825fc7-c4d4-4652-92c7-b1bbcf86503b","system_id":"levelo_inurba_marseille","lat":43.30535,"lon":5.3653,"is_reserved":false,"is_disabled":false,"rental_uris":{"android":"levelo://app?vid=12825fc7-c4d4-4652-92c7-b1bbcf86503b","ios":"levelo://app?vid=12825fc7-c4d4-4652-92c7-b1bbcf86503b"},"vehicle_type_id":"4","last_reported":1734527923,"current_range_meters":38800,"station_id":"ce4bgs12rcd13ifvqcag","pricing_plan_id":"cebpf4jnsgd1na2vs0mg"},{"bike_id":"2ae7fc52-11d1-4607-ba57-fc1895cfc982","system_id":"levelo_inurba_marseille","lat":43.26701,"lon":5.38238,"is_reserved":false,"is_disabled":false,"rental_uris":{"android":"levelo://app?vid=2ae7fc52-11d1-4607-ba57-fc1895cfc982","ios":"levelo://app?vid=2ae7fc52-11d1-4607-ba57-fc1895cfc982"},"vehicle_type_id":"4","last_reported":1734527923,"current_range_meters":38800,"station_id":"ce4bhg92rcd13ifvqf90","pricing_plan_id":"cebpf4jnsgd1na2vs0mg"},{"bike_id":"2491c714-f3f7-493b-9790-9992e16c8fb6","system_id":"levelo_inurba_marseille","lat":43.34133,"lon":5.409089,"is_reserved":false,"is_disabled":true,"rental_uris":{"android":"levelo://app?vid=2491c714-f3f7-493b-9790-9992e16c8fb6","ios":"levelo://app?vid=2491c714-f3f7-493b-9790-9992e16c8fb6"},"vehicle_type_id":"4","last_reported":1734527923,"current_range_meters":38800,"station_id":"ce4bhqh2rcd13ifvqhlg","pricing_plan_id":"cebpf4jnsgd1na2vs0mg"},{"bike_id":"03dcc4cf-7478-40f3-9bc7-5aceae97b56a","system_id":"levelo_inurba_marseille","lat":43.30154,"lon":5.37421,"is_reserved":false,"is_disabled":false,"rental_uris":{"android":"levelo://app?vid=03dcc4cf-7478-40f3-9bc7-5aceae97b56a","ios":"levelo://app?vid=03dcc4cf-7478-40f3-9bc7-5aceae97b56a"},"vehicle_type_id":"4","last_reported":1734527923,"current_range_meters":26000,"station_id":"ce4bgs92rcd13ifvqcc0","pricing_plan_id":"cebpf4jnsgd1na2vs0mg"},{"bike_id":"ea1ee0a0-f240-4d25-84d9-e6fb6fc7a18c","system_id":"levelo_inurba_marseille","lat":43.33799,"lon":5.42112,"is_reserved":false,"is_disabled":true,"rental_uris":{"android":"levelo://app?vid=ea1ee0a0-f240-4d25-84d9-e6fb6fc7a18c","ios":"levelo://app?vid=ea1ee0a0-f240-4d25-84d9-e6fb6fc7a18c"},"vehicle_type_id":"4","last_reported":1734527923,"current_range_meters":0,"station_id":"","pricing_plan_id":"cebpf4jnsgd1na2vs0mg"},{"bike_id":"9b2f4ce3-4d40-4539-9fa8-a723d76c434b","system_id":"levelo_inurba_marseille","lat":43.305431,"lon":5.393207,"is_reserved":false,"is_disabled":true,"rental_uris":{"android":"levelo://app?vid=9b2f4ce3-4d40-4539-9fa8-a723d76c434b","ios":"levelo://app?vid=9b2f4ce3-4d40-4539-9fa8-a723d76c434b"},"vehicle_type_id":"4","last_reported":1734527923,"current_range_meters":6400,"station_id":"ce4bgop2rcd13ifvqc1g","pricing_plan_id":"cebpf4jnsgd1na2vs0mg"},{"bike_id":"591a3165-8b96-47bf-bcab-7168d49394fb","system_id":"levelo_inurba_marseille","lat":43.27889,"lon":5.38023,"is_reserved":false,"is_disabled":false,"rental_uris":{"android":"levelo://app?vid=591a3165-8b96-47bf-bcab-7168d49394fb","ios":"levelo://app?vid=591a3165-8b96-47bf-bcab-7168d49394fb"},"vehicle_type_id":"4","last_reported":1734527923,"current_range_meters":32400,"station_id":"ce4bhf92rcd13ifvqf50","pricing_plan_id":"cebpf4jnsgd1na2vs0mg"},{"bike_id":"a9fccbb6-c45f-4362-a72b-4ba2aefd4ca0","system_id":"levelo_inurba_marseille","lat":43.28934,"lon":5.36635,"is_reserved":false,"is_disabled":false,"rental_uris":{"android":"levelo://app?vid=a9fccbb6-c45f-4362-a72b-4ba2aefd4ca0","ios":"levelo://app?vid=a9fccbb6-c45f-4362-a72b-4ba2aefd4ca0"},"vehicle_type_id":"4","last_reported":1734527923,"current_range_meters":27600,"station_id":"ce4bhap2rcd13ifvqek0","pricing_plan_id":"cebpf4jnsgd1na2vs0mg"},{"bike_id":"f500c588-6feb-4b09-aaa0-56bd71506c9c","system_id":"levelo_inurba_marseille","lat":43.30147,"lon":5.37405,"is_reserved":false,"is_disabled":false,"rental_uris":{"android":"levelo://app?vid=f500c588-6feb-4b09-aaa0-56bd71506c9c","ios":"levelo://app?vid=f500c588-6feb-4b09-aaa0-56bd71506c9c"},"vehicle_type_id":"4","last_reported":1734527923,"current_range_meters":38800,"station_id":"ce4bgs92rcd13ifvqcc0","pricing_plan_id":"cebpf4jnsgd1na2vs0mg"},{"bike_id":"1ea8effb-27df-4af5-ae4a-d6ec65c43223","system_id":"levelo_inurba_marseille","lat":43.29627,"lon":5.37715,"is_reserved":false,"is_disabled":false,"rental_uris":{"android":"levelo://app?vid=1ea8effb-27df-4af5-ae4a-d6ec65c43223","ios":"levelo://app?vid=1ea8effb-27df-4af5-ae4a-d6ec65c43223"},"vehicle_type_id":"4","last_reported":1734527923,"current_range_meters":34800,"station_id":"ce4bgi92rcd13ifvqb90","pricing_plan_id":"cebpf4jnsgd1na2vs0mg"},{"bike_id":"9b03d121-6878-410d-a3bd-553e876211da","system_id":"levelo_inurba_marseille","lat":43.2707,"lon":5.42282,"is_reserved":false,"is_disabled":false,"rental_uris":{"android":"levelo://app?vid=9b03d121-6878-410d-a3bd-553e876211da","ios":"levelo://app?vid=9b03d121-6878-410d-a3bd-553e876211da"},"vehicle_type_id":"4","last_reported":1734527923,"current_range_meters":12400,"station_id":"ce4bhk92rcd13ifvqgb0","pricing_plan_id":"cebpf4jnsgd1na2vs0mg"},{"bike_id":"de0be449-3f8e-42f7-9155-1bf2e68e9a58","system_id":"levelo_inurba_marseille","lat":43.25118,"lon":5.40324,"is_reserved":false,"is_disabled":false,"rental_uris":{"android":"levelo://app?vid=de0be449-3f8e-42f7-9155-1bf2e68e9a58","ios":"levelo://app?vid=de0be449-3f8e-42f7-9155-1bf2e68e9a58"},"vehicle_type_id":"4","last_reported":1734527923,"current_range_meters":6000,"station_id":"ce4bhlh2rcd13ifvqgig","pricing_plan_id":"cebpf4jnsgd1na2vs0mg"},{"bike_id":"c4e9a8c5-e447-4ec3-94c1-9842cf238338","system_id":"levelo_inurba_marseille","lat":43.30946,"lon":5.40149,"is_reserved":false,"is_disabled":false,"rental_uris":{"android":"levelo://app?vid=c4e9a8c5-e447-4ec3-94c1-9842cf238338","ios":"levelo://app?vid=c4e9a8c5-e447-4ec3-94c1-9842cf238338"},"vehicle_type_id":"4","last_reported":1734527923,"current_range_meters":32400,"station_id":"ce4bgvp2rcd13ifvqct0","pricing_plan_id":"cebpf4jnsgd1na2vs0mg"},{"bike_id":"ee600888-af51-4f09-8dd4-4a6cdb33d768","system_id":"levelo_inurba_marseille","lat":43.29964,"lon":5.37183,"is_reserved":false,"is_disabled":false,"rental_uris":{"android":"levelo://app?vid=ee600888-af51-4f09-8dd4-4a6cdb33d768","ios":"levelo://app?vid=ee600888-af51-4f09-8dd4-4a6cdb33d768"},"vehicle_type_id":"4","last_reported":1734527923,"current_range_meters":29600,"station_id":"ce4bgr92rcd13ifvqc7g","pricing_plan_id":"cebpf4jnsgd1na2vs0mg"},{"bike_id":"a339df83-5ef2-4ef9-a45b-47dbdd01070b","system_id":"levelo_inurba_marseille","lat":43.31107,"lon":5.3777,"is_reserved":false,"is_disabled":false,"rental_uris":{"android":"levelo://app?vid=a339df83-5ef2-4ef9-a45b-47dbdd01070b","ios":"levelo://app?vid=a339df83-5ef2-4ef9-a45b-47dbdd01070b"},"vehicle_type_id":"4","last_reported":1734527923,"current_range_meters":28000,"station_id":"ce4bgt92rcd13ifvqcg0","pricing_plan_id":"cebpf4jnsgd1na2vs0mg"},{"bike_id":"e662b8bd-e516-4bcc-8d7a-e2ac8f6042db","system_id":"levelo_inurba_marseille","lat":43.29637,"lon":5.37682,"is_reserved":false,"is_disabled":false,"rental_uris":{"android":"levelo://app?vid=e662b8bd-e516-4bcc-8d7a-e2ac8f6042db","ios":"levelo://app?vid=e662b8bd-e516-4bcc-8d7a-e2ac8f6042db"},"vehicle_type_id":"4","last_reported":1734527923,"current_range_meters":39200,"station_id":"ce4bgi92rcd13ifvqb90","pricing_plan_id":"cebpf4jnsgd1na2vs0mg"},{"bike_id":"4d36d78c-14c3-4a59-bdb8-cd94cff6345d","system_id":"levelo_inurba_marseille","lat":43.30797,"lon":5.43518,"is_reserved":false,"is_disabled":false,"rental_uris":{"android":"levelo://app?vid=4d36d78c-14c3-4a59-bdb8-cd94cff6345d","ios":"levelo://app?vid=4d36d78c-14c3-4a59-bdb8-cd94cff6345d"},"vehicle_type_id":"4","last_reported":1734527923,"current_range_meters":38000,"station_id":"ce4bhph2rcd13ifvqheg","pricing_plan_id":"cebpf4jnsgd1na2vs0mg"},{"bike_id":"a947d978-94d9-4d79-a99a-492cd1cd71b2","system_id":"levelo_inurba_marseille","lat":43.289982,"lon":5.37871,"is_reserved":false,"is_disabled":false,"rental_uris":{"android":"levelo://app?vid=a947d978-94d9-4d79-a99a-492cd1cd71b2","ios":"levelo://app?vid=a947d978-94d9-4d79-a99a-492cd1cd71b2"},"vehicle_type_id":"4","last_reported":1734527923,"current_range_meters":9200,"station_id":"ce4bh9p2rcd13ifvqed0","pricing_plan_id":"cebpf4jnsgd1na2vs0mg"},{"bike_id":"4407cd14-a361-4429-9b5e-fa9f83dc4907","system_id":"levelo_inurba_marseille","lat":43.30963,"lon":5.39024,"is_reserved":false,"is_disabled":true,"rental_uris":{"android":"levelo://app?vid=4407cd14-a361-4429-9b5e-fa9f83dc4907","ios":"levelo://app?vid=4407cd14-a361-4429-9b5e-fa9f83dc4907"},"vehicle_type_id":"4","last_reported":1734527923,"current_range_meters":1600,"station_id":"ce4bgup2rcd13ifvqco0","pricing_plan_id":"cebpf4jnsgd1na2vs0mg"},{"bike_id":"4cd8f22a-82ae-4985-b778-378a4fb404d0","system_id":"levelo_inurba_marseille","lat":43.29845,"lon":5.36286,"is_reserved":false,"is_disabled":false,"rental_uris":{"android":"levelo://app?vid=4cd8f22a-82ae-4985-b778-378a4fb404d0","ios":"levelo://app?vid=4cd8f22a-82ae-4985-b778-378a4fb404d0"},"vehicle_type_id":"4","last_reported":1734527923,"current_range_meters":10000,"station_id":"ce4bgpp2rcd13ifvqc3g","pricing_plan_id":"cebpf4jnsgd1na2vs0mg"},{"bike_id":"ff3bbbf5-a364-4cca-8aa8-5aec2ad08a0d","system_id":"levelo_inurba_marseille","lat":43.30653,"lon":5.4009,"is_reserved":false,"is_disabled":false,"rental_uris":{"android":"levelo://app?vid=ff3bbbf5-a364-4cca-8aa8-5aec2ad08a0d","ios":"levelo://app?vid=ff3bbbf5-a364-4cca-8aa8-5aec2ad08a0d"},"vehicle_type_id":"4","last_reported":1734527923,"current_range_meters":9600,"station_id":"ce4bh112rcd13ifvqda0","pricing_plan_id":"cebpf4jnsgd1na2vs0mg"},{"bike_id":"86c83bcb-399d-43cb-a4b5-54e53dfd94eb","system_id":"levelo_inurba_marseille","lat":43.30538,"lon":5.36702,"is_reserved":false,"is_disabled":false,"rental_uris":{"android":"levelo://app?vid=86c83bcb-399d-43cb-a4b5-54e53dfd94eb","ios":"levelo://app?vid=86c83bcb-399d-43cb-a4b5-54e53dfd94eb"},"vehicle_type_id":"4","last_reported":1734527923,"current_range_meters":39200,"station_id":"ce4bgrp2rcd13ifvqc9g","pricing_plan_id":"cebpf4jnsgd1na2vs0mg"},{"bike_id":"88951085-31ef-4c56-8915-fb1111927bb8","system_id":"levelo_inurba_marseille","lat":43.29622,"lon":5.37723,"is_reserved":false,"is_disabled":false,"rental_uris":{"android":"levelo://app?vid=88951085-31ef-4c56-8915-fb1111927bb8","ios":"levelo://app?vid=88951085-31ef-4c56-8915-fb1111927bb8"},"vehicle_type_id":"4","last_reported":1734527923,"current_range_meters":27600,"station_id":"ce4bgi92rcd13ifvqb90","pricing_plan_id":"cebpf4jnsgd1na2vs0mg"},{"bike_id":"4e96f9a5-983a-4445-8634-76c76d3be2a9","system_id":"levelo_inurba_marseille","lat":43.27425,"lon":5.39419,"is_reserved":false,"is_disabled":false,"rental_uris":{"android":"levelo://app?vid=4e96f9a5-983a-4445-8634-76c76d3be2a9","ios":"levelo://app?vid=4e96f9a5-983a-4445-8634-76c76d3be2a9"},"vehicle_type_id":"4","last_reported":1734527923,"current_range_meters":20800,"station_id":"ce4bhdp2rcd13ifvqf20","pricing_plan_id":"cebpf4jnsgd1na2vs0mg"},{"bike_id":"3dbad254-41b1-416c-8699-2da83d290437","system_id":"levelo_inurba_marseille","lat":43.31684,"lon":5.40467,"is_reserved":false,"is_disabled":false,"rental_uris":{"android":"levelo://app?vid=3dbad254-41b1-416c-8699-2da83d290437","ios":"levelo://app?vid=3dbad254-41b1-416c-8699-2da83d290437"},"vehicle_type_id":"4","last_reported":1734527923,"current_range_meters":22800,"station_id":"ce4bh012rcd13ifvqd00","pricing_plan_id":"cebpf4jnsgd1na2vs0mg"},{"bike_id":"c74c7c86-5417-4340-8dc5-74f23a6accba","system_id":"levelo_inurba_marseille","lat":43.30249,"lon":5.40074,"is_reserved":false,"is_disabled":false,"rental_uris":{"android":"levelo://app?vid=c74c7c86-5417-4340-8dc5-74f23a6accba","ios":"levelo://app?vid=c74c7c86-5417-4340-8dc5-74f23a6accba"},"vehicle_type_id":"4","last_reported":1734527923,"current_range_meters":9200,"station_id":"ce4bgvh2rcd13ifvqcs0","pricing_plan_id":"cebpf4jnsgd1na2vs0mg"},{"bike_id":"ea674139-8ce0-41bf-80d9-4ed18c589a4c","system_id":"levelo_inurba_marseille","lat":43.29422,"lon":5.38619,"is_reserved":false,"is_disabled":false,"rental_uris":{"android":"levelo://app?vid=ea674139-8ce0-41bf-80d9-4ed18c589a4c","ios":"levelo://app?vid=ea674139-8ce0-41bf-80d9-4ed18c589a4c"},"vehicle_type_id":"4","last_reported":1734527923,"current_range_meters":8000,"station_id":"ce4bh2h2rcd13ifvqdh0","pricing_plan_id":"cebpf4jnsgd1na2vs0mg"},{"bike_id":"a9002301-2815-4da8-b708-209cae3ff729","system_id":"levelo_inurba_marseille","lat":43.279895,"lon":5.41656,"is_reserved":false,"is_disabled":false,"rental_uris":{"android":"levelo://app?vid=a9002301-2815-4da8-b708-209cae3ff729","ios":"levelo://app?vid=a9002301-2815-4da8-b708-209cae3ff729"},"vehicle_type_id":"4","last_reported":1734527923,"current_range_meters":29600,"station_id":"ce4bho12rcd13ifvqh1g","pricing_plan_id":"cebpf4jnsgd1na2vs0mg"},{"bike_id":"13b89d28-be59-4841-b3b3-1a97c3f8e494","system_id":"levelo_inurba_marseille","lat":43.23147,"lon":5.43725,"is_reserved":false,"is_disabled":false,"rental_uris":{"android":"levelo://app?vid=13b89d28-be59-4841-b3b3-1a97c3f8e494","ios":"levelo://app?vid=13b89d28-be59-4841-b3b3-1a97c3f8e494"},"vehicle_type_id":"4","last_reported":1734527923,"current_range_meters":38400,"station_id":"ce4bhmp2rcd13ifvqgog","pricing_plan_id":"cebpf4jnsgd1na2vs0mg"},{"bike_id":"72492ff3-d3e5-4b81-822b-1d3357339451","system_id":"levelo_inurba_marseille","lat":43.2917,"lon":5.39977,"is_reserved":false,"is_disabled":true,"rental_uris":{"android":"levelo://app?vid=72492ff3-d3e5-4b81-822b-1d3357339451","ios":"levelo://app?vid=72492ff3-d3e5-4b81-822b-1d3357339451"},"vehicle_type_id":"4","last_reported":1734527923,"current_range_meters":38800,"station_id":"","pricing_plan_id":"cebpf4jnsgd1na2vs0mg"},{"bike_id":"c9aecb48-1552-47ad-af23-8b6bab0d2fdf","system_id":"levelo_inurba_marseille","lat":43.25076,"lon":5.39528,"is_reserved":false,"is_disabled":true,"rental_uris":{"android":"levelo://app?vid=c9aecb48-1552-47ad-af23-8b6bab0d2fdf","ios":"levelo://app?vid=c9aecb48-1552-47ad-af23-8b6bab0d2fdf"},"vehicle_type_id":"4","last_reported":1734527923,"current_range_meters":0,"station_id":"ce4bhm12rcd13ifvqgkg","pricing_plan_id":"cebpf4jnsgd1na2vs0mg"},{"bike_id":"4e903476-26ee-4c32-806f-26a87ba3a549","system_id":"levelo_inurba_marseille","lat":43.29423,"lon":5.38603,"is_reserved":false,"is_disabled":true,"rental_uris":{"android":"levelo://app?vid=4e903476-26ee-4c32-806f-26a87ba3a549","ios":"levelo://app?vid=4e903476-26ee-4c32-806f-26a87ba3a549"},"vehicle_type_id":"4","last_reported":1734527923,"current_range_meters":0,"station_id":"ce4bh2h2rcd13ifvqdh0","pricing_plan_id":"cebpf4jnsgd1na2vs0mg"},{"bike_id":"20ce049d-9d00-4dff-9417-e04a6e42b12c","system_id":"levelo_inurba_marseille","lat":43.27987,"lon":5.41661,"is_reserved":false,"is_disabled":false,"rental_uris":{"android":"levelo://app?vid=20ce049d-9d00-4dff-9417-e04a6e42b12c","ios":"levelo://app?vid=20ce049d-9d00-4dff-9417-e04a6e42b12c"},"vehicle_type_id":"4","last_reported":1734527923,"current_range_meters":30000,"station_id":"ce4bho12rcd13ifvqh1g","pricing_plan_id":"cebpf4jnsgd1na2vs0mg"},{"bike_id":"b28f9753-28e1-431d-914b-59d1f0cf26b3","system_id":"levelo_inurba_marseille","lat":43.2654,"lon":5.37295,"is_reserved":false,"is_disabled":false,"rental_uris":{"android":"levelo://app?vid=b28f9753-28e1-431d-914b-59d1f0cf26b3","ios":"levelo://app?vid=b28f9753-28e1-431d-914b-59d1f0cf26b3"},"vehicle_type_id":"4","last_reported":1734527923,"current_range_meters":12000,"station_id":"ce4bhg12rcd13ifvqf70","pricing_plan_id":"cebpf4jnsgd1na2vs0mg"},{"bike_id":"9dc602f1-a01c-4a08-8757-d4e4d234b8a2","system_id":"levelo_inurba_marseille","lat":43.29841,"lon":5.36269,"is_reserved":false,"is_disabled":false,"rental_uris":{"android":"levelo://app?vid=9dc602f1-a01c-4a08-8757-d4e4d234b8a2","ios":"levelo://app?vid=9dc602f1-a01c-4a08-8757-d4e4d234b8a2"},"vehicle_type_id":"4","last_reported":1734527923,"current_range_meters":19200,"station_id":"ce4bgpp2rcd13ifvqc3g","pricing_plan_id":"cebpf4jnsgd1na2vs0mg"},{"bike_id":"5c6c2e3f-61f3-4b3d-92d5-7feb2eca44e2","system_id":"levelo_inurba_marseille","lat":43.30534,"lon":5.36525,"is_reserved":false,"is_disabled":false,"rental_uris":{"android":"levelo://app?vid=5c6c2e3f-61f3-4b3d-92d5-7feb2eca44e2","ios":"levelo://app?vid=5c6c2e3f-61f3-4b3d-92d5-7feb2eca44e2"},"vehicle_type_id":"4","last_reported":1734527923,"current_range_meters":38400,"station_id":"ce4bgs12rcd13ifvqcag","pricing_plan_id":"cebpf4jnsgd1na2vs0mg"},{"bike_id":"a47a812b-8479-4dbf-a984-c261870d3f1a","system_id":"levelo_inurba_marseille","lat":43.32463,"lon":5.36584,"is_reserved":false,"is_disabled":false,"rental_uris":{"android":"levelo://app?vid=a47a812b-8479-4dbf-a984-c261870d3f1a","ios":"levelo://app?vid=a47a812b-8479-4dbf-a984-c261870d3f1a"},"vehicle_type_id":"4","last_reported":1734527923,"current_range_meters":38800,"station_id":"ce4bhs12rcd13ifvqhvg","pricing_plan_id":"cebpf4jnsgd1na2vs0mg"},{"bike_id":"189ada6b-87c7-48dc-bc40-634cf6321beb","system_id":"levelo_inurba_marseille","lat":43.306004,"lon":5.372286,"is_reserved":false,"is_disabled":false,"rental_uris":{"android":"levelo://app?vid=189ada6b-87c7-48dc-bc40-634cf6321beb","ios":"levelo://app?vid=189ada6b-87c7-48dc-bc40-634cf6321beb"},"vehicle_type_id":"4","last_reported":1734527923,"current_range_meters":37600,"station_id":"ce4bgqh2rcd13ifvqc4g","pricing_plan_id":"cebpf4jnsgd1na2vs0mg"},{"bike_id":"d943c758-086f-4a7c-b718-b103076aef5c","system_id":"levelo_inurba_marseille","lat":43.24386,"lon":5.37058,"is_reserved":false,"is_disabled":false,"rental_uris":{"android":"levelo://app?vid=d943c758-086f-4a7c-b718-b103076aef5c","ios":"levelo://app?vid=d943c758-086f-4a7c-b718-b103076aef5c"},"vehicle_type_id":"4","last_reported":1734527923,"current_range_meters":16000,"station_id":"ce4bhhh2rcd13ifvqfk0","pricing_plan_id":"cebpf4jnsgd1na2vs0mg"},{"bike_id":"7f2d4ba9-f274-4f07-8b47-d21c5f4534c7","system_id":"levelo_inurba_marseille","lat":43.24539,"lon":5.39533,"is_reserved":false,"is_disabled":false,"rental_uris":{"android":"levelo://app?vid=7f2d4ba9-f274-4f07-8b47-d21c5f4534c7","ios":"levelo://app?vid=7f2d4ba9-f274-4f07-8b47-d21c5f4534c7"},"vehicle_type_id":"4","last_reported":1734527923,"current_range_meters":24000,"station_id":"ce4bhlp2rcd13ifvqgjg","pricing_plan_id":"cebpf4jnsgd1na2vs0mg"},{"bike_id":"a755b577-eccf-4159-b824-2c915d5ee264","system_id":"levelo_inurba_marseille","lat":43.29176,"lon":5.35817,"is_reserved":false,"is_disabled":false,"rental_uris":{"android":"levelo://app?vid=a755b577-eccf-4159-b824-2c915d5ee264","ios":"levelo://app?vid=a755b577-eccf-4159-b824-2c915d5ee264"},"vehicle_type_id":"4","last_reported":1734527923,"current_range_meters":38800,"station_id":"ce4bhb12rcd13ifvqel0","pricing_plan_id":"cebpf4jnsgd1na2vs0mg"},{"bike_id":"782bcbf2-b7de-4b04-bebc-aaa0329dd90c","system_id":"levelo_inurba_marseille","lat":43.23188,"lon":5.35565,"is_reserved":false,"is_disabled":false,"rental_uris":{"android":"levelo://app?vid=782bcbf2-b7de-4b04-bebc-aaa0329dd90c","ios":"levelo://app?vid=782bcbf2-b7de-4b04-bebc-aaa0329dd90c"},"vehicle_type_id":"4","last_reported":1734527923,"current_range_meters":38800,"station_id":"ce4bhu92rcd13ifvqi70","pricing_plan_id":"cebpf4jnsgd1na2vs0mg"},{"bike_id":"295c08c0-2dcf-43ad-b743-1d7797c40f1d","system_id":"levelo_inurba_marseille","lat":43.29167,"lon":5.37164,"is_reserved":false,"is_disabled":false,"rental_uris":{"android":"levelo://app?vid=295c08c0-2dcf-43ad-b743-1d7797c40f1d","ios":"levelo://app?vid=295c08c0-2dcf-43ad-b743-1d7797c40f1d"},"vehicle_type_id":"4","last_reported":1734527923,"current_range_meters":14000,"station_id":"ce4bha92rcd13ifvqeh0","pricing_plan_id":"cebpf4jnsgd1na2vs0mg"},{"bike_id":"289faeb9-a11a-47c1-978b-f5d918e76896","system_id":"levelo_inurba_marseille","lat":43.33749,"lon":5.37457,"is_reserved":false,"is_disabled":false,"rental_uris":{"android":"levelo://app?vid=289faeb9-a11a-47c1-978b-f5d918e76896","ios":"levelo://app?vid=289faeb9-a11a-47c1-978b-f5d918e76896"},"vehicle_type_id":"4","last_reported":1734527923,"current_range_meters":38000,"station_id":"","pricing_plan_id":"cebpf4jnsgd1na2vs0mg"},{"bike_id":"48ad1634-b390-4340-8eea-6858e4eb6dba","system_id":"levelo_inurba_marseille","lat":43.29709,"lon":5.37691,"is_reserved":false,"is_disabled":false,"rental_uris":{"android":"levelo://app?vid=48ad1634-b390-4340-8eea-6858e4eb6dba","ios":"levelo://app?vid=48ad1634-b390-4340-8eea-6858e4eb6dba"},"vehicle_type_id":"4","last_reported":1734527923,"current_range_meters":9600,"station_id":"ce4bgkh2rcd13ifvqbl0","pricing_plan_id":"cebpf4jnsgd1na2vs0mg"},{"bike_id":"4590026f-4d8e-4294-8f2a-8d70931cbcb5","system_id":"levelo_inurba_marseille","lat":43.28481,"lon":5.38429,"is_reserved":false,"is_disabled":true,"rental_uris":{"android":"levelo://app?vid=4590026f-4d8e-4294-8f2a-8d70931cbcb5","ios":"levelo://app?vid=4590026f-4d8e-4294-8f2a-8d70931cbcb5"},"vehicle_type_id":"4","last_reported":1734527923,"current_range_meters":31200,"station_id":"ce4bh512rcd13ifvqe3g","pricing_plan_id":"cebpf4jnsgd1na2vs0mg"},{"bike_id":"96ff88dc-8cf7-4b0f-a345-fa00220da932","system_id":"levelo_inurba_marseille","lat":43.27413,"lon":5.42395,"is_reserved":false,"is_disabled":true,"rental_uris":{"android":"levelo://app?vid=96ff88dc-8cf7-4b0f-a345-fa00220da932","ios":"levelo://app?vid=96ff88dc-8cf7-4b0f-a345-fa00220da932"},"vehicle_type_id":"4","last_reported":1734527923,"current_range_meters":0,"station_id":"","pricing_plan_id":"cebpf4jnsgd1na2vs0mg"},{"bike_id":"d00bc43f-8022-4331-8f54-689465f115f8","system_id":"levelo_inurba_marseille","lat":43.24072,"lon":5.37758,"is_reserved":false,"is_disabled":false,"rental_uris":{"android":"levelo://app?vid=d00bc43f-8022-4331-8f54-689465f115f8","ios":"levelo://app?vid=d00bc43f-8022-4331-8f54-689465f115f8"},"vehicle_type_id":"4","last_reported":1734527923,"current_range_meters":10000,"station_id":"ce4bhnp2rcd13ifvqgvg","pricing_plan_id":"cebpf4jnsgd1na2vs0mg"},{"bike_id":"822408b5-93b6-4b7e-a2e4-a91cfb6d79ad","system_id":"levelo_inurba_marseille","lat":43.2418,"lon":5.39721,"is_reserved":false,"is_disabled":false,"rental_uris":{"android":"levelo://app?vid=822408b5-93b6-4b7e-a2e4-a91cfb6d79ad","ios":"levelo://app?vid=822408b5-93b6-4b7e-a2e4-a91cfb6d79ad"},"vehicle_type_id":"4","last_reported":1734527923,"current_range_meters":38800,"station_id":"ce4bhn12rcd13ifvqgpg","pricing_plan_id":"cebpf4jnsgd1na2vs0mg"},{"bike_id":"4c214852-20a3-4b60-b1d8-1760fd9da800","system_id":"levelo_inurba_marseille","lat":43.28709,"lon":5.37942,"is_reserved":false,"is_disabled":false,"rental_uris":{"android":"levelo://app?vid=4c214852-20a3-4b60-b1d8-1760fd9da800","ios":"levelo://app?vid=4c214852-20a3-4b60-b1d8-1760fd9da800"},"vehicle_type_id":"4","last_reported":1734527923,"current_range_meters":24400,"station_id":"ce4bh9p2rcd13ifvqec0","pricing_plan_id":"cebpf4jnsgd1na2vs0mg"},{"bike_id":"35d9085c-0b78-4f08-baff-4620b4fa72cd","system_id":"levelo_inurba_marseille","lat":43.30537,"lon":5.36535,"is_reserved":false,"is_disabled":false,"rental_uris":{"android":"levelo://app?vid=35d9085c-0b78-4f08-baff-4620b4fa72cd","ios":"levelo://app?vid=35d9085c-0b78-4f08-baff-4620b4fa72cd"},"vehicle_type_id":"4","last_reported":1734527923,"current_range_meters":6800,"station_id":"ce4bgs12rcd13ifvqcag","pricing_plan_id":"cebpf4jnsgd1na2vs0mg"},{"bike_id":"3cac09a2-2713-490b-8c0a-266cbe77d79a","system_id":"levelo_inurba_marseille","lat":43.25933,"lon":5.40911,"is_reserved":false,"is_disabled":false,"rental_uris":{"android":"levelo://app?vid=3cac09a2-2713-490b-8c0a-266cbe77d79a","ios":"levelo://app?vid=3cac09a2-2713-490b-8c0a-266cbe77d79a"},"vehicle_type_id":"4","last_reported":1734527923,"current_range_meters":28000,"station_id":"ce4bhm92rcd13ifvqglg","pricing_plan_id":"cebpf4jnsgd1na2vs0mg"},{"bike_id":"37a3e5bf-6f53-427b-9a89-d96d119f0635","system_id":"levelo_inurba_marseille","lat":43.28414,"lon":5.34998,"is_reserved":false,"is_disabled":false,"rental_uris":{"android":"levelo://app?vid=37a3e5bf-6f53-427b-9a89-d96d119f0635","ios":"levelo://app?vid=37a3e5bf-6f53-427b-9a89-d96d119f0635"},"vehicle_type_id":"4","last_reported":1734527923,"current_range_meters":6400,"station_id":"ce4bhbh2rcd13ifvqepg","pricing_plan_id":"cebpf4jnsgd1na2vs0mg"},{"bike_id":"e5e195d4-401f-47b5-ba3c-a395c7187273","system_id":"levelo_inurba_marseille","lat":43.27991,"lon":5.40014,"is_reserved":false,"is_disabled":false,"rental_uris":{"android":"levelo://app?vid=e5e195d4-401f-47b5-ba3c-a395c7187273","ios":"levelo://app?vid=e5e195d4-401f-47b5-ba3c-a395c7187273"},"vehicle_type_id":"4","last_reported":1734527923,"current_range_meters":22800,"station_id":"ce4bho92rcd13ifvqh4g","pricing_plan_id":"cebpf4jnsgd1na2vs0mg"},{"bike_id":"43c79950-99b6-48d7-b4a0-acc516bb02b9","system_id":"levelo_inurba_marseille","lat":43.28614,"lon":5.35108,"is_reserved":false,"is_disabled":false,"rental_uris":{"android":"levelo://app?vid=43c79950-99b6-48d7-b4a0-acc516bb02b9","ios":"levelo://app?vid=43c79950-99b6-48d7-b4a0-acc516bb02b9"},"vehicle_type_id":"4","last_reported":1734527923,"current_range_meters":24800,"station_id":"ce4bhch2rcd13ifvqeug","pricing_plan_id":"cebpf4jnsgd1na2vs0mg"},{"bike_id":"ca9ceabb-4da9-4ab2-8aa8-751038806a66","system_id":"levelo_inurba_marseille","lat":43.29616,"lon":5.37719,"is_reserved":false,"is_disabled":false,"rental_uris":{"android":"levelo://app?vid=ca9ceabb-4da9-4ab2-8aa8-751038806a66","ios":"levelo://app?vid=ca9ceabb-4da9-4ab2-8aa8-751038806a66"},"vehicle_type_id":"4","last_reported":1734527923,"current_range_meters":38800,"station_id":"ce4bgi92rcd13ifvqb90","pricing_plan_id":"cebpf4jnsgd1na2vs0mg"},{"bike_id":"69e54944-8319-4b21-b65a-2776ebe008c8","system_id":"levelo_inurba_marseille","lat":43.24547,"lon":5.39526,"is_reserved":false,"is_disabled":false,"rental_uris":{"android":"levelo://app?vid=69e54944-8319-4b21-b65a-2776ebe008c8","ios":"levelo://app?vid=69e54944-8319-4b21-b65a-2776ebe008c8"},"vehicle_type_id":"4","last_reported":1734527923,"current_range_meters":34000,"station_id":"ce4bhlp2rcd13ifvqgjg","pricing_plan_id":"cebpf4jnsgd1na2vs0mg"},{"bike_id":"42737d0c-0e46-4b13-8648-18b857f9bfcb","system_id":"levelo_inurba_marseille","lat":43.26054,"lon":5.39419,"is_reserved":false,"is_disabled":false,"rental_uris":{"android":"levelo://app?vid=42737d0c-0e46-4b13-8648-18b857f9bfcb","ios":"levelo://app?vid=42737d0c-0e46-4b13-8648-18b857f9bfcb"},"vehicle_type_id":"4","last_reported":1734527923,"current_range_meters":19200,"station_id":"ce4bhh92rcd13ifvqfj0","pricing_plan_id":"cebpf4jnsgd1na2vs0mg"},{"bike_id":"1f088edd-e254-4389-aab0-8bb3edc2dc9e","system_id":"levelo_inurba_marseille","lat":43.32466,"lon":5.36581,"is_reserved":false,"is_disabled":false,"rental_uris":{"android":"levelo://app?vid=1f088edd-e254-4389-aab0-8bb3edc2dc9e","ios":"levelo://app?vid=1f088edd-e254-4389-aab0-8bb3edc2dc9e"},"vehicle_type_id":"4","last_reported":1734527923,"current_range_meters":38800,"station_id":"ce4bhs12rcd13ifvqhvg","pricing_plan_id":"cebpf4jnsgd1na2vs0mg"},{"bike_id":"7eba5650-919d-4742-a1ec-5a9b429580ae","system_id":"levelo_inurba_marseille","lat":43.2841,"lon":5.35,"is_reserved":false,"is_disabled":false,"rental_uris":{"android":"levelo://app?vid=7eba5650-919d-4742-a1ec-5a9b429580ae","ios":"levelo://app?vid=7eba5650-919d-4742-a1ec-5a9b429580ae"},"vehicle_type_id":"4","last_reported":1734527923,"current_range_meters":27600,"station_id":"ce4bhbh2rcd13ifvqepg","pricing_plan_id":"cebpf4jnsgd1na2vs0mg"},{"bike_id":"333aa382-91bd-401e-8a2d-c42eb56f0e06","system_id":"levelo_inurba_marseille","lat":43.27809,"lon":5.40706,"is_reserved":false,"is_disabled":false,"rental_uris":{"android":"levelo://app?vid=333aa382-91bd-401e-8a2d-c42eb56f0e06","ios":"levelo://app?vid=333aa382-91bd-401e-8a2d-c42eb56f0e06"},"vehicle_type_id":"4","last_reported":1734527923,"current_range_meters":39200,"station_id":"ce4bhnh2rcd13ifvqgtg","pricing_plan_id":"cebpf4jnsgd1na2vs0mg"},{"bike_id":"f10d2a98-ac50-40b6-bb90-af00a5b4e582","system_id":"levelo_inurba_marseille","lat":43.25864,"lon":5.39899,"is_reserved":false,"is_disabled":false,"rental_uris":{"android":"levelo://app?vid=f10d2a98-ac50-40b6-bb90-af00a5b4e582","ios":"levelo://app?vid=f10d2a98-ac50-40b6-bb90-af00a5b4e582"},"vehicle_type_id":"4","last_reported":1734527923,"current_range_meters":27600,"station_id":"ce4bhl92rcd13ifvqghg","pricing_plan_id":"cebpf4jnsgd1na2vs0mg"},{"bike_id":"759effe3-f7c0-45be-82b1-2cb47f6a02b1","system_id":"levelo_inurba_marseille","lat":43.25864,"lon":5.39898,"is_reserved":false,"is_disabled":false,"rental_uris":{"android":"levelo://app?vid=759effe3-f7c0-45be-82b1-2cb47f6a02b1","ios":"levelo://app?vid=759effe3-f7c0-45be-82b1-2cb47f6a02b1"},"vehicle_type_id":"4","last_reported":1734527923,"current_range_meters":6800,"station_id":"ce4bhl92rcd13ifvqghg","pricing_plan_id":"cebpf4jnsgd1na2vs0mg"},{"bike_id":"c7b69568-7a78-440f-b70f-d8bf1dc5a75e","system_id":"levelo_inurba_marseille","lat":43.29839,"lon":5.36271,"is_reserved":false,"is_disabled":false,"rental_uris":{"android":"levelo://app?vid=c7b69568-7a78-440f-b70f-d8bf1dc5a75e","ios":"levelo://app?vid=c7b69568-7a78-440f-b70f-d8bf1dc5a75e"},"vehicle_type_id":"4","last_reported":1734527923,"current_range_meters":38800,"station_id":"ce4bgpp2rcd13ifvqc3g","pricing_plan_id":"cebpf4jnsgd1na2vs0mg"},{"bike_id":"e158be4e-b44b-4160-b2dc-3d1a02b1945c","system_id":"levelo_inurba_marseille","lat":43.28714,"lon":5.37956,"is_reserved":false,"is_disabled":false,"rental_uris":{"android":"levelo://app?vid=e158be4e-b44b-4160-b2dc-3d1a02b1945c","ios":"levelo://app?vid=e158be4e-b44b-4160-b2dc-3d1a02b1945c"},"vehicle_type_id":"4","last_reported":1734527923,"current_range_meters":27600,"station_id":"ce4bh9p2rcd13ifvqec0","pricing_plan_id":"cebpf4jnsgd1na2vs0mg"},{"bike_id":"986b9323-8bca-4bf7-9ba5-cc9b84440a85","system_id":"levelo_inurba_marseille","lat":43.27917,"lon":5.3957,"is_reserved":false,"is_disabled":false,"rental_uris":{"android":"levelo://app?vid=986b9323-8bca-4bf7-9ba5-cc9b84440a85","ios":"levelo://app?vid=986b9323-8bca-4bf7-9ba5-cc9b84440a85"},"vehicle_type_id":"4","last_reported":1734527923,"current_range_meters":37600,"station_id":"ce4bhf92rcd13ifvqf40","pricing_plan_id":"cebpf4jnsgd1na2vs0mg"},{"bike_id":"4c8b14c1-a279-4e3d-b684-d6545dbf4d61","system_id":"levelo_inurba_marseille","lat":43.31095,"lon":5.37587,"is_reserved":false,"is_disabled":false,"rental_uris":{"android":"levelo://app?vid=4c8b14c1-a279-4e3d-b684-d6545dbf4d61","ios":"levelo://app?vid=4c8b14c1-a279-4e3d-b684-d6545dbf4d61"},"vehicle_type_id":"4","last_reported":1734527923,"current_range_meters":33600,"station_id":"","pricing_plan_id":"cebpf4jnsgd1na2vs0mg"},{"bike_id":"d17ff34e-8aff-4792-ae04-1e7d554545e9","system_id":"levelo_inurba_marseille","lat":43.305357,"lon":5.3671,"is_reserved":false,"is_disabled":false,"rental_uris":{"android":"levelo://app?vid=d17ff34e-8aff-4792-ae04-1e7d554545e9","ios":"levelo://app?vid=d17ff34e-8aff-4792-ae04-1e7d554545e9"},"vehicle_type_id":"4","last_reported":1734527923,"current_range_meters":22400,"station_id":"ce4bgrp2rcd13ifvqc9g","pricing_plan_id":"cebpf4jnsgd1na2vs0mg"},{"bike_id":"2c35d799-8445-41f0-9531-f1ab81d4f0aa","system_id":"levelo_inurba_marseille","lat":43.28427,"lon":5.37534,"is_reserved":false,"is_disabled":true,"rental_uris":{"android":"levelo://app?vid=2c35d799-8445-41f0-9531-f1ab81d4f0aa","ios":"levelo://app?vid=2c35d799-8445-41f0-9531-f1ab81d4f0aa"},"vehicle_type_id":"4","last_reported":1734527923,"current_range_meters":30800,"station_id":"ce4bh412rcd13ifvqds0","pricing_plan_id":"cebpf4jnsgd1na2vs0mg"},{"bike_id":"e0c2eddf-4ba9-4754-b0b5-efd80badee74","system_id":"levelo_inurba_marseille","lat":43.25861,"lon":5.39395,"is_reserved":false,"is_disabled":true,"rental_uris":{"android":"levelo://app?vid=e0c2eddf-4ba9-4754-b0b5-efd80badee74","ios":"levelo://app?vid=e0c2eddf-4ba9-4754-b0b5-efd80badee74"},"vehicle_type_id":"4","last_reported":1734527923,"current_range_meters":800,"station_id":"","pricing_plan_id":"cebpf4jnsgd1na2vs0mg"},{"bike_id":"fc2c3daa-143d-41d7-8998-f7412d24e8e3","system_id":"levelo_inurba_marseille","lat":43.27996,"lon":5.41657,"is_reserved":false,"is_disabled":false,"rental_uris":{"android":"levelo://app?vid=fc2c3daa-143d-41d7-8998-f7412d24e8e3","ios":"levelo://app?vid=fc2c3daa-143d-41d7-8998-f7412d24e8e3"},"vehicle_type_id":"4","last_reported":1734527923,"current_range_meters":38800,"station_id":"ce4bho12rcd13ifvqh1g","pricing_plan_id":"cebpf4jnsgd1na2vs0mg"},{"bike_id":"7b377d1f-9911-40eb-a4aa-03ed7c53d23e","system_id":"levelo_inurba_marseille","lat":43.27938,"lon":5.41048,"is_reserved":false,"is_disabled":false,"rental_uris":{"android":"levelo://app?vid=7b377d1f-9911-40eb-a4aa-03ed7c53d23e","ios":"levelo://app?vid=7b377d1f-9911-40eb-a4aa-03ed7c53d23e"},"vehicle_type_id":"4","last_reported":1734527923,"current_range_meters":28000,"station_id":"ce4bhnp2rcd13ifvqh0g","pricing_plan_id":"cebpf4jnsgd1na2vs0mg"},{"bike_id":"ff6c6cb2-193d-4cda-989d-8ff0aca58427","system_id":"levelo_inurba_marseille","lat":43.30775,"lon":5.37656,"is_reserved":false,"is_disabled":false,"rental_uris":{"android":"levelo://app?vid=ff6c6cb2-193d-4cda-989d-8ff0aca58427","ios":"levelo://app?vid=ff6c6cb2-193d-4cda-989d-8ff0aca58427"},"vehicle_type_id":"4","last_reported":1734527923,"current_range_meters":7200,"station_id":"ce4bgv92rcd13ifvqcq0","pricing_plan_id":"cebpf4jnsgd1na2vs0mg"},{"bike_id":"68907ca0-038a-4705-886b-af6c122ac485","system_id":"levelo_inurba_marseille","lat":43.23189,"lon":5.39984,"is_reserved":false,"is_disabled":false,"rental_uris":{"android":"levelo://app?vid=68907ca0-038a-4705-886b-af6c122ac485","ios":"levelo://app?vid=68907ca0-038a-4705-886b-af6c122ac485"},"vehicle_type_id":"4","last_reported":1734527923,"current_range_meters":38800,"station_id":"ce4bhn12rcd13ifvqgqg","pricing_plan_id":"cebpf4jnsgd1na2vs0mg"},{"bike_id":"5be8cabd-d236-4566-a1ee-f54a70bf770a","system_id":"levelo_inurba_marseille","lat":43.23961,"lon":5.36642,"is_reserved":false,"is_disabled":false,"rental_uris":{"android":"levelo://app?vid=5be8cabd-d236-4566-a1ee-f54a70bf770a","ios":"levelo://app?vid=5be8cabd-d236-4566-a1ee-f54a70bf770a"},"vehicle_type_id":"4","last_reported":1734527923,"current_range_meters":34000,"station_id":"ce4bhi12rcd13ifvqfp0","pricing_plan_id":"cebpf4jnsgd1na2vs0mg"},{"bike_id":"340f006d-82bb-40b7-aa81-c62b37c90dc2","system_id":"levelo_inurba_marseille","lat":43.26941,"lon":5.40266,"is_reserved":false,"is_disabled":false,"rental_uris":{"android":"levelo://app?vid=340f006d-82bb-40b7-aa81-c62b37c90dc2","ios":"levelo://app?vid=340f006d-82bb-40b7-aa81-c62b37c90dc2"},"vehicle_type_id":"4","last_reported":1734527923,"current_range_meters":34000,"station_id":"cjm6bp8fraef2m0cb0m0","pricing_plan_id":"cebpf4jnsgd1na2vs0mg"},{"bike_id":"84e6bd06-55de-47a8-9070-b6a74c87180d","system_id":"levelo_inurba_marseille","lat":43.29432,"lon":5.39749,"is_reserved":false,"is_disabled":false,"rental_uris":{"android":"levelo://app?vid=84e6bd06-55de-47a8-9070-b6a74c87180d","ios":"levelo://app?vid=84e6bd06-55de-47a8-9070-b6a74c87180d"},"vehicle_type_id":"4","last_reported":1734527923,"current_range_meters":29600,"station_id":"ce4bh3h2rcd13ifvqdo0","pricing_plan_id":"cebpf4jnsgd1na2vs0mg"},{"bike_id":"71c28a5d-963d-4e47-84b6-d67f9a77c7e2","system_id":"levelo_inurba_marseille","lat":43.29028,"lon":5.35924,"is_reserved":false,"is_disabled":false,"rental_uris":{"android":"levelo://app?vid=71c28a5d-963d-4e47-84b6-d67f9a77c7e2","ios":"levelo://app?vid=71c28a5d-963d-4e47-84b6-d67f9a77c7e2"},"vehicle_type_id":"4","last_reported":1734527923,"current_range_meters":35200,"station_id":"ce4bha92rcd13ifvqeg0","pricing_plan_id":"cebpf4jnsgd1na2vs0mg"},{"bike_id":"4efe75ef-fb5c-4c18-a2eb-e0bf95e2ef11","system_id":"levelo_inurba_marseille","lat":43.28272,"lon":5.35071,"is_reserved":false,"is_disabled":false,"rental_uris":{"android":"levelo://app?vid=4efe75ef-fb5c-4c18-a2eb-e0bf95e2ef11","ios":"levelo://app?vid=4efe75ef-fb5c-4c18-a2eb-e0bf95e2ef11"},"vehicle_type_id":"4","last_reported":1734527923,"current_range_meters":18800,"station_id":"ce4bhbp2rcd13ifvqerg","pricing_plan_id":"cebpf4jnsgd1na2vs0mg"},{"bike_id":"5d5d6398-1536-408f-a77e-f95a6f0f09ea","system_id":"levelo_inurba_marseille","lat":43.30409,"lon":5.41287,"is_reserved":false,"is_disabled":false,"rental_uris":{"android":"levelo://app?vid=5d5d6398-1536-408f-a77e-f95a6f0f09ea","ios":"levelo://app?vid=5d5d6398-1536-408f-a77e-f95a6f0f09ea"},"vehicle_type_id":"4","last_reported":1734527923,"current_range_meters":38800,"station_id":"ce4bhop2rcd13ifvqh8g","pricing_plan_id":"cebpf4jnsgd1na2vs0mg"},{"bike_id":"bb337245-7c41-4671-900b-a4d92ae562c6","system_id":"levelo_inurba_marseille","lat":43.29535,"lon":5.39014,"is_reserved":false,"is_disabled":true,"rental_uris":{"android":"levelo://app?vid=bb337245-7c41-4671-900b-a4d92ae562c6","ios":"levelo://app?vid=bb337245-7c41-4671-900b-a4d92ae562c6"},"vehicle_type_id":"4","last_reported":1734527923,"current_range_meters":400,"station_id":"ce4bh3p2rcd13ifvqdp0","pricing_plan_id":"cebpf4jnsgd1na2vs0mg"},{"bike_id":"fd7ec924-3fc6-4d0b-b79d-1105de873a24","system_id":"levelo_inurba_marseille","lat":43.29222,"lon":5.36038,"is_reserved":false,"is_disabled":false,"rental_uris":{"android":"levelo://app?vid=fd7ec924-3fc6-4d0b-b79d-1105de873a24","ios":"levelo://app?vid=fd7ec924-3fc6-4d0b-b79d-1105de873a24"},"vehicle_type_id":"4","last_reported":1734527923,"current_range_meters":36800,"station_id":"ce4bhbh2rcd13ifvqeqg","pricing_plan_id":"cebpf4jnsgd1na2vs0mg"},{"bike_id":"6f7acd99-77cb-462a-9f2d-c4e504bcc16a","system_id":"levelo_inurba_marseille","lat":43.231822,"lon":5.399854,"is_reserved":false,"is_disabled":false,"rental_uris":{"android":"levelo://app?vid=6f7acd99-77cb-462a-9f2d-c4e504bcc16a","ios":"levelo://app?vid=6f7acd99-77cb-462a-9f2d-c4e504bcc16a"},"vehicle_type_id":"4","last_reported":1734527923,"current_range_meters":38400,"station_id":"ce4bhn12rcd13ifvqgqg","pricing_plan_id":"cebpf4jnsgd1na2vs0mg"},{"bike_id":"c708d712-54b0-4de6-9e53-b5d81ad64177","system_id":"levelo_inurba_marseille","lat":43.28938,"lon":5.36384,"is_reserved":false,"is_disabled":false,"rental_uris":{"android":"levelo://app?vid=c708d712-54b0-4de6-9e53-b5d81ad64177","ios":"levelo://app?vid=c708d712-54b0-4de6-9e53-b5d81ad64177"},"vehicle_type_id":"4","last_reported":1734527923,"current_range_meters":17200,"station_id":"ce4bhc92rcd13ifvqetg","pricing_plan_id":"cebpf4jnsgd1na2vs0mg"},{"bike_id":"34702110-0b0f-41e3-bc2a-1c17da87548e","system_id":"levelo_inurba_marseille","lat":43.29626,"lon":5.37166,"is_reserved":false,"is_disabled":false,"rental_uris":{"android":"levelo://app?vid=34702110-0b0f-41e3-bc2a-1c17da87548e","ios":"levelo://app?vid=34702110-0b0f-41e3-bc2a-1c17da87548e"},"vehicle_type_id":"4","last_reported":1734527923,"current_range_meters":36400,"station_id":"ce4bgnh2rcd13ifvqc0g","pricing_plan_id":"cebpf4jnsgd1na2vs0mg"},{"bike_id":"859e7849-50b6-4290-a99c-71e1ce0df12c","system_id":"levelo_inurba_marseille","lat":43.30528,"lon":5.36568,"is_reserved":false,"is_disabled":false,"rental_uris":{"android":"levelo://app?vid=859e7849-50b6-4290-a99c-71e1ce0df12c","ios":"levelo://app?vid=859e7849-50b6-4290-a99c-71e1ce0df12c"},"vehicle_type_id":"4","last_reported":1734527923,"current_range_meters":25600,"station_id":"ce4bgs12rcd13ifvqcag","pricing_plan_id":"cebpf4jnsgd1na2vs0mg"},{"bike_id":"718c9f14-9215-4ed1-9c03-b172b6d8ceb4","system_id":"levelo_inurba_marseille","lat":43.30879,"lon":5.37194,"is_reserved":false,"is_disabled":false,"rental_uris":{"android":"levelo://app?vid=718c9f14-9215-4ed1-9c03-b172b6d8ceb4","ios":"levelo://app?vid=718c9f14-9215-4ed1-9c03-b172b6d8ceb4"},"vehicle_type_id":"4","last_reported":1734527923,"current_range_meters":19200,"station_id":"ce4bguh2rcd13ifvqckg","pricing_plan_id":"cebpf4jnsgd1na2vs0mg"},{"bike_id":"343b5da7-dd9d-4ef0-b213-31acde6646e0","system_id":"levelo_inurba_marseille","lat":43.26785,"lon":5.39417,"is_reserved":false,"is_disabled":false,"rental_uris":{"android":"levelo://app?vid=343b5da7-dd9d-4ef0-b213-31acde6646e0","ios":"levelo://app?vid=343b5da7-dd9d-4ef0-b213-31acde6646e0"},"vehicle_type_id":"4","last_reported":1734527923,"current_range_meters":28400,"station_id":"ce4bhh12rcd13ifvqfg0","pricing_plan_id":"cebpf4jnsgd1na2vs0mg"},{"bike_id":"5373bdd8-c0a1-4215-a70d-cdcb9afc47c1","system_id":"levelo_inurba_marseille","lat":43.30144,"lon":5.37422,"is_reserved":false,"is_disabled":false,"rental_uris":{"android":"levelo://app?vid=5373bdd8-c0a1-4215-a70d-cdcb9afc47c1","ios":"levelo://app?vid=5373bdd8-c0a1-4215-a70d-cdcb9afc47c1"},"vehicle_type_id":"4","last_reported":1734527923,"current_range_meters":37600,"station_id":"ce4bgs92rcd13ifvqcc0","pricing_plan_id":"cebpf4jnsgd1na2vs0mg"},{"bike_id":"f20cb69f-0424-4e9d-96eb-7b2e95ba4516","system_id":"levelo_inurba_marseille","lat":43.30883,"lon":5.37194,"is_reserved":false,"is_disabled":false,"rental_uris":{"android":"levelo://app?vid=f20cb69f-0424-4e9d-96eb-7b2e95ba4516","ios":"levelo://app?vid=f20cb69f-0424-4e9d-96eb-7b2e95ba4516"},"vehicle_type_id":"4","last_reported":1734527923,"current_range_meters":35200,"station_id":"ce4bguh2rcd13ifvqckg","pricing_plan_id":"cebpf4jnsgd1na2vs0mg"},{"bike_id":"3adf4377-ebd6-4934-90c6-cbbabf9a6e47","system_id":"levelo_inurba_marseille","lat":43.30134,"lon":5.37436,"is_reserved":false,"is_disabled":false,"rental_uris":{"android":"levelo://app?vid=3adf4377-ebd6-4934-90c6-cbbabf9a6e47","ios":"levelo://app?vid=3adf4377-ebd6-4934-90c6-cbbabf9a6e47"},"vehicle_type_id":"4","last_reported":1734527923,"current_range_meters":26800,"station_id":"ce4bgs92rcd13ifvqcc0","pricing_plan_id":"cebpf4jnsgd1na2vs0mg"},{"bike_id":"eba901e5-0847-4fc0-b2b6-9eb1834c3e7a","system_id":"levelo_inurba_marseille","lat":43.29545,"lon":5.42288,"is_reserved":false,"is_disabled":true,"rental_uris":{"android":"levelo://app?vid=eba901e5-0847-4fc0-b2b6-9eb1834c3e7a","ios":"levelo://app?vid=eba901e5-0847-4fc0-b2b6-9eb1834c3e7a"},"vehicle_type_id":"4","last_reported":1734527923,"current_range_meters":0,"station_id":"ce4bhph2rcd13ifvqhdg","pricing_plan_id":"cebpf4jnsgd1na2vs0mg"},{"bike_id":"345d80f6-1525-4241-80c9-c6920b13eab2","system_id":"levelo_inurba_marseille","lat":43.29534,"lon":5.38549,"is_reserved":false,"is_disabled":true,"rental_uris":{"android":"levelo://app?vid=345d80f6-1525-4241-80c9-c6920b13eab2","ios":"levelo://app?vid=345d80f6-1525-4241-80c9-c6920b13eab2"},"vehicle_type_id":"4","last_reported":1734527923,"current_range_meters":14000,"station_id":"ce4bgih2rcd13ifvqba0","pricing_plan_id":"cebpf4jnsgd1na2vs0mg"},{"bike_id":"7bddb29c-b1d3-47b1-b172-7b3aa6dd3550","system_id":"levelo_inurba_marseille","lat":43.30145,"lon":5.37417,"is_reserved":false,"is_disabled":false,"rental_uris":{"android":"levelo://app?vid=7bddb29c-b1d3-47b1-b172-7b3aa6dd3550","ios":"levelo://app?vid=7bddb29c-b1d3-47b1-b172-7b3aa6dd3550"},"vehicle_type_id":"4","last_reported":1734527923,"current_range_meters":12000,"station_id":"ce4bgs92rcd13ifvqcc0","pricing_plan_id":"cebpf4jnsgd1na2vs0mg"},{"bike_id":"26b6440a-21e0-4853-9bdd-d075bf946cb1","system_id":"levelo_inurba_marseille","lat":43.28992,"lon":5.38133,"is_reserved":false,"is_disabled":false,"rental_uris":{"android":"levelo://app?vid=26b6440a-21e0-4853-9bdd-d075bf946cb1","ios":"levelo://app?vid=26b6440a-21e0-4853-9bdd-d075bf946cb1"},"vehicle_type_id":"4","last_reported":1734527923,"current_range_meters":37600,"station_id":"ce4bh4p2rcd13ifvqe1g","pricing_plan_id":"cebpf4jnsgd1na2vs0mg"},{"bike_id":"27fb8d27-d207-4944-922f-ef21125b4454","system_id":"levelo_inurba_marseille","lat":43.268,"lon":5.40271,"is_reserved":false,"is_disabled":false,"rental_uris":{"android":"levelo://app?vid=27fb8d27-d207-4944-922f-ef21125b4454","ios":"levelo://app?vid=27fb8d27-d207-4944-922f-ef21125b4454"},"vehicle_type_id":"4","last_reported":1734527923,"current_range_meters":21600,"station_id":"ce501612rcd8frsf0b60","pricing_plan_id":"cebpf4jnsgd1na2vs0mg"},{"bike_id":"e76713dd-0332-4434-8c79-2688e85d546a","system_id":"levelo_inurba_marseille","lat":43.30539,"lon":5.36527,"is_reserved":false,"is_disabled":false,"rental_uris":{"android":"levelo://app?vid=e76713dd-0332-4434-8c79-2688e85d546a","ios":"levelo://app?vid=e76713dd-0332-4434-8c79-2688e85d546a"},"vehicle_type_id":"4","last_reported":1734527923,"current_range_meters":22800,"station_id":"ce4bgs12rcd13ifvqcag","pricing_plan_id":"cebpf4jnsgd1na2vs0mg"},{"bike_id":"a3cf41a4-697d-4bf7-a14d-7b5478677bb7","system_id":"levelo_inurba_marseille","lat":43.30782,"lon":5.37648,"is_reserved":false,"is_disabled":false,"rental_uris":{"android":"levelo://app?vid=a3cf41a4-697d-4bf7-a14d-7b5478677bb7","ios":"levelo://app?vid=a3cf41a4-697d-4bf7-a14d-7b5478677bb7"},"vehicle_type_id":"4","last_reported":1734527923,"current_range_meters":30000,"station_id":"ce4bgv92rcd13ifvqcq0","pricing_plan_id":"cebpf4jnsgd1na2vs0mg"},{"bike_id":"3f684ade-8ff8-412b-8c78-ba957e925730","system_id":"levelo_inurba_marseille","lat":43.3055,"lon":5.36707,"is_reserved":false,"is_disabled":false,"rental_uris":{"android":"levelo://app?vid=3f684ade-8ff8-412b-8c78-ba957e925730","ios":"levelo://app?vid=3f684ade-8ff8-412b-8c78-ba957e925730"},"vehicle_type_id":"4","last_reported":1734527923,"current_range_meters":28400,"station_id":"ce4bgrp2rcd13ifvqc9g","pricing_plan_id":"cebpf4jnsgd1na2vs0mg"},{"bike_id":"1c50754a-b301-46b3-bb46-221b69c1982f","system_id":"levelo_inurba_marseille","lat":43.26556,"lon":5.37283,"is_reserved":false,"is_disabled":false,"rental_uris":{"android":"levelo://app?vid=1c50754a-b301-46b3-bb46-221b69c1982f","ios":"levelo://app?vid=1c50754a-b301-46b3-bb46-221b69c1982f"},"vehicle_type_id":"4","last_reported":1734527923,"current_range_meters":28800,"station_id":"ce4bhg12rcd13ifvqf70","pricing_plan_id":"cebpf4jnsgd1na2vs0mg"},{"bike_id":"7d4763b3-e7e6-4cf3-a4b9-f695f3a81265","system_id":"levelo_inurba_marseille","lat":43.30638,"lon":5.401,"is_reserved":false,"is_disabled":false,"rental_uris":{"android":"levelo://app?vid=7d4763b3-e7e6-4cf3-a4b9-f695f3a81265","ios":"levelo://app?vid=7d4763b3-e7e6-4cf3-a4b9-f695f3a81265"},"vehicle_type_id":"4","last_reported":1734527923,"current_range_meters":8000,"station_id":"ce4bh112rcd13ifvqda0","pricing_plan_id":"cebpf4jnsgd1na2vs0mg"},{"bike_id":"71db3d93-6130-45e4-b1b2-7512ec026654","system_id":"levelo_inurba_marseille","lat":43.30072,"lon":5.37073,"is_reserved":false,"is_disabled":false,"rental_uris":{"android":"levelo://app?vid=71db3d93-6130-45e4-b1b2-7512ec026654","ios":"levelo://app?vid=71db3d93-6130-45e4-b1b2-7512ec026654"},"vehicle_type_id":"4","last_reported":1734527923,"current_range_meters":22000,"station_id":"ce4bgr92rcd13ifvqc7g","pricing_plan_id":"cebpf4jnsgd1na2vs0mg"},{"bike_id":"466a39d9-4513-4f2c-9bdf-d6c9ee74acfa","system_id":"levelo_inurba_marseille","lat":43.27996,"lon":5.41664,"is_reserved":false,"is_disabled":false,"rental_uris":{"android":"levelo://app?vid=466a39d9-4513-4f2c-9bdf-d6c9ee74acfa","ios":"levelo://app?vid=466a39d9-4513-4f2c-9bdf-d6c9ee74acfa"},"vehicle_type_id":"4","last_reported":1734527923,"current_range_meters":28400,"station_id":"ce4bho12rcd13ifvqh1g","pricing_plan_id":"cebpf4jnsgd1na2vs0mg"},{"bike_id":"8c2afbc4-2ba2-440a-b8a1-95b1e4dd4847","system_id":"levelo_inurba_marseille","lat":43.31993,"lon":5.38158,"is_reserved":false,"is_disabled":false,"rental_uris":{"android":"levelo://app?vid=8c2afbc4-2ba2-440a-b8a1-95b1e4dd4847","ios":"levelo://app?vid=8c2afbc4-2ba2-440a-b8a1-95b1e4dd4847"},"vehicle_type_id":"4","last_reported":1734527923,"current_range_meters":10800,"station_id":"ce4bhr12rcd13ifvqhpg","pricing_plan_id":"cebpf4jnsgd1na2vs0mg"},{"bike_id":"70a23328-6629-4f07-b203-ef843751eafc","system_id":"levelo_inurba_marseille","lat":43.27178,"lon":5.4099,"is_reserved":false,"is_disabled":false,"rental_uris":{"android":"levelo://app?vid=70a23328-6629-4f07-b203-ef843751eafc","ios":"levelo://app?vid=70a23328-6629-4f07-b203-ef843751eafc"},"vehicle_type_id":"4","last_reported":1734527923,"current_range_meters":25200,"station_id":"ce4bhl12rcd13ifvqgf0","pricing_plan_id":"cebpf4jnsgd1na2vs0mg"},{"bike_id":"87e7527d-4159-4d3d-bb20-627470efcb11","system_id":"levelo_inurba_marseille","lat":43.30629,"lon":5.40097,"is_reserved":false,"is_disabled":false,"rental_uris":{"android":"levelo://app?vid=87e7527d-4159-4d3d-bb20-627470efcb11","ios":"levelo://app?vid=87e7527d-4159-4d3d-bb20-627470efcb11"},"vehicle_type_id":"4","last_reported":1734527923,"current_range_meters":3600,"station_id":"ce4bh112rcd13ifvqda0","pricing_plan_id":"cebpf4jnsgd1na2vs0mg"},{"bike_id":"0c850f7e-75cb-4937-9e89-6cd94d964b1a","system_id":"levelo_inurba_marseille","lat":43.29198,"lon":5.35793,"is_reserved":false,"is_disabled":false,"rental_uris":{"android":"levelo://app?vid=0c850f7e-75cb-4937-9e89-6cd94d964b1a","ios":"levelo://app?vid=0c850f7e-75cb-4937-9e89-6cd94d964b1a"},"vehicle_type_id":"4","last_reported":1734527923,"current_range_meters":8400,"station_id":"ce4bhb12rcd13ifvqel0","pricing_plan_id":"cebpf4jnsgd1na2vs0mg"},{"bike_id":"2d9f4e58-aed4-42e5-b03f-7c067dbd464d","system_id":"levelo_inurba_marseille","lat":43.270682,"lon":5.422876,"is_reserved":false,"is_disabled":false,"rental_uris":{"android":"levelo://app?vid=2d9f4e58-aed4-42e5-b03f-7c067dbd464d","ios":"levelo://app?vid=2d9f4e58-aed4-42e5-b03f-7c067dbd464d"},"vehicle_type_id":"4","last_reported":1734527923,"current_range_meters":38800,"station_id":"ce4bhk92rcd13ifvqgb0","pricing_plan_id":"cebpf4jnsgd1na2vs0mg"},{"bike_id":"704d4248-6357-4fd8-83c6-bc314b5b987f","system_id":"levelo_inurba_marseille","lat":43.30077,"lon":5.39083,"is_reserved":false,"is_disabled":false,"rental_uris":{"android":"levelo://app?vid=704d4248-6357-4fd8-83c6-bc314b5b987f","ios":"levelo://app?vid=704d4248-6357-4fd8-83c6-bc314b5b987f"},"vehicle_type_id":"4","last_reported":1734527923,"current_range_meters":36400,"station_id":"ce4bh192rcd13ifvqdb0","pricing_plan_id":"cebpf4jnsgd1na2vs0mg"},{"bike_id":"882de910-9b3d-43e3-b04c-ac39dcd38f96","system_id":"levelo_inurba_marseille","lat":43.30545,"lon":5.36707,"is_reserved":false,"is_disabled":false,"rental_uris":{"android":"levelo://app?vid=882de910-9b3d-43e3-b04c-ac39dcd38f96","ios":"levelo://app?vid=882de910-9b3d-43e3-b04c-ac39dcd38f96"},"vehicle_type_id":"4","last_reported":1734527923,"current_range_meters":38800,"station_id":"ce4bgrp2rcd13ifvqc9g","pricing_plan_id":"cebpf4jnsgd1na2vs0mg"},{"bike_id":"4e24cd74-c1ed-48e3-ae04-94fae1db75bb","system_id":"levelo_inurba_marseille","lat":43.2707,"lon":5.42284,"is_reserved":false,"is_disabled":false,"rental_uris":{"android":"levelo://app?vid=4e24cd74-c1ed-48e3-ae04-94fae1db75bb","ios":"levelo://app?vid=4e24cd74-c1ed-48e3-ae04-94fae1db75bb"},"vehicle_type_id":"4","last_reported":1734527923,"current_range_meters":28800,"station_id":"ce4bhk92rcd13ifvqgb0","pricing_plan_id":"cebpf4jnsgd1na2vs0mg"},{"bike_id":"7e876e85-730f-4bb1-8e78-bc65c4d6fe75","system_id":"levelo_inurba_marseille","lat":43.29037,"lon":5.35926,"is_reserved":false,"is_disabled":false,"rental_uris":{"android":"levelo://app?vid=7e876e85-730f-4bb1-8e78-bc65c4d6fe75","ios":"levelo://app?vid=7e876e85-730f-4bb1-8e78-bc65c4d6fe75"},"vehicle_type_id":"4","last_reported":1734527923,"current_range_meters":26800,"station_id":"ce4bha92rcd13ifvqeg0","pricing_plan_id":"cebpf4jnsgd1na2vs0mg"},{"bike_id":"1888c8f6-a868-4b4a-9aa7-dd8f76e5b3a3","system_id":"levelo_inurba_marseille","lat":43.28459,"lon":5.35895,"is_reserved":false,"is_disabled":false,"rental_uris":{"android":"levelo://app?vid=1888c8f6-a868-4b4a-9aa7-dd8f76e5b3a3","ios":"levelo://app?vid=1888c8f6-a868-4b4a-9aa7-dd8f76e5b3a3"},"vehicle_type_id":"4","last_reported":1734527923,"current_range_meters":30400,"station_id":"ce4bhah2rcd13ifvqei0","pricing_plan_id":"cebpf4jnsgd1na2vs0mg"},{"bike_id":"9e380089-e529-4d61-873d-819e7adc3efa","system_id":"levelo_inurba_marseille","lat":43.298423,"lon":5.3627,"is_reserved":false,"is_disabled":false,"rental_uris":{"android":"levelo://app?vid=9e380089-e529-4d61-873d-819e7adc3efa","ios":"levelo://app?vid=9e380089-e529-4d61-873d-819e7adc3efa"},"vehicle_type_id":"4","last_reported":1734527923,"current_range_meters":29600,"station_id":"ce4bgpp2rcd13ifvqc3g","pricing_plan_id":"cebpf4jnsgd1na2vs0mg"},{"bike_id":"0e61b8dd-d36b-4d72-a811-0c22f38b7106","system_id":"levelo_inurba_marseille","lat":43.29614,"lon":5.37725,"is_reserved":false,"is_disabled":false,"rental_uris":{"android":"levelo://app?vid=0e61b8dd-d36b-4d72-a811-0c22f38b7106","ios":"levelo://app?vid=0e61b8dd-d36b-4d72-a811-0c22f38b7106"},"vehicle_type_id":"4","last_reported":1734527923,"current_range_meters":8000,"station_id":"ce4bgi92rcd13ifvqb90","pricing_plan_id":"cebpf4jnsgd1na2vs0mg"},{"bike_id":"a431eb71-5ef2-4969-a055-e8026c7f5ae4","system_id":"levelo_inurba_marseille","lat":43.27815,"lon":5.39209,"is_reserved":false,"is_disabled":true,"rental_uris":{"android":"levelo://app?vid=a431eb71-5ef2-4969-a055-e8026c7f5ae4","ios":"levelo://app?vid=a431eb71-5ef2-4969-a055-e8026c7f5ae4"},"vehicle_type_id":"4","last_reported":1734527923,"current_range_meters":35600,"station_id":"ce4bhjp2rcd13ifvqga0","pricing_plan_id":"cebpf4jnsgd1na2vs0mg"},{"bike_id":"d7a69510-ff62-4858-a23c-0709abac195c","system_id":"levelo_inurba_marseille","lat":43.279805,"lon":5.387542,"is_reserved":false,"is_disabled":false,"rental_uris":{"android":"levelo://app?vid=d7a69510-ff62-4858-a23c-0709abac195c","ios":"levelo://app?vid=d7a69510-ff62-4858-a23c-0709abac195c"},"vehicle_type_id":"4","last_reported":1734527923,"current_range_meters":38400,"station_id":"ce4bhg12rcd13ifvqf80","pricing_plan_id":"cebpf4jnsgd1na2vs0mg"},{"bike_id":"09f351ae-7aac-46c8-8bcf-894bd17577a8","system_id":"levelo_inurba_marseille","lat":43.31321,"lon":5.36741,"is_reserved":false,"is_disabled":false,"rental_uris":{"android":"levelo://app?vid=09f351ae-7aac-46c8-8bcf-894bd17577a8","ios":"levelo://app?vid=09f351ae-7aac-46c8-8bcf-894bd17577a8"},"vehicle_type_id":"4","last_reported":1734527923,"current_range_meters":38800,"station_id":"ce4bgr92rcd13ifvqc6g","pricing_plan_id":"cebpf4jnsgd1na2vs0mg"},{"bike_id":"692a3ec6-82b3-4cc2-8ea6-1090ee86f146","system_id":"levelo_inurba_marseille","lat":43.29036,"lon":5.39974,"is_reserved":false,"is_disabled":false,"rental_uris":{"android":"levelo://app?vid=692a3ec6-82b3-4cc2-8ea6-1090ee86f146","ios":"levelo://app?vid=692a3ec6-82b3-4cc2-8ea6-1090ee86f146"},"vehicle_type_id":"4","last_reported":1734527923,"current_range_meters":24400,"station_id":"ce4bh392rcd13ifvqdm0","pricing_plan_id":"cebpf4jnsgd1na2vs0mg"},{"bike_id":"3366bd04-b01f-422f-ae3f-5c53109fb8e2","system_id":"levelo_inurba_marseille","lat":43.29566,"lon":5.37504,"is_reserved":false,"is_disabled":false,"rental_uris":{"android":"levelo://app?vid=3366bd04-b01f-422f-ae3f-5c53109fb8e2","ios":"levelo://app?vid=3366bd04-b01f-422f-ae3f-5c53109fb8e2"},"vehicle_type_id":"4","last_reported":1734527923,"current_range_meters":33600,"station_id":"ce4bgh92rcd13ifvqb50","pricing_plan_id":"cebpf4jnsgd1na2vs0mg"},{"bike_id":"ada1f474-7a65-44b0-b9d1-f87dc55a46c7","system_id":"levelo_inurba_marseille","lat":43.29702,"lon":5.37691,"is_reserved":false,"is_disabled":false,"rental_uris":{"android":"levelo://app?vid=ada1f474-7a65-44b0-b9d1-f87dc55a46c7","ios":"levelo://app?vid=ada1f474-7a65-44b0-b9d1-f87dc55a46c7"},"vehicle_type_id":"4","last_reported":1734527923,"current_range_meters":23200,"station_id":"ce4bgkh2rcd13ifvqbl0","pricing_plan_id":"cebpf4jnsgd1na2vs0mg"},{"bike_id":"b7fe7f41-693b-452e-b2af-3f64f02e91d4","system_id":"levelo_inurba_marseille","lat":43.3136,"lon":5.36694,"is_reserved":false,"is_disabled":false,"rental_uris":{"android":"levelo://app?vid=b7fe7f41-693b-452e-b2af-3f64f02e91d4","ios":"levelo://app?vid=b7fe7f41-693b-452e-b2af-3f64f02e91d4"},"vehicle_type_id":"4","last_reported":1734527923,"current_range_meters":27600,"station_id":"ce4bgr92rcd13ifvqc6g","pricing_plan_id":"cebpf4jnsgd1na2vs0mg"},{"bike_id":"8b21dd7d-3e2f-4cbd-9749-7f883f4710f1","system_id":"levelo_inurba_marseille","lat":43.31224,"lon":5.36857,"is_reserved":false,"is_disabled":false,"rental_uris":{"android":"levelo://app?vid=8b21dd7d-3e2f-4cbd-9749-7f883f4710f1","ios":"levelo://app?vid=8b21dd7d-3e2f-4cbd-9749-7f883f4710f1"},"vehicle_type_id":"4","last_reported":1734527923,"current_range_meters":27600,"station_id":"ce4bgl92rcd13ifvqbq0","pricing_plan_id":"cebpf4jnsgd1na2vs0mg"},{"bike_id":"bba85a74-2c52-4269-a2b5-9bc2de67d67d","system_id":"levelo_inurba_marseille","lat":43.30554,"lon":5.36541,"is_reserved":false,"is_disabled":false,"rental_uris":{"android":"levelo://app?vid=bba85a74-2c52-4269-a2b5-9bc2de67d67d","ios":"levelo://app?vid=bba85a74-2c52-4269-a2b5-9bc2de67d67d"},"vehicle_type_id":"4","last_reported":1734527923,"current_range_meters":38800,"station_id":"ce4bgs12rcd13ifvqcag","pricing_plan_id":"cebpf4jnsgd1na2vs0mg"},{"bike_id":"cab5cb01-b33a-421c-bfaf-c7630f90de8b","system_id":"levelo_inurba_marseille","lat":43.29046,"lon":5.39966,"is_reserved":false,"is_disabled":true,"rental_uris":{"android":"levelo://app?vid=cab5cb01-b33a-421c-bfaf-c7630f90de8b","ios":"levelo://app?vid=cab5cb01-b33a-421c-bfaf-c7630f90de8b"},"vehicle_type_id":"4","last_reported":1734527923,"current_range_meters":0,"station_id":"ce4bh392rcd13ifvqdm0","pricing_plan_id":"cebpf4jnsgd1na2vs0mg"},{"bike_id":"78f5dcee-b6ca-4cfa-ae6f-ebcf64be1236","system_id":"levelo_inurba_marseille","lat":43.32346,"lon":5.4062,"is_reserved":false,"is_disabled":true,"rental_uris":{"android":"levelo://app?vid=78f5dcee-b6ca-4cfa-ae6f-ebcf64be1236","ios":"levelo://app?vid=78f5dcee-b6ca-4cfa-ae6f-ebcf64be1236"},"vehicle_type_id":"4","last_reported":1734527923,"current_range_meters":0,"station_id":"ce4bhq92rcd13ifvqhjg","pricing_plan_id":"cebpf4jnsgd1na2vs0mg"},{"bike_id":"90a98cf0-a7f6-462c-806d-d1075980e8e3","system_id":"levelo_inurba_marseille","lat":43.3014,"lon":5.37415,"is_reserved":false,"is_disabled":false,"rental_uris":{"android":"levelo://app?vid=90a98cf0-a7f6-462c-806d-d1075980e8e3","ios":"levelo://app?vid=90a98cf0-a7f6-462c-806d-d1075980e8e3"},"vehicle_type_id":"4","last_reported":1734527923,"current_range_meters":27600,"station_id":"ce4bgs92rcd13ifvqcc0","pricing_plan_id":"cebpf4jnsgd1na2vs0mg"},{"bike_id":"a33b825e-c779-4129-842f-aeba22c7390a","system_id":"levelo_inurba_marseille","lat":43.31681,"lon":5.40473,"is_reserved":false,"is_disabled":false,"rental_uris":{"android":"levelo://app?vid=a33b825e-c779-4129-842f-aeba22c7390a","ios":"levelo://app?vid=a33b825e-c779-4129-842f-aeba22c7390a"},"vehicle_type_id":"4","last_reported":1734527923,"current_range_meters":36800,"station_id":"ce4bh012rcd13ifvqd00","pricing_plan_id":"cebpf4jnsgd1na2vs0mg"},{"bike_id":"680358db-eb64-4f35-bba9-4d9ebd5f23e1","system_id":"levelo_inurba_marseille","lat":43.28411,"lon":5.34997,"is_reserved":false,"is_disabled":false,"rental_uris":{"android":"levelo://app?vid=680358db-eb64-4f35-bba9-4d9ebd5f23e1","ios":"levelo://app?vid=680358db-eb64-4f35-bba9-4d9ebd5f23e1"},"vehicle_type_id":"4","last_reported":1734527923,"current_range_meters":8800,"station_id":"ce4bhbh2rcd13ifvqepg","pricing_plan_id":"cebpf4jnsgd1na2vs0mg"},{"bike_id":"b13b811d-e88d-46d2-8d0c-84e3cfc06dd9","system_id":"levelo_inurba_marseille","lat":43.29611,"lon":5.3773,"is_reserved":false,"is_disabled":false,"rental_uris":{"android":"levelo://app?vid=b13b811d-e88d-46d2-8d0c-84e3cfc06dd9","ios":"levelo://app?vid=b13b811d-e88d-46d2-8d0c-84e3cfc06dd9"},"vehicle_type_id":"4","last_reported":1734527923,"current_range_meters":39200,"station_id":"ce4bgi92rcd13ifvqb90","pricing_plan_id":"cebpf4jnsgd1na2vs0mg"},{"bike_id":"0bd5d813-d89e-42f3-8ce9-c06fb9ffedaa","system_id":"levelo_inurba_marseille","lat":43.28945,"lon":5.39651,"is_reserved":false,"is_disabled":true,"rental_uris":{"android":"levelo://app?vid=0bd5d813-d89e-42f3-8ce9-c06fb9ffedaa","ios":"levelo://app?vid=0bd5d813-d89e-42f3-8ce9-c06fb9ffedaa"},"vehicle_type_id":"4","last_reported":1734527923,"current_range_meters":34000,"station_id":"ce4bh3h2rcd13ifvqdn0","pricing_plan_id":"cebpf4jnsgd1na2vs0mg"},{"bike_id":"d10883e6-b6fa-4b38-beb3-63da87cd0253","system_id":"levelo_inurba_marseille","lat":43.30353,"lon":5.41883,"is_reserved":false,"is_disabled":true,"rental_uris":{"android":"levelo://app?vid=d10883e6-b6fa-4b38-beb3-63da87cd0253","ios":"levelo://app?vid=d10883e6-b6fa-4b38-beb3-63da87cd0253"},"vehicle_type_id":"4","last_reported":1734527923,"current_range_meters":37600,"station_id":"ce4bhop2rcd13ifvqh7g","pricing_plan_id":"cebpf4jnsgd1na2vs0mg"},{"bike_id":"3f37807f-d28e-422d-981f-3b66e1fb21df","system_id":"levelo_inurba_marseille","lat":43.2982,"lon":5.36326,"is_reserved":false,"is_disabled":false,"rental_uris":{"android":"levelo://app?vid=3f37807f-d28e-422d-981f-3b66e1fb21df","ios":"levelo://app?vid=3f37807f-d28e-422d-981f-3b66e1fb21df"},"vehicle_type_id":"4","last_reported":1734527923,"current_range_meters":38800,"station_id":"ce4bgpp2rcd13ifvqc3g","pricing_plan_id":"cebpf4jnsgd1na2vs0mg"},{"bike_id":"48eca84b-3b6e-406c-a6a3-66b232db0023","system_id":"levelo_inurba_marseille","lat":43.23185,"lon":5.39991,"is_reserved":false,"is_disabled":false,"rental_uris":{"android":"levelo://app?vid=48eca84b-3b6e-406c-a6a3-66b232db0023","ios":"levelo://app?vid=48eca84b-3b6e-406c-a6a3-66b232db0023"},"vehicle_type_id":"4","last_reported":1734527923,"current_range_meters":27200,"station_id":"ce4bhn12rcd13ifvqgqg","pricing_plan_id":"cebpf4jnsgd1na2vs0mg"},{"bike_id":"e06e5437-0ec2-4fc8-8eea-3b1bd1eae0c0","system_id":"levelo_inurba_marseille","lat":43.282821,"lon":5.350844,"is_reserved":false,"is_disabled":false,"rental_uris":{"android":"levelo://app?vid=e06e5437-0ec2-4fc8-8eea-3b1bd1eae0c0","ios":"levelo://app?vid=e06e5437-0ec2-4fc8-8eea-3b1bd1eae0c0"},"vehicle_type_id":"4","last_reported":1734527923,"current_range_meters":39200,"station_id":"ce4bhbp2rcd13ifvqerg","pricing_plan_id":"cebpf4jnsgd1na2vs0mg"},{"bike_id":"9a9ca54f-8f83-4db0-b780-a7eb0fa7f88d","system_id":"levelo_inurba_marseille","lat":43.26041,"lon":5.37541,"is_reserved":false,"is_disabled":false,"rental_uris":{"android":"levelo://app?vid=9a9ca54f-8f83-4db0-b780-a7eb0fa7f88d","ios":"levelo://app?vid=9a9ca54f-8f83-4db0-b780-a7eb0fa7f88d"},"vehicle_type_id":"4","last_reported":1734527923,"current_range_meters":33600,"station_id":"ce4bhgh2rcd13ifvqfa0","pricing_plan_id":"cebpf4jnsgd1na2vs0mg"},{"bike_id":"a3232108-6d4d-45f4-ac66-cd85d6391bc7","system_id":"levelo_inurba_marseille","lat":43.23061,"lon":5.35491,"is_reserved":false,"is_disabled":false,"rental_uris":{"android":"levelo://app?vid=a3232108-6d4d-45f4-ac66-cd85d6391bc7","ios":"levelo://app?vid=a3232108-6d4d-45f4-ac66-cd85d6391bc7"},"vehicle_type_id":"4","last_reported":1734527923,"current_range_meters":38000,"station_id":"cpo3342slgdg3j2ifvpg","pricing_plan_id":"cebpf4jnsgd1na2vs0mg"},{"bike_id":"e83644c1-43ca-4b15-ba38-3a50408b1edd","system_id":"levelo_inurba_marseille","lat":43.31711,"lon":5.40444,"is_reserved":false,"is_disabled":false,"rental_uris":{"android":"levelo://app?vid=e83644c1-43ca-4b15-ba38-3a50408b1edd","ios":"levelo://app?vid=e83644c1-43ca-4b15-ba38-3a50408b1edd"},"vehicle_type_id":"4","last_reported":1734527923,"current_range_meters":32800,"station_id":"ce4bh012rcd13ifvqd00","pricing_plan_id":"cebpf4jnsgd1na2vs0mg"},{"bike_id":"89f002df-2766-4c6a-b5d2-5008d593ed20","system_id":"levelo_inurba_marseille","lat":43.281,"lon":5.37845,"is_reserved":false,"is_disabled":false,"rental_uris":{"android":"levelo://app?vid=89f002df-2766-4c6a-b5d2-5008d593ed20","ios":"levelo://app?vid=89f002df-2766-4c6a-b5d2-5008d593ed20"},"vehicle_type_id":"4","last_reported":1734527923,"current_range_meters":30000,"station_id":"ce4bha12rcd13ifvqee0","pricing_plan_id":"cebpf4jnsgd1na2vs0mg"},{"bike_id":"36bdf915-8b4b-40b9-875b-7ee4225a8b65","system_id":"levelo_inurba_marseille","lat":43.26062,"lon":5.39404,"is_reserved":false,"is_disabled":false,"rental_uris":{"android":"levelo://app?vid=36bdf915-8b4b-40b9-875b-7ee4225a8b65","ios":"levelo://app?vid=36bdf915-8b4b-40b9-875b-7ee4225a8b65"},"vehicle_type_id":"4","last_reported":1734527923,"current_range_meters":29600,"station_id":"ce4bhh92rcd13ifvqfj0","pricing_plan_id":"cebpf4jnsgd1na2vs0mg"},{"bike_id":"4573123b-598e-449b-acb9-740894bc9c45","system_id":"levelo_inurba_marseille","lat":43.29271,"lon":5.40115,"is_reserved":false,"is_disabled":false,"rental_uris":{"android":"levelo://app?vid=4573123b-598e-449b-acb9-740894bc9c45","ios":"levelo://app?vid=4573123b-598e-449b-acb9-740894bc9c45"},"vehicle_type_id":"4","last_reported":1734527923,"current_range_meters":24800,"station_id":"ce4bh312rcd13ifvqdk0","pricing_plan_id":"cebpf4jnsgd1na2vs0mg"},{"bike_id":"8120e407-d3ea-498b-9d42-7e3be5ba1ec7","system_id":"levelo_inurba_marseille","lat":43.28266,"lon":5.35074,"is_reserved":false,"is_disabled":false,"rental_uris":{"android":"levelo://app?vid=8120e407-d3ea-498b-9d42-7e3be5ba1ec7","ios":"levelo://app?vid=8120e407-d3ea-498b-9d42-7e3be5ba1ec7"},"vehicle_type_id":"4","last_reported":1734527923,"current_range_meters":32000,"station_id":"ce4bhbp2rcd13ifvqerg","pricing_plan_id":"cebpf4jnsgd1na2vs0mg"},{"bike_id":"52ae8737-5137-4571-b02e-4baf0a6c7515","system_id":"levelo_inurba_marseille","lat":43.3112,"lon":5.37766,"is_reserved":false,"is_disabled":false,"rental_uris":{"android":"levelo://app?vid=52ae8737-5137-4571-b02e-4baf0a6c7515","ios":"levelo://app?vid=52ae8737-5137-4571-b02e-4baf0a6c7515"},"vehicle_type_id":"4","last_reported":1734527923,"current_range_meters":18800,"station_id":"ce4bgt92rcd13ifvqcg0","pricing_plan_id":"cebpf4jnsgd1na2vs0mg"},{"bike_id":"f65fc50c-1ed9-4e6e-9871-4862e95ec14b","system_id":"levelo_inurba_marseille","lat":43.25077,"lon":5.39533,"is_reserved":false,"is_disabled":false,"rental_uris":{"android":"levelo://app?vid=f65fc50c-1ed9-4e6e-9871-4862e95ec14b","ios":"levelo://app?vid=f65fc50c-1ed9-4e6e-9871-4862e95ec14b"},"vehicle_type_id":"4","last_reported":1734527923,"current_range_meters":37600,"station_id":"ce4bhm12rcd13ifvqgkg","pricing_plan_id":"cebpf4jnsgd1na2vs0mg"},{"bike_id":"94920b07-c7e3-4bf9-8036-143bc93c6beb","system_id":"levelo_inurba_marseille","lat":43.25719,"lon":5.41095,"is_reserved":false,"is_disabled":false,"rental_uris":{"android":"levelo://app?vid=94920b07-c7e3-4bf9-8036-143bc93c6beb","ios":"levelo://app?vid=94920b07-c7e3-4bf9-8036-143bc93c6beb"},"vehicle_type_id":"4","last_reported":1734527923,"current_range_meters":38400,"station_id":"ce4bhkp2rcd13ifvqgd0","pricing_plan_id":"cebpf4jnsgd1na2vs0mg"},{"bike_id":"cf7aba31-b6d5-4386-beb5-488132a6fa7f","system_id":"levelo_inurba_marseille","lat":43.23155,"lon":5.43705,"is_reserved":false,"is_disabled":false,"rental_uris":{"android":"levelo://app?vid=cf7aba31-b6d5-4386-beb5-488132a6fa7f","ios":"levelo://app?vid=cf7aba31-b6d5-4386-beb5-488132a6fa7f"},"vehicle_type_id":"4","last_reported":1734527923,"current_range_meters":31200,"station_id":"ce4bhmp2rcd13ifvqgog","pricing_plan_id":"cebpf4jnsgd1na2vs0mg"},{"bike_id":"dc316698-391f-4178-88d3-84c1f5017824","system_id":"levelo_inurba_marseille","lat":43.29978,"lon":5.38482,"is_reserved":false,"is_disabled":false,"rental_uris":{"android":"levelo://app?vid=dc316698-391f-4178-88d3-84c1f5017824","ios":"levelo://app?vid=dc316698-391f-4178-88d3-84c1f5017824"},"vehicle_type_id":"4","last_reported":1734527923,"current_range_meters":38400,"station_id":"ce4bgj92rcd13ifvqbd0","pricing_plan_id":"cebpf4jnsgd1na2vs0mg"},{"bike_id":"c8399855-72d4-4f25-aa5a-52a18924a7b8","system_id":"levelo_inurba_marseille","lat":43.24167,"lon":5.3639,"is_reserved":false,"is_disabled":false,"rental_uris":{"android":"levelo://app?vid=c8399855-72d4-4f25-aa5a-52a18924a7b8","ios":"levelo://app?vid=c8399855-72d4-4f25-aa5a-52a18924a7b8"},"vehicle_type_id":"4","last_reported":1734527923,"current_range_meters":7200,"station_id":"cpo36qri1sfpv3e86is0","pricing_plan_id":"cebpf4jnsgd1na2vs0mg"},{"bike_id":"f8b9f595-57de-4f40-884a-1ccbe4ed31e9","system_id":"levelo_inurba_marseille","lat":43.316921,"lon":5.404834,"is_reserved":false,"is_disabled":false,"rental_uris":{"android":"levelo://app?vid=f8b9f595-57de-4f40-884a-1ccbe4ed31e9","ios":"levelo://app?vid=f8b9f595-57de-4f40-884a-1ccbe4ed31e9"},"vehicle_type_id":"4","last_reported":1734527923,"current_range_meters":38800,"station_id":"ce4bh012rcd13ifvqd00","pricing_plan_id":"cebpf4jnsgd1na2vs0mg"},{"bike_id":"4445b7b8-a637-4564-9692-76939df6a3f4","system_id":"levelo_inurba_marseille","lat":43.27058,"lon":5.40261,"is_reserved":false,"is_disabled":false,"rental_uris":{"android":"levelo://app?vid=4445b7b8-a637-4564-9692-76939df6a3f4","ios":"levelo://app?vid=4445b7b8-a637-4564-9692-76939df6a3f4"},"vehicle_type_id":"4","last_reported":1734527923,"current_range_meters":31200,"station_id":"ce4bhk92rcd13ifvqgc0","pricing_plan_id":"cebpf4jnsgd1na2vs0mg"},{"bike_id":"717ddaa3-8add-436c-8391-6d3288406eee","system_id":"levelo_inurba_marseille","lat":43.29029,"lon":5.38141,"is_reserved":false,"is_disabled":false,"rental_uris":{"android":"levelo://app?vid=717ddaa3-8add-436c-8391-6d3288406eee","ios":"levelo://app?vid=717ddaa3-8add-436c-8391-6d3288406eee"},"vehicle_type_id":"4","last_reported":1734527923,"current_range_meters":12800,"station_id":"ce4bh4p2rcd13ifvqe1g","pricing_plan_id":"cebpf4jnsgd1na2vs0mg"},{"bike_id":"6a8c0392-5811-45c9-8265-4b3d3e79a7b1","system_id":"levelo_inurba_marseille","lat":43.29296,"lon":5.37464,"is_reserved":false,"is_disabled":false,"rental_uris":{"android":"levelo://app?vid=6a8c0392-5811-45c9-8265-4b3d3e79a7b1","ios":"levelo://app?vid=6a8c0392-5811-45c9-8265-4b3d3e79a7b1"},"vehicle_type_id":"4","last_reported":1734527923,"current_range_meters":38800,"station_id":"ce4bgi12rcd13ifvqb70","pricing_plan_id":"cebpf4jnsgd1na2vs0mg"},{"bike_id":"5a0b8173-0159-4031-b6e8-cf65e6901cc7","system_id":"levelo_inurba_marseille","lat":43.27983,"lon":5.41661,"is_reserved":false,"is_disabled":false,"rental_uris":{"android":"levelo://app?vid=5a0b8173-0159-4031-b6e8-cf65e6901cc7","ios":"levelo://app?vid=5a0b8173-0159-4031-b6e8-cf65e6901cc7"},"vehicle_type_id":"4","last_reported":1734527923,"current_range_meters":38000,"station_id":"ce4bho12rcd13ifvqh1g","pricing_plan_id":"cebpf4jnsgd1na2vs0mg"},{"bike_id":"96f6c28f-4b43-4b88-ba3a-5c5a3fc06c6e","system_id":"levelo_inurba_marseille","lat":43.27051,"lon":5.40283,"is_reserved":false,"is_disabled":false,"rental_uris":{"android":"levelo://app?vid=96f6c28f-4b43-4b88-ba3a-5c5a3fc06c6e","ios":"levelo://app?vid=96f6c28f-4b43-4b88-ba3a-5c5a3fc06c6e"},"vehicle_type_id":"4","last_reported":1734527923,"current_range_meters":35200,"station_id":"ce4bhk92rcd13ifvqgc0","pricing_plan_id":"cebpf4jnsgd1na2vs0mg"},{"bike_id":"0964a333-009c-43df-a369-e7b7f1f82c22","system_id":"levelo_inurba_marseille","lat":43.30553,"lon":5.36703,"is_reserved":false,"is_disabled":true,"rental_uris":{"android":"levelo://app?vid=0964a333-009c-43df-a369-e7b7f1f82c22","ios":"levelo://app?vid=0964a333-009c-43df-a369-e7b7f1f82c22"},"vehicle_type_id":"4","last_reported":1734527923,"current_range_meters":27600,"station_id":"","pricing_plan_id":"cebpf4jnsgd1na2vs0mg"},{"bike_id":"6b99e6f3-6fd4-4ed8-9207-9ae6099ee00e","system_id":"levelo_inurba_marseille","lat":43.26488,"lon":5.39541,"is_reserved":false,"is_disabled":false,"rental_uris":{"android":"levelo://app?vid=6b99e6f3-6fd4-4ed8-9207-9ae6099ee00e","ios":"levelo://app?vid=6b99e6f3-6fd4-4ed8-9207-9ae6099ee00e"},"vehicle_type_id":"4","last_reported":1734527923,"current_range_meters":22400,"station_id":"ce4bhi12rcd13ifvqfq0","pricing_plan_id":"cebpf4jnsgd1na2vs0mg"},{"bike_id":"af55aa35-e6f5-4652-891c-a52bcdfc25bf","system_id":"levelo_inurba_marseille","lat":43.29042,"lon":5.37537,"is_reserved":false,"is_disabled":false,"rental_uris":{"android":"levelo://app?vid=af55aa35-e6f5-4652-891c-a52bcdfc25bf","ios":"levelo://app?vid=af55aa35-e6f5-4652-891c-a52bcdfc25bf"},"vehicle_type_id":"4","last_reported":1734527923,"current_range_meters":38400,"station_id":"ce4bh692rcd13ifvqe90","pricing_plan_id":"cebpf4jnsgd1na2vs0mg"},{"bike_id":"9d2aefec-f4a3-4a23-a13a-c09b46ffe2e4","system_id":"levelo_inurba_marseille","lat":43.32471,"lon":5.3657,"is_reserved":false,"is_disabled":false,"rental_uris":{"android":"levelo://app?vid=9d2aefec-f4a3-4a23-a13a-c09b46ffe2e4","ios":"levelo://app?vid=9d2aefec-f4a3-4a23-a13a-c09b46ffe2e4"},"vehicle_type_id":"4","last_reported":1734527923,"current_range_meters":38800,"station_id":"ce4bhs12rcd13ifvqhvg","pricing_plan_id":"cebpf4jnsgd1na2vs0mg"},{"bike_id":"f59dc484-86ab-43f1-b823-38920608372a","system_id":"levelo_inurba_marseille","lat":43.30137,"lon":5.3987,"is_reserved":false,"is_disabled":false,"rental_uris":{"android":"levelo://app?vid=f59dc484-86ab-43f1-b823-38920608372a","ios":"levelo://app?vid=f59dc484-86ab-43f1-b823-38920608372a"},"vehicle_type_id":"4","last_reported":1734527923,"current_range_meters":4400,"station_id":"ce4bh0h2rcd13ifvqd40","pricing_plan_id":"cebpf4jnsgd1na2vs0mg"},{"bike_id":"6aac38b0-f22b-4019-a93a-e1f18a3c12f4","system_id":"levelo_inurba_marseille","lat":43.27365,"lon":5.36261,"is_reserved":false,"is_disabled":false,"rental_uris":{"android":"levelo://app?vid=6aac38b0-f22b-4019-a93a-e1f18a3c12f4","ios":"levelo://app?vid=6aac38b0-f22b-4019-a93a-e1f18a3c12f4"},"vehicle_type_id":"4","last_reported":1734527923,"current_range_meters":39200,"station_id":"ce4bhbh2rcd13ifvqeo0","pricing_plan_id":"cebpf4jnsgd1na2vs0mg"},{"bike_id":"53f4ad25-935a-4c4a-a538-7283e0f43637","system_id":"levelo_inurba_marseille","lat":43.29588,"lon":5.36739,"is_reserved":false,"is_disabled":false,"rental_uris":{"android":"levelo://app?vid=53f4ad25-935a-4c4a-a538-7283e0f43637","ios":"levelo://app?vid=53f4ad25-935a-4c4a-a538-7283e0f43637"},"vehicle_type_id":"4","last_reported":1734527923,"current_range_meters":38800,"station_id":"ce4bgph2rcd13ifvqc2g","pricing_plan_id":"cebpf4jnsgd1na2vs0mg"},{"bike_id":"bad8f74f-3cb3-4d9a-8174-a1b6b60e1361","system_id":"levelo_inurba_marseille","lat":43.30543,"lon":5.36543,"is_reserved":false,"is_disabled":false,"rental_uris":{"android":"levelo://app?vid=bad8f74f-3cb3-4d9a-8174-a1b6b60e1361","ios":"levelo://app?vid=bad8f74f-3cb3-4d9a-8174-a1b6b60e1361"},"vehicle_type_id":"4","last_reported":1734527923,"current_range_meters":32000,"station_id":"ce4bgs12rcd13ifvqcag","pricing_plan_id":"cebpf4jnsgd1na2vs0mg"},{"bike_id":"ab4cf047-2518-4238-a07c-ebc316cfc0cc","system_id":"levelo_inurba_marseille","lat":43.31663,"lon":5.40516,"is_reserved":false,"is_disabled":false,"rental_uris":{"android":"levelo://app?vid=ab4cf047-2518-4238-a07c-ebc316cfc0cc","ios":"levelo://app?vid=ab4cf047-2518-4238-a07c-ebc316cfc0cc"},"vehicle_type_id":"4","last_reported":1734527923,"current_range_meters":30800,"station_id":"ce4bh012rcd13ifvqd00","pricing_plan_id":"cebpf4jnsgd1na2vs0mg"},{"bike_id":"584c6656-dd2c-4304-a2fe-88364b51a5a2","system_id":"levelo_inurba_marseille","lat":43.25706,"lon":5.41124,"is_reserved":false,"is_disabled":false,"rental_uris":{"android":"levelo://app?vid=584c6656-dd2c-4304-a2fe-88364b51a5a2","ios":"levelo://app?vid=584c6656-dd2c-4304-a2fe-88364b51a5a2"},"vehicle_type_id":"4","last_reported":1734527923,"current_range_meters":38800,"station_id":"ce4bhkp2rcd13ifvqgd0","pricing_plan_id":"cebpf4jnsgd1na2vs0mg"},{"bike_id":"0207f8a4-516c-46ff-9895-b226d519d4c1","system_id":"levelo_inurba_marseille","lat":43.23199,"lon":5.35549,"is_reserved":false,"is_disabled":false,"rental_uris":{"android":"levelo://app?vid=0207f8a4-516c-46ff-9895-b226d519d4c1","ios":"levelo://app?vid=0207f8a4-516c-46ff-9895-b226d519d4c1"},"vehicle_type_id":"4","last_reported":1734527923,"current_range_meters":36800,"station_id":"ce4bhu92rcd13ifvqi70","pricing_plan_id":"cebpf4jnsgd1na2vs0mg"},{"bike_id":"f2f07f68-d217-4b41-90fe-09e08be3fa63","system_id":"levelo_inurba_marseille","lat":43.265686,"lon":5.390264,"is_reserved":false,"is_disabled":false,"rental_uris":{"android":"levelo://app?vid=f2f07f68-d217-4b41-90fe-09e08be3fa63","ios":"levelo://app?vid=f2f07f68-d217-4b41-90fe-09e08be3fa63"},"vehicle_type_id":"4","last_reported":1734527923,"current_range_meters":20800,"station_id":"ce4bhe12rcd13ifvqf30","pricing_plan_id":"cebpf4jnsgd1na2vs0mg"},{"bike_id":"82f7f145-591c-4ce0-8f76-660882a2845e","system_id":"levelo_inurba_marseille","lat":43.33642,"lon":5.40972,"is_reserved":false,"is_disabled":true,"rental_uris":{"android":"levelo://app?vid=82f7f145-591c-4ce0-8f76-660882a2845e","ios":"levelo://app?vid=82f7f145-591c-4ce0-8f76-660882a2845e"},"vehicle_type_id":"4","last_reported":1734527923,"current_range_meters":29600,"station_id":"ce4bhqh2rcd13ifvqhmg","pricing_plan_id":"cebpf4jnsgd1na2vs0mg"},{"bike_id":"156a819f-d20c-4269-95cb-49cc68cf1239","system_id":"levelo_inurba_marseille","lat":43.33745,"lon":5.37455,"is_reserved":false,"is_disabled":false,"rental_uris":{"android":"levelo://app?vid=156a819f-d20c-4269-95cb-49cc68cf1239","ios":"levelo://app?vid=156a819f-d20c-4269-95cb-49cc68cf1239"},"vehicle_type_id":"4","last_reported":1734527923,"current_range_meters":27600,"station_id":"","pricing_plan_id":"cebpf4jnsgd1na2vs0mg"},{"bike_id":"2df25d0a-572a-41c5-8735-e5430622c613","system_id":"levelo_inurba_marseille","lat":43.31993,"lon":5.38155,"is_reserved":false,"is_disabled":false,"rental_uris":{"android":"levelo://app?vid=2df25d0a-572a-41c5-8735-e5430622c613","ios":"levelo://app?vid=2df25d0a-572a-41c5-8735-e5430622c613"},"vehicle_type_id":"4","last_reported":1734527923,"current_range_meters":39200,"station_id":"ce4bhr12rcd13ifvqhpg","pricing_plan_id":"cebpf4jnsgd1na2vs0mg"},{"bike_id":"ac7c5f56-daad-496c-965f-9103737000e8","system_id":"levelo_inurba_marseille","lat":43.239638,"lon":5.366379,"is_reserved":false,"is_disabled":false,"rental_uris":{"android":"levelo://app?vid=ac7c5f56-daad-496c-965f-9103737000e8","ios":"levelo://app?vid=ac7c5f56-daad-496c-965f-9103737000e8"},"vehicle_type_id":"4","last_reported":1734527923,"current_range_meters":38400,"station_id":"ce4bhi12rcd13ifvqfp0","pricing_plan_id":"cebpf4jnsgd1na2vs0mg"},{"bike_id":"2cfd643a-c674-46a9-9d29-5f3a8b06261a","system_id":"levelo_inurba_marseille","lat":43.32457,"lon":5.36588,"is_reserved":false,"is_disabled":false,"rental_uris":{"android":"levelo://app?vid=2cfd643a-c674-46a9-9d29-5f3a8b06261a","ios":"levelo://app?vid=2cfd643a-c674-46a9-9d29-5f3a8b06261a"},"vehicle_type_id":"4","last_reported":1734527923,"current_range_meters":24800,"station_id":"ce4bhs12rcd13ifvqhvg","pricing_plan_id":"cebpf4jnsgd1na2vs0mg"},{"bike_id":"55eb3b8d-2227-470b-b9a8-f7520629c64b","system_id":"levelo_inurba_marseille","lat":43.30541,"lon":5.3654,"is_reserved":false,"is_disabled":false,"rental_uris":{"android":"levelo://app?vid=55eb3b8d-2227-470b-b9a8-f7520629c64b","ios":"levelo://app?vid=55eb3b8d-2227-470b-b9a8-f7520629c64b"},"vehicle_type_id":"4","last_reported":1734527923,"current_range_meters":18000,"station_id":"ce4bgs12rcd13ifvqcag","pricing_plan_id":"cebpf4jnsgd1na2vs0mg"},{"bike_id":"5f71f7f1-4578-4644-a530-7793ca75cb66","system_id":"levelo_inurba_marseille","lat":43.291982,"lon":5.358011,"is_reserved":false,"is_disabled":false,"rental_uris":{"android":"levelo://app?vid=5f71f7f1-4578-4644-a530-7793ca75cb66","ios":"levelo://app?vid=5f71f7f1-4578-4644-a530-7793ca75cb66"},"vehicle_type_id":"4","last_reported":1734527923,"current_range_meters":32800,"station_id":"ce4bhb12rcd13ifvqel0","pricing_plan_id":"cebpf4jnsgd1na2vs0mg"},{"bike_id":"3f15ab64-478a-4c5c-9a78-d5b9441c067b","system_id":"levelo_inurba_marseille","lat":43.27448,"lon":5.39326,"is_reserved":false,"is_disabled":false,"rental_uris":{"android":"levelo://app?vid=3f15ab64-478a-4c5c-9a78-d5b9441c067b","ios":"levelo://app?vid=3f15ab64-478a-4c5c-9a78-d5b9441c067b"},"vehicle_type_id":"4","last_reported":1734527923,"current_range_meters":30400,"station_id":"","pricing_plan_id":"cebpf4jnsgd1na2vs0mg"},{"bike_id":"ac819833-beca-4261-9800-c0ebd73640da","system_id":"levelo_inurba_marseille","lat":43.25002,"lon":5.38925,"is_reserved":false,"is_disabled":false,"rental_uris":{"android":"levelo://app?vid=ac819833-beca-4261-9800-c0ebd73640da","ios":"levelo://app?vid=ac819833-beca-4261-9800-c0ebd73640da"},"vehicle_type_id":"4","last_reported":1734527923,"current_range_meters":25600,"station_id":"ce4bhgp2rcd13ifvqfd0","pricing_plan_id":"cebpf4jnsgd1na2vs0mg"},{"bike_id":"ccbd5d7c-b799-4e13-8dc0-00f4e98d5a5a","system_id":"levelo_inurba_marseille","lat":43.30531,"lon":5.36541,"is_reserved":false,"is_disabled":false,"rental_uris":{"android":"levelo://app?vid=ccbd5d7c-b799-4e13-8dc0-00f4e98d5a5a","ios":"levelo://app?vid=ccbd5d7c-b799-4e13-8dc0-00f4e98d5a5a"},"vehicle_type_id":"4","last_reported":1734527923,"current_range_meters":28400,"station_id":"ce4bgs12rcd13ifvqcag","pricing_plan_id":"cebpf4jnsgd1na2vs0mg"},{"bike_id":"4e490d9d-ce87-4cb1-8a3c-210d673dc7d2","system_id":"levelo_inurba_marseille","lat":43.287471,"lon":5.360753,"is_reserved":false,"is_disabled":false,"rental_uris":{"android":"levelo://app?vid=4e490d9d-ce87-4cb1-8a3c-210d673dc7d2","ios":"levelo://app?vid=4e490d9d-ce87-4cb1-8a3c-210d673dc7d2"},"vehicle_type_id":"4","last_reported":1734527923,"current_range_meters":16000,"station_id":"cki0cbj6b192h4jlfktg","pricing_plan_id":"cebpf4jnsgd1na2vs0mg"},{"bike_id":"b21aedcf-3892-4cbf-8a61-b4fb04334e2a","system_id":"levelo_inurba_marseille","lat":43.29357,"lon":5.37859,"is_reserved":false,"is_disabled":false,"rental_uris":{"android":"levelo://app?vid=b21aedcf-3892-4cbf-8a61-b4fb04334e2a","ios":"levelo://app?vid=b21aedcf-3892-4cbf-8a61-b4fb04334e2a"},"vehicle_type_id":"4","last_reported":1734527923,"current_range_meters":38400,"station_id":"ce4bgjh2rcd13ifvqbf0","pricing_plan_id":"cebpf4jnsgd1na2vs0mg"},{"bike_id":"ce0c54c2-8af8-4550-bc39-3fc8ad33035d","system_id":"levelo_inurba_marseille","lat":43.29052,"lon":5.39933,"is_reserved":false,"is_disabled":true,"rental_uris":{"android":"levelo://app?vid=ce0c54c2-8af8-4550-bc39-3fc8ad33035d","ios":"levelo://app?vid=ce0c54c2-8af8-4550-bc39-3fc8ad33035d"},"vehicle_type_id":"4","last_reported":1734527923,"current_range_meters":14800,"station_id":"ce4bh392rcd13ifvqdm0","pricing_plan_id":"cebpf4jnsgd1na2vs0mg"},{"bike_id":"94dbe6ce-ba1d-41dd-b0cf-1f05a50be5b3","system_id":"levelo_inurba_marseille","lat":43.23202,"lon":5.35546,"is_reserved":false,"is_disabled":false,"rental_uris":{"android":"levelo://app?vid=94dbe6ce-ba1d-41dd-b0cf-1f05a50be5b3","ios":"levelo://app?vid=94dbe6ce-ba1d-41dd-b0cf-1f05a50be5b3"},"vehicle_type_id":"4","last_reported":1734527923,"current_range_meters":30400,"station_id":"ce4bhu92rcd13ifvqi70","pricing_plan_id":"cebpf4jnsgd1na2vs0mg"},{"bike_id":"bf371bdd-5caf-441d-abb4-6de3739740d9","system_id":"levelo_inurba_marseille","lat":43.33762,"lon":5.37451,"is_reserved":false,"is_disabled":false,"rental_uris":{"android":"levelo://app?vid=bf371bdd-5caf-441d-abb4-6de3739740d9","ios":"levelo://app?vid=bf371bdd-5caf-441d-abb4-6de3739740d9"},"vehicle_type_id":"4","last_reported":1734527923,"current_range_meters":38800,"station_id":"","pricing_plan_id":"cebpf4jnsgd1na2vs0mg"},{"bike_id":"d0593f90-4e1d-4b16-8cc8-b45632b4702f","system_id":"levelo_inurba_marseille","lat":43.283396,"lon":5.381069,"is_reserved":false,"is_disabled":true,"rental_uris":{"android":"levelo://app?vid=d0593f90-4e1d-4b16-8cc8-b45632b4702f","ios":"levelo://app?vid=d0593f90-4e1d-4b16-8cc8-b45632b4702f"},"vehicle_type_id":"4","last_reported":1734527923,"current_range_meters":28000,"station_id":"ce4bh412rcd13ifvqdr0","pricing_plan_id":"cebpf4jnsgd1na2vs0mg"},{"bike_id":"7b305c6f-361b-46c6-bcc8-6b2d9fd084fa","system_id":"levelo_inurba_marseille","lat":43.28119,"lon":5.4422,"is_reserved":false,"is_disabled":true,"rental_uris":{"android":"levelo://app?vid=7b305c6f-361b-46c6-bcc8-6b2d9fd084fa","ios":"levelo://app?vid=7b305c6f-361b-46c6-bcc8-6b2d9fd084fa"},"vehicle_type_id":"4","last_reported":1734527923,"current_range_meters":0,"station_id":"","pricing_plan_id":"cebpf4jnsgd1na2vs0mg"},{"bike_id":"096a7850-aaf4-4da2-8608-845011c432b5","system_id":"levelo_inurba_marseille","lat":43.33713,"lon":5.392,"is_reserved":false,"is_disabled":false,"rental_uris":{"android":"levelo://app?vid=096a7850-aaf4-4da2-8608-845011c432b5","ios":"levelo://app?vid=096a7850-aaf4-4da2-8608-845011c432b5"},"vehicle_type_id":"4","last_reported":1734527923,"current_range_meters":38800,"station_id":"ce4bhr92rcd13ifvqhsg","pricing_plan_id":"cebpf4jnsgd1na2vs0mg"},{"bike_id":"e193505e-10a8-4b4b-8af5-b42f326d9e04","system_id":"levelo_inurba_marseille","lat":43.27066,"lon":5.40265,"is_reserved":false,"is_disabled":false,"rental_uris":{"android":"levelo://app?vid=e193505e-10a8-4b4b-8af5-b42f326d9e04","ios":"levelo://app?vid=e193505e-10a8-4b4b-8af5-b42f326d9e04"},"vehicle_type_id":"4","last_reported":1734527923,"current_range_meters":24800,"station_id":"ce4bhk92rcd13ifvqgc0","pricing_plan_id":"cebpf4jnsgd1na2vs0mg"},{"bike_id":"3edc45b8-586e-4ff3-98ae-bc0e92dab254","system_id":"levelo_inurba_marseille","lat":43.23183,"lon":5.39977,"is_reserved":false,"is_disabled":false,"rental_uris":{"android":"levelo://app?vid=3edc45b8-586e-4ff3-98ae-bc0e92dab254","ios":"levelo://app?vid=3edc45b8-586e-4ff3-98ae-bc0e92dab254"},"vehicle_type_id":"4","last_reported":1734527923,"current_range_meters":35600,"station_id":"ce4bhn12rcd13ifvqgqg","pricing_plan_id":"cebpf4jnsgd1na2vs0mg"},{"bike_id":"c81d12c0-b3b4-4b91-a004-bb72046d4aaa","system_id":"levelo_inurba_marseille","lat":43.3014,"lon":5.37431,"is_reserved":false,"is_disabled":false,"rental_uris":{"android":"levelo://app?vid=c81d12c0-b3b4-4b91-a004-bb72046d4aaa","ios":"levelo://app?vid=c81d12c0-b3b4-4b91-a004-bb72046d4aaa"},"vehicle_type_id":"4","last_reported":1734527923,"current_range_meters":22800,"station_id":"ce4bgs92rcd13ifvqcc0","pricing_plan_id":"cebpf4jnsgd1na2vs0mg"},{"bike_id":"8d1c4201-2a72-4c4e-a53e-78bc816e5adf","system_id":"levelo_inurba_marseille","lat":43.26689,"lon":5.38276,"is_reserved":false,"is_disabled":false,"rental_uris":{"android":"levelo://app?vid=8d1c4201-2a72-4c4e-a53e-78bc816e5adf","ios":"levelo://app?vid=8d1c4201-2a72-4c4e-a53e-78bc816e5adf"},"vehicle_type_id":"4","last_reported":1734527923,"current_range_meters":36000,"station_id":"ce4bhg92rcd13ifvqf90","pricing_plan_id":"cebpf4jnsgd1na2vs0mg"},{"bike_id":"ae0e7118-6f59-4232-bfe0-1e559ebff2c0","system_id":"levelo_inurba_marseille","lat":43.30275,"lon":5.37701,"is_reserved":false,"is_disabled":false,"rental_uris":{"android":"levelo://app?vid=ae0e7118-6f59-4232-bfe0-1e559ebff2c0","ios":"levelo://app?vid=ae0e7118-6f59-4232-bfe0-1e559ebff2c0"},"vehicle_type_id":"4","last_reported":1734527923,"current_range_meters":38000,"station_id":"ce4bguh2rcd13ifvqcj0","pricing_plan_id":"cebpf4jnsgd1na2vs0mg"},{"bike_id":"c1abe0de-4a2c-40fc-bb13-d6a22121eab7","system_id":"levelo_inurba_marseille","lat":43.23962,"lon":5.3663,"is_reserved":false,"is_disabled":false,"rental_uris":{"android":"levelo://app?vid=c1abe0de-4a2c-40fc-bb13-d6a22121eab7","ios":"levelo://app?vid=c1abe0de-4a2c-40fc-bb13-d6a22121eab7"},"vehicle_type_id":"4","last_reported":1734527923,"current_range_meters":24800,"station_id":"ce4bhi12rcd13ifvqfp0","pricing_plan_id":"cebpf4jnsgd1na2vs0mg"},{"bike_id":"cf0b7432-5414-4161-9179-3025629be08a","system_id":"levelo_inurba_marseille","lat":43.25819,"lon":5.39428,"is_reserved":false,"is_disabled":false,"rental_uris":{"android":"levelo://app?vid=cf0b7432-5414-4161-9179-3025629be08a","ios":"levelo://app?vid=cf0b7432-5414-4161-9179-3025629be08a"},"vehicle_type_id":"4","last_reported":1734527923,"current_range_meters":38800,"station_id":"ce4bhip2rcd13ifvqft0","pricing_plan_id":"cebpf4jnsgd1na2vs0mg"},{"bike_id":"ce2878c0-78cc-4baa-a7b0-a29e7ff5e032","system_id":"levelo_inurba_marseille","lat":43.29927,"lon":5.37464,"is_reserved":false,"is_disabled":false,"rental_uris":{"android":"levelo://app?vid=ce2878c0-78cc-4baa-a7b0-a29e7ff5e032","ios":"levelo://app?vid=ce2878c0-78cc-4baa-a7b0-a29e7ff5e032"},"vehicle_type_id":"4","last_reported":1734527923,"current_range_meters":38800,"station_id":"ce4bgjh2rcd13ifvqbg0","pricing_plan_id":"cebpf4jnsgd1na2vs0mg"},{"bike_id":"4ba3c271-8664-4d2d-bc52-e9bc05d98e16","system_id":"levelo_inurba_marseille","lat":43.34128,"lon":5.40915,"is_reserved":false,"is_disabled":false,"rental_uris":{"android":"levelo://app?vid=4ba3c271-8664-4d2d-bc52-e9bc05d98e16","ios":"levelo://app?vid=4ba3c271-8664-4d2d-bc52-e9bc05d98e16"},"vehicle_type_id":"4","last_reported":1734527923,"current_range_meters":8400,"station_id":"ce4bhqh2rcd13ifvqhlg","pricing_plan_id":"cebpf4jnsgd1na2vs0mg"},{"bike_id":"d51b49fa-b8ee-45fb-ae69-b5c3f9283df6","system_id":"levelo_inurba_marseille","lat":43.302733,"lon":5.377057,"is_reserved":false,"is_disabled":false,"rental_uris":{"android":"levelo://app?vid=d51b49fa-b8ee-45fb-ae69-b5c3f9283df6","ios":"levelo://app?vid=d51b49fa-b8ee-45fb-ae69-b5c3f9283df6"},"vehicle_type_id":"4","last_reported":1734527923,"current_range_meters":36800,"station_id":"ce4bguh2rcd13ifvqcj0","pricing_plan_id":"cebpf4jnsgd1na2vs0mg"},{"bike_id":"ed29f22f-4957-4da2-bc3c-fe2d49dbf5d3","system_id":"levelo_inurba_marseille","lat":43.3046,"lon":5.37903,"is_reserved":false,"is_disabled":true,"rental_uris":{"android":"levelo://app?vid=ed29f22f-4957-4da2-bc3c-fe2d49dbf5d3","ios":"levelo://app?vid=ed29f22f-4957-4da2-bc3c-fe2d49dbf5d3"},"vehicle_type_id":"4","last_reported":1734527923,"current_range_meters":0,"station_id":"ce4bgup2rcd13ifvqcn0","pricing_plan_id":"cebpf4jnsgd1na2vs0mg"},