{"last_updated":1729606153,"ttl":60,"version":"2.2","data":{"bikes":[{"bike_id":"2b481ffb-decd-43d2-bfda-e045796d0aa3","system_id":"levelo_inurba_marseille","lat":43.30454,"lon":5.37907,"is_reserved":false,"is_disabled":false,"rental_uris":{"android":"levelo://app?vid=2b481ffb-decd-43d2-bfda-e045796d0aa3","ios":"levelo://app?vid=2b481ffb-decd-43d2-bfda-e045796d0aa3"},"vehicle_type_id":"4","last_reported":1729606153,"current_range_meters":36400,"station_id":"ce4bgup2rcd13ifvqcn0","pricing_plan_id":"cebpf4jnsgd1na2vs0mg"},{"bike_id":"a29beb72-507c-4343-9f6b-7c76f5d39608","system_id":"levelo_inurba_marseille","lat":43.3361,"lon":5.41029,"is_reserved":false,"is_disabled":false,"rental_uris":{"android":"levelo://app?vid=a29beb72-507c-4343-9f6b-7c76f5d39608","ios":"levelo://app?vid=a29beb72-507c-4343-9f6b-7c76f5d39608"},"vehicle_type_id":"4","last_reported":1729606153,"current_range_meters":38800,"station_id":"ce4bhqh2rcd13ifvqhmg","pricing_plan_id":"cebpf4jnsgd1na2vs0mg"},{"bike_id":"e391284e-19f6-451c-9216-23ceed361279","system_id":"levelo_inurba_marseille","lat":43.30265,"lon":5.37697,"is_reserved":false,"is_disabled":false,"rental_uris":{"android":"levelo://app?vid=e391284e-19f6-451c-9216-23ceed361279","ios":"levelo://app?vid=e391284e-19f6-451c-9216-23ceed361279"},"vehicle_type_id":"4","last_reported":1729606153,"current_range_meters":38800,"station_id":"ce4bguh2rcd13ifvqcj0","pricing_plan_id":"cebpf4jnsgd1na2vs0mg"},{"bike_id":"21b3bc4a-1729-4894-a3e0-fcce2490fc22","system_id":"levelo_inurba_marseille","lat":43.29889,"lon":5.4366,"is_reserved":false,"is_disabled":false,"rental_uris":{"android":"levelo://app?vid=21b3bc4a-1729-4894-a3e0-fcce2490fc22","ios":"levelo://app?vid=21b3bc4a-1729-4894-a3e0-fcce2490fc22"},"vehicle_type_id":"4","last_reported":1729606153,"current_range_meters":24000,"station_id":"ce4bhpp2rcd13ifvqhfg","pricing_plan_id":"cebpf4jnsgd1na2vs0mg"},{"bike_id":"cffef2ba-3853-49e9-b877-451ac3f6e219","system_id":"levelo_inurba_marseille","lat":43.25502,"lon":5.37647,"is_reserved":false,"is_disabled":false,"rental_uris":{"android":"levelo://app?vid=cffef2ba-3853-49e9-b877-451ac3f6e219","ios":"levelo://app?vid=cffef2ba-3853-49e9-b877-451ac3f6e219"},"vehicle_type_id":"4","last_reported":1729606153,"current_range_meters":4800,"station_id":"ce4bhh12rcd13ifvqff0","pricing_plan_id":"cebpf4jnsgd1na2vs0mg"},{"bike_id":"030f9bfa-b8fe-41b6-b0a2-3f18b463665a","system_id":"levelo_inurba_marseille","lat":43.27966,"lon":5.38725,"is_reserved":false,"is_disabled":false,"rental_uris":{"android":"levelo://app?vid=030f9bfa-b8fe-41b6-b0a2-3f18b463665a","ios":"levelo://app?vid=030f9bfa-b8fe-41b6-b0a2-3f18b463665a"},"vehicle_type_id":"4","last_reported":1729606153,"current_range_meters":19200,"station_id":"ce4bhg12rcd13ifvqf80","pricing_plan_id":"cebpf4jnsgd1na2vs0mg"},{"bike_id":"f9446e24-66c0-49b0-b40b-67b75d44c9d2","system_id":"levelo_inurba_marseille","lat":43.27063,"lon":5.42273,"is_reserved":false,"is_disabled":false,"rental_uris":{"android":"levelo://app?vid=f9446e24-66c0-49b0-b40b-67b75d44c9d2","ios":"levelo://app?vid=f9446e24-66c0-49b0-b40b-67b75d44c9d2"},"vehicle_type_id":"4","last_reported":1729606153,"current_range_meters":38800,"station_id":"ce4bhk92rcd13ifvqgb0","pricing_plan_id":"cebpf4jnsgd1na2vs0mg"},{"bike_id":"918def27-3082-4a9c-8708-ef1d24aa382c","system_id":"levelo_inurba_marseille","lat":43.29006,"lon":5.35621,"is_reserved":false,"is_disabled":false,"rental_uris":{"android":"levelo://app?vid=918def27-3082-4a9c-8708-ef1d24aa382c","ios":"levelo://app?vid=918def27-3082-4a9c-8708-ef1d24aa382c"},"vehicle_type_id":"4","last_reported":1729606153,"current_range_meters":12000,"station_id":"ce4bhb92rcd13ifvqen0","pricing_plan_id":"cebpf4jnsgd1na2vs0mg"},{"bike_id":"25a6dc7b-7c96-4d93-964d-1c5b0c2e2ce0","system_id":"levelo_inurba_marseille","lat":43.285919,"lon":5.387718,"is_reserved":false,"is_disabled":false,"rental_uris":{"android":"levelo://app?vid=25a6dc7b-7c96-4d93-964d-1c5b0c2e2ce0","ios":"levelo://app?vid=25a6dc7b-7c96-4d93-964d-1c5b0c2e2ce0"},"vehicle_type_id":"4","last_reported":1729606153,"current_range_meters":16800,"station_id":"","pricing_plan_id":"cebpf4jnsgd1na2vs0mg"},{"bike_id":"bf3ba10b-2215-4819-9281-fdd246dc1f81","system_id":"levelo_inurba_marseille","lat":43.27373,"lon":5.36263,"is_reserved":false,"is_disabled":false,"rental_uris":{"android":"levelo://app?vid=bf3ba10b-2215-4819-9281-fdd246dc1f81","ios":"levelo://app?vid=bf3ba10b-2215-4819-9281-fdd246dc1f81"},"vehicle_type_id":"4","last_reported":1729606153,"current_range_meters":38000,"station_id":"ce4bhbh2rcd13ifvqeo0","pricing_plan_id":"cebpf4jnsgd1na2vs0mg"},{"bike_id":"f8460ba4-0a35-4c19-80b3-ac0a186108ef","system_id":"levelo_inurba_marseille","lat":43.26784,"lon":5.39413,"is_reserved":false,"is_disabled":false,"rental_uris":{"android":"levelo://app?vid=f8460ba4-0a35-4c19-80b3-ac0a186108ef","ios":"levelo://app?vid=f8460ba4-0a35-4c19-80b3-ac0a186108ef"},"vehicle_type_id":"4","last_reported":1729606153,"current_range_meters":18800,"station_id":"ce4bhh12rcd13ifvqfg0","pricing_plan_id":"cebpf4jnsgd1na2vs0mg"},{"bike_id":"2732ddfc-88ef-46a5-85f3-89996f1f2baa","system_id":"levelo_inurba_marseille","lat":43.2937,"lon":5.37844,"is_reserved":false,"is_disabled":false,"rental_uris":{"android":"levelo://app?vid=2732ddfc-88ef-46a5-85f3-89996f1f2baa","ios":"levelo://app?vid=2732ddfc-88ef-46a5-85f3-89996f1f2baa"},"vehicle_type_id":"4","last_reported":1729606153,"current_range_meters":33600,"station_id":"ce4bgjh2rcd13ifvqbf0","pricing_plan_id":"cebpf4jnsgd1na2vs0mg"},{"bike_id":"d150a7ca-2826-47db-a5c4-fa5cfa323393","system_id":"levelo_inurba_marseille","lat":43.273726,"lon":5.362375,"is_reserved":false,"is_disabled":false,"rental_uris":{"android":"levelo://app?vid=d150a7ca-2826-47db-a5c4-fa5cfa323393","ios":"levelo://app?vid=d150a7ca-2826-47db-a5c4-fa5cfa323393"},"vehicle_type_id":"4","last_reported":1729606153,"current_range_meters":30000,"station_id":"ce4bhbh2rcd13ifvqeo0","pricing_plan_id":"cebpf4jnsgd1na2vs0mg"},{"bike_id":"c863ab3d-1edc-4863-a6c7-73e4e0932069","system_id":"levelo_inurba_marseille","lat":43.33604,"lon":5.41023,"is_reserved":false,"is_disabled":false,"rental_uris":{"android":"levelo://app?vid=c863ab3d-1edc-4863-a6c7-73e4e0932069","ios":"levelo://app?vid=c863ab3d-1edc-4863-a6c7-73e4e0932069"},"vehicle_type_id":"4","last_reported":1729606153,"current_range_meters":38800,"station_id":"ce4bhqh2rcd13ifvqhmg","pricing_plan_id":"cebpf4jnsgd1na2vs0mg"},{"bike_id":"d26720d8-0182-4601-851b-347232e3b2b6","system_id":"levelo_inurba_marseille","lat":43.27369,"lon":5.36256,"is_reserved":false,"is_disabled":false,"rental_uris":{"android":"levelo://app?vid=d26720d8-0182-4601-851b-347232e3b2b6","ios":"levelo://app?vid=d26720d8-0182-4601-851b-347232e3b2b6"},"vehicle_type_id":"4","last_reported":1729606153,"current_range_meters":35600,"station_id":"ce4bhbh2rcd13ifvqeo0","pricing_plan_id":"cebpf4jnsgd1na2vs0mg"},{"bike_id":"a68e76dd-bac8-4d37-b112-d219acd9c376","system_id":"levelo_inurba_marseille","lat":43.29566,"lon":5.37519,"is_reserved":false,"is_disabled":false,"rental_uris":{"android":"levelo://app?vid=a68e76dd-bac8-4d37-b112-d219acd9c376","ios":"levelo://app?vid=a68e76dd-bac8-4d37-b112-d219acd9c376"},"vehicle_type_id":"4","last_reported":1729606153,"current_range_meters":32000,"station_id":"ce4bgh92rcd13ifvqb50","pricing_plan_id":"cebpf4jnsgd1na2vs0mg"},{"bike_id":"5c449356-4ac4-4d08-a405-c433fbe21a80","system_id":"levelo_inurba_marseille","lat":43.33737,"lon":5.37458,"is_reserved":false,"is_disabled":false,"rental_uris":{"android":"levelo://app?vid=5c449356-4ac4-4d08-a405-c433fbe21a80","ios":"levelo://app?vid=5c449356-4ac4-4d08-a405-c433fbe21a80"},"vehicle_type_id":"4","last_reported":1729606153,"current_range_meters":33600,"station_id":"","pricing_plan_id":"cebpf4jnsgd1na2vs0mg"},{"bike_id":"3329350d-e1ee-4bc9-8fb1-6b1c8a260561","system_id":"levelo_inurba_marseille","lat":43.2923,"lon":5.36064,"is_reserved":false,"is_disabled":false,"rental_uris":{"android":"levelo://app?vid=3329350d-e1ee-4bc9-8fb1-6b1c8a260561","ios":"levelo://app?vid=3329350d-e1ee-4bc9-8fb1-6b1c8a260561"},"vehicle_type_id":"4","last_reported":1729606153,"current_range_meters":38800,"station_id":"ce4bhbh2rcd13ifvqeqg","pricing_plan_id":"cebpf4jnsgd1na2vs0mg"},{"bike_id":"c32831a9-e064-4d70-bbdd-66063ddbadde","system_id":"levelo_inurba_marseille","lat":43.25929,"lon":5.40901,"is_reserved":false,"is_disabled":false,"rental_uris":{"android":"levelo://app?vid=c32831a9-e064-4d70-bbdd-66063ddbadde","ios":"levelo://app?vid=c32831a9-e064-4d70-bbdd-66063ddbadde"},"vehicle_type_id":"4","last_reported":1729606153,"current_range_meters":30800,"station_id":"ce4bhm92rcd13ifvqglg","pricing_plan_id":"cebpf4jnsgd1na2vs0mg"},{"bike_id":"5c6ee1a9-bb2f-42e4-99d6-bddab0a71f0b","system_id":"levelo_inurba_marseille","lat":43.24649,"lon":5.388966,"is_reserved":false,"is_disabled":false,"rental_uris":{"android":"levelo://app?vid=5c6ee1a9-bb2f-42e4-99d6-bddab0a71f0b","ios":"levelo://app?vid=5c6ee1a9-bb2f-42e4-99d6-bddab0a71f0b"},"vehicle_type_id":"4","last_reported":1729606153,"current_range_meters":27600,"station_id":"ce4bhih2rcd13ifvqfs0","pricing_plan_id":"cebpf4jnsgd1na2vs0mg"},{"bike_id":"1a40e63c-34a4-4c90-b5b0-7bf6d4f7af12","system_id":"levelo_inurba_marseille","lat":43.28929,"lon":5.38397,"is_reserved":false,"is_disabled":false,"rental_uris":{"android":"levelo://app?vid=1a40e63c-34a4-4c90-b5b0-7bf6d4f7af12","ios":"levelo://app?vid=1a40e63c-34a4-4c90-b5b0-7bf6d4f7af12"},"vehicle_type_id":"4","last_reported":1729606153,"current_range_meters":36800,"station_id":"ce4bh612rcd13ifvqe6g","pricing_plan_id":"cebpf4jnsgd1na2vs0mg"},{"bike_id":"41ce1f6b-62bf-4b25-9f3c-35cfcfaca8a4","system_id":"levelo_inurba_marseille","lat":43.27461,"lon":5.36085,"is_reserved":false,"is_disabled":false,"rental_uris":{"android":"levelo://app?vid=41ce1f6b-62bf-4b25-9f3c-35cfcfaca8a4","ios":"levelo://app?vid=41ce1f6b-62bf-4b25-9f3c-35cfcfaca8a4"},"vehicle_type_id":"4","last_reported":1729606153,"current_range_meters":32400,"station_id":"ce4bha92rcd13ifvqeg0","pricing_plan_id":"cebpf4jnsgd1na2vs0mg"},{"bike_id":"e6582e63-7e5d-493a-9170-f5faf28b017c","system_id":"levelo_inurba_marseille","lat":43.239622,"lon":5.366344,"is_reserved":false,"is_disabled":false,"rental_uris":{"android":"levelo://app?vid=e6582e63-7e5d-493a-9170-f5faf28b017c","ios":"levelo://app?vid=e6582e63-7e5d-493a-9170-f5faf28b017c"},"vehicle_type_id":"4","last_reported":1729606153,"current_range_meters":33200,"station_id":"ce4bhi12rcd13ifvqfp0","pricing_plan_id":"cebpf4jnsgd1na2vs0mg"},{"bike_id":"fe228314-5cc0-4207-9abb-800a21f4916a","system_id":"levelo_inurba_marseille","lat":43.26781,"lon":5.39469,"is_reserved":false,"is_disabled":false,"rental_uris":{"android":"levelo://app?vid=fe228314-5cc0-4207-9abb-800a21f4916a","ios":"levelo://app?vid=fe228314-5cc0-4207-9abb-800a21f4916a"},"vehicle_type_id":"4","last_reported":1729606153,"current_range_meters":14000,"station_id":"ce4bhh12rcd13ifvqfg0","pricing_plan_id":"cebpf4jnsgd1na2vs0mg"},{"bike_id":"4bdbd79d-f4d1-4653-a93a-b40225818bc3","system_id":"levelo_inurba_marseille","lat":43.27204,"lon":5.39195,"is_reserved":false,"is_disabled":false,"rental_uris":{"android":"levelo://app?vid=4bdbd79d-f4d1-4653-a93a-b40225818bc3","ios":"levelo://app?vid=4bdbd79d-f4d1-4653-a93a-b40225818bc3"},"vehicle_type_id":"4","last_reported":1729606153,"current_range_meters":2000,"station_id":"ce4bhhp2rcd13ifvqfm0","pricing_plan_id":"cebpf4jnsgd1na2vs0mg"},{"bike_id":"6d53c141-c25a-4c03-bc57-5a71488e82a8","system_id":"levelo_inurba_marseille","lat":43.29906,"lon":5.37456,"is_reserved":false,"is_disabled":false,"rental_uris":{"android":"levelo://app?vid=6d53c141-c25a-4c03-bc57-5a71488e82a8","ios":"levelo://app?vid=6d53c141-c25a-4c03-bc57-5a71488e82a8"},"vehicle_type_id":"4","last_reported":1729606153,"current_range_meters":26000,"station_id":"ce4bgjh2rcd13ifvqbg0","pricing_plan_id":"cebpf4jnsgd1na2vs0mg"},{"bike_id":"3bb95d1d-9f30-40d2-840f-0512d6d42a6f","system_id":"levelo_inurba_marseille","lat":43.30601,"lon":5.37245,"is_reserved":false,"is_disabled":false,"rental_uris":{"android":"levelo://app?vid=3bb95d1d-9f30-40d2-840f-0512d6d42a6f","ios":"levelo://app?vid=3bb95d1d-9f30-40d2-840f-0512d6d42a6f"},"vehicle_type_id":"4","last_reported":1729606153,"current_range_meters":35600,"station_id":"ce4bgqh2rcd13ifvqc4g","pricing_plan_id":"cebpf4jnsgd1na2vs0mg"},{"bike_id":"0d3ee28b-1e1d-47c5-a9c4-e1d6709b0b68","system_id":"levelo_inurba_marseille","lat":43.30546,"lon":5.36559,"is_reserved":false,"is_disabled":false,"rental_uris":{"android":"levelo://app?vid=0d3ee28b-1e1d-47c5-a9c4-e1d6709b0b68","ios":"levelo://app?vid=0d3ee28b-1e1d-47c5-a9c4-e1d6709b0b68"},"vehicle_type_id":"4","last_reported":1729606153,"current_range_meters":36800,"station_id":"ce4bgs12rcd13ifvqcag","pricing_plan_id":"cebpf4jnsgd1na2vs0mg"},{"bike_id":"ccbb7aa4-963f-4d1f-8cc6-0fc40dab1b17","system_id":"levelo_inurba_marseille","lat":43.28715,"lon":5.36094,"is_reserved":false,"is_disabled":false,"rental_uris":{"android":"levelo://app?vid=ccbb7aa4-963f-4d1f-8cc6-0fc40dab1b17","ios":"levelo://app?vid=ccbb7aa4-963f-4d1f-8cc6-0fc40dab1b17"},"vehicle_type_id":"4","last_reported":1729606153,"current_range_meters":36800,"station_id":"cki0cbj6b192h4jlfktg","pricing_plan_id":"cebpf4jnsgd1na2vs0mg"},{"bike_id":"9125e493-d7d9-4013-9001-11870fd0c175","system_id":"levelo_inurba_marseille","lat":43.28702,"lon":5.39986,"is_reserved":false,"is_disabled":false,"rental_uris":{"android":"levelo://app?vid=9125e493-d7d9-4013-9001-11870fd0c175","ios":"levelo://app?vid=9125e493-d7d9-4013-9001-11870fd0c175"},"vehicle_type_id":"4","last_reported":1729606153,"current_range_meters":34000,"station_id":"ce4bho92rcd13ifvqh3g","pricing_plan_id":"cebpf4jnsgd1na2vs0mg"},{"bike_id":"c74121a6-ed1c-4500-8669-50f7244f4553","system_id":"levelo_inurba_marseille","lat":43.25108,"lon":5.40318,"is_reserved":false,"is_disabled":false,"rental_uris":{"android":"levelo://app?vid=c74121a6-ed1c-4500-8669-50f7244f4553","ios":"levelo://app?vid=c74121a6-ed1c-4500-8669-50f7244f4553"},"vehicle_type_id":"4","last_reported":1729606153,"current_range_meters":26000,"station_id":"ce4bhlh2rcd13ifvqgig","pricing_plan_id":"cebpf4jnsgd1na2vs0mg"},{"bike_id":"4a50b9f2-2590-4ca5-ab41-4bb2462c2a9d","system_id":"levelo_inurba_marseille","lat":43.29805,"lon":5.38086,"is_reserved":false,"is_disabled":false,"rental_uris":{"android":"levelo://app?vid=4a50b9f2-2590-4ca5-ab41-4bb2462c2a9d","ios":"levelo://app?vid=4a50b9f2-2590-4ca5-ab41-4bb2462c2a9d"},"vehicle_type_id":"4","last_reported":1729606153,"current_range_meters":37600,"station_id":"ce4bgip2rcd13ifvqbb0","pricing_plan_id":"cebpf4jnsgd1na2vs0mg"},{"bike_id":"26c8567d-0a71-4e7c-ae76-992519d6c28e","system_id":"levelo_inurba_marseille","lat":43.29974,"lon":5.38482,"is_reserved":false,"is_disabled":false,"rental_uris":{"android":"levelo://app?vid=26c8567d-0a71-4e7c-ae76-992519d6c28e","ios":"levelo://app?vid=26c8567d-0a71-4e7c-ae76-992519d6c28e"},"vehicle_type_id":"4","last_reported":1729606153,"current_range_meters":20400,"station_id":"ce4bgj92rcd13ifvqbd0","pricing_plan_id":"cebpf4jnsgd1na2vs0mg"},{"bike_id":"fbd25d20-e52b-4ccf-883b-6176545b2102","system_id":"levelo_inurba_marseille","lat":43.295166,"lon":5.400925,"is_reserved":false,"is_disabled":false,"rental_uris":{"android":"levelo://app?vid=fbd25d20-e52b-4ccf-883b-6176545b2102","ios":"levelo://app?vid=fbd25d20-e52b-4ccf-883b-6176545b2102"},"vehicle_type_id":"4","last_reported":1729606153,"current_range_meters":38800,"station_id":"ce4bh312rcd13ifvqdj0","pricing_plan_id":"cebpf4jnsgd1na2vs0mg"},{"bike_id":"4618cc2c-fba6-4556-b7a3-f469bfff64e6","system_id":"levelo_inurba_marseille","lat":43.28413,"lon":5.34977,"is_reserved":false,"is_disabled":false,"rental_uris":{"android":"levelo://app?vid=4618cc2c-fba6-4556-b7a3-f469bfff64e6","ios":"levelo://app?vid=4618cc2c-fba6-4556-b7a3-f469bfff64e6"},"vehicle_type_id":"4","last_reported":1729606153,"current_range_meters":39200,"station_id":"ce4bhbh2rcd13ifvqepg","pricing_plan_id":"cebpf4jnsgd1na2vs0mg"},{"bike_id":"42a055a9-fa2b-4a1f-945c-3567bd7d5794","system_id":"levelo_inurba_marseille","lat":43.26788,"lon":5.39417,"is_reserved":false,"is_disabled":false,"rental_uris":{"android":"levelo://app?vid=42a055a9-fa2b-4a1f-945c-3567bd7d5794","ios":"levelo://app?vid=42a055a9-fa2b-4a1f-945c-3567bd7d5794"},"vehicle_type_id":"4","last_reported":1729606153,"current_range_meters":38800,"station_id":"ce4bhh12rcd13ifvqfg0","pricing_plan_id":"cebpf4jnsgd1na2vs0mg"},{"bike_id":"abe658d4-12a8-41db-b6b3-738fdbd608a2","system_id":"levelo_inurba_marseille","lat":43.2319,"lon":5.35557,"is_reserved":false,"is_disabled":false,"rental_uris":{"android":"levelo://app?vid=abe658d4-12a8-41db-b6b3-738fdbd608a2","ios":"levelo://app?vid=abe658d4-12a8-41db-b6b3-738fdbd608a2"},"vehicle_type_id":"4","last_reported":1729606153,"current_range_meters":36000,"station_id":"ce4bhu92rcd13ifvqi70","pricing_plan_id":"cebpf4jnsgd1na2vs0mg"},{"bike_id":"24c24055-021e-4167-a4b3-3484bc70c743","system_id":"levelo_inurba_marseille","lat":43.305908,"lon":5.393679,"is_reserved":false,"is_disabled":false,"rental_uris":{"android":"levelo://app?vid=24c24055-021e-4167-a4b3-3484bc70c743","ios":"levelo://app?vid=24c24055-021e-4167-a4b3-3484bc70c743"},"vehicle_type_id":"4","last_reported":1729606153,"current_range_meters":38400,"station_id":"ce4bh0p2rcd13ifvqd80","pricing_plan_id":"cebpf4jnsgd1na2vs0mg"},{"bike_id":"ecf5aaf1-3072-45c8-bc85-9209f1480bbf","system_id":"levelo_inurba_marseille","lat":43.23155,"lon":5.43698,"is_reserved":false,"is_disabled":false,"rental_uris":{"android":"levelo://app?vid=ecf5aaf1-3072-45c8-bc85-9209f1480bbf","ios":"levelo://app?vid=ecf5aaf1-3072-45c8-bc85-9209f1480bbf"},"vehicle_type_id":"4","last_reported":1729606153,"current_range_meters":23200,"station_id":"ce4bhmp2rcd13ifvqgog","pricing_plan_id":"cebpf4jnsgd1na2vs0mg"},{"bike_id":"241041c5-2e63-4fd1-8376-6a6e8186dc2f","system_id":"levelo_inurba_marseille","lat":43.26207,"lon":5.37443,"is_reserved":false,"is_disabled":false,"rental_uris":{"android":"levelo://app?vid=241041c5-2e63-4fd1-8376-6a6e8186dc2f","ios":"levelo://app?vid=241041c5-2e63-4fd1-8376-6a6e8186dc2f"},"vehicle_type_id":"4","last_reported":1729606153,"current_range_meters":16800,"station_id":"ce4bhgp2rcd13ifvqfc0","pricing_plan_id":"cebpf4jnsgd1na2vs0mg"},{"bike_id":"9fab1340-056d-418a-8024-e4e09dc98803","system_id":"levelo_inurba_marseille","lat":43.25583,"lon":5.38238,"is_reserved":false,"is_disabled":false,"rental_uris":{"android":"levelo://app?vid=9fab1340-056d-418a-8024-e4e09dc98803","ios":"levelo://app?vid=9fab1340-056d-418a-8024-e4e09dc98803"},"vehicle_type_id":"4","last_reported":1729606153,"current_range_meters":2000,"station_id":"ce4bhih2rcd13ifvqfs0","pricing_plan_id":"cebpf4jnsgd1na2vs0mg"},{"bike_id":"4830c323-1ecb-4110-ba0d-84decef27ec1","system_id":"levelo_inurba_marseille","lat":43.30174,"lon":5.36613,"is_reserved":false,"is_disabled":false,"rental_uris":{"android":"levelo://app?vid=4830c323-1ecb-4110-ba0d-84decef27ec1","ios":"levelo://app?vid=4830c323-1ecb-4110-ba0d-84decef27ec1"},"vehicle_type_id":"4","last_reported":1729606153,"current_range_meters":30800,"station_id":"ce4bgrh2rcd13ifvqc8g","pricing_plan_id":"cebpf4jnsgd1na2vs0mg"},{"bike_id":"328df592-d7c3-455e-815e-fdd19f72cd7b","system_id":"levelo_inurba_marseille","lat":43.305967,"lon":5.367297,"is_reserved":false,"is_disabled":false,"rental_uris":{"android":"levelo://app?vid=328df592-d7c3-455e-815e-fdd19f72cd7b","ios":"levelo://app?vid=328df592-d7c3-455e-815e-fdd19f72cd7b"},"vehicle_type_id":"4","last_reported":1729606153,"current_range_meters":21600,"station_id":"ce4bgrp2rcd13ifvqc9g","pricing_plan_id":"cebpf4jnsgd1na2vs0mg"},{"bike_id":"3c2cac0d-a262-4856-9c01-7aa83ebe6548","system_id":"levelo_inurba_marseille","lat":43.30542,"lon":5.3656,"is_reserved":false,"is_disabled":false,"rental_uris":{"android":"levelo://app?vid=3c2cac0d-a262-4856-9c01-7aa83ebe6548","ios":"levelo://app?vid=3c2cac0d-a262-4856-9c01-7aa83ebe6548"},"vehicle_type_id":"4","last_reported":1729606153,"current_range_meters":28000,"station_id":"ce4bgs12rcd13ifvqcag","pricing_plan_id":"cebpf4jnsgd1na2vs0mg"},{"bike_id":"b2e1c869-a3ab-499c-b5c6-de9c9df8d37c","system_id":"levelo_inurba_marseille","lat":43.33752,"lon":5.37497,"is_reserved":false,"is_disabled":false,"rental_uris":{"android":"levelo://app?vid=b2e1c869-a3ab-499c-b5c6-de9c9df8d37c","ios":"levelo://app?vid=b2e1c869-a3ab-499c-b5c6-de9c9df8d37c"},"vehicle_type_id":"4","last_reported":1729606153,"current_range_meters":38800,"station_id":"","pricing_plan_id":"cebpf4jnsgd1na2vs0mg"},{"bike_id":"5bd91ff0-5f65-407a-a1c2-9497ba65e20b","system_id":"levelo_inurba_marseille","lat":43.29166,"lon":5.37147,"is_reserved":false,"is_disabled":false,"rental_uris":{"android":"levelo://app?vid=5bd91ff0-5f65-407a-a1c2-9497ba65e20b","ios":"levelo://app?vid=5bd91ff0-5f65-407a-a1c2-9497ba65e20b"},"vehicle_type_id":"4","last_reported":1729606153,"current_range_meters":29600,"station_id":"ce4bha92rcd13ifvqeh0","pricing_plan_id":"cebpf4jnsgd1na2vs0mg"},{"bike_id":"a086d2c1-c754-4377-9aee-55d1bfe6a516","system_id":"levelo_inurba_marseille","lat":43.29619,"lon":5.37165,"is_reserved":false,"is_disabled":false,"rental_uris":{"android":"levelo://app?vid=a086d2c1-c754-4377-9aee-55d1bfe6a516","ios":"levelo://app?vid=a086d2c1-c754-4377-9aee-55d1bfe6a516"},"vehicle_type_id":"4","last_reported":1729606153,"current_range_meters":38400,"station_id":"ce4bgnh2rcd13ifvqc0g","pricing_plan_id":"cebpf4jnsgd1na2vs0mg"},{"bike_id":"6f32456f-e32e-45f8-bc9f-7855837cfce5","system_id":"levelo_inurba_marseille","lat":43.24802,"lon":5.37457,"is_reserved":false,"is_disabled":false,"rental_uris":{"android":"levelo://app?vid=6f32456f-e32e-45f8-bc9f-7855837cfce5","ios":"levelo://app?vid=6f32456f-e32e-45f8-bc9f-7855837cfce5"},"vehicle_type_id":"4","last_reported":1729606153,"current_range_meters":38800,"station_id":"ce4bhgh2rcd13ifvqfb0","pricing_plan_id":"cebpf4jnsgd1na2vs0mg"},{"bike_id":"d84dd528-04c0-46e5-91ba-ae6395049165","system_id":"levelo_inurba_marseille","lat":43.27995,"lon":5.40019,"is_reserved":false,"is_disabled":false,"rental_uris":{"android":"levelo://app?vid=d84dd528-04c0-46e5-91ba-ae6395049165","ios":"levelo://app?vid=d84dd528-04c0-46e5-91ba-ae6395049165"},"vehicle_type_id":"4","last_reported":1729606153,"current_range_meters":15200,"station_id":"ce4bho92rcd13ifvqh4g","pricing_plan_id":"cebpf4jnsgd1na2vs0mg"},{"bike_id":"3c2e9290-6792-4e2d-b00d-712b965be0bd","system_id":"levelo_inurba_marseille","lat":43.2558,"lon":5.38238,"is_reserved":false,"is_disabled":false,"rental_uris":{"android":"levelo://app?vid=3c2e9290-6792-4e2d-b00d-712b965be0bd","ios":"levelo://app?vid=3c2e9290-6792-4e2d-b00d-712b965be0bd"},"vehicle_type_id":"4","last_reported":1729606153,"current_range_meters":24000,"station_id":"ce4bhih2rcd13ifvqfs0","pricing_plan_id":"cebpf4jnsgd1na2vs0mg"},{"bike_id":"02594453-fddb-4059-bfeb-d744dd63f81b","system_id":"levelo_inurba_marseille","lat":43.28,"lon":5.41667,"is_reserved":false,"is_disabled":false,"rental_uris":{"android":"levelo://app?vid=02594453-fddb-4059-bfeb-d744dd63f81b","ios":"levelo://app?vid=02594453-fddb-4059-bfeb-d744dd63f81b"},"vehicle_type_id":"4","last_reported":1729606153,"current_range_meters":38000,"station_id":"ce4bho12rcd13ifvqh1g","pricing_plan_id":"cebpf4jnsgd1na2vs0mg"},{"bike_id":"6b19548c-dc85-4ddd-97a3-97c490e4b5fc","system_id":"levelo_inurba_marseille","lat":43.33031,"lon":5.39034,"is_reserved":false,"is_disabled":false,"rental_uris":{"android":"levelo://app?vid=6b19548c-dc85-4ddd-97a3-97c490e4b5fc","ios":"levelo://app?vid=6b19548c-dc85-4ddd-97a3-97c490e4b5fc"},"vehicle_type_id":"4","last_reported":1729606153,"current_range_meters":38400,"station_id":"ce4bhr92rcd13ifvqhrg","pricing_plan_id":"cebpf4jnsgd1na2vs0mg"},{"bike_id":"582e189d-8514-4a9a-b618-c582faa508c2","system_id":"levelo_inurba_marseille","lat":43.31131,"lon":5.37789,"is_reserved":false,"is_disabled":false,"rental_uris":{"android":"levelo://app?vid=582e189d-8514-4a9a-b618-c582faa508c2","ios":"levelo://app?vid=582e189d-8514-4a9a-b618-c582faa508c2"},"vehicle_type_id":"4","last_reported":1729606153,"current_range_meters":9200,"station_id":"ce4bgt92rcd13ifvqcg0","pricing_plan_id":"cebpf4jnsgd1na2vs0mg"},{"bike_id":"566ef3cd-3e87-4087-a6aa-32a145c590e2","system_id":"levelo_inurba_marseille","lat":43.25579,"lon":5.38234,"is_reserved":false,"is_disabled":false,"rental_uris":{"android":"levelo://app?vid=566ef3cd-3e87-4087-a6aa-32a145c590e2","ios":"levelo://app?vid=566ef3cd-3e87-4087-a6aa-32a145c590e2"},"vehicle_type_id":"4","last_reported":1729606153,"current_range_meters":11600,"station_id":"ce4bhih2rcd13ifvqfs0","pricing_plan_id":"cebpf4jnsgd1na2vs0mg"},{"bike_id":"e73397ec-41ef-401f-966f-7b0b12ace5aa","system_id":"levelo_inurba_marseille","lat":43.23195,"lon":5.35555,"is_reserved":false,"is_disabled":false,"rental_uris":{"android":"levelo://app?vid=e73397ec-41ef-401f-966f-7b0b12ace5aa","ios":"levelo://app?vid=e73397ec-41ef-401f-966f-7b0b12ace5aa"},"vehicle_type_id":"4","last_reported":1729606153,"current_range_meters":38800,"station_id":"ce4bhu92rcd13ifvqi70","pricing_plan_id":"cebpf4jnsgd1na2vs0mg"},{"bike_id":"4ecf189d-2cc2-4278-add4-8f877f05628b","system_id":"levelo_inurba_marseille","lat":43.30884,"lon":5.37194,"is_reserved":false,"is_disabled":false,"rental_uris":{"android":"levelo://app?vid=4ecf189d-2cc2-4278-add4-8f877f05628b","ios":"levelo://app?vid=4ecf189d-2cc2-4278-add4-8f877f05628b"},"vehicle_type_id":"4","last_reported":1729606153,"current_range_meters":38800,"station_id":"ce4bguh2rcd13ifvqckg","pricing_plan_id":"cebpf4jnsgd1na2vs0mg"},{"bike_id":"a2e39f87-fcd2-4213-a290-a8750753522e","system_id":"levelo_inurba_marseille","lat":43.28467,"lon":5.38415,"is_reserved":false,"is_disabled":false,"rental_uris":{"android":"levelo://app?vid=a2e39f87-fcd2-4213-a290-a8750753522e","ios":"levelo://app?vid=a2e39f87-fcd2-4213-a290-a8750753522e"},"vehicle_type_id":"4","last_reported":1729606153,"current_range_meters":9600,"station_id":"ce4bh512rcd13ifvqe3g","pricing_plan_id":"cebpf4jnsgd1na2vs0mg"},{"bike_id":"1d091434-1882-4628-a3ed-3e046358a530","system_id":"levelo_inurba_marseille","lat":43.27564,"lon":5.38418,"is_reserved":false,"is_disabled":false,"rental_uris":{"android":"levelo://app?vid=1d091434-1882-4628-a3ed-3e046358a530","ios":"levelo://app?vid=1d091434-1882-4628-a3ed-3e046358a530"},"vehicle_type_id":"4","last_reported":1729606153,"current_range_meters":27200,"station_id":"ce4bhh92rcd13ifvqfi0","pricing_plan_id":"cebpf4jnsgd1na2vs0mg"},{"bike_id":"4db5f57a-1837-492d-ba97-4e606b1a8f25","system_id":"levelo_inurba_marseille","lat":43.24175,"lon":5.39725,"is_reserved":false,"is_disabled":false,"rental_uris":{"android":"levelo://app?vid=4db5f57a-1837-492d-ba97-4e606b1a8f25","ios":"levelo://app?vid=4db5f57a-1837-492d-ba97-4e606b1a8f25"},"vehicle_type_id":"4","last_reported":1729606153,"current_range_meters":37600,"station_id":"ce4bhn12rcd13ifvqgpg","pricing_plan_id":"cebpf4jnsgd1na2vs0mg"},{"bike_id":"abaa7a70-fef5-45f6-a2e7-c62943b39b0b","system_id":"levelo_inurba_marseille","lat":43.24675,"lon":5.38171,"is_reserved":false,"is_disabled":false,"rental_uris":{"android":"levelo://app?vid=abaa7a70-fef5-45f6-a2e7-c62943b39b0b","ios":"levelo://app?vid=abaa7a70-fef5-45f6-a2e7-c62943b39b0b"},"vehicle_type_id":"4","last_reported":1729606153,"current_range_meters":19600,"station_id":"ce4bhih2rcd13ifvqfr0","pricing_plan_id":"cebpf4jnsgd1na2vs0mg"},{"bike_id":"dad98780-ab9f-465c-924e-7a746bf1c782","system_id":"levelo_inurba_marseille","lat":43.29907,"lon":5.38161,"is_reserved":false,"is_disabled":false,"rental_uris":{"android":"levelo://app?vid=dad98780-ab9f-465c-924e-7a746bf1c782","ios":"levelo://app?vid=dad98780-ab9f-465c-924e-7a746bf1c782"},"vehicle_type_id":"4","last_reported":1729606153,"current_range_meters":39200,"station_id":"ce4bgj12rcd13ifvqbc0","pricing_plan_id":"cebpf4jnsgd1na2vs0mg"},{"bike_id":"645a50d8-f9b9-4b52-8318-4372100021e8","system_id":"levelo_inurba_marseille","lat":43.28614,"lon":5.35099,"is_reserved":false,"is_disabled":false,"rental_uris":{"android":"levelo://app?vid=645a50d8-f9b9-4b52-8318-4372100021e8","ios":"levelo://app?vid=645a50d8-f9b9-4b52-8318-4372100021e8"},"vehicle_type_id":"4","last_reported":1729606153,"current_range_meters":4400,"station_id":"ce4bhch2rcd13ifvqeug","pricing_plan_id":"cebpf4jnsgd1na2vs0mg"},{"bike_id":"432757fd-4b1a-4c16-99ee-1470b6d0696c","system_id":"levelo_inurba_marseille","lat":43.281036,"lon":5.378296,"is_reserved":false,"is_disabled":false,"rental_uris":{"android":"levelo://app?vid=432757fd-4b1a-4c16-99ee-1470b6d0696c","ios":"levelo://app?vid=432757fd-4b1a-4c16-99ee-1470b6d0696c"},"vehicle_type_id":"4","last_reported":1729606153,"current_range_meters":38800,"station_id":"ce4bha12rcd13ifvqee0","pricing_plan_id":"cebpf4jnsgd1na2vs0mg"},{"bike_id":"29d7ba31-5318-4be3-a0a1-d4e4ce32ecdc","system_id":"levelo_inurba_marseille","lat":43.28361,"lon":5.38106,"is_reserved":false,"is_disabled":false,"rental_uris":{"android":"levelo://app?vid=29d7ba31-5318-4be3-a0a1-d4e4ce32ecdc","ios":"levelo://app?vid=29d7ba31-5318-4be3-a0a1-d4e4ce32ecdc"},"vehicle_type_id":"4","last_reported":1729606153,"current_range_meters":20800,"station_id":"ce4bh412rcd13ifvqdr0","pricing_plan_id":"cebpf4jnsgd1na2vs0mg"},{"bike_id":"67349b8d-80b3-4749-832d-07f7e424b34c","system_id":"levelo_inurba_marseille","lat":43.26678,"lon":5.38265,"is_reserved":false,"is_disabled":false,"rental_uris":{"android":"levelo://app?vid=67349b8d-80b3-4749-832d-07f7e424b34c","ios":"levelo://app?vid=67349b8d-80b3-4749-832d-07f7e424b34c"},"vehicle_type_id":"4","last_reported":1729606153,"current_range_meters":38800,"station_id":"ce4bhg92rcd13ifvqf90","pricing_plan_id":"cebpf4jnsgd1na2vs0mg"},{"bike_id":"435e7538-a878-4ef7-8587-4a1c9e01de76","system_id":"levelo_inurba_marseille","lat":43.2717,"lon":5.41003,"is_reserved":false,"is_disabled":false,"rental_uris":{"android":"levelo://app?vid=435e7538-a878-4ef7-8587-4a1c9e01de76","ios":"levelo://app?vid=435e7538-a878-4ef7-8587-4a1c9e01de76"},"vehicle_type_id":"4","last_reported":1729606153,"current_range_meters":36800,"station_id":"ce4bhl12rcd13ifvqgf0","pricing_plan_id":"cebpf4jnsgd1na2vs0mg"},{"bike_id":"dab92325-2258-4119-9f20-37233fc150c8","system_id":"levelo_inurba_marseille","lat":43.29906,"lon":5.38142,"is_reserved":false,"is_disabled":false,"rental_uris":{"android":"levelo://app?vid=dab92325-2258-4119-9f20-37233fc150c8","ios":"levelo://app?vid=dab92325-2258-4119-9f20-37233fc150c8"},"vehicle_type_id":"4","last_reported":1729606153,"current_range_meters":10800,"station_id":"ce4bgj12rcd13ifvqbc0","pricing_plan_id":"cebpf4jnsgd1na2vs0mg"},{"bike_id":"146c7328-564b-4d8d-ba8d-53dc1fe6617b","system_id":"levelo_inurba_marseille","lat":43.26683,"lon":5.38271,"is_reserved":false,"is_disabled":false,"rental_uris":{"android":"levelo://app?vid=146c7328-564b-4d8d-ba8d-53dc1fe6617b","ios":"levelo://app?vid=146c7328-564b-4d8d-ba8d-53dc1fe6617b"},"vehicle_type_id":"4","last_reported":1729606153,"current_range_meters":14000,"station_id":"ce4bhg92rcd13ifvqf90","pricing_plan_id":"cebpf4jnsgd1na2vs0mg"},{"bike_id":"c93ff139-563a-401f-afd4-02cee743f54b","system_id":"levelo_inurba_marseille","lat":43.30596,"lon":5.37233,"is_reserved":false,"is_disabled":false,"rental_uris":{"android":"levelo://app?vid=c93ff139-563a-401f-afd4-02cee743f54b","ios":"levelo://app?vid=c93ff139-563a-401f-afd4-02cee743f54b"},"vehicle_type_id":"4","last_reported":1729606153,"current_range_meters":19600,"station_id":"ce4bgqh2rcd13ifvqc4g","pricing_plan_id":"cebpf4jnsgd1na2vs0mg"},{"bike_id":"804fb848-57f6-4944-985c-c6acefd10248","system_id":"levelo_inurba_marseille","lat":43.28152,"lon":5.42647,"is_reserved":false,"is_disabled":false,"rental_uris":{"android":"levelo://app?vid=804fb848-57f6-4944-985c-c6acefd10248","ios":"levelo://app?vid=804fb848-57f6-4944-985c-c6acefd10248"},"vehicle_type_id":"4","last_reported":1729606153,"current_range_meters":38800,"station_id":"ce4bhnh2rcd13ifvqgug","pricing_plan_id":"cebpf4jnsgd1na2vs0mg"},{"bike_id":"15a1206b-e1d3-478c-a77a-5d3b2979f233","system_id":"levelo_inurba_marseille","lat":43.27323,"lon":5.39083,"is_reserved":false,"is_disabled":false,"rental_uris":{"android":"levelo://app?vid=15a1206b-e1d3-478c-a77a-5d3b2979f233","ios":"levelo://app?vid=15a1206b-e1d3-478c-a77a-5d3b2979f233"},"vehicle_type_id":"4","last_reported":1729606153,"current_range_meters":23200,"station_id":"ce4bhgp2rcd13ifvqfe0","pricing_plan_id":"cebpf4jnsgd1na2vs0mg"},{"bike_id":"5c609842-ec3e-42a0-acb6-61f2e1be29a5","system_id":"levelo_inurba_marseille","lat":43.30308,"lon":5.36909,"is_reserved":false,"is_disabled":false,"rental_uris":{"android":"levelo://app?vid=5c609842-ec3e-42a0-acb6-61f2e1be29a5","ios":"levelo://app?vid=5c609842-ec3e-42a0-acb6-61f2e1be29a5"},"vehicle_type_id":"4","last_reported":1729606153,"current_range_meters":31200,"station_id":"ce4bgqh2rcd13ifvqc5g","pricing_plan_id":"cebpf4jnsgd1na2vs0mg"},{"bike_id":"0f075d40-fcf9-47c6-9718-536382077367","system_id":"levelo_inurba_marseille","lat":43.310668,"lon":5.400864,"is_reserved":false,"is_disabled":false,"rental_uris":{"android":"levelo://app?vid=0f075d40-fcf9-47c6-9718-536382077367","ios":"levelo://app?vid=0f075d40-fcf9-47c6-9718-536382077367"},"vehicle_type_id":"4","last_reported":1729606153,"current_range_meters":22000,"station_id":"","pricing_plan_id":"cebpf4jnsgd1na2vs0mg"},{"bike_id":"9eb90213-9907-449f-abae-dcd7b4f884b3","system_id":"levelo_inurba_marseille","lat":43.30434,"lon":5.38896,"is_reserved":false,"is_disabled":false,"rental_uris":{"android":"levelo://app?vid=9eb90213-9907-449f-abae-dcd7b4f884b3","ios":"levelo://app?vid=9eb90213-9907-449f-abae-dcd7b4f884b3"},"vehicle_type_id":"4","last_reported":1729606153,"current_range_meters":38800,"station_id":"ce4bgk12rcd13ifvqbi0","pricing_plan_id":"cebpf4jnsgd1na2vs0mg"},{"bike_id":"7a030e3c-23e0-4ae3-af5b-9d3c83efe74c","system_id":"levelo_inurba_marseille","lat":43.26029,"lon":5.37542,"is_reserved":false,"is_disabled":false,"rental_uris":{"android":"levelo://app?vid=7a030e3c-23e0-4ae3-af5b-9d3c83efe74c","ios":"levelo://app?vid=7a030e3c-23e0-4ae3-af5b-9d3c83efe74c"},"vehicle_type_id":"4","last_reported":1729606153,"current_range_meters":29600,"station_id":"ce4bhgh2rcd13ifvqfa0","pricing_plan_id":"cebpf4jnsgd1na2vs0mg"},{"bike_id":"15756e64-fbfa-4fed-9d7e-e3a9f89524ed","system_id":"levelo_inurba_marseille","lat":43.25717,"lon":5.41118,"is_reserved":false,"is_disabled":false,"rental_uris":{"android":"levelo://app?vid=15756e64-fbfa-4fed-9d7e-e3a9f89524ed","ios":"levelo://app?vid=15756e64-fbfa-4fed-9d7e-e3a9f89524ed"},"vehicle_type_id":"4","last_reported":1729606153,"current_range_meters":22400,"station_id":"ce4bhmp2rcd13ifvqgog","pricing_plan_id":"cebpf4jnsgd1na2vs0mg"},{"bike_id":"1060af92-170b-4517-8d55-17d9bc9f28bf","system_id":"levelo_inurba_marseille","lat":43.33781,"lon":5.37429,"is_reserved":false,"is_disabled":false,"rental_uris":{"android":"levelo://app?vid=1060af92-170b-4517-8d55-17d9bc9f28bf","ios":"levelo://app?vid=1060af92-170b-4517-8d55-17d9bc9f28bf"},"vehicle_type_id":"4","last_reported":1729606153,"current_range_meters":36400,"station_id":"","pricing_plan_id":"cebpf4jnsgd1na2vs0mg"},{"bike_id":"2716df3a-87b8-4ac7-be13-29f6fabe3c04","system_id":"levelo_inurba_marseille","lat":43.29594,"lon":5.36751,"is_reserved":false,"is_disabled":false,"rental_uris":{"android":"levelo://app?vid=2716df3a-87b8-4ac7-be13-29f6fabe3c04","ios":"levelo://app?vid=2716df3a-87b8-4ac7-be13-29f6fabe3c04"},"vehicle_type_id":"4","last_reported":1729606153,"current_range_meters":38000,"station_id":"ce4bgph2rcd13ifvqc2g","pricing_plan_id":"cebpf4jnsgd1na2vs0mg"},{"bike_id":"e71f336f-8cff-42c5-b46c-e4608e489f94","system_id":"levelo_inurba_marseille","lat":43.24076,"lon":5.37754,"is_reserved":false,"is_disabled":false,"rental_uris":{"android":"levelo://app?vid=e71f336f-8cff-42c5-b46c-e4608e489f94","ios":"levelo://app?vid=e71f336f-8cff-42c5-b46c-e4608e489f94"},"vehicle_type_id":"4","last_reported":1729606153,"current_range_meters":16000,"station_id":"ce4bhnp2rcd13ifvqgvg","pricing_plan_id":"cebpf4jnsgd1na2vs0mg"},{"bike_id":"26b6d52d-0566-4908-b015-a804d21f4df3","system_id":"levelo_inurba_marseille","lat":43.24078,"lon":5.37732,"is_reserved":false,"is_disabled":false,"rental_uris":{"android":"levelo://app?vid=26b6d52d-0566-4908-b015-a804d21f4df3","ios":"levelo://app?vid=26b6d52d-0566-4908-b015-a804d21f4df3"},"vehicle_type_id":"4","last_reported":1729606153,"current_range_meters":36800,"station_id":"ce4bhnp2rcd13ifvqgvg","pricing_plan_id":"cebpf4jnsgd1na2vs0mg"},{"bike_id":"864575c1-85b8-4008-92ba-391073d4ed51","system_id":"levelo_inurba_marseille","lat":43.23189,"lon":5.35543,"is_reserved":false,"is_disabled":false,"rental_uris":{"android":"levelo://app?vid=864575c1-85b8-4008-92ba-391073d4ed51","ios":"levelo://app?vid=864575c1-85b8-4008-92ba-391073d4ed51"},"vehicle_type_id":"4","last_reported":1729606153,"current_range_meters":24400,"station_id":"ce4bhu92rcd13ifvqi70","pricing_plan_id":"cebpf4jnsgd1na2vs0mg"},{"bike_id":"a07f0ca4-d551-4b38-aa88-198544400c7c","system_id":"levelo_inurba_marseille","lat":43.27215,"lon":5.39197,"is_reserved":false,"is_disabled":false,"rental_uris":{"android":"levelo://app?vid=a07f0ca4-d551-4b38-aa88-198544400c7c","ios":"levelo://app?vid=a07f0ca4-d551-4b38-aa88-198544400c7c"},"vehicle_type_id":"4","last_reported":1729606153,"current_range_meters":25200,"station_id":"ce4bhhp2rcd13ifvqfm0","pricing_plan_id":"cebpf4jnsgd1na2vs0mg"},{"bike_id":"03392015-2973-4982-965b-4050ed73686e","system_id":"levelo_inurba_marseille","lat":43.24663,"lon":5.3817,"is_reserved":false,"is_disabled":false,"rental_uris":{"android":"levelo://app?vid=03392015-2973-4982-965b-4050ed73686e","ios":"levelo://app?vid=03392015-2973-4982-965b-4050ed73686e"},"vehicle_type_id":"4","last_reported":1729606153,"current_range_meters":26000,"station_id":"ce4bhih2rcd13ifvqfr0","pricing_plan_id":"cebpf4jnsgd1na2vs0mg"},{"bike_id":"838b769a-5e8a-4f6f-9e04-397eb32663a8","system_id":"levelo_inurba_marseille","lat":43.29226,"lon":5.36059,"is_reserved":false,"is_disabled":false,"rental_uris":{"android":"levelo://app?vid=838b769a-5e8a-4f6f-9e04-397eb32663a8","ios":"levelo://app?vid=838b769a-5e8a-4f6f-9e04-397eb32663a8"},"vehicle_type_id":"4","last_reported":1729606153,"current_range_meters":38400,"station_id":"ce4bhbh2rcd13ifvqeqg","pricing_plan_id":"cebpf4jnsgd1na2vs0mg"},{"bike_id":"65a17856-ba34-429f-9a98-9073fd61ac6d","system_id":"levelo_inurba_marseille","lat":43.2917,"lon":5.3717,"is_reserved":false,"is_disabled":false,"rental_uris":{"android":"levelo://app?vid=65a17856-ba34-429f-9a98-9073fd61ac6d","ios":"levelo://app?vid=65a17856-ba34-429f-9a98-9073fd61ac6d"},"vehicle_type_id":"4","last_reported":1729606153,"current_range_meters":8000,"station_id":"ce4bha92rcd13ifvqeh0","pricing_plan_id":"cebpf4jnsgd1na2vs0mg"},{"bike_id":"e36dd4fe-2e92-4371-8316-baa254ece1bb","system_id":"levelo_inurba_marseille","lat":43.29847,"lon":5.36278,"is_reserved":false,"is_disabled":false,"rental_uris":{"android":"levelo://app?vid=e36dd4fe-2e92-4371-8316-baa254ece1bb","ios":"levelo://app?vid=e36dd4fe-2e92-4371-8316-baa254ece1bb"},"vehicle_type_id":"4","last_reported":1729606153,"current_range_meters":36400,"station_id":"ce4bgpp2rcd13ifvqc3g","pricing_plan_id":"cebpf4jnsgd1na2vs0mg"},{"bike_id":"0728974d-1ad5-4181-91f2-6035aab7157d","system_id":"levelo_inurba_marseille","lat":43.23197,"lon":5.35548,"is_reserved":false,"is_disabled":false,"rental_uris":{"android":"levelo://app?vid=0728974d-1ad5-4181-91f2-6035aab7157d","ios":"levelo://app?vid=0728974d-1ad5-4181-91f2-6035aab7157d"},"vehicle_type_id":"4","last_reported":1729606153,"current_range_meters":38800,"station_id":"ce4bhu92rcd13ifvqi70","pricing_plan_id":"cebpf4jnsgd1na2vs0mg"},{"bike_id":"daa87e2b-89c2-4c8f-8935-631baca4941b","system_id":"levelo_inurba_marseille","lat":43.24166,"lon":5.36386,"is_reserved":false,"is_disabled":false,"rental_uris":{"android":"levelo://app?vid=daa87e2b-89c2-4c8f-8935-631baca4941b","ios":"levelo://app?vid=daa87e2b-89c2-4c8f-8935-631baca4941b"},"vehicle_type_id":"4","last_reported":1729606153,"current_range_meters":12400,"station_id":"cpo36qri1sfpv3e86is0","pricing_plan_id":"cebpf4jnsgd1na2vs0mg"},{"bike_id":"c594f0bd-1238-4647-b774-19298d13964d","system_id":"levelo_inurba_marseille","lat":43.23964,"lon":5.36623,"is_reserved":false,"is_disabled":false,"rental_uris":{"android":"levelo://app?vid=c594f0bd-1238-4647-b774-19298d13964d","ios":"levelo://app?vid=c594f0bd-1238-4647-b774-19298d13964d"},"vehicle_type_id":"4","last_reported":1729606153,"current_range_meters":5600,"station_id":"ce4bhi12rcd13ifvqfp0","pricing_plan_id":"cebpf4jnsgd1na2vs0mg"},{"bike_id":"54f66457-49c3-49d8-929b-a604f5e48774","system_id":"levelo_inurba_marseille","lat":43.30541,"lon":5.3655,"is_reserved":false,"is_disabled":false,"rental_uris":{"android":"levelo://app?vid=54f66457-49c3-49d8-929b-a604f5e48774","ios":"levelo://app?vid=54f66457-49c3-49d8-929b-a604f5e48774"},"vehicle_type_id":"4","last_reported":1729606153,"current_range_meters":8400,"station_id":"ce4bgs12rcd13ifvqcag","pricing_plan_id":"cebpf4jnsgd1na2vs0mg"},{"bike_id":"8b5f9249-4841-486c-a827-c0654f91cc8f","system_id":"levelo_inurba_marseille","lat":43.26572,"lon":5.39006,"is_reserved":false,"is_disabled":false,"rental_uris":{"android":"levelo://app?vid=8b5f9249-4841-486c-a827-c0654f91cc8f","ios":"levelo://app?vid=8b5f9249-4841-486c-a827-c0654f91cc8f"},"vehicle_type_id":"4","last_reported":1729606153,"current_range_meters":24800,"station_id":"ce4bhe12rcd13ifvqf30","pricing_plan_id":"cebpf4jnsgd1na2vs0mg"},{"bike_id":"2de65ab3-3c84-4c62-ad31-1911aa7e073c","system_id":"levelo_inurba_marseille","lat":43.27972,"lon":5.3873,"is_reserved":false,"is_disabled":false,"rental_uris":{"android":"levelo://app?vid=2de65ab3-3c84-4c62-ad31-1911aa7e073c","ios":"levelo://app?vid=2de65ab3-3c84-4c62-ad31-1911aa7e073c"},"vehicle_type_id":"4","last_reported":1729606153,"current_range_meters":9600,"station_id":"ce4bhg12rcd13ifvqf80","pricing_plan_id":"cebpf4jnsgd1na2vs0mg"},{"bike_id":"52bc770e-caa3-429e-90b1-eae6fc5536d3","system_id":"levelo_inurba_marseille","lat":43.24171,"lon":5.36401,"is_reserved":false,"is_disabled":false,"rental_uris":{"android":"levelo://app?vid=52bc770e-caa3-429e-90b1-eae6fc5536d3","ios":"levelo://app?vid=52bc770e-caa3-429e-90b1-eae6fc5536d3"},"vehicle_type_id":"4","last_reported":1729606153,"current_range_meters":10000,"station_id":"cpo36qri1sfpv3e86is0","pricing_plan_id":"cebpf4jnsgd1na2vs0mg"},{"bike_id":"c8590a65-165e-4610-b6b4-3b31fad1d0e3","system_id":"levelo_inurba_marseille","lat":43.29581,"lon":5.36741,"is_reserved":false,"is_disabled":false,"rental_uris":{"android":"levelo://app?vid=c8590a65-165e-4610-b6b4-3b31fad1d0e3","ios":"levelo://app?vid=c8590a65-165e-4610-b6b4-3b31fad1d0e3"},"vehicle_type_id":"4","last_reported":1729606153,"current_range_meters":26000,"station_id":"ce4bgph2rcd13ifvqc2g","pricing_plan_id":"cebpf4jnsgd1na2vs0mg"},{"bike_id":"b90f823e-9a1e-4695-8fbc-b96150fb5ef8","system_id":"levelo_inurba_marseille","lat":43.27373,"lon":5.36255,"is_reserved":false,"is_disabled":false,"rental_uris":{"android":"levelo://app?vid=b90f823e-9a1e-4695-8fbc-b96150fb5ef8","ios":"levelo://app?vid=b90f823e-9a1e-4695-8fbc-b96150fb5ef8"},"vehicle_type_id":"4","last_reported":1729606153,"current_range_meters":2000,"station_id":"ce4bhbh2rcd13ifvqeo0","pricing_plan_id":"cebpf4jnsgd1na2vs0mg"},{"bike_id":"79a1e020-318b-42a1-a8c0-a424b1daf69e","system_id":"levelo_inurba_marseille","lat":43.296,"lon":5.36142,"is_reserved":false,"is_disabled":false,"rental_uris":{"android":"levelo://app?vid=79a1e020-318b-42a1-a8c0-a424b1daf69e","ios":"levelo://app?vid=79a1e020-318b-42a1-a8c0-a424b1daf69e"},"vehicle_type_id":"4","last_reported":1729606153,"current_range_meters":5600,"station_id":"","pricing_plan_id":"cebpf4jnsgd1na2vs0mg"},{"bike_id":"1164dfb0-a607-4e08-a3e0-af74d81ac96e","system_id":"levelo_inurba_marseille","lat":43.28265,"lon":5.35079,"is_reserved":false,"is_disabled":false,"rental_uris":{"android":"levelo://app?vid=1164dfb0-a607-4e08-a3e0-af74d81ac96e","ios":"levelo://app?vid=1164dfb0-a607-4e08-a3e0-af74d81ac96e"},"vehicle_type_id":"4","last_reported":1729606153,"current_range_meters":28400,"station_id":"ce4bhbp2rcd13ifvqerg","pricing_plan_id":"cebpf4jnsgd1na2vs0mg"},{"bike_id":"d7d49f76-71ee-4b7d-99cd-c566a275aa94","system_id":"levelo_inurba_marseille","lat":43.27206,"lon":5.3919,"is_reserved":false,"is_disabled":false,"rental_uris":{"android":"levelo://app?vid=d7d49f76-71ee-4b7d-99cd-c566a275aa94","ios":"levelo://app?vid=d7d49f76-71ee-4b7d-99cd-c566a275aa94"},"vehicle_type_id":"4","last_reported":1729606153,"current_range_meters":37600,"station_id":"ce4bhhp2rcd13ifvqfm0","pricing_plan_id":"cebpf4jnsgd1na2vs0mg"},{"bike_id":"df15803f-bc65-4a54-82a7-041da1255807","system_id":"levelo_inurba_marseille","lat":43.30542,"lon":5.36559,"is_reserved":false,"is_disabled":false,"rental_uris":{"android":"levelo://app?vid=df15803f-bc65-4a54-82a7-041da1255807","ios":"levelo://app?vid=df15803f-bc65-4a54-82a7-041da1255807"},"vehicle_type_id":"4","last_reported":1729606153,"current_range_meters":26800,"station_id":"ce4bguh2rcd13ifvqckg","pricing_plan_id":"cebpf4jnsgd1na2vs0mg"},{"bike_id":"6eced96a-b021-41b9-89bf-72379aa39c97","system_id":"levelo_inurba_marseille","lat":43.25925,"lon":5.40909,"is_reserved":false,"is_disabled":false,"rental_uris":{"android":"levelo://app?vid=6eced96a-b021-41b9-89bf-72379aa39c97","ios":"levelo://app?vid=6eced96a-b021-41b9-89bf-72379aa39c97"},"vehicle_type_id":"4","last_reported":1729606153,"current_range_meters":32000,"station_id":"ce4bhm92rcd13ifvqglg","pricing_plan_id":"cebpf4jnsgd1na2vs0mg"},{"bike_id":"df5cdff5-7cfb-4989-b9b6-4ce65a2f4fdb","system_id":"levelo_inurba_marseille","lat":43.29196,"lon":5.35795,"is_reserved":false,"is_disabled":false,"rental_uris":{"android":"levelo://app?vid=df5cdff5-7cfb-4989-b9b6-4ce65a2f4fdb","ios":"levelo://app?vid=df5cdff5-7cfb-4989-b9b6-4ce65a2f4fdb"},"vehicle_type_id":"4","last_reported":1729606153,"current_range_meters":16000,"station_id":"ce4bhb12rcd13ifvqel0","pricing_plan_id":"cebpf4jnsgd1na2vs0mg"},{"bike_id":"03add1c1-b997-4af0-8675-b43c8e7e3407","system_id":"levelo_inurba_marseille","lat":43.25502,"lon":5.37647,"is_reserved":false,"is_disabled":false,"rental_uris":{"android":"levelo://app?vid=03add1c1-b997-4af0-8675-b43c8e7e3407","ios":"levelo://app?vid=03add1c1-b997-4af0-8675-b43c8e7e3407"},"vehicle_type_id":"4","last_reported":1729606153,"current_range_meters":25200,"station_id":"ce4bhh12rcd13ifvqff0","pricing_plan_id":"cebpf4jnsgd1na2vs0mg"},{"bike_id":"2024b07b-e95a-46a6-8a70-400d4e43d242","system_id":"levelo_inurba_marseille","lat":43.26791,"lon":5.3942,"is_reserved":false,"is_disabled":false,"rental_uris":{"android":"levelo://app?vid=2024b07b-e95a-46a6-8a70-400d4e43d242","ios":"levelo://app?vid=2024b07b-e95a-46a6-8a70-400d4e43d242"},"vehicle_type_id":"4","last_reported":1729606153,"current_range_meters":8400,"station_id":"ce4bhh12rcd13ifvqfg0","pricing_plan_id":"cebpf4jnsgd1na2vs0mg"},{"bike_id":"7adf842b-4b8c-4356-a23f-1be0cbaf4d21","system_id":"levelo_inurba_marseille","lat":43.23194,"lon":5.35544,"is_reserved":false,"is_disabled":false,"rental_uris":{"android":"levelo://app?vid=7adf842b-4b8c-4356-a23f-1be0cbaf4d21","ios":"levelo://app?vid=7adf842b-4b8c-4356-a23f-1be0cbaf4d21"},"vehicle_type_id":"4","last_reported":1729606153,"current_range_meters":9200,"station_id":"ce4bhu92rcd13ifvqi70","pricing_plan_id":"cebpf4jnsgd1na2vs0mg"},{"bike_id":"4b793f18-a1a8-4850-bf7f-1ac8cb9ac4ea","system_id":"levelo_inurba_marseille","lat":43.32028,"lon":5.41578,"is_reserved":false,"is_disabled":false,"rental_uris":{"android":"levelo://app?vid=4b793f18-a1a8-4850-bf7f-1ac8cb9ac4ea","ios":"levelo://app?vid=4b793f18-a1a8-4850-bf7f-1ac8cb9ac4ea"},"vehicle_type_id":"4","last_reported":1729606153,"current_range_meters":22000,"station_id":"ce4bhq92rcd13ifvqhkg","pricing_plan_id":"cebpf4jnsgd1na2vs0mg"},{"bike_id":"3fbb21dc-457c-4028-8cc7-8a7ddebb915c","system_id":"levelo_inurba_marseille","lat":43.23188,"lon":5.35546,"is_reserved":false,"is_disabled":false,"rental_uris":{"android":"levelo://app?vid=3fbb21dc-457c-4028-8cc7-8a7ddebb915c","ios":"levelo://app?vid=3fbb21dc-457c-4028-8cc7-8a7ddebb915c"},"vehicle_type_id":"4","last_reported":1729606153,"current_range_meters":36400,"station_id":"ce4bhu92rcd13ifvqi70","pricing_plan_id":"cebpf4jnsgd1na2vs0mg"},{"bike_id":"8d66234d-ed10-4a56-b9bf-7024ed1a6c9c","system_id":"levelo_inurba_marseille","lat":43.32602,"lon":5.37903,"is_reserved":false,"is_disabled":false,"rental_uris":{"android":"levelo://app?vid=8d66234d-ed10-4a56-b9bf-7024ed1a6c9c","ios":"levelo://app?vid=8d66234d-ed10-4a56-b9bf-7024ed1a6c9c"},"vehicle_type_id":"4","last_reported":1729606153,"current_range_meters":6400,"station_id":"","pricing_plan_id":"cebpf4jnsgd1na2vs0mg"},{"bike_id":"f31324ed-9980-4ef2-b66e-6c1fb78515f9","system_id":"levelo_inurba_marseille","lat":43.2923,"lon":5.36064,"is_reserved":false,"is_disabled":false,"rental_uris":{"android":"levelo://app?vid=f31324ed-9980-4ef2-b66e-6c1fb78515f9","ios":"levelo://app?vid=f31324ed-9980-4ef2-b66e-6c1fb78515f9"},"vehicle_type_id":"4","last_reported":1729606153,"current_range_meters":24000,"station_id":"ce4bhbh2rcd13ifvqeqg","pricing_plan_id":"cebpf4jnsgd1na2vs0mg"},{"bike_id":"381240ae-0a2b-4391-9a6a-8aae2a77183c","system_id":"levelo_inurba_marseille","lat":43.25502,"lon":5.37645,"is_reserved":false,"is_disabled":false,"rental_uris":{"android":"levelo://app?vid=381240ae-0a2b-4391-9a6a-8aae2a77183c","ios":"levelo://app?vid=381240ae-0a2b-4391-9a6a-8aae2a77183c"},"vehicle_type_id":"4","last_reported":1729606153,"current_range_meters":36800,"station_id":"ce4bhh12rcd13ifvqff0","pricing_plan_id":"cebpf4jnsgd1na2vs0mg"},{"bike_id":"1d043a7e-e4a0-4b52-a511-dae1798912e1","system_id":"levelo_inurba_marseille","lat":43.28155,"lon":5.4264,"is_reserved":false,"is_disabled":false,"rental_uris":{"android":"levelo://app?vid=1d043a7e-e4a0-4b52-a511-dae1798912e1","ios":"levelo://app?vid=1d043a7e-e4a0-4b52-a511-dae1798912e1"},"vehicle_type_id":"4","last_reported":1729606153,"current_range_meters":36800,"station_id":"ce4bhnh2rcd13ifvqgug","pricing_plan_id":"cebpf4jnsgd1na2vs0mg"},{"bike_id":"c8e3f140-6e13-4ec3-a7dd-993b62015162","system_id":"levelo_inurba_marseille","lat":43.28265,"lon":5.35067,"is_reserved":false,"is_disabled":false,"rental_uris":{"android":"levelo://app?vid=c8e3f140-6e13-4ec3-a7dd-993b62015162","ios":"levelo://app?vid=c8e3f140-6e13-4ec3-a7dd-993b62015162"},"vehicle_type_id":"4","last_reported":1729606153,"current_range_meters":16800,"station_id":"ce4bhbp2rcd13ifvqerg","pricing_plan_id":"cebpf4jnsgd1na2vs0mg"},{"bike_id":"8baf5ae4-5118-487e-9968-8d3123181f96","system_id":"levelo_inurba_marseille","lat":43.265003,"lon":5.395445,"is_reserved":false,"is_disabled":false,"rental_uris":{"android":"levelo://app?vid=8baf5ae4-5118-487e-9968-8d3123181f96","ios":"levelo://app?vid=8baf5ae4-5118-487e-9968-8d3123181f96"},"vehicle_type_id":"4","last_reported":1729606153,"current_range_meters":6400,"station_id":"ce4bhi12rcd13ifvqfq0","pricing_plan_id":"cebpf4jnsgd1na2vs0mg"},{"bike_id":"4c9cd873-b86d-45ed-8195-b76cbcf6fe83","system_id":"levelo_inurba_marseille","lat":43.25928,"lon":5.409,"is_reserved":false,"is_disabled":false,"rental_uris":{"android":"levelo://app?vid=4c9cd873-b86d-45ed-8195-b76cbcf6fe83","ios":"levelo://app?vid=4c9cd873-b86d-45ed-8195-b76cbcf6fe83"},"vehicle_type_id":"4","last_reported":1729606153,"current_range_meters":32400,"station_id":"ce4bhm92rcd13ifvqglg","pricing_plan_id":"cebpf4jnsgd1na2vs0mg"},{"bike_id":"7e2aafc8-bcbc-40b4-8ac0-74083974331d","system_id":"levelo_inurba_marseille","lat":43.27426,"lon":5.39408,"is_reserved":false,"is_disabled":false,"rental_uris":{"android":"levelo://app?vid=7e2aafc8-bcbc-40b4-8ac0-74083974331d","ios":"levelo://app?vid=7e2aafc8-bcbc-40b4-8ac0-74083974331d"},"vehicle_type_id":"4","last_reported":1729606153,"current_range_meters":1600,"station_id":"ce4bhdp2rcd13ifvqf20","pricing_plan_id":"cebpf4jnsgd1na2vs0mg"},{"bike_id":"1d8291a1-6181-41ba-83b6-f5bb3da065fd","system_id":"levelo_inurba_marseille","lat":43.27059,"lon":5.40261,"is_reserved":false,"is_disabled":false,"rental_uris":{"android":"levelo://app?vid=1d8291a1-6181-41ba-83b6-f5bb3da065fd","ios":"levelo://app?vid=1d8291a1-6181-41ba-83b6-f5bb3da065fd"},"vehicle_type_id":"4","last_reported":1729606153,"current_range_meters":34800,"station_id":"ce4bhk92rcd13ifvqgc0","pricing_plan_id":"cebpf4jnsgd1na2vs0mg"},{"bike_id":"f48b9292-5b23-4c1d-b443-99520d182fe9","system_id":"levelo_inurba_marseille","lat":43.317092,"lon":5.377505,"is_reserved":false,"is_disabled":false,"rental_uris":{"android":"levelo://app?vid=f48b9292-5b23-4c1d-b443-99520d182fe9","ios":"levelo://app?vid=f48b9292-5b23-4c1d-b443-99520d182fe9"},"vehicle_type_id":"4","last_reported":1729606153,"current_range_meters":32800,"station_id":"ce4bgth2rcd13ifvqch0","pricing_plan_id":"cebpf4jnsgd1na2vs0mg"},{"bike_id":"2b0340ee-0a0a-4bd2-8762-aeb547d106f9","system_id":"levelo_inurba_marseille","lat":43.27209,"lon":5.3918,"is_reserved":false,"is_disabled":false,"rental_uris":{"android":"levelo://app?vid=2b0340ee-0a0a-4bd2-8762-aeb547d106f9","ios":"levelo://app?vid=2b0340ee-0a0a-4bd2-8762-aeb547d106f9"},"vehicle_type_id":"4","last_reported":1729606153,"current_range_meters":20400,"station_id":"ce4bhhp2rcd13ifvqfm0","pricing_plan_id":"cebpf4jnsgd1na2vs0mg"},{"bike_id":"155517ef-0a83-4c87-b2da-fb3d8d259bc7","system_id":"levelo_inurba_marseille","lat":43.25576,"lon":5.38239,"is_reserved":false,"is_disabled":false,"rental_uris":{"android":"levelo://app?vid=155517ef-0a83-4c87-b2da-fb3d8d259bc7","ios":"levelo://app?vid=155517ef-0a83-4c87-b2da-fb3d8d259bc7"},"vehicle_type_id":"4","last_reported":1729606153,"current_range_meters":36800,"station_id":"ce4bhih2rcd13ifvqfs0","pricing_plan_id":"cebpf4jnsgd1na2vs0mg"},{"bike_id":"bf4ee2f9-dda0-4a87-97c6-5a76d782621c","system_id":"levelo_inurba_marseille","lat":43.29627,"lon":5.37175,"is_reserved":false,"is_disabled":false,"rental_uris":{"android":"levelo://app?vid=bf4ee2f9-dda0-4a87-97c6-5a76d782621c","ios":"levelo://app?vid=bf4ee2f9-dda0-4a87-97c6-5a76d782621c"},"vehicle_type_id":"4","last_reported":1729606153,"current_range_meters":38400,"station_id":"ce4bgnh2rcd13ifvqc0g","pricing_plan_id":"cebpf4jnsgd1na2vs0mg"},{"bike_id":"b7402997-a6ea-49a3-908b-f45caf721d03","system_id":"levelo_inurba_marseille","lat":43.29617,"lon":5.37151,"is_reserved":false,"is_disabled":false,"rental_uris":{"android":"levelo://app?vid=b7402997-a6ea-49a3-908b-f45caf721d03","ios":"levelo://app?vid=b7402997-a6ea-49a3-908b-f45caf721d03"},"vehicle_type_id":"4","last_reported":1729606153,"current_range_meters":38800,"station_id":"ce4bgnh2rcd13ifvqc0g","pricing_plan_id":"cebpf4jnsgd1na2vs0mg"},{"bike_id":"5fa52629-ee3c-4d2f-a571-41a405eaf439","system_id":"levelo_inurba_marseille","lat":43.28002,"lon":5.40016,"is_reserved":false,"is_disabled":false,"rental_uris":{"android":"levelo://app?vid=5fa52629-ee3c-4d2f-a571-41a405eaf439","ios":"levelo://app?vid=5fa52629-ee3c-4d2f-a571-41a405eaf439"},"vehicle_type_id":"4","last_reported":1729606153,"current_range_meters":6400,"station_id":"ce4bho92rcd13ifvqh4g","pricing_plan_id":"cebpf4jnsgd1na2vs0mg"},{"bike_id":"6b63d172-a2c8-46da-9750-2226af7381c0","system_id":"levelo_inurba_marseille","lat":43.23962,"lon":5.36635,"is_reserved":false,"is_disabled":false,"rental_uris":{"android":"levelo://app?vid=6b63d172-a2c8-46da-9750-2226af7381c0","ios":"levelo://app?vid=6b63d172-a2c8-46da-9750-2226af7381c0"},"vehicle_type_id":"4","last_reported":1729606153,"current_range_meters":37600,"station_id":"ce4bhi12rcd13ifvqfp0","pricing_plan_id":"cebpf4jnsgd1na2vs0mg"},{"bike_id":"d9e37939-a588-4efe-8580-1a5d5825e0e9","system_id":"levelo_inurba_marseille","lat":43.25506,"lon":5.3765,"is_reserved":false,"is_disabled":false,"rental_uris":{"android":"levelo://app?vid=d9e37939-a588-4efe-8580-1a5d5825e0e9","ios":"levelo://app?vid=d9e37939-a588-4efe-8580-1a5d5825e0e9"},"vehicle_type_id":"4","last_reported":1729606153,"current_range_meters":38800,"station_id":"ce4bhh12rcd13ifvqff0","pricing_plan_id":"cebpf4jnsgd1na2vs0mg"},{"bike_id":"262d6295-809d-45c9-9768-b3b5a2cf90b7","system_id":"levelo_inurba_marseille","lat":43.31352,"lon":5.3671,"is_reserved":false,"is_disabled":false,"rental_uris":{"android":"levelo://app?vid=262d6295-809d-45c9-9768-b3b5a2cf90b7","ios":"levelo://app?vid=262d6295-809d-45c9-9768-b3b5a2cf90b7"},"vehicle_type_id":"4","last_reported":1729606153,"current_range_meters":26800,"station_id":"ce4bgr92rcd13ifvqc6g","pricing_plan_id":"cebpf4jnsgd1na2vs0mg"},{"bike_id":"c3945b60-e38d-4106-8f18-92c7f436cc4f","system_id":"levelo_inurba_marseille","lat":43.33757,"lon":5.37448,"is_reserved":false,"is_disabled":false,"rental_uris":{"android":"levelo://app?vid=c3945b60-e38d-4106-8f18-92c7f436cc4f","ios":"levelo://app?vid=c3945b60-e38d-4106-8f18-92c7f436cc4f"},"vehicle_type_id":"4","last_reported":1729606153,"current_range_meters":31200,"station_id":"","pricing_plan_id":"cebpf4jnsgd1na2vs0mg"},{"bike_id":"6039ddec-9a32-4ee3-8033-3883988be36a","system_id":"levelo_inurba_marseille","lat":43.262,"lon":5.37933,"is_reserved":false,"is_disabled":false,"rental_uris":{"android":"levelo://app?vid=6039ddec-9a32-4ee3-8033-3883988be36a","ios":"levelo://app?vid=6039ddec-9a32-4ee3-8033-3883988be36a"},"vehicle_type_id":"4","last_reported":1729606153,"current_range_meters":28400,"station_id":"ce4bhjp2rcd13ifvqg90","pricing_plan_id":"cebpf4jnsgd1na2vs0mg"},{"bike_id":"9819146e-6e38-4bfb-8718-b0a15928bc96","system_id":"levelo_inurba_marseille","lat":43.31358,"lon":5.36706,"is_reserved":false,"is_disabled":false,"rental_uris":{"android":"levelo://app?vid=9819146e-6e38-4bfb-8718-b0a15928bc96","ios":"levelo://app?vid=9819146e-6e38-4bfb-8718-b0a15928bc96"},"vehicle_type_id":"4","last_reported":1729606153,"current_range_meters":27600,"station_id":"ce4bgr92rcd13ifvqc6g","pricing_plan_id":"cebpf4jnsgd1na2vs0mg"},{"bike_id":"f4ac5c82-788d-4548-90eb-28d1189903af","system_id":"levelo_inurba_marseille","lat":43.31483,"lon":5.37308,"is_reserved":false,"is_disabled":false,"rental_uris":{"android":"levelo://app?vid=f4ac5c82-788d-4548-90eb-28d1189903af","ios":"levelo://app?vid=f4ac5c82-788d-4548-90eb-28d1189903af"},"vehicle_type_id":"4","last_reported":1729606153,"current_range_meters":36000,"station_id":"ce4bgt12rcd13ifvqcd0","pricing_plan_id":"cebpf4jnsgd1na2vs0mg"},{"bike_id":"6c9d0a5c-2567-48c2-9807-9f65f5b0684c","system_id":"levelo_inurba_marseille","lat":43.30017,"lon":5.37987,"is_reserved":false,"is_disabled":false,"rental_uris":{"android":"levelo://app?vid=6c9d0a5c-2567-48c2-9807-9f65f5b0684c","ios":"levelo://app?vid=6c9d0a5c-2567-48c2-9807-9f65f5b0684c"},"vehicle_type_id":"4","last_reported":1729606153,"current_range_meters":3600,"station_id":"","pricing_plan_id":"cebpf4jnsgd1na2vs0mg"},{"bike_id":"c497a204-d102-4fb8-8c4f-4d71a1f981d8","system_id":"levelo_inurba_marseille","lat":43.33615,"lon":5.41025,"is_reserved":false,"is_disabled":false,"rental_uris":{"android":"levelo://app?vid=c497a204-d102-4fb8-8c4f-4d71a1f981d8","ios":"levelo://app?vid=c497a204-d102-4fb8-8c4f-4d71a1f981d8"},"vehicle_type_id":"4","last_reported":1729606153,"current_range_meters":17600,"station_id":"ce4bhqh2rcd13ifvqhmg","pricing_plan_id":"cebpf4jnsgd1na2vs0mg"},{"bike_id":"136589d6-3acc-4873-82da-a6f263071720","system_id":"levelo_inurba_marseille","lat":43.28463,"lon":5.35884,"is_reserved":false,"is_disabled":false,"rental_uris":{"android":"levelo://app?vid=136589d6-3acc-4873-82da-a6f263071720","ios":"levelo://app?vid=136589d6-3acc-4873-82da-a6f263071720"},"vehicle_type_id":"4","last_reported":1729606153,"current_range_meters":39200,"station_id":"ce4bhah2rcd13ifvqei0","pricing_plan_id":"cebpf4jnsgd1na2vs0mg"},{"bike_id":"6a606450-0244-4420-a512-c69c644c2c13","system_id":"levelo_inurba_marseille","lat":43.25493,"lon":5.37654,"is_reserved":false,"is_disabled":false,"rental_uris":{"android":"levelo://app?vid=6a606450-0244-4420-a512-c69c644c2c13","ios":"levelo://app?vid=6a606450-0244-4420-a512-c69c644c2c13"},"vehicle_type_id":"4","last_reported":1729606153,"current_range_meters":39200,"station_id":"ce4bhh12rcd13ifvqff0","pricing_plan_id":"cebpf4jnsgd1na2vs0mg"},{"bike_id":"c4467761-338b-42fb-aeae-be099d510819","system_id":"levelo_inurba_marseille","lat":43.337444,"lon":5.374475,"is_reserved":false,"is_disabled":false,"rental_uris":{"android":"levelo://app?vid=c4467761-338b-42fb-aeae-be099d510819","ios":"levelo://app?vid=c4467761-338b-42fb-aeae-be099d510819"},"vehicle_type_id":"4","last_reported":1729606153,"current_range_meters":9600,"station_id":"ce4bha92rcd13ifvqeg0","pricing_plan_id":"cebpf4jnsgd1na2vs0mg"},{"bike_id":"ea6c12c9-f12b-4724-8c7c-757b1b39dc8d","system_id":"levelo_inurba_marseille","lat":43.29977,"lon":5.3718,"is_reserved":false,"is_disabled":false,"rental_uris":{"android":"levelo://app?vid=ea6c12c9-f12b-4724-8c7c-757b1b39dc8d","ios":"levelo://app?vid=ea6c12c9-f12b-4724-8c7c-757b1b39dc8d"},"vehicle_type_id":"4","last_reported":1729606153,"current_range_meters":18800,"station_id":"ce4bgr92rcd13ifvqc7g","pricing_plan_id":"cebpf4jnsgd1na2vs0mg"},{"bike_id":"ab2779b3-b48f-4c90-b97a-64de30204881","system_id":"levelo_inurba_marseille","lat":43.33599,"lon":5.41017,"is_reserved":false,"is_disabled":false,"rental_uris":{"android":"levelo://app?vid=ab2779b3-b48f-4c90-b97a-64de30204881","ios":"levelo://app?vid=ab2779b3-b48f-4c90-b97a-64de30204881"},"vehicle_type_id":"4","last_reported":1729606153,"current_range_meters":16400,"station_id":"ce4bhq92rcd13ifvqhkg","pricing_plan_id":"cebpf4jnsgd1na2vs0mg"},{"bike_id":"79e2f572-f7ed-4556-9c30-78b42f92534f","system_id":"levelo_inurba_marseille","lat":43.28693,"lon":5.39985,"is_reserved":false,"is_disabled":false,"rental_uris":{"android":"levelo://app?vid=79e2f572-f7ed-4556-9c30-78b42f92534f","ios":"levelo://app?vid=79e2f572-f7ed-4556-9c30-78b42f92534f"},"vehicle_type_id":"4","last_reported":1729606153,"current_range_meters":4400,"station_id":"ce4bho92rcd13ifvqh3g","pricing_plan_id":"cebpf4jnsgd1na2vs0mg"},{"bike_id":"382f8b74-5cc0-4ecc-aac3-cb7428397d32","system_id":"levelo_inurba_marseille","lat":43.31355,"lon":5.36721,"is_reserved":false,"is_disabled":false,"rental_uris":{"android":"levelo://app?vid=382f8b74-5cc0-4ecc-aac3-cb7428397d32","ios":"levelo://app?vid=382f8b74-5cc0-4ecc-aac3-cb7428397d32"},"vehicle_type_id":"4","last_reported":1729606153,"current_range_meters":22000,"station_id":"ce4bgr92rcd13ifvqc6g","pricing_plan_id":"cebpf4jnsgd1na2vs0mg"},{"bike_id":"ec125df5-44cc-49b7-81e0-c522bd2ca48c","system_id":"levelo_inurba_marseille","lat":43.27209,"lon":5.39191,"is_reserved":false,"is_disabled":false,"rental_uris":{"android":"levelo://app?vid=ec125df5-44cc-49b7-81e0-c522bd2ca48c","ios":"levelo://app?vid=ec125df5-44cc-49b7-81e0-c522bd2ca48c"},"vehicle_type_id":"4","last_reported":1729606153,"current_range_meters":38800,"station_id":"ce4bhhp2rcd13ifvqfm0","pricing_plan_id":"cebpf4jnsgd1na2vs0mg"},{"bike_id":"d8d30b00-c51f-42c1-a4bc-5be916aaba37","system_id":"levelo_inurba_marseille","lat":43.2959,"lon":5.37369,"is_reserved":false,"is_disabled":false,"rental_uris":{"android":"levelo://app?vid=d8d30b00-c51f-42c1-a4bc-5be916aaba37","ios":"levelo://app?vid=d8d30b00-c51f-42c1-a4bc-5be916aaba37"},"vehicle_type_id":"4","last_reported":1729606153,"current_range_meters":28800,"station_id":"","pricing_plan_id":"cebpf4jnsgd1na2vs0mg"},{"bike_id":"3921d78c-aafb-4e28-8022-056d14ac3e30","system_id":"levelo_inurba_marseille","lat":43.24658,"lon":5.38902,"is_reserved":false,"is_disabled":false,"rental_uris":{"android":"levelo://app?vid=3921d78c-aafb-4e28-8022-056d14ac3e30","ios":"levelo://app?vid=3921d78c-aafb-4e28-8022-056d14ac3e30"},"vehicle_type_id":"4","last_reported":1729606153,"current_range_meters":31200,"station_id":"ce4bhg12rcd13ifvqf60","pricing_plan_id":"cebpf4jnsgd1na2vs0mg"},{"bike_id":"06bc6fb7-51aa-42df-8321-a708d20bdc0a","system_id":"levelo_inurba_marseille","lat":43.26207,"lon":5.37927,"is_reserved":false,"is_disabled":false,"rental_uris":{"android":"levelo://app?vid=06bc6fb7-51aa-42df-8321-a708d20bdc0a","ios":"levelo://app?vid=06bc6fb7-51aa-42df-8321-a708d20bdc0a"},"vehicle_type_id":"4","last_reported":1729606153,"current_range_meters":6400,"station_id":"ce4bhjp2rcd13ifvqg90","pricing_plan_id":"cebpf4jnsgd1na2vs0mg"},{"bike_id":"f5e7b89d-e871-4da2-9801-15e210469b63","system_id":"levelo_inurba_marseille","lat":43.292012,"lon":5.357978,"is_reserved":false,"is_disabled":false,"rental_uris":{"android":"levelo://app?vid=f5e7b89d-e871-4da2-9801-15e210469b63","ios":"levelo://app?vid=f5e7b89d-e871-4da2-9801-15e210469b63"},"vehicle_type_id":"4","last_reported":1729606153,"current_range_meters":9200,"station_id":"ce4bhb12rcd13ifvqel0","pricing_plan_id":"cebpf4jnsgd1na2vs0mg"},{"bike_id":"34ec1f28-a3b7-4f68-a7e9-7448bf99b859","system_id":"levelo_inurba_marseille","lat":43.30801,"lon":5.38154,"is_reserved":false,"is_disabled":false,"rental_uris":{"android":"levelo://app?vid=34ec1f28-a3b7-4f68-a7e9-7448bf99b859","ios":"levelo://app?vid=34ec1f28-a3b7-4f68-a7e9-7448bf99b859"},"vehicle_type_id":"4","last_reported":1729606153,"current_range_meters":38800,"station_id":"ce4bgt12rcd13ifvqce0","pricing_plan_id":"cebpf4jnsgd1na2vs0mg"},{"bike_id":"f0cc0dcb-c63c-4503-8a09-6c0d61c7bcdf","system_id":"levelo_inurba_marseille","lat":43.25501,"lon":5.37648,"is_reserved":false,"is_disabled":false,"rental_uris":{"android":"levelo://app?vid=f0cc0dcb-c63c-4503-8a09-6c0d61c7bcdf","ios":"levelo://app?vid=f0cc0dcb-c63c-4503-8a09-6c0d61c7bcdf"},"vehicle_type_id":"4","last_reported":1729606153,"current_range_meters":23200,"station_id":"ce4bhh12rcd13ifvqff0","pricing_plan_id":"cebpf4jnsgd1na2vs0mg"},{"bike_id":"e17b4262-eec2-4275-9e46-12f4f5300818","system_id":"levelo_inurba_marseille","lat":43.2827,"lon":5.35073,"is_reserved":false,"is_disabled":false,"rental_uris":{"android":"levelo://app?vid=e17b4262-eec2-4275-9e46-12f4f5300818","ios":"levelo://app?vid=e17b4262-eec2-4275-9e46-12f4f5300818"},"vehicle_type_id":"4","last_reported":1729606153,"current_range_meters":28400,"station_id":"ce4bhbp2rcd13ifvqerg","pricing_plan_id":"cebpf4jnsgd1na2vs0mg"},{"bike_id":"e68074ff-f5e2-424b-ac9b-aa2b95174368","system_id":"levelo_inurba_marseille","lat":43.28151,"lon":5.42642,"is_reserved":false,"is_disabled":false,"rental_uris":{"android":"levelo://app?vid=e68074ff-f5e2-424b-ac9b-aa2b95174368","ios":"levelo://app?vid=e68074ff-f5e2-424b-ac9b-aa2b95174368"},"vehicle_type_id":"4","last_reported":1729606153,"current_range_meters":30400,"station_id":"ce4bhnh2rcd13ifvqgug","pricing_plan_id":"cebpf4jnsgd1na2vs0mg"},{"bike_id":"815dd284-1bd2-4bb9-992a-b2116e2485bc","system_id":"levelo_inurba_marseille","lat":43.327786,"lon":5.361545,"is_reserved":false,"is_disabled":false,"rental_uris":{"android":"levelo://app?vid=815dd284-1bd2-4bb9-992a-b2116e2485bc","ios":"levelo://app?vid=815dd284-1bd2-4bb9-992a-b2116e2485bc"},"vehicle_type_id":"4","last_reported":1729606153,"current_range_meters":33200,"station_id":"","pricing_plan_id":"cebpf4jnsgd1na2vs0mg"},{"bike_id":"f4b4b39f-d4ef-4f00-ab75-8d2ce5524735","system_id":"levelo_inurba_marseille","lat":43.29579,"lon":5.36741,"is_reserved":false,"is_disabled":false,"rental_uris":{"android":"levelo://app?vid=f4b4b39f-d4ef-4f00-ab75-8d2ce5524735","ios":"levelo://app?vid=f4b4b39f-d4ef-4f00-ab75-8d2ce5524735"},"vehicle_type_id":"4","last_reported":1729606153,"current_range_meters":32400,"station_id":"ce4bgph2rcd13ifvqc2g","pricing_plan_id":"cebpf4jnsgd1na2vs0mg"},{"bike_id":"a6becff1-00d3-47fa-8898-3ba6d7221fbe","system_id":"levelo_inurba_marseille","lat":43.23195,"lon":5.35545,"is_reserved":false,"is_disabled":false,"rental_uris":{"android":"levelo://app?vid=a6becff1-00d3-47fa-8898-3ba6d7221fbe","ios":"levelo://app?vid=a6becff1-00d3-47fa-8898-3ba6d7221fbe"},"vehicle_type_id":"4","last_reported":1729606153,"current_range_meters":36400,"station_id":"ce4bhu92rcd13ifvqi70","pricing_plan_id":"cebpf4jnsgd1na2vs0mg"},{"bike_id":"66f67b76-429f-4956-9fd8-018cf411f269","system_id":"levelo_inurba_marseille","lat":43.28977,"lon":5.37836,"is_reserved":false,"is_disabled":false,"rental_uris":{"android":"levelo://app?vid=66f67b76-429f-4956-9fd8-018cf411f269","ios":"levelo://app?vid=66f67b76-429f-4956-9fd8-018cf411f269"},"vehicle_type_id":"4","last_reported":1729606153,"current_range_meters":28000,"station_id":"ce4bh9p2rcd13ifvqed0","pricing_plan_id":"cebpf4jnsgd1na2vs0mg"},{"bike_id":"be5d828b-df90-4ad2-b59d-ba3093879b03","system_id":"levelo_inurba_marseille","lat":43.27369,"lon":5.3626,"is_reserved":false,"is_disabled":false,"rental_uris":{"android":"levelo://app?vid=be5d828b-df90-4ad2-b59d-ba3093879b03","ios":"levelo://app?vid=be5d828b-df90-4ad2-b59d-ba3093879b03"},"vehicle_type_id":"4","last_reported":1729606153,"current_range_meters":27200,"station_id":"ce4bhbh2rcd13ifvqeo0","pricing_plan_id":"cebpf4jnsgd1na2vs0mg"},{"bike_id":"4664ff34-ad50-4f08-b1f7-ad109da7892c","system_id":"levelo_inurba_marseille","lat":43.308,"lon":5.38161,"is_reserved":false,"is_disabled":false,"rental_uris":{"android":"levelo://app?vid=4664ff34-ad50-4f08-b1f7-ad109da7892c","ios":"levelo://app?vid=4664ff34-ad50-4f08-b1f7-ad109da7892c"},"vehicle_type_id":"4","last_reported":1729606153,"current_range_meters":30800,"station_id":"ce4bgt12rcd13ifvqce0","pricing_plan_id":"cebpf4jnsgd1na2vs0mg"},{"bike_id":"be215221-395a-4d0c-b3e2-8369c51a5b57","system_id":"levelo_inurba_marseille","lat":43.26746,"lon":5.37202,"is_reserved":false,"is_disabled":false,"rental_uris":{"android":"levelo://app?vid=be215221-395a-4d0c-b3e2-8369c51a5b57","ios":"levelo://app?vid=be215221-395a-4d0c-b3e2-8369c51a5b57"},"vehicle_type_id":"4","last_reported":1729606153,"current_range_meters":16000,"station_id":"","pricing_plan_id":"cebpf4jnsgd1na2vs0mg"},{"bike_id":"bf8d0617-6bef-47ca-8c84-936cfebcc97c","system_id":"levelo_inurba_marseille","lat":43.32112,"lon":5.36783,"is_reserved":false,"is_disabled":false,"rental_uris":{"android":"levelo://app?vid=bf8d0617-6bef-47ca-8c84-936cfebcc97c","ios":"levelo://app?vid=bf8d0617-6bef-47ca-8c84-936cfebcc97c"},"vehicle_type_id":"4","last_reported":1729606153,"current_range_meters":16400,"station_id":"ce4bhrh2rcd13ifvqhug","pricing_plan_id":"cebpf4jnsgd1na2vs0mg"},{"bike_id":"b718ee65-e05e-4d82-ad16-951bbce9d310","system_id":"levelo_inurba_marseille","lat":43.28704,"lon":5.39985,"is_reserved":false,"is_disabled":false,"rental_uris":{"android":"levelo://app?vid=b718ee65-e05e-4d82-ad16-951bbce9d310","ios":"levelo://app?vid=b718ee65-e05e-4d82-ad16-951bbce9d310"},"vehicle_type_id":"4","last_reported":1729606153,"current_range_meters":28400,"station_id":"ce4bho92rcd13ifvqh3g","pricing_plan_id":"cebpf4jnsgd1na2vs0mg"},{"bike_id":"ec01afc0-691c-4f2d-a82e-21f252e87fc8","system_id":"levelo_inurba_marseille","lat":43.27998,"lon":5.40033,"is_reserved":false,"is_disabled":false,"rental_uris":{"android":"levelo://app?vid=ec01afc0-691c-4f2d-a82e-21f252e87fc8","ios":"levelo://app?vid=ec01afc0-691c-4f2d-a82e-21f252e87fc8"},"vehicle_type_id":"4","last_reported":1729606153,"current_range_meters":6800,"station_id":"ce4bho92rcd13ifvqh4g","pricing_plan_id":"cebpf4jnsgd1na2vs0mg"},{"bike_id":"963114b6-61bd-41ef-9c08-0912f98ed52d","system_id":"levelo_inurba_marseille","lat":43.2706,"lon":5.40263,"is_reserved":false,"is_disabled":false,"rental_uris":{"android":"levelo://app?vid=963114b6-61bd-41ef-9c08-0912f98ed52d","ios":"levelo://app?vid=963114b6-61bd-41ef-9c08-0912f98ed52d"},"vehicle_type_id":"4","last_reported":1729606153,"current_range_meters":10000,"station_id":"ce4bhk92rcd13ifvqgc0","pricing_plan_id":"cebpf4jnsgd1na2vs0mg"},{"bike_id":"5ee2a809-6067-4e7e-bf77-993d2ceab946","system_id":"levelo_inurba_marseille","lat":43.25504,"lon":5.37646,"is_reserved":false,"is_disabled":false,"rental_uris":{"android":"levelo://app?vid=5ee2a809-6067-4e7e-bf77-993d2ceab946","ios":"levelo://app?vid=5ee2a809-6067-4e7e-bf77-993d2ceab946"},"vehicle_type_id":"4","last_reported":1729606153,"current_range_meters":38800,"station_id":"ce4bhh12rcd13ifvqff0","pricing_plan_id":"cebpf4jnsgd1na2vs0mg"},{"bike_id":"7e3cb010-b5b3-478f-8b4d-4185ab46a9f4","system_id":"levelo_inurba_marseille","lat":43.31352,"lon":5.36711,"is_reserved":false,"is_disabled":false,"rental_uris":{"android":"levelo://app?vid=7e3cb010-b5b3-478f-8b4d-4185ab46a9f4","ios":"levelo://app?vid=7e3cb010-b5b3-478f-8b4d-4185ab46a9f4"},"vehicle_type_id":"4","last_reported":1729606153,"current_range_meters":34000,"station_id":"ce4bgr92rcd13ifvqc6g","pricing_plan_id":"cebpf4jnsgd1na2vs0mg"},{"bike_id":"e694b9f9-02ae-437b-b1e2-aa341b5f55db","system_id":"levelo_inurba_marseille","lat":43.29808,"lon":5.38084,"is_reserved":false,"is_disabled":false,"rental_uris":{"android":"levelo://app?vid=e694b9f9-02ae-437b-b1e2-aa341b5f55db","ios":"levelo://app?vid=e694b9f9-02ae-437b-b1e2-aa341b5f55db"},"vehicle_type_id":"4","last_reported":1729606153,"current_range_meters":39200,"station_id":"ce4bgip2rcd13ifvqbb0","pricing_plan_id":"cebpf4jnsgd1na2vs0mg"},{"bike_id":"6306bed3-0d2b-49da-95c5-973170dba4a6","system_id":"levelo_inurba_marseille","lat":43.2315,"lon":5.4372,"is_reserved":false,"is_disabled":false,"rental_uris":{"android":"levelo://app?vid=6306bed3-0d2b-49da-95c5-973170dba4a6","ios":"levelo://app?vid=6306bed3-0d2b-49da-95c5-973170dba4a6"},"vehicle_type_id":"4","last_reported":1729606153,"current_range_meters":35200,"station_id":"ce4bhmp2rcd13ifvqgog","pricing_plan_id":"cebpf4jnsgd1na2vs0mg"},{"bike_id":"0287c966-5b8a-4070-b2c7-513f4d958196","system_id":"levelo_inurba_marseille","lat":43.24545,"lon":5.39526,"is_reserved":false,"is_disabled":false,"rental_uris":{"android":"levelo://app?vid=0287c966-5b8a-4070-b2c7-513f4d958196","ios":"levelo://app?vid=0287c966-5b8a-4070-b2c7-513f4d958196"},"vehicle_type_id":"4","last_reported":1729606153,"current_range_meters":23200,"station_id":"ce4bhlp2rcd13ifvqgjg","pricing_plan_id":"cebpf4jnsgd1na2vs0mg"},{"bike_id":"6df03dd8-36f0-4315-a967-029dd3d241a1","system_id":"levelo_inurba_marseille","lat":43.28266,"lon":5.35068,"is_reserved":false,"is_disabled":false,"rental_uris":{"android":"levelo://app?vid=6df03dd8-36f0-4315-a967-029dd3d241a1","ios":"levelo://app?vid=6df03dd8-36f0-4315-a967-029dd3d241a1"},"vehicle_type_id":"4","last_reported":1729606153,"current_range_meters":38800,"station_id":"ce4bhbp2rcd13ifvqerg","pricing_plan_id":"cebpf4jnsgd1na2vs0mg"},{"bike_id":"23204f4d-f6b5-483c-9848-ce6182707973","system_id":"levelo_inurba_marseille","lat":43.29005,"lon":5.35606,"is_reserved":false,"is_disabled":false,"rental_uris":{"android":"levelo://app?vid=23204f4d-f6b5-483c-9848-ce6182707973","ios":"levelo://app?vid=23204f4d-f6b5-483c-9848-ce6182707973"},"vehicle_type_id":"4","last_reported":1729606153,"current_range_meters":34800,"station_id":"ce4bhb92rcd13ifvqen0","pricing_plan_id":"cebpf4jnsgd1na2vs0mg"},{"bike_id":"ee458820-4b5f-4880-a810-7e29f4e09d82","system_id":"levelo_inurba_marseille","lat":43.31358,"lon":5.36732,"is_reserved":false,"is_disabled":false,"rental_uris":{"android":"levelo://app?vid=ee458820-4b5f-4880-a810-7e29f4e09d82","ios":"levelo://app?vid=ee458820-4b5f-4880-a810-7e29f4e09d82"},"vehicle_type_id":"4","last_reported":1729606153,"current_range_meters":11600,"station_id":"ce4bgr92rcd13ifvqc6g","pricing_plan_id":"cebpf4jnsgd1na2vs0mg"},{"bike_id":"ae3fcb04-be9a-4eda-86cc-c69683243e47","system_id":"levelo_inurba_marseille","lat":43.239634,"lon":5.366221,"is_reserved":false,"is_disabled":false,"rental_uris":{"android":"levelo://app?vid=ae3fcb04-be9a-4eda-86cc-c69683243e47","ios":"levelo://app?vid=ae3fcb04-be9a-4eda-86cc-c69683243e47"},"vehicle_type_id":"4","last_reported":1729606153,"current_range_meters":37600,"station_id":"ce4bhi12rcd13ifvqfp0","pricing_plan_id":"cebpf4jnsgd1na2vs0mg"},{"bike_id":"c1148131-9de2-414f-adc6-fbf5cc7b5288","system_id":"levelo_inurba_marseille","lat":43.23959,"lon":5.36633,"is_reserved":false,"is_disabled":false,"rental_uris":{"android":"levelo://app?vid=c1148131-9de2-414f-adc6-fbf5cc7b5288","ios":"levelo://app?vid=c1148131-9de2-414f-adc6-fbf5cc7b5288"},"vehicle_type_id":"4","last_reported":1729606153,"current_range_meters":2800,"station_id":"ce4bhi12rcd13ifvqfp0","pricing_plan_id":"cebpf4jnsgd1na2vs0mg"},{"bike_id":"d84f61b7-92f1-4e5b-a2e5-4a1dc51f19f6","system_id":"levelo_inurba_marseille","lat":43.313605,"lon":5.367135,"is_reserved":false,"is_disabled":false,"rental_uris":{"android":"levelo://app?vid=d84f61b7-92f1-4e5b-a2e5-4a1dc51f19f6","ios":"levelo://app?vid=d84f61b7-92f1-4e5b-a2e5-4a1dc51f19f6"},"vehicle_type_id":"4","last_reported":1729606153,"current_range_meters":26800,"station_id":"ce4bgr92rcd13ifvqc6g","pricing_plan_id":"cebpf4jnsgd1na2vs0mg"},{"bike_id":"c6e4d7dc-6368-4311-8b36-474982fe0e4c","system_id":"levelo_inurba_marseille","lat":43.28425,"lon":5.34988,"is_reserved":false,"is_disabled":false,"rental_uris":{"android":"levelo://app?vid=c6e4d7dc-6368-4311-8b36-474982fe0e4c","ios":"levelo://app?vid=c6e4d7dc-6368-4311-8b36-474982fe0e4c"},"vehicle_type_id":"4","last_reported":1729606153,"current_range_meters":21600,"station_id":"ce4bhbh2rcd13ifvqepg","pricing_plan_id":"cebpf4jnsgd1na2vs0mg"},{"bike_id":"91139aaa-660f-4474-a89e-7d3a2cc79d86","system_id":"levelo_inurba_marseille","lat":43.32337,"lon":5.40625,"is_reserved":false,"is_disabled":false,"rental_uris":{"android":"levelo://app?vid=91139aaa-660f-4474-a89e-7d3a2cc79d86","ios":"levelo://app?vid=91139aaa-660f-4474-a89e-7d3a2cc79d86"},"vehicle_type_id":"4","last_reported":1729606153,"current_range_meters":37600,"station_id":"ce4bhq92rcd13ifvqhjg","pricing_plan_id":"cebpf4jnsgd1na2vs0mg"},{"bike_id":"8fb4b27c-35e9-47bc-a2a8-80ff62ad597f","system_id":"levelo_inurba_marseille","lat":43.24386,"lon":5.37062,"is_reserved":false,"is_disabled":false,"rental_uris":{"android":"levelo://app?vid=8fb4b27c-35e9-47bc-a2a8-80ff62ad597f","ios":"levelo://app?vid=8fb4b27c-35e9-47bc-a2a8-80ff62ad597f"},"vehicle_type_id":"4","last_reported":1729606153,"current_range_meters":22400,"station_id":"ce4bhhh2rcd13ifvqfk0","pricing_plan_id":"cebpf4jnsgd1na2vs0mg"},{"bike_id":"c0ae2ef6-a579-45cb-8f3e-8d5827aeb43a","system_id":"levelo_inurba_marseille","lat":43.23967,"lon":5.36633,"is_reserved":false,"is_disabled":false,"rental_uris":{"android":"levelo://app?vid=c0ae2ef6-a579-45cb-8f3e-8d5827aeb43a","ios":"levelo://app?vid=c0ae2ef6-a579-45cb-8f3e-8d5827aeb43a"},"vehicle_type_id":"4","last_reported":1729606153,"current_range_meters":16000,"station_id":"ce4bhi12rcd13ifvqfp0","pricing_plan_id":"cebpf4jnsgd1na2vs0mg"},{"bike_id":"1a311283-f1f4-444b-9100-f9585766a2fb","system_id":"levelo_inurba_marseille","lat":43.26938,"lon":5.40257,"is_reserved":false,"is_disabled":false,"rental_uris":{"android":"levelo://app?vid=1a311283-f1f4-444b-9100-f9585766a2fb","ios":"levelo://app?vid=1a311283-f1f4-444b-9100-f9585766a2fb"},"vehicle_type_id":"4","last_reported":1729606153,"current_range_meters":39200,"station_id":"cjm6bp8fraef2m0cb0m0","pricing_plan_id":"cebpf4jnsgd1na2vs0mg"},{"bike_id":"f801a972-c648-424a-a7e1-9d8a4bf001b1","system_id":"levelo_inurba_marseille","lat":43.28039,"lon":5.36942,"is_reserved":false,"is_disabled":false,"rental_uris":{"android":"levelo://app?vid=f801a972-c648-424a-a7e1-9d8a4bf001b1","ios":"levelo://app?vid=f801a972-c648-424a-a7e1-9d8a4bf001b1"},"vehicle_type_id":"4","last_reported":1729606153,"current_range_meters":38800,"station_id":"ce4bha12rcd13ifvqef0","pricing_plan_id":"cebpf4jnsgd1na2vs0mg"},{"bike_id":"751d3382-d8f0-4f0a-a67e-10d700e93754","system_id":"levelo_inurba_marseille","lat":43.25936,"lon":5.40905,"is_reserved":false,"is_disabled":false,"rental_uris":{"android":"levelo://app?vid=751d3382-d8f0-4f0a-a67e-10d700e93754","ios":"levelo://app?vid=751d3382-d8f0-4f0a-a67e-10d700e93754"},"vehicle_type_id":"4","last_reported":1729606153,"current_range_meters":34800,"station_id":"ce4bhm92rcd13ifvqglg","pricing_plan_id":"cebpf4jnsgd1na2vs0mg"},{"bike_id":"11d46caa-7a05-440f-9a94-e44e69d9d5ca","system_id":"levelo_inurba_marseille","lat":43.28078,"lon":5.3966,"is_reserved":false,"is_disabled":false,"rental_uris":{"android":"levelo://app?vid=11d46caa-7a05-440f-9a94-e44e69d9d5ca","ios":"levelo://app?vid=11d46caa-7a05-440f-9a94-e44e69d9d5ca"},"vehicle_type_id":"4","last_reported":1729606153,"current_range_meters":38000,"station_id":"ce4bho12rcd13ifvqh2g","pricing_plan_id":"cebpf4jnsgd1na2vs0mg"},{"bike_id":"b6514299-eec4-4895-89f1-d6a2c5bf4d8f","system_id":"levelo_inurba_marseille","lat":43.22924,"lon":5.35382,"is_reserved":false,"is_disabled":false,"rental_uris":{"android":"levelo://app?vid=b6514299-eec4-4895-89f1-d6a2c5bf4d8f","ios":"levelo://app?vid=b6514299-eec4-4895-89f1-d6a2c5bf4d8f"},"vehicle_type_id":"4","last_reported":1729606153,"current_range_meters":8000,"station_id":"cpo3532slgdg3j2ikp40","pricing_plan_id":"cebpf4jnsgd1na2vs0mg"},{"bike_id":"5c7504bf-33dd-49b2-9ff0-b4a374aa98ce","system_id":"levelo_inurba_marseille","lat":43.29526,"lon":5.38537,"is_reserved":false,"is_disabled":false,"rental_uris":{"android":"levelo://app?vid=5c7504bf-33dd-49b2-9ff0-b4a374aa98ce","ios":"levelo://app?vid=5c7504bf-33dd-49b2-9ff0-b4a374aa98ce"},"vehicle_type_id":"4","last_reported":1729606153,"current_range_meters":20800,"station_id":"ce4bgih2rcd13ifvqba0","pricing_plan_id":"cebpf4jnsgd1na2vs0mg"},{"bike_id":"94bf876f-db2f-4206-8944-c80cfa3e0c54","system_id":"levelo_inurba_marseille","lat":43.25714,"lon":5.41118,"is_reserved":false,"is_disabled":false,"rental_uris":{"android":"levelo://app?vid=94bf876f-db2f-4206-8944-c80cfa3e0c54","ios":"levelo://app?vid=94bf876f-db2f-4206-8944-c80cfa3e0c54"},"vehicle_type_id":"4","last_reported":1729606153,"current_range_meters":38800,"station_id":"ce4bhkp2rcd13ifvqgd0","pricing_plan_id":"cebpf4jnsgd1na2vs0mg"},{"bike_id":"2b80f943-bf35-49c7-9584-ea1845fd1d05","system_id":"levelo_inurba_marseille","lat":43.23191,"lon":5.35548,"is_reserved":false,"is_disabled":false,"rental_uris":{"android":"levelo://app?vid=2b80f943-bf35-49c7-9584-ea1845fd1d05","ios":"levelo://app?vid=2b80f943-bf35-49c7-9584-ea1845fd1d05"},"vehicle_type_id":"4","last_reported":1729606153,"current_range_meters":9600,"station_id":"ce4bhu92rcd13ifvqi70","pricing_plan_id":"cebpf4jnsgd1na2vs0mg"},{"bike_id":"81e4488d-b9df-4764-b508-9fca2a6674ff","system_id":"levelo_inurba_marseille","lat":43.23194,"lon":5.35546,"is_reserved":false,"is_disabled":false,"rental_uris":{"android":"levelo://app?vid=81e4488d-b9df-4764-b508-9fca2a6674ff","ios":"levelo://app?vid=81e4488d-b9df-4764-b508-9fca2a6674ff"},"vehicle_type_id":"4","last_reported":1729606153,"current_range_meters":37600,"station_id":"ce4bhu92rcd13ifvqi70","pricing_plan_id":"cebpf4jnsgd1na2vs0mg"},{"bike_id":"44550e6e-2644-4242-b698-239c03743e5c","system_id":"levelo_inurba_marseille","lat":43.27215,"lon":5.39186,"is_reserved":false,"is_disabled":false,"rental_uris":{"android":"levelo://app?vid=44550e6e-2644-4242-b698-239c03743e5c","ios":"levelo://app?vid=44550e6e-2644-4242-b698-239c03743e5c"},"vehicle_type_id":"4","last_reported":1729606153,"current_range_meters":38800,"station_id":"ce4bhhp2rcd13ifvqfm0","pricing_plan_id":"cebpf4jnsgd1na2vs0mg"},{"bike_id":"cc7ba531-eadc-4a76-b88a-eac33527a1c8","system_id":"levelo_inurba_marseille","lat":43.31895,"lon":5.40742,"is_reserved":false,"is_disabled":false,"rental_uris":{"android":"levelo://app?vid=cc7ba531-eadc-4a76-b88a-eac33527a1c8","ios":"levelo://app?vid=cc7ba531-eadc-4a76-b88a-eac33527a1c8"},"vehicle_type_id":"4","last_reported":1729606153,"current_range_meters":9600,"station_id":"ce4bhq12rcd13ifvqhig","pricing_plan_id":"cebpf4jnsgd1na2vs0mg"},{"bike_id":"b04ea1ac-3606-406c-bdd5-e575d684d586","system_id":"levelo_inurba_marseille","lat":43.2721,"lon":5.39182,"is_reserved":false,"is_disabled":false,"rental_uris":{"android":"levelo://app?vid=b04ea1ac-3606-406c-bdd5-e575d684d586","ios":"levelo://app?vid=b04ea1ac-3606-406c-bdd5-e575d684d586"},"vehicle_type_id":"4","last_reported":1729606153,"current_range_meters":9600,"station_id":"ce4bhhp2rcd13ifvqfm0","pricing_plan_id":"cebpf4jnsgd1na2vs0mg"},{"bike_id":"aa30d59b-6554-4ade-bd63-5c8cc51f2629","system_id":"levelo_inurba_marseille","lat":43.29715,"lon":5.37704,"is_reserved":false,"is_disabled":false,"rental_uris":{"android":"levelo://app?vid=aa30d59b-6554-4ade-bd63-5c8cc51f2629","ios":"levelo://app?vid=aa30d59b-6554-4ade-bd63-5c8cc51f2629"},"vehicle_type_id":"4","last_reported":1729606153,"current_range_meters":36800,"station_id":"ce4bgkh2rcd13ifvqbl0","pricing_plan_id":"cebpf4jnsgd1na2vs0mg"},{"bike_id":"087a7bf8-4bdf-408b-a60c-b4b0ac6d7a5a","system_id":"levelo_inurba_marseille","lat":43.32481,"lon":5.36564,"is_reserved":false,"is_disabled":false,"rental_uris":{"android":"levelo://app?vid=087a7bf8-4bdf-408b-a60c-b4b0ac6d7a5a","ios":"levelo://app?vid=087a7bf8-4bdf-408b-a60c-b4b0ac6d7a5a"},"vehicle_type_id":"4","last_reported":1729606153,"current_range_meters":39200,"station_id":"ce4bhs12rcd13ifvqhvg","pricing_plan_id":"cebpf4jnsgd1na2vs0mg"},{"bike_id":"73ba1506-bb20-447b-a712-d78bfe00b93b","system_id":"levelo_inurba_marseille","lat":43.29281,"lon":5.40117,"is_reserved":false,"is_disabled":false,"rental_uris":{"android":"levelo://app?vid=73ba1506-bb20-447b-a712-d78bfe00b93b","ios":"levelo://app?vid=73ba1506-bb20-447b-a712-d78bfe00b93b"},"vehicle_type_id":"4","last_reported":1729606153,"current_range_meters":9600,"station_id":"ce4bh312rcd13ifvqdk0","pricing_plan_id":"cebpf4jnsgd1na2vs0mg"},{"bike_id":"3bb9d87c-a934-4a7c-8831-661ab290801c","system_id":"levelo_inurba_marseille","lat":43.30153,"lon":5.38102,"is_reserved":false,"is_disabled":false,"rental_uris":{"android":"levelo://app?vid=3bb9d87c-a934-4a7c-8831-661ab290801c","ios":"levelo://app?vid=3bb9d87c-a934-4a7c-8831-661ab290801c"},"vehicle_type_id":"4","last_reported":1729606153,"current_range_meters":36800,"station_id":"ce4bgjp2rcd13ifvqbh0","pricing_plan_id":"cebpf4jnsgd1na2vs0mg"},{"bike_id":"c1202558-5912-4252-85d0-5ea44a1dd5e3","system_id":"levelo_inurba_marseille","lat":43.32477,"lon":5.36562,"is_reserved":false,"is_disabled":false,"rental_uris":{"android":"levelo://app?vid=c1202558-5912-4252-85d0-5ea44a1dd5e3","ios":"levelo://app?vid=c1202558-5912-4252-85d0-5ea44a1dd5e3"},"vehicle_type_id":"4","last_reported":1729606153,"current_range_meters":39200,"station_id":"ce4bhs12rcd13ifvqhvg","pricing_plan_id":"cebpf4jnsgd1na2vs0mg"},{"bike_id":"2ffcc6a3-4fc2-4849-a2ae-d9b0cdb51aa6","system_id":"levelo_inurba_marseille","lat":43.25582,"lon":5.3824,"is_reserved":false,"is_disabled":false,"rental_uris":{"android":"levelo://app?vid=2ffcc6a3-4fc2-4849-a2ae-d9b0cdb51aa6","ios":"levelo://app?vid=2ffcc6a3-4fc2-4849-a2ae-d9b0cdb51aa6"},"vehicle_type_id":"4","last_reported":1729606153,"current_range_meters":23200,"station_id":"ce4bhih2rcd13ifvqfs0","pricing_plan_id":"cebpf4jnsgd1na2vs0mg"},{"bike_id":"22fe40a7-815e-4230-a89e-4aad00c553a7","system_id":"levelo_inurba_marseille","lat":43.30596,"lon":5.39358,"is_reserved":false,"is_disabled":false,"rental_uris":{"android":"levelo://app?vid=22fe40a7-815e-4230-a89e-4aad00c553a7","ios":"levelo://app?vid=22fe40a7-815e-4230-a89e-4aad00c553a7"},"vehicle_type_id":"4","last_reported":1729606153,"current_range_meters":31200,"station_id":"ce4bh0p2rcd13ifvqd80","pricing_plan_id":"cebpf4jnsgd1na2vs0mg"},{"bike_id":"b1adec29-c1d0-4759-9604-fab71a6ecdb3","system_id":"levelo_inurba_marseille","lat":43.27372,"lon":5.36263,"is_reserved":false,"is_disabled":false,"rental_uris":{"android":"levelo://app?vid=b1adec29-c1d0-4759-9604-fab71a6ecdb3","ios":"levelo://app?vid=b1adec29-c1d0-4759-9604-fab71a6ecdb3"},"vehicle_type_id":"4","last_reported":1729606153,"current_range_meters":20800,"station_id":"ce4bhbh2rcd13ifvqeo0","pricing_plan_id":"cebpf4jnsgd1na2vs0mg"},{"bike_id":"41c3722d-3c85-4105-a870-5c0183e08b49","system_id":"levelo_inurba_marseille","lat":43.25576,"lon":5.38229,"is_reserved":false,"is_disabled":false,"rental_uris":{"android":"levelo://app?vid=41c3722d-3c85-4105-a870-5c0183e08b49","ios":"levelo://app?vid=41c3722d-3c85-4105-a870-5c0183e08b49"},"vehicle_type_id":"4","last_reported":1729606153,"current_range_meters":38800,"station_id":"ce4bhih2rcd13ifvqfs0","pricing_plan_id":"cebpf4jnsgd1na2vs0mg"},{"bike_id":"59bdb9ef-260d-42aa-a94d-a4685d213b39","system_id":"levelo_inurba_marseille","lat":43.29034,"lon":5.39964,"is_reserved":false,"is_disabled":false,"rental_uris":{"android":"levelo://app?vid=59bdb9ef-260d-42aa-a94d-a4685d213b39","ios":"levelo://app?vid=59bdb9ef-260d-42aa-a94d-a4685d213b39"},"vehicle_type_id":"4","last_reported":1729606153,"current_range_meters":13600,"station_id":"ce4bh392rcd13ifvqdm0","pricing_plan_id":"cebpf4jnsgd1na2vs0mg"},{"bike_id":"7987e670-9b08-4e60-827e-ceb664695288","system_id":"levelo_inurba_marseille","lat":43.2991,"lon":5.38142,"is_reserved":false,"is_disabled":false,"rental_uris":{"android":"levelo://app?vid=7987e670-9b08-4e60-827e-ceb664695288","ios":"levelo://app?vid=7987e670-9b08-4e60-827e-ceb664695288"},"vehicle_type_id":"4","last_reported":1729606153,"current_range_meters":28400,"station_id":"ce4bgj12rcd13ifvqbc0","pricing_plan_id":"cebpf4jnsgd1na2vs0mg"},{"bike_id":"00418956-432c-42d5-8579-de5115d56389","system_id":"levelo_inurba_marseille","lat":43.29889,"lon":5.43662,"is_reserved":false,"is_disabled":false,"rental_uris":{"android":"levelo://app?vid=00418956-432c-42d5-8579-de5115d56389","ios":"levelo://app?vid=00418956-432c-42d5-8579-de5115d56389"},"vehicle_type_id":"4","last_reported":1729606153,"current_range_meters":39200,"station_id":"ce4bhpp2rcd13ifvqhfg","pricing_plan_id":"cebpf4jnsgd1na2vs0mg"},{"bike_id":"bc26cbbc-4e98-4f71-9c8e-a3a9d1231fd2","system_id":"levelo_inurba_marseille","lat":43.24176,"lon":5.39724,"is_reserved":false,"is_disabled":false,"rental_uris":{"android":"levelo://app?vid=bc26cbbc-4e98-4f71-9c8e-a3a9d1231fd2","ios":"levelo://app?vid=bc26cbbc-4e98-4f71-9c8e-a3a9d1231fd2"},"vehicle_type_id":"4","last_reported":1729606153,"current_range_meters":37600,"station_id":"ce4bhn12rcd13ifvqgpg","pricing_plan_id":"cebpf4jnsgd1na2vs0mg"},{"bike_id":"ab92774a-7a54-4d20-99c8-240b7f2f0fe9","system_id":"levelo_inurba_marseille","lat":43.29792,"lon":5.38084,"is_reserved":false,"is_disabled":false,"rental_uris":{"android":"levelo://app?vid=ab92774a-7a54-4d20-99c8-240b7f2f0fe9","ios":"levelo://app?vid=ab92774a-7a54-4d20-99c8-240b7f2f0fe9"},"vehicle_type_id":"4","last_reported":1729606153,"current_range_meters":28000,"station_id":"ce4bgip2rcd13ifvqbb0","pricing_plan_id":"cebpf4jnsgd1na2vs0mg"},{"bike_id":"4541ca2b-92f6-4ec6-9698-2e923f3f612a","system_id":"levelo_inurba_marseille","lat":43.22926,"lon":5.35381,"is_reserved":false,"is_disabled":false,"rental_uris":{"android":"levelo://app?vid=4541ca2b-92f6-4ec6-9698-2e923f3f612a","ios":"levelo://app?vid=4541ca2b-92f6-4ec6-9698-2e923f3f612a"},"vehicle_type_id":"4","last_reported":1729606153,"current_range_meters":37600,"station_id":"cpo3532slgdg3j2ikp40","pricing_plan_id":"cebpf4jnsgd1na2vs0mg"},{"bike_id":"6fad7d9c-abc3-44ae-919e-73969d2c0a92","system_id":"levelo_inurba_marseille","lat":43.23962,"lon":5.36638,"is_reserved":false,"is_disabled":false,"rental_uris":{"android":"levelo://app?vid=6fad7d9c-abc3-44ae-919e-73969d2c0a92","ios":"levelo://app?vid=6fad7d9c-abc3-44ae-919e-73969d2c0a92"},"vehicle_type_id":"4","last_reported":1729606153,"current_range_meters":24000,"station_id":"ce4bhi12rcd13ifvqfp0","pricing_plan_id":"cebpf4jnsgd1na2vs0mg"},{"bike_id":"66e14b84-e718-43b1-9343-92ad7e2513e1","system_id":"levelo_inurba_marseille","lat":43.26786,"lon":5.39416,"is_reserved":false,"is_disabled":false,"rental_uris":{"android":"levelo://app?vid=66e14b84-e718-43b1-9343-92ad7e2513e1","ios":"levelo://app?vid=66e14b84-e718-43b1-9343-92ad7e2513e1"},"vehicle_type_id":"4","last_reported":1729606153,"current_range_meters":16800,"station_id":"ce4bhh12rcd13ifvqfg0","pricing_plan_id":"cebpf4jnsgd1na2vs0mg"},{"bike_id":"59c6aaa4-cdd6-414a-a01b-5cf1c0cef934","system_id":"levelo_inurba_marseille","lat":43.2689,"lon":5.36835,"is_reserved":false,"is_disabled":false,"rental_uris":{"android":"levelo://app?vid=59c6aaa4-cdd6-414a-a01b-5cf1c0cef934","ios":"levelo://app?vid=59c6aaa4-cdd6-414a-a01b-5cf1c0cef934"},"vehicle_type_id":"4","last_reported":1729606153,"current_range_meters":9600,"station_id":"ce4bhbh2rcd13ifvqeo0","pricing_plan_id":"cebpf4jnsgd1na2vs0mg"},{"bike_id":"21620cd3-c175-4ee8-b2ee-0bd784ad5846","system_id":"levelo_inurba_marseille","lat":43.27371,"lon":5.3626,"is_reserved":false,"is_disabled":false,"rental_uris":{"android":"levelo://app?vid=21620cd3-c175-4ee8-b2ee-0bd784ad5846","ios":"levelo://app?vid=21620cd3-c175-4ee8-b2ee-0bd784ad5846"},"vehicle_type_id":"4","last_reported":1729606153,"current_range_meters":28000,"station_id":"ce4bhbh2rcd13ifvqeo0","pricing_plan_id":"cebpf4jnsgd1na2vs0mg"},{"bike_id":"fb29ae08-7449-487d-aa5c-4bec391b5f60","system_id":"levelo_inurba_marseille","lat":43.3135,"lon":5.36704,"is_reserved":false,"is_disabled":false,"rental_uris":{"android":"levelo://app?vid=fb29ae08-7449-487d-aa5c-4bec391b5f60","ios":"levelo://app?vid=fb29ae08-7449-487d-aa5c-4bec391b5f60"},"vehicle_type_id":"4","last_reported":1729606153,"current_range_meters":36000,"station_id":"ce4bgr92rcd13ifvqc6g","pricing_plan_id":"cebpf4jnsgd1na2vs0mg"},{"bike_id":"91bcd336-103b-493b-a534-0f3597ed99f7","system_id":"levelo_inurba_marseille","lat":43.28352,"lon":5.38107,"is_reserved":false,"is_disabled":false,"rental_uris":{"android":"levelo://app?vid=91bcd336-103b-493b-a534-0f3597ed99f7","ios":"levelo://app?vid=91bcd336-103b-493b-a534-0f3597ed99f7"},"vehicle_type_id":"4","last_reported":1729606153,"current_range_meters":14000,"station_id":"ce4bh412rcd13ifvqdr0","pricing_plan_id":"cebpf4jnsgd1na2vs0mg"},{"bike_id":"708ff70e-a84d-4610-adf1-1a79b03e0b5b","system_id":"levelo_inurba_marseille","lat":43.3234,"lon":5.40631,"is_reserved":false,"is_disabled":false,"rental_uris":{"android":"levelo://app?vid=708ff70e-a84d-4610-adf1-1a79b03e0b5b","ios":"levelo://app?vid=708ff70e-a84d-4610-adf1-1a79b03e0b5b"},"vehicle_type_id":"4","last_reported":1729606153,"current_range_meters":32000,"station_id":"ce4bhq92rcd13ifvqhjg","pricing_plan_id":"cebpf4jnsgd1na2vs0mg"},{"bike_id":"eed8c693-68de-4640-b796-4573299233cd","system_id":"levelo_inurba_marseille","lat":43.29617,"lon":5.38113,"is_reserved":false,"is_disabled":false,"rental_uris":{"android":"levelo://app?vid=eed8c693-68de-4640-b796-4573299233cd","ios":"levelo://app?vid=eed8c693-68de-4640-b796-4573299233cd"},"vehicle_type_id":"4","last_reported":1729606153,"current_range_meters":35600,"station_id":"ce4bgl12rcd13ifvqbo0","pricing_plan_id":"cebpf4jnsgd1na2vs0mg"},{"bike_id":"30ff3d9f-e391-4f5e-bdb5-ef0db1b39665","system_id":"levelo_inurba_marseille","lat":43.30533,"lon":5.36534,"is_reserved":false,"is_disabled":false,"rental_uris":{"android":"levelo://app?vid=30ff3d9f-e391-4f5e-bdb5-ef0db1b39665","ios":"levelo://app?vid=30ff3d9f-e391-4f5e-bdb5-ef0db1b39665"},"vehicle_type_id":"4","last_reported":1729606153,"current_range_meters":38800,"station_id":"ce4bgs12rcd13ifvqcag","pricing_plan_id":"cebpf4jnsgd1na2vs0mg"},{"bike_id":"2627fb87-994c-40d4-bb15-42ec840208be","system_id":"levelo_inurba_marseille","lat":43.28073,"lon":5.39665,"is_reserved":false,"is_disabled":false,"rental_uris":{"android":"levelo://app?vid=2627fb87-994c-40d4-bb15-42ec840208be","ios":"levelo://app?vid=2627fb87-994c-40d4-bb15-42ec840208be"},"vehicle_type_id":"4","last_reported":1729606153,"current_range_meters":31200,"station_id":"ce4bho12rcd13ifvqh2g","pricing_plan_id":"cebpf4jnsgd1na2vs0mg"},{"bike_id":"9a0b6a95-e963-4804-adc8-e041748f19b6","system_id":"levelo_inurba_marseille","lat":43.25927,"lon":5.40911,"is_reserved":false,"is_disabled":false,"rental_uris":{"android":"levelo://app?vid=9a0b6a95-e963-4804-adc8-e041748f19b6","ios":"levelo://app?vid=9a0b6a95-e963-4804-adc8-e041748f19b6"},"vehicle_type_id":"4","last_reported":1729606153,"current_range_meters":28400,"station_id":"ce4bhm92rcd13ifvqglg","pricing_plan_id":"cebpf4jnsgd1na2vs0mg"},{"bike_id":"fb1ac494-e76a-49c5-be39-36c1804b9558","system_id":"levelo_inurba_marseille","lat":43.28342,"lon":5.38102,"is_reserved":false,"is_disabled":false,"rental_uris":{"android":"levelo://app?vid=fb1ac494-e76a-49c5-be39-36c1804b9558","ios":"levelo://app?vid=fb1ac494-e76a-49c5-be39-36c1804b9558"},"vehicle_type_id":"4","last_reported":1729606153,"current_range_meters":32000,"station_id":"ce4bh412rcd13ifvqdr0","pricing_plan_id":"cebpf4jnsgd1na2vs0mg"},{"bike_id":"1a2edd37-8725-4b1c-8f04-383c7176428f","system_id":"levelo_inurba_marseille","lat":43.25576,"lon":5.3823,"is_reserved":false,"is_disabled":false,"rental_uris":{"android":"levelo://app?vid=1a2edd37-8725-4b1c-8f04-383c7176428f","ios":"levelo://app?vid=1a2edd37-8725-4b1c-8f04-383c7176428f"},"vehicle_type_id":"4","last_reported":1729606153,"current_range_meters":37600,"station_id":"ce4bhih2rcd13ifvqfs0","pricing_plan_id":"cebpf4jnsgd1na2vs0mg"},{"bike_id":"67f6c2be-0a8e-473e-8872-6ea496461349","system_id":"levelo_inurba_marseille","lat":43.26491,"lon":5.39556,"is_reserved":false,"is_disabled":false,"rental_uris":{"android":"levelo://app?vid=67f6c2be-0a8e-473e-8872-6ea496461349","ios":"levelo://app?vid=67f6c2be-0a8e-473e-8872-6ea496461349"},"vehicle_type_id":"4","last_reported":1729606153,"current_range_meters":38000,"station_id":"ce4bhi12rcd13ifvqfq0","pricing_plan_id":"cebpf4jnsgd1na2vs0mg"},{"bike_id":"04aa2e46-1d0d-43b9-99d9-53316be9ec3d","system_id":"levelo_inurba_marseille","lat":43.29004,"lon":5.35613,"is_reserved":false,"is_disabled":false,"rental_uris":{"android":"levelo://app?vid=04aa2e46-1d0d-43b9-99d9-53316be9ec3d","ios":"levelo://app?vid=04aa2e46-1d0d-43b9-99d9-53316be9ec3d"},"vehicle_type_id":"4","last_reported":1729606153,"current_range_meters":12000,"station_id":"ce4bhb92rcd13ifvqen0","pricing_plan_id":"cebpf4jnsgd1na2vs0mg"},{"bike_id":"3ebbf38e-ef24-4ccb-8fc0-a259820b5273","system_id":"levelo_inurba_marseille","lat":43.25504,"lon":5.37649,"is_reserved":false,"is_disabled":false,"rental_uris":{"android":"levelo://app?vid=3ebbf38e-ef24-4ccb-8fc0-a259820b5273","ios":"levelo://app?vid=3ebbf38e-ef24-4ccb-8fc0-a259820b5273"},"vehicle_type_id":"4","last_reported":1729606153,"current_range_meters":38800,"station_id":"ce4bhh12rcd13ifvqff0","pricing_plan_id":"cebpf4jnsgd1na2vs0mg"},{"bike_id":"f39c4dc7-d5da-4137-9cc3-4fbc1014953f","system_id":"levelo_inurba_marseille","lat":43.33757,"lon":5.37471,"is_reserved":false,"is_disabled":false,"rental_uris":{"android":"levelo://app?vid=f39c4dc7-d5da-4137-9cc3-4fbc1014953f","ios":"levelo://app?vid=f39c4dc7-d5da-4137-9cc3-4fbc1014953f"},"vehicle_type_id":"4","last_reported":1729606153,"current_range_meters":33200,"station_id":"","pricing_plan_id":"cebpf4jnsgd1na2vs0mg"},{"bike_id":"9a4a644e-6575-46b9-a389-8603de07e04c","system_id":"levelo_inurba_marseille","lat":43.3136,"lon":5.36708,"is_reserved":false,"is_disabled":false,"rental_uris":{"android":"levelo://app?vid=9a4a644e-6575-46b9-a389-8603de07e04c","ios":"levelo://app?vid=9a4a644e-6575-46b9-a389-8603de07e04c"},"vehicle_type_id":"4","last_reported":1729606153,"current_range_meters":18800,"station_id":"ce4bgr92rcd13ifvqc6g","pricing_plan_id":"cebpf4jnsgd1na2vs0mg"},{"bike_id":"2eb0bd49-1aeb-45ba-8e1c-1a0a19e17b36","system_id":"levelo_inurba_marseille","lat":43.31356,"lon":5.36717,"is_reserved":false,"is_disabled":false,"rental_uris":{"android":"levelo://app?vid=2eb0bd49-1aeb-45ba-8e1c-1a0a19e17b36","ios":"levelo://app?vid=2eb0bd49-1aeb-45ba-8e1c-1a0a19e17b36"},"vehicle_type_id":"4","last_reported":1729606153,"current_range_meters":31200,"station_id":"ce4bgr92rcd13ifvqc6g","pricing_plan_id":"cebpf4jnsgd1na2vs0mg"},{"bike_id":"a2505cec-1b58-43eb-9408-537ddeb216a8","system_id":"levelo_inurba_marseille","lat":43.2958,"lon":5.36753,"is_reserved":false,"is_disabled":false,"rental_uris":{"android":"levelo://app?vid=a2505cec-1b58-43eb-9408-537ddeb216a8","ios":"levelo://app?vid=a2505cec-1b58-43eb-9408-537ddeb216a8"},"vehicle_type_id":"4","last_reported":1729606153,"current_range_meters":39200,"station_id":"ce4bgph2rcd13ifvqc2g","pricing_plan_id":"cebpf4jnsgd1na2vs0mg"},