{"last_updated":1727885447,"ttl":60,"version":"2.2","data":{"bikes":[{"bike_id":"7f7ddf34-bc87-4e58-88af-967654f2cd5c","system_id":"levelo_inurba_marseille","lat":43.27827,"lon":5.39206,"is_reserved":false,"is_disabled":false,"rental_uris":{"android":"levelo://app?vid=7f7ddf34-bc87-4e58-88af-967654f2cd5c","ios":"levelo://app?vid=7f7ddf34-bc87-4e58-88af-967654f2cd5c"},"vehicle_type_id":"4","last_reported":1727885447,"current_range_meters":39200,"station_id":"ce4bhjp2rcd13ifvqga0","pricing_plan_id":"cebpf4jnsgd1na2vs0mg"},{"bike_id":"b8d32f9e-42f8-4564-8290-6be3e340ccec","system_id":"levelo_inurba_marseille","lat":43.28036,"lon":5.36955,"is_reserved":false,"is_disabled":false,"rental_uris":{"android":"levelo://app?vid=b8d32f9e-42f8-4564-8290-6be3e340ccec","ios":"levelo://app?vid=b8d32f9e-42f8-4564-8290-6be3e340ccec"},"vehicle_type_id":"4","last_reported":1727885447,"current_range_meters":8800,"station_id":"ce4bha12rcd13ifvqef0","pricing_plan_id":"cebpf4jnsgd1na2vs0mg"},{"bike_id":"a17b295b-8667-4240-a566-2c1adc8b4c79","system_id":"levelo_inurba_marseille","lat":43.28402,"lon":5.37507,"is_reserved":false,"is_disabled":false,"rental_uris":{"android":"levelo://app?vid=a17b295b-8667-4240-a566-2c1adc8b4c79","ios":"levelo://app?vid=a17b295b-8667-4240-a566-2c1adc8b4c79"},"vehicle_type_id":"4","last_reported":1727885447,"current_range_meters":37600,"station_id":"ce4bh412rcd13ifvqds0","pricing_plan_id":"cebpf4jnsgd1na2vs0mg"},{"bike_id":"dc0ac235-4129-4e6c-88d0-0265e4766676","system_id":"levelo_inurba_marseille","lat":43.27836,"lon":5.3921,"is_reserved":false,"is_disabled":false,"rental_uris":{"android":"levelo://app?vid=dc0ac235-4129-4e6c-88d0-0265e4766676","ios":"levelo://app?vid=dc0ac235-4129-4e6c-88d0-0265e4766676"},"vehicle_type_id":"4","last_reported":1727885447,"current_range_meters":19200,"station_id":"ce4bhjp2rcd13ifvqga0","pricing_plan_id":"cebpf4jnsgd1na2vs0mg"},{"bike_id":"eb53752f-0217-4070-ace4-f3da23529909","system_id":"levelo_inurba_marseille","lat":43.29416,"lon":5.38631,"is_reserved":false,"is_disabled":false,"rental_uris":{"android":"levelo://app?vid=eb53752f-0217-4070-ace4-f3da23529909","ios":"levelo://app?vid=eb53752f-0217-4070-ace4-f3da23529909"},"vehicle_type_id":"4","last_reported":1727885447,"current_range_meters":32800,"station_id":"ce4bh2h2rcd13ifvqdh0","pricing_plan_id":"cebpf4jnsgd1na2vs0mg"},{"bike_id":"ef2fac90-eca9-4151-b9dc-8438dd734b43","system_id":"levelo_inurba_marseille","lat":43.29046,"lon":5.37568,"is_reserved":false,"is_disabled":false,"rental_uris":{"android":"levelo://app?vid=ef2fac90-eca9-4151-b9dc-8438dd734b43","ios":"levelo://app?vid=ef2fac90-eca9-4151-b9dc-8438dd734b43"},"vehicle_type_id":"4","last_reported":1727885447,"current_range_meters":16000,"station_id":"ce4bh692rcd13ifvqe90","pricing_plan_id":"cebpf4jnsgd1na2vs0mg"},{"bike_id":"db5c77bc-10e0-4c05-a6cc-1965812ee317","system_id":"levelo_inurba_marseille","lat":43.25825,"lon":5.39439,"is_reserved":false,"is_disabled":false,"rental_uris":{"android":"levelo://app?vid=db5c77bc-10e0-4c05-a6cc-1965812ee317","ios":"levelo://app?vid=db5c77bc-10e0-4c05-a6cc-1965812ee317"},"vehicle_type_id":"4","last_reported":1727885447,"current_range_meters":39200,"station_id":"ce4bhip2rcd13ifvqft0","pricing_plan_id":"cebpf4jnsgd1na2vs0mg"},{"bike_id":"792858aa-101d-44c9-b6d1-8d99360cfb01","system_id":"levelo_inurba_marseille","lat":43.30251,"lon":5.40059,"is_reserved":false,"is_disabled":false,"rental_uris":{"android":"levelo://app?vid=792858aa-101d-44c9-b6d1-8d99360cfb01","ios":"levelo://app?vid=792858aa-101d-44c9-b6d1-8d99360cfb01"},"vehicle_type_id":"4","last_reported":1727885447,"current_range_meters":9200,"station_id":"ce4bgvh2rcd13ifvqcs0","pricing_plan_id":"cebpf4jnsgd1na2vs0mg"},{"bike_id":"a392d513-b946-4de3-ae4c-e15d695630a7","system_id":"levelo_inurba_marseille","lat":43.29171,"lon":5.37163,"is_reserved":false,"is_disabled":false,"rental_uris":{"android":"levelo://app?vid=a392d513-b946-4de3-ae4c-e15d695630a7","ios":"levelo://app?vid=a392d513-b946-4de3-ae4c-e15d695630a7"},"vehicle_type_id":"4","last_reported":1727885447,"current_range_meters":4800,"station_id":"ce4bha92rcd13ifvqeh0","pricing_plan_id":"cebpf4jnsgd1na2vs0mg"},{"bike_id":"317203c5-e756-43bf-96e2-788cecb4af6c","system_id":"levelo_inurba_marseille","lat":43.31695,"lon":5.40486,"is_reserved":false,"is_disabled":false,"rental_uris":{"android":"levelo://app?vid=317203c5-e756-43bf-96e2-788cecb4af6c","ios":"levelo://app?vid=317203c5-e756-43bf-96e2-788cecb4af6c"},"vehicle_type_id":"4","last_reported":1727885447,"current_range_meters":2000,"station_id":"ce4bh012rcd13ifvqd00","pricing_plan_id":"cebpf4jnsgd1na2vs0mg"},{"bike_id":"e4989e6a-4e20-48cf-a8ad-aa435f67589b","system_id":"levelo_inurba_marseille","lat":43.289378,"lon":5.363975,"is_reserved":false,"is_disabled":false,"rental_uris":{"android":"levelo://app?vid=e4989e6a-4e20-48cf-a8ad-aa435f67589b","ios":"levelo://app?vid=e4989e6a-4e20-48cf-a8ad-aa435f67589b"},"vehicle_type_id":"4","last_reported":1727885447,"current_range_meters":36800,"station_id":"ce4bhc92rcd13ifvqetg","pricing_plan_id":"cebpf4jnsgd1na2vs0mg"},{"bike_id":"24b8f41a-3ca2-445c-a0ab-f7f3545231d9","system_id":"levelo_inurba_marseille","lat":43.27991,"lon":5.40011,"is_reserved":false,"is_disabled":false,"rental_uris":{"android":"levelo://app?vid=24b8f41a-3ca2-445c-a0ab-f7f3545231d9","ios":"levelo://app?vid=24b8f41a-3ca2-445c-a0ab-f7f3545231d9"},"vehicle_type_id":"4","last_reported":1727885447,"current_range_meters":8000,"station_id":"ce4bho92rcd13ifvqh4g","pricing_plan_id":"cebpf4jnsgd1na2vs0mg"},{"bike_id":"a089cad7-b141-4ee5-9ebe-5c7d46115f02","system_id":"levelo_inurba_marseille","lat":43.26552,"lon":5.37292,"is_reserved":false,"is_disabled":false,"rental_uris":{"android":"levelo://app?vid=a089cad7-b141-4ee5-9ebe-5c7d46115f02","ios":"levelo://app?vid=a089cad7-b141-4ee5-9ebe-5c7d46115f02"},"vehicle_type_id":"4","last_reported":1727885447,"current_range_meters":38800,"station_id":"ce4bhg12rcd13ifvqf70","pricing_plan_id":"cebpf4jnsgd1na2vs0mg"},{"bike_id":"1170cfca-c85c-4678-bf7f-a8006b5e73ae","system_id":"levelo_inurba_marseille","lat":43.24546,"lon":5.39531,"is_reserved":false,"is_disabled":false,"rental_uris":{"android":"levelo://app?vid=1170cfca-c85c-4678-bf7f-a8006b5e73ae","ios":"levelo://app?vid=1170cfca-c85c-4678-bf7f-a8006b5e73ae"},"vehicle_type_id":"4","last_reported":1727885447,"current_range_meters":17200,"station_id":"ce4bhlp2rcd13ifvqgjg","pricing_plan_id":"cebpf4jnsgd1na2vs0mg"},{"bike_id":"3de6e4a9-9b49-4620-bb9b-1351825f5206","system_id":"levelo_inurba_marseille","lat":43.29602,"lon":5.38099,"is_reserved":false,"is_disabled":false,"rental_uris":{"android":"levelo://app?vid=3de6e4a9-9b49-4620-bb9b-1351825f5206","ios":"levelo://app?vid=3de6e4a9-9b49-4620-bb9b-1351825f5206"},"vehicle_type_id":"4","last_reported":1727885447,"current_range_meters":10800,"station_id":"ce4bgl12rcd13ifvqbo0","pricing_plan_id":"cebpf4jnsgd1na2vs0mg"},{"bike_id":"37d63c1a-c9e1-415d-bbd7-a8d729b0d240","system_id":"levelo_inurba_marseille","lat":43.28008,"lon":5.40006,"is_reserved":false,"is_disabled":false,"rental_uris":{"android":"levelo://app?vid=37d63c1a-c9e1-415d-bbd7-a8d729b0d240","ios":"levelo://app?vid=37d63c1a-c9e1-415d-bbd7-a8d729b0d240"},"vehicle_type_id":"4","last_reported":1727885447,"current_range_meters":31200,"station_id":"ce4bho92rcd13ifvqh4g","pricing_plan_id":"cebpf4jnsgd1na2vs0mg"},{"bike_id":"5d652f66-712a-4b87-8566-0fdd3af73c5b","system_id":"levelo_inurba_marseille","lat":43.30885,"lon":5.39643,"is_reserved":false,"is_disabled":false,"rental_uris":{"android":"levelo://app?vid=5d652f66-712a-4b87-8566-0fdd3af73c5b","ios":"levelo://app?vid=5d652f66-712a-4b87-8566-0fdd3af73c5b"},"vehicle_type_id":"4","last_reported":1727885447,"current_range_meters":12800,"station_id":"ce4bh012rcd13ifvqcv0","pricing_plan_id":"cebpf4jnsgd1na2vs0mg"},{"bike_id":"24f470b0-f50f-4f9b-b402-86354589664c","system_id":"levelo_inurba_marseille","lat":43.31689,"lon":5.40477,"is_reserved":false,"is_disabled":false,"rental_uris":{"android":"levelo://app?vid=24f470b0-f50f-4f9b-b402-86354589664c","ios":"levelo://app?vid=24f470b0-f50f-4f9b-b402-86354589664c"},"vehicle_type_id":"4","last_reported":1727885447,"current_range_meters":4800,"station_id":"ce4bh012rcd13ifvqd00","pricing_plan_id":"cebpf4jnsgd1na2vs0mg"},{"bike_id":"75f47e03-38e9-41d6-83a6-1009ad6c3844","system_id":"levelo_inurba_marseille","lat":43.30887,"lon":5.39665,"is_reserved":false,"is_disabled":false,"rental_uris":{"android":"levelo://app?vid=75f47e03-38e9-41d6-83a6-1009ad6c3844","ios":"levelo://app?vid=75f47e03-38e9-41d6-83a6-1009ad6c3844"},"vehicle_type_id":"4","last_reported":1727885447,"current_range_meters":18800,"station_id":"ce4bh012rcd13ifvqcv0","pricing_plan_id":"cebpf4jnsgd1na2vs0mg"},{"bike_id":"97d8fdd8-6064-407f-b9b4-f5941b09d043","system_id":"levelo_inurba_marseille","lat":43.30304,"lon":5.36917,"is_reserved":false,"is_disabled":false,"rental_uris":{"android":"levelo://app?vid=97d8fdd8-6064-407f-b9b4-f5941b09d043","ios":"levelo://app?vid=97d8fdd8-6064-407f-b9b4-f5941b09d043"},"vehicle_type_id":"4","last_reported":1727885447,"current_range_meters":22800,"station_id":"ce4bgqh2rcd13ifvqc5g","pricing_plan_id":"cebpf4jnsgd1na2vs0mg"},{"bike_id":"bdc1da9a-296b-40eb-9dbe-22bc4e6d374f","system_id":"levelo_inurba_marseille","lat":43.30883,"lon":5.39659,"is_reserved":false,"is_disabled":false,"rental_uris":{"android":"levelo://app?vid=bdc1da9a-296b-40eb-9dbe-22bc4e6d374f","ios":"levelo://app?vid=bdc1da9a-296b-40eb-9dbe-22bc4e6d374f"},"vehicle_type_id":"4","last_reported":1727885447,"current_range_meters":6000,"station_id":"ce4bh012rcd13ifvqcv0","pricing_plan_id":"cebpf4jnsgd1na2vs0mg"},{"bike_id":"fad126c5-fcb3-4ec8-b813-aee32ba1d218","system_id":"levelo_inurba_marseille","lat":43.27673,"lon":5.38894,"is_reserved":false,"is_disabled":false,"rental_uris":{"android":"levelo://app?vid=fad126c5-fcb3-4ec8-b813-aee32ba1d218","ios":"levelo://app?vid=fad126c5-fcb3-4ec8-b813-aee32ba1d218"},"vehicle_type_id":"4","last_reported":1727885447,"current_range_meters":3600,"station_id":"ce4bhi12rcd13ifvqfo0","pricing_plan_id":"cebpf4jnsgd1na2vs0mg"},{"bike_id":"98df3bad-08aa-4fd3-ade3-3f2fea1f122f","system_id":"levelo_inurba_marseille","lat":43.30884,"lon":5.39656,"is_reserved":false,"is_disabled":false,"rental_uris":{"android":"levelo://app?vid=98df3bad-08aa-4fd3-ade3-3f2fea1f122f","ios":"levelo://app?vid=98df3bad-08aa-4fd3-ade3-3f2fea1f122f"},"vehicle_type_id":"4","last_reported":1727885447,"current_range_meters":23200,"station_id":"ce4bh012rcd13ifvqcv0","pricing_plan_id":"cebpf4jnsgd1na2vs0mg"},{"bike_id":"24d92f51-0476-4c2e-838c-c91673ebb0c9","system_id":"levelo_inurba_marseille","lat":43.28155,"lon":5.42637,"is_reserved":false,"is_disabled":false,"rental_uris":{"android":"levelo://app?vid=24d92f51-0476-4c2e-838c-c91673ebb0c9","ios":"levelo://app?vid=24d92f51-0476-4c2e-838c-c91673ebb0c9"},"vehicle_type_id":"4","last_reported":1727885447,"current_range_meters":38800,"station_id":"ce4bhnh2rcd13ifvqgug","pricing_plan_id":"cebpf4jnsgd1na2vs0mg"},{"bike_id":"f77c4546-1293-47c9-97b3-86b3c1f7d13c","system_id":"levelo_inurba_marseille","lat":43.301758,"lon":5.397987,"is_reserved":false,"is_disabled":false,"rental_uris":{"android":"levelo://app?vid=f77c4546-1293-47c9-97b3-86b3c1f7d13c","ios":"levelo://app?vid=f77c4546-1293-47c9-97b3-86b3c1f7d13c"},"vehicle_type_id":"4","last_reported":1727885447,"current_range_meters":33200,"station_id":"ce4bh0h2rcd13ifvqd40","pricing_plan_id":"cebpf4jnsgd1na2vs0mg"},{"bike_id":"0d38caac-4e1b-4bc6-8634-fba8549655ca","system_id":"levelo_inurba_marseille","lat":43.320892,"lon":5.367559,"is_reserved":false,"is_disabled":false,"rental_uris":{"android":"levelo://app?vid=0d38caac-4e1b-4bc6-8634-fba8549655ca","ios":"levelo://app?vid=0d38caac-4e1b-4bc6-8634-fba8549655ca"},"vehicle_type_id":"4","last_reported":1727885447,"current_range_meters":38800,"station_id":"ce4bhrh2rcd13ifvqhug","pricing_plan_id":"cebpf4jnsgd1na2vs0mg"},{"bike_id":"70701435-0617-4a87-835e-5e6bc7f57882","system_id":"levelo_inurba_marseille","lat":43.29427,"lon":5.38623,"is_reserved":false,"is_disabled":false,"rental_uris":{"android":"levelo://app?vid=70701435-0617-4a87-835e-5e6bc7f57882","ios":"levelo://app?vid=70701435-0617-4a87-835e-5e6bc7f57882"},"vehicle_type_id":"4","last_reported":1727885447,"current_range_meters":16400,"station_id":"ce4bh2h2rcd13ifvqdh0","pricing_plan_id":"cebpf4jnsgd1na2vs0mg"},{"bike_id":"d9a2feaa-1db1-4fb1-88e6-ce3af13ba033","system_id":"levelo_inurba_marseille","lat":43.29001,"lon":5.35609,"is_reserved":false,"is_disabled":false,"rental_uris":{"android":"levelo://app?vid=d9a2feaa-1db1-4fb1-88e6-ce3af13ba033","ios":"levelo://app?vid=d9a2feaa-1db1-4fb1-88e6-ce3af13ba033"},"vehicle_type_id":"4","last_reported":1727885447,"current_range_meters":12000,"station_id":"ce4bhb92rcd13ifvqen0","pricing_plan_id":"cebpf4jnsgd1na2vs0mg"},{"bike_id":"d5b1b584-0623-4321-9636-b71cd55bf70a","system_id":"levelo_inurba_marseille","lat":43.29553,"lon":5.42309,"is_reserved":false,"is_disabled":false,"rental_uris":{"android":"levelo://app?vid=d5b1b584-0623-4321-9636-b71cd55bf70a","ios":"levelo://app?vid=d5b1b584-0623-4321-9636-b71cd55bf70a"},"vehicle_type_id":"4","last_reported":1727885447,"current_range_meters":38800,"station_id":"ce4bhph2rcd13ifvqhdg","pricing_plan_id":"cebpf4jnsgd1na2vs0mg"},{"bike_id":"67b63dc8-45b3-421b-b7c2-3720926204e1","system_id":"levelo_inurba_marseille","lat":43.29195,"lon":5.3932,"is_reserved":false,"is_disabled":false,"rental_uris":{"android":"levelo://app?vid=67b63dc8-45b3-421b-b7c2-3720926204e1","ios":"levelo://app?vid=67b63dc8-45b3-421b-b7c2-3720926204e1"},"vehicle_type_id":"4","last_reported":1727885447,"current_range_meters":24800,"station_id":"ce4bh192rcd13ifvqdd0","pricing_plan_id":"cebpf4jnsgd1na2vs0mg"},{"bike_id":"51b86221-9b71-44e0-aa89-c504c0b9574d","system_id":"levelo_inurba_marseille","lat":43.29532,"lon":5.38546,"is_reserved":false,"is_disabled":false,"rental_uris":{"android":"levelo://app?vid=51b86221-9b71-44e0-aa89-c504c0b9574d","ios":"levelo://app?vid=51b86221-9b71-44e0-aa89-c504c0b9574d"},"vehicle_type_id":"4","last_reported":1727885447,"current_range_meters":32000,"station_id":"ce4bgih2rcd13ifvqba0","pricing_plan_id":"cebpf4jnsgd1na2vs0mg"},{"bike_id":"c558d60a-1798-464b-b998-8943b25e8008","system_id":"levelo_inurba_marseille","lat":43.28444,"lon":5.39207,"is_reserved":false,"is_disabled":false,"rental_uris":{"android":"levelo://app?vid=c558d60a-1798-464b-b998-8943b25e8008","ios":"levelo://app?vid=c558d60a-1798-464b-b998-8943b25e8008"},"vehicle_type_id":"4","last_reported":1727885447,"current_range_meters":16400,"station_id":"ce4bhoh2rcd13ifvqh5g","pricing_plan_id":"cebpf4jnsgd1na2vs0mg"},{"bike_id":"a1ac91c2-e22c-4ece-bfe2-4d5e13ad6026","system_id":"levelo_inurba_marseille","lat":43.34069,"lon":5.42014,"is_reserved":false,"is_disabled":false,"rental_uris":{"android":"levelo://app?vid=a1ac91c2-e22c-4ece-bfe2-4d5e13ad6026","ios":"levelo://app?vid=a1ac91c2-e22c-4ece-bfe2-4d5e13ad6026"},"vehicle_type_id":"4","last_reported":1727885447,"current_range_meters":3600,"station_id":"","pricing_plan_id":"cebpf4jnsgd1na2vs0mg"},{"bike_id":"0b51a997-4013-4eaa-b18d-c6a8db1329d6","system_id":"levelo_inurba_marseille","lat":43.31693,"lon":5.40484,"is_reserved":false,"is_disabled":false,"rental_uris":{"android":"levelo://app?vid=0b51a997-4013-4eaa-b18d-c6a8db1329d6","ios":"levelo://app?vid=0b51a997-4013-4eaa-b18d-c6a8db1329d6"},"vehicle_type_id":"4","last_reported":1727885447,"current_range_meters":38400,"station_id":"ce4bh012rcd13ifvqd00","pricing_plan_id":"cebpf4jnsgd1na2vs0mg"},{"bike_id":"609844d3-402e-4c83-8b7f-d2093120cb67","system_id":"levelo_inurba_marseille","lat":43.32541,"lon":5.41442,"is_reserved":false,"is_disabled":false,"rental_uris":{"android":"levelo://app?vid=609844d3-402e-4c83-8b7f-d2093120cb67","ios":"levelo://app?vid=609844d3-402e-4c83-8b7f-d2093120cb67"},"vehicle_type_id":"4","last_reported":1727885447,"current_range_meters":36800,"station_id":"ce4bhq12rcd13ifvqhhg","pricing_plan_id":"cebpf4jnsgd1na2vs0mg"},{"bike_id":"1f8d1e3d-9d2a-4e06-afd4-5fea70da48f3","system_id":"levelo_inurba_marseille","lat":43.24685,"lon":5.3818,"is_reserved":false,"is_disabled":false,"rental_uris":{"android":"levelo://app?vid=1f8d1e3d-9d2a-4e06-afd4-5fea70da48f3","ios":"levelo://app?vid=1f8d1e3d-9d2a-4e06-afd4-5fea70da48f3"},"vehicle_type_id":"4","last_reported":1727885447,"current_range_meters":27200,"station_id":"ce4bhih2rcd13ifvqfr0","pricing_plan_id":"cebpf4jnsgd1na2vs0mg"},{"bike_id":"76efaf06-18d9-4c7b-800d-c577de6b59da","system_id":"levelo_inurba_marseille","lat":43.29973,"lon":5.38483,"is_reserved":false,"is_disabled":false,"rental_uris":{"android":"levelo://app?vid=76efaf06-18d9-4c7b-800d-c577de6b59da","ios":"levelo://app?vid=76efaf06-18d9-4c7b-800d-c577de6b59da"},"vehicle_type_id":"4","last_reported":1727885447,"current_range_meters":19200,"station_id":"ce4bgj92rcd13ifvqbd0","pricing_plan_id":"cebpf4jnsgd1na2vs0mg"},{"bike_id":"25a73ef5-3050-4408-8b65-839b583a9ed8","system_id":"levelo_inurba_marseille","lat":43.27945,"lon":5.41053,"is_reserved":false,"is_disabled":false,"rental_uris":{"android":"levelo://app?vid=25a73ef5-3050-4408-8b65-839b583a9ed8","ios":"levelo://app?vid=25a73ef5-3050-4408-8b65-839b583a9ed8"},"vehicle_type_id":"4","last_reported":1727885447,"current_range_meters":5600,"station_id":"ce4bhnp2rcd13ifvqh0g","pricing_plan_id":"cebpf4jnsgd1na2vs0mg"},{"bike_id":"6c044713-cd25-499a-8d47-c786e34dc46a","system_id":"levelo_inurba_marseille","lat":43.2815,"lon":5.42645,"is_reserved":false,"is_disabled":false,"rental_uris":{"android":"levelo://app?vid=6c044713-cd25-499a-8d47-c786e34dc46a","ios":"levelo://app?vid=6c044713-cd25-499a-8d47-c786e34dc46a"},"vehicle_type_id":"4","last_reported":1727885447,"current_range_meters":38800,"station_id":"ce4bhnh2rcd13ifvqgug","pricing_plan_id":"cebpf4jnsgd1na2vs0mg"},{"bike_id":"7462d20c-a5dc-441e-bde0-66999798e6b1","system_id":"levelo_inurba_marseille","lat":43.31488,"lon":5.37311,"is_reserved":false,"is_disabled":false,"rental_uris":{"android":"levelo://app?vid=7462d20c-a5dc-441e-bde0-66999798e6b1","ios":"levelo://app?vid=7462d20c-a5dc-441e-bde0-66999798e6b1"},"vehicle_type_id":"4","last_reported":1727885447,"current_range_meters":28400,"station_id":"ce4bgt12rcd13ifvqcd0","pricing_plan_id":"cebpf4jnsgd1na2vs0mg"},{"bike_id":"f77c1722-4fc0-4587-9e7c-163d954b1ae3","system_id":"levelo_inurba_marseille","lat":43.29897,"lon":5.43671,"is_reserved":false,"is_disabled":false,"rental_uris":{"android":"levelo://app?vid=f77c1722-4fc0-4587-9e7c-163d954b1ae3","ios":"levelo://app?vid=f77c1722-4fc0-4587-9e7c-163d954b1ae3"},"vehicle_type_id":"4","last_reported":1727885447,"current_range_meters":16800,"station_id":"ce4bhpp2rcd13ifvqhfg","pricing_plan_id":"cebpf4jnsgd1na2vs0mg"},{"bike_id":"29da839a-70d3-4f5c-9bc3-97ff70636a0e","system_id":"levelo_inurba_marseille","lat":43.26573,"lon":5.39017,"is_reserved":false,"is_disabled":false,"rental_uris":{"android":"levelo://app?vid=29da839a-70d3-4f5c-9bc3-97ff70636a0e","ios":"levelo://app?vid=29da839a-70d3-4f5c-9bc3-97ff70636a0e"},"vehicle_type_id":"4","last_reported":1727885447,"current_range_meters":38400,"station_id":"ce4bhe12rcd13ifvqf30","pricing_plan_id":"cebpf4jnsgd1na2vs0mg"},{"bike_id":"30077ecd-1d3c-4ffe-bf30-a1a2991e1aca","system_id":"levelo_inurba_marseille","lat":43.23057,"lon":5.35485,"is_reserved":false,"is_disabled":false,"rental_uris":{"android":"levelo://app?vid=30077ecd-1d3c-4ffe-bf30-a1a2991e1aca","ios":"levelo://app?vid=30077ecd-1d3c-4ffe-bf30-a1a2991e1aca"},"vehicle_type_id":"4","last_reported":1727885447,"current_range_meters":37600,"station_id":"cpo3342slgdg3j2ifvpg","pricing_plan_id":"cebpf4jnsgd1na2vs0mg"},{"bike_id":"0499bccf-184f-4251-a5e5-ad4d6c9beef7","system_id":"levelo_inurba_marseille","lat":43.29414,"lon":5.38626,"is_reserved":false,"is_disabled":false,"rental_uris":{"android":"levelo://app?vid=0499bccf-184f-4251-a5e5-ad4d6c9beef7","ios":"levelo://app?vid=0499bccf-184f-4251-a5e5-ad4d6c9beef7"},"vehicle_type_id":"4","last_reported":1727885447,"current_range_meters":24400,"station_id":"ce4bh2h2rcd13ifvqdh0","pricing_plan_id":"cebpf4jnsgd1na2vs0mg"},{"bike_id":"123ff6ed-4385-4a10-999b-eb298bcab43c","system_id":"levelo_inurba_marseille","lat":43.33016,"lon":5.39043,"is_reserved":false,"is_disabled":false,"rental_uris":{"android":"levelo://app?vid=123ff6ed-4385-4a10-999b-eb298bcab43c","ios":"levelo://app?vid=123ff6ed-4385-4a10-999b-eb298bcab43c"},"vehicle_type_id":"4","last_reported":1727885447,"current_range_meters":40000,"station_id":"ce4bhr92rcd13ifvqhrg","pricing_plan_id":"cebpf4jnsgd1na2vs0mg"},{"bike_id":"ad9bd38c-6e21-41e8-8513-132c1c15c21b","system_id":"levelo_inurba_marseille","lat":43.29907,"lon":5.43667,"is_reserved":false,"is_disabled":false,"rental_uris":{"android":"levelo://app?vid=ad9bd38c-6e21-41e8-8513-132c1c15c21b","ios":"levelo://app?vid=ad9bd38c-6e21-41e8-8513-132c1c15c21b"},"vehicle_type_id":"4","last_reported":1727885447,"current_range_meters":20000,"station_id":"ce4bhpp2rcd13ifvqhfg","pricing_plan_id":"cebpf4jnsgd1na2vs0mg"},{"bike_id":"155c1b6a-0155-452d-ad5e-339474c36d14","system_id":"levelo_inurba_marseille","lat":43.31758,"lon":5.39018,"is_reserved":false,"is_disabled":false,"rental_uris":{"android":"levelo://app?vid=155c1b6a-0155-452d-ad5e-339474c36d14","ios":"levelo://app?vid=155c1b6a-0155-452d-ad5e-339474c36d14"},"vehicle_type_id":"4","last_reported":1727885447,"current_range_meters":32000,"station_id":"ce4bhqp2rcd13ifvqhng","pricing_plan_id":"cebpf4jnsgd1na2vs0mg"},{"bike_id":"bf04137d-5a9e-48c4-92f3-67b56699c87f","system_id":"levelo_inurba_marseille","lat":43.28843,"lon":5.39334,"is_reserved":false,"is_disabled":false,"rental_uris":{"android":"levelo://app?vid=bf04137d-5a9e-48c4-92f3-67b56699c87f","ios":"levelo://app?vid=bf04137d-5a9e-48c4-92f3-67b56699c87f"},"vehicle_type_id":"4","last_reported":1727885447,"current_range_meters":26000,"station_id":"ce4bh2p2rcd13ifvqdi0","pricing_plan_id":"cebpf4jnsgd1na2vs0mg"},{"bike_id":"439cf77a-866a-4a51-948e-bf6d89754836","system_id":"levelo_inurba_marseille","lat":43.28613,"lon":5.35106,"is_reserved":false,"is_disabled":false,"rental_uris":{"android":"levelo://app?vid=439cf77a-866a-4a51-948e-bf6d89754836","ios":"levelo://app?vid=439cf77a-866a-4a51-948e-bf6d89754836"},"vehicle_type_id":"4","last_reported":1727885447,"current_range_meters":36000,"station_id":"ce4bhch2rcd13ifvqeug","pricing_plan_id":"cebpf4jnsgd1na2vs0mg"},{"bike_id":"b1cab1ea-4732-4ffc-871a-f70001b3c773","system_id":"levelo_inurba_marseille","lat":43.28004,"lon":5.40001,"is_reserved":false,"is_disabled":false,"rental_uris":{"android":"levelo://app?vid=b1cab1ea-4732-4ffc-871a-f70001b3c773","ios":"levelo://app?vid=b1cab1ea-4732-4ffc-871a-f70001b3c773"},"vehicle_type_id":"4","last_reported":1727885447,"current_range_meters":6000,"station_id":"ce4bho92rcd13ifvqh4g","pricing_plan_id":"cebpf4jnsgd1na2vs0mg"},{"bike_id":"f4ebb107-2ad0-49dc-8309-79bead25598d","system_id":"levelo_inurba_marseille","lat":43.28464,"lon":5.35893,"is_reserved":false,"is_disabled":false,"rental_uris":{"android":"levelo://app?vid=f4ebb107-2ad0-49dc-8309-79bead25598d","ios":"levelo://app?vid=f4ebb107-2ad0-49dc-8309-79bead25598d"},"vehicle_type_id":"4","last_reported":1727885447,"current_range_meters":4000,"station_id":"ce4bhah2rcd13ifvqei0","pricing_plan_id":"cebpf4jnsgd1na2vs0mg"},{"bike_id":"ccf4a722-3a3e-4702-8b70-5c061d3885c7","system_id":"levelo_inurba_marseille","lat":43.29275,"lon":5.3685,"is_reserved":false,"is_disabled":false,"rental_uris":{"android":"levelo://app?vid=ccf4a722-3a3e-4702-8b70-5c061d3885c7","ios":"levelo://app?vid=ccf4a722-3a3e-4702-8b70-5c061d3885c7"},"vehicle_type_id":"4","last_reported":1727885447,"current_range_meters":8400,"station_id":"ce4bhbp2rcd13ifvqesg","pricing_plan_id":"cebpf4jnsgd1na2vs0mg"},{"bike_id":"05347820-ade9-446c-bbe7-0724ddfafa99","system_id":"levelo_inurba_marseille","lat":43.25581,"lon":5.38225,"is_reserved":false,"is_disabled":false,"rental_uris":{"android":"levelo://app?vid=05347820-ade9-446c-bbe7-0724ddfafa99","ios":"levelo://app?vid=05347820-ade9-446c-bbe7-0724ddfafa99"},"vehicle_type_id":"4","last_reported":1727885447,"current_range_meters":21600,"station_id":"ce4bhih2rcd13ifvqfs0","pricing_plan_id":"cebpf4jnsgd1na2vs0mg"},{"bike_id":"5f8f5d38-9c7a-487d-98fc-a1c38213e1fa","system_id":"levelo_inurba_marseille","lat":43.2884,"lon":5.39324,"is_reserved":false,"is_disabled":false,"rental_uris":{"android":"levelo://app?vid=5f8f5d38-9c7a-487d-98fc-a1c38213e1fa","ios":"levelo://app?vid=5f8f5d38-9c7a-487d-98fc-a1c38213e1fa"},"vehicle_type_id":"4","last_reported":1727885447,"current_range_meters":19600,"station_id":"ce4bh2p2rcd13ifvqdi0","pricing_plan_id":"cebpf4jnsgd1na2vs0mg"},{"bike_id":"d871a647-44ab-4e6a-a9f8-68c97c570642","system_id":"levelo_inurba_marseille","lat":43.29898,"lon":5.43659,"is_reserved":false,"is_disabled":false,"rental_uris":{"android":"levelo://app?vid=d871a647-44ab-4e6a-a9f8-68c97c570642","ios":"levelo://app?vid=d871a647-44ab-4e6a-a9f8-68c97c570642"},"vehicle_type_id":"4","last_reported":1727885447,"current_range_meters":14800,"station_id":"ce4bhpp2rcd13ifvqhfg","pricing_plan_id":"cebpf4jnsgd1na2vs0mg"},{"bike_id":"42851397-bdca-4c84-a356-e98c92246704","system_id":"levelo_inurba_marseille","lat":43.2871,"lon":5.39987,"is_reserved":false,"is_disabled":false,"rental_uris":{"android":"levelo://app?vid=42851397-bdca-4c84-a356-e98c92246704","ios":"levelo://app?vid=42851397-bdca-4c84-a356-e98c92246704"},"vehicle_type_id":"4","last_reported":1727885447,"current_range_meters":19200,"station_id":"ce4bho92rcd13ifvqh3g","pricing_plan_id":"cebpf4jnsgd1na2vs0mg"},{"bike_id":"13addce8-e2b4-4ddf-93fb-1ce218160ce1","system_id":"levelo_inurba_marseille","lat":43.32472,"lon":5.36558,"is_reserved":false,"is_disabled":false,"rental_uris":{"android":"levelo://app?vid=13addce8-e2b4-4ddf-93fb-1ce218160ce1","ios":"levelo://app?vid=13addce8-e2b4-4ddf-93fb-1ce218160ce1"},"vehicle_type_id":"4","last_reported":1727885447,"current_range_meters":38800,"station_id":"ce4bhs12rcd13ifvqhvg","pricing_plan_id":"cebpf4jnsgd1na2vs0mg"},{"bike_id":"13f74d1d-5a23-479d-8365-dc874c7ce0cb","system_id":"levelo_inurba_marseille","lat":43.29796,"lon":5.38103,"is_reserved":false,"is_disabled":false,"rental_uris":{"android":"levelo://app?vid=13f74d1d-5a23-479d-8365-dc874c7ce0cb","ios":"levelo://app?vid=13f74d1d-5a23-479d-8365-dc874c7ce0cb"},"vehicle_type_id":"4","last_reported":1727885447,"current_range_meters":16000,"station_id":"ce4bh0h2rcd13ifvqd50","pricing_plan_id":"cebpf4jnsgd1na2vs0mg"},{"bike_id":"ca27c12e-d365-4a93-b646-cbf1c9f3ab30","system_id":"levelo_inurba_marseille","lat":43.3038,"lon":5.42043,"is_reserved":false,"is_disabled":false,"rental_uris":{"android":"levelo://app?vid=ca27c12e-d365-4a93-b646-cbf1c9f3ab30","ios":"levelo://app?vid=ca27c12e-d365-4a93-b646-cbf1c9f3ab30"},"vehicle_type_id":"4","last_reported":1727885447,"current_range_meters":3200,"station_id":"ce4bhop2rcd13ifvqh7g","pricing_plan_id":"cebpf4jnsgd1na2vs0mg"},{"bike_id":"1e6fe874-80f1-4087-abd0-130201778217","system_id":"levelo_inurba_marseille","lat":43.26205,"lon":5.37924,"is_reserved":false,"is_disabled":false,"rental_uris":{"android":"levelo://app?vid=1e6fe874-80f1-4087-abd0-130201778217","ios":"levelo://app?vid=1e6fe874-80f1-4087-abd0-130201778217"},"vehicle_type_id":"4","last_reported":1727885447,"current_range_meters":30400,"station_id":"ce4bhjp2rcd13ifvqg90","pricing_plan_id":"cebpf4jnsgd1na2vs0mg"},{"bike_id":"53c6fe7a-c5f0-4c29-bdb6-08c6c7db5c71","system_id":"levelo_inurba_marseille","lat":43.32074,"lon":5.36778,"is_reserved":false,"is_disabled":false,"rental_uris":{"android":"levelo://app?vid=53c6fe7a-c5f0-4c29-bdb6-08c6c7db5c71","ios":"levelo://app?vid=53c6fe7a-c5f0-4c29-bdb6-08c6c7db5c71"},"vehicle_type_id":"4","last_reported":1727885447,"current_range_meters":16000,"station_id":"ce4bhrh2rcd13ifvqhug","pricing_plan_id":"cebpf4jnsgd1na2vs0mg"},{"bike_id":"c28493cb-21d2-4693-9c23-3352cb0fe28c","system_id":"levelo_inurba_marseille","lat":43.30565,"lon":5.38397,"is_reserved":false,"is_disabled":false,"rental_uris":{"android":"levelo://app?vid=c28493cb-21d2-4693-9c23-3352cb0fe28c","ios":"levelo://app?vid=c28493cb-21d2-4693-9c23-3352cb0fe28c"},"vehicle_type_id":"4","last_reported":1727885447,"current_range_meters":18000,"station_id":"ce4bh392rcd13ifvqdl0","pricing_plan_id":"cebpf4jnsgd1na2vs0mg"},{"bike_id":"b6dee4c4-c734-4370-a720-b9aab43f260d","system_id":"levelo_inurba_marseille","lat":43.29952,"lon":5.3656,"is_reserved":false,"is_disabled":false,"rental_uris":{"android":"levelo://app?vid=b6dee4c4-c734-4370-a720-b9aab43f260d","ios":"levelo://app?vid=b6dee4c4-c734-4370-a720-b9aab43f260d"},"vehicle_type_id":"4","last_reported":1727885447,"current_range_meters":22000,"station_id":"ce4bgm92rcd13ifvqbr0","pricing_plan_id":"cebpf4jnsgd1na2vs0mg"},{"bike_id":"0035154d-d14d-4d3d-b707-97e962a49b01","system_id":"levelo_inurba_marseille","lat":43.27815,"lon":5.40707,"is_reserved":false,"is_disabled":false,"rental_uris":{"android":"levelo://app?vid=0035154d-d14d-4d3d-b707-97e962a49b01","ios":"levelo://app?vid=0035154d-d14d-4d3d-b707-97e962a49b01"},"vehicle_type_id":"4","last_reported":1727885447,"current_range_meters":38800,"station_id":"ce4bhnh2rcd13ifvqgtg","pricing_plan_id":"cebpf4jnsgd1na2vs0mg"},{"bike_id":"6ce60676-3f86-4aaa-a5df-572436c32ad4","system_id":"levelo_inurba_marseille","lat":43.23192,"lon":5.35551,"is_reserved":false,"is_disabled":false,"rental_uris":{"android":"levelo://app?vid=6ce60676-3f86-4aaa-a5df-572436c32ad4","ios":"levelo://app?vid=6ce60676-3f86-4aaa-a5df-572436c32ad4"},"vehicle_type_id":"4","last_reported":1727885447,"current_range_meters":24800,"station_id":"ce4bhu92rcd13ifvqi70","pricing_plan_id":"cebpf4jnsgd1na2vs0mg"},{"bike_id":"4468b5d4-1685-4490-93ec-e9e63be7cd0e","system_id":"levelo_inurba_marseille","lat":43.310677,"lon":5.401047,"is_reserved":false,"is_disabled":false,"rental_uris":{"android":"levelo://app?vid=4468b5d4-1685-4490-93ec-e9e63be7cd0e","ios":"levelo://app?vid=4468b5d4-1685-4490-93ec-e9e63be7cd0e"},"vehicle_type_id":"4","last_reported":1727885447,"current_range_meters":2800,"station_id":"","pricing_plan_id":"cebpf4jnsgd1na2vs0mg"},{"bike_id":"fe2ec758-9bf8-4631-954a-2ac0812c02e3","system_id":"levelo_inurba_marseille","lat":43.25826,"lon":5.39439,"is_reserved":false,"is_disabled":false,"rental_uris":{"android":"levelo://app?vid=fe2ec758-9bf8-4631-954a-2ac0812c02e3","ios":"levelo://app?vid=fe2ec758-9bf8-4631-954a-2ac0812c02e3"},"vehicle_type_id":"4","last_reported":1727885447,"current_range_meters":7200,"station_id":"ce4bhip2rcd13ifvqft0","pricing_plan_id":"cebpf4jnsgd1na2vs0mg"},{"bike_id":"f8145f75-5b1d-4fff-af27-2c748521655c","system_id":"levelo_inurba_marseille","lat":43.29431,"lon":5.38536,"is_reserved":false,"is_disabled":false,"rental_uris":{"android":"levelo://app?vid=f8145f75-5b1d-4fff-af27-2c748521655c","ios":"levelo://app?vid=f8145f75-5b1d-4fff-af27-2c748521655c"},"vehicle_type_id":"4","last_reported":1727885447,"current_range_meters":5600,"station_id":"ce4bh2h2rcd13ifvqdh0","pricing_plan_id":"cebpf4jnsgd1na2vs0mg"},{"bike_id":"ecba5a78-dc8e-4022-9f33-4617f041b9c3","system_id":"levelo_inurba_marseille","lat":43.289246,"lon":5.383876,"is_reserved":false,"is_disabled":false,"rental_uris":{"android":"levelo://app?vid=ecba5a78-dc8e-4022-9f33-4617f041b9c3","ios":"levelo://app?vid=ecba5a78-dc8e-4022-9f33-4617f041b9c3"},"vehicle_type_id":"4","last_reported":1727885447,"current_range_meters":6000,"station_id":"ce4bh612rcd13ifvqe6g","pricing_plan_id":"cebpf4jnsgd1na2vs0mg"},{"bike_id":"6a4180fa-3ba4-4d35-979d-ccdd7eb2bebe","system_id":"levelo_inurba_marseille","lat":43.33024,"lon":5.39039,"is_reserved":false,"is_disabled":false,"rental_uris":{"android":"levelo://app?vid=6a4180fa-3ba4-4d35-979d-ccdd7eb2bebe","ios":"levelo://app?vid=6a4180fa-3ba4-4d35-979d-ccdd7eb2bebe"},"vehicle_type_id":"4","last_reported":1727885447,"current_range_meters":3200,"station_id":"ce4bhr92rcd13ifvqhrg","pricing_plan_id":"cebpf4jnsgd1na2vs0mg"},{"bike_id":"f00c9d00-e702-4f8b-837b-e206bbaa942f","system_id":"levelo_inurba_marseille","lat":43.27829,"lon":5.39206,"is_reserved":false,"is_disabled":false,"rental_uris":{"android":"levelo://app?vid=f00c9d00-e702-4f8b-837b-e206bbaa942f","ios":"levelo://app?vid=f00c9d00-e702-4f8b-837b-e206bbaa942f"},"vehicle_type_id":"4","last_reported":1727885447,"current_range_meters":25200,"station_id":"ce4bhjp2rcd13ifvqga0","pricing_plan_id":"cebpf4jnsgd1na2vs0mg"},{"bike_id":"cb372368-62e9-4abd-973e-fd518310deb7","system_id":"levelo_inurba_marseille","lat":43.2844,"lon":5.39206,"is_reserved":false,"is_disabled":false,"rental_uris":{"android":"levelo://app?vid=cb372368-62e9-4abd-973e-fd518310deb7","ios":"levelo://app?vid=cb372368-62e9-4abd-973e-fd518310deb7"},"vehicle_type_id":"4","last_reported":1727885447,"current_range_meters":19600,"station_id":"ce4bhoh2rcd13ifvqh5g","pricing_plan_id":"cebpf4jnsgd1na2vs0mg"},{"bike_id":"5be90fa3-ae33-4fb6-b3da-74de70a5bb92","system_id":"levelo_inurba_marseille","lat":43.25121,"lon":5.40323,"is_reserved":false,"is_disabled":false,"rental_uris":{"android":"levelo://app?vid=5be90fa3-ae33-4fb6-b3da-74de70a5bb92","ios":"levelo://app?vid=5be90fa3-ae33-4fb6-b3da-74de70a5bb92"},"vehicle_type_id":"4","last_reported":1727885447,"current_range_meters":39200,"station_id":"ce4bhlh2rcd13ifvqgig","pricing_plan_id":"cebpf4jnsgd1na2vs0mg"},{"bike_id":"74925788-746e-4704-86a3-45ee3bc0ed44","system_id":"levelo_inurba_marseille","lat":43.27996,"lon":5.41664,"is_reserved":false,"is_disabled":false,"rental_uris":{"android":"levelo://app?vid=74925788-746e-4704-86a3-45ee3bc0ed44","ios":"levelo://app?vid=74925788-746e-4704-86a3-45ee3bc0ed44"},"vehicle_type_id":"4","last_reported":1727885447,"current_range_meters":6800,"station_id":"ce4bho12rcd13ifvqh1g","pricing_plan_id":"cebpf4jnsgd1na2vs0mg"},{"bike_id":"66b18a38-c47d-49c2-b685-d062f340e001","system_id":"levelo_inurba_marseille","lat":43.26201,"lon":5.37934,"is_reserved":false,"is_disabled":false,"rental_uris":{"android":"levelo://app?vid=66b18a38-c47d-49c2-b685-d062f340e001","ios":"levelo://app?vid=66b18a38-c47d-49c2-b685-d062f340e001"},"vehicle_type_id":"4","last_reported":1727885447,"current_range_meters":6000,"station_id":"ce4bhjp2rcd13ifvqg90","pricing_plan_id":"cebpf4jnsgd1na2vs0mg"},{"bike_id":"bce4dbcc-9883-4dd1-b94f-f1abb6c76979","system_id":"levelo_inurba_marseille","lat":43.28159,"lon":5.42645,"is_reserved":false,"is_disabled":false,"rental_uris":{"android":"levelo://app?vid=bce4dbcc-9883-4dd1-b94f-f1abb6c76979","ios":"levelo://app?vid=bce4dbcc-9883-4dd1-b94f-f1abb6c76979"},"vehicle_type_id":"4","last_reported":1727885447,"current_range_meters":2000,"station_id":"ce4bhnh2rcd13ifvqgug","pricing_plan_id":"cebpf4jnsgd1na2vs0mg"},{"bike_id":"046780d8-66d4-4ed0-ab54-f8bd02149622","system_id":"levelo_inurba_marseille","lat":43.288281,"lon":5.392319,"is_reserved":false,"is_disabled":false,"rental_uris":{"android":"levelo://app?vid=046780d8-66d4-4ed0-ab54-f8bd02149622","ios":"levelo://app?vid=046780d8-66d4-4ed0-ab54-f8bd02149622"},"vehicle_type_id":"4","last_reported":1727885447,"current_range_meters":26000,"station_id":"ce4bh2p2rcd13ifvqdi0","pricing_plan_id":"cebpf4jnsgd1na2vs0mg"},{"bike_id":"f04fde4f-1edd-408c-a257-45ddf270c789","system_id":"levelo_inurba_marseille","lat":43.28153,"lon":5.42648,"is_reserved":false,"is_disabled":false,"rental_uris":{"android":"levelo://app?vid=f04fde4f-1edd-408c-a257-45ddf270c789","ios":"levelo://app?vid=f04fde4f-1edd-408c-a257-45ddf270c789"},"vehicle_type_id":"4","last_reported":1727885447,"current_range_meters":10800,"station_id":"ce4bhnh2rcd13ifvqgug","pricing_plan_id":"cebpf4jnsgd1na2vs0mg"},{"bike_id":"b9d0049e-6ae5-46ec-9051-115d3125059f","system_id":"levelo_inurba_marseille","lat":43.28158,"lon":5.42654,"is_reserved":false,"is_disabled":false,"rental_uris":{"android":"levelo://app?vid=b9d0049e-6ae5-46ec-9051-115d3125059f","ios":"levelo://app?vid=b9d0049e-6ae5-46ec-9051-115d3125059f"},"vehicle_type_id":"4","last_reported":1727885447,"current_range_meters":22800,"station_id":"ce4bhnh2rcd13ifvqgug","pricing_plan_id":"cebpf4jnsgd1na2vs0mg"},{"bike_id":"6f1d957b-8297-40fa-a942-e2792002a275","system_id":"levelo_inurba_marseille","lat":43.30797,"lon":5.43518,"is_reserved":false,"is_disabled":false,"rental_uris":{"android":"levelo://app?vid=6f1d957b-8297-40fa-a942-e2792002a275","ios":"levelo://app?vid=6f1d957b-8297-40fa-a942-e2792002a275"},"vehicle_type_id":"4","last_reported":1727885447,"current_range_meters":9200,"station_id":"ce4bhph2rcd13ifvqheg","pricing_plan_id":"cebpf4jnsgd1na2vs0mg"},{"bike_id":"c8e4ff73-620c-4248-92f7-758d5098242c","system_id":"levelo_inurba_marseille","lat":43.22922,"lon":5.35356,"is_reserved":false,"is_disabled":false,"rental_uris":{"android":"levelo://app?vid=c8e4ff73-620c-4248-92f7-758d5098242c","ios":"levelo://app?vid=c8e4ff73-620c-4248-92f7-758d5098242c"},"vehicle_type_id":"4","last_reported":1727885447,"current_range_meters":32000,"station_id":"cpo3532slgdg3j2ikp40","pricing_plan_id":"cebpf4jnsgd1na2vs0mg"},{"bike_id":"8d3f4174-7c0d-49a5-b781-fb11ac57e599","system_id":"levelo_inurba_marseille","lat":43.29624,"lon":5.37728,"is_reserved":false,"is_disabled":false,"rental_uris":{"android":"levelo://app?vid=8d3f4174-7c0d-49a5-b781-fb11ac57e599","ios":"levelo://app?vid=8d3f4174-7c0d-49a5-b781-fb11ac57e599"},"vehicle_type_id":"4","last_reported":1727885447,"current_range_meters":36800,"station_id":"ce4bh0h2rcd13ifvqd50","pricing_plan_id":"cebpf4jnsgd1na2vs0mg"},{"bike_id":"90b20e4e-9a1f-44c5-87d2-76adbd0c4569","system_id":"levelo_inurba_marseille","lat":43.30113,"lon":5.39866,"is_reserved":false,"is_disabled":false,"rental_uris":{"android":"levelo://app?vid=90b20e4e-9a1f-44c5-87d2-76adbd0c4569","ios":"levelo://app?vid=90b20e4e-9a1f-44c5-87d2-76adbd0c4569"},"vehicle_type_id":"4","last_reported":1727885447,"current_range_meters":24400,"station_id":"ce4bh0h2rcd13ifvqd40","pricing_plan_id":"cebpf4jnsgd1na2vs0mg"},{"bike_id":"bb10a17f-3e39-4c95-9f0b-b8b21166348a","system_id":"levelo_inurba_marseille","lat":43.26946,"lon":5.40248,"is_reserved":false,"is_disabled":false,"rental_uris":{"android":"levelo://app?vid=bb10a17f-3e39-4c95-9f0b-b8b21166348a","ios":"levelo://app?vid=bb10a17f-3e39-4c95-9f0b-b8b21166348a"},"vehicle_type_id":"4","last_reported":1727885447,"current_range_meters":35200,"station_id":"cjm6bp8fraef2m0cb0m0","pricing_plan_id":"cebpf4jnsgd1na2vs0mg"},{"bike_id":"f88b19a4-54f8-4388-b68b-59870927fefe","system_id":"levelo_inurba_marseille","lat":43.29308,"lon":5.37155,"is_reserved":false,"is_disabled":false,"rental_uris":{"android":"levelo://app?vid=f88b19a4-54f8-4388-b68b-59870927fefe","ios":"levelo://app?vid=f88b19a4-54f8-4388-b68b-59870927fefe"},"vehicle_type_id":"4","last_reported":1727885447,"current_range_meters":11600,"station_id":"ce4bgh92rcd13ifvqb40","pricing_plan_id":"cebpf4jnsgd1na2vs0mg"},{"bike_id":"5d8236ce-2a02-4869-82ea-f81002f588d3","system_id":"levelo_inurba_marseille","lat":43.29418,"lon":5.38629,"is_reserved":false,"is_disabled":false,"rental_uris":{"android":"levelo://app?vid=5d8236ce-2a02-4869-82ea-f81002f588d3","ios":"levelo://app?vid=5d8236ce-2a02-4869-82ea-f81002f588d3"},"vehicle_type_id":"4","last_reported":1727885447,"current_range_meters":33200,"station_id":"ce4bh2h2rcd13ifvqdh0","pricing_plan_id":"cebpf4jnsgd1na2vs0mg"},{"bike_id":"01ab34c5-437f-44a2-8db2-e6f4232cb869","system_id":"levelo_inurba_marseille","lat":43.2706,"lon":5.40264,"is_reserved":false,"is_disabled":false,"rental_uris":{"android":"levelo://app?vid=01ab34c5-437f-44a2-8db2-e6f4232cb869","ios":"levelo://app?vid=01ab34c5-437f-44a2-8db2-e6f4232cb869"},"vehicle_type_id":"4","last_reported":1727885447,"current_range_meters":38400,"station_id":"ce4bhk92rcd13ifvqgc0","pricing_plan_id":"cebpf4jnsgd1na2vs0mg"},{"bike_id":"abe9be38-4be9-40a1-bd31-ae9e68f4589a","system_id":"levelo_inurba_marseille","lat":43.3176,"lon":5.39015,"is_reserved":false,"is_disabled":false,"rental_uris":{"android":"levelo://app?vid=abe9be38-4be9-40a1-bd31-ae9e68f4589a","ios":"levelo://app?vid=abe9be38-4be9-40a1-bd31-ae9e68f4589a"},"vehicle_type_id":"4","last_reported":1727885447,"current_range_meters":12800,"station_id":"ce4bhqp2rcd13ifvqhng","pricing_plan_id":"cebpf4jnsgd1na2vs0mg"},{"bike_id":"62c5bf2c-f82b-4e6c-8cb6-1344063970b4","system_id":"levelo_inurba_marseille","lat":43.3013,"lon":5.39861,"is_reserved":false,"is_disabled":false,"rental_uris":{"android":"levelo://app?vid=62c5bf2c-f82b-4e6c-8cb6-1344063970b4","ios":"levelo://app?vid=62c5bf2c-f82b-4e6c-8cb6-1344063970b4"},"vehicle_type_id":"4","last_reported":1727885447,"current_range_meters":8400,"station_id":"ce4bh0h2rcd13ifvqd40","pricing_plan_id":"cebpf4jnsgd1na2vs0mg"},{"bike_id":"695047c7-52a2-4db8-8a16-7780657ed2cc","system_id":"levelo_inurba_marseille","lat":43.26065,"lon":5.39386,"is_reserved":false,"is_disabled":false,"rental_uris":{"android":"levelo://app?vid=695047c7-52a2-4db8-8a16-7780657ed2cc","ios":"levelo://app?vid=695047c7-52a2-4db8-8a16-7780657ed2cc"},"vehicle_type_id":"4","last_reported":1727885447,"current_range_meters":8400,"station_id":"ce4bhh92rcd13ifvqfj0","pricing_plan_id":"cebpf4jnsgd1na2vs0mg"},{"bike_id":"49431449-1d48-425c-b320-fe5b62c4a783","system_id":"levelo_inurba_marseille","lat":43.31713,"lon":5.43709,"is_reserved":false,"is_disabled":false,"rental_uris":{"android":"levelo://app?vid=49431449-1d48-425c-b320-fe5b62c4a783","ios":"levelo://app?vid=49431449-1d48-425c-b320-fe5b62c4a783"},"vehicle_type_id":"4","last_reported":1727885447,"current_range_meters":1600,"station_id":"ce4bhp92rcd13ifvqhcg","pricing_plan_id":"cebpf4jnsgd1na2vs0mg"},{"bike_id":"9f4ddce2-4577-4398-b384-894c08c3f839","system_id":"levelo_inurba_marseille","lat":43.3089,"lon":5.3719,"is_reserved":false,"is_disabled":false,"rental_uris":{"android":"levelo://app?vid=9f4ddce2-4577-4398-b384-894c08c3f839","ios":"levelo://app?vid=9f4ddce2-4577-4398-b384-894c08c3f839"},"vehicle_type_id":"4","last_reported":1727885447,"current_range_meters":8400,"station_id":"ce4bguh2rcd13ifvqckg","pricing_plan_id":"cebpf4jnsgd1na2vs0mg"},{"bike_id":"23fcd5dc-52e3-40b6-b601-8da82c35b64a","system_id":"levelo_inurba_marseille","lat":43.23195,"lon":5.35546,"is_reserved":false,"is_disabled":false,"rental_uris":{"android":"levelo://app?vid=23fcd5dc-52e3-40b6-b601-8da82c35b64a","ios":"levelo://app?vid=23fcd5dc-52e3-40b6-b601-8da82c35b64a"},"vehicle_type_id":"4","last_reported":1727885447,"current_range_meters":6400,"station_id":"ce4bhu92rcd13ifvqi70","pricing_plan_id":"cebpf4jnsgd1na2vs0mg"},{"bike_id":"87e99f48-7eca-4f2a-8b60-c9aef521800d","system_id":"levelo_inurba_marseille","lat":43.29258,"lon":5.38432,"is_reserved":false,"is_disabled":false,"rental_uris":{"android":"levelo://app?vid=87e99f48-7eca-4f2a-8b60-c9aef521800d","ios":"levelo://app?vid=87e99f48-7eca-4f2a-8b60-c9aef521800d"},"vehicle_type_id":"4","last_reported":1727885447,"current_range_meters":22000,"station_id":"ce4bh692rcd13ifvqea0","pricing_plan_id":"cebpf4jnsgd1na2vs0mg"},{"bike_id":"035127cd-bc2d-4c70-894f-3f272a1c873d","system_id":"levelo_inurba_marseille","lat":43.274423,"lon":5.390417,"is_reserved":false,"is_disabled":false,"rental_uris":{"android":"levelo://app?vid=035127cd-bc2d-4c70-894f-3f272a1c873d","ios":"levelo://app?vid=035127cd-bc2d-4c70-894f-3f272a1c873d"},"vehicle_type_id":"4","last_reported":1727885447,"current_range_meters":4800,"station_id":"ce4bhhh2rcd13ifvqfl0","pricing_plan_id":"cebpf4jnsgd1na2vs0mg"},{"bike_id":"dbbc9988-4b8f-429c-b459-fed4056c3b4e","system_id":"levelo_inurba_marseille","lat":43.30152,"lon":5.38084,"is_reserved":false,"is_disabled":false,"rental_uris":{"android":"levelo://app?vid=dbbc9988-4b8f-429c-b459-fed4056c3b4e","ios":"levelo://app?vid=dbbc9988-4b8f-429c-b459-fed4056c3b4e"},"vehicle_type_id":"4","last_reported":1727885447,"current_range_meters":33200,"station_id":"ce4bgjp2rcd13ifvqbh0","pricing_plan_id":"cebpf4jnsgd1na2vs0mg"},{"bike_id":"21d7e16c-956f-4a91-83d0-00f312e4c74f","system_id":"levelo_inurba_marseille","lat":43.2893,"lon":5.38392,"is_reserved":false,"is_disabled":false,"rental_uris":{"android":"levelo://app?vid=21d7e16c-956f-4a91-83d0-00f312e4c74f","ios":"levelo://app?vid=21d7e16c-956f-4a91-83d0-00f312e4c74f"},"vehicle_type_id":"4","last_reported":1727885447,"current_range_meters":10800,"station_id":"ce4bh612rcd13ifvqe6g","pricing_plan_id":"cebpf4jnsgd1na2vs0mg"},{"bike_id":"5d859c5d-dff8-4b20-81e1-72960281c79d","system_id":"levelo_inurba_marseille","lat":43.32479,"lon":5.3657,"is_reserved":false,"is_disabled":false,"rental_uris":{"android":"levelo://app?vid=5d859c5d-dff8-4b20-81e1-72960281c79d","ios":"levelo://app?vid=5d859c5d-dff8-4b20-81e1-72960281c79d"},"vehicle_type_id":"4","last_reported":1727885447,"current_range_meters":38800,"station_id":"ce4bhs12rcd13ifvqhvg","pricing_plan_id":"cebpf4jnsgd1na2vs0mg"},{"bike_id":"50595bee-1ffb-4755-b1e4-cfdf7155cd8f","system_id":"levelo_inurba_marseille","lat":43.23185,"lon":5.39983,"is_reserved":false,"is_disabled":false,"rental_uris":{"android":"levelo://app?vid=50595bee-1ffb-4755-b1e4-cfdf7155cd8f","ios":"levelo://app?vid=50595bee-1ffb-4755-b1e4-cfdf7155cd8f"},"vehicle_type_id":"4","last_reported":1727885447,"current_range_meters":9200,"station_id":"ce4bhn12rcd13ifvqgqg","pricing_plan_id":"cebpf4jnsgd1na2vs0mg"},{"bike_id":"d9513a24-3235-43a7-b9a5-1c5cfe37603f","system_id":"levelo_inurba_marseille","lat":43.2306,"lon":5.35489,"is_reserved":false,"is_disabled":false,"rental_uris":{"android":"levelo://app?vid=d9513a24-3235-43a7-b9a5-1c5cfe37603f","ios":"levelo://app?vid=d9513a24-3235-43a7-b9a5-1c5cfe37603f"},"vehicle_type_id":"4","last_reported":1727885447,"current_range_meters":34800,"station_id":"cpo3342slgdg3j2ifvpg","pricing_plan_id":"cebpf4jnsgd1na2vs0mg"},{"bike_id":"772088a0-7828-4f69-ba5d-0f6cdb83dec2","system_id":"levelo_inurba_marseille","lat":43.337444,"lon":5.374475,"is_reserved":false,"is_disabled":false,"rental_uris":{"android":"levelo://app?vid=772088a0-7828-4f69-ba5d-0f6cdb83dec2","ios":"levelo://app?vid=772088a0-7828-4f69-ba5d-0f6cdb83dec2"},"vehicle_type_id":"4","last_reported":1727885447,"current_range_meters":5600,"station_id":"","pricing_plan_id":"cebpf4jnsgd1na2vs0mg"},{"bike_id":"e7a2825c-ad50-46b2-b5a7-71595d3724ba","system_id":"levelo_inurba_marseille","lat":43.33599,"lon":5.41031,"is_reserved":false,"is_disabled":false,"rental_uris":{"android":"levelo://app?vid=e7a2825c-ad50-46b2-b5a7-71595d3724ba","ios":"levelo://app?vid=e7a2825c-ad50-46b2-b5a7-71595d3724ba"},"vehicle_type_id":"4","last_reported":1727885447,"current_range_meters":10000,"station_id":"ce4bhqh2rcd13ifvqhmg","pricing_plan_id":"cebpf4jnsgd1na2vs0mg"},{"bike_id":"89f79560-9417-4d80-afea-9f3796d9baaf","system_id":"levelo_inurba_marseille","lat":43.337444,"lon":5.374475,"is_reserved":false,"is_disabled":false,"rental_uris":{"android":"levelo://app?vid=89f79560-9417-4d80-afea-9f3796d9baaf","ios":"levelo://app?vid=89f79560-9417-4d80-afea-9f3796d9baaf"},"vehicle_type_id":"4","last_reported":1727885447,"current_range_meters":14400,"station_id":"","pricing_plan_id":"cebpf4jnsgd1na2vs0mg"},{"bike_id":"e6b4e255-4da6-4db6-8403-bd42d688a529","system_id":"levelo_inurba_marseille","lat":43.28691,"lon":5.39988,"is_reserved":false,"is_disabled":false,"rental_uris":{"android":"levelo://app?vid=e6b4e255-4da6-4db6-8403-bd42d688a529","ios":"levelo://app?vid=e6b4e255-4da6-4db6-8403-bd42d688a529"},"vehicle_type_id":"4","last_reported":1727885447,"current_range_meters":9200,"station_id":"ce4bho92rcd13ifvqh3g","pricing_plan_id":"cebpf4jnsgd1na2vs0mg"},{"bike_id":"20261d7d-d2c8-40f2-b1c6-bc88e81dae24","system_id":"levelo_inurba_marseille","lat":43.32372,"lon":5.38807,"is_reserved":false,"is_disabled":false,"rental_uris":{"android":"levelo://app?vid=20261d7d-d2c8-40f2-b1c6-bc88e81dae24","ios":"levelo://app?vid=20261d7d-d2c8-40f2-b1c6-bc88e81dae24"},"vehicle_type_id":"4","last_reported":1727885447,"current_range_meters":38800,"station_id":"ce4bhqp2rcd13ifvqhog","pricing_plan_id":"cebpf4jnsgd1na2vs0mg"},{"bike_id":"ea0e727a-6724-4ac5-9401-708067831bd8","system_id":"levelo_inurba_marseille","lat":43.28703,"lon":5.39987,"is_reserved":false,"is_disabled":false,"rental_uris":{"android":"levelo://app?vid=ea0e727a-6724-4ac5-9401-708067831bd8","ios":"levelo://app?vid=ea0e727a-6724-4ac5-9401-708067831bd8"},"vehicle_type_id":"4","last_reported":1727885447,"current_range_meters":12400,"station_id":"ce4bho92rcd13ifvqh3g","pricing_plan_id":"cebpf4jnsgd1na2vs0mg"},{"bike_id":"fc806e01-6bdf-4c8c-9859-acf6230a62d6","system_id":"levelo_inurba_marseille","lat":43.23962,"lon":5.36625,"is_reserved":false,"is_disabled":false,"rental_uris":{"android":"levelo://app?vid=fc806e01-6bdf-4c8c-9859-acf6230a62d6","ios":"levelo://app?vid=fc806e01-6bdf-4c8c-9859-acf6230a62d6"},"vehicle_type_id":"4","last_reported":1727885447,"current_range_meters":36800,"station_id":"ce4bhi12rcd13ifvqfp0","pricing_plan_id":"cebpf4jnsgd1na2vs0mg"},{"bike_id":"23ad9df2-80bf-49af-8eb4-0ead37c7bc6c","system_id":"levelo_inurba_marseille","lat":43.29226,"lon":5.36074,"is_reserved":false,"is_disabled":false,"rental_uris":{"android":"levelo://app?vid=23ad9df2-80bf-49af-8eb4-0ead37c7bc6c","ios":"levelo://app?vid=23ad9df2-80bf-49af-8eb4-0ead37c7bc6c"},"vehicle_type_id":"4","last_reported":1727885447,"current_range_meters":39200,"station_id":"ce4bhbh2rcd13ifvqeqg","pricing_plan_id":"cebpf4jnsgd1na2vs0mg"},{"bike_id":"d54bade7-148d-4a95-88d1-e99b900f44be","system_id":"levelo_inurba_marseille","lat":43.32351,"lon":5.38488,"is_reserved":false,"is_disabled":false,"rental_uris":{"android":"levelo://app?vid=d54bade7-148d-4a95-88d1-e99b900f44be","ios":"levelo://app?vid=d54bade7-148d-4a95-88d1-e99b900f44be"},"vehicle_type_id":"4","last_reported":1727885447,"current_range_meters":28800,"station_id":"","pricing_plan_id":"cebpf4jnsgd1na2vs0mg"},{"bike_id":"c310ea05-8bd6-48aa-b2fa-9c8295185211","system_id":"levelo_inurba_marseille","lat":43.323639,"lon":5.388828,"is_reserved":false,"is_disabled":false,"rental_uris":{"android":"levelo://app?vid=c310ea05-8bd6-48aa-b2fa-9c8295185211","ios":"levelo://app?vid=c310ea05-8bd6-48aa-b2fa-9c8295185211"},"vehicle_type_id":"4","last_reported":1727885447,"current_range_meters":38800,"station_id":"ce4bhqp2rcd13ifvqhog","pricing_plan_id":"cebpf4jnsgd1na2vs0mg"},{"bike_id":"2b0693c0-ad8d-424c-befa-3b85cb467101","system_id":"levelo_inurba_marseille","lat":43.27991,"lon":5.41666,"is_reserved":false,"is_disabled":false,"rental_uris":{"android":"levelo://app?vid=2b0693c0-ad8d-424c-befa-3b85cb467101","ios":"levelo://app?vid=2b0693c0-ad8d-424c-befa-3b85cb467101"},"vehicle_type_id":"4","last_reported":1727885447,"current_range_meters":31200,"station_id":"ce4bho12rcd13ifvqh1g","pricing_plan_id":"cebpf4jnsgd1na2vs0mg"},{"bike_id":"698d281f-c077-466c-ad7e-3ebe508cc17b","system_id":"levelo_inurba_marseille","lat":43.24169,"lon":5.36395,"is_reserved":false,"is_disabled":false,"rental_uris":{"android":"levelo://app?vid=698d281f-c077-466c-ad7e-3ebe508cc17b","ios":"levelo://app?vid=698d281f-c077-466c-ad7e-3ebe508cc17b"},"vehicle_type_id":"4","last_reported":1727885447,"current_range_meters":16400,"station_id":"cpo36qri1sfpv3e86is0","pricing_plan_id":"cebpf4jnsgd1na2vs0mg"},{"bike_id":"1b2d0f69-ec23-46d7-a331-e454e307a786","system_id":"levelo_inurba_marseille","lat":43.27807,"lon":5.40722,"is_reserved":false,"is_disabled":false,"rental_uris":{"android":"levelo://app?vid=1b2d0f69-ec23-46d7-a331-e454e307a786","ios":"levelo://app?vid=1b2d0f69-ec23-46d7-a331-e454e307a786"},"vehicle_type_id":"4","last_reported":1727885447,"current_range_meters":4400,"station_id":"ce4bhnh2rcd13ifvqgtg","pricing_plan_id":"cebpf4jnsgd1na2vs0mg"},{"bike_id":"e7425a6e-88ec-495a-85ba-73575bc96890","system_id":"levelo_inurba_marseille","lat":43.2407,"lon":5.37765,"is_reserved":false,"is_disabled":false,"rental_uris":{"android":"levelo://app?vid=e7425a6e-88ec-495a-85ba-73575bc96890","ios":"levelo://app?vid=e7425a6e-88ec-495a-85ba-73575bc96890"},"vehicle_type_id":"4","last_reported":1727885447,"current_range_meters":9600,"station_id":"ce4bhnp2rcd13ifvqgvg","pricing_plan_id":"cebpf4jnsgd1na2vs0mg"},{"bike_id":"d1801bd4-7e1c-4526-bd2c-f707269f3a81","system_id":"levelo_inurba_marseille","lat":43.27498,"lon":5.42458,"is_reserved":false,"is_disabled":false,"rental_uris":{"android":"levelo://app?vid=d1801bd4-7e1c-4526-bd2c-f707269f3a81","ios":"levelo://app?vid=d1801bd4-7e1c-4526-bd2c-f707269f3a81"},"vehicle_type_id":"4","last_reported":1727885447,"current_range_meters":30800,"station_id":"ce4bhn92rcd13ifvqgrg","pricing_plan_id":"cebpf4jnsgd1na2vs0mg"},{"bike_id":"847252bc-524e-4fdb-8b67-48d717331149","system_id":"levelo_inurba_marseille","lat":43.29529,"lon":5.3854,"is_reserved":false,"is_disabled":false,"rental_uris":{"android":"levelo://app?vid=847252bc-524e-4fdb-8b67-48d717331149","ios":"levelo://app?vid=847252bc-524e-4fdb-8b67-48d717331149"},"vehicle_type_id":"4","last_reported":1727885447,"current_range_meters":33200,"station_id":"ce4bgih2rcd13ifvqba0","pricing_plan_id":"cebpf4jnsgd1na2vs0mg"},{"bike_id":"eab9b2c3-7088-4bdd-a88d-12de3ea6c924","system_id":"levelo_inurba_marseille","lat":43.28726,"lon":5.36101,"is_reserved":false,"is_disabled":false,"rental_uris":{"android":"levelo://app?vid=eab9b2c3-7088-4bdd-a88d-12de3ea6c924","ios":"levelo://app?vid=eab9b2c3-7088-4bdd-a88d-12de3ea6c924"},"vehicle_type_id":"4","last_reported":1727885447,"current_range_meters":4000,"station_id":"cki0cbj6b192h4jlfktg","pricing_plan_id":"cebpf4jnsgd1na2vs0mg"},{"bike_id":"0927edc0-a2c0-428a-a1e9-31ec3c4f6f54","system_id":"levelo_inurba_marseille","lat":43.30557,"lon":5.39213,"is_reserved":false,"is_disabled":false,"rental_uris":{"android":"levelo://app?vid=0927edc0-a2c0-428a-a1e9-31ec3c4f6f54","ios":"levelo://app?vid=0927edc0-a2c0-428a-a1e9-31ec3c4f6f54"},"vehicle_type_id":"4","last_reported":1727885447,"current_range_meters":14400,"station_id":"","pricing_plan_id":"cebpf4jnsgd1na2vs0mg"},{"bike_id":"aa6a4af4-51d9-4ca5-b162-f2ea96ccda94","system_id":"levelo_inurba_marseille","lat":43.31685,"lon":5.40476,"is_reserved":false,"is_disabled":false,"rental_uris":{"android":"levelo://app?vid=aa6a4af4-51d9-4ca5-b162-f2ea96ccda94","ios":"levelo://app?vid=aa6a4af4-51d9-4ca5-b162-f2ea96ccda94"},"vehicle_type_id":"4","last_reported":1727885447,"current_range_meters":35600,"station_id":"ce4bh012rcd13ifvqd00","pricing_plan_id":"cebpf4jnsgd1na2vs0mg"},{"bike_id":"40bdbe99-5da1-4777-b20e-8ad89beb4767","system_id":"levelo_inurba_marseille","lat":43.30416,"lon":5.41287,"is_reserved":false,"is_disabled":false,"rental_uris":{"android":"levelo://app?vid=40bdbe99-5da1-4777-b20e-8ad89beb4767","ios":"levelo://app?vid=40bdbe99-5da1-4777-b20e-8ad89beb4767"},"vehicle_type_id":"4","last_reported":1727885447,"current_range_meters":25200,"station_id":"ce4bhop2rcd13ifvqh8g","pricing_plan_id":"cebpf4jnsgd1na2vs0mg"},{"bike_id":"04c88d0b-21cb-4ecc-b7a6-90d224b8317d","system_id":"levelo_inurba_marseille","lat":43.290405,"lon":5.399577,"is_reserved":false,"is_disabled":false,"rental_uris":{"android":"levelo://app?vid=04c88d0b-21cb-4ecc-b7a6-90d224b8317d","ios":"levelo://app?vid=04c88d0b-21cb-4ecc-b7a6-90d224b8317d"},"vehicle_type_id":"4","last_reported":1727885447,"current_range_meters":4400,"station_id":"ce4bh392rcd13ifvqdm0","pricing_plan_id":"cebpf4jnsgd1na2vs0mg"},{"bike_id":"6c6c8eb7-95cb-4c95-93ea-bb8d89fc3fd0","system_id":"levelo_inurba_marseille","lat":43.29792,"lon":5.38117,"is_reserved":false,"is_disabled":false,"rental_uris":{"android":"levelo://app?vid=6c6c8eb7-95cb-4c95-93ea-bb8d89fc3fd0","ios":"levelo://app?vid=6c6c8eb7-95cb-4c95-93ea-bb8d89fc3fd0"},"vehicle_type_id":"4","last_reported":1727885447,"current_range_meters":17600,"station_id":"ce4bgip2rcd13ifvqbb0","pricing_plan_id":"cebpf4jnsgd1na2vs0mg"},{"bike_id":"bc2a09a5-8efb-42eb-9f95-3152d16bef82","system_id":"levelo_inurba_marseille","lat":43.29904,"lon":5.38145,"is_reserved":false,"is_disabled":false,"rental_uris":{"android":"levelo://app?vid=bc2a09a5-8efb-42eb-9f95-3152d16bef82","ios":"levelo://app?vid=bc2a09a5-8efb-42eb-9f95-3152d16bef82"},"vehicle_type_id":"4","last_reported":1727885447,"current_range_meters":16800,"station_id":"ce4bgj12rcd13ifvqbc0","pricing_plan_id":"cebpf4jnsgd1na2vs0mg"},{"bike_id":"69127ef7-73d1-4ef0-be9f-1fa455700571","system_id":"levelo_inurba_marseille","lat":43.27077,"lon":5.42282,"is_reserved":false,"is_disabled":false,"rental_uris":{"android":"levelo://app?vid=69127ef7-73d1-4ef0-be9f-1fa455700571","ios":"levelo://app?vid=69127ef7-73d1-4ef0-be9f-1fa455700571"},"vehicle_type_id":"4","last_reported":1727885447,"current_range_meters":38400,"station_id":"ce4bhk92rcd13ifvqgb0","pricing_plan_id":"cebpf4jnsgd1na2vs0mg"},{"bike_id":"cbb326e8-a4d6-4883-bcec-056e7d3ae019","system_id":"levelo_inurba_marseille","lat":43.28107,"lon":5.37845,"is_reserved":false,"is_disabled":false,"rental_uris":{"android":"levelo://app?vid=cbb326e8-a4d6-4883-bcec-056e7d3ae019","ios":"levelo://app?vid=cbb326e8-a4d6-4883-bcec-056e7d3ae019"},"vehicle_type_id":"4","last_reported":1727885447,"current_range_meters":800,"station_id":"ce4bha12rcd13ifvqee0","pricing_plan_id":"cebpf4jnsgd1na2vs0mg"},{"bike_id":"5084d4e8-22d7-4248-aec8-4997331ff1e0","system_id":"levelo_inurba_marseille","lat":43.22924,"lon":5.35375,"is_reserved":false,"is_disabled":false,"rental_uris":{"android":"levelo://app?vid=5084d4e8-22d7-4248-aec8-4997331ff1e0","ios":"levelo://app?vid=5084d4e8-22d7-4248-aec8-4997331ff1e0"},"vehicle_type_id":"4","last_reported":1727885447,"current_range_meters":38400,"station_id":"cpo3532slgdg3j2ikp40","pricing_plan_id":"cebpf4jnsgd1na2vs0mg"},{"bike_id":"038ae911-1fcc-4a20-ac34-1618ec56de65","system_id":"levelo_inurba_marseille","lat":43.3022,"lon":5.394839,"is_reserved":false,"is_disabled":false,"rental_uris":{"android":"levelo://app?vid=038ae911-1fcc-4a20-ac34-1618ec56de65","ios":"levelo://app?vid=038ae911-1fcc-4a20-ac34-1618ec56de65"},"vehicle_type_id":"4","last_reported":1727885447,"current_range_meters":9200,"station_id":"ce4bhph2rcd13ifvqhdg","pricing_plan_id":"cebpf4jnsgd1na2vs0mg"},{"bike_id":"839c9596-f91c-43e7-b990-8d1e0e90ea7a","system_id":"levelo_inurba_marseille","lat":43.28425,"lon":5.3499,"is_reserved":false,"is_disabled":false,"rental_uris":{"android":"levelo://app?vid=839c9596-f91c-43e7-b990-8d1e0e90ea7a","ios":"levelo://app?vid=839c9596-f91c-43e7-b990-8d1e0e90ea7a"},"vehicle_type_id":"4","last_reported":1727885447,"current_range_meters":6800,"station_id":"ce4bhbh2rcd13ifvqepg","pricing_plan_id":"cebpf4jnsgd1na2vs0mg"},{"bike_id":"6761501b-3608-4eff-96cc-640abf7d5b57","system_id":"levelo_inurba_marseille","lat":43.30149,"lon":5.39864,"is_reserved":false,"is_disabled":false,"rental_uris":{"android":"levelo://app?vid=6761501b-3608-4eff-96cc-640abf7d5b57","ios":"levelo://app?vid=6761501b-3608-4eff-96cc-640abf7d5b57"},"vehicle_type_id":"4","last_reported":1727885447,"current_range_meters":24400,"station_id":"ce4bh0h2rcd13ifvqd40","pricing_plan_id":"cebpf4jnsgd1na2vs0mg"},{"bike_id":"6dd5df39-f796-47c2-b7f4-cc412ae77bc8","system_id":"levelo_inurba_marseille","lat":43.27814,"lon":5.40708,"is_reserved":false,"is_disabled":false,"rental_uris":{"android":"levelo://app?vid=6dd5df39-f796-47c2-b7f4-cc412ae77bc8","ios":"levelo://app?vid=6dd5df39-f796-47c2-b7f4-cc412ae77bc8"},"vehicle_type_id":"4","last_reported":1727885447,"current_range_meters":29600,"station_id":"ce4bhnh2rcd13ifvqgtg","pricing_plan_id":"cebpf4jnsgd1na2vs0mg"},{"bike_id":"5d75747e-cde0-4814-bf73-91349e324e3f","system_id":"levelo_inurba_marseille","lat":43.29623,"lon":5.37178,"is_reserved":false,"is_disabled":false,"rental_uris":{"android":"levelo://app?vid=5d75747e-cde0-4814-bf73-91349e324e3f","ios":"levelo://app?vid=5d75747e-cde0-4814-bf73-91349e324e3f"},"vehicle_type_id":"4","last_reported":1727885447,"current_range_meters":1600,"station_id":"ce4bgnh2rcd13ifvqc0g","pricing_plan_id":"cebpf4jnsgd1na2vs0mg"},{"bike_id":"94657708-4f48-45be-8900-34ad2e5a489d","system_id":"levelo_inurba_marseille","lat":43.267369,"lon":5.382241,"is_reserved":false,"is_disabled":false,"rental_uris":{"android":"levelo://app?vid=94657708-4f48-45be-8900-34ad2e5a489d","ios":"levelo://app?vid=94657708-4f48-45be-8900-34ad2e5a489d"},"vehicle_type_id":"4","last_reported":1727885447,"current_range_meters":38800,"station_id":"ce4bhg92rcd13ifvqf90","pricing_plan_id":"cebpf4jnsgd1na2vs0mg"},{"bike_id":"d826361a-0515-40c5-87b4-95f0a11fb518","system_id":"levelo_inurba_marseille","lat":43.29201,"lon":5.3934,"is_reserved":false,"is_disabled":false,"rental_uris":{"android":"levelo://app?vid=d826361a-0515-40c5-87b4-95f0a11fb518","ios":"levelo://app?vid=d826361a-0515-40c5-87b4-95f0a11fb518"},"vehicle_type_id":"4","last_reported":1727885447,"current_range_meters":23200,"station_id":"ce4bh192rcd13ifvqdd0","pricing_plan_id":"cebpf4jnsgd1na2vs0mg"},{"bike_id":"29b784d7-e146-44bf-a298-79f5b77a9c7e","system_id":"levelo_inurba_marseille","lat":43.27177,"lon":5.40994,"is_reserved":false,"is_disabled":false,"rental_uris":{"android":"levelo://app?vid=29b784d7-e146-44bf-a298-79f5b77a9c7e","ios":"levelo://app?vid=29b784d7-e146-44bf-a298-79f5b77a9c7e"},"vehicle_type_id":"4","last_reported":1727885447,"current_range_meters":28000,"station_id":"ce4bhl12rcd13ifvqgf0","pricing_plan_id":"cebpf4jnsgd1na2vs0mg"},{"bike_id":"9f6ea554-100d-4d77-80cb-b79622e7fa00","system_id":"levelo_inurba_marseille","lat":43.22935,"lon":5.35377,"is_reserved":false,"is_disabled":false,"rental_uris":{"android":"levelo://app?vid=9f6ea554-100d-4d77-80cb-b79622e7fa00","ios":"levelo://app?vid=9f6ea554-100d-4d77-80cb-b79622e7fa00"},"vehicle_type_id":"4","last_reported":1727885447,"current_range_meters":24000,"station_id":"cpo3532slgdg3j2ikp40","pricing_plan_id":"cebpf4jnsgd1na2vs0mg"},{"bike_id":"a77d4c38-9e05-4b66-a8f6-ca5e60ed1bc8","system_id":"levelo_inurba_marseille","lat":43.29529,"lon":5.39397,"is_reserved":false,"is_disabled":false,"rental_uris":{"android":"levelo://app?vid=a77d4c38-9e05-4b66-a8f6-ca5e60ed1bc8","ios":"levelo://app?vid=a77d4c38-9e05-4b66-a8f6-ca5e60ed1bc8"},"vehicle_type_id":"4","last_reported":1727885447,"current_range_meters":10000,"station_id":"ce4bh292rcd13ifvqdf0","pricing_plan_id":"cebpf4jnsgd1na2vs0mg"},{"bike_id":"6a1917fe-c066-430a-9f5b-99275b5520c9","system_id":"levelo_inurba_marseille","lat":43.29033,"lon":5.37564,"is_reserved":false,"is_disabled":false,"rental_uris":{"android":"levelo://app?vid=6a1917fe-c066-430a-9f5b-99275b5520c9","ios":"levelo://app?vid=6a1917fe-c066-430a-9f5b-99275b5520c9"},"vehicle_type_id":"4","last_reported":1727885447,"current_range_meters":8000,"station_id":"ce4bh692rcd13ifvqe90","pricing_plan_id":"cebpf4jnsgd1na2vs0mg"},{"bike_id":"3a211366-f952-45ef-bbbb-485ca0333461","system_id":"levelo_inurba_marseille","lat":43.27063,"lon":5.40259,"is_reserved":false,"is_disabled":false,"rental_uris":{"android":"levelo://app?vid=3a211366-f952-45ef-bbbb-485ca0333461","ios":"levelo://app?vid=3a211366-f952-45ef-bbbb-485ca0333461"},"vehicle_type_id":"4","last_reported":1727885447,"current_range_meters":37600,"station_id":"ce4bhk92rcd13ifvqgc0","pricing_plan_id":"cebpf4jnsgd1na2vs0mg"},{"bike_id":"9d5e9a5e-1fb9-4026-8e9b-38e1693bc6e0","system_id":"levelo_inurba_marseille","lat":43.30884,"lon":5.39657,"is_reserved":false,"is_disabled":false,"rental_uris":{"android":"levelo://app?vid=9d5e9a5e-1fb9-4026-8e9b-38e1693bc6e0","ios":"levelo://app?vid=9d5e9a5e-1fb9-4026-8e9b-38e1693bc6e0"},"vehicle_type_id":"4","last_reported":1727885447,"current_range_meters":35200,"station_id":"ce4bh012rcd13ifvqcv0","pricing_plan_id":"cebpf4jnsgd1na2vs0mg"},{"bike_id":"64bd957e-b978-44cb-a85c-928d627d24ec","system_id":"levelo_inurba_marseille","lat":43.35754,"lon":5.35887,"is_reserved":false,"is_disabled":false,"rental_uris":{"android":"levelo://app?vid=64bd957e-b978-44cb-a85c-928d627d24ec","ios":"levelo://app?vid=64bd957e-b978-44cb-a85c-928d627d24ec"},"vehicle_type_id":"4","last_reported":1727885447,"current_range_meters":18000,"station_id":"","pricing_plan_id":"cebpf4jnsgd1na2vs0mg"},{"bike_id":"1cb3e311-f2bf-4163-b140-90085c63e526","system_id":"levelo_inurba_marseille","lat":43.28567,"lon":5.39503,"is_reserved":false,"is_disabled":false,"rental_uris":{"android":"levelo://app?vid=1cb3e311-f2bf-4163-b140-90085c63e526","ios":"levelo://app?vid=1cb3e311-f2bf-4163-b140-90085c63e526"},"vehicle_type_id":"4","last_reported":1727885447,"current_range_meters":28000,"station_id":"ce4bh292rcd13ifvqdg0","pricing_plan_id":"cebpf4jnsgd1na2vs0mg"},{"bike_id":"a3b71d37-321c-447b-b0b2-565796773049","system_id":"levelo_inurba_marseille","lat":43.3033,"lon":5.40447,"is_reserved":false,"is_disabled":false,"rental_uris":{"android":"levelo://app?vid=a3b71d37-321c-447b-b0b2-565796773049","ios":"levelo://app?vid=a3b71d37-321c-447b-b0b2-565796773049"},"vehicle_type_id":"4","last_reported":1727885447,"current_range_meters":4000,"station_id":"ce4bh012rcd13ifvqd10","pricing_plan_id":"cebpf4jnsgd1na2vs0mg"},{"bike_id":"db215235-46fd-4e94-b4a2-8d3ec4e5a140","system_id":"levelo_inurba_marseille","lat":43.32467,"lon":5.36531,"is_reserved":false,"is_disabled":false,"rental_uris":{"android":"levelo://app?vid=db215235-46fd-4e94-b4a2-8d3ec4e5a140","ios":"levelo://app?vid=db215235-46fd-4e94-b4a2-8d3ec4e5a140"},"vehicle_type_id":"4","last_reported":1727885447,"current_range_meters":18800,"station_id":"ce4bhs12rcd13ifvqhvg","pricing_plan_id":"cebpf4jnsgd1na2vs0mg"},{"bike_id":"4ac5b21d-f552-4c0b-a28d-986f107a6b95","system_id":"levelo_inurba_marseille","lat":43.32406,"lon":5.39005,"is_reserved":false,"is_disabled":false,"rental_uris":{"android":"levelo://app?vid=4ac5b21d-f552-4c0b-a28d-986f107a6b95","ios":"levelo://app?vid=4ac5b21d-f552-4c0b-a28d-986f107a6b95"},"vehicle_type_id":"4","last_reported":1727885447,"current_range_meters":11200,"station_id":"","pricing_plan_id":"cebpf4jnsgd1na2vs0mg"},{"bike_id":"156cb8d3-f942-4018-9f7c-ed7e9cd6a4c2","system_id":"levelo_inurba_marseille","lat":43.29849,"lon":5.36288,"is_reserved":false,"is_disabled":false,"rental_uris":{"android":"levelo://app?vid=156cb8d3-f942-4018-9f7c-ed7e9cd6a4c2","ios":"levelo://app?vid=156cb8d3-f942-4018-9f7c-ed7e9cd6a4c2"},"vehicle_type_id":"4","last_reported":1727885447,"current_range_meters":18000,"station_id":"ce4bgpp2rcd13ifvqc3g","pricing_plan_id":"cebpf4jnsgd1na2vs0mg"},{"bike_id":"347e6ee1-2395-4ce1-8219-b90fa5b8a567","system_id":"levelo_inurba_marseille","lat":43.31273,"lon":5.40173,"is_reserved":false,"is_disabled":false,"rental_uris":{"android":"levelo://app?vid=347e6ee1-2395-4ce1-8219-b90fa5b8a567","ios":"levelo://app?vid=347e6ee1-2395-4ce1-8219-b90fa5b8a567"},"vehicle_type_id":"4","last_reported":1727885447,"current_range_meters":8400,"station_id":"ce4bh092rcd13ifvqd30","pricing_plan_id":"cebpf4jnsgd1na2vs0mg"},{"bike_id":"af73b995-6c55-4096-8776-a462be9b879a","system_id":"levelo_inurba_marseille","lat":43.30591,"lon":5.37121,"is_reserved":false,"is_disabled":false,"rental_uris":{"android":"levelo://app?vid=af73b995-6c55-4096-8776-a462be9b879a","ios":"levelo://app?vid=af73b995-6c55-4096-8776-a462be9b879a"},"vehicle_type_id":"4","last_reported":1727885447,"current_range_meters":36400,"station_id":"","pricing_plan_id":"cebpf4jnsgd1na2vs0mg"},{"bike_id":"8755eb25-5696-4493-bbcf-91aaa15b1b7c","system_id":"levelo_inurba_marseille","lat":43.23182,"lon":5.3999,"is_reserved":false,"is_disabled":false,"rental_uris":{"android":"levelo://app?vid=8755eb25-5696-4493-bbcf-91aaa15b1b7c","ios":"levelo://app?vid=8755eb25-5696-4493-bbcf-91aaa15b1b7c"},"vehicle_type_id":"4","last_reported":1727885447,"current_range_meters":4000,"station_id":"ce4bhn12rcd13ifvqgqg","pricing_plan_id":"cebpf4jnsgd1na2vs0mg"},{"bike_id":"1a8ff1a8-cff8-40df-aa72-c967d151d8c1","system_id":"levelo_inurba_marseille","lat":43.248058,"lon":5.374579,"is_reserved":false,"is_disabled":false,"rental_uris":{"android":"levelo://app?vid=1a8ff1a8-cff8-40df-aa72-c967d151d8c1","ios":"levelo://app?vid=1a8ff1a8-cff8-40df-aa72-c967d151d8c1"},"vehicle_type_id":"4","last_reported":1727885447,"current_range_meters":19200,"station_id":"ce4bhgh2rcd13ifvqfb0","pricing_plan_id":"cebpf4jnsgd1na2vs0mg"},{"bike_id":"01e77b0f-7cc2-4f21-bca1-292aaef4dbf5","system_id":"levelo_inurba_marseille","lat":43.23062,"lon":5.35491,"is_reserved":false,"is_disabled":false,"rental_uris":{"android":"levelo://app?vid=01e77b0f-7cc2-4f21-bca1-292aaef4dbf5","ios":"levelo://app?vid=01e77b0f-7cc2-4f21-bca1-292aaef4dbf5"},"vehicle_type_id":"4","last_reported":1727885447,"current_range_meters":25200,"station_id":"cpo3342slgdg3j2ifvpg","pricing_plan_id":"cebpf4jnsgd1na2vs0mg"},{"bike_id":"857fada9-ecfc-4c6a-83cd-dc8df2e39f1c","system_id":"levelo_inurba_marseille","lat":43.29965,"lon":5.38495,"is_reserved":false,"is_disabled":false,"rental_uris":{"android":"levelo://app?vid=857fada9-ecfc-4c6a-83cd-dc8df2e39f1c","ios":"levelo://app?vid=857fada9-ecfc-4c6a-83cd-dc8df2e39f1c"},"vehicle_type_id":"4","last_reported":1727885447,"current_range_meters":23200,"station_id":"ce4bgj92rcd13ifvqbd0","pricing_plan_id":"cebpf4jnsgd1na2vs0mg"},{"bike_id":"5dac9f59-99d8-47f9-b99a-06c3eeec022f","system_id":"levelo_inurba_marseille","lat":43.23062,"lon":5.35493,"is_reserved":false,"is_disabled":false,"rental_uris":{"android":"levelo://app?vid=5dac9f59-99d8-47f9-b99a-06c3eeec022f","ios":"levelo://app?vid=5dac9f59-99d8-47f9-b99a-06c3eeec022f"},"vehicle_type_id":"4","last_reported":1727885447,"current_range_meters":35200,"station_id":"cpo3342slgdg3j2ifvpg","pricing_plan_id":"cebpf4jnsgd1na2vs0mg"},{"bike_id":"2656314f-982e-4541-9a98-b333567c157a","system_id":"levelo_inurba_marseille","lat":43.29538,"lon":5.38547,"is_reserved":false,"is_disabled":false,"rental_uris":{"android":"levelo://app?vid=2656314f-982e-4541-9a98-b333567c157a","ios":"levelo://app?vid=2656314f-982e-4541-9a98-b333567c157a"},"vehicle_type_id":"4","last_reported":1727885447,"current_range_meters":38800,"station_id":"ce4bgih2rcd13ifvqba0","pricing_plan_id":"cebpf4jnsgd1na2vs0mg"},{"bike_id":"6fa4c75b-7cc0-4069-b5ac-722c93394baf","system_id":"levelo_inurba_marseille","lat":43.29025,"lon":5.38122,"is_reserved":false,"is_disabled":false,"rental_uris":{"android":"levelo://app?vid=6fa4c75b-7cc0-4069-b5ac-722c93394baf","ios":"levelo://app?vid=6fa4c75b-7cc0-4069-b5ac-722c93394baf"},"vehicle_type_id":"4","last_reported":1727885447,"current_range_meters":38800,"station_id":"ce4bh4p2rcd13ifvqe1g","pricing_plan_id":"cebpf4jnsgd1na2vs0mg"},{"bike_id":"ed284197-184b-4b6a-9a06-07949fb85f72","system_id":"levelo_inurba_marseille","lat":43.27207,"lon":5.39179,"is_reserved":false,"is_disabled":false,"rental_uris":{"android":"levelo://app?vid=ed284197-184b-4b6a-9a06-07949fb85f72","ios":"levelo://app?vid=ed284197-184b-4b6a-9a06-07949fb85f72"},"vehicle_type_id":"4","last_reported":1727885447,"current_range_meters":10800,"station_id":"ce4bhhp2rcd13ifvqfm0","pricing_plan_id":"cebpf4jnsgd1na2vs0mg"},{"bike_id":"8f9146c0-7ba3-41b3-bdce-5c989f3dd5e0","system_id":"levelo_inurba_marseille","lat":43.28759,"lon":5.3852,"is_reserved":false,"is_disabled":false,"rental_uris":{"android":"levelo://app?vid=8f9146c0-7ba3-41b3-bdce-5c989f3dd5e0","ios":"levelo://app?vid=8f9146c0-7ba3-41b3-bdce-5c989f3dd5e0"},"vehicle_type_id":"4","last_reported":1727885447,"current_range_meters":5600,"station_id":"ce4bh492rcd13ifvqdug","pricing_plan_id":"cebpf4jnsgd1na2vs0mg"},{"bike_id":"c2209369-82e6-4893-a154-2d8fbcb6c052","system_id":"levelo_inurba_marseille","lat":43.32955,"lon":5.4138,"is_reserved":false,"is_disabled":false,"rental_uris":{"android":"levelo://app?vid=c2209369-82e6-4893-a154-2d8fbcb6c052","ios":"levelo://app?vid=c2209369-82e6-4893-a154-2d8fbcb6c052"},"vehicle_type_id":"4","last_reported":1727885447,"current_range_meters":23200,"station_id":"ce4bhqh2rcd13ifvqhmg","pricing_plan_id":"cebpf4jnsgd1na2vs0mg"},{"bike_id":"1a855352-86f2-4d19-9361-cae95d56f46c","system_id":"levelo_inurba_marseille","lat":43.28416,"lon":5.34996,"is_reserved":false,"is_disabled":false,"rental_uris":{"android":"levelo://app?vid=1a855352-86f2-4d19-9361-cae95d56f46c","ios":"levelo://app?vid=1a855352-86f2-4d19-9361-cae95d56f46c"},"vehicle_type_id":"4","last_reported":1727885447,"current_range_meters":38800,"station_id":"ce4bhbh2rcd13ifvqepg","pricing_plan_id":"cebpf4jnsgd1na2vs0mg"},{"bike_id":"58a14ce1-2014-4595-b2e8-3b1fc49aaeb1","system_id":"levelo_inurba_marseille","lat":43.26491,"lon":5.39547,"is_reserved":false,"is_disabled":false,"rental_uris":{"android":"levelo://app?vid=58a14ce1-2014-4595-b2e8-3b1fc49aaeb1","ios":"levelo://app?vid=58a14ce1-2014-4595-b2e8-3b1fc49aaeb1"},"vehicle_type_id":"4","last_reported":1727885447,"current_range_meters":32800,"station_id":"ce4bhi12rcd13ifvqfq0","pricing_plan_id":"cebpf4jnsgd1na2vs0mg"},{"bike_id":"4064b74c-e4ef-4363-b54b-a0533439388b","system_id":"levelo_inurba_marseille","lat":43.27185,"lon":5.40992,"is_reserved":false,"is_disabled":false,"rental_uris":{"android":"levelo://app?vid=4064b74c-e4ef-4363-b54b-a0533439388b","ios":"levelo://app?vid=4064b74c-e4ef-4363-b54b-a0533439388b"},"vehicle_type_id":"4","last_reported":1727885447,"current_range_meters":8400,"station_id":"ce4bhl12rcd13ifvqgf0","pricing_plan_id":"cebpf4jnsgd1na2vs0mg"},{"bike_id":"351cbea0-a68b-4f1e-9be1-59a6314f708b","system_id":"levelo_inurba_marseille","lat":43.25871,"lon":5.39899,"is_reserved":false,"is_disabled":false,"rental_uris":{"android":"levelo://app?vid=351cbea0-a68b-4f1e-9be1-59a6314f708b","ios":"levelo://app?vid=351cbea0-a68b-4f1e-9be1-59a6314f708b"},"vehicle_type_id":"4","last_reported":1727885447,"current_range_meters":30000,"station_id":"ce4bhl92rcd13ifvqghg","pricing_plan_id":"cebpf4jnsgd1na2vs0mg"},{"bike_id":"ca9af768-1029-40e9-94fc-0de57be64590","system_id":"levelo_inurba_marseille","lat":43.31162,"lon":5.38721,"is_reserved":false,"is_disabled":false,"rental_uris":{"android":"levelo://app?vid=ca9af768-1029-40e9-94fc-0de57be64590","ios":"levelo://app?vid=ca9af768-1029-40e9-94fc-0de57be64590"},"vehicle_type_id":"4","last_reported":1727885447,"current_range_meters":22800,"station_id":"ce4bgv12rcd13ifvqcp0","pricing_plan_id":"cebpf4jnsgd1na2vs0mg"},{"bike_id":"2ce72c3a-a787-4239-b055-c1679df2557f","system_id":"levelo_inurba_marseille","lat":43.29516,"lon":5.39414,"is_reserved":false,"is_disabled":false,"rental_uris":{"android":"levelo://app?vid=2ce72c3a-a787-4239-b055-c1679df2557f","ios":"levelo://app?vid=2ce72c3a-a787-4239-b055-c1679df2557f"},"vehicle_type_id":"4","last_reported":1727885447,"current_range_meters":28800,"station_id":"ce4bh292rcd13ifvqdf0","pricing_plan_id":"cebpf4jnsgd1na2vs0mg"},{"bike_id":"a57b6501-df5e-47cf-93a6-3acf89605414","system_id":"levelo_inurba_marseille","lat":43.29026,"lon":5.38647,"is_reserved":false,"is_disabled":false,"rental_uris":{"android":"levelo://app?vid=a57b6501-df5e-47cf-93a6-3acf89605414","ios":"levelo://app?vid=a57b6501-df5e-47cf-93a6-3acf89605414"},"vehicle_type_id":"4","last_reported":1727885447,"current_range_meters":21600,"station_id":"ce4bh4p2rcd13ifvqe0g","pricing_plan_id":"cebpf4jnsgd1na2vs0mg"},{"bike_id":"09b25b1c-fcac-47f0-aef7-2dabf594a8fe","system_id":"levelo_inurba_marseille","lat":43.2319,"lon":5.35561,"is_reserved":false,"is_disabled":false,"rental_uris":{"android":"levelo://app?vid=09b25b1c-fcac-47f0-aef7-2dabf594a8fe","ios":"levelo://app?vid=09b25b1c-fcac-47f0-aef7-2dabf594a8fe"},"vehicle_type_id":"4","last_reported":1727885447,"current_range_meters":38800,"station_id":"ce4bhu92rcd13ifvqi70","pricing_plan_id":"cebpf4jnsgd1na2vs0mg"},{"bike_id":"f2668b55-f08f-4d65-848a-39a0e902d707","system_id":"levelo_inurba_marseille","lat":43.31174,"lon":5.38723,"is_reserved":false,"is_disabled":false,"rental_uris":{"android":"levelo://app?vid=f2668b55-f08f-4d65-848a-39a0e902d707","ios":"levelo://app?vid=f2668b55-f08f-4d65-848a-39a0e902d707"},"vehicle_type_id":"4","last_reported":1727885447,"current_range_meters":20400,"station_id":"ce4bgv12rcd13ifvqcp0","pricing_plan_id":"cebpf4jnsgd1na2vs0mg"},{"bike_id":"970be3b2-3017-43b3-9323-5bafde814cfa","system_id":"levelo_inurba_marseille","lat":43.29621,"lon":5.37151,"is_reserved":false,"is_disabled":false,"rental_uris":{"android":"levelo://app?vid=970be3b2-3017-43b3-9323-5bafde814cfa","ios":"levelo://app?vid=970be3b2-3017-43b3-9323-5bafde814cfa"},"vehicle_type_id":"4","last_reported":1727885447,"current_range_meters":3600,"station_id":"ce4bgnh2rcd13ifvqc0g","pricing_plan_id":"cebpf4jnsgd1na2vs0mg"},{"bike_id":"41b8df08-7b0c-4cc5-a3f0-0d7fc039f39d","system_id":"levelo_inurba_marseille","lat":43.32373,"lon":5.38889,"is_reserved":false,"is_disabled":false,"rental_uris":{"android":"levelo://app?vid=41b8df08-7b0c-4cc5-a3f0-0d7fc039f39d","ios":"levelo://app?vid=41b8df08-7b0c-4cc5-a3f0-0d7fc039f39d"},"vehicle_type_id":"4","last_reported":1727885447,"current_range_meters":10000,"station_id":"ce4bhqp2rcd13ifvqhog","pricing_plan_id":"cebpf4jnsgd1na2vs0mg"},{"bike_id":"291e3f42-a0e6-43b1-8753-a1f170c85edb","system_id":"levelo_inurba_marseille","lat":43.290282,"lon":5.386524,"is_reserved":false,"is_disabled":false,"rental_uris":{"android":"levelo://app?vid=291e3f42-a0e6-43b1-8753-a1f170c85edb","ios":"levelo://app?vid=291e3f42-a0e6-43b1-8753-a1f170c85edb"},"vehicle_type_id":"4","last_reported":1727885447,"current_range_meters":25200,"station_id":"ce4bgkh2rcd13ifvqbl0","pricing_plan_id":"cebpf4jnsgd1na2vs0mg"},{"bike_id":"0dbb5e03-5397-4753-aaa7-105e76802ecc","system_id":"levelo_inurba_marseille","lat":43.292888,"lon":5.368486,"is_reserved":false,"is_disabled":false,"rental_uris":{"android":"levelo://app?vid=0dbb5e03-5397-4753-aaa7-105e76802ecc","ios":"levelo://app?vid=0dbb5e03-5397-4753-aaa7-105e76802ecc"},"vehicle_type_id":"4","last_reported":1727885447,"current_range_meters":20400,"station_id":"ce4bhbp2rcd13ifvqesg","pricing_plan_id":"cebpf4jnsgd1na2vs0mg"},{"bike_id":"1968ed51-a936-4bd9-a790-bf2eac1377ee","system_id":"levelo_inurba_marseille","lat":43.29538,"lon":5.38547,"is_reserved":false,"is_disabled":false,"rental_uris":{"android":"levelo://app?vid=1968ed51-a936-4bd9-a790-bf2eac1377ee","ios":"levelo://app?vid=1968ed51-a936-4bd9-a790-bf2eac1377ee"},"vehicle_type_id":"4","last_reported":1727885447,"current_range_meters":29600,"station_id":"ce4bgih2rcd13ifvqba0","pricing_plan_id":"cebpf4jnsgd1na2vs0mg"},{"bike_id":"00dfd87d-5d80-4462-835e-5f333bdd8555","system_id":"levelo_inurba_marseille","lat":43.30886,"lon":5.3966,"is_reserved":false,"is_disabled":false,"rental_uris":{"android":"levelo://app?vid=00dfd87d-5d80-4462-835e-5f333bdd8555","ios":"levelo://app?vid=00dfd87d-5d80-4462-835e-5f333bdd8555"},"vehicle_type_id":"4","last_reported":1727885447,"current_range_meters":25200,"station_id":"ce4bh012rcd13ifvqcv0","pricing_plan_id":"cebpf4jnsgd1na2vs0mg"},{"bike_id":"46b9ab53-a82a-46ff-919a-2fc30b27a2a1","system_id":"levelo_inurba_marseille","lat":43.290253,"lon":5.386523,"is_reserved":false,"is_disabled":false,"rental_uris":{"android":"levelo://app?vid=46b9ab53-a82a-46ff-919a-2fc30b27a2a1","ios":"levelo://app?vid=46b9ab53-a82a-46ff-919a-2fc30b27a2a1"},"vehicle_type_id":"4","last_reported":1727885447,"current_range_meters":24400,"station_id":"ce4bh4p2rcd13ifvqe0g","pricing_plan_id":"cebpf4jnsgd1na2vs0mg"},{"bike_id":"24f47d3b-2c89-4a97-bb2a-58768ef13f3d","system_id":"levelo_inurba_marseille","lat":43.29598,"lon":5.38109,"is_reserved":false,"is_disabled":false,"rental_uris":{"android":"levelo://app?vid=24f47d3b-2c89-4a97-bb2a-58768ef13f3d","ios":"levelo://app?vid=24f47d3b-2c89-4a97-bb2a-58768ef13f3d"},"vehicle_type_id":"4","last_reported":1727885447,"current_range_meters":35600,"station_id":"ce4bgl12rcd13ifvqbo0","pricing_plan_id":"cebpf4jnsgd1na2vs0mg"},{"bike_id":"34015183-5cff-4a7f-a810-08ec00c72e82","system_id":"levelo_inurba_marseille","lat":43.29436,"lon":5.39765,"is_reserved":false,"is_disabled":false,"rental_uris":{"android":"levelo://app?vid=34015183-5cff-4a7f-a810-08ec00c72e82","ios":"levelo://app?vid=34015183-5cff-4a7f-a810-08ec00c72e82"},"vehicle_type_id":"4","last_reported":1727885447,"current_range_meters":36000,"station_id":"ce4bh3h2rcd13ifvqdo0","pricing_plan_id":"cebpf4jnsgd1na2vs0mg"},{"bike_id":"c82c99dd-8df2-4155-a108-84adda99ee9b","system_id":"levelo_inurba_marseille","lat":43.26558,"lon":5.3901,"is_reserved":false,"is_disabled":false,"rental_uris":{"android":"levelo://app?vid=c82c99dd-8df2-4155-a108-84adda99ee9b","ios":"levelo://app?vid=c82c99dd-8df2-4155-a108-84adda99ee9b"},"vehicle_type_id":"4","last_reported":1727885447,"current_range_meters":28800,"station_id":"ce4bhe12rcd13ifvqf30","pricing_plan_id":"cebpf4jnsgd1na2vs0mg"},{"bike_id":"17ce31a1-02b8-4d9b-b69a-5f64832d6ab1","system_id":"levelo_inurba_marseille","lat":43.28418,"lon":5.34976,"is_reserved":false,"is_disabled":false,"rental_uris":{"android":"levelo://app?vid=17ce31a1-02b8-4d9b-b69a-5f64832d6ab1","ios":"levelo://app?vid=17ce31a1-02b8-4d9b-b69a-5f64832d6ab1"},"vehicle_type_id":"4","last_reported":1727885447,"current_range_meters":38800,"station_id":"ce4bhbh2rcd13ifvqepg","pricing_plan_id":"cebpf4jnsgd1na2vs0mg"},{"bike_id":"9d99eb33-9a22-4cf9-896a-3d2d7cfaeab0","system_id":"levelo_inurba_marseille","lat":43.30875,"lon":5.39664,"is_reserved":false,"is_disabled":false,"rental_uris":{"android":"levelo://app?vid=9d99eb33-9a22-4cf9-896a-3d2d7cfaeab0","ios":"levelo://app?vid=9d99eb33-9a22-4cf9-896a-3d2d7cfaeab0"},"vehicle_type_id":"4","last_reported":1727885447,"current_range_meters":18800,"station_id":"ce4bh012rcd13ifvqcv0","pricing_plan_id":"cebpf4jnsgd1na2vs0mg"},{"bike_id":"c579e333-eee7-495a-babc-509a811b392c","system_id":"levelo_inurba_marseille","lat":43.28411,"lon":5.3751,"is_reserved":false,"is_disabled":false,"rental_uris":{"android":"levelo://app?vid=c579e333-eee7-495a-babc-509a811b392c","ios":"levelo://app?vid=c579e333-eee7-495a-babc-509a811b392c"},"vehicle_type_id":"4","last_reported":1727885447,"current_range_meters":8000,"station_id":"ce4bh412rcd13ifvqds0","pricing_plan_id":"cebpf4jnsgd1na2vs0mg"},{"bike_id":"6b315d99-3ae8-4acd-8c24-9531c7a83eb8","system_id":"levelo_inurba_marseille","lat":43.23067,"lon":5.35485,"is_reserved":false,"is_disabled":false,"rental_uris":{"android":"levelo://app?vid=6b315d99-3ae8-4acd-8c24-9531c7a83eb8","ios":"levelo://app?vid=6b315d99-3ae8-4acd-8c24-9531c7a83eb8"},"vehicle_type_id":"4","last_reported":1727885447,"current_range_meters":28400,"station_id":"cpo3342slgdg3j2ifvpg","pricing_plan_id":"cebpf4jnsgd1na2vs0mg"},{"bike_id":"578d0941-70e1-40a1-ac49-57649f7d0419","system_id":"levelo_inurba_marseille","lat":43.283466,"lon":5.38101,"is_reserved":false,"is_disabled":false,"rental_uris":{"android":"levelo://app?vid=578d0941-70e1-40a1-ac49-57649f7d0419","ios":"levelo://app?vid=578d0941-70e1-40a1-ac49-57649f7d0419"},"vehicle_type_id":"4","last_reported":1727885447,"current_range_meters":9200,"station_id":"ce4bh412rcd13ifvqdr0","pricing_plan_id":"cebpf4jnsgd1na2vs0mg"},{"bike_id":"43716b37-6ec2-4a08-8c9f-b9a41b5f4cc4","system_id":"levelo_inurba_marseille","lat":43.2481,"lon":5.37459,"is_reserved":false,"is_disabled":false,"rental_uris":{"android":"levelo://app?vid=43716b37-6ec2-4a08-8c9f-b9a41b5f4cc4","ios":"levelo://app?vid=43716b37-6ec2-4a08-8c9f-b9a41b5f4cc4"},"vehicle_type_id":"4","last_reported":1727885447,"current_range_meters":4000,"station_id":"ce4bhgh2rcd13ifvqfb0","pricing_plan_id":"cebpf4jnsgd1na2vs0mg"},{"bike_id":"c9bce81d-387a-4e91-a230-d385646dc1cc","system_id":"levelo_inurba_marseille","lat":43.27178,"lon":5.40998,"is_reserved":false,"is_disabled":false,"rental_uris":{"android":"levelo://app?vid=c9bce81d-387a-4e91-a230-d385646dc1cc","ios":"levelo://app?vid=c9bce81d-387a-4e91-a230-d385646dc1cc"},"vehicle_type_id":"4","last_reported":1727885447,"current_range_meters":4800,"station_id":"ce4bhl12rcd13ifvqgf0","pricing_plan_id":"cebpf4jnsgd1na2vs0mg"},{"bike_id":"8022b384-f927-4a69-8e54-6102193645c2","system_id":"levelo_inurba_marseille","lat":43.2693,"lon":5.38915,"is_reserved":false,"is_disabled":false,"rental_uris":{"android":"levelo://app?vid=8022b384-f927-4a69-8e54-6102193645c2","ios":"levelo://app?vid=8022b384-f927-4a69-8e54-6102193645c2"},"vehicle_type_id":"4","last_reported":1727885447,"current_range_meters":27600,"station_id":"ce4bhhh2rcd13ifvqfl0","pricing_plan_id":"cebpf4jnsgd1na2vs0mg"},{"bike_id":"fb23861c-d385-4897-9786-38455b7e26f3","system_id":"levelo_inurba_marseille","lat":43.28448,"lon":5.39187,"is_reserved":false,"is_disabled":false,"rental_uris":{"android":"levelo://app?vid=fb23861c-d385-4897-9786-38455b7e26f3","ios":"levelo://app?vid=fb23861c-d385-4897-9786-38455b7e26f3"},"vehicle_type_id":"4","last_reported":1727885447,"current_range_meters":16400,"station_id":"ce4bhoh2rcd13ifvqh5g","pricing_plan_id":"cebpf4jnsgd1na2vs0mg"},{"bike_id":"9cbbab00-5320-4d52-8d7f-bad878bc90ea","system_id":"levelo_inurba_marseille","lat":43.2306,"lon":5.3549,"is_reserved":false,"is_disabled":false,"rental_uris":{"android":"levelo://app?vid=9cbbab00-5320-4d52-8d7f-bad878bc90ea","ios":"levelo://app?vid=9cbbab00-5320-4d52-8d7f-bad878bc90ea"},"vehicle_type_id":"4","last_reported":1727885447,"current_range_meters":22800,"station_id":"cpo3342slgdg3j2ifvpg","pricing_plan_id":"cebpf4jnsgd1na2vs0mg"},{"bike_id":"f3821704-2877-494b-9b06-b184970799f8","system_id":"levelo_inurba_marseille","lat":43.32112,"lon":5.36781,"is_reserved":false,"is_disabled":false,"rental_uris":{"android":"levelo://app?vid=f3821704-2877-494b-9b06-b184970799f8","ios":"levelo://app?vid=f3821704-2877-494b-9b06-b184970799f8"},"vehicle_type_id":"4","last_reported":1727885447,"current_range_meters":36400,"station_id":"ce4bhrh2rcd13ifvqhug","pricing_plan_id":"cebpf4jnsgd1na2vs0mg"},{"bike_id":"c4f40e04-e54a-42fd-8a35-ff0046eeb0e5","system_id":"levelo_inurba_marseille","lat":43.29189,"lon":5.39318,"is_reserved":false,"is_disabled":false,"rental_uris":{"android":"levelo://app?vid=c4f40e04-e54a-42fd-8a35-ff0046eeb0e5","ios":"levelo://app?vid=c4f40e04-e54a-42fd-8a35-ff0046eeb0e5"},"vehicle_type_id":"4","last_reported":1727885447,"current_range_meters":34800,"station_id":"ce4bh192rcd13ifvqdd0","pricing_plan_id":"cebpf4jnsgd1na2vs0mg"},{"bike_id":"ff2b13f2-0faa-44b5-870c-f95680f082be","system_id":"levelo_inurba_marseille","lat":43.29094,"lon":5.3813,"is_reserved":false,"is_disabled":false,"rental_uris":{"android":"levelo://app?vid=ff2b13f2-0faa-44b5-870c-f95680f082be","ios":"levelo://app?vid=ff2b13f2-0faa-44b5-870c-f95680f082be"},"vehicle_type_id":"4","last_reported":1727885447,"current_range_meters":11600,"station_id":"ce4bh512rcd13ifvqe2g","pricing_plan_id":"cebpf4jnsgd1na2vs0mg"},{"bike_id":"90d96c75-d9b6-40ed-8629-35d954a2f444","system_id":"levelo_inurba_marseille","lat":43.28363,"lon":5.38109,"is_reserved":false,"is_disabled":false,"rental_uris":{"android":"levelo://app?vid=90d96c75-d9b6-40ed-8629-35d954a2f444","ios":"levelo://app?vid=90d96c75-d9b6-40ed-8629-35d954a2f444"},"vehicle_type_id":"4","last_reported":1727885447,"current_range_meters":1200,"station_id":"ce4bh412rcd13ifvqdr0","pricing_plan_id":"cebpf4jnsgd1na2vs0mg"},{"bike_id":"6a1f33ff-2986-4f82-b257-aa492c1c8f53","system_id":"levelo_inurba_marseille","lat":43.33026,"lon":5.39038,"is_reserved":false,"is_disabled":false,"rental_uris":{"android":"levelo://app?vid=6a1f33ff-2986-4f82-b257-aa492c1c8f53","ios":"levelo://app?vid=6a1f33ff-2986-4f82-b257-aa492c1c8f53"},"vehicle_type_id":"4","last_reported":1727885447,"current_range_meters":40000,"station_id":"ce4bhr92rcd13ifvqhrg","pricing_plan_id":"cebpf4jnsgd1na2vs0mg"},{"bike_id":"db0fac4a-7096-4f23-a7bf-6f1871044711","system_id":"levelo_inurba_marseille","lat":43.29539,"lon":5.38541,"is_reserved":false,"is_disabled":false,"rental_uris":{"android":"levelo://app?vid=db0fac4a-7096-4f23-a7bf-6f1871044711","ios":"levelo://app?vid=db0fac4a-7096-4f23-a7bf-6f1871044711"},"vehicle_type_id":"4","last_reported":1727885447,"current_range_meters":34000,"station_id":"ce4bgih2rcd13ifvqba0","pricing_plan_id":"cebpf4jnsgd1na2vs0mg"},{"bike_id":"702ebf72-4cc0-443a-abf5-998152bc24a4","system_id":"levelo_inurba_marseille","lat":43.28272,"lon":5.35076,"is_reserved":false,"is_disabled":false,"rental_uris":{"android":"levelo://app?vid=702ebf72-4cc0-443a-abf5-998152bc24a4","ios":"levelo://app?vid=702ebf72-4cc0-443a-abf5-998152bc24a4"},"vehicle_type_id":"4","last_reported":1727885447,"current_range_meters":24000,"station_id":"ce4bhbp2rcd13ifvqerg","pricing_plan_id":"cebpf4jnsgd1na2vs0mg"},{"bike_id":"d293b7e1-cb5e-4735-9a5f-6750d9a02d3a","system_id":"levelo_inurba_marseille","lat":43.28614,"lon":5.35107,"is_reserved":false,"is_disabled":false,"rental_uris":{"android":"levelo://app?vid=d293b7e1-cb5e-4735-9a5f-6750d9a02d3a","ios":"levelo://app?vid=d293b7e1-cb5e-4735-9a5f-6750d9a02d3a"},"vehicle_type_id":"4","last_reported":1727885447,"current_range_meters":26000,"station_id":"ce4bhch2rcd13ifvqeug","pricing_plan_id":"cebpf4jnsgd1na2vs0mg"},{"bike_id":"ef3b1c2f-d9f8-4bb9-8080-17d0cf7d62ef","system_id":"levelo_inurba_marseille","lat":43.28038,"lon":5.36951,"is_reserved":false,"is_disabled":false,"rental_uris":{"android":"levelo://app?vid=ef3b1c2f-d9f8-4bb9-8080-17d0cf7d62ef","ios":"levelo://app?vid=ef3b1c2f-d9f8-4bb9-8080-17d0cf7d62ef"},"vehicle_type_id":"4","last_reported":1727885447,"current_range_meters":11200,"station_id":"ce4bha12rcd13ifvqef0","pricing_plan_id":"cebpf4jnsgd1na2vs0mg"},{"bike_id":"8647258f-6b54-40ac-8c7b-ea67ed702116","system_id":"levelo_inurba_marseille","lat":43.28442,"lon":5.39187,"is_reserved":false,"is_disabled":false,"rental_uris":{"android":"levelo://app?vid=8647258f-6b54-40ac-8c7b-ea67ed702116","ios":"levelo://app?vid=8647258f-6b54-40ac-8c7b-ea67ed702116"},"vehicle_type_id":"4","last_reported":1727885447,"current_range_meters":2800,"station_id":"ce4bhoh2rcd13ifvqh5g","pricing_plan_id":"cebpf4jnsgd1na2vs0mg"},{"bike_id":"56727131-269e-4431-9c3b-dda7a09c0dd5","system_id":"levelo_inurba_marseille","lat":43.29018,"lon":5.3864,"is_reserved":false,"is_disabled":false,"rental_uris":{"android":"levelo://app?vid=56727131-269e-4431-9c3b-dda7a09c0dd5","ios":"levelo://app?vid=56727131-269e-4431-9c3b-dda7a09c0dd5"},"vehicle_type_id":"4","last_reported":1727885447,"current_range_meters":9200,"station_id":"ce4bh4p2rcd13ifvqe0g","pricing_plan_id":"cebpf4jnsgd1na2vs0mg"},{"bike_id":"5ca4e94e-030e-431f-a321-406d576ad998","system_id":"levelo_inurba_marseille","lat":43.2799,"lon":5.41666,"is_reserved":false,"is_disabled":false,"rental_uris":{"android":"levelo://app?vid=5ca4e94e-030e-431f-a321-406d576ad998","ios":"levelo://app?vid=5ca4e94e-030e-431f-a321-406d576ad998"},"vehicle_type_id":"4","last_reported":1727885447,"current_range_meters":4400,"station_id":"ce4bho12rcd13ifvqh1g","pricing_plan_id":"cebpf4jnsgd1na2vs0mg"},{"bike_id":"19ee814a-6d97-4e02-987e-ea493d39da5d","system_id":"levelo_inurba_marseille","lat":43.29973,"lon":5.38468,"is_reserved":false,"is_disabled":false,"rental_uris":{"android":"levelo://app?vid=19ee814a-6d97-4e02-987e-ea493d39da5d","ios":"levelo://app?vid=19ee814a-6d97-4e02-987e-ea493d39da5d"},"vehicle_type_id":"4","last_reported":1727885447,"current_range_meters":6400,"station_id":"ce4bgj92rcd13ifvqbd0","pricing_plan_id":"cebpf4jnsgd1na2vs0mg"},{"bike_id":"9cda3384-859f-4686-aa4c-02b4f048fb03","system_id":"levelo_inurba_marseille","lat":43.28012,"lon":5.40899,"is_reserved":false,"is_disabled":false,"rental_uris":{"android":"levelo://app?vid=9cda3384-859f-4686-aa4c-02b4f048fb03","ios":"levelo://app?vid=9cda3384-859f-4686-aa4c-02b4f048fb03"},"vehicle_type_id":"4","last_reported":1727885447,"current_range_meters":28800,"station_id":"","pricing_plan_id":"cebpf4jnsgd1na2vs0mg"},{"bike_id":"81400d4e-7184-449f-ab85-6651c243ca6a","system_id":"levelo_inurba_marseille","lat":43.24806,"lon":5.37459,"is_reserved":false,"is_disabled":false,"rental_uris":{"android":"levelo://app?vid=81400d4e-7184-449f-ab85-6651c243ca6a","ios":"levelo://app?vid=81400d4e-7184-449f-ab85-6651c243ca6a"},"vehicle_type_id":"4","last_reported":1727885447,"current_range_meters":8400,"station_id":"ce4bhgh2rcd13ifvqfb0","pricing_plan_id":"cebpf4jnsgd1na2vs0mg"},{"bike_id":"21c9cd5f-d9bd-4cbc-9fb6-2738b3b1fc7f","system_id":"levelo_inurba_marseille","lat":43.27996,"lon":5.41667,"is_reserved":false,"is_disabled":false,"rental_uris":{"android":"levelo://app?vid=21c9cd5f-d9bd-4cbc-9fb6-2738b3b1fc7f","ios":"levelo://app?vid=21c9cd5f-d9bd-4cbc-9fb6-2738b3b1fc7f"},"vehicle_type_id":"4","last_reported":1727885447,"current_range_meters":7200,"station_id":"ce4bho12rcd13ifvqh1g","pricing_plan_id":"cebpf4jnsgd1na2vs0mg"},{"bike_id":"3eff907e-cabd-43fc-98fc-39394d4dc0ca","system_id":"levelo_inurba_marseille","lat":43.29784,"lon":5.39344,"is_reserved":false,"is_disabled":false,"rental_uris":{"android":"levelo://app?vid=3eff907e-cabd-43fc-98fc-39394d4dc0ca","ios":"levelo://app?vid=3eff907e-cabd-43fc-98fc-39394d4dc0ca"},"vehicle_type_id":"4","last_reported":1727885447,"current_range_meters":16000,"station_id":"chh1huq6cuj3fo74tm60","pricing_plan_id":"cebpf4jnsgd1na2vs0mg"},{"bike_id":"3f5420e6-9d65-43e4-8fbb-09a5220045cf","system_id":"levelo_inurba_marseille","lat":43.2706,"lon":5.40266,"is_reserved":false,"is_disabled":false,"rental_uris":{"android":"levelo://app?vid=3f5420e6-9d65-43e4-8fbb-09a5220045cf","ios":"levelo://app?vid=3f5420e6-9d65-43e4-8fbb-09a5220045cf"},"vehicle_type_id":"4","last_reported":1727885447,"current_range_meters":38800,"station_id":"ce4bhk92rcd13ifvqgc0","pricing_plan_id":"cebpf4jnsgd1na2vs0mg"},{"bike_id":"9f4f039b-24ef-47a9-b912-d79b08ea7282","system_id":"levelo_inurba_marseille","lat":43.29439,"lon":5.39745,"is_reserved":false,"is_disabled":false,"rental_uris":{"android":"levelo://app?vid=9f4f039b-24ef-47a9-b912-d79b08ea7282","ios":"levelo://app?vid=9f4f039b-24ef-47a9-b912-d79b08ea7282"},"vehicle_type_id":"4","last_reported":1727885447,"current_range_meters":7200,"station_id":"ce4bh3h2rcd13ifvqdo0","pricing_plan_id":"cebpf4jnsgd1na2vs0mg"},{"bike_id":"2fc5050f-b036-4255-a193-23eec2fec7cc","system_id":"levelo_inurba_marseille","lat":43.23062,"lon":5.35489,"is_reserved":false,"is_disabled":false,"rental_uris":{"android":"levelo://app?vid=2fc5050f-b036-4255-a193-23eec2fec7cc","ios":"levelo://app?vid=2fc5050f-b036-4255-a193-23eec2fec7cc"},"vehicle_type_id":"4","last_reported":1727885447,"current_range_meters":21600,"station_id":"cpo3342slgdg3j2ifvpg","pricing_plan_id":"cebpf4jnsgd1na2vs0mg"},{"bike_id":"510a29db-4863-4bd1-8975-fb0cfdca047f","system_id":"levelo_inurba_marseille","lat":43.24078,"lon":5.37765,"is_reserved":false,"is_disabled":false,"rental_uris":{"android":"levelo://app?vid=510a29db-4863-4bd1-8975-fb0cfdca047f","ios":"levelo://app?vid=510a29db-4863-4bd1-8975-fb0cfdca047f"},"vehicle_type_id":"4","last_reported":1727885447,"current_range_meters":13600,"station_id":"ce4bhnp2rcd13ifvqgvg","pricing_plan_id":"cebpf4jnsgd1na2vs0mg"},{"bike_id":"e807cb38-9c0a-466d-8d8d-ba522e91e1d8","system_id":"levelo_inurba_marseille","lat":43.29514,"lon":5.39406,"is_reserved":false,"is_disabled":false,"rental_uris":{"android":"levelo://app?vid=e807cb38-9c0a-466d-8d8d-ba522e91e1d8","ios":"levelo://app?vid=e807cb38-9c0a-466d-8d8d-ba522e91e1d8"},"vehicle_type_id":"4","last_reported":1727885447,"current_range_meters":32400,"station_id":"ce4bh292rcd13ifvqdf0","pricing_plan_id":"cebpf4jnsgd1na2vs0mg"},{"bike_id":"9b5f1453-97d2-4d8e-b2b8-72bb9d3d1523","system_id":"levelo_inurba_marseille","lat":43.31111,"lon":5.37779,"is_reserved":false,"is_disabled":false,"rental_uris":{"android":"levelo://app?vid=9b5f1453-97d2-4d8e-b2b8-72bb9d3d1523","ios":"levelo://app?vid=9b5f1453-97d2-4d8e-b2b8-72bb9d3d1523"},"vehicle_type_id":"4","last_reported":1727885447,"current_range_meters":32400,"station_id":"ce4bgt92rcd13ifvqcg0","pricing_plan_id":"cebpf4jnsgd1na2vs0mg"},{"bike_id":"0974f99a-851e-4a71-aab1-0f82480fdd50","system_id":"levelo_inurba_marseille","lat":43.3233,"lon":5.40632,"is_reserved":false,"is_disabled":false,"rental_uris":{"android":"levelo://app?vid=0974f99a-851e-4a71-aab1-0f82480fdd50","ios":"levelo://app?vid=0974f99a-851e-4a71-aab1-0f82480fdd50"},"vehicle_type_id":"4","last_reported":1727885447,"current_range_meters":1600,"station_id":"ce4bhq92rcd13ifvqhjg","pricing_plan_id":"cebpf4jnsgd1na2vs0mg"},{"bike_id":"00d523e4-b4f1-476e-8995-c140d1b258f3","system_id":"levelo_inurba_marseille","lat":43.292389,"lon":5.366098,"is_reserved":false,"is_disabled":false,"rental_uris":{"android":"levelo://app?vid=00d523e4-b4f1-476e-8995-c140d1b258f3","ios":"levelo://app?vid=00d523e4-b4f1-476e-8995-c140d1b258f3"},"vehicle_type_id":"4","last_reported":1727885447,"current_range_meters":14400,"station_id":"ce4bh392rcd13ifvqdl0","pricing_plan_id":"cebpf4jnsgd1na2vs0mg"},{"bike_id":"6c82f6aa-a717-47df-8635-e8cc24ddd1fe","system_id":"levelo_inurba_marseille","lat":43.28047,"lon":5.40985,"is_reserved":false,"is_disabled":false,"rental_uris":{"android":"levelo://app?vid=6c82f6aa-a717-47df-8635-e8cc24ddd1fe","ios":"levelo://app?vid=6c82f6aa-a717-47df-8635-e8cc24ddd1fe"},"vehicle_type_id":"4","last_reported":1727885447,"current_range_meters":2800,"station_id":"","pricing_plan_id":"cebpf4jnsgd1na2vs0mg"},{"bike_id":"42cb0a80-5bdd-4fdd-8ecc-a615443e7f80","system_id":"levelo_inurba_marseille","lat":43.301573,"lon":5.380741,"is_reserved":false,"is_disabled":false,"rental_uris":{"android":"levelo://app?vid=42cb0a80-5bdd-4fdd-8ecc-a615443e7f80","ios":"levelo://app?vid=42cb0a80-5bdd-4fdd-8ecc-a615443e7f80"},"vehicle_type_id":"4","last_reported":1727885447,"current_range_meters":34000,"station_id":"chh1huq6cuj3fo74tm60","pricing_plan_id":"cebpf4jnsgd1na2vs0mg"},{"bike_id":"3e508286-5206-4bb4-bb17-254819450ebc","system_id":"levelo_inurba_marseille","lat":43.30455,"lon":5.36667,"is_reserved":false,"is_disabled":false,"rental_uris":{"android":"levelo://app?vid=3e508286-5206-4bb4-bb17-254819450ebc","ios":"levelo://app?vid=3e508286-5206-4bb4-bb17-254819450ebc"},"vehicle_type_id":"4","last_reported":1727885447,"current_range_meters":35200,"station_id":"ce4bgrp2rcd13ifvqc9g","pricing_plan_id":"cebpf4jnsgd1na2vs0mg"},{"bike_id":"aba93523-7104-4c08-b121-839871ed7466","system_id":"levelo_inurba_marseille","lat":43.3014,"lon":5.38783,"is_reserved":false,"is_disabled":false,"rental_uris":{"android":"levelo://app?vid=aba93523-7104-4c08-b121-839871ed7466","ios":"levelo://app?vid=aba93523-7104-4c08-b121-839871ed7466"},"vehicle_type_id":"4","last_reported":1727885447,"current_range_meters":38800,"station_id":"ce4bghh2rcd13ifvqb60","pricing_plan_id":"cebpf4jnsgd1na2vs0mg"},{"bike_id":"04c7b448-5a87-4c4f-ab2f-4f8d1d4f1ef5","system_id":"levelo_inurba_marseille","lat":43.2861,"lon":5.35106,"is_reserved":false,"is_disabled":false,"rental_uris":{"android":"levelo://app?vid=04c7b448-5a87-4c4f-ab2f-4f8d1d4f1ef5","ios":"levelo://app?vid=04c7b448-5a87-4c4f-ab2f-4f8d1d4f1ef5"},"vehicle_type_id":"4","last_reported":1727885447,"current_range_meters":17600,"station_id":"ce4bhch2rcd13ifvqeug","pricing_plan_id":"cebpf4jnsgd1na2vs0mg"},{"bike_id":"56c566bc-6cbe-4bc5-ad98-cfb3ffd15830","system_id":"levelo_inurba_marseille","lat":43.31991,"lon":5.38141,"is_reserved":false,"is_disabled":false,"rental_uris":{"android":"levelo://app?vid=56c566bc-6cbe-4bc5-ad98-cfb3ffd15830","ios":"levelo://app?vid=56c566bc-6cbe-4bc5-ad98-cfb3ffd15830"},"vehicle_type_id":"4","last_reported":1727885447,"current_range_meters":39200,"station_id":"ce4bhr12rcd13ifvqhpg","pricing_plan_id":"cebpf4jnsgd1na2vs0mg"},{"bike_id":"66cb437d-d1d2-4192-b49e-be9f42b75c9a","system_id":"levelo_inurba_marseille","lat":43.23194,"lon":5.35545,"is_reserved":false,"is_disabled":false,"rental_uris":{"android":"levelo://app?vid=66cb437d-d1d2-4192-b49e-be9f42b75c9a","ios":"levelo://app?vid=66cb437d-d1d2-4192-b49e-be9f42b75c9a"},"vehicle_type_id":"4","last_reported":1727885447,"current_range_meters":28400,"station_id":"ce4bhu92rcd13ifvqi70","pricing_plan_id":"cebpf4jnsgd1na2vs0mg"},{"bike_id":"adfd380d-9f47-4d78-a77e-f5c45b7db667","system_id":"levelo_inurba_marseille","lat":43.29902,"lon":5.38145,"is_reserved":false,"is_disabled":false,"rental_uris":{"android":"levelo://app?vid=adfd380d-9f47-4d78-a77e-f5c45b7db667","ios":"levelo://app?vid=adfd380d-9f47-4d78-a77e-f5c45b7db667"},"vehicle_type_id":"4","last_reported":1727885447,"current_range_meters":33600,"station_id":"ce4bgj12rcd13ifvqbc0","pricing_plan_id":"cebpf4jnsgd1na2vs0mg"},