{"last_updated":1725970688,"ttl":30,"version":"2.2","data":{"bikes":[{"bike_id":"0fb61729-575d-4358-b502-bf6cf90618bd","system_id":"levelo_inurba_marseille","lat":43.260331,"lon":5.375454,"is_reserved":false,"is_disabled":false,"rental_uris":{"android":"levelo://app?vid=0fb61729-575d-4358-b502-bf6cf90618bd","ios":"levelo://app?vid=0fb61729-575d-4358-b502-bf6cf90618bd"},"vehicle_type_id":"4","last_reported":1725970688,"current_range_meters":30400,"station_id":"","pricing_plan_id":"cebpf4jnsgd1na2vs0mg"},{"bike_id":"893900fa-905b-44d9-b4f5-8131c552abed","system_id":"levelo_inurba_marseille","lat":43.30534,"lon":5.36701,"is_reserved":false,"is_disabled":false,"rental_uris":{"android":"levelo://app?vid=893900fa-905b-44d9-b4f5-8131c552abed","ios":"levelo://app?vid=893900fa-905b-44d9-b4f5-8131c552abed"},"vehicle_type_id":"4","last_reported":1725970688,"current_range_meters":34800,"station_id":"ce4bgrp2rcd13ifvqc9g","pricing_plan_id":"cebpf4jnsgd1na2vs0mg"},{"bike_id":"8eeed150-e558-4e7e-8b3b-85be456ba9a6","system_id":"levelo_inurba_marseille","lat":43.29961,"lon":5.38503,"is_reserved":false,"is_disabled":false,"rental_uris":{"android":"levelo://app?vid=8eeed150-e558-4e7e-8b3b-85be456ba9a6","ios":"levelo://app?vid=8eeed150-e558-4e7e-8b3b-85be456ba9a6"},"vehicle_type_id":"4","last_reported":1725970688,"current_range_meters":25600,"station_id":"ce4bgj92rcd13ifvqbd0","pricing_plan_id":"cebpf4jnsgd1na2vs0mg"},{"bike_id":"bc30dbe3-2402-4b3a-b5da-8f5d9a126da2","system_id":"levelo_inurba_marseille","lat":43.25936,"lon":5.40901,"is_reserved":false,"is_disabled":false,"rental_uris":{"android":"levelo://app?vid=bc30dbe3-2402-4b3a-b5da-8f5d9a126da2","ios":"levelo://app?vid=bc30dbe3-2402-4b3a-b5da-8f5d9a126da2"},"vehicle_type_id":"4","last_reported":1725970688,"current_range_meters":25200,"station_id":"ce4bhm92rcd13ifvqglg","pricing_plan_id":"cebpf4jnsgd1na2vs0mg"},{"bike_id":"9938e91c-265b-40a5-a9ee-a8a818767b92","system_id":"levelo_inurba_marseille","lat":43.24665,"lon":5.3816,"is_reserved":false,"is_disabled":false,"rental_uris":{"android":"levelo://app?vid=9938e91c-265b-40a5-a9ee-a8a818767b92","ios":"levelo://app?vid=9938e91c-265b-40a5-a9ee-a8a818767b92"},"vehicle_type_id":"4","last_reported":1725970688,"current_range_meters":14400,"station_id":"ce4bhih2rcd13ifvqfr0","pricing_plan_id":"cebpf4jnsgd1na2vs0mg"},{"bike_id":"dce47342-aca1-4a7e-b8b6-23387cd20a97","system_id":"levelo_inurba_marseille","lat":43.30564,"lon":5.36695,"is_reserved":false,"is_disabled":false,"rental_uris":{"android":"levelo://app?vid=dce47342-aca1-4a7e-b8b6-23387cd20a97","ios":"levelo://app?vid=dce47342-aca1-4a7e-b8b6-23387cd20a97"},"vehicle_type_id":"4","last_reported":1725970688,"current_range_meters":32000,"station_id":"ce4bgrp2rcd13ifvqc9g","pricing_plan_id":"cebpf4jnsgd1na2vs0mg"},{"bike_id":"b02222ec-0387-4ff5-8918-29e62bcf5a98","system_id":"levelo_inurba_marseille","lat":43.32484,"lon":5.36572,"is_reserved":false,"is_disabled":false,"rental_uris":{"android":"levelo://app?vid=b02222ec-0387-4ff5-8918-29e62bcf5a98","ios":"levelo://app?vid=b02222ec-0387-4ff5-8918-29e62bcf5a98"},"vehicle_type_id":"4","last_reported":1725970688,"current_range_meters":20800,"station_id":"ce4bhs12rcd13ifvqhvg","pricing_plan_id":"cebpf4jnsgd1na2vs0mg"},{"bike_id":"25a734f0-5a58-49fa-9e2e-761a6040d468","system_id":"levelo_inurba_marseille","lat":43.23148,"lon":5.43715,"is_reserved":false,"is_disabled":false,"rental_uris":{"android":"levelo://app?vid=25a734f0-5a58-49fa-9e2e-761a6040d468","ios":"levelo://app?vid=25a734f0-5a58-49fa-9e2e-761a6040d468"},"vehicle_type_id":"4","last_reported":1725970688,"current_range_meters":28800,"station_id":"ce4bhmp2rcd13ifvqgog","pricing_plan_id":"cebpf4jnsgd1na2vs0mg"},{"bike_id":"273bfe13-bc71-40ca-9955-e31d49cb88e0","system_id":"levelo_inurba_marseille","lat":43.23956,"lon":5.36626,"is_reserved":false,"is_disabled":false,"rental_uris":{"android":"levelo://app?vid=273bfe13-bc71-40ca-9955-e31d49cb88e0","ios":"levelo://app?vid=273bfe13-bc71-40ca-9955-e31d49cb88e0"},"vehicle_type_id":"4","last_reported":1725970688,"current_range_meters":37600,"station_id":"ce4bhi12rcd13ifvqfp0","pricing_plan_id":"cebpf4jnsgd1na2vs0mg"},{"bike_id":"9bb555bb-acf7-44d8-a68b-c671619b7a5d","system_id":"levelo_inurba_marseille","lat":43.30548,"lon":5.36534,"is_reserved":false,"is_disabled":false,"rental_uris":{"android":"levelo://app?vid=9bb555bb-acf7-44d8-a68b-c671619b7a5d","ios":"levelo://app?vid=9bb555bb-acf7-44d8-a68b-c671619b7a5d"},"vehicle_type_id":"4","last_reported":1725970688,"current_range_meters":26000,"station_id":"ce4bgs12rcd13ifvqcag","pricing_plan_id":"cebpf4jnsgd1na2vs0mg"},{"bike_id":"8c4eda46-e4b3-4ccc-b695-331f8f6ee9f9","system_id":"levelo_inurba_marseille","lat":43.30182,"lon":5.3662,"is_reserved":false,"is_disabled":false,"rental_uris":{"android":"levelo://app?vid=8c4eda46-e4b3-4ccc-b695-331f8f6ee9f9","ios":"levelo://app?vid=8c4eda46-e4b3-4ccc-b695-331f8f6ee9f9"},"vehicle_type_id":"4","last_reported":1725970688,"current_range_meters":33600,"station_id":"ce4bgrh2rcd13ifvqc8g","pricing_plan_id":"cebpf4jnsgd1na2vs0mg"},{"bike_id":"16cd0dcf-4345-473e-bf5c-7be705310706","system_id":"levelo_inurba_marseille","lat":43.27068,"lon":5.42274,"is_reserved":false,"is_disabled":false,"rental_uris":{"android":"levelo://app?vid=16cd0dcf-4345-473e-bf5c-7be705310706","ios":"levelo://app?vid=16cd0dcf-4345-473e-bf5c-7be705310706"},"vehicle_type_id":"4","last_reported":1725970688,"current_range_meters":35200,"station_id":"ce4bhk92rcd13ifvqgb0","pricing_plan_id":"cebpf4jnsgd1na2vs0mg"},{"bike_id":"9c9ff9ee-5713-4fdd-8561-20dae85abb10","system_id":"levelo_inurba_marseille","lat":43.25829,"lon":5.39432,"is_reserved":false,"is_disabled":false,"rental_uris":{"android":"levelo://app?vid=9c9ff9ee-5713-4fdd-8561-20dae85abb10","ios":"levelo://app?vid=9c9ff9ee-5713-4fdd-8561-20dae85abb10"},"vehicle_type_id":"4","last_reported":1725970688,"current_range_meters":38800,"station_id":"ce4bhip2rcd13ifvqft0","pricing_plan_id":"cebpf4jnsgd1na2vs0mg"},{"bike_id":"c8572934-7649-420f-9da5-1b035f3efc3f","system_id":"levelo_inurba_marseille","lat":43.32358,"lon":5.38881,"is_reserved":false,"is_disabled":false,"rental_uris":{"android":"levelo://app?vid=c8572934-7649-420f-9da5-1b035f3efc3f","ios":"levelo://app?vid=c8572934-7649-420f-9da5-1b035f3efc3f"},"vehicle_type_id":"4","last_reported":1725970688,"current_range_meters":3200,"station_id":"ce4bhqp2rcd13ifvqhog","pricing_plan_id":"cebpf4jnsgd1na2vs0mg"},{"bike_id":"cb248203-7bba-44a0-bdad-883c3b37ecac","system_id":"levelo_inurba_marseille","lat":43.28971,"lon":5.37834,"is_reserved":false,"is_disabled":false,"rental_uris":{"android":"levelo://app?vid=cb248203-7bba-44a0-bdad-883c3b37ecac","ios":"levelo://app?vid=cb248203-7bba-44a0-bdad-883c3b37ecac"},"vehicle_type_id":"4","last_reported":1725970688,"current_range_meters":8400,"station_id":"ce4bh9p2rcd13ifvqed0","pricing_plan_id":"cebpf4jnsgd1na2vs0mg"},{"bike_id":"1042a875-c985-4f0c-a4c8-9621191880b0","system_id":"levelo_inurba_marseille","lat":43.29008,"lon":5.35608,"is_reserved":false,"is_disabled":false,"rental_uris":{"android":"levelo://app?vid=1042a875-c985-4f0c-a4c8-9621191880b0","ios":"levelo://app?vid=1042a875-c985-4f0c-a4c8-9621191880b0"},"vehicle_type_id":"4","last_reported":1725970688,"current_range_meters":27200,"station_id":"ce4bhb92rcd13ifvqen0","pricing_plan_id":"cebpf4jnsgd1na2vs0mg"},{"bike_id":"4c925165-ddd5-43f0-902a-1bd71856d5a3","system_id":"levelo_inurba_marseille","lat":43.32279,"lon":5.38291,"is_reserved":false,"is_disabled":false,"rental_uris":{"android":"levelo://app?vid=4c925165-ddd5-43f0-902a-1bd71856d5a3","ios":"levelo://app?vid=4c925165-ddd5-43f0-902a-1bd71856d5a3"},"vehicle_type_id":"4","last_reported":1725970688,"current_range_meters":31200,"station_id":"ce4bhr12rcd13ifvqhqg","pricing_plan_id":"cebpf4jnsgd1na2vs0mg"},{"bike_id":"73204a20-b243-4f3c-bf49-9b59588294d1","system_id":"levelo_inurba_marseille","lat":43.23147,"lon":5.43716,"is_reserved":false,"is_disabled":false,"rental_uris":{"android":"levelo://app?vid=73204a20-b243-4f3c-bf49-9b59588294d1","ios":"levelo://app?vid=73204a20-b243-4f3c-bf49-9b59588294d1"},"vehicle_type_id":"4","last_reported":1725970688,"current_range_meters":37600,"station_id":"ce4bhmp2rcd13ifvqgog","pricing_plan_id":"cebpf4jnsgd1na2vs0mg"},{"bike_id":"39cf39ef-ce3b-46b4-b74e-e91569ade52e","system_id":"levelo_inurba_marseille","lat":43.296824,"lon":5.37734,"is_reserved":false,"is_disabled":false,"rental_uris":{"android":"levelo://app?vid=39cf39ef-ce3b-46b4-b74e-e91569ade52e","ios":"levelo://app?vid=39cf39ef-ce3b-46b4-b74e-e91569ade52e"},"vehicle_type_id":"4","last_reported":1725970688,"current_range_meters":19600,"station_id":"ce4bgkh2rcd13ifvqbl0","pricing_plan_id":"cebpf4jnsgd1na2vs0mg"},{"bike_id":"05f9a698-6516-4b1d-a9a5-b5caddb4a76b","system_id":"levelo_inurba_marseille","lat":43.246423,"lon":5.388919,"is_reserved":false,"is_disabled":false,"rental_uris":{"android":"levelo://app?vid=05f9a698-6516-4b1d-a9a5-b5caddb4a76b","ios":"levelo://app?vid=05f9a698-6516-4b1d-a9a5-b5caddb4a76b"},"vehicle_type_id":"4","last_reported":1725970688,"current_range_meters":11200,"station_id":"ce4bgj12rcd13ifvqbc0","pricing_plan_id":"cebpf4jnsgd1na2vs0mg"},{"bike_id":"173a22a6-c6b3-4156-ad2b-4962f41c7342","system_id":"levelo_inurba_marseille","lat":43.30539,"lon":5.367,"is_reserved":false,"is_disabled":false,"rental_uris":{"android":"levelo://app?vid=173a22a6-c6b3-4156-ad2b-4962f41c7342","ios":"levelo://app?vid=173a22a6-c6b3-4156-ad2b-4962f41c7342"},"vehicle_type_id":"4","last_reported":1725970688,"current_range_meters":33600,"station_id":"ce4bgrp2rcd13ifvqc9g","pricing_plan_id":"cebpf4jnsgd1na2vs0mg"},{"bike_id":"98ce32b2-9eca-49c9-91b7-3a34fee446ab","system_id":"levelo_inurba_marseille","lat":43.30914,"lon":5.36845,"is_reserved":false,"is_disabled":false,"rental_uris":{"android":"levelo://app?vid=98ce32b2-9eca-49c9-91b7-3a34fee446ab","ios":"levelo://app?vid=98ce32b2-9eca-49c9-91b7-3a34fee446ab"},"vehicle_type_id":"4","last_reported":1725970688,"current_range_meters":14800,"station_id":"ce4bgn92rcd13ifvqbvg","pricing_plan_id":"cebpf4jnsgd1na2vs0mg"},{"bike_id":"a1778841-0826-4ebf-bde6-4b4d2a0acdc2","system_id":"levelo_inurba_marseille","lat":43.30887,"lon":5.37194,"is_reserved":false,"is_disabled":false,"rental_uris":{"android":"levelo://app?vid=a1778841-0826-4ebf-bde6-4b4d2a0acdc2","ios":"levelo://app?vid=a1778841-0826-4ebf-bde6-4b4d2a0acdc2"},"vehicle_type_id":"4","last_reported":1725970688,"current_range_meters":32800,"station_id":"ce4bguh2rcd13ifvqckg","pricing_plan_id":"cebpf4jnsgd1na2vs0mg"},{"bike_id":"5e541c14-39ab-4d22-9359-c27581dd3dd8","system_id":"levelo_inurba_marseille","lat":43.24388,"lon":5.37058,"is_reserved":false,"is_disabled":false,"rental_uris":{"android":"levelo://app?vid=5e541c14-39ab-4d22-9359-c27581dd3dd8","ios":"levelo://app?vid=5e541c14-39ab-4d22-9359-c27581dd3dd8"},"vehicle_type_id":"4","last_reported":1725970688,"current_range_meters":39200,"station_id":"ce4bhhh2rcd13ifvqfk0","pricing_plan_id":"cebpf4jnsgd1na2vs0mg"},{"bike_id":"412172b1-efd8-4ba3-9168-668e15fed85c","system_id":"levelo_inurba_marseille","lat":43.30887,"lon":5.39625,"is_reserved":false,"is_disabled":false,"rental_uris":{"android":"levelo://app?vid=412172b1-efd8-4ba3-9168-668e15fed85c","ios":"levelo://app?vid=412172b1-efd8-4ba3-9168-668e15fed85c"},"vehicle_type_id":"4","last_reported":1725970688,"current_range_meters":8800,"station_id":"ce4bh012rcd13ifvqcv0","pricing_plan_id":"cebpf4jnsgd1na2vs0mg"},{"bike_id":"46b6ace0-dac8-4fc2-a1a1-53ffd370f033","system_id":"levelo_inurba_marseille","lat":43.28616,"lon":5.35101,"is_reserved":false,"is_disabled":false,"rental_uris":{"android":"levelo://app?vid=46b6ace0-dac8-4fc2-a1a1-53ffd370f033","ios":"levelo://app?vid=46b6ace0-dac8-4fc2-a1a1-53ffd370f033"},"vehicle_type_id":"4","last_reported":1725970688,"current_range_meters":31200,"station_id":"ce4bhch2rcd13ifvqeug","pricing_plan_id":"cebpf4jnsgd1na2vs0mg"},{"bike_id":"478bf159-1f70-41a1-b67b-91df675fdfb5","system_id":"levelo_inurba_marseille","lat":43.337444,"lon":5.374475,"is_reserved":false,"is_disabled":false,"rental_uris":{"android":"levelo://app?vid=478bf159-1f70-41a1-b67b-91df675fdfb5","ios":"levelo://app?vid=478bf159-1f70-41a1-b67b-91df675fdfb5"},"vehicle_type_id":"4","last_reported":1725970688,"current_range_meters":39200,"station_id":"ce4bgj92rcd13ifvqbd0","pricing_plan_id":"cebpf4jnsgd1na2vs0mg"},{"bike_id":"dc510910-565b-462f-b748-bb94068c24fb","system_id":"levelo_inurba_marseille","lat":43.28943,"lon":5.36403,"is_reserved":false,"is_disabled":false,"rental_uris":{"android":"levelo://app?vid=dc510910-565b-462f-b748-bb94068c24fb","ios":"levelo://app?vid=dc510910-565b-462f-b748-bb94068c24fb"},"vehicle_type_id":"4","last_reported":1725970688,"current_range_meters":32400,"station_id":"ce4bhc92rcd13ifvqetg","pricing_plan_id":"cebpf4jnsgd1na2vs0mg"},{"bike_id":"30a7765a-ffad-477c-801e-024655e1f362","system_id":"levelo_inurba_marseille","lat":43.27683,"lon":5.38295,"is_reserved":false,"is_disabled":false,"rental_uris":{"android":"levelo://app?vid=30a7765a-ffad-477c-801e-024655e1f362","ios":"levelo://app?vid=30a7765a-ffad-477c-801e-024655e1f362"},"vehicle_type_id":"4","last_reported":1725970688,"current_range_meters":25200,"station_id":"ce4bha12rcd13ifvqee0","pricing_plan_id":"cebpf4jnsgd1na2vs0mg"},{"bike_id":"12872647-4372-4cf2-9fc5-598f616cb55c","system_id":"levelo_inurba_marseille","lat":43.24085,"lon":5.37757,"is_reserved":false,"is_disabled":false,"rental_uris":{"android":"levelo://app?vid=12872647-4372-4cf2-9fc5-598f616cb55c","ios":"levelo://app?vid=12872647-4372-4cf2-9fc5-598f616cb55c"},"vehicle_type_id":"4","last_reported":1725970688,"current_range_meters":22400,"station_id":"ce4bhnp2rcd13ifvqgvg","pricing_plan_id":"cebpf4jnsgd1na2vs0mg"},{"bike_id":"8f7e7c6c-886c-4dbc-9b1a-c784a392ed20","system_id":"levelo_inurba_marseille","lat":43.2687,"lon":5.39428,"is_reserved":false,"is_disabled":false,"rental_uris":{"android":"levelo://app?vid=8f7e7c6c-886c-4dbc-9b1a-c784a392ed20","ios":"levelo://app?vid=8f7e7c6c-886c-4dbc-9b1a-c784a392ed20"},"vehicle_type_id":"4","last_reported":1725970688,"current_range_meters":8400,"station_id":"","pricing_plan_id":"cebpf4jnsgd1na2vs0mg"},{"bike_id":"a49c6fe7-1758-4be1-ab01-ceef53c84ab6","system_id":"levelo_inurba_marseille","lat":43.28439,"lon":5.39203,"is_reserved":false,"is_disabled":false,"rental_uris":{"android":"levelo://app?vid=a49c6fe7-1758-4be1-ab01-ceef53c84ab6","ios":"levelo://app?vid=a49c6fe7-1758-4be1-ab01-ceef53c84ab6"},"vehicle_type_id":"4","last_reported":1725970688,"current_range_meters":29600,"station_id":"ce4bhoh2rcd13ifvqh5g","pricing_plan_id":"cebpf4jnsgd1na2vs0mg"},{"bike_id":"d0a22151-5873-4516-ad59-35801290152e","system_id":"levelo_inurba_marseille","lat":43.23187,"lon":5.35553,"is_reserved":false,"is_disabled":false,"rental_uris":{"android":"levelo://app?vid=d0a22151-5873-4516-ad59-35801290152e","ios":"levelo://app?vid=d0a22151-5873-4516-ad59-35801290152e"},"vehicle_type_id":"4","last_reported":1725970688,"current_range_meters":9600,"station_id":"ce4bhu92rcd13ifvqi70","pricing_plan_id":"cebpf4jnsgd1na2vs0mg"},{"bike_id":"9645b977-00ba-4b4d-afbd-5973410e0e09","system_id":"levelo_inurba_marseille","lat":43.29515,"lon":5.3903,"is_reserved":false,"is_disabled":false,"rental_uris":{"android":"levelo://app?vid=9645b977-00ba-4b4d-afbd-5973410e0e09","ios":"levelo://app?vid=9645b977-00ba-4b4d-afbd-5973410e0e09"},"vehicle_type_id":"4","last_reported":1725970688,"current_range_meters":30800,"station_id":"ce4bh3p2rcd13ifvqdp0","pricing_plan_id":"cebpf4jnsgd1na2vs0mg"},{"bike_id":"f374986e-b07a-4d6a-bc45-a034f85e65ea","system_id":"levelo_inurba_marseille","lat":43.29418,"lon":5.38634,"is_reserved":false,"is_disabled":false,"rental_uris":{"android":"levelo://app?vid=f374986e-b07a-4d6a-bc45-a034f85e65ea","ios":"levelo://app?vid=f374986e-b07a-4d6a-bc45-a034f85e65ea"},"vehicle_type_id":"4","last_reported":1725970688,"current_range_meters":18000,"station_id":"ce4bh2h2rcd13ifvqdh0","pricing_plan_id":"cebpf4jnsgd1na2vs0mg"},{"bike_id":"fc0cd5e0-d966-4d65-b735-db7ce384497d","system_id":"levelo_inurba_marseille","lat":43.30971,"lon":5.40056,"is_reserved":false,"is_disabled":false,"rental_uris":{"android":"levelo://app?vid=fc0cd5e0-d966-4d65-b735-db7ce384497d","ios":"levelo://app?vid=fc0cd5e0-d966-4d65-b735-db7ce384497d"},"vehicle_type_id":"4","last_reported":1725970688,"current_range_meters":9200,"station_id":"ce4bgvp2rcd13ifvqct0","pricing_plan_id":"cebpf4jnsgd1na2vs0mg"},{"bike_id":"7c535371-a6c1-4cd3-9766-d26c2a070a3d","system_id":"levelo_inurba_marseille","lat":43.26495,"lon":5.39551,"is_reserved":false,"is_disabled":false,"rental_uris":{"android":"levelo://app?vid=7c535371-a6c1-4cd3-9766-d26c2a070a3d","ios":"levelo://app?vid=7c535371-a6c1-4cd3-9766-d26c2a070a3d"},"vehicle_type_id":"4","last_reported":1725970688,"current_range_meters":32800,"station_id":"ce4bhi12rcd13ifvqfq0","pricing_plan_id":"cebpf4jnsgd1na2vs0mg"},{"bike_id":"3583891c-3244-4033-84d8-d4fdc28dd316","system_id":"levelo_inurba_marseille","lat":43.25942,"lon":5.40896,"is_reserved":false,"is_disabled":false,"rental_uris":{"android":"levelo://app?vid=3583891c-3244-4033-84d8-d4fdc28dd316","ios":"levelo://app?vid=3583891c-3244-4033-84d8-d4fdc28dd316"},"vehicle_type_id":"4","last_reported":1725970688,"current_range_meters":25200,"station_id":"ce4bhm92rcd13ifvqglg","pricing_plan_id":"cebpf4jnsgd1na2vs0mg"},{"bike_id":"47383cd3-6119-4304-bb3a-0a9a3634a1f1","system_id":"levelo_inurba_marseille","lat":43.23144,"lon":5.43712,"is_reserved":false,"is_disabled":false,"rental_uris":{"android":"levelo://app?vid=47383cd3-6119-4304-bb3a-0a9a3634a1f1","ios":"levelo://app?vid=47383cd3-6119-4304-bb3a-0a9a3634a1f1"},"vehicle_type_id":"4","last_reported":1725970688,"current_range_meters":16000,"station_id":"ce4bhmp2rcd13ifvqgog","pricing_plan_id":"cebpf4jnsgd1na2vs0mg"},{"bike_id":"a4d5373b-202a-41bc-a6de-150b9afc8bf5","system_id":"levelo_inurba_marseille","lat":43.28617,"lon":5.35104,"is_reserved":false,"is_disabled":false,"rental_uris":{"android":"levelo://app?vid=a4d5373b-202a-41bc-a6de-150b9afc8bf5","ios":"levelo://app?vid=a4d5373b-202a-41bc-a6de-150b9afc8bf5"},"vehicle_type_id":"4","last_reported":1725970688,"current_range_meters":36800,"station_id":"ce4bhch2rcd13ifvqeug","pricing_plan_id":"cebpf4jnsgd1na2vs0mg"},{"bike_id":"4a522021-3553-4e5a-832d-29b06146dd15","system_id":"levelo_inurba_marseille","lat":43.26216,"lon":5.37442,"is_reserved":false,"is_disabled":false,"rental_uris":{"android":"levelo://app?vid=4a522021-3553-4e5a-832d-29b06146dd15","ios":"levelo://app?vid=4a522021-3553-4e5a-832d-29b06146dd15"},"vehicle_type_id":"4","last_reported":1725970688,"current_range_meters":4400,"station_id":"ce4bhgp2rcd13ifvqfc0","pricing_plan_id":"cebpf4jnsgd1na2vs0mg"},{"bike_id":"4e92e754-f3e9-4c2f-b55b-bae81ed7859e","system_id":"levelo_inurba_marseille","lat":43.2873,"lon":5.37901,"is_reserved":false,"is_disabled":false,"rental_uris":{"android":"levelo://app?vid=4e92e754-f3e9-4c2f-b55b-bae81ed7859e","ios":"levelo://app?vid=4e92e754-f3e9-4c2f-b55b-bae81ed7859e"},"vehicle_type_id":"4","last_reported":1725970688,"current_range_meters":19200,"station_id":"ce4bh9p2rcd13ifvqec0","pricing_plan_id":"cebpf4jnsgd1na2vs0mg"},{"bike_id":"9ca1b1ab-7330-4196-8f28-0317ed1181a4","system_id":"levelo_inurba_marseille","lat":43.29374,"lon":5.37876,"is_reserved":false,"is_disabled":false,"rental_uris":{"android":"levelo://app?vid=9ca1b1ab-7330-4196-8f28-0317ed1181a4","ios":"levelo://app?vid=9ca1b1ab-7330-4196-8f28-0317ed1181a4"},"vehicle_type_id":"4","last_reported":1725970688,"current_range_meters":22400,"station_id":"ce4bgjh2rcd13ifvqbf0","pricing_plan_id":"cebpf4jnsgd1na2vs0mg"},{"bike_id":"694fa979-5d79-423d-87a5-27d4438d57b4","system_id":"levelo_inurba_marseille","lat":43.27494,"lon":5.42446,"is_reserved":false,"is_disabled":false,"rental_uris":{"android":"levelo://app?vid=694fa979-5d79-423d-87a5-27d4438d57b4","ios":"levelo://app?vid=694fa979-5d79-423d-87a5-27d4438d57b4"},"vehicle_type_id":"4","last_reported":1725970688,"current_range_meters":11200,"station_id":"ce4bhn92rcd13ifvqgrg","pricing_plan_id":"cebpf4jnsgd1na2vs0mg"},{"bike_id":"b06acfd0-add7-4852-96d8-8fa4cc066522","system_id":"levelo_inurba_marseille","lat":43.337444,"lon":5.374475,"is_reserved":false,"is_disabled":false,"rental_uris":{"android":"levelo://app?vid=b06acfd0-add7-4852-96d8-8fa4cc066522","ios":"levelo://app?vid=b06acfd0-add7-4852-96d8-8fa4cc066522"},"vehicle_type_id":"4","last_reported":1725970688,"current_range_meters":26800,"station_id":"","pricing_plan_id":"cebpf4jnsgd1na2vs0mg"},{"bike_id":"dc380d7a-b07e-433b-be93-692cf52711e0","system_id":"levelo_inurba_marseille","lat":43.25587,"lon":5.38233,"is_reserved":false,"is_disabled":false,"rental_uris":{"android":"levelo://app?vid=dc380d7a-b07e-433b-be93-692cf52711e0","ios":"levelo://app?vid=dc380d7a-b07e-433b-be93-692cf52711e0"},"vehicle_type_id":"4","last_reported":1725970688,"current_range_meters":12000,"station_id":"ce4bhih2rcd13ifvqfs0","pricing_plan_id":"cebpf4jnsgd1na2vs0mg"},{"bike_id":"8dd3632e-65f5-43c6-85ba-21fc2d593e80","system_id":"levelo_inurba_marseille","lat":43.28482,"lon":5.37469,"is_reserved":false,"is_disabled":false,"rental_uris":{"android":"levelo://app?vid=8dd3632e-65f5-43c6-85ba-21fc2d593e80","ios":"levelo://app?vid=8dd3632e-65f5-43c6-85ba-21fc2d593e80"},"vehicle_type_id":"4","last_reported":1725970688,"current_range_meters":3600,"station_id":"ce4bh412rcd13ifvqds0","pricing_plan_id":"cebpf4jnsgd1na2vs0mg"},{"bike_id":"730f1596-4499-46bb-bc0b-165e5703bfb2","system_id":"levelo_inurba_marseille","lat":43.28268,"lon":5.3505,"is_reserved":false,"is_disabled":false,"rental_uris":{"android":"levelo://app?vid=730f1596-4499-46bb-bc0b-165e5703bfb2","ios":"levelo://app?vid=730f1596-4499-46bb-bc0b-165e5703bfb2"},"vehicle_type_id":"4","last_reported":1725970688,"current_range_meters":39200,"station_id":"ce4bhbp2rcd13ifvqerg","pricing_plan_id":"cebpf4jnsgd1na2vs0mg"},{"bike_id":"83930c7c-b407-4eb6-addd-0120d359ab00","system_id":"levelo_inurba_marseille","lat":43.29903,"lon":5.43665,"is_reserved":false,"is_disabled":false,"rental_uris":{"android":"levelo://app?vid=83930c7c-b407-4eb6-addd-0120d359ab00","ios":"levelo://app?vid=83930c7c-b407-4eb6-addd-0120d359ab00"},"vehicle_type_id":"4","last_reported":1725970688,"current_range_meters":10800,"station_id":"ce4bhpp2rcd13ifvqhfg","pricing_plan_id":"cebpf4jnsgd1na2vs0mg"},{"bike_id":"8b40030c-ec2b-4a3a-9440-f33623f1984c","system_id":"levelo_inurba_marseille","lat":43.28461,"lon":5.35894,"is_reserved":false,"is_disabled":false,"rental_uris":{"android":"levelo://app?vid=8b40030c-ec2b-4a3a-9440-f33623f1984c","ios":"levelo://app?vid=8b40030c-ec2b-4a3a-9440-f33623f1984c"},"vehicle_type_id":"4","last_reported":1725970688,"current_range_meters":37600,"station_id":"ce4bhah2rcd13ifvqei0","pricing_plan_id":"cebpf4jnsgd1na2vs0mg"},{"bike_id":"a1e52c1c-3844-4829-9d7b-ff0033a9b77d","system_id":"levelo_inurba_marseille","lat":43.28416,"lon":5.34992,"is_reserved":false,"is_disabled":false,"rental_uris":{"android":"levelo://app?vid=a1e52c1c-3844-4829-9d7b-ff0033a9b77d","ios":"levelo://app?vid=a1e52c1c-3844-4829-9d7b-ff0033a9b77d"},"vehicle_type_id":"4","last_reported":1725970688,"current_range_meters":38800,"station_id":"ce4bhbh2rcd13ifvqepg","pricing_plan_id":"cebpf4jnsgd1na2vs0mg"},{"bike_id":"edecca38-9bda-4dd2-b5b1-de69f49a524a","system_id":"levelo_inurba_marseille","lat":43.30536,"lon":5.36707,"is_reserved":false,"is_disabled":false,"rental_uris":{"android":"levelo://app?vid=edecca38-9bda-4dd2-b5b1-de69f49a524a","ios":"levelo://app?vid=edecca38-9bda-4dd2-b5b1-de69f49a524a"},"vehicle_type_id":"4","last_reported":1725970688,"current_range_meters":16400,"station_id":"ce4bgrp2rcd13ifvqc9g","pricing_plan_id":"cebpf4jnsgd1na2vs0mg"},{"bike_id":"2d70fbeb-4d16-46ff-81c2-56d0fb2fbf23","system_id":"levelo_inurba_marseille","lat":43.28472,"lon":5.38422,"is_reserved":false,"is_disabled":false,"rental_uris":{"android":"levelo://app?vid=2d70fbeb-4d16-46ff-81c2-56d0fb2fbf23","ios":"levelo://app?vid=2d70fbeb-4d16-46ff-81c2-56d0fb2fbf23"},"vehicle_type_id":"4","last_reported":1725970688,"current_range_meters":13600,"station_id":"ce4bh512rcd13ifvqe3g","pricing_plan_id":"cebpf4jnsgd1na2vs0mg"},{"bike_id":"e7b5c120-4d2f-41a5-98e9-b4d8ee35825a","system_id":"levelo_inurba_marseille","lat":43.311696,"lon":5.387194,"is_reserved":false,"is_disabled":false,"rental_uris":{"android":"levelo://app?vid=e7b5c120-4d2f-41a5-98e9-b4d8ee35825a","ios":"levelo://app?vid=e7b5c120-4d2f-41a5-98e9-b4d8ee35825a"},"vehicle_type_id":"4","last_reported":1725970688,"current_range_meters":28400,"station_id":"ce4bgv12rcd13ifvqcp0","pricing_plan_id":"cebpf4jnsgd1na2vs0mg"},{"bike_id":"1c4621cf-b204-42d4-8c99-af062d7e97b5","system_id":"levelo_inurba_marseille","lat":43.28619,"lon":5.35104,"is_reserved":false,"is_disabled":false,"rental_uris":{"android":"levelo://app?vid=1c4621cf-b204-42d4-8c99-af062d7e97b5","ios":"levelo://app?vid=1c4621cf-b204-42d4-8c99-af062d7e97b5"},"vehicle_type_id":"4","last_reported":1725970688,"current_range_meters":4400,"station_id":"ce4bhch2rcd13ifvqeug","pricing_plan_id":"cebpf4jnsgd1na2vs0mg"},{"bike_id":"661517d9-abb0-4a48-8502-f12b1d5e3923","system_id":"levelo_inurba_marseille","lat":43.281543,"lon":5.425653,"is_reserved":false,"is_disabled":false,"rental_uris":{"android":"levelo://app?vid=661517d9-abb0-4a48-8502-f12b1d5e3923","ios":"levelo://app?vid=661517d9-abb0-4a48-8502-f12b1d5e3923"},"vehicle_type_id":"4","last_reported":1725970688,"current_range_meters":29600,"station_id":"ce4bhnh2rcd13ifvqgug","pricing_plan_id":"cebpf4jnsgd1na2vs0mg"},{"bike_id":"64f25725-e05b-4f29-8181-60e04b4ee309","system_id":"levelo_inurba_marseille","lat":43.24386,"lon":5.37063,"is_reserved":false,"is_disabled":false,"rental_uris":{"android":"levelo://app?vid=64f25725-e05b-4f29-8181-60e04b4ee309","ios":"levelo://app?vid=64f25725-e05b-4f29-8181-60e04b4ee309"},"vehicle_type_id":"4","last_reported":1725970688,"current_range_meters":6400,"station_id":"ce4bhhh2rcd13ifvqfk0","pricing_plan_id":"cebpf4jnsgd1na2vs0mg"},{"bike_id":"5b580bf9-61a6-4f12-b6ce-4cac0f423cdc","system_id":"levelo_inurba_marseille","lat":43.25001,"lon":5.38932,"is_reserved":false,"is_disabled":false,"rental_uris":{"android":"levelo://app?vid=5b580bf9-61a6-4f12-b6ce-4cac0f423cdc","ios":"levelo://app?vid=5b580bf9-61a6-4f12-b6ce-4cac0f423cdc"},"vehicle_type_id":"4","last_reported":1725970688,"current_range_meters":38800,"station_id":"ce4bhgp2rcd13ifvqfd0","pricing_plan_id":"cebpf4jnsgd1na2vs0mg"},{"bike_id":"1aa4492a-580a-450a-8d6a-872a23924447","system_id":"levelo_inurba_marseille","lat":43.28934,"lon":5.3663,"is_reserved":false,"is_disabled":false,"rental_uris":{"android":"levelo://app?vid=1aa4492a-580a-450a-8d6a-872a23924447","ios":"levelo://app?vid=1aa4492a-580a-450a-8d6a-872a23924447"},"vehicle_type_id":"4","last_reported":1725970688,"current_range_meters":23200,"station_id":"ce4bhap2rcd13ifvqek0","pricing_plan_id":"cebpf4jnsgd1na2vs0mg"},{"bike_id":"ba71fde6-330c-4694-b58a-6b28fa15c9ce","system_id":"levelo_inurba_marseille","lat":43.30467,"lon":5.37895,"is_reserved":false,"is_disabled":false,"rental_uris":{"android":"levelo://app?vid=ba71fde6-330c-4694-b58a-6b28fa15c9ce","ios":"levelo://app?vid=ba71fde6-330c-4694-b58a-6b28fa15c9ce"},"vehicle_type_id":"4","last_reported":1725970688,"current_range_meters":39200,"station_id":"ce4bgup2rcd13ifvqcn0","pricing_plan_id":"cebpf4jnsgd1na2vs0mg"},{"bike_id":"4fcb88af-d8cb-4c21-95cc-dbbe59be27be","system_id":"levelo_inurba_marseille","lat":43.31359,"lon":5.36726,"is_reserved":false,"is_disabled":false,"rental_uris":{"android":"levelo://app?vid=4fcb88af-d8cb-4c21-95cc-dbbe59be27be","ios":"levelo://app?vid=4fcb88af-d8cb-4c21-95cc-dbbe59be27be"},"vehicle_type_id":"4","last_reported":1725970688,"current_range_meters":30800,"station_id":"ce4bgr92rcd13ifvqc6g","pricing_plan_id":"cebpf4jnsgd1na2vs0mg"},{"bike_id":"6dd40849-ac08-41ab-8b04-8c84397d377e","system_id":"levelo_inurba_marseille","lat":43.27182,"lon":5.40999,"is_reserved":false,"is_disabled":false,"rental_uris":{"android":"levelo://app?vid=6dd40849-ac08-41ab-8b04-8c84397d377e","ios":"levelo://app?vid=6dd40849-ac08-41ab-8b04-8c84397d377e"},"vehicle_type_id":"4","last_reported":1725970688,"current_range_meters":28000,"station_id":"ce4bhl12rcd13ifvqgf0","pricing_plan_id":"cebpf4jnsgd1na2vs0mg"},{"bike_id":"35e60698-596c-4f8e-9c5b-f2842525c1ad","system_id":"levelo_inurba_marseille","lat":43.23181,"lon":5.39983,"is_reserved":false,"is_disabled":false,"rental_uris":{"android":"levelo://app?vid=35e60698-596c-4f8e-9c5b-f2842525c1ad","ios":"levelo://app?vid=35e60698-596c-4f8e-9c5b-f2842525c1ad"},"vehicle_type_id":"4","last_reported":1725970688,"current_range_meters":9200,"station_id":"ce4bhn12rcd13ifvqgqg","pricing_plan_id":"cebpf4jnsgd1na2vs0mg"},{"bike_id":"f6669759-f1f3-487e-a50a-caccf9bbdb6a","system_id":"levelo_inurba_marseille","lat":43.25943,"lon":5.40898,"is_reserved":false,"is_disabled":false,"rental_uris":{"android":"levelo://app?vid=f6669759-f1f3-487e-a50a-caccf9bbdb6a","ios":"levelo://app?vid=f6669759-f1f3-487e-a50a-caccf9bbdb6a"},"vehicle_type_id":"4","last_reported":1725970688,"current_range_meters":23200,"station_id":"ce4bhm92rcd13ifvqglg","pricing_plan_id":"cebpf4jnsgd1na2vs0mg"},{"bike_id":"3c6c0f4e-a3ab-4518-a08c-6f8d1166e07c","system_id":"levelo_inurba_marseille","lat":43.2315,"lon":5.43708,"is_reserved":false,"is_disabled":false,"rental_uris":{"android":"levelo://app?vid=3c6c0f4e-a3ab-4518-a08c-6f8d1166e07c","ios":"levelo://app?vid=3c6c0f4e-a3ab-4518-a08c-6f8d1166e07c"},"vehicle_type_id":"4","last_reported":1725970688,"current_range_meters":38000,"station_id":"ce4bhmp2rcd13ifvqgog","pricing_plan_id":"cebpf4jnsgd1na2vs0mg"},{"bike_id":"fc7d615f-1a12-4f5c-822f-a64d0708f6e2","system_id":"levelo_inurba_marseille","lat":43.23158,"lon":5.43701,"is_reserved":false,"is_disabled":false,"rental_uris":{"android":"levelo://app?vid=fc7d615f-1a12-4f5c-822f-a64d0708f6e2","ios":"levelo://app?vid=fc7d615f-1a12-4f5c-822f-a64d0708f6e2"},"vehicle_type_id":"4","last_reported":1725970688,"current_range_meters":35600,"station_id":"ce4bhmp2rcd13ifvqgog","pricing_plan_id":"cebpf4jnsgd1na2vs0mg"},{"bike_id":"55b0748a-6342-463a-b54f-91b48bb38937","system_id":"levelo_inurba_marseille","lat":43.28268,"lon":5.35064,"is_reserved":false,"is_disabled":false,"rental_uris":{"android":"levelo://app?vid=55b0748a-6342-463a-b54f-91b48bb38937","ios":"levelo://app?vid=55b0748a-6342-463a-b54f-91b48bb38937"},"vehicle_type_id":"4","last_reported":1725970688,"current_range_meters":16000,"station_id":"ce4bhbp2rcd13ifvqerg","pricing_plan_id":"cebpf4jnsgd1na2vs0mg"},{"bike_id":"80c7b8dd-cb92-4142-a693-af5b93dc7452","system_id":"levelo_inurba_marseille","lat":43.30658,"lon":5.40084,"is_reserved":false,"is_disabled":false,"rental_uris":{"android":"levelo://app?vid=80c7b8dd-cb92-4142-a693-af5b93dc7452","ios":"levelo://app?vid=80c7b8dd-cb92-4142-a693-af5b93dc7452"},"vehicle_type_id":"4","last_reported":1725970688,"current_range_meters":34800,"station_id":"ce4bh112rcd13ifvqda0","pricing_plan_id":"cebpf4jnsgd1na2vs0mg"},{"bike_id":"d21cb3aa-c77a-47a9-a07a-715b122e3520","system_id":"levelo_inurba_marseille","lat":43.33721,"lon":5.39182,"is_reserved":false,"is_disabled":false,"rental_uris":{"android":"levelo://app?vid=d21cb3aa-c77a-47a9-a07a-715b122e3520","ios":"levelo://app?vid=d21cb3aa-c77a-47a9-a07a-715b122e3520"},"vehicle_type_id":"4","last_reported":1725970688,"current_range_meters":38800,"station_id":"ce4bhr92rcd13ifvqhsg","pricing_plan_id":"cebpf4jnsgd1na2vs0mg"},{"bike_id":"99ff5113-63b8-4286-bc76-22496d34f647","system_id":"levelo_inurba_marseille","lat":43.23187,"lon":5.35553,"is_reserved":false,"is_disabled":false,"rental_uris":{"android":"levelo://app?vid=99ff5113-63b8-4286-bc76-22496d34f647","ios":"levelo://app?vid=99ff5113-63b8-4286-bc76-22496d34f647"},"vehicle_type_id":"4","last_reported":1725970688,"current_range_meters":4800,"station_id":"ce4bhu92rcd13ifvqi70","pricing_plan_id":"cebpf4jnsgd1na2vs0mg"},{"bike_id":"b2271fdc-77ec-463d-81cd-45840003e14b","system_id":"levelo_inurba_marseille","lat":43.28613,"lon":5.35099,"is_reserved":false,"is_disabled":false,"rental_uris":{"android":"levelo://app?vid=b2271fdc-77ec-463d-81cd-45840003e14b","ios":"levelo://app?vid=b2271fdc-77ec-463d-81cd-45840003e14b"},"vehicle_type_id":"4","last_reported":1725970688,"current_range_meters":38000,"station_id":"ce4bhch2rcd13ifvqeug","pricing_plan_id":"cebpf4jnsgd1na2vs0mg"},{"bike_id":"bc0c7842-1164-4503-a94b-e89f82d7ba1f","system_id":"levelo_inurba_marseille","lat":43.23153,"lon":5.43693,"is_reserved":false,"is_disabled":false,"rental_uris":{"android":"levelo://app?vid=bc0c7842-1164-4503-a94b-e89f82d7ba1f","ios":"levelo://app?vid=bc0c7842-1164-4503-a94b-e89f82d7ba1f"},"vehicle_type_id":"4","last_reported":1725970688,"current_range_meters":37600,"station_id":"ce4bhmp2rcd13ifvqgog","pricing_plan_id":"cebpf4jnsgd1na2vs0mg"},{"bike_id":"d288b4dc-4351-4c03-b707-28793e3db68e","system_id":"levelo_inurba_marseille","lat":43.29715,"lon":5.37691,"is_reserved":false,"is_disabled":false,"rental_uris":{"android":"levelo://app?vid=d288b4dc-4351-4c03-b707-28793e3db68e","ios":"levelo://app?vid=d288b4dc-4351-4c03-b707-28793e3db68e"},"vehicle_type_id":"4","last_reported":1725970688,"current_range_meters":6400,"station_id":"ce4bgkh2rcd13ifvqbl0","pricing_plan_id":"cebpf4jnsgd1na2vs0mg"},{"bike_id":"ab9b8990-e378-4cf6-9ff1-6f0f22223b29","system_id":"levelo_inurba_marseille","lat":43.23149,"lon":5.43699,"is_reserved":false,"is_disabled":false,"rental_uris":{"android":"levelo://app?vid=ab9b8990-e378-4cf6-9ff1-6f0f22223b29","ios":"levelo://app?vid=ab9b8990-e378-4cf6-9ff1-6f0f22223b29"},"vehicle_type_id":"4","last_reported":1725970688,"current_range_meters":15200,"station_id":"ce4bhmp2rcd13ifvqgog","pricing_plan_id":"cebpf4jnsgd1na2vs0mg"},{"bike_id":"56fe391e-723e-42df-8d0c-af51e6441891","system_id":"levelo_inurba_marseille","lat":43.23057,"lon":5.35492,"is_reserved":false,"is_disabled":false,"rental_uris":{"android":"levelo://app?vid=56fe391e-723e-42df-8d0c-af51e6441891","ios":"levelo://app?vid=56fe391e-723e-42df-8d0c-af51e6441891"},"vehicle_type_id":"4","last_reported":1725970688,"current_range_meters":3600,"station_id":"cpo3342slgdg3j2ifvpg","pricing_plan_id":"cebpf4jnsgd1na2vs0mg"},{"bike_id":"c5b54f07-9e8a-4d5d-af65-a461c660ca45","system_id":"levelo_inurba_marseille","lat":43.32285,"lon":5.38262,"is_reserved":false,"is_disabled":false,"rental_uris":{"android":"levelo://app?vid=c5b54f07-9e8a-4d5d-af65-a461c660ca45","ios":"levelo://app?vid=c5b54f07-9e8a-4d5d-af65-a461c660ca45"},"vehicle_type_id":"4","last_reported":1725970688,"current_range_meters":9200,"station_id":"ce4bhr12rcd13ifvqhqg","pricing_plan_id":"cebpf4jnsgd1na2vs0mg"},{"bike_id":"b73756a2-edf1-4a5a-b883-b48a3dca91a1","system_id":"levelo_inurba_marseille","lat":43.29684,"lon":5.37288,"is_reserved":false,"is_disabled":false,"rental_uris":{"android":"levelo://app?vid=b73756a2-edf1-4a5a-b883-b48a3dca91a1","ios":"levelo://app?vid=b73756a2-edf1-4a5a-b883-b48a3dca91a1"},"vehicle_type_id":"4","last_reported":1725970688,"current_range_meters":18800,"station_id":"ce4bgk12rcd13ifvqbj0","pricing_plan_id":"cebpf4jnsgd1na2vs0mg"},{"bike_id":"8b3152e0-8e94-4e7e-8215-5affb4b27f6e","system_id":"levelo_inurba_marseille","lat":43.298,"lon":5.38101,"is_reserved":false,"is_disabled":false,"rental_uris":{"android":"levelo://app?vid=8b3152e0-8e94-4e7e-8215-5affb4b27f6e","ios":"levelo://app?vid=8b3152e0-8e94-4e7e-8215-5affb4b27f6e"},"vehicle_type_id":"4","last_reported":1725970688,"current_range_meters":24800,"station_id":"ce4bgip2rcd13ifvqbb0","pricing_plan_id":"cebpf4jnsgd1na2vs0mg"},{"bike_id":"6167e386-6ae8-43cf-bc64-d123c7b363dd","system_id":"levelo_inurba_marseille","lat":43.25109,"lon":5.40326,"is_reserved":false,"is_disabled":false,"rental_uris":{"android":"levelo://app?vid=6167e386-6ae8-43cf-bc64-d123c7b363dd","ios":"levelo://app?vid=6167e386-6ae8-43cf-bc64-d123c7b363dd"},"vehicle_type_id":"4","last_reported":1725970688,"current_range_meters":2800,"station_id":"ce4bhlh2rcd13ifvqgig","pricing_plan_id":"cebpf4jnsgd1na2vs0mg"},{"bike_id":"b911d837-e3af-4418-bafa-caffcd3687b9","system_id":"levelo_inurba_marseille","lat":43.30933,"lon":5.4014,"is_reserved":false,"is_disabled":false,"rental_uris":{"android":"levelo://app?vid=b911d837-e3af-4418-bafa-caffcd3687b9","ios":"levelo://app?vid=b911d837-e3af-4418-bafa-caffcd3687b9"},"vehicle_type_id":"4","last_reported":1725970688,"current_range_meters":29600,"station_id":"ce4bgvp2rcd13ifvqct0","pricing_plan_id":"cebpf4jnsgd1na2vs0mg"},{"bike_id":"f5ab10c4-6d47-48ee-9572-4519f61eb1b5","system_id":"levelo_inurba_marseille","lat":43.25931,"lon":5.409,"is_reserved":false,"is_disabled":false,"rental_uris":{"android":"levelo://app?vid=f5ab10c4-6d47-48ee-9572-4519f61eb1b5","ios":"levelo://app?vid=f5ab10c4-6d47-48ee-9572-4519f61eb1b5"},"vehicle_type_id":"4","last_reported":1725970688,"current_range_meters":7200,"station_id":"ce4bhm92rcd13ifvqglg","pricing_plan_id":"cebpf4jnsgd1na2vs0mg"},{"bike_id":"80d66cad-50d4-418d-9b93-875e9de470d9","system_id":"levelo_inurba_marseille","lat":43.30358,"lon":5.4188,"is_reserved":false,"is_disabled":false,"rental_uris":{"android":"levelo://app?vid=80d66cad-50d4-418d-9b93-875e9de470d9","ios":"levelo://app?vid=80d66cad-50d4-418d-9b93-875e9de470d9"},"vehicle_type_id":"4","last_reported":1725970688,"current_range_meters":29600,"station_id":"ce4bhop2rcd13ifvqh7g","pricing_plan_id":"cebpf4jnsgd1na2vs0mg"},{"bike_id":"b2f0cfc2-1afc-4c3f-abae-39b904f3223f","system_id":"levelo_inurba_marseille","lat":43.29629,"lon":5.40596,"is_reserved":false,"is_disabled":false,"rental_uris":{"android":"levelo://app?vid=b2f0cfc2-1afc-4c3f-abae-39b904f3223f","ios":"levelo://app?vid=b2f0cfc2-1afc-4c3f-abae-39b904f3223f"},"vehicle_type_id":"4","last_reported":1725970688,"current_range_meters":35600,"station_id":"ce4bh0h2rcd13ifvqd60","pricing_plan_id":"cebpf4jnsgd1na2vs0mg"},{"bike_id":"e238eb9a-b5ce-4daa-a070-0709dee78a5d","system_id":"levelo_inurba_marseille","lat":43.23153,"lon":5.43708,"is_reserved":false,"is_disabled":false,"rental_uris":{"android":"levelo://app?vid=e238eb9a-b5ce-4daa-a070-0709dee78a5d","ios":"levelo://app?vid=e238eb9a-b5ce-4daa-a070-0709dee78a5d"},"vehicle_type_id":"4","last_reported":1725970688,"current_range_meters":18800,"station_id":"ce4bhmp2rcd13ifvqgog","pricing_plan_id":"cebpf4jnsgd1na2vs0mg"},{"bike_id":"eb0a37f4-973f-47c1-bb14-f6cc61911c4c","system_id":"levelo_inurba_marseille","lat":43.306239,"lon":5.399577,"is_reserved":false,"is_disabled":false,"rental_uris":{"android":"levelo://app?vid=eb0a37f4-973f-47c1-bb14-f6cc61911c4c","ios":"levelo://app?vid=eb0a37f4-973f-47c1-bb14-f6cc61911c4c"},"vehicle_type_id":"4","last_reported":1725970688,"current_range_meters":28800,"station_id":"ce4bh092rcd13ifvqd20","pricing_plan_id":"cebpf4jnsgd1na2vs0mg"},{"bike_id":"a74354b5-dd50-47b0-8b07-29acd37e410a","system_id":"levelo_inurba_marseille","lat":43.27677,"lon":5.38861,"is_reserved":false,"is_disabled":false,"rental_uris":{"android":"levelo://app?vid=a74354b5-dd50-47b0-8b07-29acd37e410a","ios":"levelo://app?vid=a74354b5-dd50-47b0-8b07-29acd37e410a"},"vehicle_type_id":"4","last_reported":1725970688,"current_range_meters":32800,"station_id":"ce4bhi12rcd13ifvqfo0","pricing_plan_id":"cebpf4jnsgd1na2vs0mg"},{"bike_id":"d655b562-9ac5-43dc-b6de-75eec2c288dd","system_id":"levelo_inurba_marseille","lat":43.24391,"lon":5.37058,"is_reserved":false,"is_disabled":false,"rental_uris":{"android":"levelo://app?vid=d655b562-9ac5-43dc-b6de-75eec2c288dd","ios":"levelo://app?vid=d655b562-9ac5-43dc-b6de-75eec2c288dd"},"vehicle_type_id":"4","last_reported":1725970688,"current_range_meters":14000,"station_id":"ce4bhhh2rcd13ifvqfk0","pricing_plan_id":"cebpf4jnsgd1na2vs0mg"},{"bike_id":"48675296-1f9b-45c7-aba4-b7b648b67555","system_id":"levelo_inurba_marseille","lat":43.280276,"lon":5.370957,"is_reserved":false,"is_disabled":false,"rental_uris":{"android":"levelo://app?vid=48675296-1f9b-45c7-aba4-b7b648b67555","ios":"levelo://app?vid=48675296-1f9b-45c7-aba4-b7b648b67555"},"vehicle_type_id":"4","last_reported":1725970688,"current_range_meters":28800,"station_id":"ce4bha12rcd13ifvqef0","pricing_plan_id":"cebpf4jnsgd1na2vs0mg"},{"bike_id":"35a92e2d-d77b-400b-aeba-f522bf358e49","system_id":"levelo_inurba_marseille","lat":43.31871,"lon":5.37372,"is_reserved":false,"is_disabled":false,"rental_uris":{"android":"levelo://app?vid=35a92e2d-d77b-400b-aeba-f522bf358e49","ios":"levelo://app?vid=35a92e2d-d77b-400b-aeba-f522bf358e49"},"vehicle_type_id":"4","last_reported":1725970688,"current_range_meters":16400,"station_id":"ce4bgup2rcd13ifvqco0","pricing_plan_id":"cebpf4jnsgd1na2vs0mg"},{"bike_id":"85da5b96-a657-4bac-b991-026a49320f36","system_id":"levelo_inurba_marseille","lat":43.28849,"lon":5.35837,"is_reserved":false,"is_disabled":false,"rental_uris":{"android":"levelo://app?vid=85da5b96-a657-4bac-b991-026a49320f36","ios":"levelo://app?vid=85da5b96-a657-4bac-b991-026a49320f36"},"vehicle_type_id":"4","last_reported":1725970688,"current_range_meters":38800,"station_id":"ce4bhb12rcd13ifvqem0","pricing_plan_id":"cebpf4jnsgd1na2vs0mg"},{"bike_id":"d31c9de7-5ab0-4acb-9ba6-c876e2ceda5f","system_id":"levelo_inurba_marseille","lat":43.23146,"lon":5.43701,"is_reserved":false,"is_disabled":false,"rental_uris":{"android":"levelo://app?vid=d31c9de7-5ab0-4acb-9ba6-c876e2ceda5f","ios":"levelo://app?vid=d31c9de7-5ab0-4acb-9ba6-c876e2ceda5f"},"vehicle_type_id":"4","last_reported":1725970688,"current_range_meters":36800,"station_id":"ce4bhmp2rcd13ifvqgog","pricing_plan_id":"cebpf4jnsgd1na2vs0mg"},{"bike_id":"9b7e122f-fb18-40cc-b1e6-7ddd8a3e1415","system_id":"levelo_inurba_marseille","lat":43.32541,"lon":5.41437,"is_reserved":false,"is_disabled":false,"rental_uris":{"android":"levelo://app?vid=9b7e122f-fb18-40cc-b1e6-7ddd8a3e1415","ios":"levelo://app?vid=9b7e122f-fb18-40cc-b1e6-7ddd8a3e1415"},"vehicle_type_id":"4","last_reported":1725970688,"current_range_meters":28400,"station_id":"ce4bhq12rcd13ifvqhhg","pricing_plan_id":"cebpf4jnsgd1na2vs0mg"},{"bike_id":"8fff4489-e146-49b6-ae6f-c3bf8f355f1a","system_id":"levelo_inurba_marseille","lat":43.29805,"lon":5.38098,"is_reserved":false,"is_disabled":false,"rental_uris":{"android":"levelo://app?vid=8fff4489-e146-49b6-ae6f-c3bf8f355f1a","ios":"levelo://app?vid=8fff4489-e146-49b6-ae6f-c3bf8f355f1a"},"vehicle_type_id":"4","last_reported":1725970688,"current_range_meters":38800,"station_id":"ce4bgip2rcd13ifvqbb0","pricing_plan_id":"cebpf4jnsgd1na2vs0mg"},{"bike_id":"689af299-077a-4b96-aadf-024a1a87228a","system_id":"levelo_inurba_marseille","lat":43.27496,"lon":5.42445,"is_reserved":false,"is_disabled":false,"rental_uris":{"android":"levelo://app?vid=689af299-077a-4b96-aadf-024a1a87228a","ios":"levelo://app?vid=689af299-077a-4b96-aadf-024a1a87228a"},"vehicle_type_id":"4","last_reported":1725970688,"current_range_meters":23200,"station_id":"ce4bhn92rcd13ifvqgrg","pricing_plan_id":"cebpf4jnsgd1na2vs0mg"},{"bike_id":"cfc6650a-34d8-4613-835d-150880fbaae0","system_id":"levelo_inurba_marseille","lat":43.2315,"lon":5.4371,"is_reserved":false,"is_disabled":false,"rental_uris":{"android":"levelo://app?vid=cfc6650a-34d8-4613-835d-150880fbaae0","ios":"levelo://app?vid=cfc6650a-34d8-4613-835d-150880fbaae0"},"vehicle_type_id":"4","last_reported":1725970688,"current_range_meters":14800,"station_id":"ce4bhmp2rcd13ifvqgog","pricing_plan_id":"cebpf4jnsgd1na2vs0mg"},{"bike_id":"127f710b-fcf9-4083-b533-9fc6a954fd34","system_id":"levelo_inurba_marseille","lat":43.231505,"lon":5.437211,"is_reserved":false,"is_disabled":false,"rental_uris":{"android":"levelo://app?vid=127f710b-fcf9-4083-b533-9fc6a954fd34","ios":"levelo://app?vid=127f710b-fcf9-4083-b533-9fc6a954fd34"},"vehicle_type_id":"4","last_reported":1725970688,"current_range_meters":40000,"station_id":"ce4bhmp2rcd13ifvqgog","pricing_plan_id":"cebpf4jnsgd1na2vs0mg"},{"bike_id":"ea762494-788c-488f-87ba-97f22c50a9ae","system_id":"levelo_inurba_marseille","lat":43.28158,"lon":5.42642,"is_reserved":false,"is_disabled":false,"rental_uris":{"android":"levelo://app?vid=ea762494-788c-488f-87ba-97f22c50a9ae","ios":"levelo://app?vid=ea762494-788c-488f-87ba-97f22c50a9ae"},"vehicle_type_id":"4","last_reported":1725970688,"current_range_meters":3200,"station_id":"ce4bhnh2rcd13ifvqgug","pricing_plan_id":"cebpf4jnsgd1na2vs0mg"},{"bike_id":"1a8804ce-9f6e-4e9c-9c6f-9d29f4d24e73","system_id":"levelo_inurba_marseille","lat":43.28679,"lon":5.387378,"is_reserved":false,"is_disabled":false,"rental_uris":{"android":"levelo://app?vid=1a8804ce-9f6e-4e9c-9c6f-9d29f4d24e73","ios":"levelo://app?vid=1a8804ce-9f6e-4e9c-9c6f-9d29f4d24e73"},"vehicle_type_id":"4","last_reported":1725970688,"current_range_meters":4400,"station_id":"ce4bh492rcd13ifvqdug","pricing_plan_id":"cebpf4jnsgd1na2vs0mg"},{"bike_id":"35a9d467-3b5e-4688-924b-a15e28a4c19d","system_id":"levelo_inurba_marseille","lat":43.27567,"lon":5.3842,"is_reserved":false,"is_disabled":false,"rental_uris":{"android":"levelo://app?vid=35a9d467-3b5e-4688-924b-a15e28a4c19d","ios":"levelo://app?vid=35a9d467-3b5e-4688-924b-a15e28a4c19d"},"vehicle_type_id":"4","last_reported":1725970688,"current_range_meters":6800,"station_id":"ce4bhh92rcd13ifvqfi0","pricing_plan_id":"cebpf4jnsgd1na2vs0mg"},{"bike_id":"02e9227e-4d15-45e3-b464-2b03b597a05f","system_id":"levelo_inurba_marseille","lat":43.30538,"lon":5.36705,"is_reserved":false,"is_disabled":false,"rental_uris":{"android":"levelo://app?vid=02e9227e-4d15-45e3-b464-2b03b597a05f","ios":"levelo://app?vid=02e9227e-4d15-45e3-b464-2b03b597a05f"},"vehicle_type_id":"4","last_reported":1725970688,"current_range_meters":39200,"station_id":"ce4bgrp2rcd13ifvqc9g","pricing_plan_id":"cebpf4jnsgd1na2vs0mg"},{"bike_id":"1d583431-4535-43ff-9cfe-97c3afe38e61","system_id":"levelo_inurba_marseille","lat":43.30971,"lon":5.40052,"is_reserved":false,"is_disabled":false,"rental_uris":{"android":"levelo://app?vid=1d583431-4535-43ff-9cfe-97c3afe38e61","ios":"levelo://app?vid=1d583431-4535-43ff-9cfe-97c3afe38e61"},"vehicle_type_id":"4","last_reported":1725970688,"current_range_meters":12800,"station_id":"ce4bhpp2rcd13ifvqhgg","pricing_plan_id":"cebpf4jnsgd1na2vs0mg"},{"bike_id":"5d411a94-71dc-41e3-ae74-13086227871e","system_id":"levelo_inurba_marseille","lat":43.27493,"lon":5.42456,"is_reserved":false,"is_disabled":false,"rental_uris":{"android":"levelo://app?vid=5d411a94-71dc-41e3-ae74-13086227871e","ios":"levelo://app?vid=5d411a94-71dc-41e3-ae74-13086227871e"},"vehicle_type_id":"4","last_reported":1725970688,"current_range_meters":33600,"station_id":"ce4bhn92rcd13ifvqgrg","pricing_plan_id":"cebpf4jnsgd1na2vs0mg"},{"bike_id":"fd35fa38-adf1-4f1a-b3da-4f1d38e91ee0","system_id":"levelo_inurba_marseille","lat":43.24175,"lon":5.39725,"is_reserved":false,"is_disabled":false,"rental_uris":{"android":"levelo://app?vid=fd35fa38-adf1-4f1a-b3da-4f1d38e91ee0","ios":"levelo://app?vid=fd35fa38-adf1-4f1a-b3da-4f1d38e91ee0"},"vehicle_type_id":"4","last_reported":1725970688,"current_range_meters":18000,"station_id":"ce4bhn12rcd13ifvqgpg","pricing_plan_id":"cebpf4jnsgd1na2vs0mg"},{"bike_id":"bf5555e9-efb7-4521-b052-9d5a2c8f2941","system_id":"levelo_inurba_marseille","lat":43.25937,"lon":5.40905,"is_reserved":false,"is_disabled":false,"rental_uris":{"android":"levelo://app?vid=bf5555e9-efb7-4521-b052-9d5a2c8f2941","ios":"levelo://app?vid=bf5555e9-efb7-4521-b052-9d5a2c8f2941"},"vehicle_type_id":"4","last_reported":1725970688,"current_range_meters":30400,"station_id":"ce4bhm92rcd13ifvqglg","pricing_plan_id":"cebpf4jnsgd1na2vs0mg"},{"bike_id":"b9271740-d3e3-487b-9c93-43283562d208","system_id":"levelo_inurba_marseille","lat":43.304626,"lon":5.379041,"is_reserved":false,"is_disabled":false,"rental_uris":{"android":"levelo://app?vid=b9271740-d3e3-487b-9c93-43283562d208","ios":"levelo://app?vid=b9271740-d3e3-487b-9c93-43283562d208"},"vehicle_type_id":"4","last_reported":1725970688,"current_range_meters":37600,"station_id":"ce4bgup2rcd13ifvqcn0","pricing_plan_id":"cebpf4jnsgd1na2vs0mg"},{"bike_id":"5fc0902b-7803-439a-9a7b-0b8e3c9df3b3","system_id":"levelo_inurba_marseille","lat":43.27498,"lon":5.42449,"is_reserved":false,"is_disabled":false,"rental_uris":{"android":"levelo://app?vid=5fc0902b-7803-439a-9a7b-0b8e3c9df3b3","ios":"levelo://app?vid=5fc0902b-7803-439a-9a7b-0b8e3c9df3b3"},"vehicle_type_id":"4","last_reported":1725970688,"current_range_meters":21600,"station_id":"ce4bhn92rcd13ifvqgrg","pricing_plan_id":"cebpf4jnsgd1na2vs0mg"},{"bike_id":"e4067140-ef5f-4d5d-b312-3ad8fb897ba0","system_id":"levelo_inurba_marseille","lat":43.25577,"lon":5.38239,"is_reserved":false,"is_disabled":false,"rental_uris":{"android":"levelo://app?vid=e4067140-ef5f-4d5d-b312-3ad8fb897ba0","ios":"levelo://app?vid=e4067140-ef5f-4d5d-b312-3ad8fb897ba0"},"vehicle_type_id":"4","last_reported":1725970688,"current_range_meters":29600,"station_id":"ce4bhih2rcd13ifvqfs0","pricing_plan_id":"cebpf4jnsgd1na2vs0mg"},{"bike_id":"ec66178c-9377-4a8d-ba34-1a39bc42f1ac","system_id":"levelo_inurba_marseille","lat":43.32287,"lon":5.38277,"is_reserved":false,"is_disabled":false,"rental_uris":{"android":"levelo://app?vid=ec66178c-9377-4a8d-ba34-1a39bc42f1ac","ios":"levelo://app?vid=ec66178c-9377-4a8d-ba34-1a39bc42f1ac"},"vehicle_type_id":"4","last_reported":1725970688,"current_range_meters":39200,"station_id":"ce4bhr12rcd13ifvqhqg","pricing_plan_id":"cebpf4jnsgd1na2vs0mg"},{"bike_id":"77124bd1-f11f-408e-92ed-0a9821f4aa76","system_id":"levelo_inurba_marseille","lat":43.28715,"lon":5.37925,"is_reserved":false,"is_disabled":false,"rental_uris":{"android":"levelo://app?vid=77124bd1-f11f-408e-92ed-0a9821f4aa76","ios":"levelo://app?vid=77124bd1-f11f-408e-92ed-0a9821f4aa76"},"vehicle_type_id":"4","last_reported":1725970688,"current_range_meters":19600,"station_id":"ce4bh9p2rcd13ifvqec0","pricing_plan_id":"cebpf4jnsgd1na2vs0mg"},{"bike_id":"c8566ff8-48bb-4153-8f25-6ecc62ca6edb","system_id":"levelo_inurba_marseille","lat":43.34137,"lon":5.40906,"is_reserved":false,"is_disabled":false,"rental_uris":{"android":"levelo://app?vid=c8566ff8-48bb-4153-8f25-6ecc62ca6edb","ios":"levelo://app?vid=c8566ff8-48bb-4153-8f25-6ecc62ca6edb"},"vehicle_type_id":"4","last_reported":1725970688,"current_range_meters":39200,"station_id":"ce4bhqh2rcd13ifvqhlg","pricing_plan_id":"cebpf4jnsgd1na2vs0mg"},{"bike_id":"bc745383-2511-4656-a4d1-e131400dfd60","system_id":"levelo_inurba_marseille","lat":43.23195,"lon":5.35562,"is_reserved":false,"is_disabled":false,"rental_uris":{"android":"levelo://app?vid=bc745383-2511-4656-a4d1-e131400dfd60","ios":"levelo://app?vid=bc745383-2511-4656-a4d1-e131400dfd60"},"vehicle_type_id":"4","last_reported":1725970688,"current_range_meters":17200,"station_id":"ce4bhu92rcd13ifvqi70","pricing_plan_id":"cebpf4jnsgd1na2vs0mg"},{"bike_id":"7288dfbe-7e93-487f-bed0-0f1f5b0770ae","system_id":"levelo_inurba_marseille","lat":43.29808,"lon":5.38095,"is_reserved":false,"is_disabled":false,"rental_uris":{"android":"levelo://app?vid=7288dfbe-7e93-487f-bed0-0f1f5b0770ae","ios":"levelo://app?vid=7288dfbe-7e93-487f-bed0-0f1f5b0770ae"},"vehicle_type_id":"4","last_reported":1725970688,"current_range_meters":27600,"station_id":"ce4bgip2rcd13ifvqbb0","pricing_plan_id":"cebpf4jnsgd1na2vs0mg"},{"bike_id":"198819be-d53e-4cbb-b11b-db02f27f94c4","system_id":"levelo_inurba_marseille","lat":43.31897,"lon":5.40726,"is_reserved":false,"is_disabled":false,"rental_uris":{"android":"levelo://app?vid=198819be-d53e-4cbb-b11b-db02f27f94c4","ios":"levelo://app?vid=198819be-d53e-4cbb-b11b-db02f27f94c4"},"vehicle_type_id":"4","last_reported":1725970688,"current_range_meters":39200,"station_id":"ce4bhq12rcd13ifvqhig","pricing_plan_id":"cebpf4jnsgd1na2vs0mg"},{"bike_id":"2995aec0-d6e8-496b-82d8-5a402d2c0f8a","system_id":"levelo_inurba_marseille","lat":43.2439,"lon":5.3706,"is_reserved":false,"is_disabled":false,"rental_uris":{"android":"levelo://app?vid=2995aec0-d6e8-496b-82d8-5a402d2c0f8a","ios":"levelo://app?vid=2995aec0-d6e8-496b-82d8-5a402d2c0f8a"},"vehicle_type_id":"4","last_reported":1725970688,"current_range_meters":10000,"station_id":"ce4bhhh2rcd13ifvqfk0","pricing_plan_id":"cebpf4jnsgd1na2vs0mg"},{"bike_id":"40681693-3581-47b9-aa9a-cc77e8d2af80","system_id":"levelo_inurba_marseille","lat":43.25001,"lon":5.38927,"is_reserved":false,"is_disabled":false,"rental_uris":{"android":"levelo://app?vid=40681693-3581-47b9-aa9a-cc77e8d2af80","ios":"levelo://app?vid=40681693-3581-47b9-aa9a-cc77e8d2af80"},"vehicle_type_id":"4","last_reported":1725970688,"current_range_meters":8800,"station_id":"ce4bhgp2rcd13ifvqfd0","pricing_plan_id":"cebpf4jnsgd1na2vs0mg"},{"bike_id":"256ff1b4-3cda-4078-ac92-9b2b566638b7","system_id":"levelo_inurba_marseille","lat":43.2558,"lon":5.3824,"is_reserved":false,"is_disabled":false,"rental_uris":{"android":"levelo://app?vid=256ff1b4-3cda-4078-ac92-9b2b566638b7","ios":"levelo://app?vid=256ff1b4-3cda-4078-ac92-9b2b566638b7"},"vehicle_type_id":"4","last_reported":1725970688,"current_range_meters":30800,"station_id":"ce4bhih2rcd13ifvqfs0","pricing_plan_id":"cebpf4jnsgd1na2vs0mg"},{"bike_id":"70a2bdc6-c55d-48d1-9953-ee31042dd00c","system_id":"levelo_inurba_marseille","lat":43.31689,"lon":5.40476,"is_reserved":false,"is_disabled":false,"rental_uris":{"android":"levelo://app?vid=70a2bdc6-c55d-48d1-9953-ee31042dd00c","ios":"levelo://app?vid=70a2bdc6-c55d-48d1-9953-ee31042dd00c"},"vehicle_type_id":"4","last_reported":1725970688,"current_range_meters":33200,"station_id":"ce4bh012rcd13ifvqd00","pricing_plan_id":"cebpf4jnsgd1na2vs0mg"},{"bike_id":"dcdc2f24-75db-4ec8-89b7-ad838165e327","system_id":"levelo_inurba_marseille","lat":43.28412,"lon":5.37505,"is_reserved":false,"is_disabled":false,"rental_uris":{"android":"levelo://app?vid=dcdc2f24-75db-4ec8-89b7-ad838165e327","ios":"levelo://app?vid=dcdc2f24-75db-4ec8-89b7-ad838165e327"},"vehicle_type_id":"4","last_reported":1725970688,"current_range_meters":27200,"station_id":"ce4bh412rcd13ifvqds0","pricing_plan_id":"cebpf4jnsgd1na2vs0mg"},{"bike_id":"ccbf5e43-be0f-4330-aa14-cfe13aff8a11","system_id":"levelo_inurba_marseille","lat":43.27212,"lon":5.41776,"is_reserved":false,"is_disabled":false,"rental_uris":{"android":"levelo://app?vid=ccbf5e43-be0f-4330-aa14-cfe13aff8a11","ios":"levelo://app?vid=ccbf5e43-be0f-4330-aa14-cfe13aff8a11"},"vehicle_type_id":"4","last_reported":1725970688,"current_range_meters":6800,"station_id":"","pricing_plan_id":"cebpf4jnsgd1na2vs0mg"},{"bike_id":"fd84bdd9-9ebd-41de-943d-a473de679ba2","system_id":"levelo_inurba_marseille","lat":43.27492,"lon":5.42455,"is_reserved":false,"is_disabled":false,"rental_uris":{"android":"levelo://app?vid=fd84bdd9-9ebd-41de-943d-a473de679ba2","ios":"levelo://app?vid=fd84bdd9-9ebd-41de-943d-a473de679ba2"},"vehicle_type_id":"4","last_reported":1725970688,"current_range_meters":22800,"station_id":"ce4bhn92rcd13ifvqgrg","pricing_plan_id":"cebpf4jnsgd1na2vs0mg"},{"bike_id":"dac87991-7d0f-412e-b015-b5f3a8e6c91b","system_id":"levelo_inurba_marseille","lat":43.31758,"lon":5.39009,"is_reserved":false,"is_disabled":false,"rental_uris":{"android":"levelo://app?vid=dac87991-7d0f-412e-b015-b5f3a8e6c91b","ios":"levelo://app?vid=dac87991-7d0f-412e-b015-b5f3a8e6c91b"},"vehicle_type_id":"4","last_reported":1725970688,"current_range_meters":3600,"station_id":"ce4bhqp2rcd13ifvqhng","pricing_plan_id":"cebpf4jnsgd1na2vs0mg"},{"bike_id":"69e887f5-8a63-4dc2-8534-1bb6d6ddd4fa","system_id":"levelo_inurba_marseille","lat":43.2315,"lon":5.43711,"is_reserved":false,"is_disabled":false,"rental_uris":{"android":"levelo://app?vid=69e887f5-8a63-4dc2-8534-1bb6d6ddd4fa","ios":"levelo://app?vid=69e887f5-8a63-4dc2-8534-1bb6d6ddd4fa"},"vehicle_type_id":"4","last_reported":1725970688,"current_range_meters":36400,"station_id":"ce4bhmp2rcd13ifvqgog","pricing_plan_id":"cebpf4jnsgd1na2vs0mg"},{"bike_id":"89f997c6-5e17-4723-92cc-5fbac9b2a36f","system_id":"levelo_inurba_marseille","lat":43.304122,"lon":5.41288,"is_reserved":false,"is_disabled":false,"rental_uris":{"android":"levelo://app?vid=89f997c6-5e17-4723-92cc-5fbac9b2a36f","ios":"levelo://app?vid=89f997c6-5e17-4723-92cc-5fbac9b2a36f"},"vehicle_type_id":"4","last_reported":1725970688,"current_range_meters":22400,"station_id":"ce4bhop2rcd13ifvqh8g","pricing_plan_id":"cebpf4jnsgd1na2vs0mg"},{"bike_id":"75847266-7ed1-44e3-ba84-c40f2e8723fc","system_id":"levelo_inurba_marseille","lat":43.296933,"lon":5.373829,"is_reserved":false,"is_disabled":false,"rental_uris":{"android":"levelo://app?vid=75847266-7ed1-44e3-ba84-c40f2e8723fc","ios":"levelo://app?vid=75847266-7ed1-44e3-ba84-c40f2e8723fc"},"vehicle_type_id":"4","last_reported":1725970688,"current_range_meters":14000,"station_id":"ce4bgk12rcd13ifvqbj0","pricing_plan_id":"cebpf4jnsgd1na2vs0mg"},{"bike_id":"85c7f5dd-5380-4fdf-9522-9a2f007cbf20","system_id":"levelo_inurba_marseille","lat":43.2582,"lon":5.39435,"is_reserved":false,"is_disabled":false,"rental_uris":{"android":"levelo://app?vid=85c7f5dd-5380-4fdf-9522-9a2f007cbf20","ios":"levelo://app?vid=85c7f5dd-5380-4fdf-9522-9a2f007cbf20"},"vehicle_type_id":"4","last_reported":1725970688,"current_range_meters":17200,"station_id":"ce4bhip2rcd13ifvqft0","pricing_plan_id":"cebpf4jnsgd1na2vs0mg"},{"bike_id":"0f75f939-0675-420f-bdf0-69642050fa13","system_id":"levelo_inurba_marseille","lat":43.26033,"lon":5.37548,"is_reserved":false,"is_disabled":false,"rental_uris":{"android":"levelo://app?vid=0f75f939-0675-420f-bdf0-69642050fa13","ios":"levelo://app?vid=0f75f939-0675-420f-bdf0-69642050fa13"},"vehicle_type_id":"4","last_reported":1725970688,"current_range_meters":33200,"station_id":"ce4bhgh2rcd13ifvqfa0","pricing_plan_id":"cebpf4jnsgd1na2vs0mg"},{"bike_id":"c13e1edb-f817-452d-bc46-6f34e97f4d9c","system_id":"levelo_inurba_marseille","lat":43.24075,"lon":5.37743,"is_reserved":false,"is_disabled":false,"rental_uris":{"android":"levelo://app?vid=c13e1edb-f817-452d-bc46-6f34e97f4d9c","ios":"levelo://app?vid=c13e1edb-f817-452d-bc46-6f34e97f4d9c"},"vehicle_type_id":"4","last_reported":1725970688,"current_range_meters":32000,"station_id":"ce4bhnp2rcd13ifvqgvg","pricing_plan_id":"cebpf4jnsgd1na2vs0mg"},{"bike_id":"fe6c8cbb-ebb0-43b7-836e-0d936131c3c1","system_id":"levelo_inurba_marseille","lat":43.28266,"lon":5.35062,"is_reserved":false,"is_disabled":false,"rental_uris":{"android":"levelo://app?vid=fe6c8cbb-ebb0-43b7-836e-0d936131c3c1","ios":"levelo://app?vid=fe6c8cbb-ebb0-43b7-836e-0d936131c3c1"},"vehicle_type_id":"4","last_reported":1725970688,"current_range_meters":25600,"station_id":"ce4bhbp2rcd13ifvqerg","pricing_plan_id":"cebpf4jnsgd1na2vs0mg"},{"bike_id":"c4173e1c-8d99-4b65-b103-4940fc8d53fc","system_id":"levelo_inurba_marseille","lat":43.32036,"lon":5.41567,"is_reserved":false,"is_disabled":false,"rental_uris":{"android":"levelo://app?vid=c4173e1c-8d99-4b65-b103-4940fc8d53fc","ios":"levelo://app?vid=c4173e1c-8d99-4b65-b103-4940fc8d53fc"},"vehicle_type_id":"4","last_reported":1725970688,"current_range_meters":9600,"station_id":"ce4bhq92rcd13ifvqhkg","pricing_plan_id":"cebpf4jnsgd1na2vs0mg"},{"bike_id":"2e612cfa-42be-4ffb-a922-3efc828d3da2","system_id":"levelo_inurba_marseille","lat":43.24071,"lon":5.37762,"is_reserved":false,"is_disabled":false,"rental_uris":{"android":"levelo://app?vid=2e612cfa-42be-4ffb-a922-3efc828d3da2","ios":"levelo://app?vid=2e612cfa-42be-4ffb-a922-3efc828d3da2"},"vehicle_type_id":"4","last_reported":1725970688,"current_range_meters":14800,"station_id":"ce4bhnp2rcd13ifvqgvg","pricing_plan_id":"cebpf4jnsgd1na2vs0mg"},{"bike_id":"26505684-7909-4a05-a336-28c2a2ea143e","system_id":"levelo_inurba_marseille","lat":43.24081,"lon":5.37738,"is_reserved":false,"is_disabled":false,"rental_uris":{"android":"levelo://app?vid=26505684-7909-4a05-a336-28c2a2ea143e","ios":"levelo://app?vid=26505684-7909-4a05-a336-28c2a2ea143e"},"vehicle_type_id":"4","last_reported":1725970688,"current_range_meters":20000,"station_id":"ce4bhnp2rcd13ifvqgvg","pricing_plan_id":"cebpf4jnsgd1na2vs0mg"},{"bike_id":"53bfff36-b94a-45fe-82e3-e585e0b70be0","system_id":"levelo_inurba_marseille","lat":43.2668,"lon":5.38264,"is_reserved":false,"is_disabled":false,"rental_uris":{"android":"levelo://app?vid=53bfff36-b94a-45fe-82e3-e585e0b70be0","ios":"levelo://app?vid=53bfff36-b94a-45fe-82e3-e585e0b70be0"},"vehicle_type_id":"4","last_reported":1725970688,"current_range_meters":28400,"station_id":"ce4bhg92rcd13ifvqf90","pricing_plan_id":"cebpf4jnsgd1na2vs0mg"},{"bike_id":"d170a587-1e00-4d01-b299-3ca4977fc50a","system_id":"levelo_inurba_marseille","lat":43.337444,"lon":5.374475,"is_reserved":false,"is_disabled":false,"rental_uris":{"android":"levelo://app?vid=d170a587-1e00-4d01-b299-3ca4977fc50a","ios":"levelo://app?vid=d170a587-1e00-4d01-b299-3ca4977fc50a"},"vehicle_type_id":"4","last_reported":1725970688,"current_range_meters":36000,"station_id":"","pricing_plan_id":"cebpf4jnsgd1na2vs0mg"},{"bike_id":"a5047e3b-c530-408c-b71a-323156189a1f","system_id":"levelo_inurba_marseille","lat":43.29072,"lon":5.37155,"is_reserved":false,"is_disabled":false,"rental_uris":{"android":"levelo://app?vid=a5047e3b-c530-408c-b71a-323156189a1f","ios":"levelo://app?vid=a5047e3b-c530-408c-b71a-323156189a1f"},"vehicle_type_id":"4","last_reported":1725970688,"current_range_meters":38800,"station_id":"ce4bh5p2rcd13ifvqe4g","pricing_plan_id":"cebpf4jnsgd1na2vs0mg"},{"bike_id":"a095d557-e884-4866-b6c4-5dbebc1d04a9","system_id":"levelo_inurba_marseille","lat":43.29553,"lon":5.42285,"is_reserved":false,"is_disabled":false,"rental_uris":{"android":"levelo://app?vid=a095d557-e884-4866-b6c4-5dbebc1d04a9","ios":"levelo://app?vid=a095d557-e884-4866-b6c4-5dbebc1d04a9"},"vehicle_type_id":"4","last_reported":1725970688,"current_range_meters":19600,"station_id":"ce4bhph2rcd13ifvqhdg","pricing_plan_id":"cebpf4jnsgd1na2vs0mg"},{"bike_id":"ca1eba31-5024-45c5-a82c-b1cb877ac1b9","system_id":"levelo_inurba_marseille","lat":43.29806,"lon":5.38088,"is_reserved":false,"is_disabled":false,"rental_uris":{"android":"levelo://app?vid=ca1eba31-5024-45c5-a82c-b1cb877ac1b9","ios":"levelo://app?vid=ca1eba31-5024-45c5-a82c-b1cb877ac1b9"},"vehicle_type_id":"4","last_reported":1725970688,"current_range_meters":28000,"station_id":"ce4bgip2rcd13ifvqbb0","pricing_plan_id":"cebpf4jnsgd1na2vs0mg"},{"bike_id":"15d8503c-1880-4613-b904-fac158b81238","system_id":"levelo_inurba_marseille","lat":43.31689,"lon":5.40471,"is_reserved":false,"is_disabled":false,"rental_uris":{"android":"levelo://app?vid=15d8503c-1880-4613-b904-fac158b81238","ios":"levelo://app?vid=15d8503c-1880-4613-b904-fac158b81238"},"vehicle_type_id":"4","last_reported":1725970688,"current_range_meters":20000,"station_id":"ce4bh012rcd13ifvqd00","pricing_plan_id":"cebpf4jnsgd1na2vs0mg"},{"bike_id":"4f30085d-8282-4afe-9726-33c44c521c43","system_id":"levelo_inurba_marseille","lat":43.32289,"lon":5.38271,"is_reserved":false,"is_disabled":false,"rental_uris":{"android":"levelo://app?vid=4f30085d-8282-4afe-9726-33c44c521c43","ios":"levelo://app?vid=4f30085d-8282-4afe-9726-33c44c521c43"},"vehicle_type_id":"4","last_reported":1725970688,"current_range_meters":35600,"station_id":"ce4bhr12rcd13ifvqhqg","pricing_plan_id":"cebpf4jnsgd1na2vs0mg"},{"bike_id":"4def9189-097a-4e5e-9409-b7f001328360","system_id":"levelo_inurba_marseille","lat":43.27489,"lon":5.42455,"is_reserved":false,"is_disabled":false,"rental_uris":{"android":"levelo://app?vid=4def9189-097a-4e5e-9409-b7f001328360","ios":"levelo://app?vid=4def9189-097a-4e5e-9409-b7f001328360"},"vehicle_type_id":"4","last_reported":1725970688,"current_range_meters":25600,"station_id":"ce4bhn92rcd13ifvqgrg","pricing_plan_id":"cebpf4jnsgd1na2vs0mg"},{"bike_id":"e1afa912-2bf9-49f5-ab54-6e9af09aacb3","system_id":"levelo_inurba_marseille","lat":43.23183,"lon":5.3999,"is_reserved":false,"is_disabled":false,"rental_uris":{"android":"levelo://app?vid=e1afa912-2bf9-49f5-ab54-6e9af09aacb3","ios":"levelo://app?vid=e1afa912-2bf9-49f5-ab54-6e9af09aacb3"},"vehicle_type_id":"4","last_reported":1725970688,"current_range_meters":10800,"station_id":"ce4bhn12rcd13ifvqgqg","pricing_plan_id":"cebpf4jnsgd1na2vs0mg"},{"bike_id":"b53f2ed9-f2a6-4b08-aa8a-0fac326342f8","system_id":"levelo_inurba_marseille","lat":43.28404,"lon":5.37521,"is_reserved":false,"is_disabled":false,"rental_uris":{"android":"levelo://app?vid=b53f2ed9-f2a6-4b08-aa8a-0fac326342f8","ios":"levelo://app?vid=b53f2ed9-f2a6-4b08-aa8a-0fac326342f8"},"vehicle_type_id":"4","last_reported":1725970688,"current_range_meters":29600,"station_id":"ce4bh412rcd13ifvqds0","pricing_plan_id":"cebpf4jnsgd1na2vs0mg"},{"bike_id":"c50456f5-0183-48e4-ba89-aa7b1151844d","system_id":"levelo_inurba_marseille","lat":43.2977,"lon":5.37114,"is_reserved":false,"is_disabled":false,"rental_uris":{"android":"levelo://app?vid=c50456f5-0183-48e4-ba89-aa7b1151844d","ios":"levelo://app?vid=c50456f5-0183-48e4-ba89-aa7b1151844d"},"vehicle_type_id":"4","last_reported":1725970688,"current_range_meters":38400,"station_id":"ce4bgop2rcd13ifvqc1g","pricing_plan_id":"cebpf4jnsgd1na2vs0mg"},{"bike_id":"575be697-065b-4a21-be17-8e732ce43e4b","system_id":"levelo_inurba_marseille","lat":43.24385,"lon":5.37056,"is_reserved":false,"is_disabled":false,"rental_uris":{"android":"levelo://app?vid=575be697-065b-4a21-be17-8e732ce43e4b","ios":"levelo://app?vid=575be697-065b-4a21-be17-8e732ce43e4b"},"vehicle_type_id":"4","last_reported":1725970688,"current_range_meters":34000,"station_id":"ce4bhhh2rcd13ifvqfk0","pricing_plan_id":"cebpf4jnsgd1na2vs0mg"},{"bike_id":"e7036c44-a45a-4935-b5dd-c627753e0a29","system_id":"levelo_inurba_marseille","lat":43.28615,"lon":5.35099,"is_reserved":false,"is_disabled":false,"rental_uris":{"android":"levelo://app?vid=e7036c44-a45a-4935-b5dd-c627753e0a29","ios":"levelo://app?vid=e7036c44-a45a-4935-b5dd-c627753e0a29"},"vehicle_type_id":"4","last_reported":1725970688,"current_range_meters":37600,"station_id":"ce4bhch2rcd13ifvqeug","pricing_plan_id":"cebpf4jnsgd1na2vs0mg"},{"bike_id":"3077af2e-6a31-47df-9107-9d55d6896f70","system_id":"levelo_inurba_marseille","lat":43.23964,"lon":5.36636,"is_reserved":false,"is_disabled":false,"rental_uris":{"android":"levelo://app?vid=3077af2e-6a31-47df-9107-9d55d6896f70","ios":"levelo://app?vid=3077af2e-6a31-47df-9107-9d55d6896f70"},"vehicle_type_id":"4","last_reported":1725970688,"current_range_meters":11600,"station_id":"ce4bhi12rcd13ifvqfp0","pricing_plan_id":"cebpf4jnsgd1na2vs0mg"},{"bike_id":"6906b4ad-0e66-4693-a4a2-667809388bde","system_id":"levelo_inurba_marseille","lat":43.30194,"lon":5.38944,"is_reserved":false,"is_disabled":false,"rental_uris":{"android":"levelo://app?vid=6906b4ad-0e66-4693-a4a2-667809388bde","ios":"levelo://app?vid=6906b4ad-0e66-4693-a4a2-667809388bde"},"vehicle_type_id":"4","last_reported":1725970688,"current_range_meters":28400,"station_id":"","pricing_plan_id":"cebpf4jnsgd1na2vs0mg"},{"bike_id":"6438129d-6b3d-4401-b11e-c2403c4e63c5","system_id":"levelo_inurba_marseille","lat":43.29812,"lon":5.38084,"is_reserved":false,"is_disabled":false,"rental_uris":{"android":"levelo://app?vid=6438129d-6b3d-4401-b11e-c2403c4e63c5","ios":"levelo://app?vid=6438129d-6b3d-4401-b11e-c2403c4e63c5"},"vehicle_type_id":"4","last_reported":1725970688,"current_range_meters":32800,"station_id":"ce4bgip2rcd13ifvqbb0","pricing_plan_id":"cebpf4jnsgd1na2vs0mg"},{"bike_id":"e111700a-dfd1-4a67-9b58-02add563b495","system_id":"levelo_inurba_marseille","lat":43.299,"lon":5.43665,"is_reserved":false,"is_disabled":false,"rental_uris":{"android":"levelo://app?vid=e111700a-dfd1-4a67-9b58-02add563b495","ios":"levelo://app?vid=e111700a-dfd1-4a67-9b58-02add563b495"},"vehicle_type_id":"4","last_reported":1725970688,"current_range_meters":8800,"station_id":"ce4bhpp2rcd13ifvqhfg","pricing_plan_id":"cebpf4jnsgd1na2vs0mg"},{"bike_id":"4c5a7eef-5f11-4176-870a-0f5fab5e113e","system_id":"levelo_inurba_marseille","lat":43.29804,"lon":5.38108,"is_reserved":false,"is_disabled":false,"rental_uris":{"android":"levelo://app?vid=4c5a7eef-5f11-4176-870a-0f5fab5e113e","ios":"levelo://app?vid=4c5a7eef-5f11-4176-870a-0f5fab5e113e"},"vehicle_type_id":"4","last_reported":1725970688,"current_range_meters":4400,"station_id":"ce4bgip2rcd13ifvqbb0","pricing_plan_id":"cebpf4jnsgd1na2vs0mg"},{"bike_id":"4cfe7fc6-c408-41b7-8d75-a8b920645fcc","system_id":"levelo_inurba_marseille","lat":43.29005,"lon":5.35606,"is_reserved":false,"is_disabled":false,"rental_uris":{"android":"levelo://app?vid=4cfe7fc6-c408-41b7-8d75-a8b920645fcc","ios":"levelo://app?vid=4cfe7fc6-c408-41b7-8d75-a8b920645fcc"},"vehicle_type_id":"4","last_reported":1725970688,"current_range_meters":2800,"station_id":"ce4bhb92rcd13ifvqen0","pricing_plan_id":"cebpf4jnsgd1na2vs0mg"},{"bike_id":"dfba42be-825f-49b9-bcff-2748aaa3fce2","system_id":"levelo_inurba_marseille","lat":43.24071,"lon":5.37768,"is_reserved":false,"is_disabled":false,"rental_uris":{"android":"levelo://app?vid=dfba42be-825f-49b9-bcff-2748aaa3fce2","ios":"levelo://app?vid=dfba42be-825f-49b9-bcff-2748aaa3fce2"},"vehicle_type_id":"4","last_reported":1725970688,"current_range_meters":15200,"station_id":"ce4bhnp2rcd13ifvqgvg","pricing_plan_id":"cebpf4jnsgd1na2vs0mg"},{"bike_id":"a85c78bc-418c-4af0-8edd-59c76790768f","system_id":"levelo_inurba_marseille","lat":43.32482,"lon":5.36571,"is_reserved":false,"is_disabled":false,"rental_uris":{"android":"levelo://app?vid=a85c78bc-418c-4af0-8edd-59c76790768f","ios":"levelo://app?vid=a85c78bc-418c-4af0-8edd-59c76790768f"},"vehicle_type_id":"4","last_reported":1725970688,"current_range_meters":27600,"station_id":"ce4bhs12rcd13ifvqhvg","pricing_plan_id":"cebpf4jnsgd1na2vs0mg"},{"bike_id":"8bcc0cac-e194-457b-af48-a1976a5d5edd","system_id":"levelo_inurba_marseille","lat":43.24642,"lon":5.38901,"is_reserved":false,"is_disabled":false,"rental_uris":{"android":"levelo://app?vid=8bcc0cac-e194-457b-af48-a1976a5d5edd","ios":"levelo://app?vid=8bcc0cac-e194-457b-af48-a1976a5d5edd"},"vehicle_type_id":"4","last_reported":1725970688,"current_range_meters":38800,"station_id":"ce4bhg12rcd13ifvqf60","pricing_plan_id":"cebpf4jnsgd1na2vs0mg"},{"bike_id":"0435717f-a4fe-49b8-bbd7-71cbf95f07a0","system_id":"levelo_inurba_marseille","lat":43.298462,"lon":5.362696,"is_reserved":false,"is_disabled":false,"rental_uris":{"android":"levelo://app?vid=0435717f-a4fe-49b8-bbd7-71cbf95f07a0","ios":"levelo://app?vid=0435717f-a4fe-49b8-bbd7-71cbf95f07a0"},"vehicle_type_id":"4","last_reported":1725970688,"current_range_meters":34000,"station_id":"ce4bhbh2rcd13ifvqepg","pricing_plan_id":"cebpf4jnsgd1na2vs0mg"},{"bike_id":"39dbd78d-2340-4344-af66-e669072084d8","system_id":"levelo_inurba_marseille","lat":43.31883,"lon":5.40735,"is_reserved":false,"is_disabled":false,"rental_uris":{"android":"levelo://app?vid=39dbd78d-2340-4344-af66-e669072084d8","ios":"levelo://app?vid=39dbd78d-2340-4344-af66-e669072084d8"},"vehicle_type_id":"4","last_reported":1725970688,"current_range_meters":33600,"station_id":"ce4bhq12rcd13ifvqhig","pricing_plan_id":"cebpf4jnsgd1na2vs0mg"},{"bike_id":"9f0a1eb3-ed63-4bc1-a966-5af9292852d5","system_id":"levelo_inurba_marseille","lat":43.29851,"lon":5.36276,"is_reserved":false,"is_disabled":false,"rental_uris":{"android":"levelo://app?vid=9f0a1eb3-ed63-4bc1-a966-5af9292852d5","ios":"levelo://app?vid=9f0a1eb3-ed63-4bc1-a966-5af9292852d5"},"vehicle_type_id":"4","last_reported":1725970688,"current_range_meters":39200,"station_id":"ce4bgpp2rcd13ifvqc3g","pricing_plan_id":"cebpf4jnsgd1na2vs0mg"},{"bike_id":"f715e76b-ad13-457f-b15f-b87bdbac5f61","system_id":"levelo_inurba_marseille","lat":43.28613,"lon":5.35094,"is_reserved":false,"is_disabled":false,"rental_uris":{"android":"levelo://app?vid=f715e76b-ad13-457f-b15f-b87bdbac5f61","ios":"levelo://app?vid=f715e76b-ad13-457f-b15f-b87bdbac5f61"},"vehicle_type_id":"4","last_reported":1725970688,"current_range_meters":27200,"station_id":"ce4bhch2rcd13ifvqeug","pricing_plan_id":"cebpf4jnsgd1na2vs0mg"},{"bike_id":"9c97f9ec-7a9d-41fa-833c-34ce56ba5dfe","system_id":"levelo_inurba_marseille","lat":43.2293,"lon":5.35375,"is_reserved":false,"is_disabled":false,"rental_uris":{"android":"levelo://app?vid=9c97f9ec-7a9d-41fa-833c-34ce56ba5dfe","ios":"levelo://app?vid=9c97f9ec-7a9d-41fa-833c-34ce56ba5dfe"},"vehicle_type_id":"4","last_reported":1725970688,"current_range_meters":6000,"station_id":"cpo3532slgdg3j2ikp40","pricing_plan_id":"cebpf4jnsgd1na2vs0mg"},{"bike_id":"41c44acb-0d65-4396-bb07-26deb3148256","system_id":"levelo_inurba_marseille","lat":43.24082,"lon":5.37746,"is_reserved":false,"is_disabled":false,"rental_uris":{"android":"levelo://app?vid=41c44acb-0d65-4396-bb07-26deb3148256","ios":"levelo://app?vid=41c44acb-0d65-4396-bb07-26deb3148256"},"vehicle_type_id":"4","last_reported":1725970688,"current_range_meters":17600,"station_id":"ce4bhnp2rcd13ifvqgvg","pricing_plan_id":"cebpf4jnsgd1na2vs0mg"},{"bike_id":"6bc78a58-cf39-436d-963c-76da93ea5d85","system_id":"levelo_inurba_marseille","lat":43.303,"lon":5.36917,"is_reserved":false,"is_disabled":false,"rental_uris":{"android":"levelo://app?vid=6bc78a58-cf39-436d-963c-76da93ea5d85","ios":"levelo://app?vid=6bc78a58-cf39-436d-963c-76da93ea5d85"},"vehicle_type_id":"4","last_reported":1725970688,"current_range_meters":22800,"station_id":"ce4bgqh2rcd13ifvqc5g","pricing_plan_id":"cebpf4jnsgd1na2vs0mg"},{"bike_id":"485db089-faa7-4651-8173-446beb51ba08","system_id":"levelo_inurba_marseille","lat":43.29685,"lon":5.37292,"is_reserved":false,"is_disabled":false,"rental_uris":{"android":"levelo://app?vid=485db089-faa7-4651-8173-446beb51ba08","ios":"levelo://app?vid=485db089-faa7-4651-8173-446beb51ba08"},"vehicle_type_id":"4","last_reported":1725970688,"current_range_meters":16400,"station_id":"ce4bgk12rcd13ifvqbj0","pricing_plan_id":"cebpf4jnsgd1na2vs0mg"},{"bike_id":"4490c6dd-a0b6-4c6a-8bd3-d2268595024a","system_id":"levelo_inurba_marseille","lat":43.2407,"lon":5.37755,"is_reserved":false,"is_disabled":false,"rental_uris":{"android":"levelo://app?vid=4490c6dd-a0b6-4c6a-8bd3-d2268595024a","ios":"levelo://app?vid=4490c6dd-a0b6-4c6a-8bd3-d2268595024a"},"vehicle_type_id":"4","last_reported":1725970688,"current_range_meters":8400,"station_id":"ce4bhnp2rcd13ifvqgvg","pricing_plan_id":"cebpf4jnsgd1na2vs0mg"},{"bike_id":"eb1b6f15-08a0-4dc8-8e3e-4fa103538d0d","system_id":"levelo_inurba_marseille","lat":43.303619,"lon":5.364705,"is_reserved":false,"is_disabled":false,"rental_uris":{"android":"levelo://app?vid=eb1b6f15-08a0-4dc8-8e3e-4fa103538d0d","ios":"levelo://app?vid=eb1b6f15-08a0-4dc8-8e3e-4fa103538d0d"},"vehicle_type_id":"4","last_reported":1725970688,"current_range_meters":38800,"station_id":"ce4bgpp2rcd13ifvqc3g","pricing_plan_id":"cebpf4jnsgd1na2vs0mg"},{"bike_id":"a5041d82-3768-4ba8-847f-3583b215d9f5","system_id":"levelo_inurba_marseille","lat":43.24647,"lon":5.38896,"is_reserved":false,"is_disabled":false,"rental_uris":{"android":"levelo://app?vid=a5041d82-3768-4ba8-847f-3583b215d9f5","ios":"levelo://app?vid=a5041d82-3768-4ba8-847f-3583b215d9f5"},"vehicle_type_id":"4","last_reported":1725970688,"current_range_meters":3600,"station_id":"ce4bhg12rcd13ifvqf60","pricing_plan_id":"cebpf4jnsgd1na2vs0mg"},{"bike_id":"0f8d4871-40aa-4918-ae57-55191cfaadca","system_id":"levelo_inurba_marseille","lat":43.24081,"lon":5.37739,"is_reserved":false,"is_disabled":false,"rental_uris":{"android":"levelo://app?vid=0f8d4871-40aa-4918-ae57-55191cfaadca","ios":"levelo://app?vid=0f8d4871-40aa-4918-ae57-55191cfaadca"},"vehicle_type_id":"4","last_reported":1725970688,"current_range_meters":18000,"station_id":"ce4bhnp2rcd13ifvqgvg","pricing_plan_id":"cebpf4jnsgd1na2vs0mg"},{"bike_id":"9676b329-8bc7-4105-a830-b6276495f415","system_id":"levelo_inurba_marseille","lat":43.29571,"lon":5.37533,"is_reserved":false,"is_disabled":false,"rental_uris":{"android":"levelo://app?vid=9676b329-8bc7-4105-a830-b6276495f415","ios":"levelo://app?vid=9676b329-8bc7-4105-a830-b6276495f415"},"vehicle_type_id":"4","last_reported":1725970688,"current_range_meters":33200,"station_id":"ce4bgh92rcd13ifvqb50","pricing_plan_id":"cebpf4jnsgd1na2vs0mg"},{"bike_id":"7bb5a6c7-6dd5-4a42-9215-dad1557690cc","system_id":"levelo_inurba_marseille","lat":43.3229,"lon":5.38264,"is_reserved":false,"is_disabled":false,"rental_uris":{"android":"levelo://app?vid=7bb5a6c7-6dd5-4a42-9215-dad1557690cc","ios":"levelo://app?vid=7bb5a6c7-6dd5-4a42-9215-dad1557690cc"},"vehicle_type_id":"4","last_reported":1725970688,"current_range_meters":36400,"station_id":"ce4bhr12rcd13ifvqhqg","pricing_plan_id":"cebpf4jnsgd1na2vs0mg"},{"bike_id":"5f698188-ff11-434d-8a83-4251bafd2e42","system_id":"levelo_inurba_marseille","lat":43.30144,"lon":5.37423,"is_reserved":false,"is_disabled":false,"rental_uris":{"android":"levelo://app?vid=5f698188-ff11-434d-8a83-4251bafd2e42","ios":"levelo://app?vid=5f698188-ff11-434d-8a83-4251bafd2e42"},"vehicle_type_id":"4","last_reported":1725970688,"current_range_meters":10000,"station_id":"ce4bgs92rcd13ifvqcc0","pricing_plan_id":"cebpf4jnsgd1na2vs0mg"},{"bike_id":"55a196b7-e6f7-4580-8290-9a1d17e3e3bf","system_id":"levelo_inurba_marseille","lat":43.24548,"lon":5.3952,"is_reserved":false,"is_disabled":false,"rental_uris":{"android":"levelo://app?vid=55a196b7-e6f7-4580-8290-9a1d17e3e3bf","ios":"levelo://app?vid=55a196b7-e6f7-4580-8290-9a1d17e3e3bf"},"vehicle_type_id":"4","last_reported":1725970688,"current_range_meters":6000,"station_id":"ce4bhlp2rcd13ifvqgjg","pricing_plan_id":"cebpf4jnsgd1na2vs0mg"},{"bike_id":"18e8504d-de5f-42bd-92b9-3a1d0d49d4c4","system_id":"levelo_inurba_marseille","lat":43.30887,"lon":5.3964,"is_reserved":false,"is_disabled":false,"rental_uris":{"android":"levelo://app?vid=18e8504d-de5f-42bd-92b9-3a1d0d49d4c4","ios":"levelo://app?vid=18e8504d-de5f-42bd-92b9-3a1d0d49d4c4"},"vehicle_type_id":"4","last_reported":1725970688,"current_range_meters":38400,"station_id":"ce4bh012rcd13ifvqcv0","pricing_plan_id":"cebpf4jnsgd1na2vs0mg"},{"bike_id":"22f2cc55-92dd-4c74-b52b-f9357889326c","system_id":"levelo_inurba_marseille","lat":43.30599,"lon":5.37231,"is_reserved":false,"is_disabled":false,"rental_uris":{"android":"levelo://app?vid=22f2cc55-92dd-4c74-b52b-f9357889326c","ios":"levelo://app?vid=22f2cc55-92dd-4c74-b52b-f9357889326c"},"vehicle_type_id":"4","last_reported":1725970688,"current_range_meters":22400,"station_id":"ce4bgqh2rcd13ifvqc4g","pricing_plan_id":"cebpf4jnsgd1na2vs0mg"},{"bike_id":"51bcbdca-fcc6-44c2-bee3-3c7b794f5505","system_id":"levelo_inurba_marseille","lat":43.3015,"lon":5.37421,"is_reserved":false,"is_disabled":false,"rental_uris":{"android":"levelo://app?vid=51bcbdca-fcc6-44c2-bee3-3c7b794f5505","ios":"levelo://app?vid=51bcbdca-fcc6-44c2-bee3-3c7b794f5505"},"vehicle_type_id":"4","last_reported":1725970688,"current_range_meters":38400,"station_id":"ce4bgs92rcd13ifvqcc0","pricing_plan_id":"cebpf4jnsgd1na2vs0mg"},{"bike_id":"f39b2119-4a11-4daa-9c63-03c8da229918","system_id":"levelo_inurba_marseille","lat":43.27484,"lon":5.42459,"is_reserved":false,"is_disabled":false,"rental_uris":{"android":"levelo://app?vid=f39b2119-4a11-4daa-9c63-03c8da229918","ios":"levelo://app?vid=f39b2119-4a11-4daa-9c63-03c8da229918"},"vehicle_type_id":"4","last_reported":1725970688,"current_range_meters":3600,"station_id":"ce4bhn92rcd13ifvqgrg","pricing_plan_id":"cebpf4jnsgd1na2vs0mg"},{"bike_id":"edd7846c-2c3d-481c-80d8-bb62ef7b3c0e","system_id":"levelo_inurba_marseille","lat":43.337444,"lon":5.374475,"is_reserved":false,"is_disabled":false,"rental_uris":{"android":"levelo://app?vid=edd7846c-2c3d-481c-80d8-bb62ef7b3c0e","ios":"levelo://app?vid=edd7846c-2c3d-481c-80d8-bb62ef7b3c0e"},"vehicle_type_id":"4","last_reported":1725970688,"current_range_meters":38400,"station_id":"","pricing_plan_id":"cebpf4jnsgd1na2vs0mg"},{"bike_id":"5a075d02-7033-4cef-ae0b-6ee61675c692","system_id":"levelo_inurba_marseille","lat":43.29792,"lon":5.38108,"is_reserved":false,"is_disabled":false,"rental_uris":{"android":"levelo://app?vid=5a075d02-7033-4cef-ae0b-6ee61675c692","ios":"levelo://app?vid=5a075d02-7033-4cef-ae0b-6ee61675c692"},"vehicle_type_id":"4","last_reported":1725970688,"current_range_meters":4400,"station_id":"ce4bgip2rcd13ifvqbb0","pricing_plan_id":"cebpf4jnsgd1na2vs0mg"},{"bike_id":"f1cf0e5e-dd06-40f9-88d9-de4eb42134b3","system_id":"levelo_inurba_marseille","lat":43.31489,"lon":5.3731,"is_reserved":false,"is_disabled":false,"rental_uris":{"android":"levelo://app?vid=f1cf0e5e-dd06-40f9-88d9-de4eb42134b3","ios":"levelo://app?vid=f1cf0e5e-dd06-40f9-88d9-de4eb42134b3"},"vehicle_type_id":"4","last_reported":1725970688,"current_range_meters":28800,"station_id":"ce4bgt12rcd13ifvqcd0","pricing_plan_id":"cebpf4jnsgd1na2vs0mg"},{"bike_id":"a1da421a-ad0a-4eff-9c61-8b63abf69bee","system_id":"levelo_inurba_marseille","lat":43.27493,"lon":5.42449,"is_reserved":false,"is_disabled":false,"rental_uris":{"android":"levelo://app?vid=a1da421a-ad0a-4eff-9c61-8b63abf69bee","ios":"levelo://app?vid=a1da421a-ad0a-4eff-9c61-8b63abf69bee"},"vehicle_type_id":"4","last_reported":1725970688,"current_range_meters":9600,"station_id":"ce4bhn92rcd13ifvqgrg","pricing_plan_id":"cebpf4jnsgd1na2vs0mg"},{"bike_id":"70741a29-0553-4045-8001-e8b52992dc18","system_id":"levelo_inurba_marseille","lat":43.2985,"lon":5.36281,"is_reserved":false,"is_disabled":false,"rental_uris":{"android":"levelo://app?vid=70741a29-0553-4045-8001-e8b52992dc18","ios":"levelo://app?vid=70741a29-0553-4045-8001-e8b52992dc18"},"vehicle_type_id":"4","last_reported":1725970688,"current_range_meters":14000,"station_id":"ce4bgpp2rcd13ifvqc3g","pricing_plan_id":"cebpf4jnsgd1na2vs0mg"},{"bike_id":"e65f8b41-3fcc-4596-8d37-b8947a214951","system_id":"levelo_inurba_marseille","lat":43.25935,"lon":5.40908,"is_reserved":false,"is_disabled":false,"rental_uris":{"android":"levelo://app?vid=e65f8b41-3fcc-4596-8d37-b8947a214951","ios":"levelo://app?vid=e65f8b41-3fcc-4596-8d37-b8947a214951"},"vehicle_type_id":"4","last_reported":1725970688,"current_range_meters":9600,"station_id":"ce4bhm92rcd13ifvqglg","pricing_plan_id":"cebpf4jnsgd1na2vs0mg"},{"bike_id":"61a68475-5572-43b9-ba00-11334e8fcd81","system_id":"levelo_inurba_marseille","lat":43.28838,"lon":5.35854,"is_reserved":false,"is_disabled":false,"rental_uris":{"android":"levelo://app?vid=61a68475-5572-43b9-ba00-11334e8fcd81","ios":"levelo://app?vid=61a68475-5572-43b9-ba00-11334e8fcd81"},"vehicle_type_id":"4","last_reported":1725970688,"current_range_meters":33600,"station_id":"ce4bhb12rcd13ifvqem0","pricing_plan_id":"cebpf4jnsgd1na2vs0mg"},{"bike_id":"c88b9b58-ded9-43ac-a92f-8106898f5e2b","system_id":"levelo_inurba_marseille","lat":43.29808,"lon":5.38086,"is_reserved":false,"is_disabled":false,"rental_uris":{"android":"levelo://app?vid=c88b9b58-ded9-43ac-a92f-8106898f5e2b","ios":"levelo://app?vid=c88b9b58-ded9-43ac-a92f-8106898f5e2b"},"vehicle_type_id":"4","last_reported":1725970688,"current_range_meters":32000,"station_id":"ce4bgip2rcd13ifvqbb0","pricing_plan_id":"cebpf4jnsgd1na2vs0mg"},{"bike_id":"29e992f8-cf19-457e-bd80-96b907a1646b","system_id":"levelo_inurba_marseille","lat":43.27905,"lon":5.37999,"is_reserved":false,"is_disabled":false,"rental_uris":{"android":"levelo://app?vid=29e992f8-cf19-457e-bd80-96b907a1646b","ios":"levelo://app?vid=29e992f8-cf19-457e-bd80-96b907a1646b"},"vehicle_type_id":"4","last_reported":1725970688,"current_range_meters":26000,"station_id":"ce4bhf92rcd13ifvqf50","pricing_plan_id":"cebpf4jnsgd1na2vs0mg"},{"bike_id":"cabda9e9-7860-47fd-8f84-0b89bf5acb47","system_id":"levelo_inurba_marseille","lat":43.30151,"lon":5.38077,"is_reserved":false,"is_disabled":false,"rental_uris":{"android":"levelo://app?vid=cabda9e9-7860-47fd-8f84-0b89bf5acb47","ios":"levelo://app?vid=cabda9e9-7860-47fd-8f84-0b89bf5acb47"},"vehicle_type_id":"4","last_reported":1725970688,"current_range_meters":32800,"station_id":"ce4bgjp2rcd13ifvqbh0","pricing_plan_id":"cebpf4jnsgd1na2vs0mg"},{"bike_id":"b9643ae3-928a-4626-8b56-cc18bb49ae73","system_id":"levelo_inurba_marseille","lat":43.337444,"lon":5.374475,"is_reserved":false,"is_disabled":false,"rental_uris":{"android":"levelo://app?vid=b9643ae3-928a-4626-8b56-cc18bb49ae73","ios":"levelo://app?vid=b9643ae3-928a-4626-8b56-cc18bb49ae73"},"vehicle_type_id":"4","last_reported":1725970688,"current_range_meters":36800,"station_id":"","pricing_plan_id":"cebpf4jnsgd1na2vs0mg"},{"bike_id":"bf3f6b11-b600-497a-84fe-1a0c1f2f273f","system_id":"levelo_inurba_marseille","lat":43.3237,"lon":5.38926,"is_reserved":false,"is_disabled":false,"rental_uris":{"android":"levelo://app?vid=bf3f6b11-b600-497a-84fe-1a0c1f2f273f","ios":"levelo://app?vid=bf3f6b11-b600-497a-84fe-1a0c1f2f273f"},"vehicle_type_id":"4","last_reported":1725970688,"current_range_meters":18800,"station_id":"","pricing_plan_id":"cebpf4jnsgd1na2vs0mg"},{"bike_id":"408c7154-a83f-4d69-9e86-7d952c7c6834","system_id":"levelo_inurba_marseille","lat":43.25828,"lon":5.39426,"is_reserved":false,"is_disabled":false,"rental_uris":{"android":"levelo://app?vid=408c7154-a83f-4d69-9e86-7d952c7c6834","ios":"levelo://app?vid=408c7154-a83f-4d69-9e86-7d952c7c6834"},"vehicle_type_id":"4","last_reported":1725970688,"current_range_meters":39200,"station_id":"ce4bhip2rcd13ifvqft0","pricing_plan_id":"cebpf4jnsgd1na2vs0mg"},{"bike_id":"32ff1448-b6b2-408f-b61b-6b6ff977f63e","system_id":"levelo_inurba_marseille","lat":43.325359,"lon":5.414366,"is_reserved":false,"is_disabled":false,"rental_uris":{"android":"levelo://app?vid=32ff1448-b6b2-408f-b61b-6b6ff977f63e","ios":"levelo://app?vid=32ff1448-b6b2-408f-b61b-6b6ff977f63e"},"vehicle_type_id":"4","last_reported":1725970688,"current_range_meters":17200,"station_id":"ce4bhq12rcd13ifvqhhg","pricing_plan_id":"cebpf4jnsgd1na2vs0mg"},{"bike_id":"c751c2ca-b94f-4305-b133-7a17b4775307","system_id":"levelo_inurba_marseille","lat":43.24385,"lon":5.37054,"is_reserved":false,"is_disabled":false,"rental_uris":{"android":"levelo://app?vid=c751c2ca-b94f-4305-b133-7a17b4775307","ios":"levelo://app?vid=c751c2ca-b94f-4305-b133-7a17b4775307"},"vehicle_type_id":"4","last_reported":1725970688,"current_range_meters":34800,"station_id":"ce4bhhh2rcd13ifvqfk0","pricing_plan_id":"cebpf4jnsgd1na2vs0mg"},{"bike_id":"efd42a3f-39fa-41cf-af47-52ca072a5edd","system_id":"levelo_inurba_marseille","lat":43.307828,"lon":5.376392,"is_reserved":false,"is_disabled":false,"rental_uris":{"android":"levelo://app?vid=efd42a3f-39fa-41cf-af47-52ca072a5edd","ios":"levelo://app?vid=efd42a3f-39fa-41cf-af47-52ca072a5edd"},"vehicle_type_id":"4","last_reported":1725970688,"current_range_meters":27200,"station_id":"ce4bgh92rcd13ifvqb50","pricing_plan_id":"cebpf4jnsgd1na2vs0mg"},{"bike_id":"f9a0b8a8-ff81-412c-b472-b3f20d225271","system_id":"levelo_inurba_marseille","lat":43.28157,"lon":5.42645,"is_reserved":false,"is_disabled":false,"rental_uris":{"android":"levelo://app?vid=f9a0b8a8-ff81-412c-b472-b3f20d225271","ios":"levelo://app?vid=f9a0b8a8-ff81-412c-b472-b3f20d225271"},"vehicle_type_id":"4","last_reported":1725970688,"current_range_meters":35200,"station_id":"ce4bhnh2rcd13ifvqgug","pricing_plan_id":"cebpf4jnsgd1na2vs0mg"},{"bike_id":"910b35f2-5777-472e-8f42-305c42e70c46","system_id":"levelo_inurba_marseille","lat":43.302109,"lon":5.394714,"is_reserved":false,"is_disabled":false,"rental_uris":{"android":"levelo://app?vid=910b35f2-5777-472e-8f42-305c42e70c46","ios":"levelo://app?vid=910b35f2-5777-472e-8f42-305c42e70c46"},"vehicle_type_id":"4","last_reported":1725970688,"current_range_meters":24400,"station_id":"ce4bh0p2rcd13ifvqd70","pricing_plan_id":"cebpf4jnsgd1na2vs0mg"},{"bike_id":"04091355-5296-4374-bd1c-5d5d52d521cf","system_id":"levelo_inurba_marseille","lat":43.30152,"lon":5.38075,"is_reserved":false,"is_disabled":false,"rental_uris":{"android":"levelo://app?vid=04091355-5296-4374-bd1c-5d5d52d521cf","ios":"levelo://app?vid=04091355-5296-4374-bd1c-5d5d52d521cf"},"vehicle_type_id":"4","last_reported":1725970688,"current_range_meters":18000,"station_id":"ce4bgjp2rcd13ifvqbh0","pricing_plan_id":"cebpf4jnsgd1na2vs0mg"},{"bike_id":"1d7ad1b0-7a8f-438e-aebf-fc9d34d975e8","system_id":"levelo_inurba_marseille","lat":43.28274,"lon":5.35075,"is_reserved":false,"is_disabled":false,"rental_uris":{"android":"levelo://app?vid=1d7ad1b0-7a8f-438e-aebf-fc9d34d975e8","ios":"levelo://app?vid=1d7ad1b0-7a8f-438e-aebf-fc9d34d975e8"},"vehicle_type_id":"4","last_reported":1725970688,"current_range_meters":23200,"station_id":"ce4bhbp2rcd13ifvqerg","pricing_plan_id":"cebpf4jnsgd1na2vs0mg"},{"bike_id":"6015af6b-8d18-4994-93c9-999669b8837d","system_id":"levelo_inurba_marseille","lat":43.32367,"lon":5.38874,"is_reserved":false,"is_disabled":false,"rental_uris":{"android":"levelo://app?vid=6015af6b-8d18-4994-93c9-999669b8837d","ios":"levelo://app?vid=6015af6b-8d18-4994-93c9-999669b8837d"},"vehicle_type_id":"4","last_reported":1725970688,"current_range_meters":10000,"station_id":"ce4bhqp2rcd13ifvqhog","pricing_plan_id":"cebpf4jnsgd1na2vs0mg"},{"bike_id":"24196bb8-3abb-46a9-9d11-d539919f0b23","system_id":"levelo_inurba_marseille","lat":43.24077,"lon":5.37762,"is_reserved":false,"is_disabled":false,"rental_uris":{"android":"levelo://app?vid=24196bb8-3abb-46a9-9d11-d539919f0b23","ios":"levelo://app?vid=24196bb8-3abb-46a9-9d11-d539919f0b23"},"vehicle_type_id":"4","last_reported":1725970688,"current_range_meters":23200,"station_id":"ce4bhnp2rcd13ifvqgvg","pricing_plan_id":"cebpf4jnsgd1na2vs0mg"},{"bike_id":"a1fd822b-6c60-47e4-b6a8-59645da996ee","system_id":"levelo_inurba_marseille","lat":43.26958,"lon":5.38644,"is_reserved":false,"is_disabled":false,"rental_uris":{"android":"levelo://app?vid=a1fd822b-6c60-47e4-b6a8-59645da996ee","ios":"levelo://app?vid=a1fd822b-6c60-47e4-b6a8-59645da996ee"},"vehicle_type_id":"4","last_reported":1725970688,"current_range_meters":9200,"station_id":"ce4bhh92rcd13ifvqfh0","pricing_plan_id":"cebpf4jnsgd1na2vs0mg"},{"bike_id":"cdd9fd12-866e-46c4-aae3-b611971d5673","system_id":"levelo_inurba_marseille","lat":43.292828,"lon":5.40975,"is_reserved":false,"is_disabled":false,"rental_uris":{"android":"levelo://app?vid=cdd9fd12-866e-46c4-aae3-b611971d5673","ios":"levelo://app?vid=cdd9fd12-866e-46c4-aae3-b611971d5673"},"vehicle_type_id":"4","last_reported":1725970688,"current_range_meters":17200,"station_id":"ce4bh192rcd13ifvqdc0","pricing_plan_id":"cebpf4jnsgd1na2vs0mg"},{"bike_id":"109a1101-907d-480f-b4f1-6cd46320c406","system_id":"levelo_inurba_marseille","lat":43.30541,"lon":5.36533,"is_reserved":false,"is_disabled":false,"rental_uris":{"android":"levelo://app?vid=109a1101-907d-480f-b4f1-6cd46320c406","ios":"levelo://app?vid=109a1101-907d-480f-b4f1-6cd46320c406"},"vehicle_type_id":"4","last_reported":1725970688,"current_range_meters":21600,"station_id":"ce4bgs12rcd13ifvqcag","pricing_plan_id":"cebpf4jnsgd1na2vs0mg"},{"bike_id":"49f0fae0-c70f-4934-a9b8-ee8f0d8865ee","system_id":"levelo_inurba_marseille","lat":43.27073,"lon":5.4228,"is_reserved":false,"is_disabled":false,"rental_uris":{"android":"levelo://app?vid=49f0fae0-c70f-4934-a9b8-ee8f0d8865ee","ios":"levelo://app?vid=49f0fae0-c70f-4934-a9b8-ee8f0d8865ee"},"vehicle_type_id":"4","last_reported":1725970688,"current_range_meters":10800,"station_id":"ce4bhk92rcd13ifvqgb0","pricing_plan_id":"cebpf4jnsgd1na2vs0mg"},{"bike_id":"97e6c8e4-f770-4de0-ba9b-deb2b2948e9c","system_id":"levelo_inurba_marseille","lat":43.25934,"lon":5.4091,"is_reserved":false,"is_disabled":false,"rental_uris":{"android":"levelo://app?vid=97e6c8e4-f770-4de0-ba9b-deb2b2948e9c","ios":"levelo://app?vid=97e6c8e4-f770-4de0-ba9b-deb2b2948e9c"},"vehicle_type_id":"4","last_reported":1725970688,"current_range_meters":16800,"station_id":"ce4bhm92rcd13ifvqglg","pricing_plan_id":"cebpf4jnsgd1na2vs0mg"},{"bike_id":"a56e0313-2f46-466c-b71e-0dddf2401d63","system_id":"levelo_inurba_marseille","lat":43.23058,"lon":5.35491,"is_reserved":false,"is_disabled":false,"rental_uris":{"android":"levelo://app?vid=a56e0313-2f46-466c-b71e-0dddf2401d63","ios":"levelo://app?vid=a56e0313-2f46-466c-b71e-0dddf2401d63"},"vehicle_type_id":"4","last_reported":1725970688,"current_range_meters":20400,"station_id":"cpo3342slgdg3j2ifvpg","pricing_plan_id":"cebpf4jnsgd1na2vs0mg"},{"bike_id":"d3a0ad47-8ba3-4659-a923-285fb906f91c","system_id":"levelo_inurba_marseille","lat":43.33024,"lon":5.39042,"is_reserved":false,"is_disabled":false,"rental_uris":{"android":"levelo://app?vid=d3a0ad47-8ba3-4659-a923-285fb906f91c","ios":"levelo://app?vid=d3a0ad47-8ba3-4659-a923-285fb906f91c"},"vehicle_type_id":"4","last_reported":1725970688,"current_range_meters":12000,"station_id":"ce4bhr92rcd13ifvqhrg","pricing_plan_id":"cebpf4jnsgd1na2vs0mg"},{"bike_id":"7781b5ba-e569-4e0d-ba58-a467754dc7d7","system_id":"levelo_inurba_marseille","lat":43.30182,"lon":5.36623,"is_reserved":false,"is_disabled":false,"rental_uris":{"android":"levelo://app?vid=7781b5ba-e569-4e0d-ba58-a467754dc7d7","ios":"levelo://app?vid=7781b5ba-e569-4e0d-ba58-a467754dc7d7"},"vehicle_type_id":"4","last_reported":1725970688,"current_range_meters":38800,"station_id":"ce4bgrh2rcd13ifvqc8g","pricing_plan_id":"cebpf4jnsgd1na2vs0mg"},{"bike_id":"9b542691-9a36-4252-bf15-6014e149e5c1","system_id":"levelo_inurba_marseille","lat":43.25823,"lon":5.3943,"is_reserved":false,"is_disabled":false,"rental_uris":{"android":"levelo://app?vid=9b542691-9a36-4252-bf15-6014e149e5c1","ios":"levelo://app?vid=9b542691-9a36-4252-bf15-6014e149e5c1"},"vehicle_type_id":"4","last_reported":1725970688,"current_range_meters":37600,"station_id":"ce4bhip2rcd13ifvqft0","pricing_plan_id":"cebpf4jnsgd1na2vs0mg"},{"bike_id":"59d2893a-d1ce-4346-9856-cf825097e6cb","system_id":"levelo_inurba_marseille","lat":43.23188,"lon":5.35554,"is_reserved":false,"is_disabled":false,"rental_uris":{"android":"levelo://app?vid=59d2893a-d1ce-4346-9856-cf825097e6cb","ios":"levelo://app?vid=59d2893a-d1ce-4346-9856-cf825097e6cb"},"vehicle_type_id":"4","last_reported":1725970688,"current_range_meters":22800,"station_id":"ce4bhu92rcd13ifvqi70","pricing_plan_id":"cebpf4jnsgd1na2vs0mg"},{"bike_id":"340e4376-2578-41a7-8b22-74d628f1e3d4","system_id":"levelo_inurba_marseille","lat":43.2668,"lon":5.38271,"is_reserved":false,"is_disabled":false,"rental_uris":{"android":"levelo://app?vid=340e4376-2578-41a7-8b22-74d628f1e3d4","ios":"levelo://app?vid=340e4376-2578-41a7-8b22-74d628f1e3d4"},"vehicle_type_id":"4","last_reported":1725970688,"current_range_meters":36800,"station_id":"ce4bhg92rcd13ifvqf90","pricing_plan_id":"cebpf4jnsgd1na2vs0mg"},{"bike_id":"a3d5cb92-4e73-44ae-9bee-b4d9af749fce","system_id":"levelo_inurba_marseille","lat":43.22929,"lon":5.35372,"is_reserved":false,"is_disabled":false,"rental_uris":{"android":"levelo://app?vid=a3d5cb92-4e73-44ae-9bee-b4d9af749fce","ios":"levelo://app?vid=a3d5cb92-4e73-44ae-9bee-b4d9af749fce"},"vehicle_type_id":"4","last_reported":1725970688,"current_range_meters":32800,"station_id":"cpo3532slgdg3j2ikp40","pricing_plan_id":"cebpf4jnsgd1na2vs0mg"},{"bike_id":"4a1cb237-1220-47d5-81e2-342a5bf16cbb","system_id":"levelo_inurba_marseille","lat":43.26681,"lon":5.3827,"is_reserved":false,"is_disabled":false,"rental_uris":{"android":"levelo://app?vid=4a1cb237-1220-47d5-81e2-342a5bf16cbb","ios":"levelo://app?vid=4a1cb237-1220-47d5-81e2-342a5bf16cbb"},"vehicle_type_id":"4","last_reported":1725970688,"current_range_meters":6400,"station_id":"ce4bhg92rcd13ifvqf90","pricing_plan_id":"cebpf4jnsgd1na2vs0mg"},{"bike_id":"97fa9b63-059f-4d0e-8061-6fbbfeec11ce","system_id":"levelo_inurba_marseille","lat":43.26029,"lon":5.37548,"is_reserved":false,"is_disabled":false,"rental_uris":{"android":"levelo://app?vid=97fa9b63-059f-4d0e-8061-6fbbfeec11ce","ios":"levelo://app?vid=97fa9b63-059f-4d0e-8061-6fbbfeec11ce"},"vehicle_type_id":"4","last_reported":1725970688,"current_range_meters":14800,"station_id":"ce4bhgh2rcd13ifvqfa0","pricing_plan_id":"cebpf4jnsgd1na2vs0mg"},{"bike_id":"35b4ccbe-337e-42f5-b64b-d3d4516b0316","system_id":"levelo_inurba_marseille","lat":43.27489,"lon":5.42455,"is_reserved":false,"is_disabled":false,"rental_uris":{"android":"levelo://app?vid=35b4ccbe-337e-42f5-b64b-d3d4516b0316","ios":"levelo://app?vid=35b4ccbe-337e-42f5-b64b-d3d4516b0316"},"vehicle_type_id":"4","last_reported":1725970688,"current_range_meters":30000,"station_id":"ce4bhn92rcd13ifvqgrg","pricing_plan_id":"cebpf4jnsgd1na2vs0mg"},{"bike_id":"36957c4a-63f7-4ac2-b13f-75039c754322","system_id":"levelo_inurba_marseille","lat":43.31324,"lon":5.39697,"is_reserved":false,"is_disabled":false,"rental_uris":{"android":"levelo://app?vid=36957c4a-63f7-4ac2-b13f-75039c754322","ios":"levelo://app?vid=36957c4a-63f7-4ac2-b13f-75039c754322"},"vehicle_type_id":"4","last_reported":1725970688,"current_range_meters":38800,"station_id":"ce4bgvp2rcd13ifvqcu0","pricing_plan_id":"cebpf4jnsgd1na2vs0mg"},{"bike_id":"ad4201f0-74cd-4f08-aaf9-c934d8af54dc","system_id":"levelo_inurba_marseille","lat":43.30213,"lon":5.394665,"is_reserved":false,"is_disabled":false,"rental_uris":{"android":"levelo://app?vid=ad4201f0-74cd-4f08-aaf9-c934d8af54dc","ios":"levelo://app?vid=ad4201f0-74cd-4f08-aaf9-c934d8af54dc"},"vehicle_type_id":"4","last_reported":1725970688,"current_range_meters":38800,"station_id":"ce4bh0p2rcd13ifvqd70","pricing_plan_id":"cebpf4jnsgd1na2vs0mg"},{"bike_id":"4246cf12-c6e9-4200-a814-6e19f239ac8e","system_id":"levelo_inurba_marseille","lat":43.28344,"lon":5.3811,"is_reserved":false,"is_disabled":false,"rental_uris":{"android":"levelo://app?vid=4246cf12-c6e9-4200-a814-6e19f239ac8e","ios":"levelo://app?vid=4246cf12-c6e9-4200-a814-6e19f239ac8e"},"vehicle_type_id":"4","last_reported":1725970688,"current_range_meters":32800,"station_id":"ce4bh412rcd13ifvqdr0","pricing_plan_id":"cebpf4jnsgd1na2vs0mg"},{"bike_id":"cec62b90-ad02-4595-b497-cd64d99bf98c","system_id":"levelo_inurba_marseille","lat":43.30533,"lon":5.36706,"is_reserved":false,"is_disabled":false,"rental_uris":{"android":"levelo://app?vid=cec62b90-ad02-4595-b497-cd64d99bf98c","ios":"levelo://app?vid=cec62b90-ad02-4595-b497-cd64d99bf98c"},"vehicle_type_id":"4","last_reported":1725970688,"current_range_meters":38400,"station_id":"ce4bgrp2rcd13ifvqc9g","pricing_plan_id":"cebpf4jnsgd1na2vs0mg"},{"bike_id":"868969ba-4579-4c2e-89be-c55919a78ee0","system_id":"levelo_inurba_marseille","lat":43.29198,"lon":5.39325,"is_reserved":false,"is_disabled":false,"rental_uris":{"android":"levelo://app?vid=868969ba-4579-4c2e-89be-c55919a78ee0","ios":"levelo://app?vid=868969ba-4579-4c2e-89be-c55919a78ee0"},"vehicle_type_id":"4","last_reported":1725970688,"current_range_meters":20400,"station_id":"ce4bh192rcd13ifvqdd0","pricing_plan_id":"cebpf4jnsgd1na2vs0mg"},{"bike_id":"7d4236b0-d19b-4de7-acc4-1c5f7f5686c5","system_id":"levelo_inurba_marseille","lat":43.23148,"lon":5.43716,"is_reserved":false,"is_disabled":false,"rental_uris":{"android":"levelo://app?vid=7d4236b0-d19b-4de7-acc4-1c5f7f5686c5","ios":"levelo://app?vid=7d4236b0-d19b-4de7-acc4-1c5f7f5686c5"},"vehicle_type_id":"4","last_reported":1725970688,"current_range_meters":17200,"station_id":"ce4bhmp2rcd13ifvqgog","pricing_plan_id":"cebpf4jnsgd1na2vs0mg"},{"bike_id":"717651a1-5d8e-4b4f-ba29-ce7d7682d77f","system_id":"levelo_inurba_marseille","lat":43.278371,"lon":5.392058,"is_reserved":false,"is_disabled":false,"rental_uris":{"android":"levelo://app?vid=717651a1-5d8e-4b4f-ba29-ce7d7682d77f","ios":"levelo://app?vid=717651a1-5d8e-4b4f-ba29-ce7d7682d77f"},"vehicle_type_id":"4","last_reported":1725970688,"current_range_meters":16400,"station_id":"ce4bhjp2rcd13ifvqga0","pricing_plan_id":"cebpf4jnsgd1na2vs0mg"},{"bike_id":"9b620b65-083a-440c-a05d-2d7ca9820692","system_id":"levelo_inurba_marseille","lat":43.286093,"lon":5.351057,"is_reserved":false,"is_disabled":false,"rental_uris":{"android":"levelo://app?vid=9b620b65-083a-440c-a05d-2d7ca9820692","ios":"levelo://app?vid=9b620b65-083a-440c-a05d-2d7ca9820692"},"vehicle_type_id":"4","last_reported":1725970688,"current_range_meters":32400,"station_id":"ce4bhch2rcd13ifvqeug","pricing_plan_id":"cebpf4jnsgd1na2vs0mg"},{"bike_id":"2bce686b-dd64-48d3-836d-99fa4acad5f7","system_id":"levelo_inurba_marseille","lat":43.24653,"lon":5.38891,"is_reserved":false,"is_disabled":false,"rental_uris":{"android":"levelo://app?vid=2bce686b-dd64-48d3-836d-99fa4acad5f7","ios":"levelo://app?vid=2bce686b-dd64-48d3-836d-99fa4acad5f7"},"vehicle_type_id":"4","last_reported":1725970688,"current_range_meters":28400,"station_id":"ce4bhg12rcd13ifvqf60","pricing_plan_id":"cebpf4jnsgd1na2vs0mg"},