{"last_updated":1706979958,"ttl":30,"version":"2.2","data":{"bikes":[{"bike_id":"adeee7fa-eba6-45d2-b131-91fd592abb19","system_id":"levelo_inurba_marseille","lat":43.31341,"lon":5.367098,"is_reserved":false,"is_disabled":false,"rental_uris":{"android":"levelo://app?vid=adeee7fa-eba6-45d2-b131-91fd592abb19","ios":"levelo://app?vid=adeee7fa-eba6-45d2-b131-91fd592abb19"},"vehicle_type_id":"4","last_reported":1706979958,"current_range_meters":26000,"station_id":"ce4bgr92rcd13ifvqc6g","pricing_plan_id":"free"},{"bike_id":"dd31d8b2-67c7-4f47-b851-9b169a47dc1b","system_id":"levelo_inurba_marseille","lat":43.31341,"lon":5.367098,"is_reserved":false,"is_disabled":false,"rental_uris":{"android":"levelo://app?vid=dd31d8b2-67c7-4f47-b851-9b169a47dc1b","ios":"levelo://app?vid=dd31d8b2-67c7-4f47-b851-9b169a47dc1b"},"vehicle_type_id":"4","last_reported":1706979958,"current_range_meters":9600,"station_id":"ce4bgr92rcd13ifvqc6g","pricing_plan_id":"free"},{"bike_id":"60326621-6620-407f-a116-9a9eae5df827","system_id":"levelo_inurba_marseille","lat":43.312239,"lon":5.368562,"is_reserved":false,"is_disabled":false,"rental_uris":{"android":"levelo://app?vid=60326621-6620-407f-a116-9a9eae5df827","ios":"levelo://app?vid=60326621-6620-407f-a116-9a9eae5df827"},"vehicle_type_id":"4","last_reported":1706979958,"current_range_meters":22400,"station_id":"ce4bgl92rcd13ifvqbq0","pricing_plan_id":"free"},{"bike_id":"3bbaa887-ae94-45a2-a916-38cffb624f5e","system_id":"levelo_inurba_marseille","lat":43.3123,"lon":5.36863,"is_reserved":false,"is_disabled":false,"rental_uris":{"android":"levelo://app?vid=3bbaa887-ae94-45a2-a916-38cffb624f5e","ios":"levelo://app?vid=3bbaa887-ae94-45a2-a916-38cffb624f5e"},"vehicle_type_id":"4","last_reported":1706979958,"current_range_meters":800,"station_id":"ce4bgl92rcd13ifvqbq0","pricing_plan_id":"free"},{"bike_id":"ef876024-a683-4231-8923-5211b8419f72","system_id":"levelo_inurba_marseille","lat":43.309076,"lon":5.368465,"is_reserved":false,"is_disabled":false,"rental_uris":{"android":"levelo://app?vid=ef876024-a683-4231-8923-5211b8419f72","ios":"levelo://app?vid=ef876024-a683-4231-8923-5211b8419f72"},"vehicle_type_id":"4","last_reported":1706979958,"current_range_meters":15200,"station_id":"ce4bgn92rcd13ifvqbvg","pricing_plan_id":"free"},{"bike_id":"a2d8324e-8a5a-4356-8b27-c1d38fe4b2bc","system_id":"levelo_inurba_marseille","lat":43.309076,"lon":5.368465,"is_reserved":false,"is_disabled":false,"rental_uris":{"android":"levelo://app?vid=a2d8324e-8a5a-4356-8b27-c1d38fe4b2bc","ios":"levelo://app?vid=a2d8324e-8a5a-4356-8b27-c1d38fe4b2bc"},"vehicle_type_id":"4","last_reported":1706979958,"current_range_meters":18800,"station_id":"ce4bgn92rcd13ifvqbvg","pricing_plan_id":"free"},{"bike_id":"8075556e-9c83-4ece-b92f-e5e90a5fd8a2","system_id":"levelo_inurba_marseille","lat":43.31306,"lon":5.37258,"is_reserved":false,"is_disabled":false,"rental_uris":{"android":"levelo://app?vid=8075556e-9c83-4ece-b92f-e5e90a5fd8a2","ios":"levelo://app?vid=8075556e-9c83-4ece-b92f-e5e90a5fd8a2"},"vehicle_type_id":"4","last_reported":1706979958,"current_range_meters":0,"station_id":"","pricing_plan_id":"free"},{"bike_id":"17f046fc-9789-4fcc-bac9-912b3bfaac13","system_id":"levelo_inurba_marseille","lat":43.314811,"lon":5.373103,"is_reserved":false,"is_disabled":false,"rental_uris":{"android":"levelo://app?vid=17f046fc-9789-4fcc-bac9-912b3bfaac13","ios":"levelo://app?vid=17f046fc-9789-4fcc-bac9-912b3bfaac13"},"vehicle_type_id":"4","last_reported":1706979958,"current_range_meters":2400,"station_id":"ce4bgt12rcd13ifvqcd0","pricing_plan_id":"free"},{"bike_id":"6e6291ae-db35-4d68-a6c5-8e8317dc2bc0","system_id":"levelo_inurba_marseille","lat":43.314811,"lon":5.373103,"is_reserved":false,"is_disabled":false,"rental_uris":{"android":"levelo://app?vid=6e6291ae-db35-4d68-a6c5-8e8317dc2bc0","ios":"levelo://app?vid=6e6291ae-db35-4d68-a6c5-8e8317dc2bc0"},"vehicle_type_id":"4","last_reported":1706979958,"current_range_meters":14400,"station_id":"ce4bgt12rcd13ifvqcd0","pricing_plan_id":"free"},{"bike_id":"903c0b22-9921-4df1-93c9-2649a3f7c969","system_id":"levelo_inurba_marseille","lat":43.314811,"lon":5.373103,"is_reserved":false,"is_disabled":false,"rental_uris":{"android":"levelo://app?vid=903c0b22-9921-4df1-93c9-2649a3f7c969","ios":"levelo://app?vid=903c0b22-9921-4df1-93c9-2649a3f7c969"},"vehicle_type_id":"4","last_reported":1706979958,"current_range_meters":1200,"station_id":"ce4bgt12rcd13ifvqcd0","pricing_plan_id":"free"},{"bike_id":"12c0e32b-4b08-47e6-bbe1-bfd378097d2d","system_id":"levelo_inurba_marseille","lat":43.309039,"lon":5.371797,"is_reserved":false,"is_disabled":false,"rental_uris":{"android":"levelo://app?vid=12c0e32b-4b08-47e6-bbe1-bfd378097d2d","ios":"levelo://app?vid=12c0e32b-4b08-47e6-bbe1-bfd378097d2d"},"vehicle_type_id":"4","last_reported":1706979958,"current_range_meters":16400,"station_id":"ce4bguh2rcd13ifvqckg","pricing_plan_id":"free"},{"bike_id":"0436ca92-d313-4595-acdd-c9799ee01128","system_id":"levelo_inurba_marseille","lat":43.309039,"lon":5.371797,"is_reserved":false,"is_disabled":false,"rental_uris":{"android":"levelo://app?vid=0436ca92-d313-4595-acdd-c9799ee01128","ios":"levelo://app?vid=0436ca92-d313-4595-acdd-c9799ee01128"},"vehicle_type_id":"4","last_reported":1706979958,"current_range_meters":14000,"station_id":"ce4bguh2rcd13ifvqckg","pricing_plan_id":"free"},{"bike_id":"1e9cf746-835d-4e17-b057-f1fba188f17e","system_id":"levelo_inurba_marseille","lat":43.305714,"lon":5.365633,"is_reserved":false,"is_disabled":false,"rental_uris":{"android":"levelo://app?vid=1e9cf746-835d-4e17-b057-f1fba188f17e","ios":"levelo://app?vid=1e9cf746-835d-4e17-b057-f1fba188f17e"},"vehicle_type_id":"4","last_reported":1706979958,"current_range_meters":0,"station_id":"ce4bgs12rcd13ifvqcag","pricing_plan_id":"free"},{"bike_id":"eabc3914-723c-4fef-b30c-4b0bd84796b0","system_id":"levelo_inurba_marseille","lat":43.305989,"lon":5.37225,"is_reserved":false,"is_disabled":false,"rental_uris":{"android":"levelo://app?vid=eabc3914-723c-4fef-b30c-4b0bd84796b0","ios":"levelo://app?vid=eabc3914-723c-4fef-b30c-4b0bd84796b0"},"vehicle_type_id":"4","last_reported":1706979958,"current_range_meters":26800,"station_id":"ce4bgqh2rcd13ifvqc4g","pricing_plan_id":"free"},{"bike_id":"99c763a0-d9b7-4489-ade4-f113d867cf83","system_id":"levelo_inurba_marseille","lat":43.305989,"lon":5.37225,"is_reserved":false,"is_disabled":false,"rental_uris":{"android":"levelo://app?vid=99c763a0-d9b7-4489-ade4-f113d867cf83","ios":"levelo://app?vid=99c763a0-d9b7-4489-ade4-f113d867cf83"},"vehicle_type_id":"4","last_reported":1706979958,"current_range_meters":11200,"station_id":"ce4bgqh2rcd13ifvqc4g","pricing_plan_id":"free"},{"bike_id":"d3114cd2-2b0b-434a-b9a2-5c6f45862fb0","system_id":"levelo_inurba_marseille","lat":43.311182,"lon":5.377572,"is_reserved":false,"is_disabled":false,"rental_uris":{"android":"levelo://app?vid=d3114cd2-2b0b-434a-b9a2-5c6f45862fb0","ios":"levelo://app?vid=d3114cd2-2b0b-434a-b9a2-5c6f45862fb0"},"vehicle_type_id":"4","last_reported":1706979958,"current_range_meters":0,"station_id":"ce4bgt92rcd13ifvqcg0","pricing_plan_id":"free"},{"bike_id":"a93daa50-e3a5-4d00-ab5b-95322c493e27","system_id":"levelo_inurba_marseille","lat":43.31118,"lon":5.377665,"is_reserved":false,"is_disabled":false,"rental_uris":{"android":"levelo://app?vid=a93daa50-e3a5-4d00-ab5b-95322c493e27","ios":"levelo://app?vid=a93daa50-e3a5-4d00-ab5b-95322c493e27"},"vehicle_type_id":"4","last_reported":1706979958,"current_range_meters":20800,"station_id":"ce4bgt92rcd13ifvqcg0","pricing_plan_id":"free"},{"bike_id":"b43dd4f9-4d82-4a89-87f8-33463b957fb0","system_id":"levelo_inurba_marseille","lat":43.307945,"lon":5.376487,"is_reserved":false,"is_disabled":false,"rental_uris":{"android":"levelo://app?vid=b43dd4f9-4d82-4a89-87f8-33463b957fb0","ios":"levelo://app?vid=b43dd4f9-4d82-4a89-87f8-33463b957fb0"},"vehicle_type_id":"4","last_reported":1706979958,"current_range_meters":8400,"station_id":"ce4bgv92rcd13ifvqcq0","pricing_plan_id":"free"},{"bike_id":"eb66ed38-265a-45ed-bce7-66deda88c1e8","system_id":"levelo_inurba_marseille","lat":43.307945,"lon":5.376487,"is_reserved":false,"is_disabled":false,"rental_uris":{"android":"levelo://app?vid=eb66ed38-265a-45ed-bce7-66deda88c1e8","ios":"levelo://app?vid=eb66ed38-265a-45ed-bce7-66deda88c1e8"},"vehicle_type_id":"4","last_reported":1706979958,"current_range_meters":16400,"station_id":"ce4bgv92rcd13ifvqcq0","pricing_plan_id":"free"},{"bike_id":"469b4e4a-1e2f-4825-9e49-226014827b4a","system_id":"levelo_inurba_marseille","lat":43.317075,"lon":5.377367,"is_reserved":false,"is_disabled":false,"rental_uris":{"android":"levelo://app?vid=469b4e4a-1e2f-4825-9e49-226014827b4a","ios":"levelo://app?vid=469b4e4a-1e2f-4825-9e49-226014827b4a"},"vehicle_type_id":"4","last_reported":1706979958,"current_range_meters":31200,"station_id":"ce4bgth2rcd13ifvqch0","pricing_plan_id":"free"},{"bike_id":"5350492e-9a31-4cc2-9dd3-24bb9c6e20c8","system_id":"levelo_inurba_marseille","lat":43.317075,"lon":5.377367,"is_reserved":false,"is_disabled":false,"rental_uris":{"android":"levelo://app?vid=5350492e-9a31-4cc2-9dd3-24bb9c6e20c8","ios":"levelo://app?vid=5350492e-9a31-4cc2-9dd3-24bb9c6e20c8"},"vehicle_type_id":"4","last_reported":1706979958,"current_range_meters":0,"station_id":"ce4bgth2rcd13ifvqch0","pricing_plan_id":"free"},{"bike_id":"9c6a3b25-93af-4894-9cf1-28d03c8f8fdc","system_id":"levelo_inurba_marseille","lat":43.317075,"lon":5.377367,"is_reserved":false,"is_disabled":false,"rental_uris":{"android":"levelo://app?vid=9c6a3b25-93af-4894-9cf1-28d03c8f8fdc","ios":"levelo://app?vid=9c6a3b25-93af-4894-9cf1-28d03c8f8fdc"},"vehicle_type_id":"4","last_reported":1706979958,"current_range_meters":31200,"station_id":"ce4bgth2rcd13ifvqch0","pricing_plan_id":"free"},{"bike_id":"0f833ad1-607f-417a-a09f-4998cd54a18f","system_id":"levelo_inurba_marseille","lat":43.317075,"lon":5.377367,"is_reserved":false,"is_disabled":false,"rental_uris":{"android":"levelo://app?vid=0f833ad1-607f-417a-a09f-4998cd54a18f","ios":"levelo://app?vid=0f833ad1-607f-417a-a09f-4998cd54a18f"},"vehicle_type_id":"4","last_reported":1706979958,"current_range_meters":31200,"station_id":"ce4bgth2rcd13ifvqch0","pricing_plan_id":"free"},{"bike_id":"c6305536-5586-4651-9af1-590bda504ef1","system_id":"levelo_inurba_marseille","lat":43.303046,"lon":5.368981,"is_reserved":false,"is_disabled":false,"rental_uris":{"android":"levelo://app?vid=c6305536-5586-4651-9af1-590bda504ef1","ios":"levelo://app?vid=c6305536-5586-4651-9af1-590bda504ef1"},"vehicle_type_id":"4","last_reported":1706979958,"current_range_meters":20400,"station_id":"ce4bgqh2rcd13ifvqc5g","pricing_plan_id":"free"},{"bike_id":"adcad12f-a841-49e7-8325-aefff59fe17a","system_id":"levelo_inurba_marseille","lat":43.315293,"lon":5.380349,"is_reserved":false,"is_disabled":false,"rental_uris":{"android":"levelo://app?vid=adcad12f-a841-49e7-8325-aefff59fe17a","ios":"levelo://app?vid=adcad12f-a841-49e7-8325-aefff59fe17a"},"vehicle_type_id":"4","last_reported":1706979958,"current_range_meters":14000,"station_id":"ce4bhsp2rcd13ifvqi50","pricing_plan_id":"free"},{"bike_id":"9be69327-eacc-44b6-a639-5abc73e8fa59","system_id":"levelo_inurba_marseille","lat":43.301939,"lon":5.366286,"is_reserved":false,"is_disabled":false,"rental_uris":{"android":"levelo://app?vid=9be69327-eacc-44b6-a639-5abc73e8fa59","ios":"levelo://app?vid=9be69327-eacc-44b6-a639-5abc73e8fa59"},"vehicle_type_id":"4","last_reported":1706979958,"current_range_meters":11600,"station_id":"ce4bgrh2rcd13ifvqc8g","pricing_plan_id":"free"},{"bike_id":"532654a0-4b95-48cc-b919-8bc35c0e2009","system_id":"levelo_inurba_marseille","lat":43.30186,"lon":5.36612,"is_reserved":false,"is_disabled":false,"rental_uris":{"android":"levelo://app?vid=532654a0-4b95-48cc-b919-8bc35c0e2009","ios":"levelo://app?vid=532654a0-4b95-48cc-b919-8bc35c0e2009"},"vehicle_type_id":"4","last_reported":1706979958,"current_range_meters":0,"station_id":"ce4bgrh2rcd13ifvqc8g","pricing_plan_id":"free"},{"bike_id":"f8ad9d35-b621-432b-944c-7a88dc6cd3f6","system_id":"levelo_inurba_marseille","lat":43.32394,"lon":5.36726,"is_reserved":false,"is_disabled":false,"rental_uris":{"android":"levelo://app?vid=f8ad9d35-b621-432b-944c-7a88dc6cd3f6","ios":"levelo://app?vid=f8ad9d35-b621-432b-944c-7a88dc6cd3f6"},"vehicle_type_id":"4","last_reported":1706979958,"current_range_meters":22000,"station_id":"ce4bhs12rcd13ifvqhvg","pricing_plan_id":"free"},{"bike_id":"8a4eaa89-b199-46ba-adf0-8c872a31ae88","system_id":"levelo_inurba_marseille","lat":43.310804,"lon":5.38359,"is_reserved":false,"is_disabled":false,"rental_uris":{"android":"levelo://app?vid=8a4eaa89-b199-46ba-adf0-8c872a31ae88","ios":"levelo://app?vid=8a4eaa89-b199-46ba-adf0-8c872a31ae88"},"vehicle_type_id":"4","last_reported":1706979958,"current_range_meters":3200,"station_id":"ce4bgv92rcd13ifvqcr0","pricing_plan_id":"free"},{"bike_id":"dc673003-81d7-467e-8d97-b10bb2fdf40e","system_id":"levelo_inurba_marseille","lat":43.304575,"lon":5.37909,"is_reserved":false,"is_disabled":false,"rental_uris":{"android":"levelo://app?vid=dc673003-81d7-467e-8d97-b10bb2fdf40e","ios":"levelo://app?vid=dc673003-81d7-467e-8d97-b10bb2fdf40e"},"vehicle_type_id":"4","last_reported":1706979958,"current_range_meters":0,"station_id":"ce4bgup2rcd13ifvqcn0","pricing_plan_id":"free"},{"bike_id":"245843ad-bfeb-465e-a2d5-e97ffa7d3f53","system_id":"levelo_inurba_marseille","lat":43.31375,"lon":5.38485,"is_reserved":false,"is_disabled":false,"rental_uris":{"android":"levelo://app?vid=245843ad-bfeb-465e-a2d5-e97ffa7d3f53","ios":"levelo://app?vid=245843ad-bfeb-465e-a2d5-e97ffa7d3f53"},"vehicle_type_id":"4","last_reported":1706979958,"current_range_meters":28800,"station_id":"ce4bgt92rcd13ifvqcf0","pricing_plan_id":"free"},{"bike_id":"faf3eb5c-f24b-420c-a909-04d0b63e4797","system_id":"levelo_inurba_marseille","lat":43.313571,"lon":5.384829,"is_reserved":false,"is_disabled":false,"rental_uris":{"android":"levelo://app?vid=faf3eb5c-f24b-420c-a909-04d0b63e4797","ios":"levelo://app?vid=faf3eb5c-f24b-420c-a909-04d0b63e4797"},"vehicle_type_id":"4","last_reported":1706979958,"current_range_meters":10800,"station_id":"ce4bgt92rcd13ifvqcf0","pricing_plan_id":"free"},{"bike_id":"4b72d49c-514f-4f72-8c7b-e7a09a4851e4","system_id":"levelo_inurba_marseille","lat":43.313571,"lon":5.384829,"is_reserved":false,"is_disabled":false,"rental_uris":{"android":"levelo://app?vid=4b72d49c-514f-4f72-8c7b-e7a09a4851e4","ios":"levelo://app?vid=4b72d49c-514f-4f72-8c7b-e7a09a4851e4"},"vehicle_type_id":"4","last_reported":1706979958,"current_range_meters":8800,"station_id":"ce4bgt92rcd13ifvqcf0","pricing_plan_id":"free"},{"bike_id":"254e5e5c-672f-4931-a54d-83a4793fedb9","system_id":"levelo_inurba_marseille","lat":43.299222,"lon":5.365554,"is_reserved":false,"is_disabled":false,"rental_uris":{"android":"levelo://app?vid=254e5e5c-672f-4931-a54d-83a4793fedb9","ios":"levelo://app?vid=254e5e5c-672f-4931-a54d-83a4793fedb9"},"vehicle_type_id":"4","last_reported":1706979958,"current_range_meters":10400,"station_id":"ce4bgm92rcd13ifvqbr0","pricing_plan_id":"free"},{"bike_id":"5b29f560-200f-4580-b70a-10e05b06f451","system_id":"levelo_inurba_marseille","lat":43.299724,"lon":5.371829,"is_reserved":false,"is_disabled":false,"rental_uris":{"android":"levelo://app?vid=5b29f560-200f-4580-b70a-10e05b06f451","ios":"levelo://app?vid=5b29f560-200f-4580-b70a-10e05b06f451"},"vehicle_type_id":"4","last_reported":1706979958,"current_range_meters":22800,"station_id":"ce4bgr92rcd13ifvqc7g","pricing_plan_id":"free"},{"bike_id":"23b13c48-93f0-42a6-89e9-50b1fed17f57","system_id":"levelo_inurba_marseille","lat":43.299724,"lon":5.371829,"is_reserved":false,"is_disabled":false,"rental_uris":{"android":"levelo://app?vid=23b13c48-93f0-42a6-89e9-50b1fed17f57","ios":"levelo://app?vid=23b13c48-93f0-42a6-89e9-50b1fed17f57"},"vehicle_type_id":"4","last_reported":1706979958,"current_range_meters":8400,"station_id":"ce4bgr92rcd13ifvqc7g","pricing_plan_id":"free"},{"bike_id":"3b8536e8-e523-47dd-933e-0e2be1940a49","system_id":"levelo_inurba_marseille","lat":43.305364,"lon":5.384119,"is_reserved":false,"is_disabled":false,"rental_uris":{"android":"levelo://app?vid=3b8536e8-e523-47dd-933e-0e2be1940a49","ios":"levelo://app?vid=3b8536e8-e523-47dd-933e-0e2be1940a49"},"vehicle_type_id":"4","last_reported":1706979958,"current_range_meters":19600,"station_id":"ce4bgg92rcd13ifvqb30","pricing_plan_id":"free"},{"bike_id":"e6bd8bce-b5a5-4cd5-8950-a9ee6ce9c909","system_id":"levelo_inurba_marseille","lat":43.298433,"lon":5.362774,"is_reserved":false,"is_disabled":false,"rental_uris":{"android":"levelo://app?vid=e6bd8bce-b5a5-4cd5-8950-a9ee6ce9c909","ios":"levelo://app?vid=e6bd8bce-b5a5-4cd5-8950-a9ee6ce9c909"},"vehicle_type_id":"4","last_reported":1706979958,"current_range_meters":30000,"station_id":"ce4bgpp2rcd13ifvqc3g","pricing_plan_id":"free"},{"bike_id":"1d473c2e-527f-4ee9-90c7-cb695162f123","system_id":"levelo_inurba_marseille","lat":43.298433,"lon":5.362774,"is_reserved":false,"is_disabled":false,"rental_uris":{"android":"levelo://app?vid=1d473c2e-527f-4ee9-90c7-cb695162f123","ios":"levelo://app?vid=1d473c2e-527f-4ee9-90c7-cb695162f123"},"vehicle_type_id":"4","last_reported":1706979958,"current_range_meters":3600,"station_id":"ce4bgpp2rcd13ifvqc3g","pricing_plan_id":"free"},{"bike_id":"bd07dd0b-9cb0-49f7-b74e-a586b19b5cbe","system_id":"levelo_inurba_marseille","lat":43.298433,"lon":5.362774,"is_reserved":false,"is_disabled":false,"rental_uris":{"android":"levelo://app?vid=bd07dd0b-9cb0-49f7-b74e-a586b19b5cbe","ios":"levelo://app?vid=bd07dd0b-9cb0-49f7-b74e-a586b19b5cbe"},"vehicle_type_id":"4","last_reported":1706979958,"current_range_meters":800,"station_id":"ce4bgpp2rcd13ifvqc3g","pricing_plan_id":"free"},{"bike_id":"ed2b2813-27a1-4188-8278-8171e7158835","system_id":"levelo_inurba_marseille","lat":43.311722,"lon":5.387247,"is_reserved":false,"is_disabled":false,"rental_uris":{"android":"levelo://app?vid=ed2b2813-27a1-4188-8278-8171e7158835","ios":"levelo://app?vid=ed2b2813-27a1-4188-8278-8171e7158835"},"vehicle_type_id":"4","last_reported":1706979958,"current_range_meters":1600,"station_id":"ce4bgv12rcd13ifvqcp0","pricing_plan_id":"free"},{"bike_id":"322d6e42-cfa2-4b43-a951-b99cd90d7780","system_id":"levelo_inurba_marseille","lat":43.297774,"lon":5.370875,"is_reserved":false,"is_disabled":false,"rental_uris":{"android":"levelo://app?vid=322d6e42-cfa2-4b43-a951-b99cd90d7780","ios":"levelo://app?vid=322d6e42-cfa2-4b43-a951-b99cd90d7780"},"vehicle_type_id":"4","last_reported":1706979958,"current_range_meters":6400,"station_id":"ce4bgop2rcd13ifvqc1g","pricing_plan_id":"free"},{"bike_id":"d3067c66-e7e2-46f1-8f0d-eabc61ae0d41","system_id":"levelo_inurba_marseille","lat":43.322872,"lon":5.382756,"is_reserved":false,"is_disabled":false,"rental_uris":{"android":"levelo://app?vid=d3067c66-e7e2-46f1-8f0d-eabc61ae0d41","ios":"levelo://app?vid=d3067c66-e7e2-46f1-8f0d-eabc61ae0d41"},"vehicle_type_id":"4","last_reported":1706979958,"current_range_meters":2400,"station_id":"ce4bhr12rcd13ifvqhqg","pricing_plan_id":"free"},{"bike_id":"e1639904-95cd-4f07-a500-a363e6e19f1b","system_id":"levelo_inurba_marseille","lat":43.297774,"lon":5.370875,"is_reserved":false,"is_disabled":false,"rental_uris":{"android":"levelo://app?vid=e1639904-95cd-4f07-a500-a363e6e19f1b","ios":"levelo://app?vid=e1639904-95cd-4f07-a500-a363e6e19f1b"},"vehicle_type_id":"4","last_reported":1706979958,"current_range_meters":10400,"station_id":"ce4bgop2rcd13ifvqc1g","pricing_plan_id":"free"},{"bike_id":"8b023912-5267-4e1c-a403-4d70b425cebe","system_id":"levelo_inurba_marseille","lat":43.322872,"lon":5.382756,"is_reserved":false,"is_disabled":false,"rental_uris":{"android":"levelo://app?vid=8b023912-5267-4e1c-a403-4d70b425cebe","ios":"levelo://app?vid=8b023912-5267-4e1c-a403-4d70b425cebe"},"vehicle_type_id":"4","last_reported":1706979958,"current_range_meters":30800,"station_id":"ce4bhr12rcd13ifvqhqg","pricing_plan_id":"free"},{"bike_id":"757c94ef-0260-4e65-8f42-9a2ff02436ff","system_id":"levelo_inurba_marseille","lat":43.32822,"lon":5.36676,"is_reserved":false,"is_disabled":false,"rental_uris":{"android":"levelo://app?vid=757c94ef-0260-4e65-8f42-9a2ff02436ff","ios":"levelo://app?vid=757c94ef-0260-4e65-8f42-9a2ff02436ff"},"vehicle_type_id":"4","last_reported":1706979958,"current_range_meters":0,"station_id":"ce4bhs92rcd13ifvqi0g","pricing_plan_id":"free"},{"bike_id":"0249c266-74a2-4238-9280-406529c4d484","system_id":"levelo_inurba_marseille","lat":43.328371,"lon":5.366909,"is_reserved":false,"is_disabled":false,"rental_uris":{"android":"levelo://app?vid=0249c266-74a2-4238-9280-406529c4d484","ios":"levelo://app?vid=0249c266-74a2-4238-9280-406529c4d484"},"vehicle_type_id":"4","last_reported":1706979958,"current_range_meters":23200,"station_id":"ce4bhs92rcd13ifvqi0g","pricing_plan_id":"free"},{"bike_id":"1900e2ea-9239-49b1-933e-57903fa99707","system_id":"levelo_inurba_marseille","lat":43.32826,"lon":5.36695,"is_reserved":false,"is_disabled":false,"rental_uris":{"android":"levelo://app?vid=1900e2ea-9239-49b1-933e-57903fa99707","ios":"levelo://app?vid=1900e2ea-9239-49b1-933e-57903fa99707"},"vehicle_type_id":"4","last_reported":1706979958,"current_range_meters":14000,"station_id":"ce4bhs92rcd13ifvqi0g","pricing_plan_id":"free"},{"bike_id":"e6dd00ea-9cad-4044-800a-7e90ad8c2a7f","system_id":"levelo_inurba_marseille","lat":43.328277,"lon":5.366827,"is_reserved":false,"is_disabled":false,"rental_uris":{"android":"levelo://app?vid=e6dd00ea-9cad-4044-800a-7e90ad8c2a7f","ios":"levelo://app?vid=e6dd00ea-9cad-4044-800a-7e90ad8c2a7f"},"vehicle_type_id":"4","last_reported":1706979958,"current_range_meters":6800,"station_id":"ce4bhs92rcd13ifvqi0g","pricing_plan_id":"free"},{"bike_id":"4c60f124-983d-4709-a95c-31ae5c64ae30","system_id":"levelo_inurba_marseille","lat":43.328297,"lon":5.366818,"is_reserved":false,"is_disabled":false,"rental_uris":{"android":"levelo://app?vid=4c60f124-983d-4709-a95c-31ae5c64ae30","ios":"levelo://app?vid=4c60f124-983d-4709-a95c-31ae5c64ae30"},"vehicle_type_id":"4","last_reported":1706979958,"current_range_meters":800,"station_id":"ce4bhs92rcd13ifvqi0g","pricing_plan_id":"free"},{"bike_id":"cd766519-893f-42bc-9d4d-40ec2595fe3b","system_id":"levelo_inurba_marseille","lat":43.328298,"lon":5.366807,"is_reserved":false,"is_disabled":false,"rental_uris":{"android":"levelo://app?vid=cd766519-893f-42bc-9d4d-40ec2595fe3b","ios":"levelo://app?vid=cd766519-893f-42bc-9d4d-40ec2595fe3b"},"vehicle_type_id":"4","last_reported":1706979958,"current_range_meters":9600,"station_id":"ce4bhs92rcd13ifvqi0g","pricing_plan_id":"free"},{"bike_id":"be4d936a-ff9b-4c00-a254-3f5f3221bb6a","system_id":"levelo_inurba_marseille","lat":43.328371,"lon":5.366909,"is_reserved":false,"is_disabled":false,"rental_uris":{"android":"levelo://app?vid=be4d936a-ff9b-4c00-a254-3f5f3221bb6a","ios":"levelo://app?vid=be4d936a-ff9b-4c00-a254-3f5f3221bb6a"},"vehicle_type_id":"4","last_reported":1706979958,"current_range_meters":16000,"station_id":"ce4bhs92rcd13ifvqi0g","pricing_plan_id":"free"},{"bike_id":"788e31ef-f09b-4639-84d5-9abfefca5d6f","system_id":"levelo_inurba_marseille","lat":43.328371,"lon":5.366912,"is_reserved":false,"is_disabled":false,"rental_uris":{"android":"levelo://app?vid=788e31ef-f09b-4639-84d5-9abfefca5d6f","ios":"levelo://app?vid=788e31ef-f09b-4639-84d5-9abfefca5d6f"},"vehicle_type_id":"4","last_reported":1706979958,"current_range_meters":6800,"station_id":"ce4bhs92rcd13ifvqi0g","pricing_plan_id":"free"},{"bike_id":"02e5c3ba-d57f-45cd-83a5-34e8a95ace48","system_id":"levelo_inurba_marseille","lat":43.29735,"lon":5.35939,"is_reserved":false,"is_disabled":false,"rental_uris":{"android":"levelo://app?vid=02e5c3ba-d57f-45cd-83a5-34e8a95ace48","ios":"levelo://app?vid=02e5c3ba-d57f-45cd-83a5-34e8a95ace48"},"vehicle_type_id":"4","last_reported":1706979958,"current_range_meters":27200,"station_id":"","pricing_plan_id":"free"},{"bike_id":"9003b59b-08d7-4c4e-9a69-66991a0af00a","system_id":"levelo_inurba_marseille","lat":43.299028,"lon":5.381509,"is_reserved":false,"is_disabled":false,"rental_uris":{"android":"levelo://app?vid=9003b59b-08d7-4c4e-9a69-66991a0af00a","ios":"levelo://app?vid=9003b59b-08d7-4c4e-9a69-66991a0af00a"},"vehicle_type_id":"4","last_reported":1706979958,"current_range_meters":6800,"station_id":"ce4bgj12rcd13ifvqbc0","pricing_plan_id":"free"},{"bike_id":"eaf642da-6df8-4f2b-b346-d98d6647a4a5","system_id":"levelo_inurba_marseille","lat":43.299028,"lon":5.381509,"is_reserved":false,"is_disabled":false,"rental_uris":{"android":"levelo://app?vid=eaf642da-6df8-4f2b-b346-d98d6647a4a5","ios":"levelo://app?vid=eaf642da-6df8-4f2b-b346-d98d6647a4a5"},"vehicle_type_id":"4","last_reported":1706979958,"current_range_meters":0,"station_id":"ce4bgj12rcd13ifvqbc0","pricing_plan_id":"free"},{"bike_id":"c4707585-fa42-435e-ae2b-8d0fd9e245fe","system_id":"levelo_inurba_marseille","lat":43.299028,"lon":5.381509,"is_reserved":false,"is_disabled":false,"rental_uris":{"android":"levelo://app?vid=c4707585-fa42-435e-ae2b-8d0fd9e245fe","ios":"levelo://app?vid=c4707585-fa42-435e-ae2b-8d0fd9e245fe"},"vehicle_type_id":"4","last_reported":1706979958,"current_range_meters":24800,"station_id":"ce4bgj12rcd13ifvqbc0","pricing_plan_id":"free"},{"bike_id":"b11a3066-32b6-4a93-ba5a-b73d8915d6b4","system_id":"levelo_inurba_marseille","lat":43.299028,"lon":5.381509,"is_reserved":false,"is_disabled":false,"rental_uris":{"android":"levelo://app?vid=b11a3066-32b6-4a93-ba5a-b73d8915d6b4","ios":"levelo://app?vid=b11a3066-32b6-4a93-ba5a-b73d8915d6b4"},"vehicle_type_id":"4","last_reported":1706979958,"current_range_meters":20800,"station_id":"ce4bgj12rcd13ifvqbc0","pricing_plan_id":"free"},{"bike_id":"e1a0c2bc-8b2d-43f3-8fa3-e045b54c127c","system_id":"levelo_inurba_marseille","lat":43.299028,"lon":5.381509,"is_reserved":false,"is_disabled":false,"rental_uris":{"android":"levelo://app?vid=e1a0c2bc-8b2d-43f3-8fa3-e045b54c127c","ios":"levelo://app?vid=e1a0c2bc-8b2d-43f3-8fa3-e045b54c127c"},"vehicle_type_id":"4","last_reported":1706979958,"current_range_meters":400,"station_id":"ce4bgj12rcd13ifvqbc0","pricing_plan_id":"free"},{"bike_id":"ee354fc7-5bbc-4758-96a6-243ba34b6ea7","system_id":"levelo_inurba_marseille","lat":43.299028,"lon":5.381509,"is_reserved":false,"is_disabled":false,"rental_uris":{"android":"levelo://app?vid=ee354fc7-5bbc-4758-96a6-243ba34b6ea7","ios":"levelo://app?vid=ee354fc7-5bbc-4758-96a6-243ba34b6ea7"},"vehicle_type_id":"4","last_reported":1706979958,"current_range_meters":0,"station_id":"ce4bgj12rcd13ifvqbc0","pricing_plan_id":"free"},{"bike_id":"f000bfe7-ee36-43d3-b186-e11688d7c314","system_id":"levelo_inurba_marseille","lat":43.309589,"lon":5.390258,"is_reserved":false,"is_disabled":false,"rental_uris":{"android":"levelo://app?vid=f000bfe7-ee36-43d3-b186-e11688d7c314","ios":"levelo://app?vid=f000bfe7-ee36-43d3-b186-e11688d7c314"},"vehicle_type_id":"4","last_reported":1706979958,"current_range_meters":4000,"station_id":"ce4bgup2rcd13ifvqco0","pricing_plan_id":"free"},{"bike_id":"0b49491c-81b8-4ed9-9fa4-1ac082e034fe","system_id":"levelo_inurba_marseille","lat":43.317659,"lon":5.389994,"is_reserved":false,"is_disabled":false,"rental_uris":{"android":"levelo://app?vid=0b49491c-81b8-4ed9-9fa4-1ac082e034fe","ios":"levelo://app?vid=0b49491c-81b8-4ed9-9fa4-1ac082e034fe"},"vehicle_type_id":"4","last_reported":1706979958,"current_range_meters":30400,"station_id":"ce4bhqp2rcd13ifvqhng","pricing_plan_id":"free"},{"bike_id":"ce429350-114b-4c33-8917-27f50d5e34de","system_id":"levelo_inurba_marseille","lat":43.298037,"lon":5.381066,"is_reserved":false,"is_disabled":false,"rental_uris":{"android":"levelo://app?vid=ce429350-114b-4c33-8917-27f50d5e34de","ios":"levelo://app?vid=ce429350-114b-4c33-8917-27f50d5e34de"},"vehicle_type_id":"4","last_reported":1706979958,"current_range_meters":0,"station_id":"ce4bgip2rcd13ifvqbb0","pricing_plan_id":"free"},{"bike_id":"4f1e6c01-1f6d-4cdf-835c-97cd6866d7f2","system_id":"levelo_inurba_marseille","lat":43.299028,"lon":5.381509,"is_reserved":false,"is_disabled":false,"rental_uris":{"android":"levelo://app?vid=4f1e6c01-1f6d-4cdf-835c-97cd6866d7f2","ios":"levelo://app?vid=4f1e6c01-1f6d-4cdf-835c-97cd6866d7f2"},"vehicle_type_id":"4","last_reported":1706979958,"current_range_meters":22000,"station_id":"ce4bgj12rcd13ifvqbc0","pricing_plan_id":"free"},{"bike_id":"54fcd8a3-bde8-4bbd-9440-d74849813b30","system_id":"levelo_inurba_marseille","lat":43.298037,"lon":5.381066,"is_reserved":false,"is_disabled":false,"rental_uris":{"android":"levelo://app?vid=54fcd8a3-bde8-4bbd-9440-d74849813b30","ios":"levelo://app?vid=54fcd8a3-bde8-4bbd-9440-d74849813b30"},"vehicle_type_id":"4","last_reported":1706979958,"current_range_meters":12000,"station_id":"ce4bgip2rcd13ifvqbb0","pricing_plan_id":"free"},{"bike_id":"86eba5ee-3f3e-465e-879d-a26eca611b6f","system_id":"levelo_inurba_marseille","lat":43.31836,"lon":5.390263,"is_reserved":false,"is_disabled":false,"rental_uris":{"android":"levelo://app?vid=86eba5ee-3f3e-465e-879d-a26eca611b6f","ios":"levelo://app?vid=86eba5ee-3f3e-465e-879d-a26eca611b6f"},"vehicle_type_id":"4","last_reported":1706979958,"current_range_meters":20800,"station_id":"","pricing_plan_id":"free"},{"bike_id":"9bbd5b6b-3ac5-482d-813e-92185b2ab41f","system_id":"levelo_inurba_marseille","lat":43.295748,"lon":5.37522,"is_reserved":false,"is_disabled":false,"rental_uris":{"android":"levelo://app?vid=9bbd5b6b-3ac5-482d-813e-92185b2ab41f","ios":"levelo://app?vid=9bbd5b6b-3ac5-482d-813e-92185b2ab41f"},"vehicle_type_id":"4","last_reported":1706979958,"current_range_meters":30400,"station_id":"ce4bgh92rcd13ifvqb50","pricing_plan_id":"free"},{"bike_id":"4ab7af74-6693-47d1-98ac-64caf9f2f3e9","system_id":"levelo_inurba_marseille","lat":43.298037,"lon":5.381066,"is_reserved":false,"is_disabled":false,"rental_uris":{"android":"levelo://app?vid=4ab7af74-6693-47d1-98ac-64caf9f2f3e9","ios":"levelo://app?vid=4ab7af74-6693-47d1-98ac-64caf9f2f3e9"},"vehicle_type_id":"4","last_reported":1706979958,"current_range_meters":1200,"station_id":"ce4bgip2rcd13ifvqbb0","pricing_plan_id":"free"},{"bike_id":"718f289d-871a-405d-80f9-7d5b166a29dd","system_id":"levelo_inurba_marseille","lat":43.298037,"lon":5.381066,"is_reserved":false,"is_disabled":false,"rental_uris":{"android":"levelo://app?vid=718f289d-871a-405d-80f9-7d5b166a29dd","ios":"levelo://app?vid=718f289d-871a-405d-80f9-7d5b166a29dd"},"vehicle_type_id":"4","last_reported":1706979958,"current_range_meters":10800,"station_id":"ce4bgip2rcd13ifvqbb0","pricing_plan_id":"free"},{"bike_id":"e74bd45f-4406-4f01-b2a9-4ddd38711bf0","system_id":"levelo_inurba_marseille","lat":43.295748,"lon":5.37522,"is_reserved":false,"is_disabled":false,"rental_uris":{"android":"levelo://app?vid=e74bd45f-4406-4f01-b2a9-4ddd38711bf0","ios":"levelo://app?vid=e74bd45f-4406-4f01-b2a9-4ddd38711bf0"},"vehicle_type_id":"4","last_reported":1706979958,"current_range_meters":800,"station_id":"ce4bgh92rcd13ifvqb50","pricing_plan_id":"free"},{"bike_id":"00b0cd95-7a69-4173-9dcf-91676f116358","system_id":"levelo_inurba_marseille","lat":43.295748,"lon":5.37522,"is_reserved":false,"is_disabled":false,"rental_uris":{"android":"levelo://app?vid=00b0cd95-7a69-4173-9dcf-91676f116358","ios":"levelo://app?vid=00b0cd95-7a69-4173-9dcf-91676f116358"},"vehicle_type_id":"4","last_reported":1706979958,"current_range_meters":31200,"station_id":"ce4bgh92rcd13ifvqb50","pricing_plan_id":"free"},{"bike_id":"4c97e45f-94b6-4ae4-9ff7-df45d58c29e8","system_id":"levelo_inurba_marseille","lat":43.295748,"lon":5.37522,"is_reserved":false,"is_disabled":false,"rental_uris":{"android":"levelo://app?vid=4c97e45f-94b6-4ae4-9ff7-df45d58c29e8","ios":"levelo://app?vid=4c97e45f-94b6-4ae4-9ff7-df45d58c29e8"},"vehicle_type_id":"4","last_reported":1706979958,"current_range_meters":31200,"station_id":"ce4bgh92rcd13ifvqb50","pricing_plan_id":"free"},{"bike_id":"58c85424-af12-4b52-b225-3cf4f9692729","system_id":"levelo_inurba_marseille","lat":43.29569,"lon":5.37541,"is_reserved":false,"is_disabled":false,"rental_uris":{"android":"levelo://app?vid=58c85424-af12-4b52-b225-3cf4f9692729","ios":"levelo://app?vid=58c85424-af12-4b52-b225-3cf4f9692729"},"vehicle_type_id":"4","last_reported":1706979958,"current_range_meters":12800,"station_id":"ce4bgh92rcd13ifvqb50","pricing_plan_id":"free"},{"bike_id":"934c9734-3d44-47ed-86c3-1272ed467834","system_id":"levelo_inurba_marseille","lat":43.296263,"lon":5.377094,"is_reserved":false,"is_disabled":false,"rental_uris":{"android":"levelo://app?vid=934c9734-3d44-47ed-86c3-1272ed467834","ios":"levelo://app?vid=934c9734-3d44-47ed-86c3-1272ed467834"},"vehicle_type_id":"4","last_reported":1706979958,"current_range_meters":28000,"station_id":"ce4bgi92rcd13ifvqb90","pricing_plan_id":"free"},{"bike_id":"6abf80a1-605d-4373-993c-6720d172031d","system_id":"levelo_inurba_marseille","lat":43.296277,"lon":5.377108,"is_reserved":false,"is_disabled":false,"rental_uris":{"android":"levelo://app?vid=6abf80a1-605d-4373-993c-6720d172031d","ios":"levelo://app?vid=6abf80a1-605d-4373-993c-6720d172031d"},"vehicle_type_id":"4","last_reported":1706979958,"current_range_meters":14400,"station_id":"ce4bgi92rcd13ifvqb90","pricing_plan_id":"free"},{"bike_id":"af115dad-0bcb-4754-8f70-3861b6e1afb7","system_id":"levelo_inurba_marseille","lat":43.296277,"lon":5.377108,"is_reserved":false,"is_disabled":false,"rental_uris":{"android":"levelo://app?vid=af115dad-0bcb-4754-8f70-3861b6e1afb7","ios":"levelo://app?vid=af115dad-0bcb-4754-8f70-3861b6e1afb7"},"vehicle_type_id":"4","last_reported":1706979958,"current_range_meters":0,"station_id":"ce4bgi92rcd13ifvqb90","pricing_plan_id":"free"},{"bike_id":"e3192bdc-eb12-4709-8fd7-eca49e5539e4","system_id":"levelo_inurba_marseille","lat":43.29543,"lon":5.37512,"is_reserved":false,"is_disabled":false,"rental_uris":{"android":"levelo://app?vid=e3192bdc-eb12-4709-8fd7-eca49e5539e4","ios":"levelo://app?vid=e3192bdc-eb12-4709-8fd7-eca49e5539e4"},"vehicle_type_id":"4","last_reported":1706979958,"current_range_meters":3200,"station_id":"ce4bgkp2rcd13ifvqbmg","pricing_plan_id":"free"},{"bike_id":"a5e83c21-d7b5-48a7-86b5-6c9639632f5a","system_id":"levelo_inurba_marseille","lat":43.295279,"lon":5.375048,"is_reserved":false,"is_disabled":false,"rental_uris":{"android":"levelo://app?vid=a5e83c21-d7b5-48a7-86b5-6c9639632f5a","ios":"levelo://app?vid=a5e83c21-d7b5-48a7-86b5-6c9639632f5a"},"vehicle_type_id":"4","last_reported":1706979958,"current_range_meters":10000,"station_id":"ce4bgkp2rcd13ifvqbmg","pricing_plan_id":"free"},{"bike_id":"bb6e43ce-8c5b-49cf-8824-3ae5bf18b65e","system_id":"levelo_inurba_marseille","lat":43.292311,"lon":5.360731,"is_reserved":false,"is_disabled":false,"rental_uris":{"android":"levelo://app?vid=bb6e43ce-8c5b-49cf-8824-3ae5bf18b65e","ios":"levelo://app?vid=bb6e43ce-8c5b-49cf-8824-3ae5bf18b65e"},"vehicle_type_id":"4","last_reported":1706979958,"current_range_meters":20000,"station_id":"ce4bhbh2rcd13ifvqeqg","pricing_plan_id":"free"},{"bike_id":"fa970b72-15d7-4d91-a5d8-14ed13ebb537","system_id":"levelo_inurba_marseille","lat":43.295279,"lon":5.375048,"is_reserved":false,"is_disabled":false,"rental_uris":{"android":"levelo://app?vid=fa970b72-15d7-4d91-a5d8-14ed13ebb537","ios":"levelo://app?vid=fa970b72-15d7-4d91-a5d8-14ed13ebb537"},"vehicle_type_id":"4","last_reported":1706979958,"current_range_meters":4800,"station_id":"ce4bgkp2rcd13ifvqbmg","pricing_plan_id":"free"},{"bike_id":"cacd9bdf-827b-4f3d-832d-a6658f9b8d79","system_id":"levelo_inurba_marseille","lat":43.295279,"lon":5.375048,"is_reserved":false,"is_disabled":false,"rental_uris":{"android":"levelo://app?vid=cacd9bdf-827b-4f3d-832d-a6658f9b8d79","ios":"levelo://app?vid=cacd9bdf-827b-4f3d-832d-a6658f9b8d79"},"vehicle_type_id":"4","last_reported":1706979958,"current_range_meters":4400,"station_id":"ce4bgkp2rcd13ifvqbmg","pricing_plan_id":"free"},{"bike_id":"3d362e34-99aa-41ec-b79e-1833e6519614","system_id":"levelo_inurba_marseille","lat":43.296263,"lon":5.377094,"is_reserved":false,"is_disabled":false,"rental_uris":{"android":"levelo://app?vid=3d362e34-99aa-41ec-b79e-1833e6519614","ios":"levelo://app?vid=3d362e34-99aa-41ec-b79e-1833e6519614"},"vehicle_type_id":"4","last_reported":1706979958,"current_range_meters":9200,"station_id":"ce4bgi92rcd13ifvqb90","pricing_plan_id":"free"},{"bike_id":"c4f794ee-64fb-451f-85a5-d7b4393670ae","system_id":"levelo_inurba_marseille","lat":43.295279,"lon":5.375048,"is_reserved":false,"is_disabled":false,"rental_uris":{"android":"levelo://app?vid=c4f794ee-64fb-451f-85a5-d7b4393670ae","ios":"levelo://app?vid=c4f794ee-64fb-451f-85a5-d7b4393670ae"},"vehicle_type_id":"4","last_reported":1706979958,"current_range_meters":5200,"station_id":"ce4bgkp2rcd13ifvqbmg","pricing_plan_id":"free"},{"bike_id":"f7f8fbd6-aac4-479c-9229-6747d802c06f","system_id":"levelo_inurba_marseille","lat":43.32361,"lon":5.38875,"is_reserved":false,"is_disabled":false,"rental_uris":{"android":"levelo://app?vid=f7f8fbd6-aac4-479c-9229-6747d802c06f","ios":"levelo://app?vid=f7f8fbd6-aac4-479c-9229-6747d802c06f"},"vehicle_type_id":"4","last_reported":1706979958,"current_range_meters":1600,"station_id":"ce4bhqp2rcd13ifvqhog","pricing_plan_id":"free"},{"bike_id":"bd7baa57-26d7-4c18-b549-ec7ad71dded2","system_id":"levelo_inurba_marseille","lat":43.311025,"lon":5.393276,"is_reserved":false,"is_disabled":false,"rental_uris":{"android":"levelo://app?vid=bd7baa57-26d7-4c18-b549-ec7ad71dded2","ios":"levelo://app?vid=bd7baa57-26d7-4c18-b549-ec7ad71dded2"},"vehicle_type_id":"4","last_reported":1706979958,"current_range_meters":0,"station_id":"","pricing_plan_id":"free"},{"bike_id":"c6478534-8a92-48aa-87e2-bf565bc04fb6","system_id":"levelo_inurba_marseille","lat":43.32364,"lon":5.38876,"is_reserved":false,"is_disabled":false,"rental_uris":{"android":"levelo://app?vid=c6478534-8a92-48aa-87e2-bf565bc04fb6","ios":"levelo://app?vid=c6478534-8a92-48aa-87e2-bf565bc04fb6"},"vehicle_type_id":"4","last_reported":1706979958,"current_range_meters":6400,"station_id":"ce4bhqp2rcd13ifvqhog","pricing_plan_id":"free"},{"bike_id":"62a9b393-09b1-4b3b-91a3-6352eceb9b04","system_id":"levelo_inurba_marseille","lat":43.32367,"lon":5.388836,"is_reserved":false,"is_disabled":false,"rental_uris":{"android":"levelo://app?vid=62a9b393-09b1-4b3b-91a3-6352eceb9b04","ios":"levelo://app?vid=62a9b393-09b1-4b3b-91a3-6352eceb9b04"},"vehicle_type_id":"4","last_reported":1706979958,"current_range_meters":8400,"station_id":"ce4bhqp2rcd13ifvqhog","pricing_plan_id":"free"},{"bike_id":"6ddd6644-0475-4d38-97ea-3c5cc97bcc31","system_id":"levelo_inurba_marseille","lat":43.32367,"lon":5.388836,"is_reserved":false,"is_disabled":false,"rental_uris":{"android":"levelo://app?vid=6ddd6644-0475-4d38-97ea-3c5cc97bcc31","ios":"levelo://app?vid=6ddd6644-0475-4d38-97ea-3c5cc97bcc31"},"vehicle_type_id":"4","last_reported":1706979958,"current_range_meters":9600,"station_id":"ce4bhqp2rcd13ifvqhog","pricing_plan_id":"free"},{"bike_id":"6000f0dc-1f4b-4a79-83b1-26d1a94d5811","system_id":"levelo_inurba_marseille","lat":43.32366,"lon":5.3889,"is_reserved":false,"is_disabled":false,"rental_uris":{"android":"levelo://app?vid=6000f0dc-1f4b-4a79-83b1-26d1a94d5811","ios":"levelo://app?vid=6000f0dc-1f4b-4a79-83b1-26d1a94d5811"},"vehicle_type_id":"4","last_reported":1706979958,"current_range_meters":6800,"station_id":"ce4bhqp2rcd13ifvqhog","pricing_plan_id":"free"},{"bike_id":"9b081c91-637e-47ff-a6d8-ba13bb5f1be4","system_id":"levelo_inurba_marseille","lat":43.32367,"lon":5.388836,"is_reserved":false,"is_disabled":false,"rental_uris":{"android":"levelo://app?vid=9b081c91-637e-47ff-a6d8-ba13bb5f1be4","ios":"levelo://app?vid=9b081c91-637e-47ff-a6d8-ba13bb5f1be4"},"vehicle_type_id":"4","last_reported":1706979958,"current_range_meters":30400,"station_id":"ce4bhqp2rcd13ifvqhog","pricing_plan_id":"free"},{"bike_id":"159e777a-5216-437a-9715-bad3bfa16ef9","system_id":"levelo_inurba_marseille","lat":43.29311,"lon":5.37183,"is_reserved":false,"is_disabled":false,"rental_uris":{"android":"levelo://app?vid=159e777a-5216-437a-9715-bad3bfa16ef9","ios":"levelo://app?vid=159e777a-5216-437a-9715-bad3bfa16ef9"},"vehicle_type_id":"4","last_reported":1706979958,"current_range_meters":16000,"station_id":"ce4bgh92rcd13ifvqb40","pricing_plan_id":"free"},{"bike_id":"999e1e73-c35f-43a9-8bdf-054896b9d458","system_id":"levelo_inurba_marseille","lat":43.292749,"lon":5.368402,"is_reserved":false,"is_disabled":false,"rental_uris":{"android":"levelo://app?vid=999e1e73-c35f-43a9-8bdf-054896b9d458","ios":"levelo://app?vid=999e1e73-c35f-43a9-8bdf-054896b9d458"},"vehicle_type_id":"4","last_reported":1706979958,"current_range_meters":0,"station_id":"ce4bhbp2rcd13ifvqesg","pricing_plan_id":"free"},{"bike_id":"ca154acb-397f-4f61-bc21-90f9525ad26a","system_id":"levelo_inurba_marseille","lat":43.29309,"lon":5.37186,"is_reserved":false,"is_disabled":false,"rental_uris":{"android":"levelo://app?vid=ca154acb-397f-4f61-bc21-90f9525ad26a","ios":"levelo://app?vid=ca154acb-397f-4f61-bc21-90f9525ad26a"},"vehicle_type_id":"4","last_reported":1706979958,"current_range_meters":26000,"station_id":"ce4bgh92rcd13ifvqb40","pricing_plan_id":"free"},{"bike_id":"6eff02de-4419-41de-af2f-7355d06b78e6","system_id":"levelo_inurba_marseille","lat":43.293249,"lon":5.371578,"is_reserved":false,"is_disabled":false,"rental_uris":{"android":"levelo://app?vid=6eff02de-4419-41de-af2f-7355d06b78e6","ios":"levelo://app?vid=6eff02de-4419-41de-af2f-7355d06b78e6"},"vehicle_type_id":"4","last_reported":1706979958,"current_range_meters":24000,"station_id":"ce4bgh92rcd13ifvqb40","pricing_plan_id":"free"},{"bike_id":"567fa810-534b-4d3a-a326-e0c054117b5e","system_id":"levelo_inurba_marseille","lat":43.292791,"lon":5.368423,"is_reserved":false,"is_disabled":false,"rental_uris":{"android":"levelo://app?vid=567fa810-534b-4d3a-a326-e0c054117b5e","ios":"levelo://app?vid=567fa810-534b-4d3a-a326-e0c054117b5e"},"vehicle_type_id":"4","last_reported":1706979958,"current_range_meters":9200,"station_id":"","pricing_plan_id":"free"},{"bike_id":"a8a24c6d-1642-43f2-8362-4fff3a0c2851","system_id":"levelo_inurba_marseille","lat":43.29308,"lon":5.37186,"is_reserved":false,"is_disabled":false,"rental_uris":{"android":"levelo://app?vid=a8a24c6d-1642-43f2-8362-4fff3a0c2851","ios":"levelo://app?vid=a8a24c6d-1642-43f2-8362-4fff3a0c2851"},"vehicle_type_id":"4","last_reported":1706979958,"current_range_meters":22800,"station_id":"ce4bgh92rcd13ifvqb40","pricing_plan_id":"free"},{"bike_id":"eb9bf153-7799-4843-90e7-d64e50170ec4","system_id":"levelo_inurba_marseille","lat":43.293047,"lon":5.371621,"is_reserved":false,"is_disabled":false,"rental_uris":{"android":"levelo://app?vid=eb9bf153-7799-4843-90e7-d64e50170ec4","ios":"levelo://app?vid=eb9bf153-7799-4843-90e7-d64e50170ec4"},"vehicle_type_id":"4","last_reported":1706979958,"current_range_meters":14000,"station_id":"ce4bgk12rcd13ifvqbi0","pricing_plan_id":"free"},{"bike_id":"795962c0-2fb4-4b55-95b5-fae7e78f088e","system_id":"levelo_inurba_marseille","lat":43.292749,"lon":5.368402,"is_reserved":false,"is_disabled":false,"rental_uris":{"android":"levelo://app?vid=795962c0-2fb4-4b55-95b5-fae7e78f088e","ios":"levelo://app?vid=795962c0-2fb4-4b55-95b5-fae7e78f088e"},"vehicle_type_id":"4","last_reported":1706979958,"current_range_meters":400,"station_id":"ce4bhbp2rcd13ifvqesg","pricing_plan_id":"free"},{"bike_id":"fbf06de5-3455-4056-9534-f492399ed768","system_id":"levelo_inurba_marseille","lat":43.29301,"lon":5.37159,"is_reserved":false,"is_disabled":false,"rental_uris":{"android":"levelo://app?vid=fbf06de5-3455-4056-9534-f492399ed768","ios":"levelo://app?vid=fbf06de5-3455-4056-9534-f492399ed768"},"vehicle_type_id":"4","last_reported":1706979958,"current_range_meters":8400,"station_id":"ce4bgh92rcd13ifvqb40","pricing_plan_id":"free"},{"bike_id":"016fd97f-addb-4d74-8470-2c597403a2c0","system_id":"levelo_inurba_marseille","lat":43.29303,"lon":5.37177,"is_reserved":false,"is_disabled":false,"rental_uris":{"android":"levelo://app?vid=016fd97f-addb-4d74-8470-2c597403a2c0","ios":"levelo://app?vid=016fd97f-addb-4d74-8470-2c597403a2c0"},"vehicle_type_id":"4","last_reported":1706979958,"current_range_meters":20800,"station_id":"ce4bgh92rcd13ifvqb40","pricing_plan_id":"free"},{"bike_id":"1cbc4755-2423-461b-bf7c-bc335cd2d6b3","system_id":"levelo_inurba_marseille","lat":43.292749,"lon":5.368402,"is_reserved":false,"is_disabled":false,"rental_uris":{"android":"levelo://app?vid=1cbc4755-2423-461b-bf7c-bc335cd2d6b3","ios":"levelo://app?vid=1cbc4755-2423-461b-bf7c-bc335cd2d6b3"},"vehicle_type_id":"4","last_reported":1706979958,"current_range_meters":6800,"station_id":"ce4bhbp2rcd13ifvqesg","pricing_plan_id":"free"},{"bike_id":"34912bef-8a4b-4644-ab8c-da2dd4ea0665","system_id":"levelo_inurba_marseille","lat":43.293009,"lon":5.374584,"is_reserved":false,"is_disabled":false,"rental_uris":{"android":"levelo://app?vid=34912bef-8a4b-4644-ab8c-da2dd4ea0665","ios":"levelo://app?vid=34912bef-8a4b-4644-ab8c-da2dd4ea0665"},"vehicle_type_id":"4","last_reported":1706979958,"current_range_meters":1600,"station_id":"ce4bgi12rcd13ifvqb70","pricing_plan_id":"free"},{"bike_id":"8839a025-ac2b-4907-b26d-34c8c13d1bab","system_id":"levelo_inurba_marseille","lat":43.29305,"lon":5.37456,"is_reserved":false,"is_disabled":false,"rental_uris":{"android":"levelo://app?vid=8839a025-ac2b-4907-b26d-34c8c13d1bab","ios":"levelo://app?vid=8839a025-ac2b-4907-b26d-34c8c13d1bab"},"vehicle_type_id":"4","last_reported":1706979958,"current_range_meters":2400,"station_id":"ce4bgi12rcd13ifvqb70","pricing_plan_id":"free"},{"bike_id":"30b214e1-a1ec-4d1e-8972-8cbf0b120850","system_id":"levelo_inurba_marseille","lat":43.29304,"lon":5.3746,"is_reserved":false,"is_disabled":false,"rental_uris":{"android":"levelo://app?vid=30b214e1-a1ec-4d1e-8972-8cbf0b120850","ios":"levelo://app?vid=30b214e1-a1ec-4d1e-8972-8cbf0b120850"},"vehicle_type_id":"4","last_reported":1706979958,"current_range_meters":0,"station_id":"ce4bgi12rcd13ifvqb70","pricing_plan_id":"free"},{"bike_id":"38da6ba4-f3f5-4d17-8c9c-c36da390d6f4","system_id":"levelo_inurba_marseille","lat":43.293009,"lon":5.374584,"is_reserved":false,"is_disabled":false,"rental_uris":{"android":"levelo://app?vid=38da6ba4-f3f5-4d17-8c9c-c36da390d6f4","ios":"levelo://app?vid=38da6ba4-f3f5-4d17-8c9c-c36da390d6f4"},"vehicle_type_id":"4","last_reported":1706979958,"current_range_meters":0,"station_id":"ce4bgi12rcd13ifvqb70","pricing_plan_id":"free"},{"bike_id":"8bb03894-a4a1-4749-ad4e-f85558a674c4","system_id":"levelo_inurba_marseille","lat":43.293009,"lon":5.374584,"is_reserved":false,"is_disabled":false,"rental_uris":{"android":"levelo://app?vid=8bb03894-a4a1-4749-ad4e-f85558a674c4","ios":"levelo://app?vid=8bb03894-a4a1-4749-ad4e-f85558a674c4"},"vehicle_type_id":"4","last_reported":1706979958,"current_range_meters":12000,"station_id":"ce4bgi12rcd13ifvqb70","pricing_plan_id":"free"},{"bike_id":"cac5deef-26d5-4505-ab07-477424947b96","system_id":"levelo_inurba_marseille","lat":43.293009,"lon":5.374584,"is_reserved":false,"is_disabled":false,"rental_uris":{"android":"levelo://app?vid=cac5deef-26d5-4505-ab07-477424947b96","ios":"levelo://app?vid=cac5deef-26d5-4505-ab07-477424947b96"},"vehicle_type_id":"4","last_reported":1706979958,"current_range_meters":15200,"station_id":"ce4bgi12rcd13ifvqb70","pricing_plan_id":"free"},{"bike_id":"d5f96f5f-2e49-4030-a3e4-22f2dfcafc48","system_id":"levelo_inurba_marseille","lat":43.30318,"lon":5.39208,"is_reserved":false,"is_disabled":false,"rental_uris":{"android":"levelo://app?vid=d5f96f5f-2e49-4030-a3e4-22f2dfcafc48","ios":"levelo://app?vid=d5f96f5f-2e49-4030-a3e4-22f2dfcafc48"},"vehicle_type_id":"4","last_reported":1706979958,"current_range_meters":23600,"station_id":"ce4bgkh2rcd13ifvqbk0","pricing_plan_id":"free"},{"bike_id":"d236b600-9bd2-4572-bfb5-d8d2c00e1e01","system_id":"levelo_inurba_marseille","lat":43.303002,"lon":5.392142,"is_reserved":false,"is_disabled":false,"rental_uris":{"android":"levelo://app?vid=d236b600-9bd2-4572-bfb5-d8d2c00e1e01","ios":"levelo://app?vid=d236b600-9bd2-4572-bfb5-d8d2c00e1e01"},"vehicle_type_id":"4","last_reported":1706979958,"current_range_meters":0,"station_id":"ce4bgkh2rcd13ifvqbk0","pricing_plan_id":"free"},{"bike_id":"82c03d6e-ed0b-407b-81c9-1e6e0da10196","system_id":"levelo_inurba_marseille","lat":43.30303,"lon":5.39219,"is_reserved":false,"is_disabled":false,"rental_uris":{"android":"levelo://app?vid=82c03d6e-ed0b-407b-81c9-1e6e0da10196","ios":"levelo://app?vid=82c03d6e-ed0b-407b-81c9-1e6e0da10196"},"vehicle_type_id":"4","last_reported":1706979958,"current_range_meters":6000,"station_id":"ce4bgkh2rcd13ifvqbk0","pricing_plan_id":"free"},{"bike_id":"e7783f11-4008-4c9a-8607-41194281828a","system_id":"levelo_inurba_marseille","lat":43.292311,"lon":5.360731,"is_reserved":false,"is_disabled":false,"rental_uris":{"android":"levelo://app?vid=e7783f11-4008-4c9a-8607-41194281828a","ios":"levelo://app?vid=e7783f11-4008-4c9a-8607-41194281828a"},"vehicle_type_id":"4","last_reported":1706979958,"current_range_meters":0,"station_id":"ce4bhbh2rcd13ifvqeqg","pricing_plan_id":"free"},{"bike_id":"90190fbd-f073-40ac-aeec-1c5257224979","system_id":"levelo_inurba_marseille","lat":43.298764,"lon":5.388973,"is_reserved":false,"is_disabled":false,"rental_uris":{"android":"levelo://app?vid=90190fbd-f073-40ac-aeec-1c5257224979","ios":"levelo://app?vid=90190fbd-f073-40ac-aeec-1c5257224979"},"vehicle_type_id":"4","last_reported":1706979958,"current_range_meters":800,"station_id":"ce4bh392rcd13ifvqdl0","pricing_plan_id":"free"},{"bike_id":"7f2a82f6-2ee3-4f64-9fb7-489a34528e17","system_id":"levelo_inurba_marseille","lat":43.300852,"lon":5.390859,"is_reserved":false,"is_disabled":false,"rental_uris":{"android":"levelo://app?vid=7f2a82f6-2ee3-4f64-9fb7-489a34528e17","ios":"levelo://app?vid=7f2a82f6-2ee3-4f64-9fb7-489a34528e17"},"vehicle_type_id":"4","last_reported":1706979958,"current_range_meters":29600,"station_id":"ce4bh192rcd13ifvqdb0","pricing_plan_id":"free"},{"bike_id":"f20ebac8-851c-4e23-93e7-e3113c7f799a","system_id":"levelo_inurba_marseille","lat":43.293009,"lon":5.374584,"is_reserved":false,"is_disabled":false,"rental_uris":{"android":"levelo://app?vid=f20ebac8-851c-4e23-93e7-e3113c7f799a","ios":"levelo://app?vid=f20ebac8-851c-4e23-93e7-e3113c7f799a"},"vehicle_type_id":"4","last_reported":1706979958,"current_range_meters":12000,"station_id":"ce4bgi12rcd13ifvqb70","pricing_plan_id":"free"},{"bike_id":"f8b1e626-67d1-4b85-a1fa-7d86436f143a","system_id":"levelo_inurba_marseille","lat":43.298764,"lon":5.388973,"is_reserved":false,"is_disabled":false,"rental_uris":{"android":"levelo://app?vid=f8b1e626-67d1-4b85-a1fa-7d86436f143a","ios":"levelo://app?vid=f8b1e626-67d1-4b85-a1fa-7d86436f143a"},"vehicle_type_id":"4","last_reported":1706979958,"current_range_meters":1200,"station_id":"ce4bh392rcd13ifvqdl0","pricing_plan_id":"free"},{"bike_id":"372a8114-1f1d-4c8a-b75d-0865acdd1f1d","system_id":"levelo_inurba_marseille","lat":43.298764,"lon":5.388973,"is_reserved":false,"is_disabled":false,"rental_uris":{"android":"levelo://app?vid=372a8114-1f1d-4c8a-b75d-0865acdd1f1d","ios":"levelo://app?vid=372a8114-1f1d-4c8a-b75d-0865acdd1f1d"},"vehicle_type_id":"4","last_reported":1706979958,"current_range_meters":400,"station_id":"ce4bh392rcd13ifvqdl0","pricing_plan_id":"free"},{"bike_id":"906a7956-9364-49f5-bf4d-bd01967391c1","system_id":"levelo_inurba_marseille","lat":43.291675,"lon":5.371583,"is_reserved":false,"is_disabled":false,"rental_uris":{"android":"levelo://app?vid=906a7956-9364-49f5-bf4d-bd01967391c1","ios":"levelo://app?vid=906a7956-9364-49f5-bf4d-bd01967391c1"},"vehicle_type_id":"4","last_reported":1706979958,"current_range_meters":14400,"station_id":"ce4bha92rcd13ifvqeh0","pricing_plan_id":"free"},{"bike_id":"29cd737b-d6da-43eb-a059-e0cc31e03370","system_id":"levelo_inurba_marseille","lat":43.291675,"lon":5.371583,"is_reserved":false,"is_disabled":false,"rental_uris":{"android":"levelo://app?vid=29cd737b-d6da-43eb-a059-e0cc31e03370","ios":"levelo://app?vid=29cd737b-d6da-43eb-a059-e0cc31e03370"},"vehicle_type_id":"4","last_reported":1706979958,"current_range_meters":29200,"station_id":"ce4bha92rcd13ifvqeh0","pricing_plan_id":"free"},{"bike_id":"7ee1a466-014d-44a1-b7e6-ba0b81f01d5b","system_id":"levelo_inurba_marseille","lat":43.29881,"lon":5.38906,"is_reserved":false,"is_disabled":false,"rental_uris":{"android":"levelo://app?vid=7ee1a466-014d-44a1-b7e6-ba0b81f01d5b","ios":"levelo://app?vid=7ee1a466-014d-44a1-b7e6-ba0b81f01d5b"},"vehicle_type_id":"4","last_reported":1706979958,"current_range_meters":15200,"station_id":"ce4bh392rcd13ifvqdl0","pricing_plan_id":"free"},{"bike_id":"99259ed7-1b4a-4ad0-88e8-53863d484858","system_id":"levelo_inurba_marseille","lat":43.2936,"lon":5.37835,"is_reserved":false,"is_disabled":false,"rental_uris":{"android":"levelo://app?vid=99259ed7-1b4a-4ad0-88e8-53863d484858","ios":"levelo://app?vid=99259ed7-1b4a-4ad0-88e8-53863d484858"},"vehicle_type_id":"4","last_reported":1706979958,"current_range_meters":25600,"station_id":"ce4bgjh2rcd13ifvqbf0","pricing_plan_id":"free"},{"bike_id":"a09f4126-2136-4c70-93f2-718d407799a2","system_id":"levelo_inurba_marseille","lat":43.298764,"lon":5.388973,"is_reserved":false,"is_disabled":false,"rental_uris":{"android":"levelo://app?vid=a09f4126-2136-4c70-93f2-718d407799a2","ios":"levelo://app?vid=a09f4126-2136-4c70-93f2-718d407799a2"},"vehicle_type_id":"4","last_reported":1706979958,"current_range_meters":20800,"station_id":"ce4bh392rcd13ifvqdl0","pricing_plan_id":"free"},{"bike_id":"b8bedcbb-c7b4-4f56-9a31-d4c850987e3e","system_id":"levelo_inurba_marseille","lat":43.291675,"lon":5.371583,"is_reserved":false,"is_disabled":false,"rental_uris":{"android":"levelo://app?vid=b8bedcbb-c7b4-4f56-9a31-d4c850987e3e","ios":"levelo://app?vid=b8bedcbb-c7b4-4f56-9a31-d4c850987e3e"},"vehicle_type_id":"4","last_reported":1706979958,"current_range_meters":0,"station_id":"ce4bha92rcd13ifvqeh0","pricing_plan_id":"free"},{"bike_id":"385cce40-55a3-43b8-a035-9dc360438cdd","system_id":"levelo_inurba_marseille","lat":43.308862,"lon":5.396271,"is_reserved":false,"is_disabled":false,"rental_uris":{"android":"levelo://app?vid=385cce40-55a3-43b8-a035-9dc360438cdd","ios":"levelo://app?vid=385cce40-55a3-43b8-a035-9dc360438cdd"},"vehicle_type_id":"4","last_reported":1706979958,"current_range_meters":0,"station_id":"ce4bh012rcd13ifvqcv0","pricing_plan_id":"free"},{"bike_id":"8fb51ee4-cd48-45ed-914a-94e780c979ac","system_id":"levelo_inurba_marseille","lat":43.291994,"lon":5.357886,"is_reserved":false,"is_disabled":false,"rental_uris":{"android":"levelo://app?vid=8fb51ee4-cd48-45ed-914a-94e780c979ac","ios":"levelo://app?vid=8fb51ee4-cd48-45ed-914a-94e780c979ac"},"vehicle_type_id":"4","last_reported":1706979958,"current_range_meters":0,"station_id":"ce4bhb12rcd13ifvqel0","pricing_plan_id":"free"},{"bike_id":"92bde56d-bf17-4260-a0b7-a6a3d9d09404","system_id":"levelo_inurba_marseille","lat":43.291994,"lon":5.357886,"is_reserved":false,"is_disabled":false,"rental_uris":{"android":"levelo://app?vid=92bde56d-bf17-4260-a0b7-a6a3d9d09404","ios":"levelo://app?vid=92bde56d-bf17-4260-a0b7-a6a3d9d09404"},"vehicle_type_id":"4","last_reported":1706979958,"current_range_meters":22800,"station_id":"ce4bhb12rcd13ifvqel0","pricing_plan_id":"free"},{"bike_id":"5046fb4d-d23f-4f1a-81cf-3c2eec2a0961","system_id":"levelo_inurba_marseille","lat":43.291994,"lon":5.357886,"is_reserved":false,"is_disabled":false,"rental_uris":{"android":"levelo://app?vid=5046fb4d-d23f-4f1a-81cf-3c2eec2a0961","ios":"levelo://app?vid=5046fb4d-d23f-4f1a-81cf-3c2eec2a0961"},"vehicle_type_id":"4","last_reported":1706979958,"current_range_meters":0,"station_id":"ce4bhb12rcd13ifvqel0","pricing_plan_id":"free"},{"bike_id":"89182b56-1501-4349-b5f5-4e656b1f8aeb","system_id":"levelo_inurba_marseille","lat":43.313268,"lon":5.396859,"is_reserved":false,"is_disabled":false,"rental_uris":{"android":"levelo://app?vid=89182b56-1501-4349-b5f5-4e656b1f8aeb","ios":"levelo://app?vid=89182b56-1501-4349-b5f5-4e656b1f8aeb"},"vehicle_type_id":"4","last_reported":1706979958,"current_range_meters":29200,"station_id":"","pricing_plan_id":"free"},{"bike_id":"0e42796f-e552-4369-8092-90e8640fc672","system_id":"levelo_inurba_marseille","lat":43.3133,"lon":5.39691,"is_reserved":false,"is_disabled":false,"rental_uris":{"android":"levelo://app?vid=0e42796f-e552-4369-8092-90e8640fc672","ios":"levelo://app?vid=0e42796f-e552-4369-8092-90e8640fc672"},"vehicle_type_id":"4","last_reported":1706979958,"current_range_meters":24400,"station_id":"ce4bgvp2rcd13ifvqcu0","pricing_plan_id":"free"},{"bike_id":"2ca054da-b743-4b82-a702-4390491b129a","system_id":"levelo_inurba_marseille","lat":43.291994,"lon":5.357886,"is_reserved":false,"is_disabled":false,"rental_uris":{"android":"levelo://app?vid=2ca054da-b743-4b82-a702-4390491b129a","ios":"levelo://app?vid=2ca054da-b743-4b82-a702-4390491b129a"},"vehicle_type_id":"4","last_reported":1706979958,"current_range_meters":6800,"station_id":"ce4bhb12rcd13ifvqel0","pricing_plan_id":"free"},{"bike_id":"85acc7d0-6b3c-412f-b1a2-1cf6b89daa53","system_id":"levelo_inurba_marseille","lat":43.2919,"lon":5.35798,"is_reserved":false,"is_disabled":false,"rental_uris":{"android":"levelo://app?vid=85acc7d0-6b3c-412f-b1a2-1cf6b89daa53","ios":"levelo://app?vid=85acc7d0-6b3c-412f-b1a2-1cf6b89daa53"},"vehicle_type_id":"4","last_reported":1706979958,"current_range_meters":0,"station_id":"ce4bhb12rcd13ifvqel0","pricing_plan_id":"free"},{"bike_id":"c50e40bc-b4d4-48aa-a9db-538f1bc189d4","system_id":"levelo_inurba_marseille","lat":43.31326,"lon":5.39694,"is_reserved":false,"is_disabled":false,"rental_uris":{"android":"levelo://app?vid=c50e40bc-b4d4-48aa-a9db-538f1bc189d4","ios":"levelo://app?vid=c50e40bc-b4d4-48aa-a9db-538f1bc189d4"},"vehicle_type_id":"4","last_reported":1706979958,"current_range_meters":400,"station_id":"ce4bgvp2rcd13ifvqcu0","pricing_plan_id":"free"},{"bike_id":"2b3a9ca1-b204-4961-96de-4bb4ad008bb4","system_id":"levelo_inurba_marseille","lat":43.31326,"lon":5.39698,"is_reserved":false,"is_disabled":false,"rental_uris":{"android":"levelo://app?vid=2b3a9ca1-b204-4961-96de-4bb4ad008bb4","ios":"levelo://app?vid=2b3a9ca1-b204-4961-96de-4bb4ad008bb4"},"vehicle_type_id":"4","last_reported":1706979958,"current_range_meters":2400,"station_id":"ce4bgvp2rcd13ifvqcu0","pricing_plan_id":"free"},{"bike_id":"7f07a0ad-a4d1-41f4-8119-62d5cafbfdd2","system_id":"levelo_inurba_marseille","lat":43.31327,"lon":5.396987,"is_reserved":false,"is_disabled":false,"rental_uris":{"android":"levelo://app?vid=7f07a0ad-a4d1-41f4-8119-62d5cafbfdd2","ios":"levelo://app?vid=7f07a0ad-a4d1-41f4-8119-62d5cafbfdd2"},"vehicle_type_id":"4","last_reported":1706979958,"current_range_meters":24400,"station_id":"ce4bgvp2rcd13ifvqcu0","pricing_plan_id":"free"},{"bike_id":"00261863-6278-4187-8973-e50665e54d61","system_id":"levelo_inurba_marseille","lat":43.309038,"lon":5.396546,"is_reserved":false,"is_disabled":false,"rental_uris":{"android":"levelo://app?vid=00261863-6278-4187-8973-e50665e54d61","ios":"levelo://app?vid=00261863-6278-4187-8973-e50665e54d61"},"vehicle_type_id":"4","last_reported":1706979958,"current_range_meters":28000,"station_id":"ce4bh012rcd13ifvqcv0","pricing_plan_id":"free"},{"bike_id":"9a43601f-e3e2-4380-90c7-8f816762e133","system_id":"levelo_inurba_marseille","lat":43.309038,"lon":5.396546,"is_reserved":false,"is_disabled":false,"rental_uris":{"android":"levelo://app?vid=9a43601f-e3e2-4380-90c7-8f816762e133","ios":"levelo://app?vid=9a43601f-e3e2-4380-90c7-8f816762e133"},"vehicle_type_id":"4","last_reported":1706979958,"current_range_meters":0,"station_id":"ce4bh012rcd13ifvqcv0","pricing_plan_id":"free"},{"bike_id":"1aa843fb-f6a1-4c6f-9b31-f4cf20944ff3","system_id":"levelo_inurba_marseille","lat":43.29529,"lon":5.385581,"is_reserved":false,"is_disabled":false,"rental_uris":{"android":"levelo://app?vid=1aa843fb-f6a1-4c6f-9b31-f4cf20944ff3","ios":"levelo://app?vid=1aa843fb-f6a1-4c6f-9b31-f4cf20944ff3"},"vehicle_type_id":"4","last_reported":1706979958,"current_range_meters":8400,"station_id":"ce4bgih2rcd13ifvqba0","pricing_plan_id":"free"},{"bike_id":"f4cabbe4-38cc-41e8-8557-84fa752c6380","system_id":"levelo_inurba_marseille","lat":43.29529,"lon":5.385581,"is_reserved":false,"is_disabled":false,"rental_uris":{"android":"levelo://app?vid=f4cabbe4-38cc-41e8-8557-84fa752c6380","ios":"levelo://app?vid=f4cabbe4-38cc-41e8-8557-84fa752c6380"},"vehicle_type_id":"4","last_reported":1706979958,"current_range_meters":22400,"station_id":"ce4bgih2rcd13ifvqba0","pricing_plan_id":"free"},{"bike_id":"0db8889f-3241-4e29-b7a5-32a0d667f0f2","system_id":"levelo_inurba_marseille","lat":43.29529,"lon":5.385581,"is_reserved":false,"is_disabled":false,"rental_uris":{"android":"levelo://app?vid=0db8889f-3241-4e29-b7a5-32a0d667f0f2","ios":"levelo://app?vid=0db8889f-3241-4e29-b7a5-32a0d667f0f2"},"vehicle_type_id":"4","last_reported":1706979958,"current_range_meters":20800,"station_id":"ce4bgih2rcd13ifvqba0","pricing_plan_id":"free"},{"bike_id":"fbeb1f07-382d-4691-94a6-1b3570a016f2","system_id":"levelo_inurba_marseille","lat":43.29529,"lon":5.385581,"is_reserved":false,"is_disabled":false,"rental_uris":{"android":"levelo://app?vid=fbeb1f07-382d-4691-94a6-1b3570a016f2","ios":"levelo://app?vid=fbeb1f07-382d-4691-94a6-1b3570a016f2"},"vehicle_type_id":"4","last_reported":1706979958,"current_range_meters":13600,"station_id":"ce4bgih2rcd13ifvqba0","pricing_plan_id":"free"},{"bike_id":"8eee577c-5d59-48b4-a050-e171f07dcb97","system_id":"levelo_inurba_marseille","lat":43.290779,"lon":5.371482,"is_reserved":false,"is_disabled":false,"rental_uris":{"android":"levelo://app?vid=8eee577c-5d59-48b4-a050-e171f07dcb97","ios":"levelo://app?vid=8eee577c-5d59-48b4-a050-e171f07dcb97"},"vehicle_type_id":"4","last_reported":1706979958,"current_range_meters":4400,"station_id":"ce4bh5p2rcd13ifvqe4g","pricing_plan_id":"free"},{"bike_id":"ec2aea0f-b751-4315-b7e8-b426e4b13949","system_id":"levelo_inurba_marseille","lat":43.300852,"lon":5.390859,"is_reserved":false,"is_disabled":false,"rental_uris":{"android":"levelo://app?vid=ec2aea0f-b751-4315-b7e8-b426e4b13949","ios":"levelo://app?vid=ec2aea0f-b751-4315-b7e8-b426e4b13949"},"vehicle_type_id":"4","last_reported":1706979958,"current_range_meters":2400,"station_id":"ce4bh192rcd13ifvqdb0","pricing_plan_id":"free"},{"bike_id":"bdfae537-769f-48b5-82f3-d2a75014edaa","system_id":"levelo_inurba_marseille","lat":43.302008,"lon":5.394694,"is_reserved":false,"is_disabled":false,"rental_uris":{"android":"levelo://app?vid=bdfae537-769f-48b5-82f3-d2a75014edaa","ios":"levelo://app?vid=bdfae537-769f-48b5-82f3-d2a75014edaa"},"vehicle_type_id":"4","last_reported":1706979958,"current_range_meters":18000,"station_id":"ce4bh0p2rcd13ifvqd70","pricing_plan_id":"free"},{"bike_id":"bc1bb8d4-879b-464b-9f2a-b4d49bf94195","system_id":"levelo_inurba_marseille","lat":43.302008,"lon":5.394694,"is_reserved":false,"is_disabled":false,"rental_uris":{"android":"levelo://app?vid=bc1bb8d4-879b-464b-9f2a-b4d49bf94195","ios":"levelo://app?vid=bc1bb8d4-879b-464b-9f2a-b4d49bf94195"},"vehicle_type_id":"4","last_reported":1706979958,"current_range_meters":0,"station_id":"ce4bh0p2rcd13ifvqd70","pricing_plan_id":"free"},{"bike_id":"ccd2e05a-37de-4ac2-9409-cd5138b47901","system_id":"levelo_inurba_marseille","lat":43.290624,"lon":5.359245,"is_reserved":false,"is_disabled":false,"rental_uris":{"android":"levelo://app?vid=ccd2e05a-37de-4ac2-9409-cd5138b47901","ios":"levelo://app?vid=ccd2e05a-37de-4ac2-9409-cd5138b47901"},"vehicle_type_id":"4","last_reported":1706979958,"current_range_meters":18400,"station_id":"ce4bha92rcd13ifvqeg0","pricing_plan_id":"free"},{"bike_id":"610b03ca-4625-489f-8d14-1070df43932b","system_id":"levelo_inurba_marseille","lat":43.289184,"lon":5.366408,"is_reserved":false,"is_disabled":false,"rental_uris":{"android":"levelo://app?vid=610b03ca-4625-489f-8d14-1070df43932b","ios":"levelo://app?vid=610b03ca-4625-489f-8d14-1070df43932b"},"vehicle_type_id":"4","last_reported":1706979958,"current_range_meters":8000,"station_id":"ce4bhap2rcd13ifvqek0","pricing_plan_id":"free"},{"bike_id":"8ad5aa6e-10af-4f68-9ddf-f4e74fe57038","system_id":"levelo_inurba_marseille","lat":43.290631,"lon":5.359244,"is_reserved":false,"is_disabled":false,"rental_uris":{"android":"levelo://app?vid=8ad5aa6e-10af-4f68-9ddf-f4e74fe57038","ios":"levelo://app?vid=8ad5aa6e-10af-4f68-9ddf-f4e74fe57038"},"vehicle_type_id":"4","last_reported":1706979958,"current_range_meters":0,"station_id":"ce4bha92rcd13ifvqeg0","pricing_plan_id":"free"},{"bike_id":"7c755874-04f4-49a7-881c-3dccfea2f0df","system_id":"levelo_inurba_marseille","lat":43.290441,"lon":5.359123,"is_reserved":false,"is_disabled":false,"rental_uris":{"android":"levelo://app?vid=7c755874-04f4-49a7-881c-3dccfea2f0df","ios":"levelo://app?vid=7c755874-04f4-49a7-881c-3dccfea2f0df"},"vehicle_type_id":"4","last_reported":1706979958,"current_range_meters":2000,"station_id":"","pricing_plan_id":"free"},{"bike_id":"b910e4e5-0f64-4f60-815a-1b4fb425ab41","system_id":"levelo_inurba_marseille","lat":43.290327,"lon":5.375711,"is_reserved":false,"is_disabled":false,"rental_uris":{"android":"levelo://app?vid=b910e4e5-0f64-4f60-815a-1b4fb425ab41","ios":"levelo://app?vid=b910e4e5-0f64-4f60-815a-1b4fb425ab41"},"vehicle_type_id":"4","last_reported":1706979958,"current_range_meters":4000,"station_id":"ce4bh692rcd13ifvqe90","pricing_plan_id":"free"},{"bike_id":"1213d6c2-2f25-420f-8850-317865e0afcf","system_id":"levelo_inurba_marseille","lat":43.289184,"lon":5.366408,"is_reserved":false,"is_disabled":false,"rental_uris":{"android":"levelo://app?vid=1213d6c2-2f25-420f-8850-317865e0afcf","ios":"levelo://app?vid=1213d6c2-2f25-420f-8850-317865e0afcf"},"vehicle_type_id":"4","last_reported":1706979958,"current_range_meters":4400,"station_id":"ce4bhap2rcd13ifvqek0","pricing_plan_id":"free"},{"bike_id":"9df8b4ac-b97e-466e-9d57-9db7ff1da3ec","system_id":"levelo_inurba_marseille","lat":43.290327,"lon":5.375711,"is_reserved":false,"is_disabled":false,"rental_uris":{"android":"levelo://app?vid=9df8b4ac-b97e-466e-9d57-9db7ff1da3ec","ios":"levelo://app?vid=9df8b4ac-b97e-466e-9d57-9db7ff1da3ec"},"vehicle_type_id":"4","last_reported":1706979958,"current_range_meters":14000,"station_id":"ce4bh692rcd13ifvqe90","pricing_plan_id":"free"},{"bike_id":"e2c3741c-4f17-4a93-aca9-404760eea1b1","system_id":"levelo_inurba_marseille","lat":43.289184,"lon":5.366408,"is_reserved":false,"is_disabled":false,"rental_uris":{"android":"levelo://app?vid=e2c3741c-4f17-4a93-aca9-404760eea1b1","ios":"levelo://app?vid=e2c3741c-4f17-4a93-aca9-404760eea1b1"},"vehicle_type_id":"4","last_reported":1706979958,"current_range_meters":9600,"station_id":"ce4bhap2rcd13ifvqek0","pricing_plan_id":"free"},{"bike_id":"9a5df08f-8dc5-4e67-a746-b4c171a33cd1","system_id":"levelo_inurba_marseille","lat":43.289184,"lon":5.366408,"is_reserved":false,"is_disabled":false,"rental_uris":{"android":"levelo://app?vid=9a5df08f-8dc5-4e67-a746-b4c171a33cd1","ios":"levelo://app?vid=9a5df08f-8dc5-4e67-a746-b4c171a33cd1"},"vehicle_type_id":"4","last_reported":1706979958,"current_range_meters":8000,"station_id":"ce4bhap2rcd13ifvqek0","pricing_plan_id":"free"},{"bike_id":"c0245c99-31ba-4f2c-aca9-1ac693bd2fd3","system_id":"levelo_inurba_marseille","lat":43.28941,"lon":5.366523,"is_reserved":false,"is_disabled":false,"rental_uris":{"android":"levelo://app?vid=c0245c99-31ba-4f2c-aca9-1ac693bd2fd3","ios":"levelo://app?vid=c0245c99-31ba-4f2c-aca9-1ac693bd2fd3"},"vehicle_type_id":"4","last_reported":1706979958,"current_range_meters":18800,"station_id":"ce4bhap2rcd13ifvqek0","pricing_plan_id":"free"},{"bike_id":"022c29b1-5330-473b-9939-0bf3c3cdad21","system_id":"levelo_inurba_marseille","lat":43.289184,"lon":5.366408,"is_reserved":false,"is_disabled":false,"rental_uris":{"android":"levelo://app?vid=022c29b1-5330-473b-9939-0bf3c3cdad21","ios":"levelo://app?vid=022c29b1-5330-473b-9939-0bf3c3cdad21"},"vehicle_type_id":"4","last_reported":1706979958,"current_range_meters":0,"station_id":"ce4bhap2rcd13ifvqek0","pricing_plan_id":"free"},{"bike_id":"01764097-efc2-4bf5-9a9a-69c269710e26","system_id":"levelo_inurba_marseille","lat":43.289184,"lon":5.366408,"is_reserved":false,"is_disabled":false,"rental_uris":{"android":"levelo://app?vid=01764097-efc2-4bf5-9a9a-69c269710e26","ios":"levelo://app?vid=01764097-efc2-4bf5-9a9a-69c269710e26"},"vehicle_type_id":"4","last_reported":1706979958,"current_range_meters":6000,"station_id":"ce4bhap2rcd13ifvqek0","pricing_plan_id":"free"},{"bike_id":"0d7ac06f-87bd-4dc9-92a1-01574d6eeba3","system_id":"levelo_inurba_marseille","lat":43.292644,"lon":5.384257,"is_reserved":false,"is_disabled":false,"rental_uris":{"android":"levelo://app?vid=0d7ac06f-87bd-4dc9-92a1-01574d6eeba3","ios":"levelo://app?vid=0d7ac06f-87bd-4dc9-92a1-01574d6eeba3"},"vehicle_type_id":"4","last_reported":1706979958,"current_range_meters":3600,"station_id":"ce4bh692rcd13ifvqea0","pricing_plan_id":"free"},{"bike_id":"50e9fde4-1cb0-49f2-9437-7f73535913ae","system_id":"levelo_inurba_marseille","lat":43.304296,"lon":5.397513,"is_reserved":false,"is_disabled":false,"rental_uris":{"android":"levelo://app?vid=50e9fde4-1cb0-49f2-9437-7f73535913ae","ios":"levelo://app?vid=50e9fde4-1cb0-49f2-9437-7f73535913ae"},"vehicle_type_id":"4","last_reported":1706979958,"current_range_meters":28800,"station_id":"ce4bh092rcd13ifvqd20","pricing_plan_id":"free"},{"bike_id":"f67e859a-d665-4a65-b34b-fe20685f02d4","system_id":"levelo_inurba_marseille","lat":43.304296,"lon":5.397513,"is_reserved":false,"is_disabled":false,"rental_uris":{"android":"levelo://app?vid=f67e859a-d665-4a65-b34b-fe20685f02d4","ios":"levelo://app?vid=f67e859a-d665-4a65-b34b-fe20685f02d4"},"vehicle_type_id":"4","last_reported":1706979958,"current_range_meters":14800,"station_id":"ce4bh092rcd13ifvqd20","pricing_plan_id":"free"},{"bike_id":"470546d2-0153-466b-8304-5ba8e53ac084","system_id":"levelo_inurba_marseille","lat":43.2901,"lon":5.35614,"is_reserved":false,"is_disabled":false,"rental_uris":{"android":"levelo://app?vid=470546d2-0153-466b-8304-5ba8e53ac084","ios":"levelo://app?vid=470546d2-0153-466b-8304-5ba8e53ac084"},"vehicle_type_id":"4","last_reported":1706979958,"current_range_meters":11200,"station_id":"ce4bhb92rcd13ifvqen0","pricing_plan_id":"free"},{"bike_id":"f9d5d05c-03c7-490f-94f5-7f3e107031f5","system_id":"levelo_inurba_marseille","lat":43.317557,"lon":5.390173,"is_reserved":false,"is_disabled":false,"rental_uris":{"android":"levelo://app?vid=f9d5d05c-03c7-490f-94f5-7f3e107031f5","ios":"levelo://app?vid=f9d5d05c-03c7-490f-94f5-7f3e107031f5"},"vehicle_type_id":"4","last_reported":1706979958,"current_range_meters":1200,"station_id":"ce4bhqp2rcd13ifvqhng","pricing_plan_id":"free"},{"bike_id":"19b5fc13-f758-43e9-8f2a-547b026c10bb","system_id":"levelo_inurba_marseille","lat":43.30154,"lon":5.39609,"is_reserved":false,"is_disabled":false,"rental_uris":{"android":"levelo://app?vid=19b5fc13-f758-43e9-8f2a-547b026c10bb","ios":"levelo://app?vid=19b5fc13-f758-43e9-8f2a-547b026c10bb"},"vehicle_type_id":"4","last_reported":1706979958,"current_range_meters":21200,"station_id":"","pricing_plan_id":"free"},{"bike_id":"7d951ac7-d5bf-452e-af2e-5d373561733e","system_id":"levelo_inurba_marseille","lat":43.290104,"lon":5.356111,"is_reserved":false,"is_disabled":false,"rental_uris":{"android":"levelo://app?vid=7d951ac7-d5bf-452e-af2e-5d373561733e","ios":"levelo://app?vid=7d951ac7-d5bf-452e-af2e-5d373561733e"},"vehicle_type_id":"4","last_reported":1706979958,"current_range_meters":17200,"station_id":"ce4bhb92rcd13ifvqen0","pricing_plan_id":"free"},{"bike_id":"a8d1ab61-9fc9-49d7-b152-8e24720478a1","system_id":"levelo_inurba_marseille","lat":43.290995,"lon":5.381361,"is_reserved":false,"is_disabled":false,"rental_uris":{"android":"levelo://app?vid=a8d1ab61-9fc9-49d7-b152-8e24720478a1","ios":"levelo://app?vid=a8d1ab61-9fc9-49d7-b152-8e24720478a1"},"vehicle_type_id":"4","last_reported":1706979958,"current_range_meters":800,"station_id":"ce4bh512rcd13ifvqe2g","pricing_plan_id":"free"},{"bike_id":"3856adf3-e98b-48fe-8444-d68a66d380d9","system_id":"levelo_inurba_marseille","lat":43.290995,"lon":5.381361,"is_reserved":false,"is_disabled":false,"rental_uris":{"android":"levelo://app?vid=3856adf3-e98b-48fe-8444-d68a66d380d9","ios":"levelo://app?vid=3856adf3-e98b-48fe-8444-d68a66d380d9"},"vehicle_type_id":"4","last_reported":1706979958,"current_range_meters":12400,"station_id":"ce4bh512rcd13ifvqe2g","pricing_plan_id":"free"},{"bike_id":"043aba18-d3ee-49fc-813f-56f02228d33f","system_id":"levelo_inurba_marseille","lat":43.290995,"lon":5.381361,"is_reserved":false,"is_disabled":false,"rental_uris":{"android":"levelo://app?vid=043aba18-d3ee-49fc-813f-56f02228d33f","ios":"levelo://app?vid=043aba18-d3ee-49fc-813f-56f02228d33f"},"vehicle_type_id":"4","last_reported":1706979958,"current_range_meters":12800,"station_id":"ce4bh512rcd13ifvqe2g","pricing_plan_id":"free"},{"bike_id":"4edb3e58-e0f6-47db-b40a-c9fb4cd86941","system_id":"levelo_inurba_marseille","lat":43.290995,"lon":5.381361,"is_reserved":false,"is_disabled":false,"rental_uris":{"android":"levelo://app?vid=4edb3e58-e0f6-47db-b40a-c9fb4cd86941","ios":"levelo://app?vid=4edb3e58-e0f6-47db-b40a-c9fb4cd86941"},"vehicle_type_id":"4","last_reported":1706979958,"current_range_meters":0,"station_id":"ce4bh512rcd13ifvqe2g","pricing_plan_id":"free"},{"bike_id":"7589eaa0-ac88-49a2-a600-a82711acbf3c","system_id":"levelo_inurba_marseille","lat":43.295169,"lon":5.390426,"is_reserved":false,"is_disabled":false,"rental_uris":{"android":"levelo://app?vid=7589eaa0-ac88-49a2-a600-a82711acbf3c","ios":"levelo://app?vid=7589eaa0-ac88-49a2-a600-a82711acbf3c"},"vehicle_type_id":"4","last_reported":1706979958,"current_range_meters":2800,"station_id":"ce4bh3p2rcd13ifvqdp0","pricing_plan_id":"free"},{"bike_id":"341cf330-780b-4413-a868-8eb78eb76627","system_id":"levelo_inurba_marseille","lat":43.29787,"lon":5.39338,"is_reserved":false,"is_disabled":false,"rental_uris":{"android":"levelo://app?vid=341cf330-780b-4413-a868-8eb78eb76627","ios":"levelo://app?vid=341cf330-780b-4413-a868-8eb78eb76627"},"vehicle_type_id":"4","last_reported":1706979958,"current_range_meters":27200,"station_id":"chh1huq6cuj3fo74tm60","pricing_plan_id":"free"},{"bike_id":"7986553b-65c8-4b34-933b-b44197837f65","system_id":"levelo_inurba_marseille","lat":43.297815,"lon":5.393548,"is_reserved":false,"is_disabled":false,"rental_uris":{"android":"levelo://app?vid=7986553b-65c8-4b34-933b-b44197837f65","ios":"levelo://app?vid=7986553b-65c8-4b34-933b-b44197837f65"},"vehicle_type_id":"4","last_reported":1706979958,"current_range_meters":11600,"station_id":"chh1huq6cuj3fo74tm60","pricing_plan_id":"free"},{"bike_id":"b2ad9a2f-b3b9-41e6-a4dc-0b0347eec2c5","system_id":"levelo_inurba_marseille","lat":43.330442,"lon":5.389148,"is_reserved":false,"is_disabled":false,"rental_uris":{"android":"levelo://app?vid=b2ad9a2f-b3b9-41e6-a4dc-0b0347eec2c5","ios":"levelo://app?vid=b2ad9a2f-b3b9-41e6-a4dc-0b0347eec2c5"},"vehicle_type_id":"4","last_reported":1706979958,"current_range_meters":0,"station_id":"ce4bhr92rcd13ifvqhrg","pricing_plan_id":"free"},{"bike_id":"bf786b74-a50c-4e60-b899-5b7328f3771c","system_id":"levelo_inurba_marseille","lat":43.289743,"lon":5.378304,"is_reserved":false,"is_disabled":false,"rental_uris":{"android":"levelo://app?vid=bf786b74-a50c-4e60-b899-5b7328f3771c","ios":"levelo://app?vid=bf786b74-a50c-4e60-b899-5b7328f3771c"},"vehicle_type_id":"4","last_reported":1706979958,"current_range_meters":1200,"station_id":"ce4bh9p2rcd13ifvqed0","pricing_plan_id":"free"},{"bike_id":"5c445174-8cdf-42bf-b6d0-771a36d0e387","system_id":"levelo_inurba_marseille","lat":43.289741,"lon":5.378306,"is_reserved":false,"is_disabled":false,"rental_uris":{"android":"levelo://app?vid=5c445174-8cdf-42bf-b6d0-771a36d0e387","ios":"levelo://app?vid=5c445174-8cdf-42bf-b6d0-771a36d0e387"},"vehicle_type_id":"4","last_reported":1706979958,"current_range_meters":26000,"station_id":"ce4bh9p2rcd13ifvqed0","pricing_plan_id":"free"},{"bike_id":"b6225733-b20c-402f-af71-1a8e543466ad","system_id":"levelo_inurba_marseille","lat":43.28856,"lon":5.358371,"is_reserved":false,"is_disabled":false,"rental_uris":{"android":"levelo://app?vid=b6225733-b20c-402f-af71-1a8e543466ad","ios":"levelo://app?vid=b6225733-b20c-402f-af71-1a8e543466ad"},"vehicle_type_id":"4","last_reported":1706979958,"current_range_meters":800,"station_id":"ce4bhb12rcd13ifvqem0","pricing_plan_id":"free"},{"bike_id":"0a1eeecf-5458-4d9b-8b93-d48d02831111","system_id":"levelo_inurba_marseille","lat":43.309892,"lon":5.40098,"is_reserved":false,"is_disabled":false,"rental_uris":{"android":"levelo://app?vid=0a1eeecf-5458-4d9b-8b93-d48d02831111","ios":"levelo://app?vid=0a1eeecf-5458-4d9b-8b93-d48d02831111"},"vehicle_type_id":"4","last_reported":1706979958,"current_range_meters":15600,"station_id":"","pricing_plan_id":"free"},{"bike_id":"e3517781-f0ab-4fe7-a3cd-937fcf38462b","system_id":"levelo_inurba_marseille","lat":43.28849,"lon":5.35849,"is_reserved":false,"is_disabled":false,"rental_uris":{"android":"levelo://app?vid=e3517781-f0ab-4fe7-a3cd-937fcf38462b","ios":"levelo://app?vid=e3517781-f0ab-4fe7-a3cd-937fcf38462b"},"vehicle_type_id":"4","last_reported":1706979958,"current_range_meters":0,"station_id":"ce4bhb12rcd13ifvqem0","pricing_plan_id":"free"},{"bike_id":"c6776248-4950-445f-9307-ae6dd6fb03af","system_id":"levelo_inurba_marseille","lat":43.33738,"lon":5.37457,"is_reserved":false,"is_disabled":false,"rental_uris":{"android":"levelo://app?vid=c6776248-4950-445f-9307-ae6dd6fb03af","ios":"levelo://app?vid=c6776248-4950-445f-9307-ae6dd6fb03af"},"vehicle_type_id":"4","last_reported":1706979958,"current_range_meters":28400,"station_id":"","pricing_plan_id":"free"},{"bike_id":"d476ee8f-163b-46a0-87e8-43947fcbd3df","system_id":"levelo_inurba_marseille","lat":43.312609,"lon":5.401662,"is_reserved":false,"is_disabled":false,"rental_uris":{"android":"levelo://app?vid=d476ee8f-163b-46a0-87e8-43947fcbd3df","ios":"levelo://app?vid=d476ee8f-163b-46a0-87e8-43947fcbd3df"},"vehicle_type_id":"4","last_reported":1706979958,"current_range_meters":9600,"station_id":"ce4bh092rcd13ifvqd30","pricing_plan_id":"free"},{"bike_id":"91ab670c-0269-4536-a4a5-4339daa5d6c4","system_id":"levelo_inurba_marseille","lat":43.312609,"lon":5.401662,"is_reserved":false,"is_disabled":false,"rental_uris":{"android":"levelo://app?vid=91ab670c-0269-4536-a4a5-4339daa5d6c4","ios":"levelo://app?vid=91ab670c-0269-4536-a4a5-4339daa5d6c4"},"vehicle_type_id":"4","last_reported":1706979958,"current_range_meters":19200,"station_id":"ce4bh092rcd13ifvqd30","pricing_plan_id":"free"},{"bike_id":"1972514d-118b-40d6-89f8-ad78616f718a","system_id":"levelo_inurba_marseille","lat":43.309371,"lon":5.401449,"is_reserved":false,"is_disabled":false,"rental_uris":{"android":"levelo://app?vid=1972514d-118b-40d6-89f8-ad78616f718a","ios":"levelo://app?vid=1972514d-118b-40d6-89f8-ad78616f718a"},"vehicle_type_id":"4","last_reported":1706979958,"current_range_meters":8400,"station_id":"ce4bgvp2rcd13ifvqct0","pricing_plan_id":"free"},{"bike_id":"61f77117-6299-4087-b6d4-884b1e13c9e3","system_id":"levelo_inurba_marseille","lat":43.309371,"lon":5.401449,"is_reserved":false,"is_disabled":false,"rental_uris":{"android":"levelo://app?vid=61f77117-6299-4087-b6d4-884b1e13c9e3","ios":"levelo://app?vid=61f77117-6299-4087-b6d4-884b1e13c9e3"},"vehicle_type_id":"4","last_reported":1706979958,"current_range_meters":4400,"station_id":"ce4bgvp2rcd13ifvqct0","pricing_plan_id":"free"},{"bike_id":"a340338c-0ff4-44c6-8850-b9ff06dc00ba","system_id":"levelo_inurba_marseille","lat":43.3065,"lon":5.40097,"is_reserved":false,"is_disabled":false,"rental_uris":{"android":"levelo://app?vid=a340338c-0ff4-44c6-8850-b9ff06dc00ba","ios":"levelo://app?vid=a340338c-0ff4-44c6-8850-b9ff06dc00ba"},"vehicle_type_id":"4","last_reported":1706979958,"current_range_meters":22800,"station_id":"ce4bh112rcd13ifvqda0","pricing_plan_id":"free"},{"bike_id":"b5c8cd35-34dd-45ee-b3e7-3050ef3cbe6a","system_id":"levelo_inurba_marseille","lat":43.337673,"lon":5.374918,"is_reserved":false,"is_disabled":false,"rental_uris":{"android":"levelo://app?vid=b5c8cd35-34dd-45ee-b3e7-3050ef3cbe6a","ios":"levelo://app?vid=b5c8cd35-34dd-45ee-b3e7-3050ef3cbe6a"},"vehicle_type_id":"4","last_reported":1706979958,"current_range_meters":15600,"station_id":"","pricing_plan_id":"free"},{"bike_id":"d674e7a8-b317-4ff6-8fa3-46eae112b083","system_id":"levelo_inurba_marseille","lat":43.30137,"lon":5.39863,"is_reserved":false,"is_disabled":false,"rental_uris":{"android":"levelo://app?vid=d674e7a8-b317-4ff6-8fa3-46eae112b083","ios":"levelo://app?vid=d674e7a8-b317-4ff6-8fa3-46eae112b083"},"vehicle_type_id":"4","last_reported":1706979958,"current_range_meters":18000,"station_id":"ce4bh0h2rcd13ifvqd40","pricing_plan_id":"free"},{"bike_id":"b492cc31-6a8e-44cf-9862-1a858652bb48","system_id":"levelo_inurba_marseille","lat":43.301117,"lon":5.398795,"is_reserved":false,"is_disabled":false,"rental_uris":{"android":"levelo://app?vid=b492cc31-6a8e-44cf-9862-1a858652bb48","ios":"levelo://app?vid=b492cc31-6a8e-44cf-9862-1a858652bb48"},"vehicle_type_id":"4","last_reported":1706979958,"current_range_meters":1600,"station_id":"ce4bh0h2rcd13ifvqd40","pricing_plan_id":"free"},{"bike_id":"f46040c2-3660-410b-bc4f-cc790556028f","system_id":"levelo_inurba_marseille","lat":43.301117,"lon":5.398795,"is_reserved":false,"is_disabled":false,"rental_uris":{"android":"levelo://app?vid=f46040c2-3660-410b-bc4f-cc790556028f","ios":"levelo://app?vid=f46040c2-3660-410b-bc4f-cc790556028f"},"vehicle_type_id":"4","last_reported":1706979958,"current_range_meters":12800,"station_id":"ce4bh0h2rcd13ifvqd40","pricing_plan_id":"free"},{"bike_id":"650b6a86-2b64-4fae-92a3-e028bc2d91c0","system_id":"levelo_inurba_marseille","lat":43.28697,"lon":5.37393,"is_reserved":false,"is_disabled":false,"rental_uris":{"android":"levelo://app?vid=650b6a86-2b64-4fae-92a3-e028bc2d91c0","ios":"levelo://app?vid=650b6a86-2b64-4fae-92a3-e028bc2d91c0"},"vehicle_type_id":"4","last_reported":1706979958,"current_range_meters":24000,"station_id":"ce4bh3p2rcd13ifvqdq0","pricing_plan_id":"free"},{"bike_id":"1c842120-0087-49ab-a546-05df07744270","system_id":"levelo_inurba_marseille","lat":43.286954,"lon":5.373859,"is_reserved":false,"is_disabled":false,"rental_uris":{"android":"levelo://app?vid=1c842120-0087-49ab-a546-05df07744270","ios":"levelo://app?vid=1c842120-0087-49ab-a546-05df07744270"},"vehicle_type_id":"4","last_reported":1706979958,"current_range_meters":0,"station_id":"ce4bh3p2rcd13ifvqdq0","pricing_plan_id":"free"},{"bike_id":"7f4dd347-6423-4d90-80d2-8a3c46d8180e","system_id":"levelo_inurba_marseille","lat":43.298681,"lon":5.397225,"is_reserved":false,"is_disabled":false,"rental_uris":{"android":"levelo://app?vid=7f4dd347-6423-4d90-80d2-8a3c46d8180e","ios":"levelo://app?vid=7f4dd347-6423-4d90-80d2-8a3c46d8180e"},"vehicle_type_id":"4","last_reported":1706979958,"current_range_meters":21600,"station_id":"ce4bh0h2rcd13ifvqd50","pricing_plan_id":"free"},{"bike_id":"6b610b2f-ab39-4d3b-a69d-d25d23467bc5","system_id":"levelo_inurba_marseille","lat":43.295194,"lon":5.39397,"is_reserved":false,"is_disabled":false,"rental_uris":{"android":"levelo://app?vid=6b610b2f-ab39-4d3b-a69d-d25d23467bc5","ios":"levelo://app?vid=6b610b2f-ab39-4d3b-a69d-d25d23467bc5"},"vehicle_type_id":"4","last_reported":1706979958,"current_range_meters":6000,"station_id":"ce4bh292rcd13ifvqdf0","pricing_plan_id":"free"},{"bike_id":"0bee3c20-0fe3-4655-abea-2be2b1622b7a","system_id":"levelo_inurba_marseille","lat":43.289307,"lon":5.38406,"is_reserved":false,"is_disabled":false,"rental_uris":{"android":"levelo://app?vid=0bee3c20-0fe3-4655-abea-2be2b1622b7a","ios":"levelo://app?vid=0bee3c20-0fe3-4655-abea-2be2b1622b7a"},"vehicle_type_id":"4","last_reported":1706979958,"current_range_meters":12000,"station_id":"ce4bh612rcd13ifvqe6g","pricing_plan_id":"free"},{"bike_id":"caa6c475-ab10-403f-b1c5-d99bc532a212","system_id":"levelo_inurba_marseille","lat":43.302759,"lon":5.400793,"is_reserved":false,"is_disabled":false,"rental_uris":{"android":"levelo://app?vid=caa6c475-ab10-403f-b1c5-d99bc532a212","ios":"levelo://app?vid=caa6c475-ab10-403f-b1c5-d99bc532a212"},"vehicle_type_id":"4","last_reported":1706979958,"current_range_meters":1200,"station_id":"ce4bgvh2rcd13ifvqcs0","pricing_plan_id":"free"},{"bike_id":"46db8b9a-bdfc-40a1-bc31-a652e9a70087","system_id":"levelo_inurba_marseille","lat":43.287185,"lon":5.379373,"is_reserved":false,"is_disabled":false,"rental_uris":{"android":"levelo://app?vid=46db8b9a-bdfc-40a1-bc31-a652e9a70087","ios":"levelo://app?vid=46db8b9a-bdfc-40a1-bc31-a652e9a70087"},"vehicle_type_id":"4","last_reported":1706979958,"current_range_meters":12800,"station_id":"ce4bh9p2rcd13ifvqec0","pricing_plan_id":"free"},{"bike_id":"adf4f410-cc9e-4e0f-ae10-87ff720620f9","system_id":"levelo_inurba_marseille","lat":43.31685,"lon":5.40466,"is_reserved":false,"is_disabled":false,"rental_uris":{"android":"levelo://app?vid=adf4f410-cc9e-4e0f-ae10-87ff720620f9","ios":"levelo://app?vid=adf4f410-cc9e-4e0f-ae10-87ff720620f9"},"vehicle_type_id":"4","last_reported":1706979958,"current_range_meters":0,"station_id":"ce4bh012rcd13ifvqd00","pricing_plan_id":"free"},{"bike_id":"f7e0a4ca-6896-4c2b-87d1-e9a18b406fd8","system_id":"levelo_inurba_marseille","lat":43.291994,"lon":5.392907,"is_reserved":false,"is_disabled":false,"rental_uris":{"android":"levelo://app?vid=f7e0a4ca-6896-4c2b-87d1-e9a18b406fd8","ios":"levelo://app?vid=f7e0a4ca-6896-4c2b-87d1-e9a18b406fd8"},"vehicle_type_id":"4","last_reported":1706979958,"current_range_meters":23600,"station_id":"ce4bh192rcd13ifvqdd0","pricing_plan_id":"free"},{"bike_id":"c481decd-572d-4697-940f-0aa9c00b06ef","system_id":"levelo_inurba_marseille","lat":43.291994,"lon":5.392907,"is_reserved":false,"is_disabled":false,"rental_uris":{"android":"levelo://app?vid=c481decd-572d-4697-940f-0aa9c00b06ef","ios":"levelo://app?vid=c481decd-572d-4697-940f-0aa9c00b06ef"},"vehicle_type_id":"4","last_reported":1706979958,"current_range_meters":13600,"station_id":"ce4bh192rcd13ifvqdd0","pricing_plan_id":"free"},{"bike_id":"4f719ce8-1ba8-447f-9859-c04a93d33a00","system_id":"levelo_inurba_marseille","lat":43.291994,"lon":5.392907,"is_reserved":false,"is_disabled":false,"rental_uris":{"android":"levelo://app?vid=4f719ce8-1ba8-447f-9859-c04a93d33a00","ios":"levelo://app?vid=4f719ce8-1ba8-447f-9859-c04a93d33a00"},"vehicle_type_id":"4","last_reported":1706979958,"current_range_meters":6800,"station_id":"ce4bh192rcd13ifvqdd0","pricing_plan_id":"free"},{"bike_id":"c86c3679-61dc-40fd-88ae-8ae9325332c1","system_id":"levelo_inurba_marseille","lat":43.284538,"lon":5.358657,"is_reserved":false,"is_disabled":false,"rental_uris":{"android":"levelo://app?vid=c86c3679-61dc-40fd-88ae-8ae9325332c1","ios":"levelo://app?vid=c86c3679-61dc-40fd-88ae-8ae9325332c1"},"vehicle_type_id":"4","last_reported":1706979958,"current_range_meters":27600,"station_id":"ce4bhah2rcd13ifvqei0","pricing_plan_id":"free"},{"bike_id":"5fd32193-7dc0-4af5-98c5-063260bd5748","system_id":"levelo_inurba_marseille","lat":43.284538,"lon":5.358657,"is_reserved":false,"is_disabled":false,"rental_uris":{"android":"levelo://app?vid=5fd32193-7dc0-4af5-98c5-063260bd5748","ios":"levelo://app?vid=5fd32193-7dc0-4af5-98c5-063260bd5748"},"vehicle_type_id":"4","last_reported":1706979958,"current_range_meters":2400,"station_id":"ce4bhah2rcd13ifvqei0","pricing_plan_id":"free"},{"bike_id":"720d2b90-7ecd-47aa-8196-b2de6b7f176d","system_id":"levelo_inurba_marseille","lat":43.284534,"lon":5.358662,"is_reserved":false,"is_disabled":false,"rental_uris":{"android":"levelo://app?vid=720d2b90-7ecd-47aa-8196-b2de6b7f176d","ios":"levelo://app?vid=720d2b90-7ecd-47aa-8196-b2de6b7f176d"},"vehicle_type_id":"4","last_reported":1706979958,"current_range_meters":7600,"station_id":"ce4bhah2rcd13ifvqei0","pricing_plan_id":"free"},{"bike_id":"bbd4ad75-a710-4e3d-807d-70cca2d8042f","system_id":"levelo_inurba_marseille","lat":43.284538,"lon":5.358657,"is_reserved":false,"is_disabled":false,"rental_uris":{"android":"levelo://app?vid=bbd4ad75-a710-4e3d-807d-70cca2d8042f","ios":"levelo://app?vid=bbd4ad75-a710-4e3d-807d-70cca2d8042f"},"vehicle_type_id":"4","last_reported":1706979958,"current_range_meters":5200,"station_id":"ce4bhah2rcd13ifvqei0","pricing_plan_id":"free"},{"bike_id":"4231310e-5765-4bcc-b9d4-063c6245630a","system_id":"levelo_inurba_marseille","lat":43.285848,"lon":5.350787,"is_reserved":false,"is_disabled":false,"rental_uris":{"android":"levelo://app?vid=4231310e-5765-4bcc-b9d4-063c6245630a","ios":"levelo://app?vid=4231310e-5765-4bcc-b9d4-063c6245630a"},"vehicle_type_id":"4","last_reported":1706979958,"current_range_meters":0,"station_id":"ce4bhch2rcd13ifvqeug","pricing_plan_id":"free"},{"bike_id":"e4b00fdf-0a3b-4a72-86a1-c36e4e0fb03c","system_id":"levelo_inurba_marseille","lat":43.285848,"lon":5.350787,"is_reserved":false,"is_disabled":false,"rental_uris":{"android":"levelo://app?vid=e4b00fdf-0a3b-4a72-86a1-c36e4e0fb03c","ios":"levelo://app?vid=e4b00fdf-0a3b-4a72-86a1-c36e4e0fb03c"},"vehicle_type_id":"4","last_reported":1706979958,"current_range_meters":20400,"station_id":"ce4bhch2rcd13ifvqeug","pricing_plan_id":"free"},{"bike_id":"7c9ea006-5c8c-4055-9552-c4e575d372ff","system_id":"levelo_inurba_marseille","lat":43.28616,"lon":5.35101,"is_reserved":false,"is_disabled":false,"rental_uris":{"android":"levelo://app?vid=7c9ea006-5c8c-4055-9552-c4e575d372ff","ios":"levelo://app?vid=7c9ea006-5c8c-4055-9552-c4e575d372ff"},"vehicle_type_id":"4","last_reported":1706979958,"current_range_meters":0,"station_id":"ce4bhch2rcd13ifvqeug","pricing_plan_id":"free"},{"bike_id":"1d4ccf09-c943-4f5e-938d-186c3ee6db43","system_id":"levelo_inurba_marseille","lat":43.283998,"lon":5.375062,"is_reserved":false,"is_disabled":false,"rental_uris":{"android":"levelo://app?vid=1d4ccf09-c943-4f5e-938d-186c3ee6db43","ios":"levelo://app?vid=1d4ccf09-c943-4f5e-938d-186c3ee6db43"},"vehicle_type_id":"4","last_reported":1706979958,"current_range_meters":5600,"station_id":"ce4bh412rcd13ifvqds0","pricing_plan_id":"free"},{"bike_id":"edf25e90-6114-40d0-8da6-9faf0ce5020b","system_id":"levelo_inurba_marseille","lat":43.283998,"lon":5.375062,"is_reserved":false,"is_disabled":false,"rental_uris":{"android":"levelo://app?vid=edf25e90-6114-40d0-8da6-9faf0ce5020b","ios":"levelo://app?vid=edf25e90-6114-40d0-8da6-9faf0ce5020b"},"vehicle_type_id":"4","last_reported":1706979958,"current_range_meters":6400,"station_id":"ce4bh412rcd13ifvqds0","pricing_plan_id":"free"},{"bike_id":"501eb978-013c-4ec2-af10-3f689cd0c809","system_id":"levelo_inurba_marseille","lat":43.283998,"lon":5.375062,"is_reserved":false,"is_disabled":false,"rental_uris":{"android":"levelo://app?vid=501eb978-013c-4ec2-af10-3f689cd0c809","ios":"levelo://app?vid=501eb978-013c-4ec2-af10-3f689cd0c809"},"vehicle_type_id":"4","last_reported":1706979958,"current_range_meters":0,"station_id":"ce4bh412rcd13ifvqds0","pricing_plan_id":"free"},{"bike_id":"909e455b-f6cf-4c27-a3fa-8aeb32913690","system_id":"levelo_inurba_marseille","lat":43.283998,"lon":5.375062,"is_reserved":false,"is_disabled":false,"rental_uris":{"android":"levelo://app?vid=909e455b-f6cf-4c27-a3fa-8aeb32913690","ios":"levelo://app?vid=909e455b-f6cf-4c27-a3fa-8aeb32913690"},"vehicle_type_id":"4","last_reported":1706979958,"current_range_meters":26000,"station_id":"ce4bh412rcd13ifvqds0","pricing_plan_id":"free"},{"bike_id":"df405b74-ab54-4df4-95e8-2581a373163e","system_id":"levelo_inurba_marseille","lat":43.283998,"lon":5.375062,"is_reserved":false,"is_disabled":false,"rental_uris":{"android":"levelo://app?vid=df405b74-ab54-4df4-95e8-2581a373163e","ios":"levelo://app?vid=df405b74-ab54-4df4-95e8-2581a373163e"},"vehicle_type_id":"4","last_reported":1706979958,"current_range_meters":24000,"station_id":"ce4bh412rcd13ifvqds0","pricing_plan_id":"free"},{"bike_id":"58d287b4-d6fc-4be8-b909-03b485bd14f8","system_id":"levelo_inurba_marseille","lat":43.283998,"lon":5.375062,"is_reserved":false,"is_disabled":false,"rental_uris":{"android":"levelo://app?vid=58d287b4-d6fc-4be8-b909-03b485bd14f8","ios":"levelo://app?vid=58d287b4-d6fc-4be8-b909-03b485bd14f8"},"vehicle_type_id":"4","last_reported":1706979958,"current_range_meters":12400,"station_id":"ce4bh412rcd13ifvqds0","pricing_plan_id":"free"},{"bike_id":"b7026d79-c230-4a86-9b1d-0c01c9767175","system_id":"levelo_inurba_marseille","lat":43.283998,"lon":5.375062,"is_reserved":false,"is_disabled":false,"rental_uris":{"android":"levelo://app?vid=b7026d79-c230-4a86-9b1d-0c01c9767175","ios":"levelo://app?vid=b7026d79-c230-4a86-9b1d-0c01c9767175"},"vehicle_type_id":"4","last_reported":1706979958,"current_range_meters":25200,"station_id":"ce4bh412rcd13ifvqds0","pricing_plan_id":"free"},{"bike_id":"27ae75ef-c870-4327-9d67-d92acc1aca18","system_id":"levelo_inurba_marseille","lat":43.295713,"lon":5.399639,"is_reserved":false,"is_disabled":false,"rental_uris":{"android":"levelo://app?vid=27ae75ef-c870-4327-9d67-d92acc1aca18","ios":"levelo://app?vid=27ae75ef-c870-4327-9d67-d92acc1aca18"},"vehicle_type_id":"4","last_reported":1706979958,"current_range_meters":26000,"station_id":"ce4bh312rcd13ifvqdj0","pricing_plan_id":"free"},{"bike_id":"f000864e-537b-492e-8a4c-349f4d029c78","system_id":"levelo_inurba_marseille","lat":43.286595,"lon":5.386795,"is_reserved":false,"is_disabled":false,"rental_uris":{"android":"levelo://app?vid=f000864e-537b-492e-8a4c-349f4d029c78","ios":"levelo://app?vid=f000864e-537b-492e-8a4c-349f4d029c78"},"vehicle_type_id":"4","last_reported":1706979958,"current_range_meters":7200,"station_id":"ce4bh492rcd13ifvqdug","pricing_plan_id":"free"},{"bike_id":"e18ada52-53e6-439e-ac48-af2d2283ab00","system_id":"levelo_inurba_marseille","lat":43.28661,"lon":5.386299,"is_reserved":false,"is_disabled":false,"rental_uris":{"android":"levelo://app?vid=e18ada52-53e6-439e-ac48-af2d2283ab00","ios":"levelo://app?vid=e18ada52-53e6-439e-ac48-af2d2283ab00"},"vehicle_type_id":"4","last_reported":1706979958,"current_range_meters":29600,"station_id":"ce4bh492rcd13ifvqdug","pricing_plan_id":"free"},{"bike_id":"fb0c6059-c443-4108-a8aa-0893c512885d","system_id":"levelo_inurba_marseille","lat":43.286595,"lon":5.386795,"is_reserved":false,"is_disabled":false,"rental_uris":{"android":"levelo://app?vid=fb0c6059-c443-4108-a8aa-0893c512885d","ios":"levelo://app?vid=fb0c6059-c443-4108-a8aa-0893c512885d"},"vehicle_type_id":"4","last_reported":1706979958,"current_range_meters":3600,"station_id":"ce4bh492rcd13ifvqdug","pricing_plan_id":"free"},{"bike_id":"3c58f18d-b5bf-40f3-bd04-17a6bdfcc283","system_id":"levelo_inurba_marseille","lat":43.32288,"lon":5.40632,"is_reserved":false,"is_disabled":false,"rental_uris":{"android":"levelo://app?vid=3c58f18d-b5bf-40f3-bd04-17a6bdfcc283","ios":"levelo://app?vid=3c58f18d-b5bf-40f3-bd04-17a6bdfcc283"},"vehicle_type_id":"4","last_reported":1706979958,"current_range_meters":5200,"station_id":"","pricing_plan_id":"free"},{"bike_id":"0dfdf9e3-2510-4f67-b50d-c67f94231c81","system_id":"levelo_inurba_marseille","lat":43.337214,"lon":5.391797,"is_reserved":false,"is_disabled":false,"rental_uris":{"android":"levelo://app?vid=0dfdf9e3-2510-4f67-b50d-c67f94231c81","ios":"levelo://app?vid=0dfdf9e3-2510-4f67-b50d-c67f94231c81"},"vehicle_type_id":"4","last_reported":1706979958,"current_range_meters":30400,"station_id":"ce4bhr92rcd13ifvqhsg","pricing_plan_id":"free"},{"bike_id":"9d0f0088-9408-4269-b0c3-12e4bb887cf2","system_id":"levelo_inurba_marseille","lat":43.33726,"lon":5.39175,"is_reserved":false,"is_disabled":false,"rental_uris":{"android":"levelo://app?vid=9d0f0088-9408-4269-b0c3-12e4bb887cf2","ios":"levelo://app?vid=9d0f0088-9408-4269-b0c3-12e4bb887cf2"},"vehicle_type_id":"4","last_reported":1706979958,"current_range_meters":0,"station_id":"ce4bhr92rcd13ifvqhsg","pricing_plan_id":"free"},{"bike_id":"0bd6371c-12e2-4495-926b-6a470063f923","system_id":"levelo_inurba_marseille","lat":43.323464,"lon":5.406297,"is_reserved":false,"is_disabled":false,"rental_uris":{"android":"levelo://app?vid=0bd6371c-12e2-4495-926b-6a470063f923","ios":"levelo://app?vid=0bd6371c-12e2-4495-926b-6a470063f923"},"vehicle_type_id":"4","last_reported":1706979958,"current_range_meters":8400,"station_id":"ce4bhq92rcd13ifvqhjg","pricing_plan_id":"free"},{"bike_id":"5c0fd5c3-3025-4b0a-b773-fec12c2042a9","system_id":"levelo_inurba_marseille","lat":43.323464,"lon":5.406297,"is_reserved":false,"is_disabled":false,"rental_uris":{"android":"levelo://app?vid=5c0fd5c3-3025-4b0a-b773-fec12c2042a9","ios":"levelo://app?vid=5c0fd5c3-3025-4b0a-b773-fec12c2042a9"},"vehicle_type_id":"4","last_reported":1706979958,"current_range_meters":12000,"station_id":"ce4bhq92rcd13ifvqhjg","pricing_plan_id":"free"},{"bike_id":"859876d2-1477-4c69-b42d-e81eb1cd322b","system_id":"levelo_inurba_marseille","lat":43.284787,"lon":5.384116,"is_reserved":false,"is_disabled":false,"rental_uris":{"android":"levelo://app?vid=859876d2-1477-4c69-b42d-e81eb1cd322b","ios":"levelo://app?vid=859876d2-1477-4c69-b42d-e81eb1cd322b"},"vehicle_type_id":"4","last_reported":1706979958,"current_range_meters":10000,"station_id":"ce4bh512rcd13ifvqe3g","pricing_plan_id":"free"},{"bike_id":"513c7a96-96f2-4f2a-aa1b-207775af72bc","system_id":"levelo_inurba_marseille","lat":43.28474,"lon":5.38416,"is_reserved":false,"is_disabled":false,"rental_uris":{"android":"levelo://app?vid=513c7a96-96f2-4f2a-aa1b-207775af72bc","ios":"levelo://app?vid=513c7a96-96f2-4f2a-aa1b-207775af72bc"},"vehicle_type_id":"4","last_reported":1706979958,"current_range_meters":0,"station_id":"ce4bh512rcd13ifvqe3g","pricing_plan_id":"free"},{"bike_id":"cf75fead-38c9-4200-a356-fcfc4b196f2f","system_id":"levelo_inurba_marseille","lat":43.284787,"lon":5.384116,"is_reserved":false,"is_disabled":false,"rental_uris":{"android":"levelo://app?vid=cf75fead-38c9-4200-a356-fcfc4b196f2f","ios":"levelo://app?vid=cf75fead-38c9-4200-a356-fcfc4b196f2f"},"vehicle_type_id":"4","last_reported":1706979958,"current_range_meters":19200,"station_id":"ce4bh512rcd13ifvqe3g","pricing_plan_id":"free"},{"bike_id":"8f658ab6-8fed-4977-8e88-a981133a25a8","system_id":"levelo_inurba_marseille","lat":43.33339,"lon":5.39819,"is_reserved":false,"is_disabled":false,"rental_uris":{"android":"levelo://app?vid=8f658ab6-8fed-4977-8e88-a981133a25a8","ios":"levelo://app?vid=8f658ab6-8fed-4977-8e88-a981133a25a8"},"vehicle_type_id":"4","last_reported":1706979958,"current_range_meters":3200,"station_id":"","pricing_plan_id":"free"},{"bike_id":"b1b9e9f7-b161-48c6-80df-72bf141240f6","system_id":"levelo_inurba_marseille","lat":43.288497,"lon":5.393089,"is_reserved":false,"is_disabled":false,"rental_uris":{"android":"levelo://app?vid=b1b9e9f7-b161-48c6-80df-72bf141240f6","ios":"levelo://app?vid=b1b9e9f7-b161-48c6-80df-72bf141240f6"},"vehicle_type_id":"4","last_reported":1706979958,"current_range_meters":3600,"station_id":"ce4bh2p2rcd13ifvqdi0","pricing_plan_id":"free"},{"bike_id":"b1769879-e563-4f73-a427-9aa075377107","system_id":"levelo_inurba_marseille","lat":43.288501,"lon":5.393087,"is_reserved":false,"is_disabled":false,"rental_uris":{"android":"levelo://app?vid=b1769879-e563-4f73-a427-9aa075377107","ios":"levelo://app?vid=b1769879-e563-4f73-a427-9aa075377107"},"vehicle_type_id":"4","last_reported":1706979958,"current_range_meters":9200,"station_id":"ce4bh2p2rcd13ifvqdi0","pricing_plan_id":"free"},{"bike_id":"26d5bdd1-35a7-4a9f-b715-ca93bab91e40","system_id":"levelo_inurba_marseille","lat":43.283498,"lon":5.380948,"is_reserved":false,"is_disabled":false,"rental_uris":{"android":"levelo://app?vid=26d5bdd1-35a7-4a9f-b715-ca93bab91e40","ios":"levelo://app?vid=26d5bdd1-35a7-4a9f-b715-ca93bab91e40"},"vehicle_type_id":"4","last_reported":1706979958,"current_range_meters":800,"station_id":"ce4bh412rcd13ifvqdr0","pricing_plan_id":"free"},{"bike_id":"144d5f32-0503-4418-aba3-79b64baa8708","system_id":"levelo_inurba_marseille","lat":43.28427,"lon":5.35004,"is_reserved":false,"is_disabled":false,"rental_uris":{"android":"levelo://app?vid=144d5f32-0503-4418-aba3-79b64baa8708","ios":"levelo://app?vid=144d5f32-0503-4418-aba3-79b64baa8708"},