{"last_updated":1743455361,"ttl":60,"version":"2.2","data":{"bikes":[{"bike_id":"d0ed36b4-3c5a-4da6-8fb4-955c321dd03a","system_id":"levelo_inurba_marseille","lat":43.27502,"lon":5.41028,"is_reserved":false,"is_disabled":true,"rental_uris":{"android":"levelo://app?vid=d0ed36b4-3c5a-4da6-8fb4-955c321dd03a","ios":"levelo://app?vid=d0ed36b4-3c5a-4da6-8fb4-955c321dd03a"},"vehicle_type_id":"4","last_reported":1743455361,"current_range_meters":2800,"station_id":"","pricing_plan_id":"cebpf4jnsgd1na2vs0mg"},{"bike_id":"42bc7b23-0e2f-4d72-b583-40bcdabb28c7","system_id":"levelo_inurba_marseille","lat":43.29543,"lon":5.3738,"is_reserved":false,"is_disabled":true,"rental_uris":{"android":"levelo://app?vid=42bc7b23-0e2f-4d72-b583-40bcdabb28c7","ios":"levelo://app?vid=42bc7b23-0e2f-4d72-b583-40bcdabb28c7"},"vehicle_type_id":"4","last_reported":1743455361,"current_range_meters":2800,"station_id":"","pricing_plan_id":"cebpf4jnsgd1na2vs0mg"},{"bike_id":"bcead3f1-2898-48f6-b07c-b20a32f7bedc","system_id":"levelo_inurba_marseille","lat":43.30946,"lon":5.39035,"is_reserved":false,"is_disabled":false,"rental_uris":{"android":"levelo://app?vid=bcead3f1-2898-48f6-b07c-b20a32f7bedc","ios":"levelo://app?vid=bcead3f1-2898-48f6-b07c-b20a32f7bedc"},"vehicle_type_id":"4","last_reported":1743455361,"current_range_meters":2800,"station_id":"ce4bgup2rcd13ifvqco0","pricing_plan_id":"cebpf4jnsgd1na2vs0mg"},{"bike_id":"a76c6e3c-8e9f-4c5d-8b35-56113571ae05","system_id":"levelo_inurba_marseille","lat":43.28394,"lon":5.34996,"is_reserved":false,"is_disabled":false,"rental_uris":{"android":"levelo://app?vid=a76c6e3c-8e9f-4c5d-8b35-56113571ae05","ios":"levelo://app?vid=a76c6e3c-8e9f-4c5d-8b35-56113571ae05"},"vehicle_type_id":"4","last_reported":1743455361,"current_range_meters":3200,"station_id":"ce4bhbh2rcd13ifvqepg","pricing_plan_id":"cebpf4jnsgd1na2vs0mg"},{"bike_id":"384b53be-0dd1-4ff6-96b3-76e22c52ec3c","system_id":"levelo_inurba_marseille","lat":43.27663,"lon":5.41877,"is_reserved":false,"is_disabled":false,"rental_uris":{"android":"levelo://app?vid=384b53be-0dd1-4ff6-96b3-76e22c52ec3c","ios":"levelo://app?vid=384b53be-0dd1-4ff6-96b3-76e22c52ec3c"},"vehicle_type_id":"4","last_reported":1743455361,"current_range_meters":3200,"station_id":"","pricing_plan_id":"cebpf4jnsgd1na2vs0mg"},{"bike_id":"deb3d6fe-ad0a-4a2c-8dad-a1a3b606d3f1","system_id":"levelo_inurba_marseille","lat":43.2706,"lon":5.40239,"is_reserved":false,"is_disabled":false,"rental_uris":{"android":"levelo://app?vid=deb3d6fe-ad0a-4a2c-8dad-a1a3b606d3f1","ios":"levelo://app?vid=deb3d6fe-ad0a-4a2c-8dad-a1a3b606d3f1"},"vehicle_type_id":"4","last_reported":1743455361,"current_range_meters":3600,"station_id":"ce4bhk92rcd13ifvqgc0","pricing_plan_id":"cebpf4jnsgd1na2vs0mg"},{"bike_id":"76d4ed16-8625-4a14-a5f1-d28ac2574c13","system_id":"levelo_inurba_marseille","lat":43.245406,"lon":5.395296,"is_reserved":false,"is_disabled":false,"rental_uris":{"android":"levelo://app?vid=76d4ed16-8625-4a14-a5f1-d28ac2574c13","ios":"levelo://app?vid=76d4ed16-8625-4a14-a5f1-d28ac2574c13"},"vehicle_type_id":"4","last_reported":1743455361,"current_range_meters":4000,"station_id":"ce4bhlp2rcd13ifvqgjg","pricing_plan_id":"cebpf4jnsgd1na2vs0mg"},{"bike_id":"3b8b5fcf-ba11-4a94-a416-2c8fbad336ed","system_id":"levelo_inurba_marseille","lat":43.29881,"lon":5.38927,"is_reserved":false,"is_disabled":false,"rental_uris":{"android":"levelo://app?vid=3b8b5fcf-ba11-4a94-a416-2c8fbad336ed","ios":"levelo://app?vid=3b8b5fcf-ba11-4a94-a416-2c8fbad336ed"},"vehicle_type_id":"4","last_reported":1743455361,"current_range_meters":4000,"station_id":"ce4bh392rcd13ifvqdl0","pricing_plan_id":"cebpf4jnsgd1na2vs0mg"},{"bike_id":"d18560b4-f408-4d7a-9702-c71e23cf5416","system_id":"levelo_inurba_marseille","lat":43.27937,"lon":5.41046,"is_reserved":false,"is_disabled":false,"rental_uris":{"android":"levelo://app?vid=d18560b4-f408-4d7a-9702-c71e23cf5416","ios":"levelo://app?vid=d18560b4-f408-4d7a-9702-c71e23cf5416"},"vehicle_type_id":"4","last_reported":1743455361,"current_range_meters":4000,"station_id":"ce4bhnp2rcd13ifvqh0g","pricing_plan_id":"cebpf4jnsgd1na2vs0mg"},{"bike_id":"08b1b9c2-6f71-4de9-b336-72857a687726","system_id":"levelo_inurba_marseille","lat":43.298798,"lon":5.389058,"is_reserved":false,"is_disabled":false,"rental_uris":{"android":"levelo://app?vid=08b1b9c2-6f71-4de9-b336-72857a687726","ios":"levelo://app?vid=08b1b9c2-6f71-4de9-b336-72857a687726"},"vehicle_type_id":"4","last_reported":1743455361,"current_range_meters":4000,"station_id":"ce4bh392rcd13ifvqdl0","pricing_plan_id":"cebpf4jnsgd1na2vs0mg"},{"bike_id":"35a0bc23-3944-454c-8e5d-730541c8b664","system_id":"levelo_inurba_marseille","lat":43.2619,"lon":5.37456,"is_reserved":false,"is_disabled":true,"rental_uris":{"android":"levelo://app?vid=35a0bc23-3944-454c-8e5d-730541c8b664","ios":"levelo://app?vid=35a0bc23-3944-454c-8e5d-730541c8b664"},"vehicle_type_id":"4","last_reported":1743455361,"current_range_meters":4000,"station_id":"ce4bhgp2rcd13ifvqfc0","pricing_plan_id":"cebpf4jnsgd1na2vs0mg"},{"bike_id":"c8773754-83af-4af0-a909-23dd3af40fc3","system_id":"levelo_inurba_marseille","lat":43.27814,"lon":5.40679,"is_reserved":false,"is_disabled":false,"rental_uris":{"android":"levelo://app?vid=c8773754-83af-4af0-a909-23dd3af40fc3","ios":"levelo://app?vid=c8773754-83af-4af0-a909-23dd3af40fc3"},"vehicle_type_id":"4","last_reported":1743455361,"current_range_meters":4000,"station_id":"ce4bhnh2rcd13ifvqgtg","pricing_plan_id":"cebpf4jnsgd1na2vs0mg"},{"bike_id":"a38ba8ba-3bed-4c88-9957-2c802ee7027f","system_id":"levelo_inurba_marseille","lat":43.26223,"lon":5.40463,"is_reserved":false,"is_disabled":false,"rental_uris":{"android":"levelo://app?vid=a38ba8ba-3bed-4c88-9957-2c802ee7027f","ios":"levelo://app?vid=a38ba8ba-3bed-4c88-9957-2c802ee7027f"},"vehicle_type_id":"4","last_reported":1743455361,"current_range_meters":4400,"station_id":"ce4bhmh2rcd13ifvqgmg","pricing_plan_id":"cebpf4jnsgd1na2vs0mg"},{"bike_id":"e3d4a315-99ca-45d0-93cf-09a9f607fb7e","system_id":"levelo_inurba_marseille","lat":43.30648,"lon":5.40046,"is_reserved":false,"is_disabled":false,"rental_uris":{"android":"levelo://app?vid=e3d4a315-99ca-45d0-93cf-09a9f607fb7e","ios":"levelo://app?vid=e3d4a315-99ca-45d0-93cf-09a9f607fb7e"},"vehicle_type_id":"4","last_reported":1743455361,"current_range_meters":4400,"station_id":"ce4bh112rcd13ifvqda0","pricing_plan_id":"cebpf4jnsgd1na2vs0mg"},{"bike_id":"82d8e203-da64-466b-9b1d-e9f0a9bfebfe","system_id":"levelo_inurba_marseille","lat":43.32537,"lon":5.41438,"is_reserved":false,"is_disabled":true,"rental_uris":{"android":"levelo://app?vid=82d8e203-da64-466b-9b1d-e9f0a9bfebfe","ios":"levelo://app?vid=82d8e203-da64-466b-9b1d-e9f0a9bfebfe"},"vehicle_type_id":"4","last_reported":1743455361,"current_range_meters":4800,"station_id":"ce4bhq12rcd13ifvqhhg","pricing_plan_id":"cebpf4jnsgd1na2vs0mg"},{"bike_id":"1115aca5-6e9e-4faf-b9a7-ceadf7eb4ba5","system_id":"levelo_inurba_marseille","lat":43.28712,"lon":5.3792,"is_reserved":false,"is_disabled":false,"rental_uris":{"android":"levelo://app?vid=1115aca5-6e9e-4faf-b9a7-ceadf7eb4ba5","ios":"levelo://app?vid=1115aca5-6e9e-4faf-b9a7-ceadf7eb4ba5"},"vehicle_type_id":"4","last_reported":1743455361,"current_range_meters":4800,"station_id":"ce4bh9p2rcd13ifvqec0","pricing_plan_id":"cebpf4jnsgd1na2vs0mg"},{"bike_id":"75d56f98-6c75-4a8c-a312-88f4710b478a","system_id":"levelo_inurba_marseille","lat":43.29259,"lon":5.37608,"is_reserved":false,"is_disabled":true,"rental_uris":{"android":"levelo://app?vid=75d56f98-6c75-4a8c-a312-88f4710b478a","ios":"levelo://app?vid=75d56f98-6c75-4a8c-a312-88f4710b478a"},"vehicle_type_id":"4","last_reported":1743455361,"current_range_meters":4800,"station_id":"ce4bgi12rcd13ifvqb80","pricing_plan_id":"cebpf4jnsgd1na2vs0mg"},{"bike_id":"d1379a4b-7d1c-4a20-9b6a-00a7778584be","system_id":"levelo_inurba_marseille","lat":43.2605,"lon":5.39401,"is_reserved":false,"is_disabled":false,"rental_uris":{"android":"levelo://app?vid=d1379a4b-7d1c-4a20-9b6a-00a7778584be","ios":"levelo://app?vid=d1379a4b-7d1c-4a20-9b6a-00a7778584be"},"vehicle_type_id":"4","last_reported":1743455361,"current_range_meters":4800,"station_id":"ce4bhh92rcd13ifvqfj0","pricing_plan_id":"cebpf4jnsgd1na2vs0mg"},{"bike_id":"56539414-9d2e-42ce-8f9a-64675f5255e9","system_id":"levelo_inurba_marseille","lat":43.2928,"lon":5.40134,"is_reserved":false,"is_disabled":false,"rental_uris":{"android":"levelo://app?vid=56539414-9d2e-42ce-8f9a-64675f5255e9","ios":"levelo://app?vid=56539414-9d2e-42ce-8f9a-64675f5255e9"},"vehicle_type_id":"4","last_reported":1743455361,"current_range_meters":5600,"station_id":"ce4bh312rcd13ifvqdk0","pricing_plan_id":"cebpf4jnsgd1na2vs0mg"},{"bike_id":"978729aa-a082-4682-8939-24afc5460f44","system_id":"levelo_inurba_marseille","lat":43.296596,"lon":5.378404,"is_reserved":false,"is_disabled":false,"rental_uris":{"android":"levelo://app?vid=978729aa-a082-4682-8939-24afc5460f44","ios":"levelo://app?vid=978729aa-a082-4682-8939-24afc5460f44"},"vehicle_type_id":"4","last_reported":1743455361,"current_range_meters":5600,"station_id":"ce4bh9p2rcd13ifvqed0","pricing_plan_id":"cebpf4jnsgd1na2vs0mg"},{"bike_id":"45af4554-ab6c-474c-b01a-dc6c7c1cd8fa","system_id":"levelo_inurba_marseille","lat":43.30926,"lon":5.40141,"is_reserved":false,"is_disabled":false,"rental_uris":{"android":"levelo://app?vid=45af4554-ab6c-474c-b01a-dc6c7c1cd8fa","ios":"levelo://app?vid=45af4554-ab6c-474c-b01a-dc6c7c1cd8fa"},"vehicle_type_id":"4","last_reported":1743455361,"current_range_meters":5600,"station_id":"ce4bgvp2rcd13ifvqct0","pricing_plan_id":"cebpf4jnsgd1na2vs0mg"},{"bike_id":"f54d2675-8e28-47f7-9724-c44470c8c9d5","system_id":"levelo_inurba_marseille","lat":43.28829,"lon":5.39307,"is_reserved":false,"is_disabled":false,"rental_uris":{"android":"levelo://app?vid=f54d2675-8e28-47f7-9724-c44470c8c9d5","ios":"levelo://app?vid=f54d2675-8e28-47f7-9724-c44470c8c9d5"},"vehicle_type_id":"4","last_reported":1743455361,"current_range_meters":6000,"station_id":"ce4bh2p2rcd13ifvqdi0","pricing_plan_id":"cebpf4jnsgd1na2vs0mg"},{"bike_id":"74f7eb96-293c-4e69-9762-8579f859cecd","system_id":"levelo_inurba_marseille","lat":43.2772,"lon":5.41995,"is_reserved":false,"is_disabled":false,"rental_uris":{"android":"levelo://app?vid=74f7eb96-293c-4e69-9762-8579f859cecd","ios":"levelo://app?vid=74f7eb96-293c-4e69-9762-8579f859cecd"},"vehicle_type_id":"4","last_reported":1743455361,"current_range_meters":6000,"station_id":"","pricing_plan_id":"cebpf4jnsgd1na2vs0mg"},{"bike_id":"22cdc40d-189c-487e-af1b-7619d9d52c4e","system_id":"levelo_inurba_marseille","lat":43.29622,"lon":5.40603,"is_reserved":false,"is_disabled":false,"rental_uris":{"android":"levelo://app?vid=22cdc40d-189c-487e-af1b-7619d9d52c4e","ios":"levelo://app?vid=22cdc40d-189c-487e-af1b-7619d9d52c4e"},"vehicle_type_id":"4","last_reported":1743455361,"current_range_meters":6000,"station_id":"ce4bh0h2rcd13ifvqd60","pricing_plan_id":"cebpf4jnsgd1na2vs0mg"},{"bike_id":"0909e6e7-119a-43a8-b285-33eb860b8051","system_id":"levelo_inurba_marseille","lat":43.30247,"lon":5.40081,"is_reserved":false,"is_disabled":false,"rental_uris":{"android":"levelo://app?vid=0909e6e7-119a-43a8-b285-33eb860b8051","ios":"levelo://app?vid=0909e6e7-119a-43a8-b285-33eb860b8051"},"vehicle_type_id":"4","last_reported":1743455361,"current_range_meters":6000,"station_id":"ce4bgvh2rcd13ifvqcs0","pricing_plan_id":"cebpf4jnsgd1na2vs0mg"},{"bike_id":"c149a85e-1e84-4573-b0c1-7587801ca6e5","system_id":"levelo_inurba_marseille","lat":43.27169,"lon":5.40991,"is_reserved":false,"is_disabled":false,"rental_uris":{"android":"levelo://app?vid=c149a85e-1e84-4573-b0c1-7587801ca6e5","ios":"levelo://app?vid=c149a85e-1e84-4573-b0c1-7587801ca6e5"},"vehicle_type_id":"4","last_reported":1743455361,"current_range_meters":6000,"station_id":"ce4bhl12rcd13ifvqgf0","pricing_plan_id":"cebpf4jnsgd1na2vs0mg"},{"bike_id":"33c55660-0541-469b-a476-383fff04337f","system_id":"levelo_inurba_marseille","lat":43.22926,"lon":5.35376,"is_reserved":false,"is_disabled":false,"rental_uris":{"android":"levelo://app?vid=33c55660-0541-469b-a476-383fff04337f","ios":"levelo://app?vid=33c55660-0541-469b-a476-383fff04337f"},"vehicle_type_id":"4","last_reported":1743455361,"current_range_meters":6000,"station_id":"cpo3532slgdg3j2ikp40","pricing_plan_id":"cebpf4jnsgd1na2vs0mg"},{"bike_id":"fb1d61b4-6402-4e50-a66e-a45b93682bc7","system_id":"levelo_inurba_marseille","lat":43.29426,"lon":5.38598,"is_reserved":false,"is_disabled":false,"rental_uris":{"android":"levelo://app?vid=fb1d61b4-6402-4e50-a66e-a45b93682bc7","ios":"levelo://app?vid=fb1d61b4-6402-4e50-a66e-a45b93682bc7"},"vehicle_type_id":"4","last_reported":1743455361,"current_range_meters":6400,"station_id":"ce4bh2h2rcd13ifvqdh0","pricing_plan_id":"cebpf4jnsgd1na2vs0mg"},{"bike_id":"cbd09a99-2de5-419e-ba79-b7b06f7b27e4","system_id":"levelo_inurba_marseille","lat":43.3065,"lon":5.40071,"is_reserved":false,"is_disabled":false,"rental_uris":{"android":"levelo://app?vid=cbd09a99-2de5-419e-ba79-b7b06f7b27e4","ios":"levelo://app?vid=cbd09a99-2de5-419e-ba79-b7b06f7b27e4"},"vehicle_type_id":"4","last_reported":1743455361,"current_range_meters":6400,"station_id":"ce4bh112rcd13ifvqda0","pricing_plan_id":"cebpf4jnsgd1na2vs0mg"},{"bike_id":"0b2d8a57-fad8-4ef5-86f0-7d32a18f7c29","system_id":"levelo_inurba_marseille","lat":43.33001,"lon":5.39047,"is_reserved":false,"is_disabled":false,"rental_uris":{"android":"levelo://app?vid=0b2d8a57-fad8-4ef5-86f0-7d32a18f7c29","ios":"levelo://app?vid=0b2d8a57-fad8-4ef5-86f0-7d32a18f7c29"},"vehicle_type_id":"4","last_reported":1743455361,"current_range_meters":6400,"station_id":"ce4bhr92rcd13ifvqhrg","pricing_plan_id":"cebpf4jnsgd1na2vs0mg"},{"bike_id":"0d2d994d-a02d-4e68-96bc-d1a2c0e84f7d","system_id":"levelo_inurba_marseille","lat":43.27949,"lon":5.41048,"is_reserved":false,"is_disabled":false,"rental_uris":{"android":"levelo://app?vid=0d2d994d-a02d-4e68-96bc-d1a2c0e84f7d","ios":"levelo://app?vid=0d2d994d-a02d-4e68-96bc-d1a2c0e84f7d"},"vehicle_type_id":"4","last_reported":1743455361,"current_range_meters":6400,"station_id":"ce4bhnp2rcd13ifvqh0g","pricing_plan_id":"cebpf4jnsgd1na2vs0mg"},{"bike_id":"85fad29d-07fa-4834-92ea-a24165516ebf","system_id":"levelo_inurba_marseille","lat":43.23043,"lon":5.35503,"is_reserved":false,"is_disabled":false,"rental_uris":{"android":"levelo://app?vid=85fad29d-07fa-4834-92ea-a24165516ebf","ios":"levelo://app?vid=85fad29d-07fa-4834-92ea-a24165516ebf"},"vehicle_type_id":"4","last_reported":1743455361,"current_range_meters":6400,"station_id":"cpo3342slgdg3j2ifvpg","pricing_plan_id":"cebpf4jnsgd1na2vs0mg"},{"bike_id":"248029c6-2454-473a-9b69-0f66c750cc08","system_id":"levelo_inurba_marseille","lat":43.25076,"lon":5.39513,"is_reserved":false,"is_disabled":false,"rental_uris":{"android":"levelo://app?vid=248029c6-2454-473a-9b69-0f66c750cc08","ios":"levelo://app?vid=248029c6-2454-473a-9b69-0f66c750cc08"},"vehicle_type_id":"4","last_reported":1743455361,"current_range_meters":6400,"station_id":"ce4bhm12rcd13ifvqgkg","pricing_plan_id":"cebpf4jnsgd1na2vs0mg"},{"bike_id":"2f39f1f1-5f06-48d6-ad98-fdacdd63bf76","system_id":"levelo_inurba_marseille","lat":43.29569,"lon":5.39976,"is_reserved":false,"is_disabled":false,"rental_uris":{"android":"levelo://app?vid=2f39f1f1-5f06-48d6-ad98-fdacdd63bf76","ios":"levelo://app?vid=2f39f1f1-5f06-48d6-ad98-fdacdd63bf76"},"vehicle_type_id":"4","last_reported":1743455361,"current_range_meters":6400,"station_id":"ce4bh312rcd13ifvqdj0","pricing_plan_id":"cebpf4jnsgd1na2vs0mg"},{"bike_id":"0ce29fe3-4a0d-4ccf-858a-3574f2c7d9b8","system_id":"levelo_inurba_marseille","lat":43.28918,"lon":5.39636,"is_reserved":false,"is_disabled":false,"rental_uris":{"android":"levelo://app?vid=0ce29fe3-4a0d-4ccf-858a-3574f2c7d9b8","ios":"levelo://app?vid=0ce29fe3-4a0d-4ccf-858a-3574f2c7d9b8"},"vehicle_type_id":"4","last_reported":1743455361,"current_range_meters":6400,"station_id":"ce4bh3h2rcd13ifvqdn0","pricing_plan_id":"cebpf4jnsgd1na2vs0mg"},{"bike_id":"96e784e2-dca0-4bf1-b666-4e137934ce3b","system_id":"levelo_inurba_marseille","lat":43.28415,"lon":5.34983,"is_reserved":false,"is_disabled":false,"rental_uris":{"android":"levelo://app?vid=96e784e2-dca0-4bf1-b666-4e137934ce3b","ios":"levelo://app?vid=96e784e2-dca0-4bf1-b666-4e137934ce3b"},"vehicle_type_id":"4","last_reported":1743455361,"current_range_meters":6400,"station_id":"ce4bhbh2rcd13ifvqepg","pricing_plan_id":"cebpf4jnsgd1na2vs0mg"},{"bike_id":"00d61976-17e0-440b-8586-301c5d1b91c1","system_id":"levelo_inurba_marseille","lat":43.29242,"lon":5.38434,"is_reserved":false,"is_disabled":true,"rental_uris":{"android":"levelo://app?vid=00d61976-17e0-440b-8586-301c5d1b91c1","ios":"levelo://app?vid=00d61976-17e0-440b-8586-301c5d1b91c1"},"vehicle_type_id":"4","last_reported":1743455361,"current_range_meters":6800,"station_id":"ce4bh692rcd13ifvqea0","pricing_plan_id":"cebpf4jnsgd1na2vs0mg"},{"bike_id":"21791e2f-185e-4410-87b6-2e2167f88d3a","system_id":"levelo_inurba_marseille","lat":43.31346,"lon":5.39696,"is_reserved":false,"is_disabled":false,"rental_uris":{"android":"levelo://app?vid=21791e2f-185e-4410-87b6-2e2167f88d3a","ios":"levelo://app?vid=21791e2f-185e-4410-87b6-2e2167f88d3a"},"vehicle_type_id":"4","last_reported":1743455361,"current_range_meters":6800,"station_id":"ce4bgvp2rcd13ifvqcu0","pricing_plan_id":"cebpf4jnsgd1na2vs0mg"},{"bike_id":"384b6dc4-816b-4240-a4a9-53e77134aeab","system_id":"levelo_inurba_marseille","lat":43.3132,"lon":5.39696,"is_reserved":false,"is_disabled":false,"rental_uris":{"android":"levelo://app?vid=384b6dc4-816b-4240-a4a9-53e77134aeab","ios":"levelo://app?vid=384b6dc4-816b-4240-a4a9-53e77134aeab"},"vehicle_type_id":"4","last_reported":1743455361,"current_range_meters":6800,"station_id":"ce4bgvp2rcd13ifvqcu0","pricing_plan_id":"cebpf4jnsgd1na2vs0mg"},{"bike_id":"2d3ddf82-fb7a-4286-b25a-457905416bb5","system_id":"levelo_inurba_marseille","lat":43.27911,"lon":5.39175,"is_reserved":false,"is_disabled":false,"rental_uris":{"android":"levelo://app?vid=2d3ddf82-fb7a-4286-b25a-457905416bb5","ios":"levelo://app?vid=2d3ddf82-fb7a-4286-b25a-457905416bb5"},"vehicle_type_id":"4","last_reported":1743455361,"current_range_meters":6800,"station_id":"ce4bhjp2rcd13ifvqga0","pricing_plan_id":"cebpf4jnsgd1na2vs0mg"},{"bike_id":"b104286b-ad75-4d03-8a4d-319e0d6523a6","system_id":"levelo_inurba_marseille","lat":43.28405,"lon":5.37502,"is_reserved":false,"is_disabled":false,"rental_uris":{"android":"levelo://app?vid=b104286b-ad75-4d03-8a4d-319e0d6523a6","ios":"levelo://app?vid=b104286b-ad75-4d03-8a4d-319e0d6523a6"},"vehicle_type_id":"4","last_reported":1743455361,"current_range_meters":6800,"station_id":"ce4bh412rcd13ifvqds0","pricing_plan_id":"cebpf4jnsgd1na2vs0mg"},{"bike_id":"2b53eabe-5692-4552-9ef8-9ef139cce88a","system_id":"levelo_inurba_marseille","lat":43.31267,"lon":5.40167,"is_reserved":false,"is_disabled":false,"rental_uris":{"android":"levelo://app?vid=2b53eabe-5692-4552-9ef8-9ef139cce88a","ios":"levelo://app?vid=2b53eabe-5692-4552-9ef8-9ef139cce88a"},"vehicle_type_id":"4","last_reported":1743455361,"current_range_meters":6800,"station_id":"ce4bh092rcd13ifvqd30","pricing_plan_id":"cebpf4jnsgd1na2vs0mg"},{"bike_id":"1da808a6-36fb-434e-b2cb-2df77d77936e","system_id":"levelo_inurba_marseille","lat":43.27363,"lon":5.36244,"is_reserved":false,"is_disabled":false,"rental_uris":{"android":"levelo://app?vid=1da808a6-36fb-434e-b2cb-2df77d77936e","ios":"levelo://app?vid=1da808a6-36fb-434e-b2cb-2df77d77936e"},"vehicle_type_id":"4","last_reported":1743455361,"current_range_meters":6800,"station_id":"ce4bhbh2rcd13ifvqeo0","pricing_plan_id":"cebpf4jnsgd1na2vs0mg"},{"bike_id":"7bf19f0f-ccb7-4e2d-8151-5b3b43d672b1","system_id":"levelo_inurba_marseille","lat":43.26034,"lon":5.41727,"is_reserved":false,"is_disabled":false,"rental_uris":{"android":"levelo://app?vid=7bf19f0f-ccb7-4e2d-8151-5b3b43d672b1","ios":"levelo://app?vid=7bf19f0f-ccb7-4e2d-8151-5b3b43d672b1"},"vehicle_type_id":"4","last_reported":1743455361,"current_range_meters":6800,"station_id":"","pricing_plan_id":"cebpf4jnsgd1na2vs0mg"},{"bike_id":"bdb95563-bef8-4e51-a5f3-13f753679148","system_id":"levelo_inurba_marseille","lat":43.28923,"lon":5.38396,"is_reserved":false,"is_disabled":false,"rental_uris":{"android":"levelo://app?vid=bdb95563-bef8-4e51-a5f3-13f753679148","ios":"levelo://app?vid=bdb95563-bef8-4e51-a5f3-13f753679148"},"vehicle_type_id":"4","last_reported":1743455361,"current_range_meters":6800,"station_id":"ce4bh612rcd13ifvqe6g","pricing_plan_id":"cebpf4jnsgd1na2vs0mg"},{"bike_id":"99d055d7-9012-4bd5-ad15-1482d25b2f4d","system_id":"levelo_inurba_marseille","lat":43.30248,"lon":5.40058,"is_reserved":false,"is_disabled":false,"rental_uris":{"android":"levelo://app?vid=99d055d7-9012-4bd5-ad15-1482d25b2f4d","ios":"levelo://app?vid=99d055d7-9012-4bd5-ad15-1482d25b2f4d"},"vehicle_type_id":"4","last_reported":1743455361,"current_range_meters":6800,"station_id":"ce4bgvh2rcd13ifvqcs0","pricing_plan_id":"cebpf4jnsgd1na2vs0mg"},{"bike_id":"aba38133-cf74-4a48-8d93-293c77f9ac46","system_id":"levelo_inurba_marseille","lat":43.30917,"lon":5.40149,"is_reserved":false,"is_disabled":false,"rental_uris":{"android":"levelo://app?vid=aba38133-cf74-4a48-8d93-293c77f9ac46","ios":"levelo://app?vid=aba38133-cf74-4a48-8d93-293c77f9ac46"},"vehicle_type_id":"4","last_reported":1743455361,"current_range_meters":6800,"station_id":"ce4bgvp2rcd13ifvqct0","pricing_plan_id":"cebpf4jnsgd1na2vs0mg"},{"bike_id":"04de5b41-79cf-4c38-a131-868cfdfc11f9","system_id":"levelo_inurba_marseille","lat":43.30653,"lon":5.40084,"is_reserved":false,"is_disabled":false,"rental_uris":{"android":"levelo://app?vid=04de5b41-79cf-4c38-a131-868cfdfc11f9","ios":"levelo://app?vid=04de5b41-79cf-4c38-a131-868cfdfc11f9"},"vehicle_type_id":"4","last_reported":1743455361,"current_range_meters":6800,"station_id":"ce4bh112rcd13ifvqda0","pricing_plan_id":"cebpf4jnsgd1na2vs0mg"},{"bike_id":"407b633a-987e-4722-b77a-993eaa06a6b7","system_id":"levelo_inurba_marseille","lat":43.315713,"lon":5.388293,"is_reserved":false,"is_disabled":false,"rental_uris":{"android":"levelo://app?vid=407b633a-987e-4722-b77a-993eaa06a6b7","ios":"levelo://app?vid=407b633a-987e-4722-b77a-993eaa06a6b7"},"vehicle_type_id":"4","last_reported":1743455361,"current_range_meters":7200,"station_id":"","pricing_plan_id":"cebpf4jnsgd1na2vs0mg"},{"bike_id":"59b3e666-7fa2-48e6-bfd8-15740fad04fc","system_id":"levelo_inurba_marseille","lat":43.30965,"lon":5.39056,"is_reserved":false,"is_disabled":false,"rental_uris":{"android":"levelo://app?vid=59b3e666-7fa2-48e6-bfd8-15740fad04fc","ios":"levelo://app?vid=59b3e666-7fa2-48e6-bfd8-15740fad04fc"},"vehicle_type_id":"4","last_reported":1743455361,"current_range_meters":7200,"station_id":"ce4bgup2rcd13ifvqco0","pricing_plan_id":"cebpf4jnsgd1na2vs0mg"},{"bike_id":"bc7482cc-b188-4145-bbac-4eea1de60885","system_id":"levelo_inurba_marseille","lat":43.246608,"lon":5.381632,"is_reserved":false,"is_disabled":false,"rental_uris":{"android":"levelo://app?vid=bc7482cc-b188-4145-bbac-4eea1de60885","ios":"levelo://app?vid=bc7482cc-b188-4145-bbac-4eea1de60885"},"vehicle_type_id":"4","last_reported":1743455361,"current_range_meters":7200,"station_id":"ce4bhih2rcd13ifvqfr0","pricing_plan_id":"cebpf4jnsgd1na2vs0mg"},{"bike_id":"775818d0-28d4-4c3e-be05-0d2144d65eeb","system_id":"levelo_inurba_marseille","lat":43.30876,"lon":5.37208,"is_reserved":false,"is_disabled":false,"rental_uris":{"android":"levelo://app?vid=775818d0-28d4-4c3e-be05-0d2144d65eeb","ios":"levelo://app?vid=775818d0-28d4-4c3e-be05-0d2144d65eeb"},"vehicle_type_id":"4","last_reported":1743455361,"current_range_meters":7200,"station_id":"ce4bguh2rcd13ifvqckg","pricing_plan_id":"cebpf4jnsgd1na2vs0mg"},{"bike_id":"6165c5e1-15f4-4779-ba2f-91df8ba3f8c0","system_id":"levelo_inurba_marseille","lat":43.28904,"lon":5.4298,"is_reserved":false,"is_disabled":false,"rental_uris":{"android":"levelo://app?vid=6165c5e1-15f4-4779-ba2f-91df8ba3f8c0","ios":"levelo://app?vid=6165c5e1-15f4-4779-ba2f-91df8ba3f8c0"},"vehicle_type_id":"4","last_reported":1743455361,"current_range_meters":7200,"station_id":"","pricing_plan_id":"cebpf4jnsgd1na2vs0mg"},{"bike_id":"3e6f399e-ea99-4bee-bf19-68240615b5e1","system_id":"levelo_inurba_marseille","lat":43.29012,"lon":5.38632,"is_reserved":false,"is_disabled":true,"rental_uris":{"android":"levelo://app?vid=3e6f399e-ea99-4bee-bf19-68240615b5e1","ios":"levelo://app?vid=3e6f399e-ea99-4bee-bf19-68240615b5e1"},"vehicle_type_id":"4","last_reported":1743455361,"current_range_meters":7200,"station_id":"ce4bh4p2rcd13ifvqe0g","pricing_plan_id":"cebpf4jnsgd1na2vs0mg"},{"bike_id":"a04aca5b-0988-449d-a9cf-43ccbda2f34b","system_id":"levelo_inurba_marseille","lat":43.32017,"lon":5.38147,"is_reserved":false,"is_disabled":false,"rental_uris":{"android":"levelo://app?vid=a04aca5b-0988-449d-a9cf-43ccbda2f34b","ios":"levelo://app?vid=a04aca5b-0988-449d-a9cf-43ccbda2f34b"},"vehicle_type_id":"4","last_reported":1743455361,"current_range_meters":7200,"station_id":"ce4bhr12rcd13ifvqhpg","pricing_plan_id":"cebpf4jnsgd1na2vs0mg"},{"bike_id":"27b37e08-22ae-4043-9a13-a7f5dbc7b6a4","system_id":"levelo_inurba_marseille","lat":43.28725,"lon":5.37926,"is_reserved":false,"is_disabled":false,"rental_uris":{"android":"levelo://app?vid=27b37e08-22ae-4043-9a13-a7f5dbc7b6a4","ios":"levelo://app?vid=27b37e08-22ae-4043-9a13-a7f5dbc7b6a4"},"vehicle_type_id":"4","last_reported":1743455361,"current_range_meters":7200,"station_id":"ce4bh9p2rcd13ifvqec0","pricing_plan_id":"cebpf4jnsgd1na2vs0mg"},{"bike_id":"9a2af466-2aa8-49f7-bfd5-fc815a2aa07c","system_id":"levelo_inurba_marseille","lat":43.30654,"lon":5.40083,"is_reserved":false,"is_disabled":true,"rental_uris":{"android":"levelo://app?vid=9a2af466-2aa8-49f7-bfd5-fc815a2aa07c","ios":"levelo://app?vid=9a2af466-2aa8-49f7-bfd5-fc815a2aa07c"},"vehicle_type_id":"4","last_reported":1743455361,"current_range_meters":7200,"station_id":"ce4bh112rcd13ifvqda0","pricing_plan_id":"cebpf4jnsgd1na2vs0mg"},{"bike_id":"970d4a28-2e4b-453e-912d-59e6f284b811","system_id":"levelo_inurba_marseille","lat":43.32429,"lon":5.38898,"is_reserved":false,"is_disabled":true,"rental_uris":{"android":"levelo://app?vid=970d4a28-2e4b-453e-912d-59e6f284b811","ios":"levelo://app?vid=970d4a28-2e4b-453e-912d-59e6f284b811"},"vehicle_type_id":"4","last_reported":1743455361,"current_range_meters":8000,"station_id":"ce4bhqp2rcd13ifvqhog","pricing_plan_id":"cebpf4jnsgd1na2vs0mg"},{"bike_id":"eb2cf3c0-31cf-4194-b222-00299873048c","system_id":"levelo_inurba_marseille","lat":43.28531,"lon":5.38477,"is_reserved":false,"is_disabled":false,"rental_uris":{"android":"levelo://app?vid=eb2cf3c0-31cf-4194-b222-00299873048c","ios":"levelo://app?vid=eb2cf3c0-31cf-4194-b222-00299873048c"},"vehicle_type_id":"4","last_reported":1743455361,"current_range_meters":8000,"station_id":"ce4bh512rcd13ifvqe3g","pricing_plan_id":"cebpf4jnsgd1na2vs0mg"},{"bike_id":"2f5e2af1-338f-4448-ae16-13afa5dc47f0","system_id":"levelo_inurba_marseille","lat":43.3077,"lon":5.37655,"is_reserved":false,"is_disabled":false,"rental_uris":{"android":"levelo://app?vid=2f5e2af1-338f-4448-ae16-13afa5dc47f0","ios":"levelo://app?vid=2f5e2af1-338f-4448-ae16-13afa5dc47f0"},"vehicle_type_id":"4","last_reported":1743455361,"current_range_meters":8000,"station_id":"ce4bgv92rcd13ifvqcq0","pricing_plan_id":"cebpf4jnsgd1na2vs0mg"},{"bike_id":"9c64b95d-5b26-45a9-9458-303fd507ea37","system_id":"levelo_inurba_marseille","lat":43.29932,"lon":5.36548,"is_reserved":false,"is_disabled":false,"rental_uris":{"android":"levelo://app?vid=9c64b95d-5b26-45a9-9458-303fd507ea37","ios":"levelo://app?vid=9c64b95d-5b26-45a9-9458-303fd507ea37"},"vehicle_type_id":"4","last_reported":1743455361,"current_range_meters":8000,"station_id":"ce4bgm92rcd13ifvqbr0","pricing_plan_id":"cebpf4jnsgd1na2vs0mg"},{"bike_id":"d78f4182-89a3-4c8c-8d77-5ef713c7dd04","system_id":"levelo_inurba_marseille","lat":43.30866,"lon":5.37785,"is_reserved":false,"is_disabled":false,"rental_uris":{"android":"levelo://app?vid=d78f4182-89a3-4c8c-8d77-5ef713c7dd04","ios":"levelo://app?vid=d78f4182-89a3-4c8c-8d77-5ef713c7dd04"},"vehicle_type_id":"4","last_reported":1743455361,"current_range_meters":8000,"station_id":"","pricing_plan_id":"cebpf4jnsgd1na2vs0mg"},{"bike_id":"cf1f2c03-f850-4d1b-a61f-a8f68ffbe580","system_id":"levelo_inurba_marseille","lat":43.28104,"lon":5.37848,"is_reserved":false,"is_disabled":false,"rental_uris":{"android":"levelo://app?vid=cf1f2c03-f850-4d1b-a61f-a8f68ffbe580","ios":"levelo://app?vid=cf1f2c03-f850-4d1b-a61f-a8f68ffbe580"},"vehicle_type_id":"4","last_reported":1743455361,"current_range_meters":8000,"station_id":"ce4bha12rcd13ifvqee0","pricing_plan_id":"cebpf4jnsgd1na2vs0mg"},{"bike_id":"708264e6-8ff8-41df-b471-32f4234fc1c9","system_id":"levelo_inurba_marseille","lat":43.28715,"lon":5.37426,"is_reserved":false,"is_disabled":false,"rental_uris":{"android":"levelo://app?vid=708264e6-8ff8-41df-b471-32f4234fc1c9","ios":"levelo://app?vid=708264e6-8ff8-41df-b471-32f4234fc1c9"},"vehicle_type_id":"4","last_reported":1743455361,"current_range_meters":8000,"station_id":"ce4bh3p2rcd13ifvqdq0","pricing_plan_id":"cebpf4jnsgd1na2vs0mg"},{"bike_id":"121010d1-d0ea-475b-97a6-f9054736109c","system_id":"levelo_inurba_marseille","lat":43.23193,"lon":5.39972,"is_reserved":false,"is_disabled":false,"rental_uris":{"android":"levelo://app?vid=121010d1-d0ea-475b-97a6-f9054736109c","ios":"levelo://app?vid=121010d1-d0ea-475b-97a6-f9054736109c"},"vehicle_type_id":"4","last_reported":1743455361,"current_range_meters":8400,"station_id":"ce4bhn12rcd13ifvqgqg","pricing_plan_id":"cebpf4jnsgd1na2vs0mg"},{"bike_id":"6b7f2b11-03ac-4a0c-9fb1-71dc0bbdd506","system_id":"levelo_inurba_marseille","lat":43.32013,"lon":5.38142,"is_reserved":false,"is_disabled":false,"rental_uris":{"android":"levelo://app?vid=6b7f2b11-03ac-4a0c-9fb1-71dc0bbdd506","ios":"levelo://app?vid=6b7f2b11-03ac-4a0c-9fb1-71dc0bbdd506"},"vehicle_type_id":"4","last_reported":1743455361,"current_range_meters":8400,"station_id":"ce4bhr12rcd13ifvqhpg","pricing_plan_id":"cebpf4jnsgd1na2vs0mg"},{"bike_id":"aca0b16f-b8c7-4211-8f8e-a779668b706f","system_id":"levelo_inurba_marseille","lat":43.28421,"lon":5.37513,"is_reserved":false,"is_disabled":false,"rental_uris":{"android":"levelo://app?vid=aca0b16f-b8c7-4211-8f8e-a779668b706f","ios":"levelo://app?vid=aca0b16f-b8c7-4211-8f8e-a779668b706f"},"vehicle_type_id":"4","last_reported":1743455361,"current_range_meters":8400,"station_id":"ce4bh412rcd13ifvqds0","pricing_plan_id":"cebpf4jnsgd1na2vs0mg"},{"bike_id":"6794ae83-daba-4611-956d-2c9dffa4f52f","system_id":"levelo_inurba_marseille","lat":43.30295,"lon":5.39207,"is_reserved":false,"is_disabled":false,"rental_uris":{"android":"levelo://app?vid=6794ae83-daba-4611-956d-2c9dffa4f52f","ios":"levelo://app?vid=6794ae83-daba-4611-956d-2c9dffa4f52f"},"vehicle_type_id":"4","last_reported":1743455361,"current_range_meters":8400,"station_id":"ce4bgkh2rcd13ifvqbk0","pricing_plan_id":"cebpf4jnsgd1na2vs0mg"},{"bike_id":"d8f70170-4924-47d8-bca2-902eeb07f843","system_id":"levelo_inurba_marseille","lat":43.30947,"lon":5.39034,"is_reserved":false,"is_disabled":false,"rental_uris":{"android":"levelo://app?vid=d8f70170-4924-47d8-bca2-902eeb07f843","ios":"levelo://app?vid=d8f70170-4924-47d8-bca2-902eeb07f843"},"vehicle_type_id":"4","last_reported":1743455361,"current_range_meters":8400,"station_id":"ce4bgup2rcd13ifvqco0","pricing_plan_id":"cebpf4jnsgd1na2vs0mg"},{"bike_id":"44db82ce-b275-4e27-87d3-c219b4b05dc8","system_id":"levelo_inurba_marseille","lat":43.32096,"lon":5.36781,"is_reserved":false,"is_disabled":false,"rental_uris":{"android":"levelo://app?vid=44db82ce-b275-4e27-87d3-c219b4b05dc8","ios":"levelo://app?vid=44db82ce-b275-4e27-87d3-c219b4b05dc8"},"vehicle_type_id":"4","last_reported":1743455361,"current_range_meters":8400,"station_id":"ce4bhrh2rcd13ifvqhug","pricing_plan_id":"cebpf4jnsgd1na2vs0mg"},{"bike_id":"f50dd1be-9ee4-480d-920f-0721f0997798","system_id":"levelo_inurba_marseille","lat":43.23181,"lon":5.39983,"is_reserved":false,"is_disabled":false,"rental_uris":{"android":"levelo://app?vid=f50dd1be-9ee4-480d-920f-0721f0997798","ios":"levelo://app?vid=f50dd1be-9ee4-480d-920f-0721f0997798"},"vehicle_type_id":"4","last_reported":1743455361,"current_range_meters":8400,"station_id":"ce4bhn12rcd13ifvqgqg","pricing_plan_id":"cebpf4jnsgd1na2vs0mg"},{"bike_id":"2bf31f9f-c5c0-434c-ab3b-b017d7dc966d","system_id":"levelo_inurba_marseille","lat":43.23054,"lon":5.35492,"is_reserved":false,"is_disabled":false,"rental_uris":{"android":"levelo://app?vid=2bf31f9f-c5c0-434c-ab3b-b017d7dc966d","ios":"levelo://app?vid=2bf31f9f-c5c0-434c-ab3b-b017d7dc966d"},"vehicle_type_id":"4","last_reported":1743455361,"current_range_meters":8400,"station_id":"cpo3342slgdg3j2ifvpg","pricing_plan_id":"cebpf4jnsgd1na2vs0mg"},{"bike_id":"c38cccd4-7aa8-45e2-b7ef-b935585b49f9","system_id":"levelo_inurba_marseille","lat":43.30879,"lon":5.37199,"is_reserved":false,"is_disabled":false,"rental_uris":{"android":"levelo://app?vid=c38cccd4-7aa8-45e2-b7ef-b935585b49f9","ios":"levelo://app?vid=c38cccd4-7aa8-45e2-b7ef-b935585b49f9"},"vehicle_type_id":"4","last_reported":1743455361,"current_range_meters":8400,"station_id":"ce4bguh2rcd13ifvqckg","pricing_plan_id":"cebpf4jnsgd1na2vs0mg"},{"bike_id":"ab3717f3-b435-42f8-98d9-8703f94c52c3","system_id":"levelo_inurba_marseille","lat":43.28389,"lon":5.37545,"is_reserved":false,"is_disabled":false,"rental_uris":{"android":"levelo://app?vid=ab3717f3-b435-42f8-98d9-8703f94c52c3","ios":"levelo://app?vid=ab3717f3-b435-42f8-98d9-8703f94c52c3"},"vehicle_type_id":"4","last_reported":1743455361,"current_range_meters":8400,"station_id":"ce4bh412rcd13ifvqds0","pricing_plan_id":"cebpf4jnsgd1na2vs0mg"},{"bike_id":"12514587-c98e-4063-aac8-25cd351ba7fd","system_id":"levelo_inurba_marseille","lat":43.303,"lon":5.40063,"is_reserved":false,"is_disabled":false,"rental_uris":{"android":"levelo://app?vid=12514587-c98e-4063-aac8-25cd351ba7fd","ios":"levelo://app?vid=12514587-c98e-4063-aac8-25cd351ba7fd"},"vehicle_type_id":"4","last_reported":1743455361,"current_range_meters":8400,"station_id":"ce4bgvh2rcd13ifvqcs0","pricing_plan_id":"cebpf4jnsgd1na2vs0mg"},{"bike_id":"d2f2ddd5-8dd4-436f-ba30-fd70dfe59da3","system_id":"levelo_inurba_marseille","lat":43.32115,"lon":5.3676,"is_reserved":false,"is_disabled":false,"rental_uris":{"android":"levelo://app?vid=d2f2ddd5-8dd4-436f-ba30-fd70dfe59da3","ios":"levelo://app?vid=d2f2ddd5-8dd4-436f-ba30-fd70dfe59da3"},"vehicle_type_id":"4","last_reported":1743455361,"current_range_meters":8800,"station_id":"ce4bhrh2rcd13ifvqhug","pricing_plan_id":"cebpf4jnsgd1na2vs0mg"},{"bike_id":"49810080-90c1-49b4-921f-dc96b27343ff","system_id":"levelo_inurba_marseille","lat":43.26095,"lon":5.41462,"is_reserved":false,"is_disabled":false,"rental_uris":{"android":"levelo://app?vid=49810080-90c1-49b4-921f-dc96b27343ff","ios":"levelo://app?vid=49810080-90c1-49b4-921f-dc96b27343ff"},"vehicle_type_id":"4","last_reported":1743455361,"current_range_meters":8800,"station_id":"","pricing_plan_id":"cebpf4jnsgd1na2vs0mg"},{"bike_id":"20f5d5b6-da1b-4ad8-8de5-42887a69d068","system_id":"levelo_inurba_marseille","lat":43.28987,"lon":5.3562,"is_reserved":false,"is_disabled":true,"rental_uris":{"android":"levelo://app?vid=20f5d5b6-da1b-4ad8-8de5-42887a69d068","ios":"levelo://app?vid=20f5d5b6-da1b-4ad8-8de5-42887a69d068"},"vehicle_type_id":"4","last_reported":1743455361,"current_range_meters":8800,"station_id":"ce4bhb92rcd13ifvqen0","pricing_plan_id":"cebpf4jnsgd1na2vs0mg"},{"bike_id":"8d79ddc6-bb5a-48c1-97dc-ddda0b0b6831","system_id":"levelo_inurba_marseille","lat":43.29799,"lon":5.40409,"is_reserved":false,"is_disabled":false,"rental_uris":{"android":"levelo://app?vid=8d79ddc6-bb5a-48c1-97dc-ddda0b0b6831","ios":"levelo://app?vid=8d79ddc6-bb5a-48c1-97dc-ddda0b0b6831"},"vehicle_type_id":"4","last_reported":1743455361,"current_range_meters":8800,"station_id":"ce4bh112rcd13ifvqd90","pricing_plan_id":"cebpf4jnsgd1na2vs0mg"},{"bike_id":"f8e5e7d3-8981-4c88-9bb8-02d14b26cf9c","system_id":"levelo_inurba_marseille","lat":43.27909,"lon":5.38016,"is_reserved":false,"is_disabled":false,"rental_uris":{"android":"levelo://app?vid=f8e5e7d3-8981-4c88-9bb8-02d14b26cf9c","ios":"levelo://app?vid=f8e5e7d3-8981-4c88-9bb8-02d14b26cf9c"},"vehicle_type_id":"4","last_reported":1743455361,"current_range_meters":8400,"station_id":"ce4bhf92rcd13ifvqf50","pricing_plan_id":"cebpf4jnsgd1na2vs0mg"},{"bike_id":"0f8f638f-6c59-4dfb-ab4f-882d40e453aa","system_id":"levelo_inurba_marseille","lat":43.29293,"lon":5.42799,"is_reserved":false,"is_disabled":false,"rental_uris":{"android":"levelo://app?vid=0f8f638f-6c59-4dfb-ab4f-882d40e453aa","ios":"levelo://app?vid=0f8f638f-6c59-4dfb-ab4f-882d40e453aa"},"vehicle_type_id":"4","last_reported":1743455361,"current_range_meters":8800,"station_id":"","pricing_plan_id":"cebpf4jnsgd1na2vs0mg"},{"bike_id":"0dbd373c-e1ce-47d4-81d9-c5988ae94519","system_id":"levelo_inurba_marseille","lat":43.31703,"lon":5.40449,"is_reserved":false,"is_disabled":false,"rental_uris":{"android":"levelo://app?vid=0dbd373c-e1ce-47d4-81d9-c5988ae94519","ios":"levelo://app?vid=0dbd373c-e1ce-47d4-81d9-c5988ae94519"},"vehicle_type_id":"4","last_reported":1743455361,"current_range_meters":8800,"station_id":"ce4bh012rcd13ifvqd00","pricing_plan_id":"cebpf4jnsgd1na2vs0mg"},{"bike_id":"81dd399d-4106-41b7-ba18-371b943d676e","system_id":"levelo_inurba_marseille","lat":43.25146,"lon":5.40322,"is_reserved":false,"is_disabled":false,"rental_uris":{"android":"levelo://app?vid=81dd399d-4106-41b7-ba18-371b943d676e","ios":"levelo://app?vid=81dd399d-4106-41b7-ba18-371b943d676e"},"vehicle_type_id":"4","last_reported":1743455361,"current_range_meters":8800,"station_id":"ce4bhlh2rcd13ifvqgig","pricing_plan_id":"cebpf4jnsgd1na2vs0mg"},{"bike_id":"f901f4a5-196a-4fd9-b1f3-497c0c08e236","system_id":"levelo_inurba_marseille","lat":43.2454,"lon":5.39532,"is_reserved":false,"is_disabled":false,"rental_uris":{"android":"levelo://app?vid=f901f4a5-196a-4fd9-b1f3-497c0c08e236","ios":"levelo://app?vid=f901f4a5-196a-4fd9-b1f3-497c0c08e236"},"vehicle_type_id":"4","last_reported":1743455361,"current_range_meters":8800,"station_id":"ce4bhlp2rcd13ifvqgjg","pricing_plan_id":"cebpf4jnsgd1na2vs0mg"},{"bike_id":"672d4500-3325-45a5-9b08-ac625495a4fb","system_id":"levelo_inurba_marseille","lat":43.2834,"lon":5.38115,"is_reserved":false,"is_disabled":true,"rental_uris":{"android":"levelo://app?vid=672d4500-3325-45a5-9b08-ac625495a4fb","ios":"levelo://app?vid=672d4500-3325-45a5-9b08-ac625495a4fb"},"vehicle_type_id":"4","last_reported":1743455361,"current_range_meters":8800,"station_id":"ce4bh412rcd13ifvqdr0","pricing_plan_id":"cebpf4jnsgd1na2vs0mg"},{"bike_id":"b42d6901-bca6-436c-b3b0-94aec0afc9b4","system_id":"levelo_inurba_marseille","lat":43.28948,"lon":5.36622,"is_reserved":false,"is_disabled":false,"rental_uris":{"android":"levelo://app?vid=b42d6901-bca6-436c-b3b0-94aec0afc9b4","ios":"levelo://app?vid=b42d6901-bca6-436c-b3b0-94aec0afc9b4"},"vehicle_type_id":"4","last_reported":1743455361,"current_range_meters":9200,"station_id":"ce4bhap2rcd13ifvqek0","pricing_plan_id":"cebpf4jnsgd1na2vs0mg"},{"bike_id":"05cce8b5-e04d-46f0-83d1-107eef27d8ef","system_id":"levelo_inurba_marseille","lat":43.32292,"lon":5.38286,"is_reserved":false,"is_disabled":false,"rental_uris":{"android":"levelo://app?vid=05cce8b5-e04d-46f0-83d1-107eef27d8ef","ios":"levelo://app?vid=05cce8b5-e04d-46f0-83d1-107eef27d8ef"},"vehicle_type_id":"4","last_reported":1743455361,"current_range_meters":9200,"station_id":"ce4bhr12rcd13ifvqhqg","pricing_plan_id":"cebpf4jnsgd1na2vs0mg"},{"bike_id":"b78e6632-ee1c-4653-858b-6f3b10aefef2","system_id":"levelo_inurba_marseille","lat":43.30144,"lon":5.39874,"is_reserved":false,"is_disabled":true,"rental_uris":{"android":"levelo://app?vid=b78e6632-ee1c-4653-858b-6f3b10aefef2","ios":"levelo://app?vid=b78e6632-ee1c-4653-858b-6f3b10aefef2"},"vehicle_type_id":"4","last_reported":1743455361,"current_range_meters":9200,"station_id":"ce4bh0h2rcd13ifvqd40","pricing_plan_id":"cebpf4jnsgd1na2vs0mg"},{"bike_id":"23a2997f-acca-44d1-a72c-cccdd94a796c","system_id":"levelo_inurba_marseille","lat":43.30937,"lon":5.4014,"is_reserved":false,"is_disabled":true,"rental_uris":{"android":"levelo://app?vid=23a2997f-acca-44d1-a72c-cccdd94a796c","ios":"levelo://app?vid=23a2997f-acca-44d1-a72c-cccdd94a796c"},"vehicle_type_id":"4","last_reported":1743455361,"current_range_meters":9200,"station_id":"ce4bgvp2rcd13ifvqct0","pricing_plan_id":"cebpf4jnsgd1na2vs0mg"},{"bike_id":"5203ccbe-ce3c-4351-a8e9-f9ee5ad38a9c","system_id":"levelo_inurba_marseille","lat":43.23194,"lon":5.39969,"is_reserved":false,"is_disabled":false,"rental_uris":{"android":"levelo://app?vid=5203ccbe-ce3c-4351-a8e9-f9ee5ad38a9c","ios":"levelo://app?vid=5203ccbe-ce3c-4351-a8e9-f9ee5ad38a9c"},"vehicle_type_id":"4","last_reported":1743455361,"current_range_meters":9200,"station_id":"ce4bhn12rcd13ifvqgqg","pricing_plan_id":"cebpf4jnsgd1na2vs0mg"},{"bike_id":"de884e56-2d8a-4412-a460-18b70f4a1987","system_id":"levelo_inurba_marseille","lat":43.29091,"lon":5.38119,"is_reserved":false,"is_disabled":false,"rental_uris":{"android":"levelo://app?vid=de884e56-2d8a-4412-a460-18b70f4a1987","ios":"levelo://app?vid=de884e56-2d8a-4412-a460-18b70f4a1987"},"vehicle_type_id":"4","last_reported":1743455361,"current_range_meters":9200,"station_id":"ce4bh512rcd13ifvqe2g","pricing_plan_id":"cebpf4jnsgd1na2vs0mg"},{"bike_id":"2726bfdb-4638-4364-9f4e-00c2e4c7a44d","system_id":"levelo_inurba_marseille","lat":43.32086,"lon":5.36764,"is_reserved":false,"is_disabled":false,"rental_uris":{"android":"levelo://app?vid=2726bfdb-4638-4364-9f4e-00c2e4c7a44d","ios":"levelo://app?vid=2726bfdb-4638-4364-9f4e-00c2e4c7a44d"},"vehicle_type_id":"4","last_reported":1743455361,"current_range_meters":9200,"station_id":"ce4bhrh2rcd13ifvqhug","pricing_plan_id":"cebpf4jnsgd1na2vs0mg"},{"bike_id":"75eb16ac-b755-478d-bfb5-2e22abc751f6","system_id":"levelo_inurba_marseille","lat":43.29623,"lon":5.37172,"is_reserved":false,"is_disabled":true,"rental_uris":{"android":"levelo://app?vid=75eb16ac-b755-478d-bfb5-2e22abc751f6","ios":"levelo://app?vid=75eb16ac-b755-478d-bfb5-2e22abc751f6"},"vehicle_type_id":"4","last_reported":1743455361,"current_range_meters":9200,"station_id":"ce4bgnh2rcd13ifvqc0g","pricing_plan_id":"cebpf4jnsgd1na2vs0mg"},{"bike_id":"33c19c14-62e7-4fdc-b6f1-09aab3a11c09","system_id":"levelo_inurba_marseille","lat":43.31399,"lon":5.36712,"is_reserved":false,"is_disabled":false,"rental_uris":{"android":"levelo://app?vid=33c19c14-62e7-4fdc-b6f1-09aab3a11c09","ios":"levelo://app?vid=33c19c14-62e7-4fdc-b6f1-09aab3a11c09"},"vehicle_type_id":"4","last_reported":1743455361,"current_range_meters":9200,"station_id":"ce4bgr92rcd13ifvqc6g","pricing_plan_id":"cebpf4jnsgd1na2vs0mg"},{"bike_id":"2d44d096-1d5d-4978-91de-46d1316493e8","system_id":"levelo_inurba_marseille","lat":43.28687,"lon":5.3995,"is_reserved":false,"is_disabled":false,"rental_uris":{"android":"levelo://app?vid=2d44d096-1d5d-4978-91de-46d1316493e8","ios":"levelo://app?vid=2d44d096-1d5d-4978-91de-46d1316493e8"},"vehicle_type_id":"4","last_reported":1743455361,"current_range_meters":9200,"station_id":"","pricing_plan_id":"cebpf4jnsgd1na2vs0mg"},{"bike_id":"5aec9c6d-5a51-41a0-a4bf-50707d0bd2f1","system_id":"levelo_inurba_marseille","lat":43.2893,"lon":5.38393,"is_reserved":false,"is_disabled":false,"rental_uris":{"android":"levelo://app?vid=5aec9c6d-5a51-41a0-a4bf-50707d0bd2f1","ios":"levelo://app?vid=5aec9c6d-5a51-41a0-a4bf-50707d0bd2f1"},"vehicle_type_id":"4","last_reported":1743455361,"current_range_meters":9200,"station_id":"ce4bh612rcd13ifvqe6g","pricing_plan_id":"cebpf4jnsgd1na2vs0mg"},{"bike_id":"f40d69cc-6f50-4ceb-9b4f-f381c9b49e25","system_id":"levelo_inurba_marseille","lat":43.30913,"lon":5.40152,"is_reserved":false,"is_disabled":false,"rental_uris":{"android":"levelo://app?vid=f40d69cc-6f50-4ceb-9b4f-f381c9b49e25","ios":"levelo://app?vid=f40d69cc-6f50-4ceb-9b4f-f381c9b49e25"},"vehicle_type_id":"4","last_reported":1743455361,"current_range_meters":9200,"station_id":"ce4bgvp2rcd13ifvqct0","pricing_plan_id":"cebpf4jnsgd1na2vs0mg"},{"bike_id":"dc2ebcaf-070a-47ba-9fbc-c5c2215094b3","system_id":"levelo_inurba_marseille","lat":43.28713,"lon":5.37944,"is_reserved":false,"is_disabled":false,"rental_uris":{"android":"levelo://app?vid=dc2ebcaf-070a-47ba-9fbc-c5c2215094b3","ios":"levelo://app?vid=dc2ebcaf-070a-47ba-9fbc-c5c2215094b3"},"vehicle_type_id":"4","last_reported":1743455361,"current_range_meters":9200,"station_id":"ce4bh9p2rcd13ifvqec0","pricing_plan_id":"cebpf4jnsgd1na2vs0mg"},{"bike_id":"0e5cf204-cc2e-4385-8d19-42195cfe1d22","system_id":"levelo_inurba_marseille","lat":43.30642,"lon":5.40095,"is_reserved":false,"is_disabled":false,"rental_uris":{"android":"levelo://app?vid=0e5cf204-cc2e-4385-8d19-42195cfe1d22","ios":"levelo://app?vid=0e5cf204-cc2e-4385-8d19-42195cfe1d22"},"vehicle_type_id":"4","last_reported":1743455361,"current_range_meters":9600,"station_id":"ce4bh112rcd13ifvqda0","pricing_plan_id":"cebpf4jnsgd1na2vs0mg"},{"bike_id":"13be784f-28fb-4a84-affd-347d07728492","system_id":"levelo_inurba_marseille","lat":43.28667,"lon":5.38656,"is_reserved":false,"is_disabled":false,"rental_uris":{"android":"levelo://app?vid=13be784f-28fb-4a84-affd-347d07728492","ios":"levelo://app?vid=13be784f-28fb-4a84-affd-347d07728492"},"vehicle_type_id":"4","last_reported":1743455361,"current_range_meters":9600,"station_id":"ce4bh492rcd13ifvqdug","pricing_plan_id":"cebpf4jnsgd1na2vs0mg"},{"bike_id":"df6a4731-d3bc-4c2e-be5a-67b5103fb46b","system_id":"levelo_inurba_marseille","lat":43.31239,"lon":5.36905,"is_reserved":false,"is_disabled":false,"rental_uris":{"android":"levelo://app?vid=df6a4731-d3bc-4c2e-be5a-67b5103fb46b","ios":"levelo://app?vid=df6a4731-d3bc-4c2e-be5a-67b5103fb46b"},"vehicle_type_id":"4","last_reported":1743455361,"current_range_meters":9600,"station_id":"ce4bgl92rcd13ifvqbq0","pricing_plan_id":"cebpf4jnsgd1na2vs0mg"},{"bike_id":"ab879076-8c05-42e8-8f20-332515dd85e1","system_id":"levelo_inurba_marseille","lat":43.31278,"lon":5.40165,"is_reserved":false,"is_disabled":false,"rental_uris":{"android":"levelo://app?vid=ab879076-8c05-42e8-8f20-332515dd85e1","ios":"levelo://app?vid=ab879076-8c05-42e8-8f20-332515dd85e1"},"vehicle_type_id":"4","last_reported":1743455361,"current_range_meters":9600,"station_id":"ce4bh092rcd13ifvqd30","pricing_plan_id":"cebpf4jnsgd1na2vs0mg"},{"bike_id":"e1892c40-ae37-45d4-bf2c-99665a9e5e63","system_id":"levelo_inurba_marseille","lat":43.22934,"lon":5.35376,"is_reserved":false,"is_disabled":false,"rental_uris":{"android":"levelo://app?vid=e1892c40-ae37-45d4-bf2c-99665a9e5e63","ios":"levelo://app?vid=e1892c40-ae37-45d4-bf2c-99665a9e5e63"},"vehicle_type_id":"4","last_reported":1743455361,"current_range_meters":9600,"station_id":"cpo3532slgdg3j2ikp40","pricing_plan_id":"cebpf4jnsgd1na2vs0mg"},{"bike_id":"2de1050b-8808-4018-94c2-5f9d98630754","system_id":"levelo_inurba_marseille","lat":43.30636,"lon":5.40069,"is_reserved":false,"is_disabled":false,"rental_uris":{"android":"levelo://app?vid=2de1050b-8808-4018-94c2-5f9d98630754","ios":"levelo://app?vid=2de1050b-8808-4018-94c2-5f9d98630754"},"vehicle_type_id":"4","last_reported":1743455361,"current_range_meters":9600,"station_id":"ce4bh112rcd13ifvqda0","pricing_plan_id":"cebpf4jnsgd1na2vs0mg"},{"bike_id":"722b18b3-c8a7-4fa7-88f6-bead613f090f","system_id":"levelo_inurba_marseille","lat":43.32291,"lon":5.38298,"is_reserved":false,"is_disabled":false,"rental_uris":{"android":"levelo://app?vid=722b18b3-c8a7-4fa7-88f6-bead613f090f","ios":"levelo://app?vid=722b18b3-c8a7-4fa7-88f6-bead613f090f"},"vehicle_type_id":"4","last_reported":1743455361,"current_range_meters":9600,"station_id":"ce4bhr12rcd13ifvqhqg","pricing_plan_id":"cebpf4jnsgd1na2vs0mg"},{"bike_id":"98116208-f0d9-448e-914d-e1f5219f8c07","system_id":"levelo_inurba_marseille","lat":43.30944,"lon":5.39066,"is_reserved":false,"is_disabled":false,"rental_uris":{"android":"levelo://app?vid=98116208-f0d9-448e-914d-e1f5219f8c07","ios":"levelo://app?vid=98116208-f0d9-448e-914d-e1f5219f8c07"},"vehicle_type_id":"4","last_reported":1743455361,"current_range_meters":9600,"station_id":"ce4bgup2rcd13ifvqco0","pricing_plan_id":"cebpf4jnsgd1na2vs0mg"},{"bike_id":"b76d049e-f434-4d8a-982a-41d5412f309b","system_id":"levelo_inurba_marseille","lat":43.29535,"lon":5.39936,"is_reserved":false,"is_disabled":false,"rental_uris":{"android":"levelo://app?vid=b76d049e-f434-4d8a-982a-41d5412f309b","ios":"levelo://app?vid=b76d049e-f434-4d8a-982a-41d5412f309b"},"vehicle_type_id":"4","last_reported":1743455361,"current_range_meters":9600,"station_id":"ce4bh312rcd13ifvqdj0","pricing_plan_id":"cebpf4jnsgd1na2vs0mg"},{"bike_id":"42cb0f68-e46d-4c3b-b402-2d5194f6aaea","system_id":"levelo_inurba_marseille","lat":43.30292,"lon":5.36901,"is_reserved":false,"is_disabled":false,"rental_uris":{"android":"levelo://app?vid=42cb0f68-e46d-4c3b-b402-2d5194f6aaea","ios":"levelo://app?vid=42cb0f68-e46d-4c3b-b402-2d5194f6aaea"},"vehicle_type_id":"4","last_reported":1743455361,"current_range_meters":9600,"station_id":"ce4bgqh2rcd13ifvqc5g","pricing_plan_id":"cebpf4jnsgd1na2vs0mg"},{"bike_id":"668c01cb-7bea-48c9-8f15-6bcc0c19c832","system_id":"levelo_inurba_marseille","lat":43.26198,"lon":5.37931,"is_reserved":false,"is_disabled":true,"rental_uris":{"android":"levelo://app?vid=668c01cb-7bea-48c9-8f15-6bcc0c19c832","ios":"levelo://app?vid=668c01cb-7bea-48c9-8f15-6bcc0c19c832"},"vehicle_type_id":"4","last_reported":1743455361,"current_range_meters":10000,"station_id":"ce4bhjp2rcd13ifvqg90","pricing_plan_id":"cebpf4jnsgd1na2vs0mg"},{"bike_id":"397156ba-a229-438d-859c-42be5a8ad922","system_id":"levelo_inurba_marseille","lat":43.24688,"lon":5.38146,"is_reserved":false,"is_disabled":false,"rental_uris":{"android":"levelo://app?vid=397156ba-a229-438d-859c-42be5a8ad922","ios":"levelo://app?vid=397156ba-a229-438d-859c-42be5a8ad922"},"vehicle_type_id":"4","last_reported":1743455361,"current_range_meters":10000,"station_id":"ce4bhih2rcd13ifvqfr0","pricing_plan_id":"cebpf4jnsgd1na2vs0mg"},{"bike_id":"e360a5cc-95fc-41fa-a863-b691f0244e7b","system_id":"levelo_inurba_marseille","lat":43.30588,"lon":5.39354,"is_reserved":false,"is_disabled":false,"rental_uris":{"android":"levelo://app?vid=e360a5cc-95fc-41fa-a863-b691f0244e7b","ios":"levelo://app?vid=e360a5cc-95fc-41fa-a863-b691f0244e7b"},"vehicle_type_id":"4","last_reported":1743455361,"current_range_meters":10000,"station_id":"ce4bh0p2rcd13ifvqd80","pricing_plan_id":"cebpf4jnsgd1na2vs0mg"},{"bike_id":"bb929b93-dd4a-4dfa-a214-b57f01160477","system_id":"levelo_inurba_marseille","lat":43.31358,"lon":5.36705,"is_reserved":false,"is_disabled":false,"rental_uris":{"android":"levelo://app?vid=bb929b93-dd4a-4dfa-a214-b57f01160477","ios":"levelo://app?vid=bb929b93-dd4a-4dfa-a214-b57f01160477"},"vehicle_type_id":"4","last_reported":1743455361,"current_range_meters":10000,"station_id":"ce4bgr92rcd13ifvqc6g","pricing_plan_id":"cebpf4jnsgd1na2vs0mg"},{"bike_id":"b7177563-c648-4533-97c5-b55c9df014ee","system_id":"levelo_inurba_marseille","lat":43.30594,"lon":5.3723,"is_reserved":false,"is_disabled":false,"rental_uris":{"android":"levelo://app?vid=b7177563-c648-4533-97c5-b55c9df014ee","ios":"levelo://app?vid=b7177563-c648-4533-97c5-b55c9df014ee"},"vehicle_type_id":"4","last_reported":1743455361,"current_range_meters":10000,"station_id":"ce4bgqh2rcd13ifvqc4g","pricing_plan_id":"cebpf4jnsgd1na2vs0mg"},{"bike_id":"70b1412a-5466-45ee-b0f6-f4bf77f2d89c","system_id":"levelo_inurba_marseille","lat":43.31996,"lon":5.38151,"is_reserved":false,"is_disabled":false,"rental_uris":{"android":"levelo://app?vid=70b1412a-5466-45ee-b0f6-f4bf77f2d89c","ios":"levelo://app?vid=70b1412a-5466-45ee-b0f6-f4bf77f2d89c"},"vehicle_type_id":"4","last_reported":1743455361,"current_range_meters":10000,"station_id":"ce4bhr12rcd13ifvqhpg","pricing_plan_id":"cebpf4jnsgd1na2vs0mg"},{"bike_id":"98e9e043-0694-4ee2-86f8-2f735dfd7edb","system_id":"levelo_inurba_marseille","lat":43.29097,"lon":5.38126,"is_reserved":false,"is_disabled":false,"rental_uris":{"android":"levelo://app?vid=98e9e043-0694-4ee2-86f8-2f735dfd7edb","ios":"levelo://app?vid=98e9e043-0694-4ee2-86f8-2f735dfd7edb"},"vehicle_type_id":"4","last_reported":1743455361,"current_range_meters":10000,"station_id":"ce4bh512rcd13ifvqe2g","pricing_plan_id":"cebpf4jnsgd1na2vs0mg"},{"bike_id":"fe1bccc7-3458-42e9-a74c-85dbbae754c6","system_id":"levelo_inurba_marseille","lat":43.27184,"lon":5.40985,"is_reserved":false,"is_disabled":false,"rental_uris":{"android":"levelo://app?vid=fe1bccc7-3458-42e9-a74c-85dbbae754c6","ios":"levelo://app?vid=fe1bccc7-3458-42e9-a74c-85dbbae754c6"},"vehicle_type_id":"4","last_reported":1743455361,"current_range_meters":10000,"station_id":"ce4bhl12rcd13ifvqgf0","pricing_plan_id":"cebpf4jnsgd1na2vs0mg"},{"bike_id":"42f1f9f3-ea4c-491b-8788-c0c28b0e842b","system_id":"levelo_inurba_marseille","lat":43.28351,"lon":5.38104,"is_reserved":false,"is_disabled":false,"rental_uris":{"android":"levelo://app?vid=42f1f9f3-ea4c-491b-8788-c0c28b0e842b","ios":"levelo://app?vid=42f1f9f3-ea4c-491b-8788-c0c28b0e842b"},"vehicle_type_id":"4","last_reported":1743455361,"current_range_meters":10000,"station_id":"ce4bh412rcd13ifvqdr0","pricing_plan_id":"cebpf4jnsgd1na2vs0mg"},{"bike_id":"63c65619-9d19-4821-af6e-c6107244ae19","system_id":"levelo_inurba_marseille","lat":43.31993,"lon":5.38156,"is_reserved":false,"is_disabled":false,"rental_uris":{"android":"levelo://app?vid=63c65619-9d19-4821-af6e-c6107244ae19","ios":"levelo://app?vid=63c65619-9d19-4821-af6e-c6107244ae19"},"vehicle_type_id":"4","last_reported":1743455361,"current_range_meters":10000,"station_id":"ce4bhr12rcd13ifvqhpg","pricing_plan_id":"cebpf4jnsgd1na2vs0mg"},{"bike_id":"803792e6-efde-4628-8c80-590b819d9207","system_id":"levelo_inurba_marseille","lat":43.30786,"lon":5.38167,"is_reserved":false,"is_disabled":false,"rental_uris":{"android":"levelo://app?vid=803792e6-efde-4628-8c80-590b819d9207","ios":"levelo://app?vid=803792e6-efde-4628-8c80-590b819d9207"},"vehicle_type_id":"4","last_reported":1743455361,"current_range_meters":9600,"station_id":"ce4bgt12rcd13ifvqce0","pricing_plan_id":"cebpf4jnsgd1na2vs0mg"},{"bike_id":"c1e3a122-0e12-4a80-84af-309a87144235","system_id":"levelo_inurba_marseille","lat":43.3013,"lon":5.38786,"is_reserved":false,"is_disabled":false,"rental_uris":{"android":"levelo://app?vid=c1e3a122-0e12-4a80-84af-309a87144235","ios":"levelo://app?vid=c1e3a122-0e12-4a80-84af-309a87144235"},"vehicle_type_id":"4","last_reported":1743455361,"current_range_meters":10000,"station_id":"ce4bghh2rcd13ifvqb60","pricing_plan_id":"cebpf4jnsgd1na2vs0mg"},{"bike_id":"60f3c81c-d1a3-4b58-98c9-504f8a0ffc50","system_id":"levelo_inurba_marseille","lat":43.29798,"lon":5.39339,"is_reserved":false,"is_disabled":false,"rental_uris":{"android":"levelo://app?vid=60f3c81c-d1a3-4b58-98c9-504f8a0ffc50","ios":"levelo://app?vid=60f3c81c-d1a3-4b58-98c9-504f8a0ffc50"},"vehicle_type_id":"4","last_reported":1743455361,"current_range_meters":10000,"station_id":"chh1huq6cuj3fo74tm60","pricing_plan_id":"cebpf4jnsgd1na2vs0mg"},{"bike_id":"241d62a7-84d0-4eb8-ab17-fd67306a391c","system_id":"levelo_inurba_marseille","lat":43.30953,"lon":5.39054,"is_reserved":false,"is_disabled":false,"rental_uris":{"android":"levelo://app?vid=241d62a7-84d0-4eb8-ab17-fd67306a391c","ios":"levelo://app?vid=241d62a7-84d0-4eb8-ab17-fd67306a391c"},"vehicle_type_id":"4","last_reported":1743455361,"current_range_meters":10800,"station_id":"ce4bgup2rcd13ifvqco0","pricing_plan_id":"cebpf4jnsgd1na2vs0mg"},{"bike_id":"acfdc60a-23e2-42a2-a89f-69d383d336e3","system_id":"levelo_inurba_marseille","lat":43.26931,"lon":5.38924,"is_reserved":false,"is_disabled":false,"rental_uris":{"android":"levelo://app?vid=acfdc60a-23e2-42a2-a89f-69d383d336e3","ios":"levelo://app?vid=acfdc60a-23e2-42a2-a89f-69d383d336e3"},"vehicle_type_id":"4","last_reported":1743455361,"current_range_meters":10800,"station_id":"ce4bhhh2rcd13ifvqfl0","pricing_plan_id":"cebpf4jnsgd1na2vs0mg"},{"bike_id":"e05eadd8-8b4e-4e63-87fd-b6c49a0a374a","system_id":"levelo_inurba_marseille","lat":43.30648,"lon":5.40069,"is_reserved":false,"is_disabled":false,"rental_uris":{"android":"levelo://app?vid=e05eadd8-8b4e-4e63-87fd-b6c49a0a374a","ios":"levelo://app?vid=e05eadd8-8b4e-4e63-87fd-b6c49a0a374a"},"vehicle_type_id":"4","last_reported":1743455361,"current_range_meters":10800,"station_id":"ce4bh112rcd13ifvqda0","pricing_plan_id":"cebpf4jnsgd1na2vs0mg"},{"bike_id":"2e457e3d-fe13-42b1-b80f-5d6c116678d1","system_id":"levelo_inurba_marseille","lat":43.25078,"lon":5.3952,"is_reserved":false,"is_disabled":false,"rental_uris":{"android":"levelo://app?vid=2e457e3d-fe13-42b1-b80f-5d6c116678d1","ios":"levelo://app?vid=2e457e3d-fe13-42b1-b80f-5d6c116678d1"},"vehicle_type_id":"4","last_reported":1743455361,"current_range_meters":10800,"station_id":"ce4bhm12rcd13ifvqgkg","pricing_plan_id":"cebpf4jnsgd1na2vs0mg"},{"bike_id":"f7249966-2e0f-4bcd-abc8-0c337d0533fb","system_id":"levelo_inurba_marseille","lat":43.29039,"lon":5.3865,"is_reserved":false,"is_disabled":false,"rental_uris":{"android":"levelo://app?vid=f7249966-2e0f-4bcd-abc8-0c337d0533fb","ios":"levelo://app?vid=f7249966-2e0f-4bcd-abc8-0c337d0533fb"},"vehicle_type_id":"4","last_reported":1743455361,"current_range_meters":10800,"station_id":"ce4bh4p2rcd13ifvqe0g","pricing_plan_id":"cebpf4jnsgd1na2vs0mg"},{"bike_id":"e86e9274-b65b-4d55-ae43-092d368b8259","system_id":"levelo_inurba_marseille","lat":43.29041,"lon":5.37566,"is_reserved":false,"is_disabled":false,"rental_uris":{"android":"levelo://app?vid=e86e9274-b65b-4d55-ae43-092d368b8259","ios":"levelo://app?vid=e86e9274-b65b-4d55-ae43-092d368b8259"},"vehicle_type_id":"4","last_reported":1743455361,"current_range_meters":10000,"station_id":"ce4bh692rcd13ifvqe90","pricing_plan_id":"cebpf4jnsgd1na2vs0mg"},{"bike_id":"da88d5ef-e278-43cb-a285-d9093c742768","system_id":"levelo_inurba_marseille","lat":43.31223,"lon":5.36872,"is_reserved":false,"is_disabled":false,"rental_uris":{"android":"levelo://app?vid=da88d5ef-e278-43cb-a285-d9093c742768","ios":"levelo://app?vid=da88d5ef-e278-43cb-a285-d9093c742768"},"vehicle_type_id":"4","last_reported":1743455361,"current_range_meters":10800,"station_id":"ce4bgl92rcd13ifvqbq0","pricing_plan_id":"cebpf4jnsgd1na2vs0mg"},{"bike_id":"32786654-e0a5-4ead-8bb5-f56016b6a3a0","system_id":"levelo_inurba_marseille","lat":43.26066,"lon":5.39396,"is_reserved":false,"is_disabled":false,"rental_uris":{"android":"levelo://app?vid=32786654-e0a5-4ead-8bb5-f56016b6a3a0","ios":"levelo://app?vid=32786654-e0a5-4ead-8bb5-f56016b6a3a0"},"vehicle_type_id":"4","last_reported":1743455361,"current_range_meters":10800,"station_id":"ce4bhh92rcd13ifvqfj0","pricing_plan_id":"cebpf4jnsgd1na2vs0mg"},{"bike_id":"15616284-438b-47ca-9a9c-7032dfb6424c","system_id":"levelo_inurba_marseille","lat":43.30148,"lon":5.3808,"is_reserved":false,"is_disabled":false,"rental_uris":{"android":"levelo://app?vid=15616284-438b-47ca-9a9c-7032dfb6424c","ios":"levelo://app?vid=15616284-438b-47ca-9a9c-7032dfb6424c"},"vehicle_type_id":"4","last_reported":1743455361,"current_range_meters":10800,"station_id":"ce4bgjp2rcd13ifvqbh0","pricing_plan_id":"cebpf4jnsgd1na2vs0mg"},{"bike_id":"e664c24c-d524-431a-88e3-2336a75dbc15","system_id":"levelo_inurba_marseille","lat":43.29127,"lon":5.3815,"is_reserved":false,"is_disabled":false,"rental_uris":{"android":"levelo://app?vid=e664c24c-d524-431a-88e3-2336a75dbc15","ios":"levelo://app?vid=e664c24c-d524-431a-88e3-2336a75dbc15"},"vehicle_type_id":"4","last_reported":1743455361,"current_range_meters":10800,"station_id":"ce4bh512rcd13ifvqe2g","pricing_plan_id":"cebpf4jnsgd1na2vs0mg"},{"bike_id":"1aeacb1e-a7a1-429c-99cb-0404ca56da8b","system_id":"levelo_inurba_marseille","lat":43.29415,"lon":5.3861,"is_reserved":false,"is_disabled":false,"rental_uris":{"android":"levelo://app?vid=1aeacb1e-a7a1-429c-99cb-0404ca56da8b","ios":"levelo://app?vid=1aeacb1e-a7a1-429c-99cb-0404ca56da8b"},"vehicle_type_id":"4","last_reported":1743455361,"current_range_meters":10800,"station_id":"ce4bh2h2rcd13ifvqdh0","pricing_plan_id":"cebpf4jnsgd1na2vs0mg"},{"bike_id":"de2ea26d-d3ac-4157-ba8d-e5267ed5b126","system_id":"levelo_inurba_marseille","lat":43.293274,"lon":5.386005,"is_reserved":false,"is_disabled":false,"rental_uris":{"android":"levelo://app?vid=de2ea26d-d3ac-4157-ba8d-e5267ed5b126","ios":"levelo://app?vid=de2ea26d-d3ac-4157-ba8d-e5267ed5b126"},"vehicle_type_id":"4","last_reported":1743455361,"current_range_meters":10800,"station_id":"ce4bh312rcd13ifvqdj0","pricing_plan_id":"cebpf4jnsgd1na2vs0mg"},{"bike_id":"815910d3-cdb3-46ab-98fc-2d2728e873cd","system_id":"levelo_inurba_marseille","lat":43.28703,"lon":5.39985,"is_reserved":false,"is_disabled":false,"rental_uris":{"android":"levelo://app?vid=815910d3-cdb3-46ab-98fc-2d2728e873cd","ios":"levelo://app?vid=815910d3-cdb3-46ab-98fc-2d2728e873cd"},"vehicle_type_id":"4","last_reported":1743455361,"current_range_meters":10800,"station_id":"ce4bho92rcd13ifvqh3g","pricing_plan_id":"cebpf4jnsgd1na2vs0mg"},{"bike_id":"60c2db6c-a579-4a7e-9283-d36804f103fc","system_id":"levelo_inurba_marseille","lat":43.29882,"lon":5.39747,"is_reserved":false,"is_disabled":false,"rental_uris":{"android":"levelo://app?vid=60c2db6c-a579-4a7e-9283-d36804f103fc","ios":"levelo://app?vid=60c2db6c-a579-4a7e-9283-d36804f103fc"},"vehicle_type_id":"4","last_reported":1743455361,"current_range_meters":11200,"station_id":"ce4bh0h2rcd13ifvqd50","pricing_plan_id":"cebpf4jnsgd1na2vs0mg"},{"bike_id":"a52886ef-e99c-46a0-bac7-a6dde5da8cba","system_id":"levelo_inurba_marseille","lat":43.30834,"lon":5.37229,"is_reserved":false,"is_disabled":false,"rental_uris":{"android":"levelo://app?vid=a52886ef-e99c-46a0-bac7-a6dde5da8cba","ios":"levelo://app?vid=a52886ef-e99c-46a0-bac7-a6dde5da8cba"},"vehicle_type_id":"4","last_reported":1743455361,"current_range_meters":11200,"station_id":"","pricing_plan_id":"cebpf4jnsgd1na2vs0mg"},{"bike_id":"bc2731c5-d1f1-4f43-bf16-ed3324b6f121","system_id":"levelo_inurba_marseille","lat":43.27998,"lon":5.411,"is_reserved":false,"is_disabled":true,"rental_uris":{"android":"levelo://app?vid=bc2731c5-d1f1-4f43-bf16-ed3324b6f121","ios":"levelo://app?vid=bc2731c5-d1f1-4f43-bf16-ed3324b6f121"},"vehicle_type_id":"4","last_reported":1743455361,"current_range_meters":11200,"station_id":"ce4bhnp2rcd13ifvqh0g","pricing_plan_id":"cebpf4jnsgd1na2vs0mg"},{"bike_id":"d3ba4933-7e3a-4a79-ae5e-f45420cee86f","system_id":"levelo_inurba_marseille","lat":43.30426,"lon":5.39746,"is_reserved":false,"is_disabled":false,"rental_uris":{"android":"levelo://app?vid=d3ba4933-7e3a-4a79-ae5e-f45420cee86f","ios":"levelo://app?vid=d3ba4933-7e3a-4a79-ae5e-f45420cee86f"},"vehicle_type_id":"4","last_reported":1743455361,"current_range_meters":11200,"station_id":"ce4bh092rcd13ifvqd20","pricing_plan_id":"cebpf4jnsgd1na2vs0mg"},{"bike_id":"5e3e154d-81f7-454f-823c-b78370a0c23d","system_id":"levelo_inurba_marseille","lat":43.28861,"lon":5.39331,"is_reserved":false,"is_disabled":false,"rental_uris":{"android":"levelo://app?vid=5e3e154d-81f7-454f-823c-b78370a0c23d","ios":"levelo://app?vid=5e3e154d-81f7-454f-823c-b78370a0c23d"},"vehicle_type_id":"4","last_reported":1743455361,"current_range_meters":11200,"station_id":"ce4bh2p2rcd13ifvqdi0","pricing_plan_id":"cebpf4jnsgd1na2vs0mg"},{"bike_id":"92965aee-9710-4f32-a1eb-71f668b078b0","system_id":"levelo_inurba_marseille","lat":43.28086,"lon":5.39666,"is_reserved":false,"is_disabled":false,"rental_uris":{"android":"levelo://app?vid=92965aee-9710-4f32-a1eb-71f668b078b0","ios":"levelo://app?vid=92965aee-9710-4f32-a1eb-71f668b078b0"},"vehicle_type_id":"4","last_reported":1743455361,"current_range_meters":11200,"station_id":"ce4bho12rcd13ifvqh2g","pricing_plan_id":"cebpf4jnsgd1na2vs0mg"},{"bike_id":"8c8d3d0e-ed82-4216-8b97-0a440989315a","system_id":"levelo_inurba_marseille","lat":43.25116,"lon":5.40336,"is_reserved":false,"is_disabled":false,"rental_uris":{"android":"levelo://app?vid=8c8d3d0e-ed82-4216-8b97-0a440989315a","ios":"levelo://app?vid=8c8d3d0e-ed82-4216-8b97-0a440989315a"},"vehicle_type_id":"4","last_reported":1743455361,"current_range_meters":11200,"station_id":"ce4bhlh2rcd13ifvqgig","pricing_plan_id":"cebpf4jnsgd1na2vs0mg"},{"bike_id":"cf5d5c80-0d8e-4da6-baa3-65a22ff79e2f","system_id":"levelo_inurba_marseille","lat":43.30884,"lon":5.39655,"is_reserved":false,"is_disabled":false,"rental_uris":{"android":"levelo://app?vid=cf5d5c80-0d8e-4da6-baa3-65a22ff79e2f","ios":"levelo://app?vid=cf5d5c80-0d8e-4da6-baa3-65a22ff79e2f"},"vehicle_type_id":"4","last_reported":1743455361,"current_range_meters":11600,"station_id":"ce4bh012rcd13ifvqcv0","pricing_plan_id":"cebpf4jnsgd1na2vs0mg"},{"bike_id":"09500f20-ee1d-4932-abbf-188a230c5b27","system_id":"levelo_inurba_marseille","lat":43.25116,"lon":5.40339,"is_reserved":false,"is_disabled":false,"rental_uris":{"android":"levelo://app?vid=09500f20-ee1d-4932-abbf-188a230c5b27","ios":"levelo://app?vid=09500f20-ee1d-4932-abbf-188a230c5b27"},"vehicle_type_id":"4","last_reported":1743455361,"current_range_meters":11600,"station_id":"ce4bhlh2rcd13ifvqgig","pricing_plan_id":"cebpf4jnsgd1na2vs0mg"},{"bike_id":"5e8b440b-b094-4019-ac54-063bf794cc3b","system_id":"levelo_inurba_marseille","lat":43.2818,"lon":5.42678,"is_reserved":false,"is_disabled":false,"rental_uris":{"android":"levelo://app?vid=5e8b440b-b094-4019-ac54-063bf794cc3b","ios":"levelo://app?vid=5e8b440b-b094-4019-ac54-063bf794cc3b"},"vehicle_type_id":"4","last_reported":1743455361,"current_range_meters":11600,"station_id":"ce4bhnh2rcd13ifvqgug","pricing_plan_id":"cebpf4jnsgd1na2vs0mg"},{"bike_id":"c5f908d3-4610-4cae-8aeb-e89ca0e64cc1","system_id":"levelo_inurba_marseille","lat":43.33602,"lon":5.41034,"is_reserved":false,"is_disabled":false,"rental_uris":{"android":"levelo://app?vid=c5f908d3-4610-4cae-8aeb-e89ca0e64cc1","ios":"levelo://app?vid=c5f908d3-4610-4cae-8aeb-e89ca0e64cc1"},"vehicle_type_id":"4","last_reported":1743455361,"current_range_meters":11600,"station_id":"ce4bhqh2rcd13ifvqhmg","pricing_plan_id":"cebpf4jnsgd1na2vs0mg"},{"bike_id":"c9bd637b-43ac-4a64-968e-26036745ac7f","system_id":"levelo_inurba_marseille","lat":43.29779,"lon":5.39346,"is_reserved":false,"is_disabled":false,"rental_uris":{"android":"levelo://app?vid=c9bd637b-43ac-4a64-968e-26036745ac7f","ios":"levelo://app?vid=c9bd637b-43ac-4a64-968e-26036745ac7f"},"vehicle_type_id":"4","last_reported":1743455361,"current_range_meters":11600,"station_id":"chh1huq6cuj3fo74tm60","pricing_plan_id":"cebpf4jnsgd1na2vs0mg"},{"bike_id":"278a572e-c3f1-410c-a7c4-1fe23200e33e","system_id":"levelo_inurba_marseille","lat":43.30246,"lon":5.40041,"is_reserved":false,"is_disabled":false,"rental_uris":{"android":"levelo://app?vid=278a572e-c3f1-410c-a7c4-1fe23200e33e","ios":"levelo://app?vid=278a572e-c3f1-410c-a7c4-1fe23200e33e"},"vehicle_type_id":"4","last_reported":1743455361,"current_range_meters":11600,"station_id":"ce4bgvh2rcd13ifvqcs0","pricing_plan_id":"cebpf4jnsgd1na2vs0mg"},{"bike_id":"7a894edd-a4a4-40de-8b70-ca9fb3d5e3fd","system_id":"levelo_inurba_marseille","lat":43.31114,"lon":5.42411,"is_reserved":false,"is_disabled":false,"rental_uris":{"android":"levelo://app?vid=7a894edd-a4a4-40de-8b70-ca9fb3d5e3fd","ios":"levelo://app?vid=7a894edd-a4a4-40de-8b70-ca9fb3d5e3fd"},"vehicle_type_id":"4","last_reported":1743455361,"current_range_meters":12000,"station_id":"ce4bhp92rcd13ifvqhag","pricing_plan_id":"cebpf4jnsgd1na2vs0mg"},{"bike_id":"197abdf3-3766-42b4-b98d-c621da8236c6","system_id":"levelo_inurba_marseille","lat":43.33024,"lon":5.39036,"is_reserved":false,"is_disabled":false,"rental_uris":{"android":"levelo://app?vid=197abdf3-3766-42b4-b98d-c621da8236c6","ios":"levelo://app?vid=197abdf3-3766-42b4-b98d-c621da8236c6"},"vehicle_type_id":"4","last_reported":1743455361,"current_range_meters":12000,"station_id":"ce4bhr92rcd13ifvqhrg","pricing_plan_id":"cebpf4jnsgd1na2vs0mg"},{"bike_id":"423a1286-677b-4207-b068-1c03de793d79","system_id":"levelo_inurba_marseille","lat":43.28721,"lon":5.37389,"is_reserved":false,"is_disabled":false,"rental_uris":{"android":"levelo://app?vid=423a1286-677b-4207-b068-1c03de793d79","ios":"levelo://app?vid=423a1286-677b-4207-b068-1c03de793d79"},"vehicle_type_id":"4","last_reported":1743455361,"current_range_meters":12000,"station_id":"ce4bh3p2rcd13ifvqdq0","pricing_plan_id":"cebpf4jnsgd1na2vs0mg"},{"bike_id":"99d86cd7-48d6-44e2-aeb6-7e4526af1ce0","system_id":"levelo_inurba_marseille","lat":43.24656,"lon":5.38176,"is_reserved":false,"is_disabled":false,"rental_uris":{"android":"levelo://app?vid=99d86cd7-48d6-44e2-aeb6-7e4526af1ce0","ios":"levelo://app?vid=99d86cd7-48d6-44e2-aeb6-7e4526af1ce0"},"vehicle_type_id":"4","last_reported":1743455361,"current_range_meters":12000,"station_id":"ce4bhih2rcd13ifvqfr0","pricing_plan_id":"cebpf4jnsgd1na2vs0mg"},{"bike_id":"cc4e1118-2520-40fa-adc5-3df1ecb2b931","system_id":"levelo_inurba_marseille","lat":43.28704,"lon":5.3999,"is_reserved":false,"is_disabled":false,"rental_uris":{"android":"levelo://app?vid=cc4e1118-2520-40fa-adc5-3df1ecb2b931","ios":"levelo://app?vid=cc4e1118-2520-40fa-adc5-3df1ecb2b931"},"vehicle_type_id":"4","last_reported":1743455361,"current_range_meters":12000,"station_id":"ce4bho92rcd13ifvqh3g","pricing_plan_id":"cebpf4jnsgd1na2vs0mg"},{"bike_id":"87304c8a-53f6-45f9-98cc-415e4d7a95a5","system_id":"levelo_inurba_marseille","lat":43.23187,"lon":5.39963,"is_reserved":false,"is_disabled":false,"rental_uris":{"android":"levelo://app?vid=87304c8a-53f6-45f9-98cc-415e4d7a95a5","ios":"levelo://app?vid=87304c8a-53f6-45f9-98cc-415e4d7a95a5"},"vehicle_type_id":"4","last_reported":1743455361,"current_range_meters":12000,"station_id":"ce4bhn12rcd13ifvqgqg","pricing_plan_id":"cebpf4jnsgd1na2vs0mg"},{"bike_id":"efe3a2d4-1811-4518-ad20-08ff46858d74","system_id":"levelo_inurba_marseille","lat":43.289413,"lon":5.366465,"is_reserved":false,"is_disabled":false,"rental_uris":{"android":"levelo://app?vid=efe3a2d4-1811-4518-ad20-08ff46858d74","ios":"levelo://app?vid=efe3a2d4-1811-4518-ad20-08ff46858d74"},"vehicle_type_id":"4","last_reported":1743455361,"current_range_meters":12000,"station_id":"ce4bhg12rcd13ifvqf80","pricing_plan_id":"cebpf4jnsgd1na2vs0mg"},{"bike_id":"0c308ff7-9027-4d5a-9468-e5b6ff32487c","system_id":"levelo_inurba_marseille","lat":43.29092,"lon":5.38133,"is_reserved":false,"is_disabled":false,"rental_uris":{"android":"levelo://app?vid=0c308ff7-9027-4d5a-9468-e5b6ff32487c","ios":"levelo://app?vid=0c308ff7-9027-4d5a-9468-e5b6ff32487c"},"vehicle_type_id":"4","last_reported":1743455361,"current_range_meters":12400,"station_id":"ce4bh512rcd13ifvqe2g","pricing_plan_id":"cebpf4jnsgd1na2vs0mg"},{"bike_id":"cc9f2f22-428d-43f4-88fa-84d844928722","system_id":"levelo_inurba_marseille","lat":43.284592,"lon":5.374732,"is_reserved":false,"is_disabled":false,"rental_uris":{"android":"levelo://app?vid=cc9f2f22-428d-43f4-88fa-84d844928722","ios":"levelo://app?vid=cc9f2f22-428d-43f4-88fa-84d844928722"},"vehicle_type_id":"4","last_reported":1743455361,"current_range_meters":12400,"station_id":"","pricing_plan_id":"cebpf4jnsgd1na2vs0mg"},{"bike_id":"e8a75bd9-f259-49f6-979a-26dd47f7e629","system_id":"levelo_inurba_marseille","lat":43.30138,"lon":5.39865,"is_reserved":false,"is_disabled":false,"rental_uris":{"android":"levelo://app?vid=e8a75bd9-f259-49f6-979a-26dd47f7e629","ios":"levelo://app?vid=e8a75bd9-f259-49f6-979a-26dd47f7e629"},"vehicle_type_id":"4","last_reported":1743455361,"current_range_meters":12400,"station_id":"ce4bh0h2rcd13ifvqd40","pricing_plan_id":"cebpf4jnsgd1na2vs0mg"},{"bike_id":"4f180c00-d34c-4f08-9670-f9dcdfbe468c","system_id":"levelo_inurba_marseille","lat":43.29882,"lon":5.38906,"is_reserved":false,"is_disabled":false,"rental_uris":{"android":"levelo://app?vid=4f180c00-d34c-4f08-9670-f9dcdfbe468c","ios":"levelo://app?vid=4f180c00-d34c-4f08-9670-f9dcdfbe468c"},"vehicle_type_id":"4","last_reported":1743455361,"current_range_meters":12000,"station_id":"ce4bh392rcd13ifvqdl0","pricing_plan_id":"cebpf4jnsgd1na2vs0mg"},{"bike_id":"f6571233-39a3-4868-910d-68083aeff8a8","system_id":"levelo_inurba_marseille","lat":43.30907,"lon":5.36855,"is_reserved":false,"is_disabled":false,"rental_uris":{"android":"levelo://app?vid=f6571233-39a3-4868-910d-68083aeff8a8","ios":"levelo://app?vid=f6571233-39a3-4868-910d-68083aeff8a8"},"vehicle_type_id":"4","last_reported":1743455361,"current_range_meters":12800,"station_id":"ce4bgn92rcd13ifvqbvg","pricing_plan_id":"cebpf4jnsgd1na2vs0mg"},{"bike_id":"74cfbb16-a793-43c4-bf10-121c863c7238","system_id":"levelo_inurba_marseille","lat":43.29711,"lon":5.36608,"is_reserved":false,"is_disabled":false,"rental_uris":{"android":"levelo://app?vid=74cfbb16-a793-43c4-bf10-121c863c7238","ios":"levelo://app?vid=74cfbb16-a793-43c4-bf10-121c863c7238"},"vehicle_type_id":"4","last_reported":1743455361,"current_range_meters":12800,"station_id":"ce4bgn12rcd13ifvqbt0","pricing_plan_id":"cebpf4jnsgd1na2vs0mg"},{"bike_id":"281591db-90b3-4721-b1fe-ac6c6c7e611c","system_id":"levelo_inurba_marseille","lat":43.29282,"lon":5.40137,"is_reserved":false,"is_disabled":false,"rental_uris":{"android":"levelo://app?vid=281591db-90b3-4721-b1fe-ac6c6c7e611c","ios":"levelo://app?vid=281591db-90b3-4721-b1fe-ac6c6c7e611c"},"vehicle_type_id":"4","last_reported":1743455361,"current_range_meters":12800,"station_id":"ce4bh312rcd13ifvqdk0","pricing_plan_id":"cebpf4jnsgd1na2vs0mg"},{"bike_id":"ebe7cc12-6178-48b1-a2d4-599dbe696c3b","system_id":"levelo_inurba_marseille","lat":43.25866,"lon":5.39913,"is_reserved":false,"is_disabled":false,"rental_uris":{"android":"levelo://app?vid=ebe7cc12-6178-48b1-a2d4-599dbe696c3b","ios":"levelo://app?vid=ebe7cc12-6178-48b1-a2d4-599dbe696c3b"},"vehicle_type_id":"4","last_reported":1743455361,"current_range_meters":12800,"station_id":"ce4bhl92rcd13ifvqghg","pricing_plan_id":"cebpf4jnsgd1na2vs0mg"},{"bike_id":"6b83c631-a8ab-4fa5-8872-ee254e4941ef","system_id":"levelo_inurba_marseille","lat":43.28612,"lon":5.37054,"is_reserved":false,"is_disabled":false,"rental_uris":{"android":"levelo://app?vid=6b83c631-a8ab-4fa5-8872-ee254e4941ef","ios":"levelo://app?vid=6b83c631-a8ab-4fa5-8872-ee254e4941ef"},"vehicle_type_id":"4","last_reported":1743455361,"current_range_meters":12800,"station_id":"ce4bht12rcd13ifvqi60","pricing_plan_id":"cebpf4jnsgd1na2vs0mg"},{"bike_id":"550d33ab-087f-463a-9121-7a7312237d19","system_id":"levelo_inurba_marseille","lat":43.28713,"lon":5.37401,"is_reserved":false,"is_disabled":false,"rental_uris":{"android":"levelo://app?vid=550d33ab-087f-463a-9121-7a7312237d19","ios":"levelo://app?vid=550d33ab-087f-463a-9121-7a7312237d19"},"vehicle_type_id":"4","last_reported":1743455361,"current_range_meters":12800,"station_id":"ce4bh3p2rcd13ifvqdq0","pricing_plan_id":"cebpf4jnsgd1na2vs0mg"},{"bike_id":"3ef7ec7b-5e60-4a41-8f8a-c82f3f4749ff","system_id":"levelo_inurba_marseille","lat":43.31996,"lon":5.3816,"is_reserved":false,"is_disabled":false,"rental_uris":{"android":"levelo://app?vid=3ef7ec7b-5e60-4a41-8f8a-c82f3f4749ff","ios":"levelo://app?vid=3ef7ec7b-5e60-4a41-8f8a-c82f3f4749ff"},"vehicle_type_id":"4","last_reported":1743455361,"current_range_meters":13600,"station_id":"ce4bhr12rcd13ifvqhpg","pricing_plan_id":"cebpf4jnsgd1na2vs0mg"},{"bike_id":"4d2f5fe4-3b25-4e13-a779-6112f195a428","system_id":"levelo_inurba_marseille","lat":43.2788,"lon":5.37984,"is_reserved":false,"is_disabled":false,"rental_uris":{"android":"levelo://app?vid=4d2f5fe4-3b25-4e13-a779-6112f195a428","ios":"levelo://app?vid=4d2f5fe4-3b25-4e13-a779-6112f195a428"},"vehicle_type_id":"4","last_reported":1743455361,"current_range_meters":13600,"station_id":"ce4bhf92rcd13ifvqf50","pricing_plan_id":"cebpf4jnsgd1na2vs0mg"},{"bike_id":"4d1ef574-507a-4fec-a6d9-b5b49b8c445e","system_id":"levelo_inurba_marseille","lat":43.29287,"lon":5.36807,"is_reserved":false,"is_disabled":true,"rental_uris":{"android":"levelo://app?vid=4d1ef574-507a-4fec-a6d9-b5b49b8c445e","ios":"levelo://app?vid=4d1ef574-507a-4fec-a6d9-b5b49b8c445e"},"vehicle_type_id":"4","last_reported":1743455361,"current_range_meters":13600,"station_id":"ce4bhbp2rcd13ifvqesg","pricing_plan_id":"cebpf4jnsgd1na2vs0mg"},{"bike_id":"9ab8336d-5f4c-41a1-9447-7f231e54d8f9","system_id":"levelo_inurba_marseille","lat":43.3026,"lon":5.40076,"is_reserved":false,"is_disabled":false,"rental_uris":{"android":"levelo://app?vid=9ab8336d-5f4c-41a1-9447-7f231e54d8f9","ios":"levelo://app?vid=9ab8336d-5f4c-41a1-9447-7f231e54d8f9"},"vehicle_type_id":"4","last_reported":1743455361,"current_range_meters":13600,"station_id":"ce4bgvh2rcd13ifvqcs0","pricing_plan_id":"cebpf4jnsgd1na2vs0mg"},{"bike_id":"1bf7d99d-3eed-478d-8e7a-6aba633e08bc","system_id":"levelo_inurba_marseille","lat":43.26801,"lon":5.40266,"is_reserved":false,"is_disabled":false,"rental_uris":{"android":"levelo://app?vid=1bf7d99d-3eed-478d-8e7a-6aba633e08bc","ios":"levelo://app?vid=1bf7d99d-3eed-478d-8e7a-6aba633e08bc"},"vehicle_type_id":"4","last_reported":1743455361,"current_range_meters":13600,"station_id":"ce501612rcd8frsf0b60","pricing_plan_id":"cebpf4jnsgd1na2vs0mg"},{"bike_id":"2286499e-afb3-42f0-be29-239621d5e7b7","system_id":"levelo_inurba_marseille","lat":43.24176,"lon":5.39725,"is_reserved":false,"is_disabled":false,"rental_uris":{"android":"levelo://app?vid=2286499e-afb3-42f0-be29-239621d5e7b7","ios":"levelo://app?vid=2286499e-afb3-42f0-be29-239621d5e7b7"},"vehicle_type_id":"4","last_reported":1743455361,"current_range_meters":13600,"station_id":"ce4bhn12rcd13ifvqgpg","pricing_plan_id":"cebpf4jnsgd1na2vs0mg"},{"bike_id":"b0d6dfb0-2fe3-4154-942b-3f00f3a6da02","system_id":"levelo_inurba_marseille","lat":43.30135,"lon":5.3986,"is_reserved":false,"is_disabled":false,"rental_uris":{"android":"levelo://app?vid=b0d6dfb0-2fe3-4154-942b-3f00f3a6da02","ios":"levelo://app?vid=b0d6dfb0-2fe3-4154-942b-3f00f3a6da02"},"vehicle_type_id":"4","last_reported":1743455361,"current_range_meters":13600,"station_id":"ce4bh0h2rcd13ifvqd40","pricing_plan_id":"cebpf4jnsgd1na2vs0mg"},{"bike_id":"cdb2e7a3-c999-497e-a9de-b43472b97dae","system_id":"levelo_inurba_marseille","lat":43.28709,"lon":5.37935,"is_reserved":false,"is_disabled":false,"rental_uris":{"android":"levelo://app?vid=cdb2e7a3-c999-497e-a9de-b43472b97dae","ios":"levelo://app?vid=cdb2e7a3-c999-497e-a9de-b43472b97dae"},"vehicle_type_id":"4","last_reported":1743455361,"current_range_meters":13600,"station_id":"ce4bh9p2rcd13ifvqec0","pricing_plan_id":"cebpf4jnsgd1na2vs0mg"},{"bike_id":"3313a9d9-efd7-40c0-93be-ca6354b79529","system_id":"levelo_inurba_marseille","lat":43.28651,"lon":5.36367,"is_reserved":false,"is_disabled":false,"rental_uris":{"android":"levelo://app?vid=3313a9d9-efd7-40c0-93be-ca6354b79529","ios":"levelo://app?vid=3313a9d9-efd7-40c0-93be-ca6354b79529"},"vehicle_type_id":"4","last_reported":1743455361,"current_range_meters":13600,"station_id":"ce4bhah2rcd13ifvqej0","pricing_plan_id":"cebpf4jnsgd1na2vs0mg"},{"bike_id":"dcb4d143-f11d-440b-a1d6-9a83c1ca3b91","system_id":"levelo_inurba_marseille","lat":43.31216,"lon":5.3686,"is_reserved":false,"is_disabled":false,"rental_uris":{"android":"levelo://app?vid=dcb4d143-f11d-440b-a1d6-9a83c1ca3b91","ios":"levelo://app?vid=dcb4d143-f11d-440b-a1d6-9a83c1ca3b91"},"vehicle_type_id":"4","last_reported":1743455361,"current_range_meters":13600,"station_id":"ce4bgl92rcd13ifvqbq0","pricing_plan_id":"cebpf4jnsgd1na2vs0mg"},{"bike_id":"ceea6e4e-d8a1-40c7-af90-15852f1ca2f6","system_id":"levelo_inurba_marseille","lat":43.29267,"lon":5.40143,"is_reserved":false,"is_disabled":false,"rental_uris":{"android":"levelo://app?vid=ceea6e4e-d8a1-40c7-af90-15852f1ca2f6","ios":"levelo://app?vid=ceea6e4e-d8a1-40c7-af90-15852f1ca2f6"},"vehicle_type_id":"4","last_reported":1743455361,"current_range_meters":14000,"station_id":"ce4bh312rcd13ifvqdk0","pricing_plan_id":"cebpf4jnsgd1na2vs0mg"},{"bike_id":"19788dd2-c382-40d7-b181-509f4b4d313c","system_id":"levelo_inurba_marseille","lat":43.27941,"lon":5.41032,"is_reserved":false,"is_disabled":false,"rental_uris":{"android":"levelo://app?vid=19788dd2-c382-40d7-b181-509f4b4d313c","ios":"levelo://app?vid=19788dd2-c382-40d7-b181-509f4b4d313c"},"vehicle_type_id":"4","last_reported":1743455361,"current_range_meters":14000,"station_id":"ce4bhnp2rcd13ifvqh0g","pricing_plan_id":"cebpf4jnsgd1na2vs0mg"},{"bike_id":"ac38269a-3560-46fc-890f-598451d5f253","system_id":"levelo_inurba_marseille","lat":43.29524,"lon":5.39045,"is_reserved":false,"is_disabled":false,"rental_uris":{"android":"levelo://app?vid=ac38269a-3560-46fc-890f-598451d5f253","ios":"levelo://app?vid=ac38269a-3560-46fc-890f-598451d5f253"},"vehicle_type_id":"4","last_reported":1743455361,"current_range_meters":14000,"station_id":"ce4bh3p2rcd13ifvqdp0","pricing_plan_id":"cebpf4jnsgd1na2vs0mg"},{"bike_id":"d6bd5b4f-d357-4dea-a54a-6cb05581c9a6","system_id":"levelo_inurba_marseille","lat":43.30586,"lon":5.39361,"is_reserved":false,"is_disabled":false,"rental_uris":{"android":"levelo://app?vid=d6bd5b4f-d357-4dea-a54a-6cb05581c9a6","ios":"levelo://app?vid=d6bd5b4f-d357-4dea-a54a-6cb05581c9a6"},"vehicle_type_id":"4","last_reported":1743455361,"current_range_meters":14000,"station_id":"ce4bh0p2rcd13ifvqd80","pricing_plan_id":"cebpf4jnsgd1na2vs0mg"},{"bike_id":"45f564c6-3896-4062-be88-6ce309c5a08c","system_id":"levelo_inurba_marseille","lat":43.31271,"lon":5.40172,"is_reserved":false,"is_disabled":false,"rental_uris":{"android":"levelo://app?vid=45f564c6-3896-4062-be88-6ce309c5a08c","ios":"levelo://app?vid=45f564c6-3896-4062-be88-6ce309c5a08c"},"vehicle_type_id":"4","last_reported":1743455361,"current_range_meters":14000,"station_id":"ce4bh092rcd13ifvqd30","pricing_plan_id":"cebpf4jnsgd1na2vs0mg"},{"bike_id":"63cf2400-774b-460f-8e94-0e9f2fde4ed4","system_id":"levelo_inurba_marseille","lat":43.28603,"lon":5.37057,"is_reserved":false,"is_disabled":false,"rental_uris":{"android":"levelo://app?vid=63cf2400-774b-460f-8e94-0e9f2fde4ed4","ios":"levelo://app?vid=63cf2400-774b-460f-8e94-0e9f2fde4ed4"},"vehicle_type_id":"4","last_reported":1743455361,"current_range_meters":14000,"station_id":"ce4bht12rcd13ifvqi60","pricing_plan_id":"cebpf4jnsgd1na2vs0mg"},{"bike_id":"113ede65-b1f6-4626-b25b-286b34c111c2","system_id":"levelo_inurba_marseille","lat":43.28941,"lon":5.36636,"is_reserved":false,"is_disabled":true,"rental_uris":{"android":"levelo://app?vid=113ede65-b1f6-4626-b25b-286b34c111c2","ios":"levelo://app?vid=113ede65-b1f6-4626-b25b-286b34c111c2"},"vehicle_type_id":"4","last_reported":1743455361,"current_range_meters":14000,"station_id":"ce4bhap2rcd13ifvqek0","pricing_plan_id":"cebpf4jnsgd1na2vs0mg"},{"bike_id":"c53e0b04-ccee-433f-b384-1e1a990e1413","system_id":"levelo_inurba_marseille","lat":43.29056,"lon":5.3815,"is_reserved":false,"is_disabled":false,"rental_uris":{"android":"levelo://app?vid=c53e0b04-ccee-433f-b384-1e1a990e1413","ios":"levelo://app?vid=c53e0b04-ccee-433f-b384-1e1a990e1413"},"vehicle_type_id":"4","last_reported":1743455361,"current_range_meters":14000,"station_id":"ce4bh512rcd13ifvqe2g","pricing_plan_id":"cebpf4jnsgd1na2vs0mg"},{"bike_id":"e5d8a459-b4e3-4a2c-9460-970df4580143","system_id":"levelo_inurba_marseille","lat":43.28449,"lon":5.35895,"is_reserved":false,"is_disabled":false,"rental_uris":{"android":"levelo://app?vid=e5d8a459-b4e3-4a2c-9460-970df4580143","ios":"levelo://app?vid=e5d8a459-b4e3-4a2c-9460-970df4580143"},"vehicle_type_id":"4","last_reported":1743455361,"current_range_meters":14000,"station_id":"ce4bhah2rcd13ifvqei0","pricing_plan_id":"cebpf4jnsgd1na2vs0mg"},{"bike_id":"c8993f9a-32c4-4de7-aa8f-d307097df90a","system_id":"levelo_inurba_marseille","lat":43.30251,"lon":5.40062,"is_reserved":false,"is_disabled":false,"rental_uris":{"android":"levelo://app?vid=c8993f9a-32c4-4de7-aa8f-d307097df90a","ios":"levelo://app?vid=c8993f9a-32c4-4de7-aa8f-d307097df90a"},"vehicle_type_id":"4","last_reported":1743455361,"current_range_meters":14000,"station_id":"ce4bgvh2rcd13ifvqcs0","pricing_plan_id":"cebpf4jnsgd1na2vs0mg"},{"bike_id":"2c567be4-626d-4614-8796-6c92d09d2fa1","system_id":"levelo_inurba_marseille","lat":43.28901,"lon":5.3711,"is_reserved":false,"is_disabled":false,"rental_uris":{"android":"levelo://app?vid=2c567be4-626d-4614-8796-6c92d09d2fa1","ios":"levelo://app?vid=2c567be4-626d-4614-8796-6c92d09d2fa1"},"vehicle_type_id":"4","last_reported":1743455361,"current_range_meters":14400,"station_id":"","pricing_plan_id":"cebpf4jnsgd1na2vs0mg"},{"bike_id":"cffa05db-4752-4a56-ae23-2509b987cfc8","system_id":"levelo_inurba_marseille","lat":43.2871,"lon":5.39931,"is_reserved":false,"is_disabled":false,"rental_uris":{"android":"levelo://app?vid=cffa05db-4752-4a56-ae23-2509b987cfc8","ios":"levelo://app?vid=cffa05db-4752-4a56-ae23-2509b987cfc8"},"vehicle_type_id":"4","last_reported":1743455361,"current_range_meters":14400,"station_id":"ce4bho92rcd13ifvqh3g","pricing_plan_id":"cebpf4jnsgd1na2vs0mg"},{"bike_id":"9b2ecda1-1e8c-43c4-ad09-c5bbd955d2a7","system_id":"levelo_inurba_marseille","lat":43.31703,"lon":5.3775,"is_reserved":false,"is_disabled":false,"rental_uris":{"android":"levelo://app?vid=9b2ecda1-1e8c-43c4-ad09-c5bbd955d2a7","ios":"levelo://app?vid=9b2ecda1-1e8c-43c4-ad09-c5bbd955d2a7"},"vehicle_type_id":"4","last_reported":1743455361,"current_range_meters":14400,"station_id":"ce4bgth2rcd13ifvqch0","pricing_plan_id":"cebpf4jnsgd1na2vs0mg"},{"bike_id":"c7f99555-9bb9-46de-b35d-237f01680bb5","system_id":"levelo_inurba_marseille","lat":43.31773,"lon":5.39009,"is_reserved":false,"is_disabled":false,"rental_uris":{"android":"levelo://app?vid=c7f99555-9bb9-46de-b35d-237f01680bb5","ios":"levelo://app?vid=c7f99555-9bb9-46de-b35d-237f01680bb5"},"vehicle_type_id":"4","last_reported":1743455361,"current_range_meters":14400,"station_id":"ce4bhqp2rcd13ifvqhng","pricing_plan_id":"cebpf4jnsgd1na2vs0mg"},{"bike_id":"4b8e5d31-3809-462d-88d7-526ab452e4a6","system_id":"levelo_inurba_marseille","lat":43.28453,"lon":5.35881,"is_reserved":false,"is_disabled":false,"rental_uris":{"android":"levelo://app?vid=4b8e5d31-3809-462d-88d7-526ab452e4a6","ios":"levelo://app?vid=4b8e5d31-3809-462d-88d7-526ab452e4a6"},"vehicle_type_id":"4","last_reported":1743455361,"current_range_meters":14400,"station_id":"ce4bhah2rcd13ifvqei0","pricing_plan_id":"cebpf4jnsgd1na2vs0mg"},{"bike_id":"c4309e96-2b99-44ab-8879-0256a8334749","system_id":"levelo_inurba_marseille","lat":43.302,"lon":5.39474,"is_reserved":false,"is_disabled":false,"rental_uris":{"android":"levelo://app?vid=c4309e96-2b99-44ab-8879-0256a8334749","ios":"levelo://app?vid=c4309e96-2b99-44ab-8879-0256a8334749"},"vehicle_type_id":"4","last_reported":1743455361,"current_range_meters":14400,"station_id":"ce4bh0p2rcd13ifvqd70","pricing_plan_id":"cebpf4jnsgd1na2vs0mg"},{"bike_id":"ed14a198-8d50-4dc1-8082-24e54833312b","system_id":"levelo_inurba_marseille","lat":43.30925,"lon":5.40144,"is_reserved":false,"is_disabled":false,"rental_uris":{"android":"levelo://app?vid=ed14a198-8d50-4dc1-8082-24e54833312b","ios":"levelo://app?vid=ed14a198-8d50-4dc1-8082-24e54833312b"},"vehicle_type_id":"4","last_reported":1743455361,"current_range_meters":14800,"station_id":"ce4bgvp2rcd13ifvqct0","pricing_plan_id":"cebpf4jnsgd1na2vs0mg"},{"bike_id":"cfe2afb0-42d2-458e-9245-1302d3ee5c2f","system_id":"levelo_inurba_marseille","lat":43.31767,"lon":5.3901,"is_reserved":false,"is_disabled":false,"rental_uris":{"android":"levelo://app?vid=cfe2afb0-42d2-458e-9245-1302d3ee5c2f","ios":"levelo://app?vid=cfe2afb0-42d2-458e-9245-1302d3ee5c2f"},"vehicle_type_id":"4","last_reported":1743455361,"current_range_meters":14800,"station_id":"ce4bhqp2rcd13ifvqhng","pricing_plan_id":"cebpf4jnsgd1na2vs0mg"},{"bike_id":"7e0631f2-2b01-4ce3-b112-e57eb389d29a","system_id":"levelo_inurba_marseille","lat":43.301178,"lon":5.398792,"is_reserved":false,"is_disabled":false,"rental_uris":{"android":"levelo://app?vid=7e0631f2-2b01-4ce3-b112-e57eb389d29a","ios":"levelo://app?vid=7e0631f2-2b01-4ce3-b112-e57eb389d29a"},"vehicle_type_id":"4","last_reported":1743455361,"current_range_meters":14800,"station_id":"ce4bh0h2rcd13ifvqd40","pricing_plan_id":"cebpf4jnsgd1na2vs0mg"},{"bike_id":"14c6f955-5601-4536-bf1a-199a9389832d","system_id":"levelo_inurba_marseille","lat":43.28474,"lon":5.3586,"is_reserved":false,"is_disabled":false,"rental_uris":{"android":"levelo://app?vid=14c6f955-5601-4536-bf1a-199a9389832d","ios":"levelo://app?vid=14c6f955-5601-4536-bf1a-199a9389832d"},"vehicle_type_id":"4","last_reported":1743455361,"current_range_meters":14800,"station_id":"ce4bhah2rcd13ifvqei0","pricing_plan_id":"cebpf4jnsgd1na2vs0mg"},{"bike_id":"2656b273-b569-4857-bf2f-29ee5837744c","system_id":"levelo_inurba_marseille","lat":43.29631,"lon":5.40601,"is_reserved":false,"is_disabled":false,"rental_uris":{"android":"levelo://app?vid=2656b273-b569-4857-bf2f-29ee5837744c","ios":"levelo://app?vid=2656b273-b569-4857-bf2f-29ee5837744c"},"vehicle_type_id":"4","last_reported":1743455361,"current_range_meters":14800,"station_id":"ce4bh0h2rcd13ifvqd60","pricing_plan_id":"cebpf4jnsgd1na2vs0mg"},{"bike_id":"9d8b51bf-fd65-426c-9799-839498b24ee9","system_id":"levelo_inurba_marseille","lat":43.30667,"lon":5.36625,"is_reserved":false,"is_disabled":true,"rental_uris":{"android":"levelo://app?vid=9d8b51bf-fd65-426c-9799-839498b24ee9","ios":"levelo://app?vid=9d8b51bf-fd65-426c-9799-839498b24ee9"},"vehicle_type_id":"4","last_reported":1743455361,"current_range_meters":14800,"station_id":"","pricing_plan_id":"cebpf4jnsgd1na2vs0mg"},{"bike_id":"06357cc9-b5a2-4479-a20a-541038310ad8","system_id":"levelo_inurba_marseille","lat":43.26797,"lon":5.40257,"is_reserved":false,"is_disabled":true,"rental_uris":{"android":"levelo://app?vid=06357cc9-b5a2-4479-a20a-541038310ad8","ios":"levelo://app?vid=06357cc9-b5a2-4479-a20a-541038310ad8"},"vehicle_type_id":"4","last_reported":1743455361,"current_range_meters":14800,"station_id":"ce501612rcd8frsf0b60","pricing_plan_id":"cebpf4jnsgd1na2vs0mg"},{"bike_id":"0c866e3a-ffed-4d41-83cf-22d36351003e","system_id":"levelo_inurba_marseille","lat":43.24666,"lon":5.38158,"is_reserved":false,"is_disabled":false,"rental_uris":{"android":"levelo://app?vid=0c866e3a-ffed-4d41-83cf-22d36351003e","ios":"levelo://app?vid=0c866e3a-ffed-4d41-83cf-22d36351003e"},"vehicle_type_id":"4","last_reported":1743455361,"current_range_meters":14800,"station_id":"ce4bhih2rcd13ifvqfr0","pricing_plan_id":"cebpf4jnsgd1na2vs0mg"},{"bike_id":"958d94fd-9584-40d4-a32e-066bf879bb32","system_id":"levelo_inurba_marseille","lat":43.31375,"lon":5.36702,"is_reserved":false,"is_disabled":false,"rental_uris":{"android":"levelo://app?vid=958d94fd-9584-40d4-a32e-066bf879bb32","ios":"levelo://app?vid=958d94fd-9584-40d4-a32e-066bf879bb32"},"vehicle_type_id":"4","last_reported":1743455361,"current_range_meters":14800,"station_id":"ce4bgr92rcd13ifvqc6g","pricing_plan_id":"cebpf4jnsgd1na2vs0mg"},{"bike_id":"08b0071e-1463-4449-89b6-94f7cf804781","system_id":"levelo_inurba_marseille","lat":43.31282,"lon":5.36813,"is_reserved":false,"is_disabled":true,"rental_uris":{"android":"levelo://app?vid=08b0071e-1463-4449-89b6-94f7cf804781","ios":"levelo://app?vid=08b0071e-1463-4449-89b6-94f7cf804781"},"vehicle_type_id":"4","last_reported":1743455361,"current_range_meters":14800,"station_id":"ce4bgl92rcd13ifvqbq0","pricing_plan_id":"cebpf4jnsgd1na2vs0mg"},{"bike_id":"e47bc61d-df2d-41b3-b26b-dd94e6e5e301","system_id":"levelo_inurba_marseille","lat":43.26236,"lon":5.42138,"is_reserved":false,"is_disabled":false,"rental_uris":{"android":"levelo://app?vid=e47bc61d-df2d-41b3-b26b-dd94e6e5e301","ios":"levelo://app?vid=e47bc61d-df2d-41b3-b26b-dd94e6e5e301"},"vehicle_type_id":"4","last_reported":1743455361,"current_range_meters":14800,"station_id":"","pricing_plan_id":"cebpf4jnsgd1na2vs0mg"},{"bike_id":"27773214-4312-4127-aa54-e74cba3d6d07","system_id":"levelo_inurba_marseille","lat":43.27762,"lon":5.40766,"is_reserved":false,"is_disabled":false,"rental_uris":{"android":"levelo://app?vid=27773214-4312-4127-aa54-e74cba3d6d07","ios":"levelo://app?vid=27773214-4312-4127-aa54-e74cba3d6d07"},"vehicle_type_id":"4","last_reported":1743455361,"current_range_meters":14800,"station_id":"","pricing_plan_id":"cebpf4jnsgd1na2vs0mg"},{"bike_id":"cb469ec6-26d1-4684-93ff-27b7205bd7b8","system_id":"levelo_inurba_marseille","lat":43.29529,"lon":5.38548,"is_reserved":false,"is_disabled":false,"rental_uris":{"android":"levelo://app?vid=cb469ec6-26d1-4684-93ff-27b7205bd7b8","ios":"levelo://app?vid=cb469ec6-26d1-4684-93ff-27b7205bd7b8"},"vehicle_type_id":"4","last_reported":1743455361,"current_range_meters":14800,"station_id":"ce4bgih2rcd13ifvqba0","pricing_plan_id":"cebpf4jnsgd1na2vs0mg"},{"bike_id":"3a9f29e6-9eb5-489b-86a6-9bbf3c3d72c6","system_id":"levelo_inurba_marseille","lat":43.29415,"lon":5.38617,"is_reserved":false,"is_disabled":false,"rental_uris":{"android":"levelo://app?vid=3a9f29e6-9eb5-489b-86a6-9bbf3c3d72c6","ios":"levelo://app?vid=3a9f29e6-9eb5-489b-86a6-9bbf3c3d72c6"},"vehicle_type_id":"4","last_reported":1743455361,"current_range_meters":15200,"station_id":"ce4bh2h2rcd13ifvqdh0","pricing_plan_id":"cebpf4jnsgd1na2vs0mg"},{"bike_id":"3d86ad96-3521-40eb-981c-8a33e7f58498","system_id":"levelo_inurba_marseille","lat":43.29985,"lon":5.37367,"is_reserved":false,"is_disabled":false,"rental_uris":{"android":"levelo://app?vid=3d86ad96-3521-40eb-981c-8a33e7f58498","ios":"levelo://app?vid=3d86ad96-3521-40eb-981c-8a33e7f58498"},"vehicle_type_id":"4","last_reported":1743455361,"current_range_meters":15200,"station_id":"","pricing_plan_id":"cebpf4jnsgd1na2vs0mg"},{"bike_id":"1b63ccb2-1298-4d96-b7f3-6ad6cace00e9","system_id":"levelo_inurba_marseille","lat":43.26058,"lon":5.40128,"is_reserved":false,"is_disabled":false,"rental_uris":{"android":"levelo://app?vid=1b63ccb2-1298-4d96-b7f3-6ad6cace00e9","ios":"levelo://app?vid=1b63ccb2-1298-4d96-b7f3-6ad6cace00e9"},"vehicle_type_id":"4","last_reported":1743455361,"current_range_meters":15200,"station_id":"","pricing_plan_id":"cebpf4jnsgd1na2vs0mg"},{"bike_id":"4d3d0918-0031-4e97-ac2c-a29a19a75da5","system_id":"levelo_inurba_marseille","lat":43.30883,"lon":5.37195,"is_reserved":false,"is_disabled":false,"rental_uris":{"android":"levelo://app?vid=4d3d0918-0031-4e97-ac2c-a29a19a75da5","ios":"levelo://app?vid=4d3d0918-0031-4e97-ac2c-a29a19a75da5"},"vehicle_type_id":"4","last_reported":1743455361,"current_range_meters":14800,"station_id":"ce4bguh2rcd13ifvqckg","pricing_plan_id":"cebpf4jnsgd1na2vs0mg"},{"bike_id":"ab789467-5397-4859-aede-1a452b069c78","system_id":"levelo_inurba_marseille","lat":43.23174,"lon":5.39992,"is_reserved":false,"is_disabled":false,"rental_uris":{"android":"levelo://app?vid=ab789467-5397-4859-aede-1a452b069c78","ios":"levelo://app?vid=ab789467-5397-4859-aede-1a452b069c78"},"vehicle_type_id":"4","last_reported":1743455361,"current_range_meters":15200,"station_id":"ce4bhn12rcd13ifvqgqg","pricing_plan_id":"cebpf4jnsgd1na2vs0mg"},{"bike_id":"3aca6e3a-05ff-4ee1-a18c-210479e8ce1c","system_id":"levelo_inurba_marseille","lat":43.28444,"lon":5.35901,"is_reserved":false,"is_disabled":false,"rental_uris":{"android":"levelo://app?vid=3aca6e3a-05ff-4ee1-a18c-210479e8ce1c","ios":"levelo://app?vid=3aca6e3a-05ff-4ee1-a18c-210479e8ce1c"},"vehicle_type_id":"4","last_reported":1743455361,"current_range_meters":15200,"station_id":"ce4bhah2rcd13ifvqei0","pricing_plan_id":"cebpf4jnsgd1na2vs0mg"},{"bike_id":"9b051508-c150-4b9f-9b69-117447ab9e69","system_id":"levelo_inurba_marseille","lat":43.33703,"lon":5.39178,"is_reserved":false,"is_disabled":false,"rental_uris":{"android":"levelo://app?vid=9b051508-c150-4b9f-9b69-117447ab9e69","ios":"levelo://app?vid=9b051508-c150-4b9f-9b69-117447ab9e69"},"vehicle_type_id":"4","last_reported":1743455361,"current_range_meters":15200,"station_id":"ce4bhr92rcd13ifvqhsg","pricing_plan_id":"cebpf4jnsgd1na2vs0mg"},{"bike_id":"4a3a7ef3-4464-4174-8b84-4ae1e70b997c","system_id":"levelo_inurba_marseille","lat":43.29285,"lon":5.40106,"is_reserved":false,"is_disabled":false,"rental_uris":{"android":"levelo://app?vid=4a3a7ef3-4464-4174-8b84-4ae1e70b997c","ios":"levelo://app?vid=4a3a7ef3-4464-4174-8b84-4ae1e70b997c"},"vehicle_type_id":"4","last_reported":1743455361,"current_range_meters":16000,"station_id":"ce4bh312rcd13ifvqdk0","pricing_plan_id":"cebpf4jnsgd1na2vs0mg"},{"bike_id":"3df6eeaa-d5c4-45c9-ab50-3ad98a619e68","system_id":"levelo_inurba_marseille","lat":43.3032,"lon":5.40435,"is_reserved":false,"is_disabled":false,"rental_uris":{"android":"levelo://app?vid=3df6eeaa-d5c4-45c9-ab50-3ad98a619e68","ios":"levelo://app?vid=3df6eeaa-d5c4-45c9-ab50-3ad98a619e68"},"vehicle_type_id":"4","last_reported":1743455361,"current_range_meters":16000,"station_id":"ce4bh012rcd13ifvqd10","pricing_plan_id":"cebpf4jnsgd1na2vs0mg"},{"bike_id":"ad7efaef-13ba-42ba-8cd5-6a46b66166b6","system_id":"levelo_inurba_marseille","lat":43.29782,"lon":5.39355,"is_reserved":false,"is_disabled":false,"rental_uris":{"android":"levelo://app?vid=ad7efaef-13ba-42ba-8cd5-6a46b66166b6","ios":"levelo://app?vid=ad7efaef-13ba-42ba-8cd5-6a46b66166b6"},"vehicle_type_id":"4","last_reported":1743455361,"current_range_meters":16000,"station_id":"chh1huq6cuj3fo74tm60","pricing_plan_id":"cebpf4jnsgd1na2vs0mg"},{"bike_id":"243a7f39-cdb9-4572-b41f-6c914b169e37","system_id":"levelo_inurba_marseille","lat":43.28409,"lon":5.37509,"is_reserved":false,"is_disabled":false,"rental_uris":{"android":"levelo://app?vid=243a7f39-cdb9-4572-b41f-6c914b169e37","ios":"levelo://app?vid=243a7f39-cdb9-4572-b41f-6c914b169e37"},"vehicle_type_id":"4","last_reported":1743455361,"current_range_meters":16000,"station_id":"ce4bh412rcd13ifvqds0","pricing_plan_id":"cebpf4jnsgd1na2vs0mg"},{"bike_id":"4220d26d-272d-4b23-9cec-a79c1d919b49","system_id":"levelo_inurba_marseille","lat":43.30591,"lon":5.37115,"is_reserved":false,"is_disabled":false,"rental_uris":{"android":"levelo://app?vid=4220d26d-272d-4b23-9cec-a79c1d919b49","ios":"levelo://app?vid=4220d26d-272d-4b23-9cec-a79c1d919b49"},"vehicle_type_id":"4","last_reported":1743455361,"current_range_meters":16000,"station_id":"","pricing_plan_id":"cebpf4jnsgd1na2vs0mg"},{"bike_id":"16dd592e-7732-47c3-a664-305413913b8b","system_id":"levelo_inurba_marseille","lat":43.28466,"lon":5.35888,"is_reserved":false,"is_disabled":true,"rental_uris":{"android":"levelo://app?vid=16dd592e-7732-47c3-a664-305413913b8b","ios":"levelo://app?vid=16dd592e-7732-47c3-a664-305413913b8b"},"vehicle_type_id":"4","last_reported":1743455361,"current_range_meters":16000,"station_id":"ce4bhah2rcd13ifvqei0","pricing_plan_id":"cebpf4jnsgd1na2vs0mg"},{"bike_id":"57e6fa07-fefa-483c-a064-ec27c42d9afd","system_id":"levelo_inurba_marseille","lat":43.28868,"lon":5.39341,"is_reserved":false,"is_disabled":true,"rental_uris":{"android":"levelo://app?vid=57e6fa07-fefa-483c-a064-ec27c42d9afd","ios":"levelo://app?vid=57e6fa07-fefa-483c-a064-ec27c42d9afd"},"vehicle_type_id":"4","last_reported":1743455361,"current_range_meters":16000,"station_id":"ce4bh2p2rcd13ifvqdi0","pricing_plan_id":"cebpf4jnsgd1na2vs0mg"},{"bike_id":"a32f7781-a1b5-44a3-aa6b-479ac097cd80","system_id":"levelo_inurba_marseille","lat":43.26681,"lon":5.38279,"is_reserved":false,"is_disabled":true,"rental_uris":{"android":"levelo://app?vid=a32f7781-a1b5-44a3-aa6b-479ac097cd80","ios":"levelo://app?vid=a32f7781-a1b5-44a3-aa6b-479ac097cd80"},"vehicle_type_id":"4","last_reported":1743455361,"current_range_meters":16000,"station_id":"ce4bhg92rcd13ifvqf90","pricing_plan_id":"cebpf4jnsgd1na2vs0mg"},{"bike_id":"de194f33-8e71-473c-835b-7af21b97267c","system_id":"levelo_inurba_marseille","lat":43.24635,"lon":5.38922,"is_reserved":false,"is_disabled":false,"rental_uris":{"android":"levelo://app?vid=de194f33-8e71-473c-835b-7af21b97267c","ios":"levelo://app?vid=de194f33-8e71-473c-835b-7af21b97267c"},"vehicle_type_id":"4","last_reported":1743455361,"current_range_meters":16000,"station_id":"ce4bhg12rcd13ifvqf60","pricing_plan_id":"cebpf4jnsgd1na2vs0mg"},{"bike_id":"7d24f7f3-5a91-46ae-971d-a7a715309919","system_id":"levelo_inurba_marseille","lat":43.23191,"lon":5.39985,"is_reserved":false,"is_disabled":false,"rental_uris":{"android":"levelo://app?vid=7d24f7f3-5a91-46ae-971d-a7a715309919","ios":"levelo://app?vid=7d24f7f3-5a91-46ae-971d-a7a715309919"},