{"last_updated":1727799046,"ttl":60,"version":"2.2","data":{"bikes":[{"bike_id":"987b99f0-af49-412a-ab01-e2c6d746dd9d","system_id":"levelo_inurba_marseille","lat":43.28706,"lon":5.39997,"is_reserved":false,"is_disabled":false,"rental_uris":{"android":"levelo://app?vid=987b99f0-af49-412a-ab01-e2c6d746dd9d","ios":"levelo://app?vid=987b99f0-af49-412a-ab01-e2c6d746dd9d"},"vehicle_type_id":"4","last_reported":1727799047,"current_range_meters":13600,"station_id":"ce4bho92rcd13ifvqh3g","pricing_plan_id":"cebpf4jnsgd1na2vs0mg"},{"bike_id":"217a0d9e-af06-4afa-90d2-ae088fdc4081","system_id":"levelo_inurba_marseille","lat":43.33026,"lon":5.39045,"is_reserved":false,"is_disabled":false,"rental_uris":{"android":"levelo://app?vid=217a0d9e-af06-4afa-90d2-ae088fdc4081","ios":"levelo://app?vid=217a0d9e-af06-4afa-90d2-ae088fdc4081"},"vehicle_type_id":"4","last_reported":1727799047,"current_range_meters":8800,"station_id":"ce4bhr92rcd13ifvqhrg","pricing_plan_id":"cebpf4jnsgd1na2vs0mg"},{"bike_id":"29e7621a-9400-40b6-ae1b-a2b0109ffc94","system_id":"levelo_inurba_marseille","lat":43.33426,"lon":5.39107,"is_reserved":false,"is_disabled":false,"rental_uris":{"android":"levelo://app?vid=29e7621a-9400-40b6-ae1b-a2b0109ffc94","ios":"levelo://app?vid=29e7621a-9400-40b6-ae1b-a2b0109ffc94"},"vehicle_type_id":"4","last_reported":1727799047,"current_range_meters":38800,"station_id":"","pricing_plan_id":"cebpf4jnsgd1na2vs0mg"},{"bike_id":"2b921514-1848-4c9e-bfe5-b2ae8d515268","system_id":"levelo_inurba_marseille","lat":43.26779,"lon":5.39432,"is_reserved":false,"is_disabled":false,"rental_uris":{"android":"levelo://app?vid=2b921514-1848-4c9e-bfe5-b2ae8d515268","ios":"levelo://app?vid=2b921514-1848-4c9e-bfe5-b2ae8d515268"},"vehicle_type_id":"4","last_reported":1727799047,"current_range_meters":32400,"station_id":"ce4bhh12rcd13ifvqfg0","pricing_plan_id":"cebpf4jnsgd1na2vs0mg"},{"bike_id":"100a6eb3-d864-4715-8031-7729c74975fb","system_id":"levelo_inurba_marseille","lat":43.28001,"lon":5.40025,"is_reserved":false,"is_disabled":false,"rental_uris":{"android":"levelo://app?vid=100a6eb3-d864-4715-8031-7729c74975fb","ios":"levelo://app?vid=100a6eb3-d864-4715-8031-7729c74975fb"},"vehicle_type_id":"4","last_reported":1727799047,"current_range_meters":38800,"station_id":"ce4bho92rcd13ifvqh4g","pricing_plan_id":"cebpf4jnsgd1na2vs0mg"},{"bike_id":"242931e4-5027-41cd-8f5e-f5e2edb07146","system_id":"levelo_inurba_marseille","lat":43.25646,"lon":5.38236,"is_reserved":false,"is_disabled":false,"rental_uris":{"android":"levelo://app?vid=242931e4-5027-41cd-8f5e-f5e2edb07146","ios":"levelo://app?vid=242931e4-5027-41cd-8f5e-f5e2edb07146"},"vehicle_type_id":"4","last_reported":1727799047,"current_range_meters":38000,"station_id":"","pricing_plan_id":"cebpf4jnsgd1na2vs0mg"},{"bike_id":"31a03783-deb2-4e77-8d8e-b53f2f410eb5","system_id":"levelo_inurba_marseille","lat":43.30806,"lon":5.43519,"is_reserved":false,"is_disabled":false,"rental_uris":{"android":"levelo://app?vid=31a03783-deb2-4e77-8d8e-b53f2f410eb5","ios":"levelo://app?vid=31a03783-deb2-4e77-8d8e-b53f2f410eb5"},"vehicle_type_id":"4","last_reported":1727799047,"current_range_meters":3200,"station_id":"ce4bhph2rcd13ifvqheg","pricing_plan_id":"cebpf4jnsgd1na2vs0mg"},{"bike_id":"112923c4-98be-44ca-8576-8c8773286bd7","system_id":"levelo_inurba_marseille","lat":43.28713,"lon":5.39989,"is_reserved":false,"is_disabled":false,"rental_uris":{"android":"levelo://app?vid=112923c4-98be-44ca-8576-8c8773286bd7","ios":"levelo://app?vid=112923c4-98be-44ca-8576-8c8773286bd7"},"vehicle_type_id":"4","last_reported":1727799047,"current_range_meters":28400,"station_id":"ce4bho92rcd13ifvqh3g","pricing_plan_id":"cebpf4jnsgd1na2vs0mg"},{"bike_id":"9d5cb72e-46ea-4db9-9640-1ef8ef6de092","system_id":"levelo_inurba_marseille","lat":43.23968,"lon":5.36628,"is_reserved":false,"is_disabled":false,"rental_uris":{"android":"levelo://app?vid=9d5cb72e-46ea-4db9-9640-1ef8ef6de092","ios":"levelo://app?vid=9d5cb72e-46ea-4db9-9640-1ef8ef6de092"},"vehicle_type_id":"4","last_reported":1727799047,"current_range_meters":30800,"station_id":"ce4bhi12rcd13ifvqfp0","pricing_plan_id":"cebpf4jnsgd1na2vs0mg"},{"bike_id":"0d315b74-fec9-42f6-920f-1125653582c1","system_id":"levelo_inurba_marseille","lat":43.30806,"lon":5.43527,"is_reserved":false,"is_disabled":false,"rental_uris":{"android":"levelo://app?vid=0d315b74-fec9-42f6-920f-1125653582c1","ios":"levelo://app?vid=0d315b74-fec9-42f6-920f-1125653582c1"},"vehicle_type_id":"4","last_reported":1727799047,"current_range_meters":22800,"station_id":"ce4bhph2rcd13ifvqheg","pricing_plan_id":"cebpf4jnsgd1na2vs0mg"},{"bike_id":"7ec78506-de49-4d49-993a-1a98fffdb46e","system_id":"levelo_inurba_marseille","lat":43.28878,"lon":5.35865,"is_reserved":false,"is_disabled":false,"rental_uris":{"android":"levelo://app?vid=7ec78506-de49-4d49-993a-1a98fffdb46e","ios":"levelo://app?vid=7ec78506-de49-4d49-993a-1a98fffdb46e"},"vehicle_type_id":"4","last_reported":1727799047,"current_range_meters":30400,"station_id":"ce4bhb12rcd13ifvqem0","pricing_plan_id":"cebpf4jnsgd1na2vs0mg"},{"bike_id":"a58af8c6-2a81-4b77-9dd1-80822e174168","system_id":"levelo_inurba_marseille","lat":43.27816,"lon":5.40715,"is_reserved":false,"is_disabled":false,"rental_uris":{"android":"levelo://app?vid=a58af8c6-2a81-4b77-9dd1-80822e174168","ios":"levelo://app?vid=a58af8c6-2a81-4b77-9dd1-80822e174168"},"vehicle_type_id":"4","last_reported":1727799047,"current_range_meters":38800,"station_id":"ce4bhnh2rcd13ifvqgtg","pricing_plan_id":"cebpf4jnsgd1na2vs0mg"},{"bike_id":"55a597ca-5718-4236-af0e-0572c55098d0","system_id":"levelo_inurba_marseille","lat":43.26213,"lon":5.37443,"is_reserved":false,"is_disabled":false,"rental_uris":{"android":"levelo://app?vid=55a597ca-5718-4236-af0e-0572c55098d0","ios":"levelo://app?vid=55a597ca-5718-4236-af0e-0572c55098d0"},"vehicle_type_id":"4","last_reported":1727799047,"current_range_meters":14800,"station_id":"ce4bhgp2rcd13ifvqfc0","pricing_plan_id":"cebpf4jnsgd1na2vs0mg"},{"bike_id":"986c5782-09a7-44c8-b3bf-c0eebd94ab47","system_id":"levelo_inurba_marseille","lat":43.27618,"lon":5.36109,"is_reserved":false,"is_disabled":false,"rental_uris":{"android":"levelo://app?vid=986c5782-09a7-44c8-b3bf-c0eebd94ab47","ios":"levelo://app?vid=986c5782-09a7-44c8-b3bf-c0eebd94ab47"},"vehicle_type_id":"4","last_reported":1727799047,"current_range_meters":36400,"station_id":"ce4bgj92rcd13ifvqbe0","pricing_plan_id":"cebpf4jnsgd1na2vs0mg"},{"bike_id":"bb9d90d2-afc9-4685-a8f3-1241073fcdb1","system_id":"levelo_inurba_marseille","lat":43.26949,"lon":5.40242,"is_reserved":false,"is_disabled":false,"rental_uris":{"android":"levelo://app?vid=bb9d90d2-afc9-4685-a8f3-1241073fcdb1","ios":"levelo://app?vid=bb9d90d2-afc9-4685-a8f3-1241073fcdb1"},"vehicle_type_id":"4","last_reported":1727799047,"current_range_meters":9600,"station_id":"cjm6bp8fraef2m0cb0m0","pricing_plan_id":"cebpf4jnsgd1na2vs0mg"},{"bike_id":"2b5dda9a-1815-4ea7-81a3-95125e3b1d56","system_id":"levelo_inurba_marseille","lat":43.29709,"lon":5.37694,"is_reserved":false,"is_disabled":false,"rental_uris":{"android":"levelo://app?vid=2b5dda9a-1815-4ea7-81a3-95125e3b1d56","ios":"levelo://app?vid=2b5dda9a-1815-4ea7-81a3-95125e3b1d56"},"vehicle_type_id":"4","last_reported":1727799047,"current_range_meters":6000,"station_id":"ce4bgkh2rcd13ifvqbl0","pricing_plan_id":"cebpf4jnsgd1na2vs0mg"},{"bike_id":"ef448653-cbb7-4be4-bdeb-4c74008a7219","system_id":"levelo_inurba_marseille","lat":43.29534,"lon":5.38554,"is_reserved":false,"is_disabled":false,"rental_uris":{"android":"levelo://app?vid=ef448653-cbb7-4be4-bdeb-4c74008a7219","ios":"levelo://app?vid=ef448653-cbb7-4be4-bdeb-4c74008a7219"},"vehicle_type_id":"4","last_reported":1727799047,"current_range_meters":11200,"station_id":"ce4bgih2rcd13ifvqba0","pricing_plan_id":"cebpf4jnsgd1na2vs0mg"},{"bike_id":"c79cbbae-9b66-48f5-a5b1-1d94f6f48e33","system_id":"levelo_inurba_marseille","lat":43.31116,"lon":5.37767,"is_reserved":false,"is_disabled":false,"rental_uris":{"android":"levelo://app?vid=c79cbbae-9b66-48f5-a5b1-1d94f6f48e33","ios":"levelo://app?vid=c79cbbae-9b66-48f5-a5b1-1d94f6f48e33"},"vehicle_type_id":"4","last_reported":1727799047,"current_range_meters":34000,"station_id":"ce4bgt92rcd13ifvqcg0","pricing_plan_id":"cebpf4jnsgd1na2vs0mg"},{"bike_id":"ca194852-2a1e-431c-80ba-e68463d29314","system_id":"levelo_inurba_marseille","lat":43.246552,"lon":5.388956,"is_reserved":false,"is_disabled":false,"rental_uris":{"android":"levelo://app?vid=ca194852-2a1e-431c-80ba-e68463d29314","ios":"levelo://app?vid=ca194852-2a1e-431c-80ba-e68463d29314"},"vehicle_type_id":"4","last_reported":1727799047,"current_range_meters":6400,"station_id":"ce4bh392rcd13ifvqdl0","pricing_plan_id":"cebpf4jnsgd1na2vs0mg"},{"bike_id":"a0612240-fe07-4583-97fa-5ddf2377f31b","system_id":"levelo_inurba_marseille","lat":43.28614,"lon":5.35104,"is_reserved":false,"is_disabled":false,"rental_uris":{"android":"levelo://app?vid=a0612240-fe07-4583-97fa-5ddf2377f31b","ios":"levelo://app?vid=a0612240-fe07-4583-97fa-5ddf2377f31b"},"vehicle_type_id":"4","last_reported":1727799047,"current_range_meters":3200,"station_id":"ce4bhch2rcd13ifvqeug","pricing_plan_id":"cebpf4jnsgd1na2vs0mg"},{"bike_id":"18d4437e-6e60-414e-b0a7-71ca95000d0d","system_id":"levelo_inurba_marseille","lat":43.2971,"lon":5.36619,"is_reserved":false,"is_disabled":false,"rental_uris":{"android":"levelo://app?vid=18d4437e-6e60-414e-b0a7-71ca95000d0d","ios":"levelo://app?vid=18d4437e-6e60-414e-b0a7-71ca95000d0d"},"vehicle_type_id":"4","last_reported":1727799047,"current_range_meters":37600,"station_id":"ce4bgn12rcd13ifvqbt0","pricing_plan_id":"cebpf4jnsgd1na2vs0mg"},{"bike_id":"3c1671e1-a04f-4dba-a46e-1765a7722a76","system_id":"levelo_inurba_marseille","lat":43.28078,"lon":5.39661,"is_reserved":false,"is_disabled":false,"rental_uris":{"android":"levelo://app?vid=3c1671e1-a04f-4dba-a46e-1765a7722a76","ios":"levelo://app?vid=3c1671e1-a04f-4dba-a46e-1765a7722a76"},"vehicle_type_id":"4","last_reported":1727799047,"current_range_meters":7200,"station_id":"ce4bho12rcd13ifvqh2g","pricing_plan_id":"cebpf4jnsgd1na2vs0mg"},{"bike_id":"d616de3c-fdcc-449b-aaab-950f4c46fdd3","system_id":"levelo_inurba_marseille","lat":43.32116,"lon":5.36779,"is_reserved":false,"is_disabled":false,"rental_uris":{"android":"levelo://app?vid=d616de3c-fdcc-449b-aaab-950f4c46fdd3","ios":"levelo://app?vid=d616de3c-fdcc-449b-aaab-950f4c46fdd3"},"vehicle_type_id":"4","last_reported":1727799047,"current_range_meters":12000,"station_id":"ce4bhrh2rcd13ifvqhug","pricing_plan_id":"cebpf4jnsgd1na2vs0mg"},{"bike_id":"057d5d4c-ace3-4f1f-94d6-24fa7f52b2b6","system_id":"levelo_inurba_marseille","lat":43.28476,"lon":5.38412,"is_reserved":false,"is_disabled":false,"rental_uris":{"android":"levelo://app?vid=057d5d4c-ace3-4f1f-94d6-24fa7f52b2b6","ios":"levelo://app?vid=057d5d4c-ace3-4f1f-94d6-24fa7f52b2b6"},"vehicle_type_id":"4","last_reported":1727799047,"current_range_meters":30400,"station_id":"ce4bh512rcd13ifvqe3g","pricing_plan_id":"cebpf4jnsgd1na2vs0mg"},{"bike_id":"339388e8-ee6b-4b29-9911-0612c4420461","system_id":"levelo_inurba_marseille","lat":43.337444,"lon":5.374475,"is_reserved":false,"is_disabled":false,"rental_uris":{"android":"levelo://app?vid=339388e8-ee6b-4b29-9911-0612c4420461","ios":"levelo://app?vid=339388e8-ee6b-4b29-9911-0612c4420461"},"vehicle_type_id":"4","last_reported":1727799047,"current_range_meters":36000,"station_id":"","pricing_plan_id":"cebpf4jnsgd1na2vs0mg"},{"bike_id":"70a9ddc4-731d-42c8-acce-7f111e767e55","system_id":"levelo_inurba_marseille","lat":43.25503,"lon":5.37654,"is_reserved":false,"is_disabled":false,"rental_uris":{"android":"levelo://app?vid=70a9ddc4-731d-42c8-acce-7f111e767e55","ios":"levelo://app?vid=70a9ddc4-731d-42c8-acce-7f111e767e55"},"vehicle_type_id":"4","last_reported":1727799047,"current_range_meters":28400,"station_id":"ce4bhh12rcd13ifvqff0","pricing_plan_id":"cebpf4jnsgd1na2vs0mg"},{"bike_id":"d93203db-766b-4de9-ad9b-52efbfed7b1f","system_id":"levelo_inurba_marseille","lat":43.29789,"lon":5.39354,"is_reserved":false,"is_disabled":false,"rental_uris":{"android":"levelo://app?vid=d93203db-766b-4de9-ad9b-52efbfed7b1f","ios":"levelo://app?vid=d93203db-766b-4de9-ad9b-52efbfed7b1f"},"vehicle_type_id":"4","last_reported":1727799047,"current_range_meters":3600,"station_id":"chh1huq6cuj3fo74tm60","pricing_plan_id":"cebpf4jnsgd1na2vs0mg"},{"bike_id":"1f850d99-33e8-4c72-a82e-faaaad0beb7a","system_id":"levelo_inurba_marseille","lat":43.24073,"lon":5.37762,"is_reserved":false,"is_disabled":false,"rental_uris":{"android":"levelo://app?vid=1f850d99-33e8-4c72-a82e-faaaad0beb7a","ios":"levelo://app?vid=1f850d99-33e8-4c72-a82e-faaaad0beb7a"},"vehicle_type_id":"4","last_reported":1727799047,"current_range_meters":6400,"station_id":"","pricing_plan_id":"cebpf4jnsgd1na2vs0mg"},{"bike_id":"768cd6ab-db95-449e-966f-a78f673908aa","system_id":"levelo_inurba_marseille","lat":43.289063,"lon":5.399991,"is_reserved":false,"is_disabled":false,"rental_uris":{"android":"levelo://app?vid=768cd6ab-db95-449e-966f-a78f673908aa","ios":"levelo://app?vid=768cd6ab-db95-449e-966f-a78f673908aa"},"vehicle_type_id":"4","last_reported":1727799047,"current_range_meters":20400,"station_id":"ce4bho92rcd13ifvqh3g","pricing_plan_id":"cebpf4jnsgd1na2vs0mg"},{"bike_id":"c87cbcf6-5323-4613-b4d0-9266fc83505c","system_id":"levelo_inurba_marseille","lat":43.27815,"lon":5.40715,"is_reserved":false,"is_disabled":false,"rental_uris":{"android":"levelo://app?vid=c87cbcf6-5323-4613-b4d0-9266fc83505c","ios":"levelo://app?vid=c87cbcf6-5323-4613-b4d0-9266fc83505c"},"vehicle_type_id":"4","last_reported":1727799047,"current_range_meters":18000,"station_id":"ce4bhnh2rcd13ifvqgtg","pricing_plan_id":"cebpf4jnsgd1na2vs0mg"},{"bike_id":"2b83868c-0499-49c1-8917-fc7cd9f02156","system_id":"levelo_inurba_marseille","lat":43.31756,"lon":5.39014,"is_reserved":false,"is_disabled":false,"rental_uris":{"android":"levelo://app?vid=2b83868c-0499-49c1-8917-fc7cd9f02156","ios":"levelo://app?vid=2b83868c-0499-49c1-8917-fc7cd9f02156"},"vehicle_type_id":"4","last_reported":1727799047,"current_range_meters":12800,"station_id":"ce4bhqp2rcd13ifvqhng","pricing_plan_id":"cebpf4jnsgd1na2vs0mg"},{"bike_id":"5d34d44a-5657-4046-9997-746fa7323ea5","system_id":"levelo_inurba_marseille","lat":43.32562,"lon":5.41421,"is_reserved":false,"is_disabled":false,"rental_uris":{"android":"levelo://app?vid=5d34d44a-5657-4046-9997-746fa7323ea5","ios":"levelo://app?vid=5d34d44a-5657-4046-9997-746fa7323ea5"},"vehicle_type_id":"4","last_reported":1727799047,"current_range_meters":36800,"station_id":"ce4bhq12rcd13ifvqhhg","pricing_plan_id":"cebpf4jnsgd1na2vs0mg"},{"bike_id":"4f25ac2d-0308-439f-aeed-3522acdf667e","system_id":"levelo_inurba_marseille","lat":43.29906,"lon":5.43672,"is_reserved":false,"is_disabled":false,"rental_uris":{"android":"levelo://app?vid=4f25ac2d-0308-439f-aeed-3522acdf667e","ios":"levelo://app?vid=4f25ac2d-0308-439f-aeed-3522acdf667e"},"vehicle_type_id":"4","last_reported":1727799047,"current_range_meters":18800,"station_id":"ce4bhpp2rcd13ifvqhfg","pricing_plan_id":"cebpf4jnsgd1na2vs0mg"},{"bike_id":"2efe889c-d7f9-441d-afae-d38011cb4d35","system_id":"levelo_inurba_marseille","lat":43.28465,"lon":5.35888,"is_reserved":false,"is_disabled":false,"rental_uris":{"android":"levelo://app?vid=2efe889c-d7f9-441d-afae-d38011cb4d35","ios":"levelo://app?vid=2efe889c-d7f9-441d-afae-d38011cb4d35"},"vehicle_type_id":"4","last_reported":1727799047,"current_range_meters":38000,"station_id":"ce4bhah2rcd13ifvqei0","pricing_plan_id":"cebpf4jnsgd1na2vs0mg"},{"bike_id":"d842b1e5-72d5-4ee1-a350-691af55b5094","system_id":"levelo_inurba_marseille","lat":43.24181,"lon":5.39732,"is_reserved":false,"is_disabled":false,"rental_uris":{"android":"levelo://app?vid=d842b1e5-72d5-4ee1-a350-691af55b5094","ios":"levelo://app?vid=d842b1e5-72d5-4ee1-a350-691af55b5094"},"vehicle_type_id":"4","last_reported":1727799047,"current_range_meters":8400,"station_id":"ce4bhn12rcd13ifvqgpg","pricing_plan_id":"cebpf4jnsgd1na2vs0mg"},{"bike_id":"5480597b-4a20-45ab-8d7b-e759f04bc45a","system_id":"levelo_inurba_marseille","lat":43.25581,"lon":5.3824,"is_reserved":false,"is_disabled":false,"rental_uris":{"android":"levelo://app?vid=5480597b-4a20-45ab-8d7b-e759f04bc45a","ios":"levelo://app?vid=5480597b-4a20-45ab-8d7b-e759f04bc45a"},"vehicle_type_id":"4","last_reported":1727799047,"current_range_meters":3200,"station_id":"ce4bhih2rcd13ifvqfs0","pricing_plan_id":"cebpf4jnsgd1na2vs0mg"},{"bike_id":"eeb711cd-24d9-4c42-af91-b136d3203c29","system_id":"levelo_inurba_marseille","lat":43.28178,"lon":5.37453,"is_reserved":false,"is_disabled":false,"rental_uris":{"android":"levelo://app?vid=eeb711cd-24d9-4c42-af91-b136d3203c29","ios":"levelo://app?vid=eeb711cd-24d9-4c42-af91-b136d3203c29"},"vehicle_type_id":"4","last_reported":1727799047,"current_range_meters":25200,"station_id":"ce4bhh92rcd13ifvqfi0","pricing_plan_id":"cebpf4jnsgd1na2vs0mg"},{"bike_id":"378a4c11-741a-4492-b948-0e2f3589cdf3","system_id":"levelo_inurba_marseille","lat":43.28715,"lon":5.39987,"is_reserved":false,"is_disabled":false,"rental_uris":{"android":"levelo://app?vid=378a4c11-741a-4492-b948-0e2f3589cdf3","ios":"levelo://app?vid=378a4c11-741a-4492-b948-0e2f3589cdf3"},"vehicle_type_id":"4","last_reported":1727799047,"current_range_meters":3200,"station_id":"ce4bho92rcd13ifvqh3g","pricing_plan_id":"cebpf4jnsgd1na2vs0mg"},{"bike_id":"6c1e8f8f-a641-4513-b26b-853fc41031e2","system_id":"levelo_inurba_marseille","lat":43.25112,"lon":5.40322,"is_reserved":false,"is_disabled":false,"rental_uris":{"android":"levelo://app?vid=6c1e8f8f-a641-4513-b26b-853fc41031e2","ios":"levelo://app?vid=6c1e8f8f-a641-4513-b26b-853fc41031e2"},"vehicle_type_id":"4","last_reported":1727799047,"current_range_meters":11600,"station_id":"ce4bhlh2rcd13ifvqgig","pricing_plan_id":"cebpf4jnsgd1na2vs0mg"},{"bike_id":"65cd5cde-b749-4b1c-afda-db643986848d","system_id":"levelo_inurba_marseille","lat":43.28612,"lon":5.37061,"is_reserved":false,"is_disabled":false,"rental_uris":{"android":"levelo://app?vid=65cd5cde-b749-4b1c-afda-db643986848d","ios":"levelo://app?vid=65cd5cde-b749-4b1c-afda-db643986848d"},"vehicle_type_id":"4","last_reported":1727799047,"current_range_meters":29600,"station_id":"ce4bht12rcd13ifvqi60","pricing_plan_id":"cebpf4jnsgd1na2vs0mg"},{"bike_id":"b951e257-eace-405e-9422-a0657ffb76d0","system_id":"levelo_inurba_marseille","lat":43.241669,"lon":5.364104,"is_reserved":false,"is_disabled":false,"rental_uris":{"android":"levelo://app?vid=b951e257-eace-405e-9422-a0657ffb76d0","ios":"levelo://app?vid=b951e257-eace-405e-9422-a0657ffb76d0"},"vehicle_type_id":"4","last_reported":1727799047,"current_range_meters":29600,"station_id":"cpo36qri1sfpv3e86is0","pricing_plan_id":"cebpf4jnsgd1na2vs0mg"},{"bike_id":"65be698c-41ce-4a6a-95f6-2e29ab089256","system_id":"levelo_inurba_marseille","lat":43.31025,"lon":5.37277,"is_reserved":false,"is_disabled":false,"rental_uris":{"android":"levelo://app?vid=65be698c-41ce-4a6a-95f6-2e29ab089256","ios":"levelo://app?vid=65be698c-41ce-4a6a-95f6-2e29ab089256"},"vehicle_type_id":"4","last_reported":1727799047,"current_range_meters":39200,"station_id":"","pricing_plan_id":"cebpf4jnsgd1na2vs0mg"},{"bike_id":"4c558abb-656b-47cf-88ab-821731025a99","system_id":"levelo_inurba_marseille","lat":43.31085,"lon":5.42431,"is_reserved":false,"is_disabled":false,"rental_uris":{"android":"levelo://app?vid=4c558abb-656b-47cf-88ab-821731025a99","ios":"levelo://app?vid=4c558abb-656b-47cf-88ab-821731025a99"},"vehicle_type_id":"4","last_reported":1727799047,"current_range_meters":19600,"station_id":"ce4bhp92rcd13ifvqhag","pricing_plan_id":"cebpf4jnsgd1na2vs0mg"},{"bike_id":"c12b08bb-566d-46c7-a150-6d4b5f7b8d93","system_id":"levelo_inurba_marseille","lat":43.27836,"lon":5.39211,"is_reserved":false,"is_disabled":false,"rental_uris":{"android":"levelo://app?vid=c12b08bb-566d-46c7-a150-6d4b5f7b8d93","ios":"levelo://app?vid=c12b08bb-566d-46c7-a150-6d4b5f7b8d93"},"vehicle_type_id":"4","last_reported":1727799047,"current_range_meters":3200,"station_id":"ce4bhjp2rcd13ifvqga0","pricing_plan_id":"cebpf4jnsgd1na2vs0mg"},{"bike_id":"b97c2a95-63eb-4324-8e03-366b16af213f","system_id":"levelo_inurba_marseille","lat":43.28935,"lon":5.36641,"is_reserved":false,"is_disabled":false,"rental_uris":{"android":"levelo://app?vid=b97c2a95-63eb-4324-8e03-366b16af213f","ios":"levelo://app?vid=b97c2a95-63eb-4324-8e03-366b16af213f"},"vehicle_type_id":"4","last_reported":1727799047,"current_range_meters":30400,"station_id":"ce4bhap2rcd13ifvqek0","pricing_plan_id":"cebpf4jnsgd1na2vs0mg"},{"bike_id":"1e349418-e962-41e0-836f-f799374a727b","system_id":"levelo_inurba_marseille","lat":43.31074,"lon":5.38353,"is_reserved":false,"is_disabled":false,"rental_uris":{"android":"levelo://app?vid=1e349418-e962-41e0-836f-f799374a727b","ios":"levelo://app?vid=1e349418-e962-41e0-836f-f799374a727b"},"vehicle_type_id":"4","last_reported":1727799047,"current_range_meters":9200,"station_id":"ce4bgv92rcd13ifvqcr0","pricing_plan_id":"cebpf4jnsgd1na2vs0mg"},{"bike_id":"5469c3d7-ba48-4891-8a2f-bb2dae2eddee","system_id":"levelo_inurba_marseille","lat":43.31075,"lon":5.38352,"is_reserved":false,"is_disabled":false,"rental_uris":{"android":"levelo://app?vid=5469c3d7-ba48-4891-8a2f-bb2dae2eddee","ios":"levelo://app?vid=5469c3d7-ba48-4891-8a2f-bb2dae2eddee"},"vehicle_type_id":"4","last_reported":1727799047,"current_range_meters":8000,"station_id":"ce4bgv92rcd13ifvqcr0","pricing_plan_id":"cebpf4jnsgd1na2vs0mg"},{"bike_id":"6e4d74f1-8f12-4142-9cbe-4e7badb8a1b9","system_id":"levelo_inurba_marseille","lat":43.31117,"lon":5.37775,"is_reserved":false,"is_disabled":false,"rental_uris":{"android":"levelo://app?vid=6e4d74f1-8f12-4142-9cbe-4e7badb8a1b9","ios":"levelo://app?vid=6e4d74f1-8f12-4142-9cbe-4e7badb8a1b9"},"vehicle_type_id":"4","last_reported":1727799047,"current_range_meters":25600,"station_id":"ce4bgt92rcd13ifvqcg0","pricing_plan_id":"cebpf4jnsgd1na2vs0mg"},{"bike_id":"a7382c38-586b-4b5c-8530-e1282870af04","system_id":"levelo_inurba_marseille","lat":43.23187,"lon":5.39974,"is_reserved":false,"is_disabled":false,"rental_uris":{"android":"levelo://app?vid=a7382c38-586b-4b5c-8530-e1282870af04","ios":"levelo://app?vid=a7382c38-586b-4b5c-8530-e1282870af04"},"vehicle_type_id":"4","last_reported":1727799047,"current_range_meters":30000,"station_id":"ce4bhn12rcd13ifvqgqg","pricing_plan_id":"cebpf4jnsgd1na2vs0mg"},{"bike_id":"f8f518e3-bd48-40f5-801a-4ead88758ee2","system_id":"levelo_inurba_marseille","lat":43.32115,"lon":5.36782,"is_reserved":false,"is_disabled":false,"rental_uris":{"android":"levelo://app?vid=f8f518e3-bd48-40f5-801a-4ead88758ee2","ios":"levelo://app?vid=f8f518e3-bd48-40f5-801a-4ead88758ee2"},"vehicle_type_id":"4","last_reported":1727799047,"current_range_meters":14800,"station_id":"ce4bhrh2rcd13ifvqhug","pricing_plan_id":"cebpf4jnsgd1na2vs0mg"},{"bike_id":"9cf59907-8d44-4eb5-b657-7dda8cfbb58b","system_id":"levelo_inurba_marseille","lat":43.28609,"lon":5.37064,"is_reserved":false,"is_disabled":false,"rental_uris":{"android":"levelo://app?vid=9cf59907-8d44-4eb5-b657-7dda8cfbb58b","ios":"levelo://app?vid=9cf59907-8d44-4eb5-b657-7dda8cfbb58b"},"vehicle_type_id":"4","last_reported":1727799047,"current_range_meters":28800,"station_id":"ce4bht12rcd13ifvqi60","pricing_plan_id":"cebpf4jnsgd1na2vs0mg"},{"bike_id":"d997a8a4-a9b5-42f3-9ebe-b0d80c616193","system_id":"levelo_inurba_marseille","lat":43.28465,"lon":5.3589,"is_reserved":false,"is_disabled":false,"rental_uris":{"android":"levelo://app?vid=d997a8a4-a9b5-42f3-9ebe-b0d80c616193","ios":"levelo://app?vid=d997a8a4-a9b5-42f3-9ebe-b0d80c616193"},"vehicle_type_id":"4","last_reported":1727799047,"current_range_meters":38800,"station_id":"ce4bhah2rcd13ifvqei0","pricing_plan_id":"cebpf4jnsgd1na2vs0mg"},{"bike_id":"59b88fce-df46-4624-9c14-d1de1afa5b2c","system_id":"levelo_inurba_marseille","lat":43.29967,"lon":5.38499,"is_reserved":false,"is_disabled":false,"rental_uris":{"android":"levelo://app?vid=59b88fce-df46-4624-9c14-d1de1afa5b2c","ios":"levelo://app?vid=59b88fce-df46-4624-9c14-d1de1afa5b2c"},"vehicle_type_id":"4","last_reported":1727799047,"current_range_meters":5600,"station_id":"ce4bgj92rcd13ifvqbd0","pricing_plan_id":"cebpf4jnsgd1na2vs0mg"},{"bike_id":"dedaa17f-98a0-4035-9f8b-9f4c20e6bc9c","system_id":"levelo_inurba_marseille","lat":43.26942,"lon":5.40263,"is_reserved":false,"is_disabled":false,"rental_uris":{"android":"levelo://app?vid=dedaa17f-98a0-4035-9f8b-9f4c20e6bc9c","ios":"levelo://app?vid=dedaa17f-98a0-4035-9f8b-9f4c20e6bc9c"},"vehicle_type_id":"4","last_reported":1727799047,"current_range_meters":23200,"station_id":"cjm6bp8fraef2m0cb0m0","pricing_plan_id":"cebpf4jnsgd1na2vs0mg"},{"bike_id":"30dbd771-92c3-4711-bdfd-544de2cbdade","system_id":"levelo_inurba_marseille","lat":43.29226,"lon":5.36067,"is_reserved":false,"is_disabled":false,"rental_uris":{"android":"levelo://app?vid=30dbd771-92c3-4711-bdfd-544de2cbdade","ios":"levelo://app?vid=30dbd771-92c3-4711-bdfd-544de2cbdade"},"vehicle_type_id":"4","last_reported":1727799047,"current_range_meters":25200,"station_id":"ce4bhbh2rcd13ifvqeqg","pricing_plan_id":"cebpf4jnsgd1na2vs0mg"},{"bike_id":"a07f0412-f8f6-4f23-98f2-537738d12db5","system_id":"levelo_inurba_marseille","lat":43.31279,"lon":5.40181,"is_reserved":false,"is_disabled":false,"rental_uris":{"android":"levelo://app?vid=a07f0412-f8f6-4f23-98f2-537738d12db5","ios":"levelo://app?vid=a07f0412-f8f6-4f23-98f2-537738d12db5"},"vehicle_type_id":"4","last_reported":1727799047,"current_range_meters":16000,"station_id":"ce4bh092rcd13ifvqd30","pricing_plan_id":"cebpf4jnsgd1na2vs0mg"},{"bike_id":"3091fe24-8504-4a68-8bed-29c9141f12d9","system_id":"levelo_inurba_marseille","lat":43.23183,"lon":5.39991,"is_reserved":false,"is_disabled":false,"rental_uris":{"android":"levelo://app?vid=3091fe24-8504-4a68-8bed-29c9141f12d9","ios":"levelo://app?vid=3091fe24-8504-4a68-8bed-29c9141f12d9"},"vehicle_type_id":"4","last_reported":1727799047,"current_range_meters":17200,"station_id":"ce4bhn12rcd13ifvqgqg","pricing_plan_id":"cebpf4jnsgd1na2vs0mg"},{"bike_id":"d995d233-d2fe-4db9-b69b-baa1337469bf","system_id":"levelo_inurba_marseille","lat":43.26721,"lon":5.40134,"is_reserved":false,"is_disabled":false,"rental_uris":{"android":"levelo://app?vid=d995d233-d2fe-4db9-b69b-baa1337469bf","ios":"levelo://app?vid=d995d233-d2fe-4db9-b69b-baa1337469bf"},"vehicle_type_id":"4","last_reported":1727799047,"current_range_meters":12800,"station_id":"ce4bhm92rcd13ifvqglg","pricing_plan_id":"cebpf4jnsgd1na2vs0mg"},{"bike_id":"8f09f5b4-b0cf-46e4-98f8-fe0c0be7ed9e","system_id":"levelo_inurba_marseille","lat":43.29444,"lon":5.3975,"is_reserved":false,"is_disabled":false,"rental_uris":{"android":"levelo://app?vid=8f09f5b4-b0cf-46e4-98f8-fe0c0be7ed9e","ios":"levelo://app?vid=8f09f5b4-b0cf-46e4-98f8-fe0c0be7ed9e"},"vehicle_type_id":"4","last_reported":1727799047,"current_range_meters":16000,"station_id":"ce4bh3h2rcd13ifvqdo0","pricing_plan_id":"cebpf4jnsgd1na2vs0mg"},{"bike_id":"5dff02d0-5207-4db4-a42c-ea967fe6dfde","system_id":"levelo_inurba_marseille","lat":43.29526,"lon":5.39054,"is_reserved":false,"is_disabled":false,"rental_uris":{"android":"levelo://app?vid=5dff02d0-5207-4db4-a42c-ea967fe6dfde","ios":"levelo://app?vid=5dff02d0-5207-4db4-a42c-ea967fe6dfde"},"vehicle_type_id":"4","last_reported":1727799047,"current_range_meters":24400,"station_id":"ce4bh3p2rcd13ifvqdp0","pricing_plan_id":"cebpf4jnsgd1na2vs0mg"},{"bike_id":"e88d6ec3-c66e-420b-adb6-eeda10e1c248","system_id":"levelo_inurba_marseille","lat":43.29532,"lon":5.37431,"is_reserved":false,"is_disabled":false,"rental_uris":{"android":"levelo://app?vid=e88d6ec3-c66e-420b-adb6-eeda10e1c248","ios":"levelo://app?vid=e88d6ec3-c66e-420b-adb6-eeda10e1c248"},"vehicle_type_id":"4","last_reported":1727799047,"current_range_meters":38800,"station_id":"ce4bgkp2rcd13ifvqbmg","pricing_plan_id":"cebpf4jnsgd1na2vs0mg"},{"bike_id":"bb2fc2a1-7be7-4008-a51d-906a07f4d1a0","system_id":"levelo_inurba_marseille","lat":43.288521,"lon":5.392997,"is_reserved":false,"is_disabled":false,"rental_uris":{"android":"levelo://app?vid=bb2fc2a1-7be7-4008-a51d-906a07f4d1a0","ios":"levelo://app?vid=bb2fc2a1-7be7-4008-a51d-906a07f4d1a0"},"vehicle_type_id":"4","last_reported":1727799047,"current_range_meters":20800,"station_id":"ce4bh2p2rcd13ifvqdi0","pricing_plan_id":"cebpf4jnsgd1na2vs0mg"},{"bike_id":"eed2ff29-0686-4e8d-8959-4ed55c834a6a","system_id":"levelo_inurba_marseille","lat":43.23966,"lon":5.36627,"is_reserved":false,"is_disabled":false,"rental_uris":{"android":"levelo://app?vid=eed2ff29-0686-4e8d-8959-4ed55c834a6a","ios":"levelo://app?vid=eed2ff29-0686-4e8d-8959-4ed55c834a6a"},"vehicle_type_id":"4","last_reported":1727799047,"current_range_meters":18000,"station_id":"ce4bhi12rcd13ifvqfp0","pricing_plan_id":"cebpf4jnsgd1na2vs0mg"},{"bike_id":"d609dda2-9e88-492a-9ec1-1ee759ae8664","system_id":"levelo_inurba_marseille","lat":43.33025,"lon":5.39039,"is_reserved":false,"is_disabled":false,"rental_uris":{"android":"levelo://app?vid=d609dda2-9e88-492a-9ec1-1ee759ae8664","ios":"levelo://app?vid=d609dda2-9e88-492a-9ec1-1ee759ae8664"},"vehicle_type_id":"4","last_reported":1727799047,"current_range_meters":20800,"station_id":"ce4bhr92rcd13ifvqhrg","pricing_plan_id":"cebpf4jnsgd1na2vs0mg"},{"bike_id":"f4f2bee5-a614-4eba-902f-4461c57a166a","system_id":"levelo_inurba_marseille","lat":43.28472,"lon":5.3589,"is_reserved":false,"is_disabled":false,"rental_uris":{"android":"levelo://app?vid=f4f2bee5-a614-4eba-902f-4461c57a166a","ios":"levelo://app?vid=f4f2bee5-a614-4eba-902f-4461c57a166a"},"vehicle_type_id":"4","last_reported":1727799047,"current_range_meters":35600,"station_id":"ce4bhah2rcd13ifvqei0","pricing_plan_id":"cebpf4jnsgd1na2vs0mg"},{"bike_id":"b652f429-09b8-4697-9c1b-3b9adc3c55d8","system_id":"levelo_inurba_marseille","lat":43.26871,"lon":5.39135,"is_reserved":false,"is_disabled":false,"rental_uris":{"android":"levelo://app?vid=b652f429-09b8-4697-9c1b-3b9adc3c55d8","ios":"levelo://app?vid=b652f429-09b8-4697-9c1b-3b9adc3c55d8"},"vehicle_type_id":"4","last_reported":1727799047,"current_range_meters":6800,"station_id":"","pricing_plan_id":"cebpf4jnsgd1na2vs0mg"},{"bike_id":"f0abc71c-a29f-438e-b523-f8151eddd09b","system_id":"levelo_inurba_marseille","lat":43.29879,"lon":5.38909,"is_reserved":false,"is_disabled":false,"rental_uris":{"android":"levelo://app?vid=f0abc71c-a29f-438e-b523-f8151eddd09b","ios":"levelo://app?vid=f0abc71c-a29f-438e-b523-f8151eddd09b"},"vehicle_type_id":"4","last_reported":1727799047,"current_range_meters":21600,"station_id":"ce4bh392rcd13ifvqdl0","pricing_plan_id":"cebpf4jnsgd1na2vs0mg"},{"bike_id":"db6e7861-7c87-41f5-9a00-a2b19736de12","system_id":"levelo_inurba_marseille","lat":43.25446,"lon":5.37662,"is_reserved":false,"is_disabled":false,"rental_uris":{"android":"levelo://app?vid=db6e7861-7c87-41f5-9a00-a2b19736de12","ios":"levelo://app?vid=db6e7861-7c87-41f5-9a00-a2b19736de12"},"vehicle_type_id":"4","last_reported":1727799047,"current_range_meters":27600,"station_id":"","pricing_plan_id":"cebpf4jnsgd1na2vs0mg"},{"bike_id":"49de3af1-d862-4d6d-9a9a-1b7a43b67fa3","system_id":"levelo_inurba_marseille","lat":43.29419,"lon":5.38611,"is_reserved":false,"is_disabled":false,"rental_uris":{"android":"levelo://app?vid=49de3af1-d862-4d6d-9a9a-1b7a43b67fa3","ios":"levelo://app?vid=49de3af1-d862-4d6d-9a9a-1b7a43b67fa3"},"vehicle_type_id":"4","last_reported":1727799047,"current_range_meters":11200,"station_id":"ce4bh2h2rcd13ifvqdh0","pricing_plan_id":"cebpf4jnsgd1na2vs0mg"},{"bike_id":"77ddc5f8-c534-492d-8c32-a8bae15f4902","system_id":"levelo_inurba_marseille","lat":43.30629,"lon":5.40098,"is_reserved":false,"is_disabled":false,"rental_uris":{"android":"levelo://app?vid=77ddc5f8-c534-492d-8c32-a8bae15f4902","ios":"levelo://app?vid=77ddc5f8-c534-492d-8c32-a8bae15f4902"},"vehicle_type_id":"4","last_reported":1727799047,"current_range_meters":25200,"station_id":"ce4bh112rcd13ifvqda0","pricing_plan_id":"cebpf4jnsgd1na2vs0mg"},{"bike_id":"8b771bee-b6ef-4c36-b319-edf0c9ab2a68","system_id":"levelo_inurba_marseille","lat":43.2951,"lon":5.37424,"is_reserved":false,"is_disabled":false,"rental_uris":{"android":"levelo://app?vid=8b771bee-b6ef-4c36-b319-edf0c9ab2a68","ios":"levelo://app?vid=8b771bee-b6ef-4c36-b319-edf0c9ab2a68"},"vehicle_type_id":"4","last_reported":1727799047,"current_range_meters":9600,"station_id":"","pricing_plan_id":"cebpf4jnsgd1na2vs0mg"},{"bike_id":"84910607-86ad-475d-9408-3259be662684","system_id":"levelo_inurba_marseille","lat":43.31714,"lon":5.43706,"is_reserved":false,"is_disabled":false,"rental_uris":{"android":"levelo://app?vid=84910607-86ad-475d-9408-3259be662684","ios":"levelo://app?vid=84910607-86ad-475d-9408-3259be662684"},"vehicle_type_id":"4","last_reported":1727799047,"current_range_meters":19200,"station_id":"ce4bhp92rcd13ifvqhcg","pricing_plan_id":"cebpf4jnsgd1na2vs0mg"},{"bike_id":"fbe9e31c-01c8-49ef-8b0a-1609e2105492","system_id":"levelo_inurba_marseille","lat":43.31073,"lon":5.38361,"is_reserved":false,"is_disabled":false,"rental_uris":{"android":"levelo://app?vid=fbe9e31c-01c8-49ef-8b0a-1609e2105492","ios":"levelo://app?vid=fbe9e31c-01c8-49ef-8b0a-1609e2105492"},"vehicle_type_id":"4","last_reported":1727799047,"current_range_meters":6000,"station_id":"ce4bgv92rcd13ifvqcr0","pricing_plan_id":"cebpf4jnsgd1na2vs0mg"},{"bike_id":"e0952d14-652a-4c90-af9f-a9a5668cb0d8","system_id":"levelo_inurba_marseille","lat":43.24669,"lon":5.38164,"is_reserved":false,"is_disabled":false,"rental_uris":{"android":"levelo://app?vid=e0952d14-652a-4c90-af9f-a9a5668cb0d8","ios":"levelo://app?vid=e0952d14-652a-4c90-af9f-a9a5668cb0d8"},"vehicle_type_id":"4","last_reported":1727799047,"current_range_meters":36800,"station_id":"ce4bhih2rcd13ifvqfr0","pricing_plan_id":"cebpf4jnsgd1na2vs0mg"},{"bike_id":"2a289f96-5117-462c-af43-17c64d0bb5db","system_id":"levelo_inurba_marseille","lat":43.26554,"lon":5.37285,"is_reserved":false,"is_disabled":false,"rental_uris":{"android":"levelo://app?vid=2a289f96-5117-462c-af43-17c64d0bb5db","ios":"levelo://app?vid=2a289f96-5117-462c-af43-17c64d0bb5db"},"vehicle_type_id":"4","last_reported":1727799047,"current_range_meters":19600,"station_id":"ce4bhg12rcd13ifvqf70","pricing_plan_id":"cebpf4jnsgd1na2vs0mg"},{"bike_id":"36199184-0723-4c1a-a64f-c0f6b2a92f46","system_id":"levelo_inurba_marseille","lat":43.23967,"lon":5.3663,"is_reserved":false,"is_disabled":false,"rental_uris":{"android":"levelo://app?vid=36199184-0723-4c1a-a64f-c0f6b2a92f46","ios":"levelo://app?vid=36199184-0723-4c1a-a64f-c0f6b2a92f46"},"vehicle_type_id":"4","last_reported":1727799047,"current_range_meters":28000,"station_id":"ce4bhi12rcd13ifvqfp0","pricing_plan_id":"cebpf4jnsgd1na2vs0mg"},{"bike_id":"70da26fe-d933-4270-8d5e-784a0575a0f8","system_id":"levelo_inurba_marseille","lat":43.255,"lon":5.3765,"is_reserved":false,"is_disabled":false,"rental_uris":{"android":"levelo://app?vid=70da26fe-d933-4270-8d5e-784a0575a0f8","ios":"levelo://app?vid=70da26fe-d933-4270-8d5e-784a0575a0f8"},"vehicle_type_id":"4","last_reported":1727799047,"current_range_meters":16800,"station_id":"ce4bhh12rcd13ifvqff0","pricing_plan_id":"cebpf4jnsgd1na2vs0mg"},{"bike_id":"13b71d2f-3cb6-47ed-a1e4-e23f09f8eb07","system_id":"levelo_inurba_marseille","lat":43.2656,"lon":5.37284,"is_reserved":false,"is_disabled":false,"rental_uris":{"android":"levelo://app?vid=13b71d2f-3cb6-47ed-a1e4-e23f09f8eb07","ios":"levelo://app?vid=13b71d2f-3cb6-47ed-a1e4-e23f09f8eb07"},"vehicle_type_id":"4","last_reported":1727799047,"current_range_meters":21600,"station_id":"ce4bhg12rcd13ifvqf70","pricing_plan_id":"cebpf4jnsgd1na2vs0mg"},{"bike_id":"1fa5247a-6936-40fa-90ac-bff1cb2e50ec","system_id":"levelo_inurba_marseille","lat":43.32671,"lon":5.4127,"is_reserved":false,"is_disabled":false,"rental_uris":{"android":"levelo://app?vid=1fa5247a-6936-40fa-90ac-bff1cb2e50ec","ios":"levelo://app?vid=1fa5247a-6936-40fa-90ac-bff1cb2e50ec"},"vehicle_type_id":"4","last_reported":1727799047,"current_range_meters":20800,"station_id":"","pricing_plan_id":"cebpf4jnsgd1na2vs0mg"},{"bike_id":"4158dfa0-734d-4050-bbb4-c1d838b33c7b","system_id":"levelo_inurba_marseille","lat":43.25585,"lon":5.38242,"is_reserved":false,"is_disabled":false,"rental_uris":{"android":"levelo://app?vid=4158dfa0-734d-4050-bbb4-c1d838b33c7b","ios":"levelo://app?vid=4158dfa0-734d-4050-bbb4-c1d838b33c7b"},"vehicle_type_id":"4","last_reported":1727799047,"current_range_meters":8000,"station_id":"ce4bhih2rcd13ifvqfs0","pricing_plan_id":"cebpf4jnsgd1na2vs0mg"},{"bike_id":"e47d8b5f-6f7d-401a-8617-51b7d9b65561","system_id":"levelo_inurba_marseille","lat":43.32173,"lon":5.38798,"is_reserved":false,"is_disabled":false,"rental_uris":{"android":"levelo://app?vid=e47d8b5f-6f7d-401a-8617-51b7d9b65561","ios":"levelo://app?vid=e47d8b5f-6f7d-401a-8617-51b7d9b65561"},"vehicle_type_id":"4","last_reported":1727799047,"current_range_meters":16000,"station_id":"","pricing_plan_id":"cebpf4jnsgd1na2vs0mg"},{"bike_id":"b045d196-4c26-452d-852f-16b2036c6d9a","system_id":"levelo_inurba_marseille","lat":43.29912,"lon":5.38142,"is_reserved":false,"is_disabled":false,"rental_uris":{"android":"levelo://app?vid=b045d196-4c26-452d-852f-16b2036c6d9a","ios":"levelo://app?vid=b045d196-4c26-452d-852f-16b2036c6d9a"},"vehicle_type_id":"4","last_reported":1727799047,"current_range_meters":16000,"station_id":"ce4bgt12rcd13ifvqce0","pricing_plan_id":"cebpf4jnsgd1na2vs0mg"},{"bike_id":"6ec77755-ac0d-4c34-8c16-22fe95a56238","system_id":"levelo_inurba_marseille","lat":43.29421,"lon":5.38621,"is_reserved":false,"is_disabled":false,"rental_uris":{"android":"levelo://app?vid=6ec77755-ac0d-4c34-8c16-22fe95a56238","ios":"levelo://app?vid=6ec77755-ac0d-4c34-8c16-22fe95a56238"},"vehicle_type_id":"4","last_reported":1727799047,"current_range_meters":20400,"station_id":"ce4bh2h2rcd13ifvqdh0","pricing_plan_id":"cebpf4jnsgd1na2vs0mg"},{"bike_id":"4b0451e9-f467-4645-9380-c7d0079ab5e4","system_id":"levelo_inurba_marseille","lat":43.29281,"lon":5.40118,"is_reserved":false,"is_disabled":false,"rental_uris":{"android":"levelo://app?vid=4b0451e9-f467-4645-9380-c7d0079ab5e4","ios":"levelo://app?vid=4b0451e9-f467-4645-9380-c7d0079ab5e4"},"vehicle_type_id":"4","last_reported":1727799047,"current_range_meters":6400,"station_id":"ce4bh312rcd13ifvqdk0","pricing_plan_id":"cebpf4jnsgd1na2vs0mg"},{"bike_id":"72f6c8e1-8ffe-4e6d-8c87-f944aebaa4da","system_id":"levelo_inurba_marseille","lat":43.28484,"lon":5.3853,"is_reserved":false,"is_disabled":false,"rental_uris":{"android":"levelo://app?vid=72f6c8e1-8ffe-4e6d-8c87-f944aebaa4da","ios":"levelo://app?vid=72f6c8e1-8ffe-4e6d-8c87-f944aebaa4da"},"vehicle_type_id":"4","last_reported":1727799047,"current_range_meters":36400,"station_id":"ce4bh8p2rcd13ifvqeb0","pricing_plan_id":"cebpf4jnsgd1na2vs0mg"},{"bike_id":"14df416c-5311-4f35-8ecb-a6f54bd24655","system_id":"levelo_inurba_marseille","lat":43.288544,"lon":5.366524,"is_reserved":false,"is_disabled":false,"rental_uris":{"android":"levelo://app?vid=14df416c-5311-4f35-8ecb-a6f54bd24655","ios":"levelo://app?vid=14df416c-5311-4f35-8ecb-a6f54bd24655"},"vehicle_type_id":"4","last_reported":1727799047,"current_range_meters":33200,"station_id":"ce4bh412rcd13ifvqdr0","pricing_plan_id":"cebpf4jnsgd1na2vs0mg"},{"bike_id":"f482b811-60c5-4cb4-be69-55c1c230887b","system_id":"levelo_inurba_marseille","lat":43.28475,"lon":5.35899,"is_reserved":false,"is_disabled":false,"rental_uris":{"android":"levelo://app?vid=f482b811-60c5-4cb4-be69-55c1c230887b","ios":"levelo://app?vid=f482b811-60c5-4cb4-be69-55c1c230887b"},"vehicle_type_id":"4","last_reported":1727799047,"current_range_meters":32800,"station_id":"ce4bhah2rcd13ifvqei0","pricing_plan_id":"cebpf4jnsgd1na2vs0mg"},{"bike_id":"ad066925-dc61-48d1-9b62-8b98453d264f","system_id":"levelo_inurba_marseille","lat":43.28457,"lon":5.35886,"is_reserved":false,"is_disabled":false,"rental_uris":{"android":"levelo://app?vid=ad066925-dc61-48d1-9b62-8b98453d264f","ios":"levelo://app?vid=ad066925-dc61-48d1-9b62-8b98453d264f"},"vehicle_type_id":"4","last_reported":1727799047,"current_range_meters":13600,"station_id":"ce4bhah2rcd13ifvqei0","pricing_plan_id":"cebpf4jnsgd1na2vs0mg"},{"bike_id":"984b91a1-fe3e-4016-b94a-068fe2eb3242","system_id":"levelo_inurba_marseille","lat":43.32658,"lon":5.40995,"is_reserved":false,"is_disabled":false,"rental_uris":{"android":"levelo://app?vid=984b91a1-fe3e-4016-b94a-068fe2eb3242","ios":"levelo://app?vid=984b91a1-fe3e-4016-b94a-068fe2eb3242"},"vehicle_type_id":"4","last_reported":1727799047,"current_range_meters":13600,"station_id":"ce4bhpp2rcd13ifvqhgg","pricing_plan_id":"cebpf4jnsgd1na2vs0mg"},{"bike_id":"31358fdb-d644-4812-8483-f518bef67790","system_id":"levelo_inurba_marseille","lat":43.3014,"lon":5.37427,"is_reserved":false,"is_disabled":false,"rental_uris":{"android":"levelo://app?vid=31358fdb-d644-4812-8483-f518bef67790","ios":"levelo://app?vid=31358fdb-d644-4812-8483-f518bef67790"},"vehicle_type_id":"4","last_reported":1727799047,"current_range_meters":22800,"station_id":"ce4bgs92rcd13ifvqcc0","pricing_plan_id":"cebpf4jnsgd1na2vs0mg"},{"bike_id":"20767919-0f16-4897-afeb-88df7068f68c","system_id":"levelo_inurba_marseille","lat":43.31729,"lon":5.42395,"is_reserved":false,"is_disabled":false,"rental_uris":{"android":"levelo://app?vid=20767919-0f16-4897-afeb-88df7068f68c","ios":"levelo://app?vid=20767919-0f16-4897-afeb-88df7068f68c"},"vehicle_type_id":"4","last_reported":1727799047,"current_range_meters":28400,"station_id":"ce4bhp92rcd13ifvqhbg","pricing_plan_id":"cebpf4jnsgd1na2vs0mg"},{"bike_id":"3a5dc3fd-5531-4af9-ae8b-0ede616a22b3","system_id":"levelo_inurba_marseille","lat":43.23187,"lon":5.39976,"is_reserved":false,"is_disabled":false,"rental_uris":{"android":"levelo://app?vid=3a5dc3fd-5531-4af9-ae8b-0ede616a22b3","ios":"levelo://app?vid=3a5dc3fd-5531-4af9-ae8b-0ede616a22b3"},"vehicle_type_id":"4","last_reported":1727799047,"current_range_meters":32800,"station_id":"ce4bhn12rcd13ifvqgqg","pricing_plan_id":"cebpf4jnsgd1na2vs0mg"},{"bike_id":"1059e734-83e7-463d-a140-870d90df2fd2","system_id":"levelo_inurba_marseille","lat":43.29852,"lon":5.36288,"is_reserved":false,"is_disabled":false,"rental_uris":{"android":"levelo://app?vid=1059e734-83e7-463d-a140-870d90df2fd2","ios":"levelo://app?vid=1059e734-83e7-463d-a140-870d90df2fd2"},"vehicle_type_id":"4","last_reported":1727799047,"current_range_meters":800,"station_id":"ce4bgpp2rcd13ifvqc3g","pricing_plan_id":"cebpf4jnsgd1na2vs0mg"},{"bike_id":"0b0b2a76-da15-4499-b7ff-06c754649c44","system_id":"levelo_inurba_marseille","lat":43.32363,"lon":5.38893,"is_reserved":false,"is_disabled":false,"rental_uris":{"android":"levelo://app?vid=0b0b2a76-da15-4499-b7ff-06c754649c44","ios":"levelo://app?vid=0b0b2a76-da15-4499-b7ff-06c754649c44"},"vehicle_type_id":"4","last_reported":1727799047,"current_range_meters":28000,"station_id":"ce4bhqp2rcd13ifvqhog","pricing_plan_id":"cebpf4jnsgd1na2vs0mg"},{"bike_id":"70cfb430-f163-413c-b88f-a4f81996d85c","system_id":"levelo_inurba_marseille","lat":43.31368,"lon":5.38491,"is_reserved":false,"is_disabled":false,"rental_uris":{"android":"levelo://app?vid=70cfb430-f163-413c-b88f-a4f81996d85c","ios":"levelo://app?vid=70cfb430-f163-413c-b88f-a4f81996d85c"},"vehicle_type_id":"4","last_reported":1727799047,"current_range_meters":32400,"station_id":"ce4bgt92rcd13ifvqcf0","pricing_plan_id":"cebpf4jnsgd1na2vs0mg"},{"bike_id":"78b6a163-a7b6-4ea2-a1ee-89640b0781a1","system_id":"levelo_inurba_marseille","lat":43.27566,"lon":5.38413,"is_reserved":false,"is_disabled":false,"rental_uris":{"android":"levelo://app?vid=78b6a163-a7b6-4ea2-a1ee-89640b0781a1","ios":"levelo://app?vid=78b6a163-a7b6-4ea2-a1ee-89640b0781a1"},"vehicle_type_id":"4","last_reported":1727799047,"current_range_meters":27200,"station_id":"ce4bhh92rcd13ifvqfi0","pricing_plan_id":"cebpf4jnsgd1na2vs0mg"},{"bike_id":"946f0037-4f02-4e5c-acb2-800667fab619","system_id":"levelo_inurba_marseille","lat":43.31081,"lon":5.42434,"is_reserved":false,"is_disabled":false,"rental_uris":{"android":"levelo://app?vid=946f0037-4f02-4e5c-acb2-800667fab619","ios":"levelo://app?vid=946f0037-4f02-4e5c-acb2-800667fab619"},"vehicle_type_id":"4","last_reported":1727799047,"current_range_meters":12800,"station_id":"ce4bhp92rcd13ifvqhag","pricing_plan_id":"cebpf4jnsgd1na2vs0mg"},{"bike_id":"72c01b3d-824b-4db2-8f3a-57868e2d8ea8","system_id":"levelo_inurba_marseille","lat":43.25121,"lon":5.40319,"is_reserved":false,"is_disabled":false,"rental_uris":{"android":"levelo://app?vid=72c01b3d-824b-4db2-8f3a-57868e2d8ea8","ios":"levelo://app?vid=72c01b3d-824b-4db2-8f3a-57868e2d8ea8"},"vehicle_type_id":"4","last_reported":1727799047,"current_range_meters":13600,"station_id":"ce4bhlh2rcd13ifvqgig","pricing_plan_id":"cebpf4jnsgd1na2vs0mg"},{"bike_id":"8f64f2d6-2fb9-4030-8e61-47c767c8f9e0","system_id":"levelo_inurba_marseille","lat":43.25583,"lon":5.38231,"is_reserved":false,"is_disabled":false,"rental_uris":{"android":"levelo://app?vid=8f64f2d6-2fb9-4030-8e61-47c767c8f9e0","ios":"levelo://app?vid=8f64f2d6-2fb9-4030-8e61-47c767c8f9e0"},"vehicle_type_id":"4","last_reported":1727799047,"current_range_meters":24400,"station_id":"ce4bhih2rcd13ifvqfs0","pricing_plan_id":"cebpf4jnsgd1na2vs0mg"},{"bike_id":"99fd9cbd-0832-4775-a9e4-7e77fc7037f8","system_id":"levelo_inurba_marseille","lat":43.28927,"lon":5.3664,"is_reserved":false,"is_disabled":false,"rental_uris":{"android":"levelo://app?vid=99fd9cbd-0832-4775-a9e4-7e77fc7037f8","ios":"levelo://app?vid=99fd9cbd-0832-4775-a9e4-7e77fc7037f8"},"vehicle_type_id":"4","last_reported":1727799047,"current_range_meters":27600,"station_id":"ce4bhap2rcd13ifvqek0","pricing_plan_id":"cebpf4jnsgd1na2vs0mg"},{"bike_id":"6f2ae92f-23a2-4f11-8edb-90c2c8fd879f","system_id":"levelo_inurba_marseille","lat":43.35129,"lon":5.43862,"is_reserved":false,"is_disabled":false,"rental_uris":{"android":"levelo://app?vid=6f2ae92f-23a2-4f11-8edb-90c2c8fd879f","ios":"levelo://app?vid=6f2ae92f-23a2-4f11-8edb-90c2c8fd879f"},"vehicle_type_id":"4","last_reported":1727799047,"current_range_meters":26000,"station_id":"","pricing_plan_id":"cebpf4jnsgd1na2vs0mg"},{"bike_id":"b337bd20-f5ab-4d71-a842-ea60a4480d01","system_id":"levelo_inurba_marseille","lat":43.337444,"lon":5.374475,"is_reserved":false,"is_disabled":false,"rental_uris":{"android":"levelo://app?vid=b337bd20-f5ab-4d71-a842-ea60a4480d01","ios":"levelo://app?vid=b337bd20-f5ab-4d71-a842-ea60a4480d01"},"vehicle_type_id":"4","last_reported":1727799047,"current_range_meters":36400,"station_id":"","pricing_plan_id":"cebpf4jnsgd1na2vs0mg"},{"bike_id":"2d1e394b-c65c-48dd-8f6c-7fbd688f784e","system_id":"levelo_inurba_marseille","lat":43.31642,"lon":5.38807,"is_reserved":false,"is_disabled":false,"rental_uris":{"android":"levelo://app?vid=2d1e394b-c65c-48dd-8f6c-7fbd688f784e","ios":"levelo://app?vid=2d1e394b-c65c-48dd-8f6c-7fbd688f784e"},"vehicle_type_id":"4","last_reported":1727799047,"current_range_meters":12400,"station_id":"ce4bhqp2rcd13ifvqhng","pricing_plan_id":"cebpf4jnsgd1na2vs0mg"},{"bike_id":"a839f8c2-1f19-41c9-b661-130324e30c0f","system_id":"levelo_inurba_marseille","lat":43.32299,"lon":5.38269,"is_reserved":false,"is_disabled":false,"rental_uris":{"android":"levelo://app?vid=a839f8c2-1f19-41c9-b661-130324e30c0f","ios":"levelo://app?vid=a839f8c2-1f19-41c9-b661-130324e30c0f"},"vehicle_type_id":"4","last_reported":1727799047,"current_range_meters":38800,"station_id":"ce4bhr12rcd13ifvqhqg","pricing_plan_id":"cebpf4jnsgd1na2vs0mg"},{"bike_id":"0bff364d-ee97-4249-ad38-41bb2102b5e1","system_id":"levelo_inurba_marseille","lat":43.30803,"lon":5.43524,"is_reserved":false,"is_disabled":false,"rental_uris":{"android":"levelo://app?vid=0bff364d-ee97-4249-ad38-41bb2102b5e1","ios":"levelo://app?vid=0bff364d-ee97-4249-ad38-41bb2102b5e1"},"vehicle_type_id":"4","last_reported":1727799047,"current_range_meters":8400,"station_id":"ce4bhph2rcd13ifvqheg","pricing_plan_id":"cebpf4jnsgd1na2vs0mg"},{"bike_id":"92a03d4f-88f7-4da0-9aac-516a7f28bbd5","system_id":"levelo_inurba_marseille","lat":43.2509,"lon":5.39519,"is_reserved":false,"is_disabled":false,"rental_uris":{"android":"levelo://app?vid=92a03d4f-88f7-4da0-9aac-516a7f28bbd5","ios":"levelo://app?vid=92a03d4f-88f7-4da0-9aac-516a7f28bbd5"},"vehicle_type_id":"4","last_reported":1727799047,"current_range_meters":31200,"station_id":"ce4bhm12rcd13ifvqgkg","pricing_plan_id":"cebpf4jnsgd1na2vs0mg"},{"bike_id":"f493192b-13c6-47a1-9573-739dd32e633f","system_id":"levelo_inurba_marseille","lat":43.337444,"lon":5.374475,"is_reserved":false,"is_disabled":false,"rental_uris":{"android":"levelo://app?vid=f493192b-13c6-47a1-9573-739dd32e633f","ios":"levelo://app?vid=f493192b-13c6-47a1-9573-739dd32e633f"},"vehicle_type_id":"4","last_reported":1727799047,"current_range_meters":16400,"station_id":"","pricing_plan_id":"cebpf4jnsgd1na2vs0mg"},{"bike_id":"5c9c41fa-3ef0-4aa2-83a2-df155517d818","system_id":"levelo_inurba_marseille","lat":43.29715,"lon":5.36619,"is_reserved":false,"is_disabled":false,"rental_uris":{"android":"levelo://app?vid=5c9c41fa-3ef0-4aa2-83a2-df155517d818","ios":"levelo://app?vid=5c9c41fa-3ef0-4aa2-83a2-df155517d818"},"vehicle_type_id":"4","last_reported":1727799047,"current_range_meters":17600,"station_id":"ce4bgn12rcd13ifvqbt0","pricing_plan_id":"cebpf4jnsgd1na2vs0mg"},{"bike_id":"d0f3ba74-2db6-4276-a970-d6d9e934005a","system_id":"levelo_inurba_marseille","lat":43.33716,"lon":5.39175,"is_reserved":false,"is_disabled":false,"rental_uris":{"android":"levelo://app?vid=d0f3ba74-2db6-4276-a970-d6d9e934005a","ios":"levelo://app?vid=d0f3ba74-2db6-4276-a970-d6d9e934005a"},"vehicle_type_id":"4","last_reported":1727799047,"current_range_meters":35600,"station_id":"ce4bhr92rcd13ifvqhsg","pricing_plan_id":"cebpf4jnsgd1na2vs0mg"},{"bike_id":"d3e7d987-54ee-4b2d-9583-c6176f1b70e6","system_id":"levelo_inurba_marseille","lat":43.27572,"lon":5.3844,"is_reserved":false,"is_disabled":false,"rental_uris":{"android":"levelo://app?vid=d3e7d987-54ee-4b2d-9583-c6176f1b70e6","ios":"levelo://app?vid=d3e7d987-54ee-4b2d-9583-c6176f1b70e6"},"vehicle_type_id":"4","last_reported":1727799047,"current_range_meters":30400,"station_id":"ce4bhh92rcd13ifvqfi0","pricing_plan_id":"cebpf4jnsgd1na2vs0mg"},{"bike_id":"bacad776-8da5-455b-b929-710f5dda1635","system_id":"levelo_inurba_marseille","lat":43.31504,"lon":5.37312,"is_reserved":false,"is_disabled":false,"rental_uris":{"android":"levelo://app?vid=bacad776-8da5-455b-b929-710f5dda1635","ios":"levelo://app?vid=bacad776-8da5-455b-b929-710f5dda1635"},"vehicle_type_id":"4","last_reported":1727799047,"current_range_meters":38400,"station_id":"ce4bgt12rcd13ifvqcd0","pricing_plan_id":"cebpf4jnsgd1na2vs0mg"},{"bike_id":"f1dd1acd-6ae2-46a7-8d62-c777e527ff0c","system_id":"levelo_inurba_marseille","lat":43.28462,"lon":5.35885,"is_reserved":false,"is_disabled":false,"rental_uris":{"android":"levelo://app?vid=f1dd1acd-6ae2-46a7-8d62-c777e527ff0c","ios":"levelo://app?vid=f1dd1acd-6ae2-46a7-8d62-c777e527ff0c"},"vehicle_type_id":"4","last_reported":1727799047,"current_range_meters":5600,"station_id":"ce4bhah2rcd13ifvqei0","pricing_plan_id":"cebpf4jnsgd1na2vs0mg"},{"bike_id":"23826d73-9cdc-41c7-92ee-0aa9ead674de","system_id":"levelo_inurba_marseille","lat":43.31176,"lon":5.38729,"is_reserved":false,"is_disabled":false,"rental_uris":{"android":"levelo://app?vid=23826d73-9cdc-41c7-92ee-0aa9ead674de","ios":"levelo://app?vid=23826d73-9cdc-41c7-92ee-0aa9ead674de"},"vehicle_type_id":"4","last_reported":1727799047,"current_range_meters":22800,"station_id":"ce4bgv12rcd13ifvqcp0","pricing_plan_id":"cebpf4jnsgd1na2vs0mg"},{"bike_id":"490f2632-97c4-470b-841b-cb8232c51078","system_id":"levelo_inurba_marseille","lat":43.297844,"lon":5.393546,"is_reserved":false,"is_disabled":false,"rental_uris":{"android":"levelo://app?vid=490f2632-97c4-470b-841b-cb8232c51078","ios":"levelo://app?vid=490f2632-97c4-470b-841b-cb8232c51078"},"vehicle_type_id":"4","last_reported":1727799047,"current_range_meters":13600,"station_id":"","pricing_plan_id":"cebpf4jnsgd1na2vs0mg"},{"bike_id":"62a0aa82-21ba-47f3-98a7-25a8462cc949","system_id":"levelo_inurba_marseille","lat":43.28461,"lon":5.35891,"is_reserved":false,"is_disabled":false,"rental_uris":{"android":"levelo://app?vid=62a0aa82-21ba-47f3-98a7-25a8462cc949","ios":"levelo://app?vid=62a0aa82-21ba-47f3-98a7-25a8462cc949"},"vehicle_type_id":"4","last_reported":1727799047,"current_range_meters":18000,"station_id":"ce4bhah2rcd13ifvqei0","pricing_plan_id":"cebpf4jnsgd1na2vs0mg"},{"bike_id":"24e0a8b7-8246-4d61-a708-f6ae7fe1b407","system_id":"levelo_inurba_marseille","lat":43.2988,"lon":5.38918,"is_reserved":false,"is_disabled":false,"rental_uris":{"android":"levelo://app?vid=24e0a8b7-8246-4d61-a708-f6ae7fe1b407","ios":"levelo://app?vid=24e0a8b7-8246-4d61-a708-f6ae7fe1b407"},"vehicle_type_id":"4","last_reported":1727799047,"current_range_meters":8800,"station_id":"ce4bh392rcd13ifvqdl0","pricing_plan_id":"cebpf4jnsgd1na2vs0mg"},{"bike_id":"5308dd84-f6b3-4a93-82b4-eecd2db41e9c","system_id":"levelo_inurba_marseille","lat":43.25121,"lon":5.40323,"is_reserved":false,"is_disabled":false,"rental_uris":{"android":"levelo://app?vid=5308dd84-f6b3-4a93-82b4-eecd2db41e9c","ios":"levelo://app?vid=5308dd84-f6b3-4a93-82b4-eecd2db41e9c"},"vehicle_type_id":"4","last_reported":1727799047,"current_range_meters":25600,"station_id":"ce4bhlh2rcd13ifvqgig","pricing_plan_id":"cebpf4jnsgd1na2vs0mg"},{"bike_id":"d0e80e0b-3c0f-4bd6-b1d4-e87b35319dfa","system_id":"levelo_inurba_marseille","lat":43.27176,"lon":5.40995,"is_reserved":false,"is_disabled":false,"rental_uris":{"android":"levelo://app?vid=d0e80e0b-3c0f-4bd6-b1d4-e87b35319dfa","ios":"levelo://app?vid=d0e80e0b-3c0f-4bd6-b1d4-e87b35319dfa"},"vehicle_type_id":"4","last_reported":1727799047,"current_range_meters":34800,"station_id":"ce4bhl12rcd13ifvqgf0","pricing_plan_id":"cebpf4jnsgd1na2vs0mg"},{"bike_id":"4a103fce-0822-4100-8f62-b91d5dd9d4dd","system_id":"levelo_inurba_marseille","lat":43.25505,"lon":5.37653,"is_reserved":false,"is_disabled":false,"rental_uris":{"android":"levelo://app?vid=4a103fce-0822-4100-8f62-b91d5dd9d4dd","ios":"levelo://app?vid=4a103fce-0822-4100-8f62-b91d5dd9d4dd"},"vehicle_type_id":"4","last_reported":1727799047,"current_range_meters":38800,"station_id":"ce4bhh12rcd13ifvqff0","pricing_plan_id":"cebpf4jnsgd1na2vs0mg"},{"bike_id":"059599fb-299b-4bbb-8b33-b62cb3f0c7c8","system_id":"levelo_inurba_marseille","lat":43.28464,"lon":5.35897,"is_reserved":false,"is_disabled":false,"rental_uris":{"android":"levelo://app?vid=059599fb-299b-4bbb-8b33-b62cb3f0c7c8","ios":"levelo://app?vid=059599fb-299b-4bbb-8b33-b62cb3f0c7c8"},"vehicle_type_id":"4","last_reported":1727799047,"current_range_meters":20400,"station_id":"ce4bhah2rcd13ifvqei0","pricing_plan_id":"cebpf4jnsgd1na2vs0mg"},{"bike_id":"e717617c-89fa-4204-aeff-5c938d76adeb","system_id":"levelo_inurba_marseille","lat":43.3033,"lon":5.40434,"is_reserved":false,"is_disabled":false,"rental_uris":{"android":"levelo://app?vid=e717617c-89fa-4204-aeff-5c938d76adeb","ios":"levelo://app?vid=e717617c-89fa-4204-aeff-5c938d76adeb"},"vehicle_type_id":"4","last_reported":1727799047,"current_range_meters":20000,"station_id":"ce4bh012rcd13ifvqd10","pricing_plan_id":"cebpf4jnsgd1na2vs0mg"},{"bike_id":"ad6bea6e-f273-4ccd-9df4-289634e6fb6b","system_id":"levelo_inurba_marseille","lat":43.29893,"lon":5.43672,"is_reserved":false,"is_disabled":false,"rental_uris":{"android":"levelo://app?vid=ad6bea6e-f273-4ccd-9df4-289634e6fb6b","ios":"levelo://app?vid=ad6bea6e-f273-4ccd-9df4-289634e6fb6b"},"vehicle_type_id":"4","last_reported":1727799047,"current_range_meters":7200,"station_id":"ce4bhpp2rcd13ifvqhfg","pricing_plan_id":"cebpf4jnsgd1na2vs0mg"},{"bike_id":"0f93c182-7ca9-4b88-9129-7119f02d9215","system_id":"levelo_inurba_marseille","lat":43.25584,"lon":5.38235,"is_reserved":false,"is_disabled":false,"rental_uris":{"android":"levelo://app?vid=0f93c182-7ca9-4b88-9129-7119f02d9215","ios":"levelo://app?vid=0f93c182-7ca9-4b88-9129-7119f02d9215"},"vehicle_type_id":"4","last_reported":1727799047,"current_range_meters":24400,"station_id":"ce4bhih2rcd13ifvqfs0","pricing_plan_id":"cebpf4jnsgd1na2vs0mg"},{"bike_id":"b3672e33-6b77-4411-9955-eb46704118d7","system_id":"levelo_inurba_marseille","lat":43.25728,"lon":5.41106,"is_reserved":false,"is_disabled":false,"rental_uris":{"android":"levelo://app?vid=b3672e33-6b77-4411-9955-eb46704118d7","ios":"levelo://app?vid=b3672e33-6b77-4411-9955-eb46704118d7"},"vehicle_type_id":"4","last_reported":1727799047,"current_range_meters":28000,"station_id":"ce4bhkp2rcd13ifvqgd0","pricing_plan_id":"cebpf4jnsgd1na2vs0mg"},{"bike_id":"b46a91f9-0b26-498d-b8ac-ec249396e291","system_id":"levelo_inurba_marseille","lat":43.29904,"lon":5.4366,"is_reserved":false,"is_disabled":false,"rental_uris":{"android":"levelo://app?vid=b46a91f9-0b26-498d-b8ac-ec249396e291","ios":"levelo://app?vid=b46a91f9-0b26-498d-b8ac-ec249396e291"},"vehicle_type_id":"4","last_reported":1727799047,"current_range_meters":22000,"station_id":"ce4bhpp2rcd13ifvqhfg","pricing_plan_id":"cebpf4jnsgd1na2vs0mg"},{"bike_id":"73e3237b-0d36-49fb-9f86-c1131224cd85","system_id":"levelo_inurba_marseille","lat":43.29573,"lon":5.39974,"is_reserved":false,"is_disabled":false,"rental_uris":{"android":"levelo://app?vid=73e3237b-0d36-49fb-9f86-c1131224cd85","ios":"levelo://app?vid=73e3237b-0d36-49fb-9f86-c1131224cd85"},"vehicle_type_id":"4","last_reported":1727799047,"current_range_meters":8800,"station_id":"ce4bh312rcd13ifvqdj0","pricing_plan_id":"cebpf4jnsgd1na2vs0mg"},{"bike_id":"d98c1652-8588-4ea1-a6e2-e0df5648d545","system_id":"levelo_inurba_marseille","lat":43.29422,"lon":5.38621,"is_reserved":false,"is_disabled":false,"rental_uris":{"android":"levelo://app?vid=d98c1652-8588-4ea1-a6e2-e0df5648d545","ios":"levelo://app?vid=d98c1652-8588-4ea1-a6e2-e0df5648d545"},"vehicle_type_id":"4","last_reported":1727799047,"current_range_meters":27600,"station_id":"ce4bh2h2rcd13ifvqdh0","pricing_plan_id":"cebpf4jnsgd1na2vs0mg"},{"bike_id":"99534e90-68cd-4bde-82b4-c2f510554867","system_id":"levelo_inurba_marseille","lat":43.2866,"lon":5.3636,"is_reserved":false,"is_disabled":false,"rental_uris":{"android":"levelo://app?vid=99534e90-68cd-4bde-82b4-c2f510554867","ios":"levelo://app?vid=99534e90-68cd-4bde-82b4-c2f510554867"},"vehicle_type_id":"4","last_reported":1727799047,"current_range_meters":36400,"station_id":"ce4bhah2rcd13ifvqej0","pricing_plan_id":"cebpf4jnsgd1na2vs0mg"},{"bike_id":"ddcc09c9-f6e9-4b13-94ea-89546ab15c72","system_id":"levelo_inurba_marseille","lat":43.31244,"lon":5.3688,"is_reserved":false,"is_disabled":false,"rental_uris":{"android":"levelo://app?vid=ddcc09c9-f6e9-4b13-94ea-89546ab15c72","ios":"levelo://app?vid=ddcc09c9-f6e9-4b13-94ea-89546ab15c72"},"vehicle_type_id":"4","last_reported":1727799047,"current_range_meters":3200,"station_id":"ce4bgl92rcd13ifvqbq0","pricing_plan_id":"cebpf4jnsgd1na2vs0mg"},{"bike_id":"920aad92-0596-4373-8f03-69bc9fdb0c05","system_id":"levelo_inurba_marseille","lat":43.26556,"lon":5.37285,"is_reserved":false,"is_disabled":false,"rental_uris":{"android":"levelo://app?vid=920aad92-0596-4373-8f03-69bc9fdb0c05","ios":"levelo://app?vid=920aad92-0596-4373-8f03-69bc9fdb0c05"},"vehicle_type_id":"4","last_reported":1727799047,"current_range_meters":2800,"station_id":"ce4bhg12rcd13ifvqf70","pricing_plan_id":"cebpf4jnsgd1na2vs0mg"},{"bike_id":"6b20a5fa-b27c-45cb-8594-5d84f7f868b5","system_id":"levelo_inurba_marseille","lat":43.27683,"lon":5.3887,"is_reserved":false,"is_disabled":false,"rental_uris":{"android":"levelo://app?vid=6b20a5fa-b27c-45cb-8594-5d84f7f868b5","ios":"levelo://app?vid=6b20a5fa-b27c-45cb-8594-5d84f7f868b5"},"vehicle_type_id":"4","last_reported":1727799047,"current_range_meters":20800,"station_id":"ce4bhi12rcd13ifvqfo0","pricing_plan_id":"cebpf4jnsgd1na2vs0mg"},{"bike_id":"f24dd38e-a47b-433d-a70a-14cbff5cdc68","system_id":"levelo_inurba_marseille","lat":43.31324,"lon":5.3969,"is_reserved":false,"is_disabled":false,"rental_uris":{"android":"levelo://app?vid=f24dd38e-a47b-433d-a70a-14cbff5cdc68","ios":"levelo://app?vid=f24dd38e-a47b-433d-a70a-14cbff5cdc68"},"vehicle_type_id":"4","last_reported":1727799047,"current_range_meters":20400,"station_id":"ce4bgvp2rcd13ifvqcu0","pricing_plan_id":"cebpf4jnsgd1na2vs0mg"},{"bike_id":"86dd8441-0d81-4a3a-8404-495f28535aa7","system_id":"levelo_inurba_marseille","lat":43.30123,"lon":5.39855,"is_reserved":false,"is_disabled":false,"rental_uris":{"android":"levelo://app?vid=86dd8441-0d81-4a3a-8404-495f28535aa7","ios":"levelo://app?vid=86dd8441-0d81-4a3a-8404-495f28535aa7"},"vehicle_type_id":"4","last_reported":1727799047,"current_range_meters":11200,"station_id":"ce4bh0h2rcd13ifvqd40","pricing_plan_id":"cebpf4jnsgd1na2vs0mg"},{"bike_id":"c4432127-0b97-48c8-b745-bef6023d020a","system_id":"levelo_inurba_marseille","lat":43.33727,"lon":5.39185,"is_reserved":false,"is_disabled":false,"rental_uris":{"android":"levelo://app?vid=c4432127-0b97-48c8-b745-bef6023d020a","ios":"levelo://app?vid=c4432127-0b97-48c8-b745-bef6023d020a"},"vehicle_type_id":"4","last_reported":1727799047,"current_range_meters":32000,"station_id":"ce4bhr92rcd13ifvqhsg","pricing_plan_id":"cebpf4jnsgd1na2vs0mg"},{"bike_id":"603a765e-6daf-4006-a59a-b663044c7dcf","system_id":"levelo_inurba_marseille","lat":43.28407,"lon":5.37509,"is_reserved":false,"is_disabled":false,"rental_uris":{"android":"levelo://app?vid=603a765e-6daf-4006-a59a-b663044c7dcf","ios":"levelo://app?vid=603a765e-6daf-4006-a59a-b663044c7dcf"},"vehicle_type_id":"4","last_reported":1727799047,"current_range_meters":34000,"station_id":"ce4bh412rcd13ifvqds0","pricing_plan_id":"cebpf4jnsgd1na2vs0mg"},{"bike_id":"b674f51a-13dd-4bc9-a9e8-b06e044bae42","system_id":"levelo_inurba_marseille","lat":43.27373,"lon":5.36259,"is_reserved":false,"is_disabled":false,"rental_uris":{"android":"levelo://app?vid=b674f51a-13dd-4bc9-a9e8-b06e044bae42","ios":"levelo://app?vid=b674f51a-13dd-4bc9-a9e8-b06e044bae42"},"vehicle_type_id":"4","last_reported":1727799047,"current_range_meters":8000,"station_id":"ce4bhbh2rcd13ifvqeo0","pricing_plan_id":"cebpf4jnsgd1na2vs0mg"},{"bike_id":"d29dc684-5977-4857-9fdb-728775ead93e","system_id":"levelo_inurba_marseille","lat":43.3373,"lon":5.39187,"is_reserved":false,"is_disabled":false,"rental_uris":{"android":"levelo://app?vid=d29dc684-5977-4857-9fdb-728775ead93e","ios":"levelo://app?vid=d29dc684-5977-4857-9fdb-728775ead93e"},"vehicle_type_id":"4","last_reported":1727799047,"current_range_meters":28800,"station_id":"ce4bhr92rcd13ifvqhsg","pricing_plan_id":"cebpf4jnsgd1na2vs0mg"},{"bike_id":"092333ce-4ec6-4942-9a7a-40f4e0cbb0c7","system_id":"levelo_inurba_marseille","lat":43.24183,"lon":5.39728,"is_reserved":false,"is_disabled":false,"rental_uris":{"android":"levelo://app?vid=092333ce-4ec6-4942-9a7a-40f4e0cbb0c7","ios":"levelo://app?vid=092333ce-4ec6-4942-9a7a-40f4e0cbb0c7"},"vehicle_type_id":"4","last_reported":1727799047,"current_range_meters":22000,"station_id":"ce4bhn12rcd13ifvqgpg","pricing_plan_id":"cebpf4jnsgd1na2vs0mg"},{"bike_id":"3ab18407-a928-4260-97e3-f87d7a5e3048","system_id":"levelo_inurba_marseille","lat":43.28,"lon":5.40026,"is_reserved":false,"is_disabled":false,"rental_uris":{"android":"levelo://app?vid=3ab18407-a928-4260-97e3-f87d7a5e3048","ios":"levelo://app?vid=3ab18407-a928-4260-97e3-f87d7a5e3048"},"vehicle_type_id":"4","last_reported":1727799047,"current_range_meters":18000,"station_id":"ce4bho92rcd13ifvqh4g","pricing_plan_id":"cebpf4jnsgd1na2vs0mg"},{"bike_id":"2e1487ec-433f-42eb-b42c-c134a3dabad4","system_id":"levelo_inurba_marseille","lat":43.28354,"lon":5.38111,"is_reserved":false,"is_disabled":false,"rental_uris":{"android":"levelo://app?vid=2e1487ec-433f-42eb-b42c-c134a3dabad4","ios":"levelo://app?vid=2e1487ec-433f-42eb-b42c-c134a3dabad4"},"vehicle_type_id":"4","last_reported":1727799047,"current_range_meters":23200,"station_id":"ce4bh412rcd13ifvqdr0","pricing_plan_id":"cebpf4jnsgd1na2vs0mg"},{"bike_id":"d9a87434-6dc2-481e-9a8f-20feb11edd37","system_id":"levelo_inurba_marseille","lat":43.25503,"lon":5.37642,"is_reserved":false,"is_disabled":false,"rental_uris":{"android":"levelo://app?vid=d9a87434-6dc2-481e-9a8f-20feb11edd37","ios":"levelo://app?vid=d9a87434-6dc2-481e-9a8f-20feb11edd37"},"vehicle_type_id":"4","last_reported":1727799047,"current_range_meters":12000,"station_id":"ce4bhh12rcd13ifvqff0","pricing_plan_id":"cebpf4jnsgd1na2vs0mg"},{"bike_id":"e0661a17-dcb0-42f3-acb3-6627a95d7b76","system_id":"levelo_inurba_marseille","lat":43.2861,"lon":5.37063,"is_reserved":false,"is_disabled":false,"rental_uris":{"android":"levelo://app?vid=e0661a17-dcb0-42f3-acb3-6627a95d7b76","ios":"levelo://app?vid=e0661a17-dcb0-42f3-acb3-6627a95d7b76"},"vehicle_type_id":"4","last_reported":1727799047,"current_range_meters":31200,"station_id":"ce4bht12rcd13ifvqi60","pricing_plan_id":"cebpf4jnsgd1na2vs0mg"},{"bike_id":"408d588c-d6e0-4b7f-805a-63e3f004b896","system_id":"levelo_inurba_marseille","lat":43.31084,"lon":5.42429,"is_reserved":false,"is_disabled":false,"rental_uris":{"android":"levelo://app?vid=408d588c-d6e0-4b7f-805a-63e3f004b896","ios":"levelo://app?vid=408d588c-d6e0-4b7f-805a-63e3f004b896"},"vehicle_type_id":"4","last_reported":1727799047,"current_range_meters":20000,"station_id":"ce4bhp92rcd13ifvqhag","pricing_plan_id":"cebpf4jnsgd1na2vs0mg"},{"bike_id":"94cbd531-623b-4586-9159-a5f992c2d04e","system_id":"levelo_inurba_marseille","lat":43.28425,"lon":5.34984,"is_reserved":false,"is_disabled":false,"rental_uris":{"android":"levelo://app?vid=94cbd531-623b-4586-9159-a5f992c2d04e","ios":"levelo://app?vid=94cbd531-623b-4586-9159-a5f992c2d04e"},"vehicle_type_id":"4","last_reported":1727799047,"current_range_meters":11600,"station_id":"ce4bhbh2rcd13ifvqepg","pricing_plan_id":"cebpf4jnsgd1na2vs0mg"},{"bike_id":"22a5bbf8-57d1-4beb-b037-0ba05314f639","system_id":"levelo_inurba_marseille","lat":43.28464,"lon":5.35899,"is_reserved":false,"is_disabled":false,"rental_uris":{"android":"levelo://app?vid=22a5bbf8-57d1-4beb-b037-0ba05314f639","ios":"levelo://app?vid=22a5bbf8-57d1-4beb-b037-0ba05314f639"},"vehicle_type_id":"4","last_reported":1727799047,"current_range_meters":30400,"station_id":"ce4bhah2rcd13ifvqei0","pricing_plan_id":"cebpf4jnsgd1na2vs0mg"},{"bike_id":"d02732f0-a413-4720-a3bc-e52746670bfb","system_id":"levelo_inurba_marseille","lat":43.32289,"lon":5.38266,"is_reserved":false,"is_disabled":false,"rental_uris":{"android":"levelo://app?vid=d02732f0-a413-4720-a3bc-e52746670bfb","ios":"levelo://app?vid=d02732f0-a413-4720-a3bc-e52746670bfb"},"vehicle_type_id":"4","last_reported":1727799047,"current_range_meters":27200,"station_id":"ce4bhr12rcd13ifvqhqg","pricing_plan_id":"cebpf4jnsgd1na2vs0mg"},{"bike_id":"794096cd-50de-43a6-b34e-d6ff809641c6","system_id":"levelo_inurba_marseille","lat":43.27373,"lon":5.36265,"is_reserved":false,"is_disabled":false,"rental_uris":{"android":"levelo://app?vid=794096cd-50de-43a6-b34e-d6ff809641c6","ios":"levelo://app?vid=794096cd-50de-43a6-b34e-d6ff809641c6"},"vehicle_type_id":"4","last_reported":1727799047,"current_range_meters":28400,"station_id":"ce4bhbh2rcd13ifvqeo0","pricing_plan_id":"cebpf4jnsgd1na2vs0mg"},{"bike_id":"41b01448-1cac-4a6e-9774-cc2339f7d881","system_id":"levelo_inurba_marseille","lat":43.337205,"lon":5.391826,"is_reserved":false,"is_disabled":false,"rental_uris":{"android":"levelo://app?vid=41b01448-1cac-4a6e-9774-cc2339f7d881","ios":"levelo://app?vid=41b01448-1cac-4a6e-9774-cc2339f7d881"},"vehicle_type_id":"4","last_reported":1727799047,"current_range_meters":8800,"station_id":"ce4bhr92rcd13ifvqhsg","pricing_plan_id":"cebpf4jnsgd1na2vs0mg"},{"bike_id":"7a58c2c8-50c0-4818-855c-4b86297baff1","system_id":"levelo_inurba_marseille","lat":43.337444,"lon":5.374475,"is_reserved":false,"is_disabled":false,"rental_uris":{"android":"levelo://app?vid=7a58c2c8-50c0-4818-855c-4b86297baff1","ios":"levelo://app?vid=7a58c2c8-50c0-4818-855c-4b86297baff1"},"vehicle_type_id":"4","last_reported":1727799047,"current_range_meters":31200,"station_id":"","pricing_plan_id":"cebpf4jnsgd1na2vs0mg"},{"bike_id":"ed64f90e-14e5-49aa-a151-38d53d671eb0","system_id":"levelo_inurba_marseille","lat":43.26781,"lon":5.39421,"is_reserved":false,"is_disabled":false,"rental_uris":{"android":"levelo://app?vid=ed64f90e-14e5-49aa-a151-38d53d671eb0","ios":"levelo://app?vid=ed64f90e-14e5-49aa-a151-38d53d671eb0"},"vehicle_type_id":"4","last_reported":1727799047,"current_range_meters":38400,"station_id":"ce4bhh12rcd13ifvqfg0","pricing_plan_id":"cebpf4jnsgd1na2vs0mg"},{"bike_id":"d280d4b9-312f-44ae-b9b4-15d1b49e584b","system_id":"levelo_inurba_marseille","lat":43.28271,"lon":5.3507,"is_reserved":false,"is_disabled":false,"rental_uris":{"android":"levelo://app?vid=d280d4b9-312f-44ae-b9b4-15d1b49e584b","ios":"levelo://app?vid=d280d4b9-312f-44ae-b9b4-15d1b49e584b"},"vehicle_type_id":"4","last_reported":1727799047,"current_range_meters":8800,"station_id":"ce4bhgh2rcd13ifvqfa0","pricing_plan_id":"cebpf4jnsgd1na2vs0mg"},{"bike_id":"263be8cc-67e1-4e4b-9818-683f5018a339","system_id":"levelo_inurba_marseille","lat":43.32107,"lon":5.36773,"is_reserved":false,"is_disabled":false,"rental_uris":{"android":"levelo://app?vid=263be8cc-67e1-4e4b-9818-683f5018a339","ios":"levelo://app?vid=263be8cc-67e1-4e4b-9818-683f5018a339"},"vehicle_type_id":"4","last_reported":1727799047,"current_range_meters":30400,"station_id":"ce4bhrh2rcd13ifvqhug","pricing_plan_id":"cebpf4jnsgd1na2vs0mg"},{"bike_id":"3987eb80-64db-430c-96c1-a3f87f993454","system_id":"levelo_inurba_marseille","lat":43.29424,"lon":5.38623,"is_reserved":false,"is_disabled":false,"rental_uris":{"android":"levelo://app?vid=3987eb80-64db-430c-96c1-a3f87f993454","ios":"levelo://app?vid=3987eb80-64db-430c-96c1-a3f87f993454"},"vehicle_type_id":"4","last_reported":1727799047,"current_range_meters":26800,"station_id":"ce4bh2h2rcd13ifvqdh0","pricing_plan_id":"cebpf4jnsgd1na2vs0mg"},{"bike_id":"b0c9bed0-5ad2-4173-a477-4f89242256aa","system_id":"levelo_inurba_marseille","lat":43.2781,"lon":5.40712,"is_reserved":false,"is_disabled":false,"rental_uris":{"android":"levelo://app?vid=b0c9bed0-5ad2-4173-a477-4f89242256aa","ios":"levelo://app?vid=b0c9bed0-5ad2-4173-a477-4f89242256aa"},"vehicle_type_id":"4","last_reported":1727799047,"current_range_meters":20400,"station_id":"ce4bhnh2rcd13ifvqgtg","pricing_plan_id":"cebpf4jnsgd1na2vs0mg"},{"bike_id":"501bffc8-3e38-44ba-b2e7-3e34a6aa3b00","system_id":"levelo_inurba_marseille","lat":43.2962,"lon":5.37153,"is_reserved":false,"is_disabled":false,"rental_uris":{"android":"levelo://app?vid=501bffc8-3e38-44ba-b2e7-3e34a6aa3b00","ios":"levelo://app?vid=501bffc8-3e38-44ba-b2e7-3e34a6aa3b00"},"vehicle_type_id":"4","last_reported":1727799047,"current_range_meters":28000,"station_id":"ce4bgnh2rcd13ifvqc0g","pricing_plan_id":"cebpf4jnsgd1na2vs0mg"},{"bike_id":"25aa29b7-b593-4981-aa84-efd28f755882","system_id":"levelo_inurba_marseille","lat":43.2293,"lon":5.35373,"is_reserved":false,"is_disabled":false,"rental_uris":{"android":"levelo://app?vid=25aa29b7-b593-4981-aa84-efd28f755882","ios":"levelo://app?vid=25aa29b7-b593-4981-aa84-efd28f755882"},"vehicle_type_id":"4","last_reported":1727799047,"current_range_meters":29600,"station_id":"cpo3532slgdg3j2ikp40","pricing_plan_id":"cebpf4jnsgd1na2vs0mg"},{"bike_id":"a1de05c1-82b2-4d55-a73a-aff75d468430","system_id":"levelo_inurba_marseille","lat":43.29797,"lon":5.39351,"is_reserved":false,"is_disabled":false,"rental_uris":{"android":"levelo://app?vid=a1de05c1-82b2-4d55-a73a-aff75d468430","ios":"levelo://app?vid=a1de05c1-82b2-4d55-a73a-aff75d468430"},"vehicle_type_id":"4","last_reported":1727799047,"current_range_meters":4800,"station_id":"chh1huq6cuj3fo74tm60","pricing_plan_id":"cebpf4jnsgd1na2vs0mg"},{"bike_id":"b7a75d39-7de2-45b7-9a7f-76b26f7a01b8","system_id":"levelo_inurba_marseille","lat":43.32608,"lon":5.37507,"is_reserved":false,"is_disabled":false,"rental_uris":{"android":"levelo://app?vid=b7a75d39-7de2-45b7-9a7f-76b26f7a01b8","ios":"levelo://app?vid=b7a75d39-7de2-45b7-9a7f-76b26f7a01b8"},"vehicle_type_id":"4","last_reported":1727799047,"current_range_meters":36400,"station_id":"ce4bguh2rcd13ifvqckg","pricing_plan_id":"cebpf4jnsgd1na2vs0mg"},{"bike_id":"e0cba977-d09b-4bc9-a3e2-34242cd8fccf","system_id":"levelo_inurba_marseille","lat":43.29532,"lon":5.38555,"is_reserved":false,"is_disabled":false,"rental_uris":{"android":"levelo://app?vid=e0cba977-d09b-4bc9-a3e2-34242cd8fccf","ios":"levelo://app?vid=e0cba977-d09b-4bc9-a3e2-34242cd8fccf"},"vehicle_type_id":"4","last_reported":1727799047,"current_range_meters":9600,"station_id":"ce4bgih2rcd13ifvqba0","pricing_plan_id":"cebpf4jnsgd1na2vs0mg"},{"bike_id":"94972315-106f-4fa4-bbd3-4cc1321f6881","system_id":"levelo_inurba_marseille","lat":43.28711,"lon":5.39996,"is_reserved":false,"is_disabled":false,"rental_uris":{"android":"levelo://app?vid=94972315-106f-4fa4-bbd3-4cc1321f6881","ios":"levelo://app?vid=94972315-106f-4fa4-bbd3-4cc1321f6881"},"vehicle_type_id":"4","last_reported":1727799047,"current_range_meters":35200,"station_id":"ce4bho92rcd13ifvqh3g","pricing_plan_id":"cebpf4jnsgd1na2vs0mg"},{"bike_id":"508058b4-8bd9-4912-939e-09a5fad199ae","system_id":"levelo_inurba_marseille","lat":43.2782,"lon":5.4071,"is_reserved":false,"is_disabled":false,"rental_uris":{"android":"levelo://app?vid=508058b4-8bd9-4912-939e-09a5fad199ae","ios":"levelo://app?vid=508058b4-8bd9-4912-939e-09a5fad199ae"},"vehicle_type_id":"4","last_reported":1727799047,"current_range_meters":36800,"station_id":"ce4bhnh2rcd13ifvqgtg","pricing_plan_id":"cebpf4jnsgd1na2vs0mg"},{"bike_id":"e35aa45b-6d44-4f18-86d8-2a42ba83ff54","system_id":"levelo_inurba_marseille","lat":43.29901,"lon":5.43674,"is_reserved":false,"is_disabled":false,"rental_uris":{"android":"levelo://app?vid=e35aa45b-6d44-4f18-86d8-2a42ba83ff54","ios":"levelo://app?vid=e35aa45b-6d44-4f18-86d8-2a42ba83ff54"},"vehicle_type_id":"4","last_reported":1727799047,"current_range_meters":18000,"station_id":"ce4bhpp2rcd13ifvqhfg","pricing_plan_id":"cebpf4jnsgd1na2vs0mg"},{"bike_id":"cea8767f-038d-456a-b8be-d136b88f9345","system_id":"levelo_inurba_marseille","lat":43.26942,"lon":5.40262,"is_reserved":false,"is_disabled":false,"rental_uris":{"android":"levelo://app?vid=cea8767f-038d-456a-b8be-d136b88f9345","ios":"levelo://app?vid=cea8767f-038d-456a-b8be-d136b88f9345"},"vehicle_type_id":"4","last_reported":1727799047,"current_range_meters":19200,"station_id":"cjm6bp8fraef2m0cb0m0","pricing_plan_id":"cebpf4jnsgd1na2vs0mg"},{"bike_id":"062d4886-ceaf-4e33-98f8-ec162b2a0702","system_id":"levelo_inurba_marseille","lat":43.26505,"lon":5.39536,"is_reserved":false,"is_disabled":false,"rental_uris":{"android":"levelo://app?vid=062d4886-ceaf-4e33-98f8-ec162b2a0702","ios":"levelo://app?vid=062d4886-ceaf-4e33-98f8-ec162b2a0702"},"vehicle_type_id":"4","last_reported":1727799047,"current_range_meters":4800,"station_id":"ce4bhi12rcd13ifvqfq0","pricing_plan_id":"cebpf4jnsgd1na2vs0mg"},{"bike_id":"8c7fd87d-57d6-40ee-99b1-d4c6be3b34bd","system_id":"levelo_inurba_marseille","lat":43.26554,"lon":5.37285,"is_reserved":false,"is_disabled":false,"rental_uris":{"android":"levelo://app?vid=8c7fd87d-57d6-40ee-99b1-d4c6be3b34bd","ios":"levelo://app?vid=8c7fd87d-57d6-40ee-99b1-d4c6be3b34bd"},"vehicle_type_id":"4","last_reported":1727799047,"current_range_meters":24800,"station_id":"ce4bhg12rcd13ifvqf70","pricing_plan_id":"cebpf4jnsgd1na2vs0mg"},{"bike_id":"0306418a-ecd7-471e-be8c-81f7ec244baf","system_id":"levelo_inurba_marseille","lat":43.31085,"lon":5.42426,"is_reserved":false,"is_disabled":false,"rental_uris":{"android":"levelo://app?vid=0306418a-ecd7-471e-be8c-81f7ec244baf","ios":"levelo://app?vid=0306418a-ecd7-471e-be8c-81f7ec244baf"},"vehicle_type_id":"4","last_reported":1727799047,"current_range_meters":36000,"station_id":"ce4bhp92rcd13ifvqhag","pricing_plan_id":"cebpf4jnsgd1na2vs0mg"},{"bike_id":"3a1842bf-b52d-4835-97b1-9c30914f4aed","system_id":"levelo_inurba_marseille","lat":43.31082,"lon":5.42429,"is_reserved":false,"is_disabled":false,"rental_uris":{"android":"levelo://app?vid=3a1842bf-b52d-4835-97b1-9c30914f4aed","ios":"levelo://app?vid=3a1842bf-b52d-4835-97b1-9c30914f4aed"},"vehicle_type_id":"4","last_reported":1727799047,"current_range_meters":28000,"station_id":"ce4bhp92rcd13ifvqhag","pricing_plan_id":"cebpf4jnsgd1na2vs0mg"},{"bike_id":"2f72d8b5-87e5-41ce-8bf5-2a01555553a2","system_id":"levelo_inurba_marseille","lat":43.278112,"lon":5.407152,"is_reserved":false,"is_disabled":false,"rental_uris":{"android":"levelo://app?vid=2f72d8b5-87e5-41ce-8bf5-2a01555553a2","ios":"levelo://app?vid=2f72d8b5-87e5-41ce-8bf5-2a01555553a2"},"vehicle_type_id":"4","last_reported":1727799047,"current_range_meters":33600,"station_id":"ce4bhnh2rcd13ifvqgtg","pricing_plan_id":"cebpf4jnsgd1na2vs0mg"},{"bike_id":"9097c5b4-c95b-4ebc-bf51-bf107acb0d55","system_id":"levelo_inurba_marseille","lat":43.26555,"lon":5.37285,"is_reserved":false,"is_disabled":false,"rental_uris":{"android":"levelo://app?vid=9097c5b4-c95b-4ebc-bf51-bf107acb0d55","ios":"levelo://app?vid=9097c5b4-c95b-4ebc-bf51-bf107acb0d55"},"vehicle_type_id":"4","last_reported":1727799047,"current_range_meters":31200,"station_id":"ce4bhg12rcd13ifvqf70","pricing_plan_id":"cebpf4jnsgd1na2vs0mg"},{"bike_id":"d6ce48fa-dfa2-42ca-a784-49a522d2db86","system_id":"levelo_inurba_marseille","lat":43.26558,"lon":5.37286,"is_reserved":false,"is_disabled":false,"rental_uris":{"android":"levelo://app?vid=d6ce48fa-dfa2-42ca-a784-49a522d2db86","ios":"levelo://app?vid=d6ce48fa-dfa2-42ca-a784-49a522d2db86"},"vehicle_type_id":"4","last_reported":1727799047,"current_range_meters":31200,"station_id":"ce4bhg12rcd13ifvqf70","pricing_plan_id":"cebpf4jnsgd1na2vs0mg"},{"bike_id":"c3effa3d-84a1-4d03-bff2-de88ef89ec7e","system_id":"levelo_inurba_marseille","lat":43.29884,"lon":5.38922,"is_reserved":false,"is_disabled":false,"rental_uris":{"android":"levelo://app?vid=c3effa3d-84a1-4d03-bff2-de88ef89ec7e","ios":"levelo://app?vid=c3effa3d-84a1-4d03-bff2-de88ef89ec7e"},"vehicle_type_id":"4","last_reported":1727799047,"current_range_meters":34000,"station_id":"ce4bh392rcd13ifvqdl0","pricing_plan_id":"cebpf4jnsgd1na2vs0mg"},{"bike_id":"a3bb5cfe-0a37-4de6-ab68-cdfeaabac780","system_id":"levelo_inurba_marseille","lat":43.32488,"lon":5.36575,"is_reserved":false,"is_disabled":false,"rental_uris":{"android":"levelo://app?vid=a3bb5cfe-0a37-4de6-ab68-cdfeaabac780","ios":"levelo://app?vid=a3bb5cfe-0a37-4de6-ab68-cdfeaabac780"},"vehicle_type_id":"4","last_reported":1727799047,"current_range_meters":38000,"station_id":"ce4bhs12rcd13ifvqhvg","pricing_plan_id":"cebpf4jnsgd1na2vs0mg"},{"bike_id":"4c52ae61-4d55-4879-9a90-246e25fed59e","system_id":"levelo_inurba_marseille","lat":43.26028,"lon":5.37545,"is_reserved":false,"is_disabled":false,"rental_uris":{"android":"levelo://app?vid=4c52ae61-4d55-4879-9a90-246e25fed59e","ios":"levelo://app?vid=4c52ae61-4d55-4879-9a90-246e25fed59e"},"vehicle_type_id":"4","last_reported":1727799047,"current_range_meters":38800,"station_id":"ce4bhgh2rcd13ifvqfa0","pricing_plan_id":"cebpf4jnsgd1na2vs0mg"},{"bike_id":"fad2a27a-5548-466f-b605-c63931da28cf","system_id":"levelo_inurba_marseille","lat":43.25583,"lon":5.38232,"is_reserved":false,"is_disabled":false,"rental_uris":{"android":"levelo://app?vid=fad2a27a-5548-466f-b605-c63931da28cf","ios":"levelo://app?vid=fad2a27a-5548-466f-b605-c63931da28cf"},"vehicle_type_id":"4","last_reported":1727799047,"current_range_meters":22000,"station_id":"ce4bhih2rcd13ifvqfs0","pricing_plan_id":"cebpf4jnsgd1na2vs0mg"},{"bike_id":"057e1637-4dc2-407e-a8c6-4bf0e4c34c8e","system_id":"levelo_inurba_marseille","lat":43.31368,"lon":5.38496,"is_reserved":false,"is_disabled":false,"rental_uris":{"android":"levelo://app?vid=057e1637-4dc2-407e-a8c6-4bf0e4c34c8e","ios":"levelo://app?vid=057e1637-4dc2-407e-a8c6-4bf0e4c34c8e"},"vehicle_type_id":"4","last_reported":1727799047,"current_range_meters":12800,"station_id":"ce4bgt92rcd13ifvqcf0","pricing_plan_id":"cebpf4jnsgd1na2vs0mg"},{"bike_id":"cf64f159-6061-44b5-befb-5570d1cf9ab3","system_id":"levelo_inurba_marseille","lat":43.313049,"lon":5.385214,"is_reserved":false,"is_disabled":false,"rental_uris":{"android":"levelo://app?vid=cf64f159-6061-44b5-befb-5570d1cf9ab3","ios":"levelo://app?vid=cf64f159-6061-44b5-befb-5570d1cf9ab3"},"vehicle_type_id":"4","last_reported":1727799047,"current_range_meters":34800,"station_id":"ce4bgt92rcd13ifvqcf0","pricing_plan_id":"cebpf4jnsgd1na2vs0mg"},{"bike_id":"7a13c8e8-5e05-49c3-acf3-3fe1b6b25181","system_id":"levelo_inurba_marseille","lat":43.27816,"lon":5.40713,"is_reserved":false,"is_disabled":false,"rental_uris":{"android":"levelo://app?vid=7a13c8e8-5e05-49c3-acf3-3fe1b6b25181","ios":"levelo://app?vid=7a13c8e8-5e05-49c3-acf3-3fe1b6b25181"},"vehicle_type_id":"4","last_reported":1727799047,"current_range_meters":4800,"station_id":"ce4bhnh2rcd13ifvqgtg","pricing_plan_id":"cebpf4jnsgd1na2vs0mg"},{"bike_id":"247f5254-159c-4002-a8b9-07cae5d48998","system_id":"levelo_inurba_marseille","lat":43.31488,"lon":5.37309,"is_reserved":false,"is_disabled":false,"rental_uris":{"android":"levelo://app?vid=247f5254-159c-4002-a8b9-07cae5d48998","ios":"levelo://app?vid=247f5254-159c-4002-a8b9-07cae5d48998"},"vehicle_type_id":"4","last_reported":1727799047,"current_range_meters":30800,"station_id":"ce4bgk12rcd13ifvqbi0","pricing_plan_id":"cebpf4jnsgd1na2vs0mg"},{"bike_id":"18b871ec-9aec-4b24-9764-48ec44465200","system_id":"levelo_inurba_marseille","lat":43.30883,"lon":5.39654,"is_reserved":false,"is_disabled":false,"rental_uris":{"android":"levelo://app?vid=18b871ec-9aec-4b24-9764-48ec44465200","ios":"levelo://app?vid=18b871ec-9aec-4b24-9764-48ec44465200"},"vehicle_type_id":"4","last_reported":1727799047,"current_range_meters":16400,"station_id":"ce4bh012rcd13ifvqcv0","pricing_plan_id":"cebpf4jnsgd1na2vs0mg"},{"bike_id":"e43dacaa-a306-4612-a4db-fcdf69bc34af","system_id":"levelo_inurba_marseille","lat":43.2958,"lon":5.36737,"is_reserved":false,"is_disabled":false,"rental_uris":{"android":"levelo://app?vid=e43dacaa-a306-4612-a4db-fcdf69bc34af","ios":"levelo://app?vid=e43dacaa-a306-4612-a4db-fcdf69bc34af"},"vehicle_type_id":"4","last_reported":1727799047,"current_range_meters":33200,"station_id":"ce4bgph2rcd13ifvqc2g","pricing_plan_id":"cebpf4jnsgd1na2vs0mg"},{"bike_id":"7de9b36e-0b9d-4eaa-8ff9-0758ee75ad4b","system_id":"levelo_inurba_marseille","lat":43.27165,"lon":5.36272,"is_reserved":false,"is_disabled":false,"rental_uris":{"android":"levelo://app?vid=7de9b36e-0b9d-4eaa-8ff9-0758ee75ad4b","ios":"levelo://app?vid=7de9b36e-0b9d-4eaa-8ff9-0758ee75ad4b"},"vehicle_type_id":"4","last_reported":1727799047,"current_range_meters":6800,"station_id":"","pricing_plan_id":"cebpf4jnsgd1na2vs0mg"},{"bike_id":"5dd7aa78-3541-47fd-bf46-614cf18f5597","system_id":"levelo_inurba_marseille","lat":43.3266,"lon":5.40988,"is_reserved":false,"is_disabled":false,"rental_uris":{"android":"levelo://app?vid=5dd7aa78-3541-47fd-bf46-614cf18f5597","ios":"levelo://app?vid=5dd7aa78-3541-47fd-bf46-614cf18f5597"},"vehicle_type_id":"4","last_reported":1727799047,"current_range_meters":36400,"station_id":"ce4bhpp2rcd13ifvqhgg","pricing_plan_id":"cebpf4jnsgd1na2vs0mg"},{"bike_id":"182f0c96-cd2b-478a-8f27-6536083f01e6","system_id":"levelo_inurba_marseille","lat":43.31073,"lon":5.38356,"is_reserved":false,"is_disabled":false,"rental_uris":{"android":"levelo://app?vid=182f0c96-cd2b-478a-8f27-6536083f01e6","ios":"levelo://app?vid=182f0c96-cd2b-478a-8f27-6536083f01e6"},"vehicle_type_id":"4","last_reported":1727799047,"current_range_meters":14400,"station_id":"ce4bgv92rcd13ifvqcr0","pricing_plan_id":"cebpf4jnsgd1na2vs0mg"},{"bike_id":"0da8fe58-6296-4f1b-b8b8-14716687e0b4","system_id":"levelo_inurba_marseille","lat":43.31329,"lon":5.39688,"is_reserved":false,"is_disabled":false,"rental_uris":{"android":"levelo://app?vid=0da8fe58-6296-4f1b-b8b8-14716687e0b4","ios":"levelo://app?vid=0da8fe58-6296-4f1b-b8b8-14716687e0b4"},"vehicle_type_id":"4","last_reported":1727799047,"current_range_meters":36800,"station_id":"ce4bgvp2rcd13ifvqcu0","pricing_plan_id":"cebpf4jnsgd1na2vs0mg"},{"bike_id":"e45cfc9d-1868-4ccb-b27f-ade89bfb39de","system_id":"levelo_inurba_marseille","lat":43.33021,"lon":5.3907,"is_reserved":false,"is_disabled":false,"rental_uris":{"android":"levelo://app?vid=e45cfc9d-1868-4ccb-b27f-ade89bfb39de","ios":"levelo://app?vid=e45cfc9d-1868-4ccb-b27f-ade89bfb39de"},"vehicle_type_id":"4","last_reported":1727799047,"current_range_meters":7200,"station_id":"ce4bhr92rcd13ifvqhrg","pricing_plan_id":"cebpf4jnsgd1na2vs0mg"},{"bike_id":"8b523086-81ab-4c51-b3d8-9140a1d66961","system_id":"levelo_inurba_marseille","lat":43.30542,"lon":5.36708,"is_reserved":false,"is_disabled":false,"rental_uris":{"android":"levelo://app?vid=8b523086-81ab-4c51-b3d8-9140a1d66961","ios":"levelo://app?vid=8b523086-81ab-4c51-b3d8-9140a1d66961"},"vehicle_type_id":"4","last_reported":1727799047,"current_range_meters":30400,"station_id":"ce4bgrp2rcd13ifvqc9g","pricing_plan_id":"cebpf4jnsgd1na2vs0mg"},{"bike_id":"e686463a-e293-4038-b17c-9ccadabf5984","system_id":"levelo_inurba_marseille","lat":43.29897,"lon":5.43659,"is_reserved":false,"is_disabled":false,"rental_uris":{"android":"levelo://app?vid=e686463a-e293-4038-b17c-9ccadabf5984","ios":"levelo://app?vid=e686463a-e293-4038-b17c-9ccadabf5984"},"vehicle_type_id":"4","last_reported":1727799047,"current_range_meters":38800,"station_id":"ce4bhpp2rcd13ifvqhfg","pricing_plan_id":"cebpf4jnsgd1na2vs0mg"},{"bike_id":"482b0bc8-7568-4c22-9ef5-b92953bff1eb","system_id":"levelo_inurba_marseille","lat":43.29613,"lon":5.38108,"is_reserved":false,"is_disabled":false,"rental_uris":{"android":"levelo://app?vid=482b0bc8-7568-4c22-9ef5-b92953bff1eb","ios":"levelo://app?vid=482b0bc8-7568-4c22-9ef5-b92953bff1eb"},"vehicle_type_id":"4","last_reported":1727799047,"current_range_meters":39200,"station_id":"ce4bgl12rcd13ifvqbo0","pricing_plan_id":"cebpf4jnsgd1na2vs0mg"},{"bike_id":"ab88eecf-92e1-445d-bdc1-5958adc18713","system_id":"levelo_inurba_marseille","lat":43.31078,"lon":5.38355,"is_reserved":false,"is_disabled":false,"rental_uris":{"android":"levelo://app?vid=ab88eecf-92e1-445d-bdc1-5958adc18713","ios":"levelo://app?vid=ab88eecf-92e1-445d-bdc1-5958adc18713"},"vehicle_type_id":"4","last_reported":1727799047,"current_range_meters":20000,"station_id":"ce4bgv92rcd13ifvqcr0","pricing_plan_id":"cebpf4jnsgd1na2vs0mg"},{"bike_id":"1d05b0b4-af98-4510-818a-a6669f49b82a","system_id":"levelo_inurba_marseille","lat":43.2396,"lon":5.36633,"is_reserved":false,"is_disabled":false,"rental_uris":{"android":"levelo://app?vid=1d05b0b4-af98-4510-818a-a6669f49b82a","ios":"levelo://app?vid=1d05b0b4-af98-4510-818a-a6669f49b82a"},"vehicle_type_id":"4","last_reported":1727799047,"current_range_meters":18800,"station_id":"ce4bhi12rcd13ifvqfp0","pricing_plan_id":"cebpf4jnsgd1na2vs0mg"},{"bike_id":"ccaec05e-43ac-47b3-9132-4b0c5bbf4118","system_id":"levelo_inurba_marseille","lat":43.27621,"lon":5.36109,"is_reserved":false,"is_disabled":false,"rental_uris":{"android":"levelo://app?vid=ccaec05e-43ac-47b3-9132-4b0c5bbf4118","ios":"levelo://app?vid=ccaec05e-43ac-47b3-9132-4b0c5bbf4118"},"vehicle_type_id":"4","last_reported":1727799047,"current_range_meters":20000,"station_id":"ce4bgj92rcd13ifvqbe0","pricing_plan_id":"cebpf4jnsgd1na2vs0mg"},{"bike_id":"1d0014bd-414d-49f3-abd6-8d86855ee22e","system_id":"levelo_inurba_marseille","lat":43.26556,"lon":5.37293,"is_reserved":false,"is_disabled":false,"rental_uris":{"android":"levelo://app?vid=1d0014bd-414d-49f3-abd6-8d86855ee22e","ios":"levelo://app?vid=1d0014bd-414d-49f3-abd6-8d86855ee22e"},"vehicle_type_id":"4","last_reported":1727799047,"current_range_meters":38400,"station_id":"ce4bhg12rcd13ifvqf70","pricing_plan_id":"cebpf4jnsgd1na2vs0mg"},{"bike_id":"b61a696b-ec15-4123-9032-a5302df55e25","system_id":"levelo_inurba_marseille","lat":43.33662,"lon":5.37882,"is_reserved":false,"is_disabled":false,"rental_uris":{"android":"levelo://app?vid=b61a696b-ec15-4123-9032-a5302df55e25","ios":"levelo://app?vid=b61a696b-ec15-4123-9032-a5302df55e25"},"vehicle_type_id":"4","last_reported":1727799047,"current_range_meters":20000,"station_id":"","pricing_plan_id":"cebpf4jnsgd1na2vs0mg"},{"bike_id":"9af438d8-ea96-4304-9304-ec5db6708793","system_id":"levelo_inurba_marseille","lat":43.25728,"lon":5.41107,"is_reserved":false,"is_disabled":false,"rental_uris":{"android":"levelo://app?vid=9af438d8-ea96-4304-9304-ec5db6708793","ios":"levelo://app?vid=9af438d8-ea96-4304-9304-ec5db6708793"},"vehicle_type_id":"4","last_reported":1727799047,"current_range_meters":12000,"station_id":"ce4bhkp2rcd13ifvqgd0","pricing_plan_id":"cebpf4jnsgd1na2vs0mg"},{"bike_id":"82819c5d-69be-4be5-b580-190ac46a0a9b","system_id":"levelo_inurba_marseille","lat":43.28463,"lon":5.35902,"is_reserved":false,"is_disabled":false,"rental_uris":{"android":"levelo://app?vid=82819c5d-69be-4be5-b580-190ac46a0a9b","ios":"levelo://app?vid=82819c5d-69be-4be5-b580-190ac46a0a9b"},"vehicle_type_id":"4","last_reported":1727799047,"current_range_meters":22800,"station_id":"ce4bhah2rcd13ifvqei0","pricing_plan_id":"cebpf4jnsgd1na2vs0mg"},{"bike_id":"b9de4c44-f9c2-449a-a4ca-1fe5ba51e989","system_id":"levelo_inurba_marseille","lat":43.28722,"lon":5.36095,"is_reserved":false,"is_disabled":false,"rental_uris":{"android":"levelo://app?vid=b9de4c44-f9c2-449a-a4ca-1fe5ba51e989","ios":"levelo://app?vid=b9de4c44-f9c2-449a-a4ca-1fe5ba51e989"},"vehicle_type_id":"4","last_reported":1727799047,"current_range_meters":6800,"station_id":"cki0cbj6b192h4jlfktg","pricing_plan_id":"cebpf4jnsgd1na2vs0mg"},{"bike_id":"291c8646-4f09-4942-b77f-32c255c38fd4","system_id":"levelo_inurba_marseille","lat":43.23188,"lon":5.3998,"is_reserved":false,"is_disabled":false,"rental_uris":{"android":"levelo://app?vid=291c8646-4f09-4942-b77f-32c255c38fd4","ios":"levelo://app?vid=291c8646-4f09-4942-b77f-32c255c38fd4"},"vehicle_type_id":"4","last_reported":1727799047,"current_range_meters":7200,"station_id":"ce4bhn12rcd13ifvqgqg","pricing_plan_id":"cebpf4jnsgd1na2vs0mg"},{"bike_id":"a16a29b5-9304-412c-b347-a302501cad9e","system_id":"levelo_inurba_marseille","lat":43.31444,"lon":5.37376,"is_reserved":false,"is_disabled":false,"rental_uris":{"android":"levelo://app?vid=a16a29b5-9304-412c-b347-a302501cad9e","ios":"levelo://app?vid=a16a29b5-9304-412c-b347-a302501cad9e"},"vehicle_type_id":"4","last_reported":1727799047,"current_range_meters":34000,"station_id":"","pricing_plan_id":"cebpf4jnsgd1na2vs0mg"},{"bike_id":"528263ab-2814-4a72-ab99-44da30eeb71c","system_id":"levelo_inurba_marseille","lat":43.28466,"lon":5.35892,"is_reserved":false,"is_disabled":false,"rental_uris":{"android":"levelo://app?vid=528263ab-2814-4a72-ab99-44da30eeb71c","ios":"levelo://app?vid=528263ab-2814-4a72-ab99-44da30eeb71c"},"vehicle_type_id":"4","last_reported":1727799047,"current_range_meters":17200,"station_id":"ce4bhah2rcd13ifvqei0","pricing_plan_id":"cebpf4jnsgd1na2vs0mg"},{"bike_id":"9729c1cf-a0e1-4f34-96a0-05a54795439b","system_id":"levelo_inurba_marseille","lat":43.2512,"lon":5.40318,"is_reserved":false,"is_disabled":false,"rental_uris":{"android":"levelo://app?vid=9729c1cf-a0e1-4f34-96a0-05a54795439b","ios":"levelo://app?vid=9729c1cf-a0e1-4f34-96a0-05a54795439b"},"vehicle_type_id":"4","last_reported":1727799047,"current_range_meters":6800,"station_id":"ce4bhlh2rcd13ifvqgig","pricing_plan_id":"cebpf4jnsgd1na2vs0mg"},{"bike_id":"f8176ed0-c694-4981-bec2-515f4610b6cd","system_id":"levelo_inurba_marseille","lat":43.28676,"lon":5.38669,"is_reserved":false,"is_disabled":false,"rental_uris":{"android":"levelo://app?vid=f8176ed0-c694-4981-bec2-515f4610b6cd","ios":"levelo://app?vid=f8176ed0-c694-4981-bec2-515f4610b6cd"},"vehicle_type_id":"4","last_reported":1727799047,"current_range_meters":25600,"station_id":"ce4bh492rcd13ifvqdug","pricing_plan_id":"cebpf4jnsgd1na2vs0mg"},{"bike_id":"4054e5a4-b10e-45bc-bf9a-7c788c50ea31","system_id":"levelo_inurba_marseille","lat":43.27389,"lon":5.36258,"is_reserved":false,"is_disabled":false,"rental_uris":{"android":"levelo://app?vid=4054e5a4-b10e-45bc-bf9a-7c788c50ea31","ios":"levelo://app?vid=4054e5a4-b10e-45bc-bf9a-7c788c50ea31"},"vehicle_type_id":"4","last_reported":1727799047,"current_range_meters":36800,"station_id":"ce4bhbh2rcd13ifvqeo0","pricing_plan_id":"cebpf4jnsgd1na2vs0mg"},{"bike_id":"32fb111f-453e-4b86-a362-d71076f83b66","system_id":"levelo_inurba_marseille","lat":43.22939,"lon":5.35377,"is_reserved":false,"is_disabled":false,"rental_uris":{"android":"levelo://app?vid=32fb111f-453e-4b86-a362-d71076f83b66","ios":"levelo://app?vid=32fb111f-453e-4b86-a362-d71076f83b66"},"vehicle_type_id":"4","last_reported":1727799047,"current_range_meters":8800,"station_id":"cpo3532slgdg3j2ikp40","pricing_plan_id":"cebpf4jnsgd1na2vs0mg"},{"bike_id":"38adad23-ea93-4637-acc3-137260487709","system_id":"levelo_inurba_marseille","lat":43.31529,"lon":5.38039,"is_reserved":false,"is_disabled":false,"rental_uris":{"android":"levelo://app?vid=38adad23-ea93-4637-acc3-137260487709","ios":"levelo://app?vid=38adad23-ea93-4637-acc3-137260487709"},"vehicle_type_id":"4","last_reported":1727799047,"current_range_meters":20800,"station_id":"ce4bhsp2rcd13ifvqi50","pricing_plan_id":"cebpf4jnsgd1na2vs0mg"},{"bike_id":"643971d3-b39e-44ce-b0ab-0dae49ca4d41","system_id":"levelo_inurba_marseille","lat":43.31759,"lon":5.39018,"is_reserved":false,"is_disabled":false,"rental_uris":{"android":"levelo://app?vid=643971d3-b39e-44ce-b0ab-0dae49ca4d41","ios":"levelo://app?vid=643971d3-b39e-44ce-b0ab-0dae49ca4d41"},"vehicle_type_id":"4","last_reported":1727799047,"current_range_meters":32400,"station_id":"ce4bhqp2rcd13ifvqhng","pricing_plan_id":"cebpf4jnsgd1na2vs0mg"},{"bike_id":"aa3d6fda-1036-4412-a324-492561f45dd3","system_id":"levelo_inurba_marseille","lat":43.28425,"lon":5.34982,"is_reserved":false,"is_disabled":false,"rental_uris":{"android":"levelo://app?vid=aa3d6fda-1036-4412-a324-492561f45dd3","ios":"levelo://app?vid=aa3d6fda-1036-4412-a324-492561f45dd3"},"vehicle_type_id":"4","last_reported":1727799047,"current_range_meters":38000,"station_id":"ce4bhbh2rcd13ifvqepg","pricing_plan_id":"cebpf4jnsgd1na2vs0mg"},{"bike_id":"f69da1ae-b901-48ef-93c4-7fdb3759883a","system_id":"levelo_inurba_marseille","lat":43.25091,"lon":5.39513,"is_reserved":false,"is_disabled":false,"rental_uris":{"android":"levelo://app?vid=f69da1ae-b901-48ef-93c4-7fdb3759883a","ios":"levelo://app?vid=f69da1ae-b901-48ef-93c4-7fdb3759883a"},"vehicle_type_id":"4","last_reported":1727799047,"current_range_meters":12400,"station_id":"ce4bhm12rcd13ifvqgkg","pricing_plan_id":"cebpf4jnsgd1na2vs0mg"},{"bike_id":"b0fa58cc-cbad-417b-8a28-ce5097117ceb","system_id":"levelo_inurba_marseille","lat":43.28036,"lon":5.36942,"is_reserved":false,"is_disabled":false,"rental_uris":{"android":"levelo://app?vid=b0fa58cc-cbad-417b-8a28-ce5097117ceb","ios":"levelo://app?vid=b0fa58cc-cbad-417b-8a28-ce5097117ceb"},"vehicle_type_id":"4","last_reported":1727799047,"current_range_meters":25200,"station_id":"ce4bha12rcd13ifvqef0","pricing_plan_id":"cebpf4jnsgd1na2vs0mg"},{"bike_id":"fd70c6f0-c78e-4680-b6a1-d9e489af59f2","system_id":"levelo_inurba_marseille","lat":43.28462,"lon":5.35886,"is_reserved":false,"is_disabled":false,"rental_uris":{"android":"levelo://app?vid=fd70c6f0-c78e-4680-b6a1-d9e489af59f2","ios":"levelo://app?vid=fd70c6f0-c78e-4680-b6a1-d9e489af59f2"},"vehicle_type_id":"4","last_reported":1727799047,"current_range_meters":22400,"station_id":"ce4bhah2rcd13ifvqei0","pricing_plan_id":"cebpf4jnsgd1na2vs0mg"},{"bike_id":"203ff254-7d7d-4721-ab07-572d2b35dfa6","system_id":"levelo_inurba_marseille","lat":43.32663,"lon":5.40991,"is_reserved":false,"is_disabled":false,"rental_uris":{"android":"levelo://app?vid=203ff254-7d7d-4721-ab07-572d2b35dfa6","ios":"levelo://app?vid=203ff254-7d7d-4721-ab07-572d2b35dfa6"},"vehicle_type_id":"4","last_reported":1727799047,"current_range_meters":10800,"station_id":"ce4bhpp2rcd13ifvqhgg","pricing_plan_id":"cebpf4jnsgd1na2vs0mg"},{"bike_id":"9c7507c2-bcd1-4cf0-b47e-9b2bb3935b3f","system_id":"levelo_inurba_marseille","lat":43.26683,"lon":5.38277,"is_reserved":false,"is_disabled":false,"rental_uris":{"android":"levelo://app?vid=9c7507c2-bcd1-4cf0-b47e-9b2bb3935b3f","ios":"levelo://app?vid=9c7507c2-bcd1-4cf0-b47e-9b2bb3935b3f"},"vehicle_type_id":"4","last_reported":1727799047,"current_range_meters":39200,"station_id":"ce4bhg92rcd13ifvqf90","pricing_plan_id":"cebpf4jnsgd1na2vs0mg"},{"bike_id":"cd84fa79-6767-4ba2-b4e0-f209c8381e89","system_id":"levelo_inurba_marseille","lat":43.28462,"lon":5.35886,"is_reserved":false,"is_disabled":false,"rental_uris":{"android":"levelo://app?vid=cd84fa79-6767-4ba2-b4e0-f209c8381e89","ios":"levelo://app?vid=cd84fa79-6767-4ba2-b4e0-f209c8381e89"},"vehicle_type_id":"4","last_reported":1727799047,"current_range_meters":12400,"station_id":"ce4bhah2rcd13ifvqei0","pricing_plan_id":"cebpf4jnsgd1na2vs0mg"},{"bike_id":"2b1904b0-e506-4e64-8335-0ebf92178247","system_id":"levelo_inurba_marseille","lat":43.26941,"lon":5.40259,"is_reserved":false,"is_disabled":false,"rental_uris":{"android":"levelo://app?vid=2b1904b0-e506-4e64-8335-0ebf92178247","ios":"levelo://app?vid=2b1904b0-e506-4e64-8335-0ebf92178247"},"vehicle_type_id":"4","last_reported":1727799047,"current_range_meters":8800,"station_id":"cjm6bp8fraef2m0cb0m0","pricing_plan_id":"cebpf4jnsgd1na2vs0mg"},{"bike_id":"d815864d-6893-4ca8-8a65-eb0361f95341","system_id":"levelo_inurba_marseille","lat":43.32117,"lon":5.36771,"is_reserved":false,"is_disabled":false,"rental_uris":{"android":"levelo://app?vid=d815864d-6893-4ca8-8a65-eb0361f95341","ios":"levelo://app?vid=d815864d-6893-4ca8-8a65-eb0361f95341"},"vehicle_type_id":"4","last_reported":1727799047,"current_range_meters":7200,"station_id":"ce4bhrh2rcd13ifvqhug","pricing_plan_id":"cebpf4jnsgd1na2vs0mg"},{"bike_id":"b7df63d3-b899-4c57-9e08-bab3818e5cfb","system_id":"levelo_inurba_marseille","lat":43.26825,"lon":5.41117,"is_reserved":false,"is_disabled":false,"rental_uris":{"android":"levelo://app?vid=b7df63d3-b899-4c57-9e08-bab3818e5cfb","ios":"levelo://app?vid=b7df63d3-b899-4c57-9e08-bab3818e5cfb"},"vehicle_type_id":"4","last_reported":1727799047,"current_range_meters":20800,"station_id":"","pricing_plan_id":"cebpf4jnsgd1na2vs0mg"},{"bike_id":"89fa48d9-0d35-4a2b-95f1-2f5082bd52ab","system_id":"levelo_inurba_marseille","lat":43.29888,"lon":5.38907,"is_reserved":false,"is_disabled":false,"rental_uris":{"android":"levelo://app?vid=89fa48d9-0d35-4a2b-95f1-2f5082bd52ab","ios":"levelo://app?vid=89fa48d9-0d35-4a2b-95f1-2f5082bd52ab"},"vehicle_type_id":"4","last_reported":1727799047,"current_range_meters":9200,"station_id":"ce4bh392rcd13ifvqdl0","pricing_plan_id":"cebpf4jnsgd1na2vs0mg"},{"bike_id":"c70a7ff4-9d8e-4ca9-9474-db05173e37f7","system_id":"levelo_inurba_marseille","lat":43.28465,"lon":5.35882,"is_reserved":false,"is_disabled":false,"rental_uris":{"android":"levelo://app?vid=c70a7ff4-9d8e-4ca9-9474-db05173e37f7","ios":"levelo://app?vid=c70a7ff4-9d8e-4ca9-9474-db05173e37f7"},"vehicle_type_id":"4","last_reported":1727799047,"current_range_meters":6400,"station_id":"ce4bhah2rcd13ifvqei0","pricing_plan_id":"cebpf4jnsgd1na2vs0mg"},{"bike_id":"21c41b4e-6a0d-4a3c-becd-8d956bd7211d","system_id":"levelo_inurba_marseille","lat":43.26807,"lon":5.40273,"is_reserved":false,"is_disabled":false,"rental_uris":{"android":"levelo://app?vid=21c41b4e-6a0d-4a3c-becd-8d956bd7211d","ios":"levelo://app?vid=21c41b4e-6a0d-4a3c-becd-8d956bd7211d"},"vehicle_type_id":"4","last_reported":1727799047,"current_range_meters":6400,"station_id":"ce501612rcd8frsf0b60","pricing_plan_id":"cebpf4jnsgd1na2vs0mg"},{"bike_id":"3b3c1c67-f355-423f-b2f8-2f57c675f48a","system_id":"levelo_inurba_marseille","lat":43.299585,"lon":5.413176,"is_reserved":false,"is_disabled":false,"rental_uris":{"android":"levelo://app?vid=3b3c1c67-f355-423f-b2f8-2f57c675f48a","ios":"levelo://app?vid=3b3c1c67-f355-423f-b2f8-2f57c675f48a"},"vehicle_type_id":"4","last_reported":1727799047,"current_range_meters":37600,"station_id":"ce4bhp12rcd13ifvqh9g","pricing_plan_id":"cebpf4jnsgd1na2vs0mg"},