{"last_updated":1726398386,"ttl":30,"version":"2.2","data":{"bikes":[{"bike_id":"a084d085-043f-4c8c-a597-c0982ab2119f","system_id":"levelo_inurba_marseille","lat":43.33013,"lon":5.39,"is_reserved":false,"is_disabled":false,"rental_uris":{"android":"levelo://app?vid=a084d085-043f-4c8c-a597-c0982ab2119f","ios":"levelo://app?vid=a084d085-043f-4c8c-a597-c0982ab2119f"},"vehicle_type_id":"4","last_reported":1726398386,"current_range_meters":28000,"station_id":"ce4bhr92rcd13ifvqhrg","pricing_plan_id":"cebpf4jnsgd1na2vs0mg"},{"bike_id":"da74842e-8b51-42a6-8c35-5d7d26dd14c1","system_id":"levelo_inurba_marseille","lat":43.31076,"lon":5.3836,"is_reserved":false,"is_disabled":false,"rental_uris":{"android":"levelo://app?vid=da74842e-8b51-42a6-8c35-5d7d26dd14c1","ios":"levelo://app?vid=da74842e-8b51-42a6-8c35-5d7d26dd14c1"},"vehicle_type_id":"4","last_reported":1726398386,"current_range_meters":37600,"station_id":"ce4bgv92rcd13ifvqcr0","pricing_plan_id":"cebpf4jnsgd1na2vs0mg"},{"bike_id":"fb2e67ee-a8f8-44ee-91af-62adc512c3fe","system_id":"levelo_inurba_marseille","lat":43.292267,"lon":5.360691,"is_reserved":false,"is_disabled":false,"rental_uris":{"android":"levelo://app?vid=fb2e67ee-a8f8-44ee-91af-62adc512c3fe","ios":"levelo://app?vid=fb2e67ee-a8f8-44ee-91af-62adc512c3fe"},"vehicle_type_id":"4","last_reported":1726398386,"current_range_meters":14000,"station_id":"ce4bgkh2rcd13ifvqbk0","pricing_plan_id":"cebpf4jnsgd1na2vs0mg"},{"bike_id":"056313ad-8265-4df1-b42f-640ec0ab3367","system_id":"levelo_inurba_marseille","lat":43.28423,"lon":5.34978,"is_reserved":false,"is_disabled":false,"rental_uris":{"android":"levelo://app?vid=056313ad-8265-4df1-b42f-640ec0ab3367","ios":"levelo://app?vid=056313ad-8265-4df1-b42f-640ec0ab3367"},"vehicle_type_id":"4","last_reported":1726398386,"current_range_meters":30400,"station_id":"ce4bhbh2rcd13ifvqepg","pricing_plan_id":"cebpf4jnsgd1na2vs0mg"},{"bike_id":"638bb11b-2a14-4dd9-a697-2b335a620802","system_id":"levelo_inurba_marseille","lat":43.27057,"lon":5.40256,"is_reserved":false,"is_disabled":false,"rental_uris":{"android":"levelo://app?vid=638bb11b-2a14-4dd9-a697-2b335a620802","ios":"levelo://app?vid=638bb11b-2a14-4dd9-a697-2b335a620802"},"vehicle_type_id":"4","last_reported":1726398386,"current_range_meters":26800,"station_id":"ce4bhk92rcd13ifvqgc0","pricing_plan_id":"cebpf4jnsgd1na2vs0mg"},{"bike_id":"41907fca-a52e-41d5-98d7-71f277307927","system_id":"levelo_inurba_marseille","lat":43.31294,"lon":5.37812,"is_reserved":false,"is_disabled":false,"rental_uris":{"android":"levelo://app?vid=41907fca-a52e-41d5-98d7-71f277307927","ios":"levelo://app?vid=41907fca-a52e-41d5-98d7-71f277307927"},"vehicle_type_id":"4","last_reported":1726398386,"current_range_meters":34000,"station_id":"","pricing_plan_id":"cebpf4jnsgd1na2vs0mg"},{"bike_id":"670b158d-c627-41e1-bd63-94a02d67628d","system_id":"levelo_inurba_marseille","lat":43.26936,"lon":5.38912,"is_reserved":false,"is_disabled":false,"rental_uris":{"android":"levelo://app?vid=670b158d-c627-41e1-bd63-94a02d67628d","ios":"levelo://app?vid=670b158d-c627-41e1-bd63-94a02d67628d"},"vehicle_type_id":"4","last_reported":1726398386,"current_range_meters":31200,"station_id":"ce4bhhh2rcd13ifvqfl0","pricing_plan_id":"cebpf4jnsgd1na2vs0mg"},{"bike_id":"491f625c-672a-429b-adf2-44db696ce223","system_id":"levelo_inurba_marseille","lat":43.24816,"lon":5.37464,"is_reserved":false,"is_disabled":false,"rental_uris":{"android":"levelo://app?vid=491f625c-672a-429b-adf2-44db696ce223","ios":"levelo://app?vid=491f625c-672a-429b-adf2-44db696ce223"},"vehicle_type_id":"4","last_reported":1726398386,"current_range_meters":10800,"station_id":"ce4bhgh2rcd13ifvqfb0","pricing_plan_id":"cebpf4jnsgd1na2vs0mg"},{"bike_id":"ce3dc406-963f-4951-a515-a8d7cff6914c","system_id":"levelo_inurba_marseille","lat":43.24168,"lon":5.36388,"is_reserved":false,"is_disabled":false,"rental_uris":{"android":"levelo://app?vid=ce3dc406-963f-4951-a515-a8d7cff6914c","ios":"levelo://app?vid=ce3dc406-963f-4951-a515-a8d7cff6914c"},"vehicle_type_id":"4","last_reported":1726398386,"current_range_meters":24800,"station_id":"cpo36qri1sfpv3e86is0","pricing_plan_id":"cebpf4jnsgd1na2vs0mg"},{"bike_id":"13c4bde3-79a1-495d-a0c0-1dbceff892e5","system_id":"levelo_inurba_marseille","lat":43.25927,"lon":5.40921,"is_reserved":false,"is_disabled":false,"rental_uris":{"android":"levelo://app?vid=13c4bde3-79a1-495d-a0c0-1dbceff892e5","ios":"levelo://app?vid=13c4bde3-79a1-495d-a0c0-1dbceff892e5"},"vehicle_type_id":"4","last_reported":1726398386,"current_range_meters":2800,"station_id":"ce4bhm92rcd13ifvqglg","pricing_plan_id":"cebpf4jnsgd1na2vs0mg"},{"bike_id":"10728045-d652-461a-a9ab-b0440d533a3f","system_id":"levelo_inurba_marseille","lat":43.24389,"lon":5.3705,"is_reserved":false,"is_disabled":false,"rental_uris":{"android":"levelo://app?vid=10728045-d652-461a-a9ab-b0440d533a3f","ios":"levelo://app?vid=10728045-d652-461a-a9ab-b0440d533a3f"},"vehicle_type_id":"4","last_reported":1726398386,"current_range_meters":19200,"station_id":"ce4bhhh2rcd13ifvqfk0","pricing_plan_id":"cebpf4jnsgd1na2vs0mg"},{"bike_id":"7c475990-5c91-40de-8e97-2ed5070be005","system_id":"levelo_inurba_marseille","lat":43.23032,"lon":5.401,"is_reserved":false,"is_disabled":false,"rental_uris":{"android":"levelo://app?vid=7c475990-5c91-40de-8e97-2ed5070be005","ios":"levelo://app?vid=7c475990-5c91-40de-8e97-2ed5070be005"},"vehicle_type_id":"4","last_reported":1726398386,"current_range_meters":38800,"station_id":"","pricing_plan_id":"cebpf4jnsgd1na2vs0mg"},{"bike_id":"13ec4916-f0ea-4897-8afc-596425b42c42","system_id":"levelo_inurba_marseille","lat":43.23192,"lon":5.35555,"is_reserved":false,"is_disabled":false,"rental_uris":{"android":"levelo://app?vid=13ec4916-f0ea-4897-8afc-596425b42c42","ios":"levelo://app?vid=13ec4916-f0ea-4897-8afc-596425b42c42"},"vehicle_type_id":"4","last_reported":1726398386,"current_range_meters":23200,"station_id":"ce4bhu92rcd13ifvqi70","pricing_plan_id":"cebpf4jnsgd1na2vs0mg"},{"bike_id":"e8549387-9deb-4f66-b733-a7cdaa0db866","system_id":"levelo_inurba_marseille","lat":43.33027,"lon":5.3903,"is_reserved":false,"is_disabled":false,"rental_uris":{"android":"levelo://app?vid=e8549387-9deb-4f66-b733-a7cdaa0db866","ios":"levelo://app?vid=e8549387-9deb-4f66-b733-a7cdaa0db866"},"vehicle_type_id":"4","last_reported":1726398386,"current_range_meters":16800,"station_id":"ce4bhr92rcd13ifvqhrg","pricing_plan_id":"cebpf4jnsgd1na2vs0mg"},{"bike_id":"344880e3-ce90-437f-a8da-22ec22dc470a","system_id":"levelo_inurba_marseille","lat":43.29557,"lon":5.42276,"is_reserved":false,"is_disabled":false,"rental_uris":{"android":"levelo://app?vid=344880e3-ce90-437f-a8da-22ec22dc470a","ios":"levelo://app?vid=344880e3-ce90-437f-a8da-22ec22dc470a"},"vehicle_type_id":"4","last_reported":1726398386,"current_range_meters":12800,"station_id":"ce4bhph2rcd13ifvqhdg","pricing_plan_id":"cebpf4jnsgd1na2vs0mg"},{"bike_id":"3d64c255-1660-41db-ac56-60cbee1ac9b2","system_id":"levelo_inurba_marseille","lat":43.28481,"lon":5.38546,"is_reserved":false,"is_disabled":false,"rental_uris":{"android":"levelo://app?vid=3d64c255-1660-41db-ac56-60cbee1ac9b2","ios":"levelo://app?vid=3d64c255-1660-41db-ac56-60cbee1ac9b2"},"vehicle_type_id":"4","last_reported":1726398386,"current_range_meters":38000,"station_id":"ce4bh8p2rcd13ifvqeb0","pricing_plan_id":"cebpf4jnsgd1na2vs0mg"},{"bike_id":"1b69e28d-b657-4802-b5dd-aa17fb5a768b","system_id":"levelo_inurba_marseille","lat":43.27147,"lon":5.42789,"is_reserved":false,"is_disabled":false,"rental_uris":{"android":"levelo://app?vid=1b69e28d-b657-4802-b5dd-aa17fb5a768b","ios":"levelo://app?vid=1b69e28d-b657-4802-b5dd-aa17fb5a768b"},"vehicle_type_id":"4","last_reported":1726398386,"current_range_meters":22000,"station_id":"","pricing_plan_id":"cebpf4jnsgd1na2vs0mg"},{"bike_id":"a1368213-49e3-4f7b-9cc5-fcb5a0478d44","system_id":"levelo_inurba_marseille","lat":43.24811,"lon":5.37456,"is_reserved":false,"is_disabled":false,"rental_uris":{"android":"levelo://app?vid=a1368213-49e3-4f7b-9cc5-fcb5a0478d44","ios":"levelo://app?vid=a1368213-49e3-4f7b-9cc5-fcb5a0478d44"},"vehicle_type_id":"4","last_reported":1726398386,"current_range_meters":38000,"station_id":"ce4bhgh2rcd13ifvqfb0","pricing_plan_id":"cebpf4jnsgd1na2vs0mg"},{"bike_id":"b2300b49-404f-4db4-8744-43ebcde60dc7","system_id":"levelo_inurba_marseille","lat":43.24172,"lon":5.39726,"is_reserved":false,"is_disabled":false,"rental_uris":{"android":"levelo://app?vid=b2300b49-404f-4db4-8744-43ebcde60dc7","ios":"levelo://app?vid=b2300b49-404f-4db4-8744-43ebcde60dc7"},"vehicle_type_id":"4","last_reported":1726398386,"current_range_meters":6000,"station_id":"ce4bhn12rcd13ifvqgpg","pricing_plan_id":"cebpf4jnsgd1na2vs0mg"},{"bike_id":"995d3a7e-289e-4ebd-b785-9d2da426ad57","system_id":"levelo_inurba_marseille","lat":43.23199,"lon":5.35546,"is_reserved":false,"is_disabled":false,"rental_uris":{"android":"levelo://app?vid=995d3a7e-289e-4ebd-b785-9d2da426ad57","ios":"levelo://app?vid=995d3a7e-289e-4ebd-b785-9d2da426ad57"},"vehicle_type_id":"4","last_reported":1726398386,"current_range_meters":14000,"station_id":"ce4bhu92rcd13ifvqi70","pricing_plan_id":"cebpf4jnsgd1na2vs0mg"},{"bike_id":"74c67d55-8a5f-40c9-8066-d68354718f8c","system_id":"levelo_inurba_marseille","lat":43.2319,"lon":5.35558,"is_reserved":false,"is_disabled":false,"rental_uris":{"android":"levelo://app?vid=74c67d55-8a5f-40c9-8066-d68354718f8c","ios":"levelo://app?vid=74c67d55-8a5f-40c9-8066-d68354718f8c"},"vehicle_type_id":"4","last_reported":1726398386,"current_range_meters":19600,"station_id":"ce4bhu92rcd13ifvqi70","pricing_plan_id":"cebpf4jnsgd1na2vs0mg"},{"bike_id":"2ddfad23-de66-4057-b823-7eec87784951","system_id":"levelo_inurba_marseille","lat":43.30552,"lon":5.36702,"is_reserved":false,"is_disabled":false,"rental_uris":{"android":"levelo://app?vid=2ddfad23-de66-4057-b823-7eec87784951","ios":"levelo://app?vid=2ddfad23-de66-4057-b823-7eec87784951"},"vehicle_type_id":"4","last_reported":1726398386,"current_range_meters":28000,"station_id":"ce4bgrp2rcd13ifvqc9g","pricing_plan_id":"cebpf4jnsgd1na2vs0mg"},{"bike_id":"ca0bb500-c19f-4793-a983-0316fcdfd191","system_id":"levelo_inurba_marseille","lat":43.3065,"lon":5.40102,"is_reserved":false,"is_disabled":false,"rental_uris":{"android":"levelo://app?vid=ca0bb500-c19f-4793-a983-0316fcdfd191","ios":"levelo://app?vid=ca0bb500-c19f-4793-a983-0316fcdfd191"},"vehicle_type_id":"4","last_reported":1726398386,"current_range_meters":8400,"station_id":"ce4bh112rcd13ifvqda0","pricing_plan_id":"cebpf4jnsgd1na2vs0mg"},{"bike_id":"2348432a-2e1b-4480-8221-dc0ae33b40e8","system_id":"levelo_inurba_marseille","lat":43.24387,"lon":5.37064,"is_reserved":false,"is_disabled":false,"rental_uris":{"android":"levelo://app?vid=2348432a-2e1b-4480-8221-dc0ae33b40e8","ios":"levelo://app?vid=2348432a-2e1b-4480-8221-dc0ae33b40e8"},"vehicle_type_id":"4","last_reported":1726398386,"current_range_meters":19200,"station_id":"ce4bhhh2rcd13ifvqfk0","pricing_plan_id":"cebpf4jnsgd1na2vs0mg"},{"bike_id":"d0698402-85d8-4942-960d-db4ee8bd1c46","system_id":"levelo_inurba_marseille","lat":43.32482,"lon":5.36557,"is_reserved":false,"is_disabled":false,"rental_uris":{"android":"levelo://app?vid=d0698402-85d8-4942-960d-db4ee8bd1c46","ios":"levelo://app?vid=d0698402-85d8-4942-960d-db4ee8bd1c46"},"vehicle_type_id":"4","last_reported":1726398386,"current_range_meters":5600,"station_id":"ce4bhs12rcd13ifvqhvg","pricing_plan_id":"cebpf4jnsgd1na2vs0mg"},{"bike_id":"1aeff3de-970e-4440-8b84-9abb74479e56","system_id":"levelo_inurba_marseille","lat":43.29964,"lon":5.41329,"is_reserved":false,"is_disabled":false,"rental_uris":{"android":"levelo://app?vid=1aeff3de-970e-4440-8b84-9abb74479e56","ios":"levelo://app?vid=1aeff3de-970e-4440-8b84-9abb74479e56"},"vehicle_type_id":"4","last_reported":1726398386,"current_range_meters":20000,"station_id":"ce4bhp12rcd13ifvqh9g","pricing_plan_id":"cebpf4jnsgd1na2vs0mg"},{"bike_id":"dfb89513-f211-47bc-95b2-ffac780f14a8","system_id":"levelo_inurba_marseille","lat":43.23191,"lon":5.35556,"is_reserved":false,"is_disabled":false,"rental_uris":{"android":"levelo://app?vid=dfb89513-f211-47bc-95b2-ffac780f14a8","ios":"levelo://app?vid=dfb89513-f211-47bc-95b2-ffac780f14a8"},"vehicle_type_id":"4","last_reported":1726398386,"current_range_meters":8800,"station_id":"ce4bhu92rcd13ifvqi70","pricing_plan_id":"cebpf4jnsgd1na2vs0mg"},{"bike_id":"1dfac145-3591-43f9-b88c-b3cbd1fcd09a","system_id":"levelo_inurba_marseille","lat":43.27907,"lon":5.39576,"is_reserved":false,"is_disabled":false,"rental_uris":{"android":"levelo://app?vid=1dfac145-3591-43f9-b88c-b3cbd1fcd09a","ios":"levelo://app?vid=1dfac145-3591-43f9-b88c-b3cbd1fcd09a"},"vehicle_type_id":"4","last_reported":1726398386,"current_range_meters":38800,"station_id":"ce4bhf92rcd13ifvqf40","pricing_plan_id":"cebpf4jnsgd1na2vs0mg"},{"bike_id":"95afb39b-2740-4e0a-b53b-6bf11a051e59","system_id":"levelo_inurba_marseille","lat":43.28617,"lon":5.35107,"is_reserved":false,"is_disabled":false,"rental_uris":{"android":"levelo://app?vid=95afb39b-2740-4e0a-b53b-6bf11a051e59","ios":"levelo://app?vid=95afb39b-2740-4e0a-b53b-6bf11a051e59"},"vehicle_type_id":"4","last_reported":1726398386,"current_range_meters":16800,"station_id":"ce4bhch2rcd13ifvqeug","pricing_plan_id":"cebpf4jnsgd1na2vs0mg"},{"bike_id":"5695be2b-9a5b-4c85-9c3e-237c284c36d2","system_id":"levelo_inurba_marseille","lat":43.32289,"lon":5.38266,"is_reserved":false,"is_disabled":false,"rental_uris":{"android":"levelo://app?vid=5695be2b-9a5b-4c85-9c3e-237c284c36d2","ios":"levelo://app?vid=5695be2b-9a5b-4c85-9c3e-237c284c36d2"},"vehicle_type_id":"4","last_reported":1726398386,"current_range_meters":39200,"station_id":"ce4bhr12rcd13ifvqhqg","pricing_plan_id":"cebpf4jnsgd1na2vs0mg"},{"bike_id":"9673544e-54bb-4afc-8e21-116dbb7f5e93","system_id":"levelo_inurba_marseille","lat":43.30543,"lon":5.36546,"is_reserved":false,"is_disabled":false,"rental_uris":{"android":"levelo://app?vid=9673544e-54bb-4afc-8e21-116dbb7f5e93","ios":"levelo://app?vid=9673544e-54bb-4afc-8e21-116dbb7f5e93"},"vehicle_type_id":"4","last_reported":1726398386,"current_range_meters":22000,"station_id":"ce4bgs12rcd13ifvqcag","pricing_plan_id":"cebpf4jnsgd1na2vs0mg"},{"bike_id":"e0a5f56b-399c-4d27-ab7e-6d5ddb333f48","system_id":"levelo_inurba_marseille","lat":43.24802,"lon":5.37452,"is_reserved":false,"is_disabled":false,"rental_uris":{"android":"levelo://app?vid=e0a5f56b-399c-4d27-ab7e-6d5ddb333f48","ios":"levelo://app?vid=e0a5f56b-399c-4d27-ab7e-6d5ddb333f48"},"vehicle_type_id":"4","last_reported":1726398386,"current_range_meters":36000,"station_id":"ce4bhgh2rcd13ifvqfb0","pricing_plan_id":"cebpf4jnsgd1na2vs0mg"},{"bike_id":"aac07f6f-d068-41e5-80ed-ad695afca2fa","system_id":"levelo_inurba_marseille","lat":43.25717,"lon":5.4111,"is_reserved":false,"is_disabled":false,"rental_uris":{"android":"levelo://app?vid=aac07f6f-d068-41e5-80ed-ad695afca2fa","ios":"levelo://app?vid=aac07f6f-d068-41e5-80ed-ad695afca2fa"},"vehicle_type_id":"4","last_reported":1726398386,"current_range_meters":31200,"station_id":"ce4bhkp2rcd13ifvqgd0","pricing_plan_id":"cebpf4jnsgd1na2vs0mg"},{"bike_id":"8f7d2222-b8b1-4df4-8f4e-3209ab742980","system_id":"levelo_inurba_marseille","lat":43.3088,"lon":5.39643,"is_reserved":false,"is_disabled":false,"rental_uris":{"android":"levelo://app?vid=8f7d2222-b8b1-4df4-8f4e-3209ab742980","ios":"levelo://app?vid=8f7d2222-b8b1-4df4-8f4e-3209ab742980"},"vehicle_type_id":"4","last_reported":1726398386,"current_range_meters":24400,"station_id":"ce4bh012rcd13ifvqcv0","pricing_plan_id":"cebpf4jnsgd1na2vs0mg"},{"bike_id":"40039115-7837-452b-b80f-6c0a22016941","system_id":"levelo_inurba_marseille","lat":43.29174,"lon":5.358,"is_reserved":false,"is_disabled":false,"rental_uris":{"android":"levelo://app?vid=40039115-7837-452b-b80f-6c0a22016941","ios":"levelo://app?vid=40039115-7837-452b-b80f-6c0a22016941"},"vehicle_type_id":"4","last_reported":1726398386,"current_range_meters":24800,"station_id":"ce4bhb12rcd13ifvqel0","pricing_plan_id":"cebpf4jnsgd1na2vs0mg"},{"bike_id":"fd0880df-a304-40e8-8a57-9ac951892822","system_id":"levelo_inurba_marseille","lat":43.31081,"lon":5.38348,"is_reserved":false,"is_disabled":false,"rental_uris":{"android":"levelo://app?vid=fd0880df-a304-40e8-8a57-9ac951892822","ios":"levelo://app?vid=fd0880df-a304-40e8-8a57-9ac951892822"},"vehicle_type_id":"4","last_reported":1726398386,"current_range_meters":19600,"station_id":"ce4bgv92rcd13ifvqcr0","pricing_plan_id":"cebpf4jnsgd1na2vs0mg"},{"bike_id":"30fc1f51-20b6-4e13-8f56-75175e166910","system_id":"levelo_inurba_marseille","lat":43.23056,"lon":5.35496,"is_reserved":false,"is_disabled":false,"rental_uris":{"android":"levelo://app?vid=30fc1f51-20b6-4e13-8f56-75175e166910","ios":"levelo://app?vid=30fc1f51-20b6-4e13-8f56-75175e166910"},"vehicle_type_id":"4","last_reported":1726398386,"current_range_meters":36400,"station_id":"cpo3342slgdg3j2ifvpg","pricing_plan_id":"cebpf4jnsgd1na2vs0mg"},{"bike_id":"1fcb6fc0-3e54-45b9-b44b-0532a95f21ff","system_id":"levelo_inurba_marseille","lat":43.31498,"lon":5.37308,"is_reserved":false,"is_disabled":false,"rental_uris":{"android":"levelo://app?vid=1fcb6fc0-3e54-45b9-b44b-0532a95f21ff","ios":"levelo://app?vid=1fcb6fc0-3e54-45b9-b44b-0532a95f21ff"},"vehicle_type_id":"4","last_reported":1726398386,"current_range_meters":12800,"station_id":"ce4bgt12rcd13ifvqcd0","pricing_plan_id":"cebpf4jnsgd1na2vs0mg"},{"bike_id":"610c7215-052b-40c9-a8aa-314130aa6c30","system_id":"levelo_inurba_marseille","lat":43.31329,"lon":5.397,"is_reserved":false,"is_disabled":false,"rental_uris":{"android":"levelo://app?vid=610c7215-052b-40c9-a8aa-314130aa6c30","ios":"levelo://app?vid=610c7215-052b-40c9-a8aa-314130aa6c30"},"vehicle_type_id":"4","last_reported":1726398386,"current_range_meters":24800,"station_id":"ce4bgvp2rcd13ifvqcu0","pricing_plan_id":"cebpf4jnsgd1na2vs0mg"},{"bike_id":"ec9006f1-9246-40db-9584-a79270db200a","system_id":"levelo_inurba_marseille","lat":43.31721,"lon":5.42407,"is_reserved":false,"is_disabled":false,"rental_uris":{"android":"levelo://app?vid=ec9006f1-9246-40db-9584-a79270db200a","ios":"levelo://app?vid=ec9006f1-9246-40db-9584-a79270db200a"},"vehicle_type_id":"4","last_reported":1726398386,"current_range_meters":39200,"station_id":"ce4bhp92rcd13ifvqhbg","pricing_plan_id":"cebpf4jnsgd1na2vs0mg"},{"bike_id":"af390aaa-4ef7-492c-aded-06fda96c9f12","system_id":"levelo_inurba_marseille","lat":43.31709,"lon":5.43693,"is_reserved":false,"is_disabled":false,"rental_uris":{"android":"levelo://app?vid=af390aaa-4ef7-492c-aded-06fda96c9f12","ios":"levelo://app?vid=af390aaa-4ef7-492c-aded-06fda96c9f12"},"vehicle_type_id":"4","last_reported":1726398386,"current_range_meters":30400,"station_id":"ce4bhp92rcd13ifvqhcg","pricing_plan_id":"cebpf4jnsgd1na2vs0mg"},{"bike_id":"f89ebaff-608b-48c6-99bf-a4efd018954e","system_id":"levelo_inurba_marseille","lat":43.25709,"lon":5.41115,"is_reserved":false,"is_disabled":false,"rental_uris":{"android":"levelo://app?vid=f89ebaff-608b-48c6-99bf-a4efd018954e","ios":"levelo://app?vid=f89ebaff-608b-48c6-99bf-a4efd018954e"},"vehicle_type_id":"4","last_reported":1726398386,"current_range_meters":16000,"station_id":"ce4bhkp2rcd13ifvqgd0","pricing_plan_id":"cebpf4jnsgd1na2vs0mg"},{"bike_id":"57c8ece6-d954-4266-bab3-5f8fd313197a","system_id":"levelo_inurba_marseille","lat":43.27961,"lon":5.38729,"is_reserved":false,"is_disabled":false,"rental_uris":{"android":"levelo://app?vid=57c8ece6-d954-4266-bab3-5f8fd313197a","ios":"levelo://app?vid=57c8ece6-d954-4266-bab3-5f8fd313197a"},"vehicle_type_id":"4","last_reported":1726398386,"current_range_meters":9200,"station_id":"ce4bhg12rcd13ifvqf80","pricing_plan_id":"cebpf4jnsgd1na2vs0mg"},{"bike_id":"65c19f49-c4fe-4c2d-8a06-e52117f63875","system_id":"levelo_inurba_marseille","lat":43.25015,"lon":5.38931,"is_reserved":false,"is_disabled":false,"rental_uris":{"android":"levelo://app?vid=65c19f49-c4fe-4c2d-8a06-e52117f63875","ios":"levelo://app?vid=65c19f49-c4fe-4c2d-8a06-e52117f63875"},"vehicle_type_id":"4","last_reported":1726398386,"current_range_meters":4000,"station_id":"ce4bhgp2rcd13ifvqfd0","pricing_plan_id":"cebpf4jnsgd1na2vs0mg"},{"bike_id":"00b84575-9389-41de-a2a2-9fad0c9af95f","system_id":"levelo_inurba_marseille","lat":43.29604,"lon":5.38106,"is_reserved":false,"is_disabled":false,"rental_uris":{"android":"levelo://app?vid=00b84575-9389-41de-a2a2-9fad0c9af95f","ios":"levelo://app?vid=00b84575-9389-41de-a2a2-9fad0c9af95f"},"vehicle_type_id":"4","last_reported":1726398386,"current_range_meters":21600,"station_id":"ce4bgl12rcd13ifvqbo0","pricing_plan_id":"cebpf4jnsgd1na2vs0mg"},{"bike_id":"79c02180-09c1-4622-9895-798a39cc23b9","system_id":"levelo_inurba_marseille","lat":43.288544,"lon":5.358536,"is_reserved":false,"is_disabled":false,"rental_uris":{"android":"levelo://app?vid=79c02180-09c1-4622-9895-798a39cc23b9","ios":"levelo://app?vid=79c02180-09c1-4622-9895-798a39cc23b9"},"vehicle_type_id":"4","last_reported":1726398386,"current_range_meters":35600,"station_id":"ce4bhb12rcd13ifvqem0","pricing_plan_id":"cebpf4jnsgd1na2vs0mg"},{"bike_id":"c5dd4feb-12d2-4aab-b7e0-58b69563947c","system_id":"levelo_inurba_marseille","lat":43.31719,"lon":5.424,"is_reserved":false,"is_disabled":false,"rental_uris":{"android":"levelo://app?vid=c5dd4feb-12d2-4aab-b7e0-58b69563947c","ios":"levelo://app?vid=c5dd4feb-12d2-4aab-b7e0-58b69563947c"},"vehicle_type_id":"4","last_reported":1726398386,"current_range_meters":37600,"station_id":"ce4bhp92rcd13ifvqhbg","pricing_plan_id":"cebpf4jnsgd1na2vs0mg"},{"bike_id":"0bb04d14-2a26-4baa-ae12-ac5c9e2a7105","system_id":"levelo_inurba_marseille","lat":43.23188,"lon":5.39986,"is_reserved":false,"is_disabled":false,"rental_uris":{"android":"levelo://app?vid=0bb04d14-2a26-4baa-ae12-ac5c9e2a7105","ios":"levelo://app?vid=0bb04d14-2a26-4baa-ae12-ac5c9e2a7105"},"vehicle_type_id":"4","last_reported":1726398386,"current_range_meters":36000,"station_id":"ce4bhn12rcd13ifvqgqg","pricing_plan_id":"cebpf4jnsgd1na2vs0mg"},{"bike_id":"b163cf08-6ce3-4d2f-a3d2-6a4eb4ce7991","system_id":"levelo_inurba_marseille","lat":43.28152,"lon":5.42646,"is_reserved":false,"is_disabled":false,"rental_uris":{"android":"levelo://app?vid=b163cf08-6ce3-4d2f-a3d2-6a4eb4ce7991","ios":"levelo://app?vid=b163cf08-6ce3-4d2f-a3d2-6a4eb4ce7991"},"vehicle_type_id":"4","last_reported":1726398386,"current_range_meters":8800,"station_id":"ce4bhnh2rcd13ifvqgug","pricing_plan_id":"cebpf4jnsgd1na2vs0mg"},{"bike_id":"490a63ff-07a4-4e5e-bc42-5d322dcd9952","system_id":"levelo_inurba_marseille","lat":43.292145,"lon":5.359643,"is_reserved":false,"is_disabled":false,"rental_uris":{"android":"levelo://app?vid=490a63ff-07a4-4e5e-bc42-5d322dcd9952","ios":"levelo://app?vid=490a63ff-07a4-4e5e-bc42-5d322dcd9952"},"vehicle_type_id":"4","last_reported":1726398386,"current_range_meters":27600,"station_id":"ce4bhb12rcd13ifvqel0","pricing_plan_id":"cebpf4jnsgd1na2vs0mg"},{"bike_id":"ec20cb84-20f0-48a0-950e-21cf06a16dca","system_id":"levelo_inurba_marseille","lat":43.31758,"lon":5.39023,"is_reserved":false,"is_disabled":false,"rental_uris":{"android":"levelo://app?vid=ec20cb84-20f0-48a0-950e-21cf06a16dca","ios":"levelo://app?vid=ec20cb84-20f0-48a0-950e-21cf06a16dca"},"vehicle_type_id":"4","last_reported":1726398386,"current_range_meters":19200,"station_id":"ce4bhqp2rcd13ifvqhng","pricing_plan_id":"cebpf4jnsgd1na2vs0mg"},{"bike_id":"fa520970-b02f-48ef-8a4c-a0b6221dc909","system_id":"levelo_inurba_marseille","lat":43.28154,"lon":5.42643,"is_reserved":false,"is_disabled":false,"rental_uris":{"android":"levelo://app?vid=fa520970-b02f-48ef-8a4c-a0b6221dc909","ios":"levelo://app?vid=fa520970-b02f-48ef-8a4c-a0b6221dc909"},"vehicle_type_id":"4","last_reported":1726398386,"current_range_meters":36000,"station_id":"ce4bhnh2rcd13ifvqgug","pricing_plan_id":"cebpf4jnsgd1na2vs0mg"},{"bike_id":"c42e5039-fdc3-4360-b79d-d1d0957e1206","system_id":"levelo_inurba_marseille","lat":43.24679,"lon":5.38164,"is_reserved":false,"is_disabled":false,"rental_uris":{"android":"levelo://app?vid=c42e5039-fdc3-4360-b79d-d1d0957e1206","ios":"levelo://app?vid=c42e5039-fdc3-4360-b79d-d1d0957e1206"},"vehicle_type_id":"4","last_reported":1726398386,"current_range_meters":30000,"station_id":"ce4bhih2rcd13ifvqfr0","pricing_plan_id":"cebpf4jnsgd1na2vs0mg"},{"bike_id":"f79ff168-7c1f-43a6-9a48-819ae1e3b151","system_id":"levelo_inurba_marseille","lat":43.24071,"lon":5.37756,"is_reserved":false,"is_disabled":false,"rental_uris":{"android":"levelo://app?vid=f79ff168-7c1f-43a6-9a48-819ae1e3b151","ios":"levelo://app?vid=f79ff168-7c1f-43a6-9a48-819ae1e3b151"},"vehicle_type_id":"4","last_reported":1726398386,"current_range_meters":12800,"station_id":"ce4bhnp2rcd13ifvqgvg","pricing_plan_id":"cebpf4jnsgd1na2vs0mg"},{"bike_id":"cf101c9d-7072-45ba-90ed-6dcf2f6acf9e","system_id":"levelo_inurba_marseille","lat":43.24166,"lon":5.3639,"is_reserved":false,"is_disabled":false,"rental_uris":{"android":"levelo://app?vid=cf101c9d-7072-45ba-90ed-6dcf2f6acf9e","ios":"levelo://app?vid=cf101c9d-7072-45ba-90ed-6dcf2f6acf9e"},"vehicle_type_id":"4","last_reported":1726398386,"current_range_meters":14400,"station_id":"cpo36qri1sfpv3e86is0","pricing_plan_id":"cebpf4jnsgd1na2vs0mg"},{"bike_id":"30d76f20-3abf-4f8d-bf02-61db7b08413c","system_id":"levelo_inurba_marseille","lat":43.24068,"lon":5.37764,"is_reserved":false,"is_disabled":false,"rental_uris":{"android":"levelo://app?vid=30d76f20-3abf-4f8d-bf02-61db7b08413c","ios":"levelo://app?vid=30d76f20-3abf-4f8d-bf02-61db7b08413c"},"vehicle_type_id":"4","last_reported":1726398386,"current_range_meters":24400,"station_id":"ce4bhnp2rcd13ifvqgvg","pricing_plan_id":"cebpf4jnsgd1na2vs0mg"},{"bike_id":"90521811-f8fd-48e1-ade7-4d07ddb065bb","system_id":"levelo_inurba_marseille","lat":43.23193,"lon":5.35559,"is_reserved":false,"is_disabled":false,"rental_uris":{"android":"levelo://app?vid=90521811-f8fd-48e1-ade7-4d07ddb065bb","ios":"levelo://app?vid=90521811-f8fd-48e1-ade7-4d07ddb065bb"},"vehicle_type_id":"4","last_reported":1726398386,"current_range_meters":12800,"station_id":"ce4bhu92rcd13ifvqi70","pricing_plan_id":"cebpf4jnsgd1na2vs0mg"},{"bike_id":"ac0b2d92-4e72-4a28-851c-700dc240dbdc","system_id":"levelo_inurba_marseille","lat":43.24805,"lon":5.37455,"is_reserved":false,"is_disabled":false,"rental_uris":{"android":"levelo://app?vid=ac0b2d92-4e72-4a28-851c-700dc240dbdc","ios":"levelo://app?vid=ac0b2d92-4e72-4a28-851c-700dc240dbdc"},"vehicle_type_id":"4","last_reported":1726398386,"current_range_meters":38000,"station_id":"ce4bhgh2rcd13ifvqfb0","pricing_plan_id":"cebpf4jnsgd1na2vs0mg"},{"bike_id":"3287f4aa-c745-47cf-a448-017cb5156cf8","system_id":"levelo_inurba_marseille","lat":43.25823,"lon":5.39428,"is_reserved":false,"is_disabled":false,"rental_uris":{"android":"levelo://app?vid=3287f4aa-c745-47cf-a448-017cb5156cf8","ios":"levelo://app?vid=3287f4aa-c745-47cf-a448-017cb5156cf8"},"vehicle_type_id":"4","last_reported":1726398386,"current_range_meters":10800,"station_id":"ce4bhip2rcd13ifvqft0","pricing_plan_id":"cebpf4jnsgd1na2vs0mg"},{"bike_id":"1fb5da9e-6df7-4106-a459-3f96f567eb25","system_id":"levelo_inurba_marseille","lat":43.23153,"lon":5.43707,"is_reserved":false,"is_disabled":false,"rental_uris":{"android":"levelo://app?vid=1fb5da9e-6df7-4106-a459-3f96f567eb25","ios":"levelo://app?vid=1fb5da9e-6df7-4106-a459-3f96f567eb25"},"vehicle_type_id":"4","last_reported":1726398386,"current_range_meters":36800,"station_id":"ce4bhmp2rcd13ifvqgog","pricing_plan_id":"cebpf4jnsgd1na2vs0mg"},{"bike_id":"6f398722-d2dc-44fa-9bb7-0980fb53e3f8","system_id":"levelo_inurba_marseille","lat":43.2511,"lon":5.40324,"is_reserved":false,"is_disabled":false,"rental_uris":{"android":"levelo://app?vid=6f398722-d2dc-44fa-9bb7-0980fb53e3f8","ios":"levelo://app?vid=6f398722-d2dc-44fa-9bb7-0980fb53e3f8"},"vehicle_type_id":"4","last_reported":1726398386,"current_range_meters":38800,"station_id":"ce4bhlh2rcd13ifvqgig","pricing_plan_id":"cebpf4jnsgd1na2vs0mg"},{"bike_id":"ac0be630-90c8-4443-9bf9-63c4efa95547","system_id":"levelo_inurba_marseille","lat":43.295733,"lon":5.422671,"is_reserved":false,"is_disabled":false,"rental_uris":{"android":"levelo://app?vid=ac0be630-90c8-4443-9bf9-63c4efa95547","ios":"levelo://app?vid=ac0be630-90c8-4443-9bf9-63c4efa95547"},"vehicle_type_id":"4","last_reported":1726398386,"current_range_meters":36800,"station_id":"ce4bhph2rcd13ifvqhdg","pricing_plan_id":"cebpf4jnsgd1na2vs0mg"},{"bike_id":"39265387-ca31-4055-bcbf-a907f9131587","system_id":"levelo_inurba_marseille","lat":43.30851,"lon":5.396653,"is_reserved":false,"is_disabled":false,"rental_uris":{"android":"levelo://app?vid=39265387-ca31-4055-bcbf-a907f9131587","ios":"levelo://app?vid=39265387-ca31-4055-bcbf-a907f9131587"},"vehicle_type_id":"4","last_reported":1726398386,"current_range_meters":6400,"station_id":"ce4bh012rcd13ifvqcv0","pricing_plan_id":"cebpf4jnsgd1na2vs0mg"},{"bike_id":"d66f412b-ff12-478a-b5f6-6407a0173868","system_id":"levelo_inurba_marseille","lat":43.24678,"lon":5.38162,"is_reserved":false,"is_disabled":false,"rental_uris":{"android":"levelo://app?vid=d66f412b-ff12-478a-b5f6-6407a0173868","ios":"levelo://app?vid=d66f412b-ff12-478a-b5f6-6407a0173868"},"vehicle_type_id":"4","last_reported":1726398386,"current_range_meters":38000,"station_id":"ce4bhih2rcd13ifvqfr0","pricing_plan_id":"cebpf4jnsgd1na2vs0mg"},{"bike_id":"fe7d7640-31b4-4680-bbc0-971c61390d2e","system_id":"levelo_inurba_marseille","lat":43.25086,"lon":5.3951,"is_reserved":false,"is_disabled":false,"rental_uris":{"android":"levelo://app?vid=fe7d7640-31b4-4680-bbc0-971c61390d2e","ios":"levelo://app?vid=fe7d7640-31b4-4680-bbc0-971c61390d2e"},"vehicle_type_id":"4","last_reported":1726398386,"current_range_meters":28800,"station_id":"ce4bhm12rcd13ifvqgkg","pricing_plan_id":"cebpf4jnsgd1na2vs0mg"},{"bike_id":"26db0265-0a91-4c66-8aa8-67a94f7eef0d","system_id":"levelo_inurba_marseille","lat":43.26935,"lon":5.40043,"is_reserved":false,"is_disabled":false,"rental_uris":{"android":"levelo://app?vid=26db0265-0a91-4c66-8aa8-67a94f7eef0d","ios":"levelo://app?vid=26db0265-0a91-4c66-8aa8-67a94f7eef0d"},"vehicle_type_id":"4","last_reported":1726398386,"current_range_meters":10000,"station_id":"","pricing_plan_id":"cebpf4jnsgd1na2vs0mg"},{"bike_id":"9b49fc06-69dc-4375-9bc8-2ab31283d424","system_id":"levelo_inurba_marseille","lat":43.29903,"lon":5.43661,"is_reserved":false,"is_disabled":false,"rental_uris":{"android":"levelo://app?vid=9b49fc06-69dc-4375-9bc8-2ab31283d424","ios":"levelo://app?vid=9b49fc06-69dc-4375-9bc8-2ab31283d424"},"vehicle_type_id":"4","last_reported":1726398386,"current_range_meters":27600,"station_id":"ce4bhpp2rcd13ifvqhfg","pricing_plan_id":"cebpf4jnsgd1na2vs0mg"},{"bike_id":"4c39ef96-b1df-45a6-bdc9-f3e8f94d4d5b","system_id":"levelo_inurba_marseille","lat":43.30138,"lon":5.38797,"is_reserved":false,"is_disabled":false,"rental_uris":{"android":"levelo://app?vid=4c39ef96-b1df-45a6-bdc9-f3e8f94d4d5b","ios":"levelo://app?vid=4c39ef96-b1df-45a6-bdc9-f3e8f94d4d5b"},"vehicle_type_id":"4","last_reported":1726398386,"current_range_meters":22800,"station_id":"ce4bghh2rcd13ifvqb60","pricing_plan_id":"cebpf4jnsgd1na2vs0mg"},{"bike_id":"7cb86f02-015f-4218-848c-60a0be8facd1","system_id":"levelo_inurba_marseille","lat":43.25725,"lon":5.41099,"is_reserved":false,"is_disabled":false,"rental_uris":{"android":"levelo://app?vid=7cb86f02-015f-4218-848c-60a0be8facd1","ios":"levelo://app?vid=7cb86f02-015f-4218-848c-60a0be8facd1"},"vehicle_type_id":"4","last_reported":1726398386,"current_range_meters":16000,"station_id":"ce4bhkp2rcd13ifvqgd0","pricing_plan_id":"cebpf4jnsgd1na2vs0mg"},{"bike_id":"cfa04768-99b5-4d79-b78a-436c5da6ffbf","system_id":"levelo_inurba_marseille","lat":43.28275,"lon":5.35078,"is_reserved":false,"is_disabled":false,"rental_uris":{"android":"levelo://app?vid=cfa04768-99b5-4d79-b78a-436c5da6ffbf","ios":"levelo://app?vid=cfa04768-99b5-4d79-b78a-436c5da6ffbf"},"vehicle_type_id":"4","last_reported":1726398386,"current_range_meters":38800,"station_id":"ce4bhbp2rcd13ifvqerg","pricing_plan_id":"cebpf4jnsgd1na2vs0mg"},{"bike_id":"fa0bba81-ae28-438c-aaa0-a2a0c9d69ac5","system_id":"levelo_inurba_marseille","lat":43.29557,"lon":5.42283,"is_reserved":false,"is_disabled":false,"rental_uris":{"android":"levelo://app?vid=fa0bba81-ae28-438c-aaa0-a2a0c9d69ac5","ios":"levelo://app?vid=fa0bba81-ae28-438c-aaa0-a2a0c9d69ac5"},"vehicle_type_id":"4","last_reported":1726398386,"current_range_meters":32800,"station_id":"ce4bhph2rcd13ifvqhdg","pricing_plan_id":"cebpf4jnsgd1na2vs0mg"},{"bike_id":"818aa103-0406-41fd-91ec-587323d47afb","system_id":"levelo_inurba_marseille","lat":43.23961,"lon":5.3663,"is_reserved":false,"is_disabled":false,"rental_uris":{"android":"levelo://app?vid=818aa103-0406-41fd-91ec-587323d47afb","ios":"levelo://app?vid=818aa103-0406-41fd-91ec-587323d47afb"},"vehicle_type_id":"4","last_reported":1726398386,"current_range_meters":16400,"station_id":"ce4bhi12rcd13ifvqfp0","pricing_plan_id":"cebpf4jnsgd1na2vs0mg"},{"bike_id":"e00d038a-00c7-4258-ab4b-259bdb081cfd","system_id":"levelo_inurba_marseille","lat":43.23201,"lon":5.35549,"is_reserved":false,"is_disabled":false,"rental_uris":{"android":"levelo://app?vid=e00d038a-00c7-4258-ab4b-259bdb081cfd","ios":"levelo://app?vid=e00d038a-00c7-4258-ab4b-259bdb081cfd"},"vehicle_type_id":"4","last_reported":1726398386,"current_range_meters":28400,"station_id":"ce4bhu92rcd13ifvqi70","pricing_plan_id":"cebpf4jnsgd1na2vs0mg"},{"bike_id":"5c141086-8a4d-4abd-8a82-1de40ab7b77d","system_id":"levelo_inurba_marseille","lat":43.23072,"lon":5.35484,"is_reserved":false,"is_disabled":false,"rental_uris":{"android":"levelo://app?vid=5c141086-8a4d-4abd-8a82-1de40ab7b77d","ios":"levelo://app?vid=5c141086-8a4d-4abd-8a82-1de40ab7b77d"},"vehicle_type_id":"4","last_reported":1726398386,"current_range_meters":32800,"station_id":"cpo3342slgdg3j2ifvpg","pricing_plan_id":"cebpf4jnsgd1na2vs0mg"},{"bike_id":"94cca5de-4adb-4459-a0af-16b2a4ec30b4","system_id":"levelo_inurba_marseille","lat":43.31082,"lon":5.42428,"is_reserved":false,"is_disabled":false,"rental_uris":{"android":"levelo://app?vid=94cca5de-4adb-4459-a0af-16b2a4ec30b4","ios":"levelo://app?vid=94cca5de-4adb-4459-a0af-16b2a4ec30b4"},"vehicle_type_id":"4","last_reported":1726398386,"current_range_meters":26000,"station_id":"ce4bhp92rcd13ifvqhag","pricing_plan_id":"cebpf4jnsgd1na2vs0mg"},{"bike_id":"f33e30b6-1d2d-466c-800f-71dd30dd16f8","system_id":"levelo_inurba_marseille","lat":43.30428,"lon":5.38886,"is_reserved":false,"is_disabled":false,"rental_uris":{"android":"levelo://app?vid=f33e30b6-1d2d-466c-800f-71dd30dd16f8","ios":"levelo://app?vid=f33e30b6-1d2d-466c-800f-71dd30dd16f8"},"vehicle_type_id":"4","last_reported":1726398386,"current_range_meters":10000,"station_id":"ce4bgk12rcd13ifvqbi0","pricing_plan_id":"cebpf4jnsgd1na2vs0mg"},{"bike_id":"8d3ee9a4-51a1-44e0-8b30-166e67777a82","system_id":"levelo_inurba_marseille","lat":43.25853,"lon":5.39907,"is_reserved":false,"is_disabled":false,"rental_uris":{"android":"levelo://app?vid=8d3ee9a4-51a1-44e0-8b30-166e67777a82","ios":"levelo://app?vid=8d3ee9a4-51a1-44e0-8b30-166e67777a82"},"vehicle_type_id":"4","last_reported":1726398386,"current_range_meters":38000,"station_id":"ce4bhl92rcd13ifvqghg","pricing_plan_id":"cebpf4jnsgd1na2vs0mg"},{"bike_id":"94101ff3-2994-484e-9873-c28629aac9a2","system_id":"levelo_inurba_marseille","lat":43.29839,"lon":5.36269,"is_reserved":false,"is_disabled":false,"rental_uris":{"android":"levelo://app?vid=94101ff3-2994-484e-9873-c28629aac9a2","ios":"levelo://app?vid=94101ff3-2994-484e-9873-c28629aac9a2"},"vehicle_type_id":"4","last_reported":1726398386,"current_range_meters":24400,"station_id":"ce4bgpp2rcd13ifvqc3g","pricing_plan_id":"cebpf4jnsgd1na2vs0mg"},{"bike_id":"b8640a1b-d4a2-4e08-b27f-f6878ec4cbf7","system_id":"levelo_inurba_marseille","lat":43.31702,"lon":5.40463,"is_reserved":false,"is_disabled":false,"rental_uris":{"android":"levelo://app?vid=b8640a1b-d4a2-4e08-b27f-f6878ec4cbf7","ios":"levelo://app?vid=b8640a1b-d4a2-4e08-b27f-f6878ec4cbf7"},"vehicle_type_id":"4","last_reported":1726398386,"current_range_meters":32400,"station_id":"ce4bh012rcd13ifvqd00","pricing_plan_id":"cebpf4jnsgd1na2vs0mg"},{"bike_id":"ce671292-f761-4123-b340-0508a3a46e9c","system_id":"levelo_inurba_marseille","lat":43.3134,"lon":5.367,"is_reserved":false,"is_disabled":false,"rental_uris":{"android":"levelo://app?vid=ce671292-f761-4123-b340-0508a3a46e9c","ios":"levelo://app?vid=ce671292-f761-4123-b340-0508a3a46e9c"},"vehicle_type_id":"4","last_reported":1726398386,"current_range_meters":20400,"station_id":"ce4bgr92rcd13ifvqc6g","pricing_plan_id":"cebpf4jnsgd1na2vs0mg"},{"bike_id":"a1b71a30-bb1d-411c-8ca8-a52748df8cb3","system_id":"levelo_inurba_marseille","lat":43.3171,"lon":5.43704,"is_reserved":false,"is_disabled":false,"rental_uris":{"android":"levelo://app?vid=a1b71a30-bb1d-411c-8ca8-a52748df8cb3","ios":"levelo://app?vid=a1b71a30-bb1d-411c-8ca8-a52748df8cb3"},"vehicle_type_id":"4","last_reported":1726398386,"current_range_meters":26000,"station_id":"ce4bhp92rcd13ifvqhcg","pricing_plan_id":"cebpf4jnsgd1na2vs0mg"},{"bike_id":"cf4306ab-ec49-44e9-a678-fc57450de71b","system_id":"levelo_inurba_marseille","lat":43.31527,"lon":5.38043,"is_reserved":false,"is_disabled":false,"rental_uris":{"android":"levelo://app?vid=cf4306ab-ec49-44e9-a678-fc57450de71b","ios":"levelo://app?vid=cf4306ab-ec49-44e9-a678-fc57450de71b"},"vehicle_type_id":"4","last_reported":1726398386,"current_range_meters":38800,"station_id":"ce4bhsp2rcd13ifvqi50","pricing_plan_id":"cebpf4jnsgd1na2vs0mg"},{"bike_id":"9fe891e3-f10c-47d0-82ab-e9fa6533d3ac","system_id":"levelo_inurba_marseille","lat":43.280373,"lon":5.369444,"is_reserved":false,"is_disabled":false,"rental_uris":{"android":"levelo://app?vid=9fe891e3-f10c-47d0-82ab-e9fa6533d3ac","ios":"levelo://app?vid=9fe891e3-f10c-47d0-82ab-e9fa6533d3ac"},"vehicle_type_id":"4","last_reported":1726398386,"current_range_meters":17600,"station_id":"ce4bha12rcd13ifvqef0","pricing_plan_id":"cebpf4jnsgd1na2vs0mg"},{"bike_id":"cc60e6fd-27b7-4443-9a92-be0becdbf761","system_id":"levelo_inurba_marseille","lat":43.30466,"lon":5.37911,"is_reserved":false,"is_disabled":false,"rental_uris":{"android":"levelo://app?vid=cc60e6fd-27b7-4443-9a92-be0becdbf761","ios":"levelo://app?vid=cc60e6fd-27b7-4443-9a92-be0becdbf761"},"vehicle_type_id":"4","last_reported":1726398386,"current_range_meters":22000,"station_id":"ce4bgup2rcd13ifvqcn0","pricing_plan_id":"cebpf4jnsgd1na2vs0mg"},{"bike_id":"19977a20-a165-47da-a441-3c70e4ffa006","system_id":"levelo_inurba_marseille","lat":43.27073,"lon":5.42281,"is_reserved":false,"is_disabled":false,"rental_uris":{"android":"levelo://app?vid=19977a20-a165-47da-a441-3c70e4ffa006","ios":"levelo://app?vid=19977a20-a165-47da-a441-3c70e4ffa006"},"vehicle_type_id":"4","last_reported":1726398386,"current_range_meters":31200,"station_id":"ce4bhk92rcd13ifvqgb0","pricing_plan_id":"cebpf4jnsgd1na2vs0mg"},{"bike_id":"8b040a68-814b-4cfb-8179-49c71de15187","system_id":"levelo_inurba_marseille","lat":43.30423,"lon":5.39747,"is_reserved":false,"is_disabled":false,"rental_uris":{"android":"levelo://app?vid=8b040a68-814b-4cfb-8179-49c71de15187","ios":"levelo://app?vid=8b040a68-814b-4cfb-8179-49c71de15187"},"vehicle_type_id":"4","last_reported":1726398386,"current_range_meters":36400,"station_id":"ce4bh092rcd13ifvqd20","pricing_plan_id":"cebpf4jnsgd1na2vs0mg"},{"bike_id":"f48aca56-eadb-442b-a048-19022a545bd6","system_id":"levelo_inurba_marseille","lat":43.3046,"lon":5.37906,"is_reserved":false,"is_disabled":false,"rental_uris":{"android":"levelo://app?vid=f48aca56-eadb-442b-a048-19022a545bd6","ios":"levelo://app?vid=f48aca56-eadb-442b-a048-19022a545bd6"},"vehicle_type_id":"4","last_reported":1726398386,"current_range_meters":24800,"station_id":"ce4bgup2rcd13ifvqcn0","pricing_plan_id":"cebpf4jnsgd1na2vs0mg"},{"bike_id":"b1db6496-7d7b-4acc-a88c-e5406d38e100","system_id":"levelo_inurba_marseille","lat":43.23192,"lon":5.3555,"is_reserved":false,"is_disabled":false,"rental_uris":{"android":"levelo://app?vid=b1db6496-7d7b-4acc-a88c-e5406d38e100","ios":"levelo://app?vid=b1db6496-7d7b-4acc-a88c-e5406d38e100"},"vehicle_type_id":"4","last_reported":1726398386,"current_range_meters":37600,"station_id":"ce4bhu92rcd13ifvqi70","pricing_plan_id":"cebpf4jnsgd1na2vs0mg"},{"bike_id":"ee721f16-71d0-49c8-9da4-858f78b55bcb","system_id":"levelo_inurba_marseille","lat":43.25938,"lon":5.40902,"is_reserved":false,"is_disabled":false,"rental_uris":{"android":"levelo://app?vid=ee721f16-71d0-49c8-9da4-858f78b55bcb","ios":"levelo://app?vid=ee721f16-71d0-49c8-9da4-858f78b55bcb"},"vehicle_type_id":"4","last_reported":1726398386,"current_range_meters":26000,"station_id":"ce4bhm92rcd13ifvqglg","pricing_plan_id":"cebpf4jnsgd1na2vs0mg"},{"bike_id":"13c91d7d-de5b-4dfc-9b1a-b2ed5c129dd0","system_id":"levelo_inurba_marseille","lat":43.30534,"lon":5.3671,"is_reserved":false,"is_disabled":false,"rental_uris":{"android":"levelo://app?vid=13c91d7d-de5b-4dfc-9b1a-b2ed5c129dd0","ios":"levelo://app?vid=13c91d7d-de5b-4dfc-9b1a-b2ed5c129dd0"},"vehicle_type_id":"4","last_reported":1726398386,"current_range_meters":10000,"station_id":"ce4bgrp2rcd13ifvqc9g","pricing_plan_id":"cebpf4jnsgd1na2vs0mg"},{"bike_id":"03aa104c-fa70-4660-8124-c74da53980cb","system_id":"levelo_inurba_marseille","lat":43.30956,"lon":5.39036,"is_reserved":false,"is_disabled":false,"rental_uris":{"android":"levelo://app?vid=03aa104c-fa70-4660-8124-c74da53980cb","ios":"levelo://app?vid=03aa104c-fa70-4660-8124-c74da53980cb"},"vehicle_type_id":"4","last_reported":1726398386,"current_range_meters":39200,"station_id":"ce4bgup2rcd13ifvqco0","pricing_plan_id":"cebpf4jnsgd1na2vs0mg"},{"bike_id":"7bf38636-b6f2-407d-b53c-59c721c7b611","system_id":"levelo_inurba_marseille","lat":43.295807,"lon":5.375996,"is_reserved":false,"is_disabled":false,"rental_uris":{"android":"levelo://app?vid=7bf38636-b6f2-407d-b53c-59c721c7b611","ios":"levelo://app?vid=7bf38636-b6f2-407d-b53c-59c721c7b611"},"vehicle_type_id":"4","last_reported":1726398386,"current_range_meters":11200,"station_id":"ce4bh0p2rcd13ifvqd70","pricing_plan_id":"cebpf4jnsgd1na2vs0mg"},{"bike_id":"5cf4c2f1-f092-4550-b8cf-369099ebc3bc","system_id":"levelo_inurba_marseille","lat":43.2456,"lon":5.4155,"is_reserved":false,"is_disabled":false,"rental_uris":{"android":"levelo://app?vid=5cf4c2f1-f092-4550-b8cf-369099ebc3bc","ios":"levelo://app?vid=5cf4c2f1-f092-4550-b8cf-369099ebc3bc"},"vehicle_type_id":"4","last_reported":1726398386,"current_range_meters":16000,"station_id":"ce4bhlh2rcd13ifvqgig","pricing_plan_id":"cebpf4jnsgd1na2vs0mg"},{"bike_id":"34b93297-3116-4e45-b2ab-b7f4425acd62","system_id":"levelo_inurba_marseille","lat":43.299841,"lon":5.371853,"is_reserved":false,"is_disabled":false,"rental_uris":{"android":"levelo://app?vid=34b93297-3116-4e45-b2ab-b7f4425acd62","ios":"levelo://app?vid=34b93297-3116-4e45-b2ab-b7f4425acd62"},"vehicle_type_id":"4","last_reported":1726398386,"current_range_meters":19600,"station_id":"ce4bgr92rcd13ifvqc7g","pricing_plan_id":"cebpf4jnsgd1na2vs0mg"},{"bike_id":"191aaad7-3947-47de-b3b9-0cc2faf013d9","system_id":"levelo_inurba_marseille","lat":43.28157,"lon":5.42639,"is_reserved":false,"is_disabled":false,"rental_uris":{"android":"levelo://app?vid=191aaad7-3947-47de-b3b9-0cc2faf013d9","ios":"levelo://app?vid=191aaad7-3947-47de-b3b9-0cc2faf013d9"},"vehicle_type_id":"4","last_reported":1726398386,"current_range_meters":38800,"station_id":"ce4bhnh2rcd13ifvqgug","pricing_plan_id":"cebpf4jnsgd1na2vs0mg"},{"bike_id":"dfc7e944-178a-43bd-85e8-0abf1cafc416","system_id":"levelo_inurba_marseille","lat":43.22923,"lon":5.35376,"is_reserved":false,"is_disabled":false,"rental_uris":{"android":"levelo://app?vid=dfc7e944-178a-43bd-85e8-0abf1cafc416","ios":"levelo://app?vid=dfc7e944-178a-43bd-85e8-0abf1cafc416"},"vehicle_type_id":"4","last_reported":1726398386,"current_range_meters":22800,"station_id":"cpo3532slgdg3j2ikp40","pricing_plan_id":"cebpf4jnsgd1na2vs0mg"},{"bike_id":"88ffb8ef-7f34-45da-99eb-ef77f4b24fa2","system_id":"levelo_inurba_marseille","lat":43.29053,"lon":5.35905,"is_reserved":false,"is_disabled":false,"rental_uris":{"android":"levelo://app?vid=88ffb8ef-7f34-45da-99eb-ef77f4b24fa2","ios":"levelo://app?vid=88ffb8ef-7f34-45da-99eb-ef77f4b24fa2"},"vehicle_type_id":"4","last_reported":1726398386,"current_range_meters":38000,"station_id":"ce4bha92rcd13ifvqeg0","pricing_plan_id":"cebpf4jnsgd1na2vs0mg"},{"bike_id":"6dddbab5-c16e-4541-846f-31261364d687","system_id":"levelo_inurba_marseille","lat":43.31334,"lon":5.39698,"is_reserved":false,"is_disabled":false,"rental_uris":{"android":"levelo://app?vid=6dddbab5-c16e-4541-846f-31261364d687","ios":"levelo://app?vid=6dddbab5-c16e-4541-846f-31261364d687"},"vehicle_type_id":"4","last_reported":1726398386,"current_range_meters":10800,"station_id":"ce4bgvp2rcd13ifvqcu0","pricing_plan_id":"cebpf4jnsgd1na2vs0mg"},{"bike_id":"d640e26e-cd33-4315-be7d-2641ecfdcef9","system_id":"levelo_inurba_marseille","lat":43.30462,"lon":5.37905,"is_reserved":false,"is_disabled":false,"rental_uris":{"android":"levelo://app?vid=d640e26e-cd33-4315-be7d-2641ecfdcef9","ios":"levelo://app?vid=d640e26e-cd33-4315-be7d-2641ecfdcef9"},"vehicle_type_id":"4","last_reported":1726398386,"current_range_meters":11600,"station_id":"ce4bgup2rcd13ifvqcn0","pricing_plan_id":"cebpf4jnsgd1na2vs0mg"},{"bike_id":"7bc14114-e12c-41c1-ab2a-a4f019a17326","system_id":"levelo_inurba_marseille","lat":43.231018,"lon":5.354729,"is_reserved":false,"is_disabled":false,"rental_uris":{"android":"levelo://app?vid=7bc14114-e12c-41c1-ab2a-a4f019a17326","ios":"levelo://app?vid=7bc14114-e12c-41c1-ab2a-a4f019a17326"},"vehicle_type_id":"4","last_reported":1726398386,"current_range_meters":34800,"station_id":"cpo3342slgdg3j2ifvpg","pricing_plan_id":"cebpf4jnsgd1na2vs0mg"},{"bike_id":"b645ac77-0d58-4fa9-8ad3-947af8bdb1d9","system_id":"levelo_inurba_marseille","lat":43.29902,"lon":5.43666,"is_reserved":false,"is_disabled":false,"rental_uris":{"android":"levelo://app?vid=b645ac77-0d58-4fa9-8ad3-947af8bdb1d9","ios":"levelo://app?vid=b645ac77-0d58-4fa9-8ad3-947af8bdb1d9"},"vehicle_type_id":"4","last_reported":1726398386,"current_range_meters":34800,"station_id":"ce4bhpp2rcd13ifvqhfg","pricing_plan_id":"cebpf4jnsgd1na2vs0mg"},{"bike_id":"03515e55-0de8-4f6d-953a-abbf71a9cce4","system_id":"levelo_inurba_marseille","lat":43.24071,"lon":5.37759,"is_reserved":false,"is_disabled":false,"rental_uris":{"android":"levelo://app?vid=03515e55-0de8-4f6d-953a-abbf71a9cce4","ios":"levelo://app?vid=03515e55-0de8-4f6d-953a-abbf71a9cce4"},"vehicle_type_id":"4","last_reported":1726398386,"current_range_meters":17600,"station_id":"ce4bhnp2rcd13ifvqgvg","pricing_plan_id":"cebpf4jnsgd1na2vs0mg"},{"bike_id":"a5678295-0458-4f6d-9ccb-6897bde67101","system_id":"levelo_inurba_marseille","lat":43.24168,"lon":5.36404,"is_reserved":false,"is_disabled":false,"rental_uris":{"android":"levelo://app?vid=a5678295-0458-4f6d-9ccb-6897bde67101","ios":"levelo://app?vid=a5678295-0458-4f6d-9ccb-6897bde67101"},"vehicle_type_id":"4","last_reported":1726398386,"current_range_meters":36800,"station_id":"cpo36qri1sfpv3e86is0","pricing_plan_id":"cebpf4jnsgd1na2vs0mg"},{"bike_id":"91d155a1-0e95-42f4-9cf2-24e586735a13","system_id":"levelo_inurba_marseille","lat":43.33722,"lon":5.39181,"is_reserved":false,"is_disabled":false,"rental_uris":{"android":"levelo://app?vid=91d155a1-0e95-42f4-9cf2-24e586735a13","ios":"levelo://app?vid=91d155a1-0e95-42f4-9cf2-24e586735a13"},"vehicle_type_id":"4","last_reported":1726398386,"current_range_meters":39200,"station_id":"ce4bhr92rcd13ifvqhsg","pricing_plan_id":"cebpf4jnsgd1na2vs0mg"},{"bike_id":"9ea5f386-1594-4303-a22f-dd9a4338fb38","system_id":"levelo_inurba_marseille","lat":43.28277,"lon":5.3507,"is_reserved":false,"is_disabled":false,"rental_uris":{"android":"levelo://app?vid=9ea5f386-1594-4303-a22f-dd9a4338fb38","ios":"levelo://app?vid=9ea5f386-1594-4303-a22f-dd9a4338fb38"},"vehicle_type_id":"4","last_reported":1726398386,"current_range_meters":18800,"station_id":"ce4bhbp2rcd13ifvqerg","pricing_plan_id":"cebpf4jnsgd1na2vs0mg"},{"bike_id":"b00d6d0d-9b69-4bac-adae-46e5a982b2f2","system_id":"levelo_inurba_marseille","lat":43.31066,"lon":5.38352,"is_reserved":false,"is_disabled":false,"rental_uris":{"android":"levelo://app?vid=b00d6d0d-9b69-4bac-adae-46e5a982b2f2","ios":"levelo://app?vid=b00d6d0d-9b69-4bac-adae-46e5a982b2f2"},"vehicle_type_id":"4","last_reported":1726398386,"current_range_meters":29600,"station_id":"ce4bgv92rcd13ifvqcr0","pricing_plan_id":"cebpf4jnsgd1na2vs0mg"},{"bike_id":"a3b07599-9d2d-4545-91d4-7ad330a18b6e","system_id":"levelo_inurba_marseille","lat":43.30551,"lon":5.36702,"is_reserved":false,"is_disabled":false,"rental_uris":{"android":"levelo://app?vid=a3b07599-9d2d-4545-91d4-7ad330a18b6e","ios":"levelo://app?vid=a3b07599-9d2d-4545-91d4-7ad330a18b6e"},"vehicle_type_id":"4","last_reported":1726398386,"current_range_meters":26000,"station_id":"ce4bgrp2rcd13ifvqc9g","pricing_plan_id":"cebpf4jnsgd1na2vs0mg"},{"bike_id":"7abc2a25-404a-4f70-a7c0-c89315b5c4bc","system_id":"levelo_inurba_marseille","lat":43.29712,"lon":5.40488,"is_reserved":false,"is_disabled":false,"rental_uris":{"android":"levelo://app?vid=7abc2a25-404a-4f70-a7c0-c89315b5c4bc","ios":"levelo://app?vid=7abc2a25-404a-4f70-a7c0-c89315b5c4bc"},"vehicle_type_id":"4","last_reported":1726398386,"current_range_meters":28000,"station_id":"","pricing_plan_id":"cebpf4jnsgd1na2vs0mg"},{"bike_id":"fd83cc85-fb39-4529-9ec4-67df617c15df","system_id":"levelo_inurba_marseille","lat":43.28264,"lon":5.35378,"is_reserved":false,"is_disabled":false,"rental_uris":{"android":"levelo://app?vid=fd83cc85-fb39-4529-9ec4-67df617c15df","ios":"levelo://app?vid=fd83cc85-fb39-4529-9ec4-67df617c15df"},"vehicle_type_id":"4","last_reported":1726398386,"current_range_meters":16800,"station_id":"","pricing_plan_id":"cebpf4jnsgd1na2vs0mg"},{"bike_id":"680b296f-8a9e-4ce9-90dd-5edf4faa61c1","system_id":"levelo_inurba_marseille","lat":43.31761,"lon":5.39013,"is_reserved":false,"is_disabled":false,"rental_uris":{"android":"levelo://app?vid=680b296f-8a9e-4ce9-90dd-5edf4faa61c1","ios":"levelo://app?vid=680b296f-8a9e-4ce9-90dd-5edf4faa61c1"},"vehicle_type_id":"4","last_reported":1726398386,"current_range_meters":38000,"station_id":"ce4bhqp2rcd13ifvqhng","pricing_plan_id":"cebpf4jnsgd1na2vs0mg"},{"bike_id":"bbd2450a-84a7-42e1-bc94-af6bf7be8eb5","system_id":"levelo_inurba_marseille","lat":43.33023,"lon":5.39051,"is_reserved":false,"is_disabled":false,"rental_uris":{"android":"levelo://app?vid=bbd2450a-84a7-42e1-bc94-af6bf7be8eb5","ios":"levelo://app?vid=bbd2450a-84a7-42e1-bc94-af6bf7be8eb5"},"vehicle_type_id":"4","last_reported":1726398386,"current_range_meters":33200,"station_id":"ce4bhr92rcd13ifvqhrg","pricing_plan_id":"cebpf4jnsgd1na2vs0mg"},{"bike_id":"fceea905-a923-4535-9027-2c306cebf83f","system_id":"levelo_inurba_marseille","lat":43.27955,"lon":5.41054,"is_reserved":false,"is_disabled":false,"rental_uris":{"android":"levelo://app?vid=fceea905-a923-4535-9027-2c306cebf83f","ios":"levelo://app?vid=fceea905-a923-4535-9027-2c306cebf83f"},"vehicle_type_id":"4","last_reported":1726398386,"current_range_meters":38800,"station_id":"ce4bhnp2rcd13ifvqh0g","pricing_plan_id":"cebpf4jnsgd1na2vs0mg"},{"bike_id":"6f35c12e-d335-43b9-b4b4-448f434edd1c","system_id":"levelo_inurba_marseille","lat":43.33728,"lon":5.39181,"is_reserved":false,"is_disabled":false,"rental_uris":{"android":"levelo://app?vid=6f35c12e-d335-43b9-b4b4-448f434edd1c","ios":"levelo://app?vid=6f35c12e-d335-43b9-b4b4-448f434edd1c"},"vehicle_type_id":"4","last_reported":1726398386,"current_range_meters":36800,"station_id":"ce4bhr92rcd13ifvqhsg","pricing_plan_id":"cebpf4jnsgd1na2vs0mg"},{"bike_id":"46fa0628-63da-403c-a9e3-76cf9989cf96","system_id":"levelo_inurba_marseille","lat":43.31328,"lon":5.39691,"is_reserved":false,"is_disabled":false,"rental_uris":{"android":"levelo://app?vid=46fa0628-63da-403c-a9e3-76cf9989cf96","ios":"levelo://app?vid=46fa0628-63da-403c-a9e3-76cf9989cf96"},"vehicle_type_id":"4","last_reported":1726398386,"current_range_meters":40000,"station_id":"ce4bgvp2rcd13ifvqcu0","pricing_plan_id":"cebpf4jnsgd1na2vs0mg"},{"bike_id":"873ac64c-a3b4-489d-b67e-8f966df25667","system_id":"levelo_inurba_marseille","lat":43.30896,"lon":5.39651,"is_reserved":false,"is_disabled":false,"rental_uris":{"android":"levelo://app?vid=873ac64c-a3b4-489d-b67e-8f966df25667","ios":"levelo://app?vid=873ac64c-a3b4-489d-b67e-8f966df25667"},"vehicle_type_id":"4","last_reported":1726398386,"current_range_meters":38000,"station_id":"ce4bh012rcd13ifvqcv0","pricing_plan_id":"cebpf4jnsgd1na2vs0mg"},{"bike_id":"eb859aa0-56cd-4f84-a240-69fd46a38636","system_id":"levelo_inurba_marseille","lat":43.284088,"lon":5.349753,"is_reserved":false,"is_disabled":false,"rental_uris":{"android":"levelo://app?vid=eb859aa0-56cd-4f84-a240-69fd46a38636","ios":"levelo://app?vid=eb859aa0-56cd-4f84-a240-69fd46a38636"},"vehicle_type_id":"4","last_reported":1726398386,"current_range_meters":3600,"station_id":"ce4bhbh2rcd13ifvqepg","pricing_plan_id":"cebpf4jnsgd1na2vs0mg"},{"bike_id":"ac2f8b18-c4e8-4836-947b-b533a20a9549","system_id":"levelo_inurba_marseille","lat":43.29044,"lon":5.35912,"is_reserved":false,"is_disabled":false,"rental_uris":{"android":"levelo://app?vid=ac2f8b18-c4e8-4836-947b-b533a20a9549","ios":"levelo://app?vid=ac2f8b18-c4e8-4836-947b-b533a20a9549"},"vehicle_type_id":"4","last_reported":1726398386,"current_range_meters":35200,"station_id":"ce4bha92rcd13ifvqeg0","pricing_plan_id":"cebpf4jnsgd1na2vs0mg"},{"bike_id":"552ccea4-a0ab-4fa2-9015-1ea8da64cd61","system_id":"levelo_inurba_marseille","lat":43.25574,"lon":5.38242,"is_reserved":false,"is_disabled":false,"rental_uris":{"android":"levelo://app?vid=552ccea4-a0ab-4fa2-9015-1ea8da64cd61","ios":"levelo://app?vid=552ccea4-a0ab-4fa2-9015-1ea8da64cd61"},"vehicle_type_id":"4","last_reported":1726398386,"current_range_meters":4000,"station_id":"ce4bhih2rcd13ifvqfs0","pricing_plan_id":"cebpf4jnsgd1na2vs0mg"},{"bike_id":"c979dfc3-35c3-4581-bddc-204d4a80487c","system_id":"levelo_inurba_marseille","lat":43.28268,"lon":5.35067,"is_reserved":false,"is_disabled":false,"rental_uris":{"android":"levelo://app?vid=c979dfc3-35c3-4581-bddc-204d4a80487c","ios":"levelo://app?vid=c979dfc3-35c3-4581-bddc-204d4a80487c"},"vehicle_type_id":"4","last_reported":1726398386,"current_range_meters":10800,"station_id":"ce4bhbp2rcd13ifvqerg","pricing_plan_id":"cebpf4jnsgd1na2vs0mg"},{"bike_id":"794c100a-998c-45d3-af17-27cb6dc30b08","system_id":"levelo_inurba_marseille","lat":43.26507,"lon":5.39549,"is_reserved":false,"is_disabled":false,"rental_uris":{"android":"levelo://app?vid=794c100a-998c-45d3-af17-27cb6dc30b08","ios":"levelo://app?vid=794c100a-998c-45d3-af17-27cb6dc30b08"},"vehicle_type_id":"4","last_reported":1726398386,"current_range_meters":35600,"station_id":"ce4bhi12rcd13ifvqfq0","pricing_plan_id":"cebpf4jnsgd1na2vs0mg"},{"bike_id":"6dbbe748-edb8-440d-a960-d0a2c6727859","system_id":"levelo_inurba_marseille","lat":43.30426,"lon":5.38882,"is_reserved":false,"is_disabled":false,"rental_uris":{"android":"levelo://app?vid=6dbbe748-edb8-440d-a960-d0a2c6727859","ios":"levelo://app?vid=6dbbe748-edb8-440d-a960-d0a2c6727859"},"vehicle_type_id":"4","last_reported":1726398386,"current_range_meters":10800,"station_id":"ce4bgk12rcd13ifvqbi0","pricing_plan_id":"cebpf4jnsgd1na2vs0mg"},{"bike_id":"b8cfd7e7-5313-497a-b136-54748d691d21","system_id":"levelo_inurba_marseille","lat":43.31707,"lon":5.43707,"is_reserved":false,"is_disabled":false,"rental_uris":{"android":"levelo://app?vid=b8cfd7e7-5313-497a-b136-54748d691d21","ios":"levelo://app?vid=b8cfd7e7-5313-497a-b136-54748d691d21"},"vehicle_type_id":"4","last_reported":1726398386,"current_range_meters":40000,"station_id":"ce4bhp92rcd13ifvqhcg","pricing_plan_id":"cebpf4jnsgd1na2vs0mg"},{"bike_id":"a1194842-a8c2-4dc4-9765-7560167df637","system_id":"levelo_inurba_marseille","lat":43.24665,"lon":5.38163,"is_reserved":false,"is_disabled":false,"rental_uris":{"android":"levelo://app?vid=a1194842-a8c2-4dc4-9765-7560167df637","ios":"levelo://app?vid=a1194842-a8c2-4dc4-9765-7560167df637"},"vehicle_type_id":"4","last_reported":1726398386,"current_range_meters":38800,"station_id":"ce4bhih2rcd13ifvqfr0","pricing_plan_id":"cebpf4jnsgd1na2vs0mg"},{"bike_id":"e913674e-3e20-42a5-890a-6007ca92b33d","system_id":"levelo_inurba_marseille","lat":43.31331,"lon":5.39689,"is_reserved":false,"is_disabled":false,"rental_uris":{"android":"levelo://app?vid=e913674e-3e20-42a5-890a-6007ca92b33d","ios":"levelo://app?vid=e913674e-3e20-42a5-890a-6007ca92b33d"},"vehicle_type_id":"4","last_reported":1726398386,"current_range_meters":30800,"station_id":"ce4bgvp2rcd13ifvqcu0","pricing_plan_id":"cebpf4jnsgd1na2vs0mg"},{"bike_id":"7251d55d-befd-400d-90d9-ab0b68ba8caa","system_id":"levelo_inurba_marseille","lat":43.24811,"lon":5.37456,"is_reserved":false,"is_disabled":false,"rental_uris":{"android":"levelo://app?vid=7251d55d-befd-400d-90d9-ab0b68ba8caa","ios":"levelo://app?vid=7251d55d-befd-400d-90d9-ab0b68ba8caa"},"vehicle_type_id":"4","last_reported":1726398386,"current_range_meters":37600,"station_id":"ce4bhgh2rcd13ifvqfb0","pricing_plan_id":"cebpf4jnsgd1na2vs0mg"},{"bike_id":"53a2d874-293d-47cc-bdbd-a03b3468623b","system_id":"levelo_inurba_marseille","lat":43.29904,"lon":5.43678,"is_reserved":false,"is_disabled":false,"rental_uris":{"android":"levelo://app?vid=53a2d874-293d-47cc-bdbd-a03b3468623b","ios":"levelo://app?vid=53a2d874-293d-47cc-bdbd-a03b3468623b"},"vehicle_type_id":"4","last_reported":1726398386,"current_range_meters":4400,"station_id":"ce4bhpp2rcd13ifvqhfg","pricing_plan_id":"cebpf4jnsgd1na2vs0mg"},{"bike_id":"bb7acf50-b6bc-4b2d-adf4-833abc23b24c","system_id":"levelo_inurba_marseille","lat":43.232,"lon":5.35548,"is_reserved":false,"is_disabled":false,"rental_uris":{"android":"levelo://app?vid=bb7acf50-b6bc-4b2d-adf4-833abc23b24c","ios":"levelo://app?vid=bb7acf50-b6bc-4b2d-adf4-833abc23b24c"},"vehicle_type_id":"4","last_reported":1726398386,"current_range_meters":40000,"station_id":"ce4bhu92rcd13ifvqi70","pricing_plan_id":"cebpf4jnsgd1na2vs0mg"},{"bike_id":"19628bd1-9172-46c3-bfa1-37d603408e00","system_id":"levelo_inurba_marseille","lat":43.31329,"lon":5.39694,"is_reserved":false,"is_disabled":false,"rental_uris":{"android":"levelo://app?vid=19628bd1-9172-46c3-bfa1-37d603408e00","ios":"levelo://app?vid=19628bd1-9172-46c3-bfa1-37d603408e00"},"vehicle_type_id":"4","last_reported":1726398386,"current_range_meters":40000,"station_id":"ce4bgvp2rcd13ifvqcu0","pricing_plan_id":"cebpf4jnsgd1na2vs0mg"},{"bike_id":"f6de5503-3f64-4c45-a987-7e74ca5c7044","system_id":"levelo_inurba_marseille","lat":43.24173,"lon":5.36398,"is_reserved":false,"is_disabled":false,"rental_uris":{"android":"levelo://app?vid=f6de5503-3f64-4c45-a987-7e74ca5c7044","ios":"levelo://app?vid=f6de5503-3f64-4c45-a987-7e74ca5c7044"},"vehicle_type_id":"4","last_reported":1726398386,"current_range_meters":25600,"station_id":"cpo36qri1sfpv3e86is0","pricing_plan_id":"cebpf4jnsgd1na2vs0mg"},{"bike_id":"f283393f-cb71-4171-8fa7-12e43a64db58","system_id":"levelo_inurba_marseille","lat":43.290039,"lon":5.356209,"is_reserved":false,"is_disabled":false,"rental_uris":{"android":"levelo://app?vid=f283393f-cb71-4171-8fa7-12e43a64db58","ios":"levelo://app?vid=f283393f-cb71-4171-8fa7-12e43a64db58"},"vehicle_type_id":"4","last_reported":1726398386,"current_range_meters":38400,"station_id":"ce4bgph2rcd13ifvqc2g","pricing_plan_id":"cebpf4jnsgd1na2vs0mg"},{"bike_id":"58c875d5-0943-40fd-bd3a-ee52100779df","system_id":"levelo_inurba_marseille","lat":43.27985,"lon":5.41651,"is_reserved":false,"is_disabled":false,"rental_uris":{"android":"levelo://app?vid=58c875d5-0943-40fd-bd3a-ee52100779df","ios":"levelo://app?vid=58c875d5-0943-40fd-bd3a-ee52100779df"},"vehicle_type_id":"4","last_reported":1726398386,"current_range_meters":28400,"station_id":"ce4bho12rcd13ifvqh1g","pricing_plan_id":"cebpf4jnsgd1na2vs0mg"},{"bike_id":"55a43fda-0c8d-40d1-a3de-092939f135ed","system_id":"levelo_inurba_marseille","lat":43.25582,"lon":5.38233,"is_reserved":false,"is_disabled":false,"rental_uris":{"android":"levelo://app?vid=55a43fda-0c8d-40d1-a3de-092939f135ed","ios":"levelo://app?vid=55a43fda-0c8d-40d1-a3de-092939f135ed"},"vehicle_type_id":"4","last_reported":1726398386,"current_range_meters":22000,"station_id":"ce4bhih2rcd13ifvqfs0","pricing_plan_id":"cebpf4jnsgd1na2vs0mg"},{"bike_id":"d165a0f9-ad20-4713-8ca5-99556063ca3d","system_id":"levelo_inurba_marseille","lat":43.30587,"lon":5.39348,"is_reserved":false,"is_disabled":false,"rental_uris":{"android":"levelo://app?vid=d165a0f9-ad20-4713-8ca5-99556063ca3d","ios":"levelo://app?vid=d165a0f9-ad20-4713-8ca5-99556063ca3d"},"vehicle_type_id":"4","last_reported":1726398386,"current_range_meters":24800,"station_id":"ce4bh0p2rcd13ifvqd80","pricing_plan_id":"cebpf4jnsgd1na2vs0mg"},{"bike_id":"cc0d038e-8a62-435b-9ac6-bfd1505a2d4f","system_id":"levelo_inurba_marseille","lat":43.31725,"lon":5.42412,"is_reserved":false,"is_disabled":false,"rental_uris":{"android":"levelo://app?vid=cc0d038e-8a62-435b-9ac6-bfd1505a2d4f","ios":"levelo://app?vid=cc0d038e-8a62-435b-9ac6-bfd1505a2d4f"},"vehicle_type_id":"4","last_reported":1726398386,"current_range_meters":39200,"station_id":"ce4bhp92rcd13ifvqhbg","pricing_plan_id":"cebpf4jnsgd1na2vs0mg"},{"bike_id":"9d3d0e56-768e-4892-a48d-97d25cda04cf","system_id":"levelo_inurba_marseille","lat":43.31506,"lon":5.37296,"is_reserved":false,"is_disabled":false,"rental_uris":{"android":"levelo://app?vid=9d3d0e56-768e-4892-a48d-97d25cda04cf","ios":"levelo://app?vid=9d3d0e56-768e-4892-a48d-97d25cda04cf"},"vehicle_type_id":"4","last_reported":1726398386,"current_range_meters":21600,"station_id":"ce4bgt12rcd13ifvqcd0","pricing_plan_id":"cebpf4jnsgd1na2vs0mg"},{"bike_id":"7f5df2c6-7e1e-42fe-b508-8ee82456fcff","system_id":"levelo_inurba_marseille","lat":43.31068,"lon":5.38353,"is_reserved":false,"is_disabled":false,"rental_uris":{"android":"levelo://app?vid=7f5df2c6-7e1e-42fe-b508-8ee82456fcff","ios":"levelo://app?vid=7f5df2c6-7e1e-42fe-b508-8ee82456fcff"},"vehicle_type_id":"4","last_reported":1726398386,"current_range_meters":32800,"station_id":"ce4bgv92rcd13ifvqcr0","pricing_plan_id":"cebpf4jnsgd1na2vs0mg"},{"bike_id":"d56cbbe5-b13f-48cb-8b7d-140885a7b197","system_id":"levelo_inurba_marseille","lat":43.31328,"lon":5.39694,"is_reserved":false,"is_disabled":false,"rental_uris":{"android":"levelo://app?vid=d56cbbe5-b13f-48cb-8b7d-140885a7b197","ios":"levelo://app?vid=d56cbbe5-b13f-48cb-8b7d-140885a7b197"},"vehicle_type_id":"4","last_reported":1726398386,"current_range_meters":18800,"station_id":"ce4bgvp2rcd13ifvqcu0","pricing_plan_id":"cebpf4jnsgd1na2vs0mg"},{"bike_id":"bb046787-1b6f-4a52-9f6c-67f38be48f9e","system_id":"levelo_inurba_marseille","lat":43.24542,"lon":5.39523,"is_reserved":false,"is_disabled":false,"rental_uris":{"android":"levelo://app?vid=bb046787-1b6f-4a52-9f6c-67f38be48f9e","ios":"levelo://app?vid=bb046787-1b6f-4a52-9f6c-67f38be48f9e"},"vehicle_type_id":"4","last_reported":1726398386,"current_range_meters":31200,"station_id":"ce4bhlp2rcd13ifvqgjg","pricing_plan_id":"cebpf4jnsgd1na2vs0mg"},{"bike_id":"6e180e39-285c-4b8f-bed6-518eb1d04836","system_id":"levelo_inurba_marseille","lat":43.26687,"lon":5.38269,"is_reserved":false,"is_disabled":false,"rental_uris":{"android":"levelo://app?vid=6e180e39-285c-4b8f-bed6-518eb1d04836","ios":"levelo://app?vid=6e180e39-285c-4b8f-bed6-518eb1d04836"},"vehicle_type_id":"4","last_reported":1726398386,"current_range_meters":24000,"station_id":"ce4bhg92rcd13ifvqf90","pricing_plan_id":"cebpf4jnsgd1na2vs0mg"},{"bike_id":"5eff6092-c280-497f-b1e1-681fbb79814a","system_id":"levelo_inurba_marseille","lat":43.25584,"lon":5.38233,"is_reserved":false,"is_disabled":false,"rental_uris":{"android":"levelo://app?vid=5eff6092-c280-497f-b1e1-681fbb79814a","ios":"levelo://app?vid=5eff6092-c280-497f-b1e1-681fbb79814a"},"vehicle_type_id":"4","last_reported":1726398386,"current_range_meters":22400,"station_id":"ce4bhih2rcd13ifvqfs0","pricing_plan_id":"cebpf4jnsgd1na2vs0mg"},{"bike_id":"fd349695-256c-475f-ab0a-841c973e4665","system_id":"levelo_inurba_marseille","lat":43.291811,"lon":5.393149,"is_reserved":false,"is_disabled":false,"rental_uris":{"android":"levelo://app?vid=fd349695-256c-475f-ab0a-841c973e4665","ios":"levelo://app?vid=fd349695-256c-475f-ab0a-841c973e4665"},"vehicle_type_id":"4","last_reported":1726398386,"current_range_meters":24400,"station_id":"ce4bh192rcd13ifvqdd0","pricing_plan_id":"cebpf4jnsgd1na2vs0mg"},{"bike_id":"ece1c1da-1c56-49d0-9e30-ae29ef104a57","system_id":"levelo_inurba_marseille","lat":43.3188,"lon":5.40734,"is_reserved":false,"is_disabled":false,"rental_uris":{"android":"levelo://app?vid=ece1c1da-1c56-49d0-9e30-ae29ef104a57","ios":"levelo://app?vid=ece1c1da-1c56-49d0-9e30-ae29ef104a57"},"vehicle_type_id":"4","last_reported":1726398386,"current_range_meters":8000,"station_id":"ce4bhq12rcd13ifvqhig","pricing_plan_id":"cebpf4jnsgd1na2vs0mg"},{"bike_id":"4e1b28c2-8932-47de-840a-6bc8a94d5a8b","system_id":"levelo_inurba_marseille","lat":43.30894,"lon":5.37184,"is_reserved":false,"is_disabled":false,"rental_uris":{"android":"levelo://app?vid=4e1b28c2-8932-47de-840a-6bc8a94d5a8b","ios":"levelo://app?vid=4e1b28c2-8932-47de-840a-6bc8a94d5a8b"},"vehicle_type_id":"4","last_reported":1726398386,"current_range_meters":38400,"station_id":"ce4bguh2rcd13ifvqckg","pricing_plan_id":"cebpf4jnsgd1na2vs0mg"},{"bike_id":"e040efde-f85a-42e1-b011-6999076e9e17","system_id":"levelo_inurba_marseille","lat":43.23182,"lon":5.3999,"is_reserved":false,"is_disabled":false,"rental_uris":{"android":"levelo://app?vid=e040efde-f85a-42e1-b011-6999076e9e17","ios":"levelo://app?vid=e040efde-f85a-42e1-b011-6999076e9e17"},"vehicle_type_id":"4","last_reported":1726398386,"current_range_meters":16000,"station_id":"ce4bhn12rcd13ifvqgqg","pricing_plan_id":"cebpf4jnsgd1na2vs0mg"},{"bike_id":"d34fe396-e090-4f1b-bbb5-c81669165512","system_id":"levelo_inurba_marseille","lat":43.31339,"lon":5.36719,"is_reserved":false,"is_disabled":false,"rental_uris":{"android":"levelo://app?vid=d34fe396-e090-4f1b-bbb5-c81669165512","ios":"levelo://app?vid=d34fe396-e090-4f1b-bbb5-c81669165512"},"vehicle_type_id":"4","last_reported":1726398386,"current_range_meters":22400,"station_id":"ce4bgr92rcd13ifvqc6g","pricing_plan_id":"cebpf4jnsgd1na2vs0mg"},{"bike_id":"6bcc742b-48ce-4914-8d02-15bb6fc592ab","system_id":"levelo_inurba_marseille","lat":43.25583,"lon":5.38228,"is_reserved":false,"is_disabled":false,"rental_uris":{"android":"levelo://app?vid=6bcc742b-48ce-4914-8d02-15bb6fc592ab","ios":"levelo://app?vid=6bcc742b-48ce-4914-8d02-15bb6fc592ab"},"vehicle_type_id":"4","last_reported":1726398386,"current_range_meters":6800,"station_id":"ce4bhih2rcd13ifvqfs0","pricing_plan_id":"cebpf4jnsgd1na2vs0mg"},{"bike_id":"23392c47-e2f6-49da-999d-f619b8ebdb8e","system_id":"levelo_inurba_marseille","lat":43.27959,"lon":5.3989,"is_reserved":false,"is_disabled":false,"rental_uris":{"android":"levelo://app?vid=23392c47-e2f6-49da-999d-f619b8ebdb8e","ios":"levelo://app?vid=23392c47-e2f6-49da-999d-f619b8ebdb8e"},"vehicle_type_id":"4","last_reported":1726398386,"current_range_meters":28000,"station_id":"ce4bhdp2rcd13ifvqf20","pricing_plan_id":"cebpf4jnsgd1na2vs0mg"},{"bike_id":"ccc81115-c769-40cb-a420-a414e3f0cc3b","system_id":"levelo_inurba_marseille","lat":43.24389,"lon":5.37061,"is_reserved":false,"is_disabled":false,"rental_uris":{"android":"levelo://app?vid=ccc81115-c769-40cb-a420-a414e3f0cc3b","ios":"levelo://app?vid=ccc81115-c769-40cb-a420-a414e3f0cc3b"},"vehicle_type_id":"4","last_reported":1726398386,"current_range_meters":37600,"station_id":"ce4bhhh2rcd13ifvqfk0","pricing_plan_id":"cebpf4jnsgd1na2vs0mg"},{"bike_id":"8c78136d-facd-47b2-a4b1-bfdd1a328c94","system_id":"levelo_inurba_marseille","lat":43.23158,"lon":5.43708,"is_reserved":false,"is_disabled":false,"rental_uris":{"android":"levelo://app?vid=8c78136d-facd-47b2-a4b1-bfdd1a328c94","ios":"levelo://app?vid=8c78136d-facd-47b2-a4b1-bfdd1a328c94"},"vehicle_type_id":"4","last_reported":1726398386,"current_range_meters":14000,"station_id":"ce4bhmp2rcd13ifvqgog","pricing_plan_id":"cebpf4jnsgd1na2vs0mg"},{"bike_id":"b8e24315-75c5-4278-84f2-1521d1268a5d","system_id":"levelo_inurba_marseille","lat":43.30428,"lon":5.39745,"is_reserved":false,"is_disabled":false,"rental_uris":{"android":"levelo://app?vid=b8e24315-75c5-4278-84f2-1521d1268a5d","ios":"levelo://app?vid=b8e24315-75c5-4278-84f2-1521d1268a5d"},"vehicle_type_id":"4","last_reported":1726398386,"current_range_meters":38400,"station_id":"ce4bh092rcd13ifvqd20","pricing_plan_id":"cebpf4jnsgd1na2vs0mg"},{"bike_id":"93914f9a-0f9b-44eb-a3f9-08165fa696e1","system_id":"levelo_inurba_marseille","lat":43.25871,"lon":5.39896,"is_reserved":false,"is_disabled":false,"rental_uris":{"android":"levelo://app?vid=93914f9a-0f9b-44eb-a3f9-08165fa696e1","ios":"levelo://app?vid=93914f9a-0f9b-44eb-a3f9-08165fa696e1"},"vehicle_type_id":"4","last_reported":1726398386,"current_range_meters":22400,"station_id":"ce4bhl92rcd13ifvqghg","pricing_plan_id":"cebpf4jnsgd1na2vs0mg"},{"bike_id":"bcb33dfb-0d34-4ad9-b414-84fd9c419822","system_id":"levelo_inurba_marseille","lat":43.28365,"lon":5.38645,"is_reserved":false,"is_disabled":false,"rental_uris":{"android":"levelo://app?vid=bcb33dfb-0d34-4ad9-b414-84fd9c419822","ios":"levelo://app?vid=bcb33dfb-0d34-4ad9-b414-84fd9c419822"},"vehicle_type_id":"4","last_reported":1726398386,"current_range_meters":11200,"station_id":"ce4bh492rcd13ifvqdvg","pricing_plan_id":"cebpf4jnsgd1na2vs0mg"},{"bike_id":"8cff6435-f003-4267-bb90-a3c9c0eae5de","system_id":"levelo_inurba_marseille","lat":43.31226,"lon":5.36865,"is_reserved":false,"is_disabled":false,"rental_uris":{"android":"levelo://app?vid=8cff6435-f003-4267-bb90-a3c9c0eae5de","ios":"levelo://app?vid=8cff6435-f003-4267-bb90-a3c9c0eae5de"},"vehicle_type_id":"4","last_reported":1726398386,"current_range_meters":21600,"station_id":"ce4bgl92rcd13ifvqbq0","pricing_plan_id":"cebpf4jnsgd1na2vs0mg"},{"bike_id":"afa0faa9-69e0-4821-8211-400a4c48a236","system_id":"levelo_inurba_marseille","lat":43.28668,"lon":5.36346,"is_reserved":false,"is_disabled":false,"rental_uris":{"android":"levelo://app?vid=afa0faa9-69e0-4821-8211-400a4c48a236","ios":"levelo://app?vid=afa0faa9-69e0-4821-8211-400a4c48a236"},"vehicle_type_id":"4","last_reported":1726398386,"current_range_meters":25600,"station_id":"ce4bhah2rcd13ifvqej0","pricing_plan_id":"cebpf4jnsgd1na2vs0mg"},{"bike_id":"6d2f1fdf-ef85-4dbc-b421-2602e9d32ca8","system_id":"levelo_inurba_marseille","lat":43.25933,"lon":5.40913,"is_reserved":false,"is_disabled":false,"rental_uris":{"android":"levelo://app?vid=6d2f1fdf-ef85-4dbc-b421-2602e9d32ca8","ios":"levelo://app?vid=6d2f1fdf-ef85-4dbc-b421-2602e9d32ca8"},"vehicle_type_id":"4","last_reported":1726398386,"current_range_meters":20800,"station_id":"ce4bhm92rcd13ifvqglg","pricing_plan_id":"cebpf4jnsgd1na2vs0mg"},{"bike_id":"e61fbe41-521b-47d3-9cc7-323b0d80cc6b","system_id":"levelo_inurba_marseille","lat":43.29717,"lon":5.36614,"is_reserved":false,"is_disabled":false,"rental_uris":{"android":"levelo://app?vid=e61fbe41-521b-47d3-9cc7-323b0d80cc6b","ios":"levelo://app?vid=e61fbe41-521b-47d3-9cc7-323b0d80cc6b"},"vehicle_type_id":"4","last_reported":1726398386,"current_range_meters":12800,"station_id":"ce4bgn12rcd13ifvqbt0","pricing_plan_id":"cebpf4jnsgd1na2vs0mg"},{"bike_id":"d09aedb3-0212-456b-a0d7-0a019f75665d","system_id":"levelo_inurba_marseille","lat":43.23152,"lon":5.43708,"is_reserved":false,"is_disabled":false,"rental_uris":{"android":"levelo://app?vid=d09aedb3-0212-456b-a0d7-0a019f75665d","ios":"levelo://app?vid=d09aedb3-0212-456b-a0d7-0a019f75665d"},"vehicle_type_id":"4","last_reported":1726398386,"current_range_meters":40000,"station_id":"ce4bhmp2rcd13ifvqgog","pricing_plan_id":"cebpf4jnsgd1na2vs0mg"},{"bike_id":"2a29b635-860d-4fcf-b9ef-7b9429843b40","system_id":"levelo_inurba_marseille","lat":43.31723,"lon":5.42399,"is_reserved":false,"is_disabled":false,"rental_uris":{"android":"levelo://app?vid=2a29b635-860d-4fcf-b9ef-7b9429843b40","ios":"levelo://app?vid=2a29b635-860d-4fcf-b9ef-7b9429843b40"},"vehicle_type_id":"4","last_reported":1726398386,"current_range_meters":28800,"station_id":"ce4bhp92rcd13ifvqhbg","pricing_plan_id":"cebpf4jnsgd1na2vs0mg"},{"bike_id":"ddbb7e46-c494-4369-8590-604bf32cfba6","system_id":"levelo_inurba_marseille","lat":43.28154,"lon":5.42641,"is_reserved":false,"is_disabled":false,"rental_uris":{"android":"levelo://app?vid=ddbb7e46-c494-4369-8590-604bf32cfba6","ios":"levelo://app?vid=ddbb7e46-c494-4369-8590-604bf32cfba6"},"vehicle_type_id":"4","last_reported":1726398386,"current_range_meters":36800,"station_id":"ce4bhnh2rcd13ifvqgug","pricing_plan_id":"cebpf4jnsgd1na2vs0mg"},{"bike_id":"5fb80b9c-4c90-47a0-bb0f-a0abc69b22ef","system_id":"levelo_inurba_marseille","lat":43.28929,"lon":5.3665,"is_reserved":false,"is_disabled":false,"rental_uris":{"android":"levelo://app?vid=5fb80b9c-4c90-47a0-bb0f-a0abc69b22ef","ios":"levelo://app?vid=5fb80b9c-4c90-47a0-bb0f-a0abc69b22ef"},"vehicle_type_id":"4","last_reported":1726398386,"current_range_meters":7200,"station_id":"ce4bhap2rcd13ifvqek0","pricing_plan_id":"cebpf4jnsgd1na2vs0mg"},{"bike_id":"43412657-8f93-44d7-90fb-da7639962547","system_id":"levelo_inurba_marseille","lat":43.33726,"lon":5.39172,"is_reserved":false,"is_disabled":false,"rental_uris":{"android":"levelo://app?vid=43412657-8f93-44d7-90fb-da7639962547","ios":"levelo://app?vid=43412657-8f93-44d7-90fb-da7639962547"},"vehicle_type_id":"4","last_reported":1726398386,"current_range_meters":22000,"station_id":"ce4bhr92rcd13ifvqhsg","pricing_plan_id":"cebpf4jnsgd1na2vs0mg"},{"bike_id":"a2a7dd1b-4d18-45d5-adf0-8780a47f4629","system_id":"levelo_inurba_marseille","lat":43.28155,"lon":5.42643,"is_reserved":false,"is_disabled":false,"rental_uris":{"android":"levelo://app?vid=a2a7dd1b-4d18-45d5-adf0-8780a47f4629","ios":"levelo://app?vid=a2a7dd1b-4d18-45d5-adf0-8780a47f4629"},"vehicle_type_id":"4","last_reported":1726398386,"current_range_meters":14000,"station_id":"ce4bhnh2rcd13ifvqgug","pricing_plan_id":"cebpf4jnsgd1na2vs0mg"},{"bike_id":"6f48e34f-0d33-4829-8b21-1c1fd3169758","system_id":"levelo_inurba_marseille","lat":43.28852,"lon":5.35837,"is_reserved":false,"is_disabled":false,"rental_uris":{"android":"levelo://app?vid=6f48e34f-0d33-4829-8b21-1c1fd3169758","ios":"levelo://app?vid=6f48e34f-0d33-4829-8b21-1c1fd3169758"},"vehicle_type_id":"4","last_reported":1726398386,"current_range_meters":24800,"station_id":"ce4bhb12rcd13ifvqem0","pricing_plan_id":"cebpf4jnsgd1na2vs0mg"},{"bike_id":"7453590b-8ee1-4fd5-8b4d-63edf6fd7b2c","system_id":"levelo_inurba_marseille","lat":43.3204,"lon":5.41568,"is_reserved":false,"is_disabled":false,"rental_uris":{"android":"levelo://app?vid=7453590b-8ee1-4fd5-8b4d-63edf6fd7b2c","ios":"levelo://app?vid=7453590b-8ee1-4fd5-8b4d-63edf6fd7b2c"},"vehicle_type_id":"4","last_reported":1726398386,"current_range_meters":22800,"station_id":"ce4bhq92rcd13ifvqhkg","pricing_plan_id":"cebpf4jnsgd1na2vs0mg"},{"bike_id":"ff7f113d-329b-4f28-b5d1-8725d7930b37","system_id":"levelo_inurba_marseille","lat":43.31534,"lon":5.3803,"is_reserved":false,"is_disabled":false,"rental_uris":{"android":"levelo://app?vid=ff7f113d-329b-4f28-b5d1-8725d7930b37","ios":"levelo://app?vid=ff7f113d-329b-4f28-b5d1-8725d7930b37"},"vehicle_type_id":"4","last_reported":1726398386,"current_range_meters":11200,"station_id":"ce4bhsp2rcd13ifvqi50","pricing_plan_id":"cebpf4jnsgd1na2vs0mg"},{"bike_id":"61e00977-be43-400f-99ea-3c33330f7657","system_id":"levelo_inurba_marseille","lat":43.25007,"lon":5.38914,"is_reserved":false,"is_disabled":false,"rental_uris":{"android":"levelo://app?vid=61e00977-be43-400f-99ea-3c33330f7657","ios":"levelo://app?vid=61e00977-be43-400f-99ea-3c33330f7657"},"vehicle_type_id":"4","last_reported":1726398386,"current_range_meters":14400,"station_id":"ce4bhgp2rcd13ifvqfd0","pricing_plan_id":"cebpf4jnsgd1na2vs0mg"},{"bike_id":"b4353cf1-34b5-45f4-a5fb-b78464a3adcf","system_id":"levelo_inurba_marseille","lat":43.2572,"lon":5.41113,"is_reserved":false,"is_disabled":false,"rental_uris":{"android":"levelo://app?vid=b4353cf1-34b5-45f4-a5fb-b78464a3adcf","ios":"levelo://app?vid=b4353cf1-34b5-45f4-a5fb-b78464a3adcf"},"vehicle_type_id":"4","last_reported":1726398386,"current_range_meters":27200,"station_id":"ce4bhkp2rcd13ifvqgd0","pricing_plan_id":"cebpf4jnsgd1na2vs0mg"},{"bike_id":"d1f38fcd-be46-4877-a9ac-34b365272c30","system_id":"levelo_inurba_marseille","lat":43.27102,"lon":5.43322,"is_reserved":false,"is_disabled":false,"rental_uris":{"android":"levelo://app?vid=d1f38fcd-be46-4877-a9ac-34b365272c30","ios":"levelo://app?vid=d1f38fcd-be46-4877-a9ac-34b365272c30"},"vehicle_type_id":"4","last_reported":1726398386,"current_range_meters":16000,"station_id":"","pricing_plan_id":"cebpf4jnsgd1na2vs0mg"},{"bike_id":"cd6ab73b-e997-4f21-b30e-7bcc07f9db3e","system_id":"levelo_inurba_marseille","lat":43.31173,"lon":5.38724,"is_reserved":false,"is_disabled":false,"rental_uris":{"android":"levelo://app?vid=cd6ab73b-e997-4f21-b30e-7bcc07f9db3e","ios":"levelo://app?vid=cd6ab73b-e997-4f21-b30e-7bcc07f9db3e"},"vehicle_type_id":"4","last_reported":1726398386,"current_range_meters":25200,"station_id":"ce4bgv12rcd13ifvqcp0","pricing_plan_id":"cebpf4jnsgd1na2vs0mg"},{"bike_id":"2c36f173-7fe7-45a3-b0b4-69fddd6ecd2c","system_id":"levelo_inurba_marseille","lat":43.27614,"lon":5.36115,"is_reserved":false,"is_disabled":false,"rental_uris":{"android":"levelo://app?vid=2c36f173-7fe7-45a3-b0b4-69fddd6ecd2c","ios":"levelo://app?vid=2c36f173-7fe7-45a3-b0b4-69fddd6ecd2c"},"vehicle_type_id":"4","last_reported":1726398386,"current_range_meters":19200,"station_id":"ce4bgj92rcd13ifvqbe0","pricing_plan_id":"cebpf4jnsgd1na2vs0mg"},{"bike_id":"46492db6-e15b-4d8b-8244-fe4f6cfe1a7f","system_id":"levelo_inurba_marseille","lat":43.300964,"lon":5.387253,"is_reserved":false,"is_disabled":false,"rental_uris":{"android":"levelo://app?vid=46492db6-e15b-4d8b-8244-fe4f6cfe1a7f","ios":"levelo://app?vid=46492db6-e15b-4d8b-8244-fe4f6cfe1a7f"},"vehicle_type_id":"4","last_reported":1726398386,"current_range_meters":17600,"station_id":"","pricing_plan_id":"cebpf4jnsgd1na2vs0mg"},{"bike_id":"f9076aec-56e7-4b2e-a7b1-575337aca9d5","system_id":"levelo_inurba_marseille","lat":43.24168,"lon":5.36405,"is_reserved":false,"is_disabled":false,"rental_uris":{"android":"levelo://app?vid=f9076aec-56e7-4b2e-a7b1-575337aca9d5","ios":"levelo://app?vid=f9076aec-56e7-4b2e-a7b1-575337aca9d5"},"vehicle_type_id":"4","last_reported":1726398386,"current_range_meters":28000,"station_id":"cpo36qri1sfpv3e86is0","pricing_plan_id":"cebpf4jnsgd1na2vs0mg"},{"bike_id":"a4f18687-e126-425b-b639-a942cceab9e8","system_id":"levelo_inurba_marseille","lat":43.24651,"lon":5.38904,"is_reserved":false,"is_disabled":false,"rental_uris":{"android":"levelo://app?vid=a4f18687-e126-425b-b639-a942cceab9e8","ios":"levelo://app?vid=a4f18687-e126-425b-b639-a942cceab9e8"},"vehicle_type_id":"4","last_reported":1726398386,"current_range_meters":26000,"station_id":"ce4bhg12rcd13ifvqf60","pricing_plan_id":"cebpf4jnsgd1na2vs0mg"},{"bike_id":"91f7e9e5-076e-4e3a-8acf-289dc20e3d9f","system_id":"levelo_inurba_marseille","lat":43.31721,"lon":5.4241,"is_reserved":false,"is_disabled":false,"rental_uris":{"android":"levelo://app?vid=91f7e9e5-076e-4e3a-8acf-289dc20e3d9f","ios":"levelo://app?vid=91f7e9e5-076e-4e3a-8acf-289dc20e3d9f"},"vehicle_type_id":"4","last_reported":1726398386,"current_range_meters":37600,"station_id":"ce4bhp92rcd13ifvqhbg","pricing_plan_id":"cebpf4jnsgd1na2vs0mg"},{"bike_id":"0755aa42-17a3-49af-a739-7eaee3c2c1c9","system_id":"levelo_inurba_marseille","lat":43.2549,"lon":5.37649,"is_reserved":false,"is_disabled":false,"rental_uris":{"android":"levelo://app?vid=0755aa42-17a3-49af-a739-7eaee3c2c1c9","ios":"levelo://app?vid=0755aa42-17a3-49af-a739-7eaee3c2c1c9"},"vehicle_type_id":"4","last_reported":1726398386,"current_range_meters":28800,"station_id":"ce4bhh12rcd13ifvqff0","pricing_plan_id":"cebpf4jnsgd1na2vs0mg"},{"bike_id":"d4dcec5a-b0b6-4319-8584-aaf3103d153c","system_id":"levelo_inurba_marseille","lat":43.29562,"lon":5.42276,"is_reserved":false,"is_disabled":false,"rental_uris":{"android":"levelo://app?vid=d4dcec5a-b0b6-4319-8584-aaf3103d153c","ios":"levelo://app?vid=d4dcec5a-b0b6-4319-8584-aaf3103d153c"},"vehicle_type_id":"4","last_reported":1726398386,"current_range_meters":36000,"station_id":"ce4bhph2rcd13ifvqhdg","pricing_plan_id":"cebpf4jnsgd1na2vs0mg"},{"bike_id":"7560168d-c555-4b8e-a518-1c66771c1c72","system_id":"levelo_inurba_marseille","lat":43.24179,"lon":5.39729,"is_reserved":false,"is_disabled":false,"rental_uris":{"android":"levelo://app?vid=7560168d-c555-4b8e-a518-1c66771c1c72","ios":"levelo://app?vid=7560168d-c555-4b8e-a518-1c66771c1c72"},"vehicle_type_id":"4","last_reported":1726398386,"current_range_meters":10000,"station_id":"ce4bhn12rcd13ifvqgpg","pricing_plan_id":"cebpf4jnsgd1na2vs0mg"},{"bike_id":"bbe85231-7051-4426-b8e5-a81aa7bc3b22","system_id":"levelo_inurba_marseille","lat":43.31883,"lon":5.40727,"is_reserved":false,"is_disabled":false,"rental_uris":{"android":"levelo://app?vid=bbe85231-7051-4426-b8e5-a81aa7bc3b22","ios":"levelo://app?vid=bbe85231-7051-4426-b8e5-a81aa7bc3b22"},"vehicle_type_id":"4","last_reported":1726398386,"current_range_meters":24400,"station_id":"ce4bhq12rcd13ifvqhig","pricing_plan_id":"cebpf4jnsgd1na2vs0mg"},{"bike_id":"36612ab8-e475-4981-b0de-04a150aa48e8","system_id":"levelo_inurba_marseille","lat":43.29561,"lon":5.42279,"is_reserved":false,"is_disabled":false,"rental_uris":{"android":"levelo://app?vid=36612ab8-e475-4981-b0de-04a150aa48e8","ios":"levelo://app?vid=36612ab8-e475-4981-b0de-04a150aa48e8"},"vehicle_type_id":"4","last_reported":1726398386,"current_range_meters":9600,"station_id":"ce4bhph2rcd13ifvqhdg","pricing_plan_id":"cebpf4jnsgd1na2vs0mg"},{"bike_id":"fcc1810a-9ff2-41c7-b13e-016a47a053a8","system_id":"levelo_inurba_marseille","lat":43.32341,"lon":5.40615,"is_reserved":false,"is_disabled":false,"rental_uris":{"android":"levelo://app?vid=fcc1810a-9ff2-41c7-b13e-016a47a053a8","ios":"levelo://app?vid=fcc1810a-9ff2-41c7-b13e-016a47a053a8"},"vehicle_type_id":"4","last_reported":1726398386,"current_range_meters":38000,"station_id":"ce4bhq92rcd13ifvqhjg","pricing_plan_id":"cebpf4jnsgd1na2vs0mg"},{"bike_id":"5263c75a-b0ca-4e1c-9976-2df708ba914c","system_id":"levelo_inurba_marseille","lat":43.2956,"lon":5.42282,"is_reserved":false,"is_disabled":false,"rental_uris":{"android":"levelo://app?vid=5263c75a-b0ca-4e1c-9976-2df708ba914c","ios":"levelo://app?vid=5263c75a-b0ca-4e1c-9976-2df708ba914c"},"vehicle_type_id":"4","last_reported":1726398386,"current_range_meters":11600,"station_id":"ce4bhph2rcd13ifvqhdg","pricing_plan_id":"cebpf4jnsgd1na2vs0mg"},{"bike_id":"001e90c7-531a-4513-b77a-aa374ea43c39","system_id":"levelo_inurba_marseille","lat":43.29617,"lon":5.37733,"is_reserved":false,"is_disabled":false,"rental_uris":{"android":"levelo://app?vid=001e90c7-531a-4513-b77a-aa374ea43c39","ios":"levelo://app?vid=001e90c7-531a-4513-b77a-aa374ea43c39"},"vehicle_type_id":"4","last_reported":1726398386,"current_range_meters":8400,"station_id":"ce4bgi92rcd13ifvqb90","pricing_plan_id":"cebpf4jnsgd1na2vs0mg"},{"bike_id":"38a69323-5131-4a1f-a290-eb6174f1181e","system_id":"levelo_inurba_marseille","lat":43.28705,"lon":5.39982,"is_reserved":false,"is_disabled":false,"rental_uris":{"android":"levelo://app?vid=38a69323-5131-4a1f-a290-eb6174f1181e","ios":"levelo://app?vid=38a69323-5131-4a1f-a290-eb6174f1181e"},"vehicle_type_id":"4","last_reported":1726398386,"current_range_meters":17600,"station_id":"ce4bho92rcd13ifvqh3g","pricing_plan_id":"cebpf4jnsgd1na2vs0mg"},{"bike_id":"09fe7126-1b51-4220-8cc4-49996158106b","system_id":"levelo_inurba_marseille","lat":43.27071,"lon":5.42279,"is_reserved":false,"is_disabled":false,"rental_uris":{"android":"levelo://app?vid=09fe7126-1b51-4220-8cc4-49996158106b","ios":"levelo://app?vid=09fe7126-1b51-4220-8cc4-49996158106b"},"vehicle_type_id":"4","last_reported":1726398386,"current_range_meters":32800,"station_id":"ce4bhk92rcd13ifvqgb0","pricing_plan_id":"cebpf4jnsgd1na2vs0mg"},{"bike_id":"f4c843e1-8ba3-4a70-a01a-251b7eef63f1","system_id":"levelo_inurba_marseille","lat":43.271636,"lon":5.409725,"is_reserved":false,"is_disabled":false,"rental_uris":{"android":"levelo://app?vid=f4c843e1-8ba3-4a70-a01a-251b7eef63f1","ios":"levelo://app?vid=f4c843e1-8ba3-4a70-a01a-251b7eef63f1"},"vehicle_type_id":"4","last_reported":1726398386,"current_range_meters":19600,"station_id":"ce4bhl12rcd13ifvqgf0","pricing_plan_id":"cebpf4jnsgd1na2vs0mg"},{"bike_id":"5dde75c7-9c67-4ba2-97ca-18dd9593d48b","system_id":"levelo_inurba_marseille","lat":43.29203,"lon":5.35804,"is_reserved":false,"is_disabled":false,"rental_uris":{"android":"levelo://app?vid=5dde75c7-9c67-4ba2-97ca-18dd9593d48b","ios":"levelo://app?vid=5dde75c7-9c67-4ba2-97ca-18dd9593d48b"},"vehicle_type_id":"4","last_reported":1726398386,"current_range_meters":36400,"station_id":"ce4bhb12rcd13ifvqel0","pricing_plan_id":"cebpf4jnsgd1na2vs0mg"},{"bike_id":"f1f27f13-3a81-45e4-a950-b4e90aab67df","system_id":"levelo_inurba_marseille","lat":43.23147,"lon":5.43718,"is_reserved":false,"is_disabled":false,"rental_uris":{"android":"levelo://app?vid=f1f27f13-3a81-45e4-a950-b4e90aab67df","ios":"levelo://app?vid=f1f27f13-3a81-45e4-a950-b4e90aab67df"},"vehicle_type_id":"4","last_reported":1726398386,"current_range_meters":26000,"station_id":"ce4bhmp2rcd13ifvqgog","pricing_plan_id":"cebpf4jnsgd1na2vs0mg"},{"bike_id":"7b6e2328-ff66-439e-a1c2-5ba2cf559dba","system_id":"levelo_inurba_marseille","lat":43.23189,"lon":5.35556,"is_reserved":false,"is_disabled":false,"rental_uris":{"android":"levelo://app?vid=7b6e2328-ff66-439e-a1c2-5ba2cf559dba","ios":"levelo://app?vid=7b6e2328-ff66-439e-a1c2-5ba2cf559dba"},"vehicle_type_id":"4","last_reported":1726398386,"current_range_meters":24800,"station_id":"ce4bhu92rcd13ifvqi70","pricing_plan_id":"cebpf4jnsgd1na2vs0mg"},{"bike_id":"1be4bcad-bdf2-46c2-8c7e-d9c3888fe276","system_id":"levelo_inurba_marseille","lat":43.32346,"lon":5.40615,"is_reserved":false,"is_disabled":false,"rental_uris":{"android":"levelo://app?vid=1be4bcad-bdf2-46c2-8c7e-d9c3888fe276","ios":"levelo://app?vid=1be4bcad-bdf2-46c2-8c7e-d9c3888fe276"},"vehicle_type_id":"4","last_reported":1726398386,"current_range_meters":30400,"station_id":"ce4bhq92rcd13ifvqhjg","pricing_plan_id":"cebpf4jnsgd1na2vs0mg"},{"bike_id":"ad6f2a99-5e7d-421c-91df-6e2b2cbbd548","system_id":"levelo_inurba_marseille","lat":43.29558,"lon":5.42276,"is_reserved":false,"is_disabled":false,"rental_uris":{"android":"levelo://app?vid=ad6f2a99-5e7d-421c-91df-6e2b2cbbd548","ios":"levelo://app?vid=ad6f2a99-5e7d-421c-91df-6e2b2cbbd548"},"vehicle_type_id":"4","last_reported":1726398386,"current_range_meters":27600,"station_id":"ce4bhph2rcd13ifvqhdg","pricing_plan_id":"cebpf4jnsgd1na2vs0mg"},{"bike_id":"50c7d7fa-8f71-4a80-8c0d-ac642c4e2618","system_id":"levelo_inurba_marseille","lat":43.30531,"lon":5.36704,"is_reserved":false,"is_disabled":false,"rental_uris":{"android":"levelo://app?vid=50c7d7fa-8f71-4a80-8c0d-ac642c4e2618","ios":"levelo://app?vid=50c7d7fa-8f71-4a80-8c0d-ac642c4e2618"},"vehicle_type_id":"4","last_reported":1726398386,"current_range_meters":21600,"station_id":"ce4bgrp2rcd13ifvqc9g","pricing_plan_id":"cebpf4jnsgd1na2vs0mg"},{"bike_id":"ded31efd-589f-4837-ac92-707cd238a010","system_id":"levelo_inurba_marseille","lat":43.27612,"lon":5.36106,"is_reserved":false,"is_disabled":false,"rental_uris":{"android":"levelo://app?vid=ded31efd-589f-4837-ac92-707cd238a010","ios":"levelo://app?vid=ded31efd-589f-4837-ac92-707cd238a010"},"vehicle_type_id":"4","last_reported":1726398386,"current_range_meters":28000,"station_id":"ce4bgj92rcd13ifvqbe0","pricing_plan_id":"cebpf4jnsgd1na2vs0mg"},{"bike_id":"b0b831b6-dfd9-4e0a-9847-113465141083","system_id":"levelo_inurba_marseille","lat":43.23151,"lon":5.43707,"is_reserved":false,"is_disabled":false,"rental_uris":{"android":"levelo://app?vid=b0b831b6-dfd9-4e0a-9847-113465141083","ios":"levelo://app?vid=b0b831b6-dfd9-4e0a-9847-113465141083"},"vehicle_type_id":"4","last_reported":1726398386,"current_range_meters":28400,"station_id":"ce4bhmp2rcd13ifvqgog","pricing_plan_id":"cebpf4jnsgd1na2vs0mg"},{"bike_id":"bb72b965-01a2-4c57-9c72-78dfd9fe5385","system_id":"levelo_inurba_marseille","lat":43.29719,"lon":5.36614,"is_reserved":false,"is_disabled":false,"rental_uris":{"android":"levelo://app?vid=bb72b965-01a2-4c57-9c72-78dfd9fe5385","ios":"levelo://app?vid=bb72b965-01a2-4c57-9c72-78dfd9fe5385"},"vehicle_type_id":"4","last_reported":1726398386,"current_range_meters":28800,"station_id":"ce4bgn12rcd13ifvqbt0","pricing_plan_id":"cebpf4jnsgd1na2vs0mg"},{"bike_id":"5bb9eeb2-9d6e-478b-9598-395ae66c9e19","system_id":"levelo_inurba_marseille","lat":43.25726,"lon":5.41102,"is_reserved":false,"is_disabled":false,"rental_uris":{"android":"levelo://app?vid=5bb9eeb2-9d6e-478b-9598-395ae66c9e19","ios":"levelo://app?vid=5bb9eeb2-9d6e-478b-9598-395ae66c9e19"},"vehicle_type_id":"4","last_reported":1726398386,"current_range_meters":37600,"station_id":"ce4bhkp2rcd13ifvqgd0","pricing_plan_id":"cebpf4jnsgd1na2vs0mg"},{"bike_id":"4db921f2-bc23-49f4-8a24-f619c1eace61","system_id":"levelo_inurba_marseille","lat":43.23201,"lon":5.35552,"is_reserved":false,"is_disabled":false,"rental_uris":{"android":"levelo://app?vid=4db921f2-bc23-49f4-8a24-f619c1eace61","ios":"levelo://app?vid=4db921f2-bc23-49f4-8a24-f619c1eace61"},"vehicle_type_id":"4","last_reported":1726398386,"current_range_meters":23200,"station_id":"ce4bhu92rcd13ifvqi70","pricing_plan_id":"cebpf4jnsgd1na2vs0mg"},{"bike_id":"a498bcb3-7267-4e14-aa0b-ebf679a4f341","system_id":"levelo_inurba_marseille","lat":43.33025,"lon":5.39044,"is_reserved":false,"is_disabled":false,"rental_uris":{"android":"levelo://app?vid=a498bcb3-7267-4e14-aa0b-ebf679a4f341","ios":"levelo://app?vid=a498bcb3-7267-4e14-aa0b-ebf679a4f341"},"vehicle_type_id":"4","last_reported":1726398386,"current_range_meters":20400,"station_id":"ce4bhr92rcd13ifvqhrg","pricing_plan_id":"cebpf4jnsgd1na2vs0mg"},{"bike_id":"c0474bae-bf19-448c-80d3-763792c1df75","system_id":"levelo_inurba_marseille","lat":43.245904,"lon":5.394723,"is_reserved":false,"is_disabled":false,"rental_uris":{"android":"levelo://app?vid=c0474bae-bf19-448c-80d3-763792c1df75","ios":"levelo://app?vid=c0474bae-bf19-448c-80d3-763792c1df75"},"vehicle_type_id":"4","last_reported":1726398386,"current_range_meters":34800,"station_id":"ce4bhlp2rcd13ifvqgjg","pricing_plan_id":"cebpf4jnsgd1na2vs0mg"},{"bike_id":"1e157798-eec5-4286-9da7-a2099f677a50","system_id":"levelo_inurba_marseille","lat":43.29552,"lon":5.42284,"is_reserved":false,"is_disabled":false,"rental_uris":{"android":"levelo://app?vid=1e157798-eec5-4286-9da7-a2099f677a50","ios":"levelo://app?vid=1e157798-eec5-4286-9da7-a2099f677a50"},"vehicle_type_id":"4","last_reported":1726398386,"current_range_meters":16800,"station_id":"ce4bhph2rcd13ifvqhdg","pricing_plan_id":"cebpf4jnsgd1na2vs0mg"},{"bike_id":"328d45f9-980e-4811-97c0-47d761861509","system_id":"levelo_inurba_marseille","lat":43.29847,"lon":5.37836,"is_reserved":false,"is_disabled":false,"rental_uris":{"android":"levelo://app?vid=328d45f9-980e-4811-97c0-47d761861509","ios":"levelo://app?vid=328d45f9-980e-4811-97c0-47d761861509"},"vehicle_type_id":"4","last_reported":1726398386,"current_range_meters":28400,"station_id":"ce4bgkh2rcd13ifvqbl0","pricing_plan_id":"cebpf4jnsgd1na2vs0mg"},{"bike_id":"3b51f764-c75e-47b9-9ce2-0fdae7022f59","system_id":"levelo_inurba_marseille","lat":43.24824,"lon":5.39216,"is_reserved":false,"is_disabled":false,"rental_uris":{"android":"levelo://app?vid=3b51f764-c75e-47b9-9ce2-0fdae7022f59","ios":"levelo://app?vid=3b51f764-c75e-47b9-9ce2-0fdae7022f59"},"vehicle_type_id":"4","last_reported":1726398386,"current_range_meters":4400,"station_id":"","pricing_plan_id":"cebpf4jnsgd1na2vs0mg"},{"bike_id":"f883007e-96a8-4cf9-bed6-5d16192d00be","system_id":"levelo_inurba_marseille","lat":43.291016,"lon":5.355969,"is_reserved":false,"is_disabled":false,"rental_uris":{"android":"levelo://app?vid=f883007e-96a8-4cf9-bed6-5d16192d00be","ios":"levelo://app?vid=f883007e-96a8-4cf9-bed6-5d16192d00be"},"vehicle_type_id":"4","last_reported":1726398386,"current_range_meters":22800,"station_id":"","pricing_plan_id":"cebpf4jnsgd1na2vs0mg"},{"bike_id":"9d9687ff-53d9-4c00-9964-668bd2f2d7ab","system_id":"levelo_inurba_marseille","lat":43.28033,"lon":5.36945,"is_reserved":false,"is_disabled":false,"rental_uris":{"android":"levelo://app?vid=9d9687ff-53d9-4c00-9964-668bd2f2d7ab","ios":"levelo://app?vid=9d9687ff-53d9-4c00-9964-668bd2f2d7ab"},"vehicle_type_id":"4","last_reported":1726398386,"current_range_meters":4000,"station_id":"ce4bha12rcd13ifvqef0","pricing_plan_id":"cebpf4jnsgd1na2vs0mg"},{"bike_id":"faf816e6-4e87-4e93-88d4-5861eae33b5c","system_id":"levelo_inurba_marseille","lat":43.24078,"lon":5.3775,"is_reserved":false,"is_disabled":false,"rental_uris":{"android":"levelo://app?vid=faf816e6-4e87-4e93-88d4-5861eae33b5c","ios":"levelo://app?vid=faf816e6-4e87-4e93-88d4-5861eae33b5c"},"vehicle_type_id":"4","last_reported":1726398386,"current_range_meters":26000,"station_id":"ce4bhnp2rcd13ifvqgvg","pricing_plan_id":"cebpf4jnsgd1na2vs0mg"},{"bike_id":"9b622166-609b-42e3-a193-9f9652982890","system_id":"levelo_inurba_marseille","lat":43.31718,"lon":5.43712,"is_reserved":false,"is_disabled":false,"rental_uris":{"android":"levelo://app?vid=9b622166-609b-42e3-a193-9f9652982890","ios":"levelo://app?vid=9b622166-609b-42e3-a193-9f9652982890"},"vehicle_type_id":"4","last_reported":1726398386,"current_range_meters":38000,"station_id":"ce4bhp92rcd13ifvqhcg","pricing_plan_id":"cebpf4jnsgd1na2vs0mg"},{"bike_id":"47796c26-123b-4bbd-a7cd-e828bc0c960d","system_id":"levelo_inurba_marseille","lat":43.28615,"lon":5.35102,"is_reserved":false,"is_disabled":false,"rental_uris":{"android":"levelo://app?vid=47796c26-123b-4bbd-a7cd-e828bc0c960d","ios":"levelo://app?vid=47796c26-123b-4bbd-a7cd-e828bc0c960d"},"vehicle_type_id":"4","last_reported":1726398386,"current_range_meters":16400,"station_id":"ce4bhch2rcd13ifvqeug","pricing_plan_id":"cebpf4jnsgd1na2vs0mg"},{"bike_id":"dae9b628-5e5e-40d6-9240-ed703f9a5c16","system_id":"levelo_inurba_marseille","lat":43.27172,"lon":5.40992,"is_reserved":false,"is_disabled":false,"rental_uris":{"android":"levelo://app?vid=dae9b628-5e5e-40d6-9240-ed703f9a5c16","ios":"levelo://app?vid=dae9b628-5e5e-40d6-9240-ed703f9a5c16"},"vehicle_type_id":"4","last_reported":1726398386,"current_range_meters":30400,"station_id":"ce4bhl12rcd13ifvqgf0","pricing_plan_id":"cebpf4jnsgd1na2vs0mg"},{"bike_id":"e687461b-66f9-48d1-b9b0-ea75a11fe4d4","system_id":"levelo_inurba_marseille","lat":43.24811,"lon":5.37454,"is_reserved":false,"is_disabled":false,"rental_uris":{"android":"levelo://app?vid=e687461b-66f9-48d1-b9b0-ea75a11fe4d4","ios":"levelo://app?vid=e687461b-66f9-48d1-b9b0-ea75a11fe4d4"},"vehicle_type_id":"4","last_reported":1726398386,"current_range_meters":8800,"station_id":"ce4bhgh2rcd13ifvqfb0","pricing_plan_id":"cebpf4jnsgd1na2vs0mg"},{"bike_id":"fc76a35a-a564-4eb5-8688-a9c3d5237512","system_id":"levelo_inurba_marseille","lat":43.31762,"lon":5.39015,"is_reserved":false,"is_disabled":false,"rental_uris":{"android":"levelo://app?vid=fc76a35a-a564-4eb5-8688-a9c3d5237512","ios":"levelo://app?vid=fc76a35a-a564-4eb5-8688-a9c3d5237512"},"vehicle_type_id":"4","last_reported":1726398386,"current_range_meters":36400,"station_id":"ce4bhqp2rcd13ifvqhng","pricing_plan_id":"cebpf4jnsgd1na2vs0mg"},{"bike_id":"8b608b96-fedf-4511-8d4b-09bad2606e1a","system_id":"levelo_inurba_marseille","lat":43.27724,"lon":5.41128,"is_reserved":false,"is_disabled":false,"rental_uris":{"android":"levelo://app?vid=8b608b96-fedf-4511-8d4b-09bad2606e1a","ios":"levelo://app?vid=8b608b96-fedf-4511-8d4b-09bad2606e1a"},"vehicle_type_id":"4","last_reported":1726398386,"current_range_meters":22000,"station_id":"","pricing_plan_id":"cebpf4jnsgd1na2vs0mg"},{"bike_id":"9a9eb11d-e006-4f34-a88d-6ea736772765","system_id":"levelo_inurba_marseille","lat":43.30353,"lon":5.41874,"is_reserved":false,"is_disabled":false,"rental_uris":{"android":"levelo://app?vid=9a9eb11d-e006-4f34-a88d-6ea736772765","ios":"levelo://app?vid=9a9eb11d-e006-4f34-a88d-6ea736772765"},"vehicle_type_id":"4","last_reported":1726398386,"current_range_meters":38800,"station_id":"ce4bhop2rcd13ifvqh7g","pricing_plan_id":"cebpf4jnsgd1na2vs0mg"},{"bike_id":"719421fa-9582-4e8f-b7db-b0ecc746be6d","system_id":"levelo_inurba_marseille","lat":43.29035,"lon":5.35911,"is_reserved":false,"is_disabled":false,"rental_uris":{"android":"levelo://app?vid=719421fa-9582-4e8f-b7db-b0ecc746be6d","ios":"levelo://app?vid=719421fa-9582-4e8f-b7db-b0ecc746be6d"},"vehicle_type_id":"4","last_reported":1726398386,"current_range_meters":36400,"station_id":"ce4bha92rcd13ifvqeg0","pricing_plan_id":"cebpf4jnsgd1na2vs0mg"},{"bike_id":"a7cbbf68-3461-46fd-99eb-63d1c0ca546e","system_id":"levelo_inurba_marseille","lat":43.31168,"lon":5.39353,"is_reserved":false,"is_disabled":false,"rental_uris":{"android":"levelo://app?vid=a7cbbf68-3461-46fd-99eb-63d1c0ca546e","ios":"levelo://app?vid=a7cbbf68-3461-46fd-99eb-63d1c0ca546e"},"vehicle_type_id":"4","last_reported":1726398386,"current_range_meters":27600,"station_id":"","pricing_plan_id":"cebpf4jnsgd1na2vs0mg"},{"bike_id":"d835c966-5fc4-42ac-b06f-542ccaf3fc6f","system_id":"levelo_inurba_marseille","lat":43.286285,"lon":5.351228,"is_reserved":false,"is_disabled":false,"rental_uris":{"android":"levelo://app?vid=d835c966-5fc4-42ac-b06f-542ccaf3fc6f","ios":"levelo://app?vid=d835c966-5fc4-42ac-b06f-542ccaf3fc6f"},"vehicle_type_id":"4","last_reported":1726398386,"current_range_meters":22800,"station_id":"ce4bgop2rcd13ifvqc1g","pricing_plan_id":"cebpf4jnsgd1na2vs0mg"},{"bike_id":"a5f4ecf1-fadc-48f4-92f6-d2641e22af08","system_id":"levelo_inurba_marseille","lat":43.2572,"lon":5.41111,"is_reserved":false,"is_disabled":false,"rental_uris":{"android":"levelo://app?vid=a5f4ecf1-fadc-48f4-92f6-d2641e22af08","ios":"levelo://app?vid=a5f4ecf1-fadc-48f4-92f6-d2641e22af08"},"vehicle_type_id":"4","last_reported":1726398386,"current_range_meters":12400,"station_id":"ce4bhkp2rcd13ifvqgd0","pricing_plan_id":"cebpf4jnsgd1na2vs0mg"},{"bike_id":"fa2b0a9f-66ad-4cd1-b7bb-93b9cffdc904","system_id":"levelo_inurba_marseille","lat":43.25931,"lon":5.40906,"is_reserved":false,"is_disabled":false,"rental_uris":{"android":"levelo://app?vid=fa2b0a9f-66ad-4cd1-b7bb-93b9cffdc904","ios":"levelo://app?vid=fa2b0a9f-66ad-4cd1-b7bb-93b9cffdc904"},"vehicle_type_id":"4","last_reported":1726398386,"current_range_meters":32800,"station_id":"ce4bhm92rcd13ifvqglg","pricing_plan_id":"cebpf4jnsgd1na2vs0mg"},{"bike_id":"57cba3f0-8bf3-428f-ad7b-a59ab48cefd2","system_id":"levelo_inurba_marseille","lat":43.33604,"lon":5.41025,"is_reserved":false,"is_disabled":false,"rental_uris":{"android":"levelo://app?vid=57cba3f0-8bf3-428f-ad7b-a59ab48cefd2","ios":"levelo://app?vid=57cba3f0-8bf3-428f-ad7b-a59ab48cefd2"},"vehicle_type_id":"4","last_reported":1726398386,"current_range_meters":25600,"station_id":"ce4bhqh2rcd13ifvqhmg","pricing_plan_id":"cebpf4jnsgd1na2vs0mg"},{"bike_id":"6755156f-5028-4d53-8f64-3b66d3ac1353","system_id":"levelo_inurba_marseille","lat":43.25728,"lon":5.411,"is_reserved":false,"is_disabled":false,"rental_uris":{"android":"levelo://app?vid=6755156f-5028-4d53-8f64-3b66d3ac1353","ios":"levelo://app?vid=6755156f-5028-4d53-8f64-3b66d3ac1353"},"vehicle_type_id":"4","last_reported":1726398386,"current_range_meters":38000,"station_id":"ce4bhkp2rcd13ifvqgd0","pricing_plan_id":"cebpf4jnsgd1na2vs0mg"},{"bike_id":"39861af5-5cbd-45ed-9324-845157baab13","system_id":"levelo_inurba_marseille","lat":43.27074,"lon":5.42277,"is_reserved":false,"is_disabled":false,"rental_uris":{"android":"levelo://app?vid=39861af5-5cbd-45ed-9324-845157baab13","ios":"levelo://app?vid=39861af5-5cbd-45ed-9324-845157baab13"},"vehicle_type_id":"4","last_reported":1726398386,"current_range_meters":28000,"station_id":"ce4bhk92rcd13ifvqgb0","pricing_plan_id":"cebpf4jnsgd1na2vs0mg"},