{"last_updated":1773726659,"ttl":60,"version":"2.2","data":{"bikes":[{"bike_id":"986dcfc1-2670-4627-a72b-0664ff596a0a","system_id":"levelo_inurba_marseille","lat":43.24645,"lon":5.38945,"is_reserved":false,"is_disabled":false,"rental_uris":{"android":"levelo://app?vid=986dcfc1-2670-4627-a72b-0664ff596a0a","ios":"levelo://app?vid=986dcfc1-2670-4627-a72b-0664ff596a0a"},"vehicle_type_id":"4","last_reported":1773726660,"current_range_meters":2800,"station_id":"ce4bhg12rcd13ifvqf60","pricing_plan_id":"cebpf4jnsgd1na2vs0mg"},{"bike_id":"fddb1afc-3ac2-4b06-8b33-f0f70bbd5ed4","system_id":"levelo_inurba_marseille","lat":43.30769,"lon":5.37672,"is_reserved":false,"is_disabled":false,"rental_uris":{"android":"levelo://app?vid=fddb1afc-3ac2-4b06-8b33-f0f70bbd5ed4","ios":"levelo://app?vid=fddb1afc-3ac2-4b06-8b33-f0f70bbd5ed4"},"vehicle_type_id":"4","last_reported":1773726660,"current_range_meters":2800,"station_id":"ce4bgv92rcd13ifvqcq0","pricing_plan_id":"cebpf4jnsgd1na2vs0mg"},{"bike_id":"f6bbce4d-c9cb-4b24-b614-4ec4b4cd66d1","system_id":"levelo_inurba_marseille","lat":43.24545,"lon":5.39532,"is_reserved":false,"is_disabled":false,"rental_uris":{"android":"levelo://app?vid=f6bbce4d-c9cb-4b24-b614-4ec4b4cd66d1","ios":"levelo://app?vid=f6bbce4d-c9cb-4b24-b614-4ec4b4cd66d1"},"vehicle_type_id":"4","last_reported":1773726660,"current_range_meters":2800,"station_id":"ce4bhlp2rcd13ifvqgjg","pricing_plan_id":"cebpf4jnsgd1na2vs0mg"},{"bike_id":"90cf72eb-9816-4579-b039-fd78eaf7bdbb","system_id":"levelo_inurba_marseille","lat":43.28401,"lon":5.37518,"is_reserved":false,"is_disabled":false,"rental_uris":{"android":"levelo://app?vid=90cf72eb-9816-4579-b039-fd78eaf7bdbb","ios":"levelo://app?vid=90cf72eb-9816-4579-b039-fd78eaf7bdbb"},"vehicle_type_id":"4","last_reported":1773726660,"current_range_meters":2800,"station_id":"ce4bh412rcd13ifvqds0","pricing_plan_id":"cebpf4jnsgd1na2vs0mg"},{"bike_id":"1412d134-b8dd-45cf-807f-8fe8d90007c6","system_id":"levelo_inurba_marseille","lat":43.31166,"lon":5.38724,"is_reserved":false,"is_disabled":false,"rental_uris":{"android":"levelo://app?vid=1412d134-b8dd-45cf-807f-8fe8d90007c6","ios":"levelo://app?vid=1412d134-b8dd-45cf-807f-8fe8d90007c6"},"vehicle_type_id":"4","last_reported":1773726660,"current_range_meters":2800,"station_id":"ce4bgv12rcd13ifvqcp0","pricing_plan_id":"cebpf4jnsgd1na2vs0mg"},{"bike_id":"9ea4f135-4964-42f6-86a6-ba484d204cec","system_id":"levelo_inurba_marseille","lat":43.28996,"lon":5.38142,"is_reserved":false,"is_disabled":true,"rental_uris":{"android":"levelo://app?vid=9ea4f135-4964-42f6-86a6-ba484d204cec","ios":"levelo://app?vid=9ea4f135-4964-42f6-86a6-ba484d204cec"},"vehicle_type_id":"4","last_reported":1773726660,"current_range_meters":2800,"station_id":"ce4bh4p2rcd13ifvqe1g","pricing_plan_id":"cebpf4jnsgd1na2vs0mg"},{"bike_id":"33090029-f845-49b7-8206-25ff29ffa267","system_id":"levelo_inurba_marseille","lat":43.31499,"lon":5.37295,"is_reserved":false,"is_disabled":false,"rental_uris":{"android":"levelo://app?vid=33090029-f845-49b7-8206-25ff29ffa267","ios":"levelo://app?vid=33090029-f845-49b7-8206-25ff29ffa267"},"vehicle_type_id":"4","last_reported":1773726660,"current_range_meters":2800,"station_id":"ce4bgt12rcd13ifvqcd0","pricing_plan_id":"cebpf4jnsgd1na2vs0mg"},{"bike_id":"1ef3789d-0d9b-42fc-ac1f-1f44e2e467e7","system_id":"levelo_inurba_marseille","lat":43.31363,"lon":5.3669,"is_reserved":false,"is_disabled":false,"rental_uris":{"android":"levelo://app?vid=1ef3789d-0d9b-42fc-ac1f-1f44e2e467e7","ios":"levelo://app?vid=1ef3789d-0d9b-42fc-ac1f-1f44e2e467e7"},"vehicle_type_id":"4","last_reported":1773726660,"current_range_meters":2800,"station_id":"ce4bgr92rcd13ifvqc6g","pricing_plan_id":"cebpf4jnsgd1na2vs0mg"},{"bike_id":"e7c58db4-424e-4970-92fb-a0dce31132b1","system_id":"levelo_inurba_marseille","lat":43.22551,"lon":5.41612,"is_reserved":false,"is_disabled":false,"rental_uris":{"android":"levelo://app?vid=e7c58db4-424e-4970-92fb-a0dce31132b1","ios":"levelo://app?vid=e7c58db4-424e-4970-92fb-a0dce31132b1"},"vehicle_type_id":"4","last_reported":1773726660,"current_range_meters":2800,"station_id":"st_d2o4gvlbi1j2169b742g","pricing_plan_id":"cebpf4jnsgd1na2vs0mg"},{"bike_id":"3e29b245-6248-4e2f-9ee4-f4cd0f161451","system_id":"levelo_inurba_marseille","lat":43.25511,"lon":5.37639,"is_reserved":false,"is_disabled":false,"rental_uris":{"android":"levelo://app?vid=3e29b245-6248-4e2f-9ee4-f4cd0f161451","ios":"levelo://app?vid=3e29b245-6248-4e2f-9ee4-f4cd0f161451"},"vehicle_type_id":"4","last_reported":1773726660,"current_range_meters":2800,"station_id":"ce4bhh12rcd13ifvqff0","pricing_plan_id":"cebpf4jnsgd1na2vs0mg"},{"bike_id":"86bab4d9-8dd5-4b0f-8a22-2f88c70337ef","system_id":"levelo_inurba_marseille","lat":43.287026,"lon":5.373634,"is_reserved":false,"is_disabled":false,"rental_uris":{"android":"levelo://app?vid=86bab4d9-8dd5-4b0f-8a22-2f88c70337ef","ios":"levelo://app?vid=86bab4d9-8dd5-4b0f-8a22-2f88c70337ef"},"vehicle_type_id":"4","last_reported":1773726660,"current_range_meters":3200,"station_id":"ce4bh3p2rcd13ifvqdq0","pricing_plan_id":"cebpf4jnsgd1na2vs0mg"},{"bike_id":"ccb54f6f-537f-4ee3-8bf1-50606846f171","system_id":"levelo_inurba_marseille","lat":43.28716,"lon":5.35204,"is_reserved":false,"is_disabled":false,"rental_uris":{"android":"levelo://app?vid=ccb54f6f-537f-4ee3-8bf1-50606846f171","ios":"levelo://app?vid=ccb54f6f-537f-4ee3-8bf1-50606846f171"},"vehicle_type_id":"4","last_reported":1773726660,"current_range_meters":3200,"station_id":"","pricing_plan_id":"cebpf4jnsgd1na2vs0mg"},{"bike_id":"b50a2122-1199-42ae-991c-eb622a3b1e41","system_id":"levelo_inurba_marseille","lat":43.30259,"lon":5.37725,"is_reserved":false,"is_disabled":false,"rental_uris":{"android":"levelo://app?vid=b50a2122-1199-42ae-991c-eb622a3b1e41","ios":"levelo://app?vid=b50a2122-1199-42ae-991c-eb622a3b1e41"},"vehicle_type_id":"4","last_reported":1773726660,"current_range_meters":3200,"station_id":"ce4bguh2rcd13ifvqcj0","pricing_plan_id":"cebpf4jnsgd1na2vs0mg"},{"bike_id":"613ecdf5-870e-47dd-a83d-4eacad716c8a","system_id":"levelo_inurba_marseille","lat":43.29113,"lon":5.381,"is_reserved":false,"is_disabled":false,"rental_uris":{"android":"levelo://app?vid=613ecdf5-870e-47dd-a83d-4eacad716c8a","ios":"levelo://app?vid=613ecdf5-870e-47dd-a83d-4eacad716c8a"},"vehicle_type_id":"4","last_reported":1773726660,"current_range_meters":3200,"station_id":"ce4bh512rcd13ifvqe2g","pricing_plan_id":"cebpf4jnsgd1na2vs0mg"},{"bike_id":"c1bf3ef1-963d-4207-8611-d7e29cc6c1d1","system_id":"levelo_inurba_marseille","lat":43.28167,"lon":5.4264,"is_reserved":false,"is_disabled":false,"rental_uris":{"android":"levelo://app?vid=c1bf3ef1-963d-4207-8611-d7e29cc6c1d1","ios":"levelo://app?vid=c1bf3ef1-963d-4207-8611-d7e29cc6c1d1"},"vehicle_type_id":"4","last_reported":1773726660,"current_range_meters":3200,"station_id":"ce4bhnh2rcd13ifvqgug","pricing_plan_id":"cebpf4jnsgd1na2vs0mg"},{"bike_id":"5c6bcaf2-3895-415c-b8c2-27c24d5ead77","system_id":"levelo_inurba_marseille","lat":43.22552,"lon":5.41632,"is_reserved":false,"is_disabled":false,"rental_uris":{"android":"levelo://app?vid=5c6bcaf2-3895-415c-b8c2-27c24d5ead77","ios":"levelo://app?vid=5c6bcaf2-3895-415c-b8c2-27c24d5ead77"},"vehicle_type_id":"4","last_reported":1773726660,"current_range_meters":3200,"station_id":"st_d2o4gvlbi1j2169b742g","pricing_plan_id":"cebpf4jnsgd1na2vs0mg"},{"bike_id":"406e897d-19c7-4d4f-99b4-58a659039108","system_id":"levelo_inurba_marseille","lat":43.30462,"lon":5.379,"is_reserved":false,"is_disabled":false,"rental_uris":{"android":"levelo://app?vid=406e897d-19c7-4d4f-99b4-58a659039108","ios":"levelo://app?vid=406e897d-19c7-4d4f-99b4-58a659039108"},"vehicle_type_id":"4","last_reported":1773726660,"current_range_meters":3200,"station_id":"","pricing_plan_id":"cebpf4jnsgd1na2vs0mg"},{"bike_id":"4b66d87f-df59-44c5-bb47-d7e0503e1b42","system_id":"levelo_inurba_marseille","lat":43.21731,"lon":5.34618,"is_reserved":false,"is_disabled":false,"rental_uris":{"android":"levelo://app?vid=4b66d87f-df59-44c5-bb47-d7e0503e1b42","ios":"levelo://app?vid=4b66d87f-df59-44c5-bb47-d7e0503e1b42"},"vehicle_type_id":"4","last_reported":1773726660,"current_range_meters":3200,"station_id":"st_cvj6r9ubvosntc0bgbag","pricing_plan_id":"cebpf4jnsgd1na2vs0mg"},{"bike_id":"7ee8d230-e429-4fae-927f-7a22b79397b7","system_id":"levelo_inurba_marseille","lat":43.3377,"lon":5.37462,"is_reserved":false,"is_disabled":false,"rental_uris":{"android":"levelo://app?vid=7ee8d230-e429-4fae-927f-7a22b79397b7","ios":"levelo://app?vid=7ee8d230-e429-4fae-927f-7a22b79397b7"},"vehicle_type_id":"4","last_reported":1773726660,"current_range_meters":3600,"station_id":"","pricing_plan_id":"cebpf4jnsgd1na2vs0mg"},{"bike_id":"6f1681e6-745f-4763-a26a-a8cfdac1adae","system_id":"levelo_inurba_marseille","lat":43.30304,"lon":5.36916,"is_reserved":false,"is_disabled":false,"rental_uris":{"android":"levelo://app?vid=6f1681e6-745f-4763-a26a-a8cfdac1adae","ios":"levelo://app?vid=6f1681e6-745f-4763-a26a-a8cfdac1adae"},"vehicle_type_id":"4","last_reported":1773726660,"current_range_meters":3600,"station_id":"ce4bgqh2rcd13ifvqc5g","pricing_plan_id":"cebpf4jnsgd1na2vs0mg"},{"bike_id":"bed28392-0da1-43b5-9fd6-079b95697677","system_id":"levelo_inurba_marseille","lat":43.246546,"lon":5.381586,"is_reserved":false,"is_disabled":false,"rental_uris":{"android":"levelo://app?vid=bed28392-0da1-43b5-9fd6-079b95697677","ios":"levelo://app?vid=bed28392-0da1-43b5-9fd6-079b95697677"},"vehicle_type_id":"4","last_reported":1773726660,"current_range_meters":3600,"station_id":"ce4bhih2rcd13ifvqfr0","pricing_plan_id":"cebpf4jnsgd1na2vs0mg"},{"bike_id":"f757319f-bbe4-441c-858e-47c13f95c4eb","system_id":"levelo_inurba_marseille","lat":43.24475,"lon":5.42535,"is_reserved":false,"is_disabled":false,"rental_uris":{"android":"levelo://app?vid=f757319f-bbe4-441c-858e-47c13f95c4eb","ios":"levelo://app?vid=f757319f-bbe4-441c-858e-47c13f95c4eb"},"vehicle_type_id":"4","last_reported":1773726660,"current_range_meters":3600,"station_id":"st_d4a3vfp97mjs738cd8kg","pricing_plan_id":"cebpf4jnsgd1na2vs0mg"},{"bike_id":"4d876322-584a-4b9d-934a-70855e7e71e2","system_id":"levelo_inurba_marseille","lat":43.29572,"lon":5.3994,"is_reserved":false,"is_disabled":true,"rental_uris":{"android":"levelo://app?vid=4d876322-584a-4b9d-934a-70855e7e71e2","ios":"levelo://app?vid=4d876322-584a-4b9d-934a-70855e7e71e2"},"vehicle_type_id":"4","last_reported":1773726660,"current_range_meters":3600,"station_id":"ce4bh312rcd13ifvqdj0","pricing_plan_id":"cebpf4jnsgd1na2vs0mg"},{"bike_id":"6684ef43-aed7-4c02-8193-b5dcc2905571","system_id":"levelo_inurba_marseille","lat":43.25335,"lon":5.42165,"is_reserved":false,"is_disabled":false,"rental_uris":{"android":"levelo://app?vid=6684ef43-aed7-4c02-8193-b5dcc2905571","ios":"levelo://app?vid=6684ef43-aed7-4c02-8193-b5dcc2905571"},"vehicle_type_id":"4","last_reported":1773726660,"current_range_meters":3600,"station_id":"st_d2m65c5bi1j21697t3ng","pricing_plan_id":"cebpf4jnsgd1na2vs0mg"},{"bike_id":"546dec86-6efc-40ae-95e8-ef7683c73998","system_id":"levelo_inurba_marseille","lat":43.24641,"lon":5.43156,"is_reserved":false,"is_disabled":false,"rental_uris":{"android":"levelo://app?vid=546dec86-6efc-40ae-95e8-ef7683c73998","ios":"levelo://app?vid=546dec86-6efc-40ae-95e8-ef7683c73998"},"vehicle_type_id":"4","last_reported":1773726660,"current_range_meters":3600,"station_id":"","pricing_plan_id":"cebpf4jnsgd1na2vs0mg"},{"bike_id":"2be48d0d-c988-40d6-948e-4adda5345ace","system_id":"levelo_inurba_marseille","lat":43.29757,"lon":5.42779,"is_reserved":false,"is_disabled":false,"rental_uris":{"android":"levelo://app?vid=2be48d0d-c988-40d6-948e-4adda5345ace","ios":"levelo://app?vid=2be48d0d-c988-40d6-948e-4adda5345ace"},"vehicle_type_id":"4","last_reported":1773726660,"current_range_meters":3600,"station_id":"st_d3md5207bmas73dh9klg","pricing_plan_id":"cebpf4jnsgd1na2vs0mg"},{"bike_id":"c8431d5e-fe62-4c51-a67e-06bd269df984","system_id":"levelo_inurba_marseille","lat":43.33538,"lon":5.37469,"is_reserved":false,"is_disabled":false,"rental_uris":{"android":"levelo://app?vid=c8431d5e-fe62-4c51-a67e-06bd269df984","ios":"levelo://app?vid=c8431d5e-fe62-4c51-a67e-06bd269df984"},"vehicle_type_id":"4","last_reported":1773726660,"current_range_meters":3600,"station_id":"st_d46tts09ee8s73dlu43g","pricing_plan_id":"cebpf4jnsgd1na2vs0mg"},{"bike_id":"73806190-d7df-4322-93c0-d6bee78abccb","system_id":"levelo_inurba_marseille","lat":43.27428,"lon":5.39004,"is_reserved":false,"is_disabled":false,"rental_uris":{"android":"levelo://app?vid=73806190-d7df-4322-93c0-d6bee78abccb","ios":"levelo://app?vid=73806190-d7df-4322-93c0-d6bee78abccb"},"vehicle_type_id":"4","last_reported":1773726660,"current_range_meters":3600,"station_id":"","pricing_plan_id":"cebpf4jnsgd1na2vs0mg"},{"bike_id":"4fb702b1-5215-4524-9260-909a50753239","system_id":"levelo_inurba_marseille","lat":43.21715,"lon":5.34664,"is_reserved":false,"is_disabled":false,"rental_uris":{"android":"levelo://app?vid=4fb702b1-5215-4524-9260-909a50753239","ios":"levelo://app?vid=4fb702b1-5215-4524-9260-909a50753239"},"vehicle_type_id":"4","last_reported":1773726660,"current_range_meters":3600,"station_id":"","pricing_plan_id":"cebpf4jnsgd1na2vs0mg"},{"bike_id":"eeae0e95-cea9-4eae-9f05-bd0e55033ffe","system_id":"levelo_inurba_marseille","lat":43.30131,"lon":5.39861,"is_reserved":false,"is_disabled":false,"rental_uris":{"android":"levelo://app?vid=eeae0e95-cea9-4eae-9f05-bd0e55033ffe","ios":"levelo://app?vid=eeae0e95-cea9-4eae-9f05-bd0e55033ffe"},"vehicle_type_id":"4","last_reported":1773726660,"current_range_meters":3600,"station_id":"ce4bh0h2rcd13ifvqd40","pricing_plan_id":"cebpf4jnsgd1na2vs0mg"},{"bike_id":"16ec8de2-7797-46a8-9aff-ec827b63b48f","system_id":"levelo_inurba_marseille","lat":43.2467,"lon":5.38182,"is_reserved":false,"is_disabled":false,"rental_uris":{"android":"levelo://app?vid=16ec8de2-7797-46a8-9aff-ec827b63b48f","ios":"levelo://app?vid=16ec8de2-7797-46a8-9aff-ec827b63b48f"},"vehicle_type_id":"4","last_reported":1773726660,"current_range_meters":3600,"station_id":"ce4bhih2rcd13ifvqfr0","pricing_plan_id":"cebpf4jnsgd1na2vs0mg"},{"bike_id":"a8c11763-251e-4b93-9a01-e0a3db398ee7","system_id":"levelo_inurba_marseille","lat":43.27979,"lon":5.41657,"is_reserved":false,"is_disabled":false,"rental_uris":{"android":"levelo://app?vid=a8c11763-251e-4b93-9a01-e0a3db398ee7","ios":"levelo://app?vid=a8c11763-251e-4b93-9a01-e0a3db398ee7"},"vehicle_type_id":"4","last_reported":1773726660,"current_range_meters":4000,"station_id":"ce4bho12rcd13ifvqh1g","pricing_plan_id":"cebpf4jnsgd1na2vs0mg"},{"bike_id":"9d8618ab-de6a-46c3-b454-d4196c014401","system_id":"levelo_inurba_marseille","lat":43.28427,"lon":5.35009,"is_reserved":false,"is_disabled":false,"rental_uris":{"android":"levelo://app?vid=9d8618ab-de6a-46c3-b454-d4196c014401","ios":"levelo://app?vid=9d8618ab-de6a-46c3-b454-d4196c014401"},"vehicle_type_id":"4","last_reported":1773726660,"current_range_meters":4000,"station_id":"ce4bhbh2rcd13ifvqepg","pricing_plan_id":"cebpf4jnsgd1na2vs0mg"},{"bike_id":"ac4ec8f4-cbf9-4d7a-8f9b-9d7e4720889b","system_id":"levelo_inurba_marseille","lat":43.29077,"lon":5.3715,"is_reserved":false,"is_disabled":true,"rental_uris":{"android":"levelo://app?vid=ac4ec8f4-cbf9-4d7a-8f9b-9d7e4720889b","ios":"levelo://app?vid=ac4ec8f4-cbf9-4d7a-8f9b-9d7e4720889b"},"vehicle_type_id":"4","last_reported":1773726660,"current_range_meters":4000,"station_id":"ce4bh5p2rcd13ifvqe4g","pricing_plan_id":"cebpf4jnsgd1na2vs0mg"},{"bike_id":"4b338ce8-5a1d-45ae-98e5-89395f01eed6","system_id":"levelo_inurba_marseille","lat":43.28408,"lon":5.37269,"is_reserved":false,"is_disabled":false,"rental_uris":{"android":"levelo://app?vid=4b338ce8-5a1d-45ae-98e5-89395f01eed6","ios":"levelo://app?vid=4b338ce8-5a1d-45ae-98e5-89395f01eed6"},"vehicle_type_id":"4","last_reported":1773726660,"current_range_meters":4000,"station_id":"ce4bh412rcd13ifvqds0","pricing_plan_id":"cebpf4jnsgd1na2vs0mg"},{"bike_id":"4a560852-9384-45ed-b37f-f950441e1aa5","system_id":"levelo_inurba_marseille","lat":43.31168,"lon":5.38704,"is_reserved":false,"is_disabled":false,"rental_uris":{"android":"levelo://app?vid=4a560852-9384-45ed-b37f-f950441e1aa5","ios":"levelo://app?vid=4a560852-9384-45ed-b37f-f950441e1aa5"},"vehicle_type_id":"4","last_reported":1773726660,"current_range_meters":4000,"station_id":"ce4bgv12rcd13ifvqcp0","pricing_plan_id":"cebpf4jnsgd1na2vs0mg"},{"bike_id":"ff6903f8-7d6d-4329-9980-dd36491025a5","system_id":"levelo_inurba_marseille","lat":43.28479,"lon":5.48416,"is_reserved":false,"is_disabled":false,"rental_uris":{"android":"levelo://app?vid=ff6903f8-7d6d-4329-9980-dd36491025a5","ios":"levelo://app?vid=ff6903f8-7d6d-4329-9980-dd36491025a5"},"vehicle_type_id":"4","last_reported":1773726660,"current_range_meters":4000,"station_id":"st_d3svhcjqgbts73a3dn0g","pricing_plan_id":"cebpf4jnsgd1na2vs0mg"},{"bike_id":"fb8b3091-18c3-465a-8625-70f5c0063377","system_id":"levelo_inurba_marseille","lat":43.31157,"lon":5.38791,"is_reserved":false,"is_disabled":false,"rental_uris":{"android":"levelo://app?vid=fb8b3091-18c3-465a-8625-70f5c0063377","ios":"levelo://app?vid=fb8b3091-18c3-465a-8625-70f5c0063377"},"vehicle_type_id":"4","last_reported":1773726660,"current_range_meters":4000,"station_id":"ce4bgv12rcd13ifvqcp0","pricing_plan_id":"cebpf4jnsgd1na2vs0mg"},{"bike_id":"a57fd276-80d6-4f2f-8fbc-0c5a46f65dce","system_id":"levelo_inurba_marseille","lat":43.30905,"lon":5.36844,"is_reserved":false,"is_disabled":false,"rental_uris":{"android":"levelo://app?vid=a57fd276-80d6-4f2f-8fbc-0c5a46f65dce","ios":"levelo://app?vid=a57fd276-80d6-4f2f-8fbc-0c5a46f65dce"},"vehicle_type_id":"4","last_reported":1773726660,"current_range_meters":4000,"station_id":"ce4bgn92rcd13ifvqbvg","pricing_plan_id":"cebpf4jnsgd1na2vs0mg"},{"bike_id":"e22e4a15-10b9-4655-869c-f37191a4ce0b","system_id":"levelo_inurba_marseille","lat":43.28712,"lon":5.37933,"is_reserved":false,"is_disabled":false,"rental_uris":{"android":"levelo://app?vid=e22e4a15-10b9-4655-869c-f37191a4ce0b","ios":"levelo://app?vid=e22e4a15-10b9-4655-869c-f37191a4ce0b"},"vehicle_type_id":"4","last_reported":1773726660,"current_range_meters":4000,"station_id":"ce4bh9p2rcd13ifvqec0","pricing_plan_id":"cebpf4jnsgd1na2vs0mg"},{"bike_id":"d91f5059-f6b7-4289-a686-c55193d574bf","system_id":"levelo_inurba_marseille","lat":43.29706,"lon":5.36591,"is_reserved":false,"is_disabled":false,"rental_uris":{"android":"levelo://app?vid=d91f5059-f6b7-4289-a686-c55193d574bf","ios":"levelo://app?vid=d91f5059-f6b7-4289-a686-c55193d574bf"},"vehicle_type_id":"4","last_reported":1773726660,"current_range_meters":4000,"station_id":"ce4bgn12rcd13ifvqbt0","pricing_plan_id":"cebpf4jnsgd1na2vs0mg"},{"bike_id":"7077099d-bec4-45e6-9cb2-740f7185bcfe","system_id":"levelo_inurba_marseille","lat":43.31068,"lon":5.37181,"is_reserved":false,"is_disabled":false,"rental_uris":{"android":"levelo://app?vid=7077099d-bec4-45e6-9cb2-740f7185bcfe","ios":"levelo://app?vid=7077099d-bec4-45e6-9cb2-740f7185bcfe"},"vehicle_type_id":"4","last_reported":1773726660,"current_range_meters":4000,"station_id":"st_d4kl2rp97mjs73e7tdfg","pricing_plan_id":"cebpf4jnsgd1na2vs0mg"},{"bike_id":"367d1ebd-1fe7-4381-bb25-dac6bfe4a266","system_id":"levelo_inurba_marseille","lat":43.25328,"lon":5.42163,"is_reserved":false,"is_disabled":false,"rental_uris":{"android":"levelo://app?vid=367d1ebd-1fe7-4381-bb25-dac6bfe4a266","ios":"levelo://app?vid=367d1ebd-1fe7-4381-bb25-dac6bfe4a266"},"vehicle_type_id":"4","last_reported":1773726660,"current_range_meters":4000,"station_id":"st_d2m65c5bi1j21697t3ng","pricing_plan_id":"cebpf4jnsgd1na2vs0mg"},{"bike_id":"ef275710-a738-4425-a373-87c195840051","system_id":"levelo_inurba_marseille","lat":43.30749,"lon":5.42453,"is_reserved":false,"is_disabled":false,"rental_uris":{"android":"levelo://app?vid=ef275710-a738-4425-a373-87c195840051","ios":"levelo://app?vid=ef275710-a738-4425-a373-87c195840051"},"vehicle_type_id":"4","last_reported":1773726660,"current_range_meters":4000,"station_id":"st_cvj6ca6bvosntc0bfgr0","pricing_plan_id":"cebpf4jnsgd1na2vs0mg"},{"bike_id":"f241c30b-2b1a-4f86-a532-796da72b8ac2","system_id":"levelo_inurba_marseille","lat":43.21193,"lon":5.35078,"is_reserved":false,"is_disabled":false,"rental_uris":{"android":"levelo://app?vid=f241c30b-2b1a-4f86-a532-796da72b8ac2","ios":"levelo://app?vid=f241c30b-2b1a-4f86-a532-796da72b8ac2"},"vehicle_type_id":"4","last_reported":1773726660,"current_range_meters":4000,"station_id":"st_cvj6sg6p6f1abm77japg","pricing_plan_id":"cebpf4jnsgd1na2vs0mg"},{"bike_id":"94773f3a-d7a8-4f18-a156-83430d5328e9","system_id":"levelo_inurba_marseille","lat":43.31167,"lon":5.38732,"is_reserved":false,"is_disabled":false,"rental_uris":{"android":"levelo://app?vid=94773f3a-d7a8-4f18-a156-83430d5328e9","ios":"levelo://app?vid=94773f3a-d7a8-4f18-a156-83430d5328e9"},"vehicle_type_id":"4","last_reported":1773726660,"current_range_meters":4000,"station_id":"ce4bgv12rcd13ifvqcp0","pricing_plan_id":"cebpf4jnsgd1na2vs0mg"},{"bike_id":"41a475e8-8f60-49e5-932c-2037737c2411","system_id":"levelo_inurba_marseille","lat":43.33541,"lon":5.37471,"is_reserved":false,"is_disabled":false,"rental_uris":{"android":"levelo://app?vid=41a475e8-8f60-49e5-932c-2037737c2411","ios":"levelo://app?vid=41a475e8-8f60-49e5-932c-2037737c2411"},"vehicle_type_id":"4","last_reported":1773726660,"current_range_meters":4000,"station_id":"st_d46tts09ee8s73dlu43g","pricing_plan_id":"cebpf4jnsgd1na2vs0mg"},{"bike_id":"ca5af02f-49f7-48db-a0c5-85c6fd8e11c9","system_id":"levelo_inurba_marseille","lat":43.25017,"lon":5.38913,"is_reserved":false,"is_disabled":true,"rental_uris":{"android":"levelo://app?vid=ca5af02f-49f7-48db-a0c5-85c6fd8e11c9","ios":"levelo://app?vid=ca5af02f-49f7-48db-a0c5-85c6fd8e11c9"},"vehicle_type_id":"4","last_reported":1773726660,"current_range_meters":4000,"station_id":"ce4bhgp2rcd13ifvqfd0","pricing_plan_id":"cebpf4jnsgd1na2vs0mg"},{"bike_id":"9f96e3e5-0df4-4f85-8707-d098d0747392","system_id":"levelo_inurba_marseille","lat":43.25328,"lon":5.42175,"is_reserved":false,"is_disabled":false,"rental_uris":{"android":"levelo://app?vid=9f96e3e5-0df4-4f85-8707-d098d0747392","ios":"levelo://app?vid=9f96e3e5-0df4-4f85-8707-d098d0747392"},"vehicle_type_id":"4","last_reported":1773726660,"current_range_meters":4400,"station_id":"st_d2m65c5bi1j21697t3ng","pricing_plan_id":"cebpf4jnsgd1na2vs0mg"},{"bike_id":"c6d69b4d-4c87-44fe-a02d-92b1370b69aa","system_id":"levelo_inurba_marseille","lat":43.22554,"lon":5.41621,"is_reserved":false,"is_disabled":false,"rental_uris":{"android":"levelo://app?vid=c6d69b4d-4c87-44fe-a02d-92b1370b69aa","ios":"levelo://app?vid=c6d69b4d-4c87-44fe-a02d-92b1370b69aa"},"vehicle_type_id":"4","last_reported":1773726660,"current_range_meters":4400,"station_id":"st_d2o4gvlbi1j2169b742g","pricing_plan_id":"cebpf4jnsgd1na2vs0mg"},{"bike_id":"a3eb6664-f79f-4fcc-a176-332c8301346f","system_id":"levelo_inurba_marseille","lat":43.28334,"lon":5.34944,"is_reserved":false,"is_disabled":false,"rental_uris":{"android":"levelo://app?vid=a3eb6664-f79f-4fcc-a176-332c8301346f","ios":"levelo://app?vid=a3eb6664-f79f-4fcc-a176-332c8301346f"},"vehicle_type_id":"4","last_reported":1773726660,"current_range_meters":4400,"station_id":"","pricing_plan_id":"cebpf4jnsgd1na2vs0mg"},{"bike_id":"6bf65720-8266-4d1b-8965-d8f376442203","system_id":"levelo_inurba_marseille","lat":43.25325,"lon":5.42184,"is_reserved":false,"is_disabled":false,"rental_uris":{"android":"levelo://app?vid=6bf65720-8266-4d1b-8965-d8f376442203","ios":"levelo://app?vid=6bf65720-8266-4d1b-8965-d8f376442203"},"vehicle_type_id":"4","last_reported":1773726660,"current_range_meters":4400,"station_id":"st_d2m65c5bi1j21697t3ng","pricing_plan_id":"cebpf4jnsgd1na2vs0mg"},{"bike_id":"99405a20-80f7-49c0-b29c-9bad75458236","system_id":"levelo_inurba_marseille","lat":43.2638,"lon":5.41031,"is_reserved":false,"is_disabled":false,"rental_uris":{"android":"levelo://app?vid=99405a20-80f7-49c0-b29c-9bad75458236","ios":"levelo://app?vid=99405a20-80f7-49c0-b29c-9bad75458236"},"vehicle_type_id":"4","last_reported":1773726660,"current_range_meters":4400,"station_id":"st_d4e5ca6na9uc73bfl5fg","pricing_plan_id":"cebpf4jnsgd1na2vs0mg"},{"bike_id":"e2992129-175c-4815-b6ef-f2418d5b54cf","system_id":"levelo_inurba_marseille","lat":43.28413,"lon":5.37533,"is_reserved":false,"is_disabled":false,"rental_uris":{"android":"levelo://app?vid=e2992129-175c-4815-b6ef-f2418d5b54cf","ios":"levelo://app?vid=e2992129-175c-4815-b6ef-f2418d5b54cf"},"vehicle_type_id":"4","last_reported":1773726660,"current_range_meters":4400,"station_id":"ce4bh412rcd13ifvqds0","pricing_plan_id":"cebpf4jnsgd1na2vs0mg"},{"bike_id":"83ccaa9b-978c-429e-8f2d-59508aa8522c","system_id":"levelo_inurba_marseille","lat":43.28378,"lon":5.37597,"is_reserved":false,"is_disabled":false,"rental_uris":{"android":"levelo://app?vid=83ccaa9b-978c-429e-8f2d-59508aa8522c","ios":"levelo://app?vid=83ccaa9b-978c-429e-8f2d-59508aa8522c"},"vehicle_type_id":"4","last_reported":1773726660,"current_range_meters":4400,"station_id":"","pricing_plan_id":"cebpf4jnsgd1na2vs0mg"},{"bike_id":"f95354ea-890e-4f56-964f-c3b309b3efe6","system_id":"levelo_inurba_marseille","lat":43.31718,"lon":5.40489,"is_reserved":false,"is_disabled":false,"rental_uris":{"android":"levelo://app?vid=f95354ea-890e-4f56-964f-c3b309b3efe6","ios":"levelo://app?vid=f95354ea-890e-4f56-964f-c3b309b3efe6"},"vehicle_type_id":"4","last_reported":1773726660,"current_range_meters":4400,"station_id":"ce4bh012rcd13ifvqd00","pricing_plan_id":"cebpf4jnsgd1na2vs0mg"},{"bike_id":"a8261f75-c49a-4d8a-8d78-59cefb23f437","system_id":"levelo_inurba_marseille","lat":43.2984,"lon":5.36293,"is_reserved":false,"is_disabled":true,"rental_uris":{"android":"levelo://app?vid=a8261f75-c49a-4d8a-8d78-59cefb23f437","ios":"levelo://app?vid=a8261f75-c49a-4d8a-8d78-59cefb23f437"},"vehicle_type_id":"4","last_reported":1773726660,"current_range_meters":4400,"station_id":"ce4bgpp2rcd13ifvqc3g","pricing_plan_id":"cebpf4jnsgd1na2vs0mg"},{"bike_id":"aaa9bb0a-f3e2-4149-88b6-989c2d89e02a","system_id":"levelo_inurba_marseille","lat":43.30912,"lon":5.40165,"is_reserved":false,"is_disabled":false,"rental_uris":{"android":"levelo://app?vid=aaa9bb0a-f3e2-4149-88b6-989c2d89e02a","ios":"levelo://app?vid=aaa9bb0a-f3e2-4149-88b6-989c2d89e02a"},"vehicle_type_id":"4","last_reported":1773726660,"current_range_meters":4400,"station_id":"ce4bgvp2rcd13ifvqct0","pricing_plan_id":"cebpf4jnsgd1na2vs0mg"},{"bike_id":"b3fb0cd9-0d50-4402-b1d7-e0ca7cbbf02f","system_id":"levelo_inurba_marseille","lat":43.22559,"lon":5.41635,"is_reserved":false,"is_disabled":false,"rental_uris":{"android":"levelo://app?vid=b3fb0cd9-0d50-4402-b1d7-e0ca7cbbf02f","ios":"levelo://app?vid=b3fb0cd9-0d50-4402-b1d7-e0ca7cbbf02f"},"vehicle_type_id":"4","last_reported":1773726660,"current_range_meters":4400,"station_id":"st_d2o4gvlbi1j2169b742g","pricing_plan_id":"cebpf4jnsgd1na2vs0mg"},{"bike_id":"e7d20ce8-61ee-4df3-9ba4-585a7648c721","system_id":"levelo_inurba_marseille","lat":43.24638,"lon":5.4318,"is_reserved":false,"is_disabled":false,"rental_uris":{"android":"levelo://app?vid=e7d20ce8-61ee-4df3-9ba4-585a7648c721","ios":"levelo://app?vid=e7d20ce8-61ee-4df3-9ba4-585a7648c721"},"vehicle_type_id":"4","last_reported":1773726660,"current_range_meters":4400,"station_id":"","pricing_plan_id":"cebpf4jnsgd1na2vs0mg"},{"bike_id":"a64c7316-4124-45b6-aec3-937069d4f72f","system_id":"levelo_inurba_marseille","lat":43.21739,"lon":5.34625,"is_reserved":false,"is_disabled":false,"rental_uris":{"android":"levelo://app?vid=a64c7316-4124-45b6-aec3-937069d4f72f","ios":"levelo://app?vid=a64c7316-4124-45b6-aec3-937069d4f72f"},"vehicle_type_id":"4","last_reported":1773726660,"current_range_meters":4400,"station_id":"st_cvj6r9ubvosntc0bgbag","pricing_plan_id":"cebpf4jnsgd1na2vs0mg"},{"bike_id":"52f334d0-4592-4deb-baf3-362a9d2dfd7d","system_id":"levelo_inurba_marseille","lat":43.30929,"lon":5.40162,"is_reserved":false,"is_disabled":false,"rental_uris":{"android":"levelo://app?vid=52f334d0-4592-4deb-baf3-362a9d2dfd7d","ios":"levelo://app?vid=52f334d0-4592-4deb-baf3-362a9d2dfd7d"},"vehicle_type_id":"4","last_reported":1773726660,"current_range_meters":4400,"station_id":"ce4bgvp2rcd13ifvqct0","pricing_plan_id":"cebpf4jnsgd1na2vs0mg"},{"bike_id":"8df1e407-29ec-4599-83e3-964b3440f28c","system_id":"levelo_inurba_marseille","lat":43.28925,"lon":5.38386,"is_reserved":false,"is_disabled":false,"rental_uris":{"android":"levelo://app?vid=8df1e407-29ec-4599-83e3-964b3440f28c","ios":"levelo://app?vid=8df1e407-29ec-4599-83e3-964b3440f28c"},"vehicle_type_id":"4","last_reported":1773726660,"current_range_meters":4400,"station_id":"ce4bh612rcd13ifvqe6g","pricing_plan_id":"cebpf4jnsgd1na2vs0mg"},{"bike_id":"0265f47f-4619-4808-8022-685078048665","system_id":"levelo_inurba_marseille","lat":43.30513,"lon":5.3672,"is_reserved":false,"is_disabled":false,"rental_uris":{"android":"levelo://app?vid=0265f47f-4619-4808-8022-685078048665","ios":"levelo://app?vid=0265f47f-4619-4808-8022-685078048665"},"vehicle_type_id":"4","last_reported":1773726660,"current_range_meters":4400,"station_id":"ce4bgrp2rcd13ifvqc9g","pricing_plan_id":"cebpf4jnsgd1na2vs0mg"},{"bike_id":"7d5e5488-b062-4979-8056-f7926cc5db5b","system_id":"levelo_inurba_marseille","lat":43.28474,"lon":5.48395,"is_reserved":false,"is_disabled":false,"rental_uris":{"android":"levelo://app?vid=7d5e5488-b062-4979-8056-f7926cc5db5b","ios":"levelo://app?vid=7d5e5488-b062-4979-8056-f7926cc5db5b"},"vehicle_type_id":"4","last_reported":1773726660,"current_range_meters":4400,"station_id":"","pricing_plan_id":"cebpf4jnsgd1na2vs0mg"},{"bike_id":"8431c0ae-c291-4e69-8c30-9ab81ad19a14","system_id":"levelo_inurba_marseille","lat":43.26551,"lon":5.37317,"is_reserved":false,"is_disabled":false,"rental_uris":{"android":"levelo://app?vid=8431c0ae-c291-4e69-8c30-9ab81ad19a14","ios":"levelo://app?vid=8431c0ae-c291-4e69-8c30-9ab81ad19a14"},"vehicle_type_id":"4","last_reported":1773726660,"current_range_meters":4800,"station_id":"ce4bhg12rcd13ifvqf70","pricing_plan_id":"cebpf4jnsgd1na2vs0mg"},{"bike_id":"935eb381-6dd6-4507-aaeb-f3779ed74675","system_id":"levelo_inurba_marseille","lat":43.28254,"lon":5.35095,"is_reserved":false,"is_disabled":false,"rental_uris":{"android":"levelo://app?vid=935eb381-6dd6-4507-aaeb-f3779ed74675","ios":"levelo://app?vid=935eb381-6dd6-4507-aaeb-f3779ed74675"},"vehicle_type_id":"4","last_reported":1773726660,"current_range_meters":4800,"station_id":"ce4bhbp2rcd13ifvqerg","pricing_plan_id":"cebpf4jnsgd1na2vs0mg"},{"bike_id":"879a873f-004f-4af1-a55c-41f0a4bec7bc","system_id":"levelo_inurba_marseille","lat":43.21183,"lon":5.35101,"is_reserved":false,"is_disabled":false,"rental_uris":{"android":"levelo://app?vid=879a873f-004f-4af1-a55c-41f0a4bec7bc","ios":"levelo://app?vid=879a873f-004f-4af1-a55c-41f0a4bec7bc"},"vehicle_type_id":"4","last_reported":1773726660,"current_range_meters":4800,"station_id":"st_cvj6sg6p6f1abm77japg","pricing_plan_id":"cebpf4jnsgd1na2vs0mg"},{"bike_id":"47ddc6d4-9a28-47c6-8b9b-4ea35b57561d","system_id":"levelo_inurba_marseille","lat":43.28626,"lon":5.3999,"is_reserved":false,"is_disabled":false,"rental_uris":{"android":"levelo://app?vid=47ddc6d4-9a28-47c6-8b9b-4ea35b57561d","ios":"levelo://app?vid=47ddc6d4-9a28-47c6-8b9b-4ea35b57561d"},"vehicle_type_id":"4","last_reported":1773726660,"current_range_meters":4800,"station_id":"","pricing_plan_id":"cebpf4jnsgd1na2vs0mg"},{"bike_id":"649f0a63-4734-4229-a1e9-8eb20e6ecc07","system_id":"levelo_inurba_marseille","lat":43.28399,"lon":5.37527,"is_reserved":false,"is_disabled":false,"rental_uris":{"android":"levelo://app?vid=649f0a63-4734-4229-a1e9-8eb20e6ecc07","ios":"levelo://app?vid=649f0a63-4734-4229-a1e9-8eb20e6ecc07"},"vehicle_type_id":"4","last_reported":1773726660,"current_range_meters":4800,"station_id":"ce4bh412rcd13ifvqds0","pricing_plan_id":"cebpf4jnsgd1na2vs0mg"},{"bike_id":"20d965c2-9356-4a2d-b2d1-b586da5c97e8","system_id":"levelo_inurba_marseille","lat":43.28076,"lon":5.40659,"is_reserved":false,"is_disabled":true,"rental_uris":{"android":"levelo://app?vid=20d965c2-9356-4a2d-b2d1-b586da5c97e8","ios":"levelo://app?vid=20d965c2-9356-4a2d-b2d1-b586da5c97e8"},"vehicle_type_id":"4","last_reported":1773726660,"current_range_meters":5600,"station_id":"","pricing_plan_id":"cebpf4jnsgd1na2vs0mg"},{"bike_id":"9cb55d20-a7eb-44cb-b8b5-e241c5520e9d","system_id":"levelo_inurba_marseille","lat":43.29275,"lon":5.36863,"is_reserved":false,"is_disabled":true,"rental_uris":{"android":"levelo://app?vid=9cb55d20-a7eb-44cb-b8b5-e241c5520e9d","ios":"levelo://app?vid=9cb55d20-a7eb-44cb-b8b5-e241c5520e9d"},"vehicle_type_id":"4","last_reported":1773726660,"current_range_meters":5600,"station_id":"ce4bhbp2rcd13ifvqesg","pricing_plan_id":"cebpf4jnsgd1na2vs0mg"},{"bike_id":"cca6ab88-ddce-4053-9bf9-c71892882cd4","system_id":"levelo_inurba_marseille","lat":43.30127,"lon":5.38107,"is_reserved":false,"is_disabled":false,"rental_uris":{"android":"levelo://app?vid=cca6ab88-ddce-4053-9bf9-c71892882cd4","ios":"levelo://app?vid=cca6ab88-ddce-4053-9bf9-c71892882cd4"},"vehicle_type_id":"4","last_reported":1773726660,"current_range_meters":5600,"station_id":"ce4bgjp2rcd13ifvqbh0","pricing_plan_id":"cebpf4jnsgd1na2vs0mg"},{"bike_id":"8c9e26c8-460a-4562-8c2d-b4f73e68fbd8","system_id":"levelo_inurba_marseille","lat":43.28399,"lon":5.37544,"is_reserved":false,"is_disabled":false,"rental_uris":{"android":"levelo://app?vid=8c9e26c8-460a-4562-8c2d-b4f73e68fbd8","ios":"levelo://app?vid=8c9e26c8-460a-4562-8c2d-b4f73e68fbd8"},"vehicle_type_id":"4","last_reported":1773726660,"current_range_meters":5600,"station_id":"ce4bh412rcd13ifvqds0","pricing_plan_id":"cebpf4jnsgd1na2vs0mg"},{"bike_id":"d06b1804-70fd-40ad-8edd-a00949173812","system_id":"levelo_inurba_marseille","lat":43.2319,"lon":5.39998,"is_reserved":false,"is_disabled":false,"rental_uris":{"android":"levelo://app?vid=d06b1804-70fd-40ad-8edd-a00949173812","ios":"levelo://app?vid=d06b1804-70fd-40ad-8edd-a00949173812"},"vehicle_type_id":"4","last_reported":1773726660,"current_range_meters":5600,"station_id":"ce4bhn12rcd13ifvqgqg","pricing_plan_id":"cebpf4jnsgd1na2vs0mg"},{"bike_id":"580e4e1f-c821-4f35-b0d2-4b7d76377e51","system_id":"levelo_inurba_marseille","lat":43.29184,"lon":5.35808,"is_reserved":false,"is_disabled":true,"rental_uris":{"android":"levelo://app?vid=580e4e1f-c821-4f35-b0d2-4b7d76377e51","ios":"levelo://app?vid=580e4e1f-c821-4f35-b0d2-4b7d76377e51"},"vehicle_type_id":"4","last_reported":1773726660,"current_range_meters":5600,"station_id":"ce4bhb12rcd13ifvqel0","pricing_plan_id":"cebpf4jnsgd1na2vs0mg"},{"bike_id":"d89134ff-a044-45c7-94db-9ed2eccb039f","system_id":"levelo_inurba_marseille","lat":43.3135,"lon":5.38497,"is_reserved":false,"is_disabled":true,"rental_uris":{"android":"levelo://app?vid=d89134ff-a044-45c7-94db-9ed2eccb039f","ios":"levelo://app?vid=d89134ff-a044-45c7-94db-9ed2eccb039f"},"vehicle_type_id":"4","last_reported":1773726660,"current_range_meters":5600,"station_id":"ce4bgt92rcd13ifvqcf0","pricing_plan_id":"cebpf4jnsgd1na2vs0mg"},{"bike_id":"2d475c7c-0764-4ac9-8950-41d5059b573b","system_id":"levelo_inurba_marseille","lat":43.28465,"lon":5.4842,"is_reserved":false,"is_disabled":false,"rental_uris":{"android":"levelo://app?vid=2d475c7c-0764-4ac9-8950-41d5059b573b","ios":"levelo://app?vid=2d475c7c-0764-4ac9-8950-41d5059b573b"},"vehicle_type_id":"4","last_reported":1773726660,"current_range_meters":6000,"station_id":"","pricing_plan_id":"cebpf4jnsgd1na2vs0mg"},{"bike_id":"87cf2c9e-dd79-479c-9e15-2f0aaae6b8ee","system_id":"levelo_inurba_marseille","lat":43.31434,"lon":5.3734,"is_reserved":false,"is_disabled":false,"rental_uris":{"android":"levelo://app?vid=87cf2c9e-dd79-479c-9e15-2f0aaae6b8ee","ios":"levelo://app?vid=87cf2c9e-dd79-479c-9e15-2f0aaae6b8ee"},"vehicle_type_id":"4","last_reported":1773726660,"current_range_meters":6000,"station_id":"","pricing_plan_id":"cebpf4jnsgd1na2vs0mg"},{"bike_id":"0f53d472-bee4-40de-8ab2-7656a789b4f7","system_id":"levelo_inurba_marseille","lat":43.22459,"lon":5.34904,"is_reserved":false,"is_disabled":false,"rental_uris":{"android":"levelo://app?vid=0f53d472-bee4-40de-8ab2-7656a789b4f7","ios":"levelo://app?vid=0f53d472-bee4-40de-8ab2-7656a789b4f7"},"vehicle_type_id":"4","last_reported":1773726660,"current_range_meters":6000,"station_id":"","pricing_plan_id":"cebpf4jnsgd1na2vs0mg"},{"bike_id":"20dd7d86-c4dc-4d33-83b0-519cc08235a3","system_id":"levelo_inurba_marseille","lat":43.26234,"lon":5.37476,"is_reserved":false,"is_disabled":false,"rental_uris":{"android":"levelo://app?vid=20dd7d86-c4dc-4d33-83b0-519cc08235a3","ios":"levelo://app?vid=20dd7d86-c4dc-4d33-83b0-519cc08235a3"},"vehicle_type_id":"4","last_reported":1773726660,"current_range_meters":6000,"station_id":"","pricing_plan_id":"cebpf4jnsgd1na2vs0mg"},{"bike_id":"5ceea874-16bc-4dc6-9858-1b3ce34dfda6","system_id":"levelo_inurba_marseille","lat":43.28479,"lon":5.48387,"is_reserved":false,"is_disabled":false,"rental_uris":{"android":"levelo://app?vid=5ceea874-16bc-4dc6-9858-1b3ce34dfda6","ios":"levelo://app?vid=5ceea874-16bc-4dc6-9858-1b3ce34dfda6"},"vehicle_type_id":"4","last_reported":1773726660,"current_range_meters":6000,"station_id":"st_d3svhcjqgbts73a3dn0g","pricing_plan_id":"cebpf4jnsgd1na2vs0mg"},{"bike_id":"7e4878ae-c376-48c8-ad77-0c9152653552","system_id":"levelo_inurba_marseille","lat":43.27486,"lon":5.41619,"is_reserved":false,"is_disabled":false,"rental_uris":{"android":"levelo://app?vid=7e4878ae-c376-48c8-ad77-0c9152653552","ios":"levelo://app?vid=7e4878ae-c376-48c8-ad77-0c9152653552"},"vehicle_type_id":"4","last_reported":1773726660,"current_range_meters":6000,"station_id":"st_d6im8g6chgec73a5pndg","pricing_plan_id":"cebpf4jnsgd1na2vs0mg"},{"bike_id":"5c13d3bc-3946-4016-b223-a96c424763ee","system_id":"levelo_inurba_marseille","lat":43.2416,"lon":5.36395,"is_reserved":false,"is_disabled":false,"rental_uris":{"android":"levelo://app?vid=5c13d3bc-3946-4016-b223-a96c424763ee","ios":"levelo://app?vid=5c13d3bc-3946-4016-b223-a96c424763ee"},"vehicle_type_id":"4","last_reported":1773726660,"current_range_meters":6000,"station_id":"cpo36qri1sfpv3e86is0","pricing_plan_id":"cebpf4jnsgd1na2vs0mg"},{"bike_id":"54e1430e-f603-4f12-94e1-97898e39d9f4","system_id":"levelo_inurba_marseille","lat":43.31019,"lon":5.37191,"is_reserved":false,"is_disabled":false,"rental_uris":{"android":"levelo://app?vid=54e1430e-f603-4f12-94e1-97898e39d9f4","ios":"levelo://app?vid=54e1430e-f603-4f12-94e1-97898e39d9f4"},"vehicle_type_id":"4","last_reported":1773726660,"current_range_meters":6000,"station_id":"","pricing_plan_id":"cebpf4jnsgd1na2vs0mg"},{"bike_id":"3b2d3b2b-9e7f-43fe-b40c-4cc1b73a89cf","system_id":"levelo_inurba_marseille","lat":43.28483,"lon":5.38435,"is_reserved":false,"is_disabled":false,"rental_uris":{"android":"levelo://app?vid=3b2d3b2b-9e7f-43fe-b40c-4cc1b73a89cf","ios":"levelo://app?vid=3b2d3b2b-9e7f-43fe-b40c-4cc1b73a89cf"},"vehicle_type_id":"4","last_reported":1773726660,"current_range_meters":6000,"station_id":"ce4bh512rcd13ifvqe3g","pricing_plan_id":"cebpf4jnsgd1na2vs0mg"},{"bike_id":"5247c951-a74f-455c-8348-09a4b4062d01","system_id":"levelo_inurba_marseille","lat":43.21731,"lon":5.34638,"is_reserved":false,"is_disabled":false,"rental_uris":{"android":"levelo://app?vid=5247c951-a74f-455c-8348-09a4b4062d01","ios":"levelo://app?vid=5247c951-a74f-455c-8348-09a4b4062d01"},"vehicle_type_id":"4","last_reported":1773726660,"current_range_meters":6000,"station_id":"st_cvj6r9ubvosntc0bgbag","pricing_plan_id":"cebpf4jnsgd1na2vs0mg"},{"bike_id":"7fbc82da-1717-40f5-8e22-a284df5edd5a","system_id":"levelo_inurba_marseille","lat":43.24636,"lon":5.43172,"is_reserved":false,"is_disabled":false,"rental_uris":{"android":"levelo://app?vid=7fbc82da-1717-40f5-8e22-a284df5edd5a","ios":"levelo://app?vid=7fbc82da-1717-40f5-8e22-a284df5edd5a"},"vehicle_type_id":"4","last_reported":1773726660,"current_range_meters":6000,"station_id":"","pricing_plan_id":"cebpf4jnsgd1na2vs0mg"},{"bike_id":"14200948-6110-4755-975a-bd96a2b4980d","system_id":"levelo_inurba_marseille","lat":43.29502,"lon":5.38556,"is_reserved":false,"is_disabled":false,"rental_uris":{"android":"levelo://app?vid=14200948-6110-4755-975a-bd96a2b4980d","ios":"levelo://app?vid=14200948-6110-4755-975a-bd96a2b4980d"},"vehicle_type_id":"4","last_reported":1773726660,"current_range_meters":6400,"station_id":"ce4bgih2rcd13ifvqba0","pricing_plan_id":"cebpf4jnsgd1na2vs0mg"},{"bike_id":"796ed888-5e80-4248-a7be-20570706635d","system_id":"levelo_inurba_marseille","lat":43.23785,"lon":5.3667,"is_reserved":false,"is_disabled":false,"rental_uris":{"android":"levelo://app?vid=796ed888-5e80-4248-a7be-20570706635d","ios":"levelo://app?vid=796ed888-5e80-4248-a7be-20570706635d"},"vehicle_type_id":"4","last_reported":1773726660,"current_range_meters":6400,"station_id":"st_d3nk18o9ro0c73en2l3g","pricing_plan_id":"cebpf4jnsgd1na2vs0mg"},{"bike_id":"74b262c5-9af4-405f-811f-ffca97e7ff72","system_id":"levelo_inurba_marseille","lat":43.28695,"lon":5.37353,"is_reserved":false,"is_disabled":false,"rental_uris":{"android":"levelo://app?vid=74b262c5-9af4-405f-811f-ffca97e7ff72","ios":"levelo://app?vid=74b262c5-9af4-405f-811f-ffca97e7ff72"},"vehicle_type_id":"4","last_reported":1773726660,"current_range_meters":6400,"station_id":"ce4bh3p2rcd13ifvqdq0","pricing_plan_id":"cebpf4jnsgd1na2vs0mg"},{"bike_id":"cd16d767-542b-4e2f-ae6b-1b9f4202800d","system_id":"levelo_inurba_marseille","lat":43.29774,"lon":5.37053,"is_reserved":false,"is_disabled":false,"rental_uris":{"android":"levelo://app?vid=cd16d767-542b-4e2f-ae6b-1b9f4202800d","ios":"levelo://app?vid=cd16d767-542b-4e2f-ae6b-1b9f4202800d"},"vehicle_type_id":"4","last_reported":1773726660,"current_range_meters":6400,"station_id":"ce4bgop2rcd13ifvqc1g","pricing_plan_id":"cebpf4jnsgd1na2vs0mg"},{"bike_id":"79a478e2-08d3-411c-bbe2-33b0b24f91f8","system_id":"levelo_inurba_marseille","lat":43.29844,"lon":5.36273,"is_reserved":false,"is_disabled":false,"rental_uris":{"android":"levelo://app?vid=79a478e2-08d3-411c-bbe2-33b0b24f91f8","ios":"levelo://app?vid=79a478e2-08d3-411c-bbe2-33b0b24f91f8"},"vehicle_type_id":"4","last_reported":1773726660,"current_range_meters":6400,"station_id":"ce4bgpp2rcd13ifvqc3g","pricing_plan_id":"cebpf4jnsgd1na2vs0mg"},{"bike_id":"09670bd3-4cc6-40d6-b9c7-c1422d1906d5","system_id":"levelo_inurba_marseille","lat":43.2845,"lon":5.38453,"is_reserved":false,"is_disabled":false,"rental_uris":{"android":"levelo://app?vid=09670bd3-4cc6-40d6-b9c7-c1422d1906d5","ios":"levelo://app?vid=09670bd3-4cc6-40d6-b9c7-c1422d1906d5"},"vehicle_type_id":"4","last_reported":1773726660,"current_range_meters":6400,"station_id":"ce4bh512rcd13ifvqe3g","pricing_plan_id":"cebpf4jnsgd1na2vs0mg"},{"bike_id":"4ca2074d-5be8-4f09-a2f9-0200664389f9","system_id":"levelo_inurba_marseille","lat":43.30735,"lon":5.42453,"is_reserved":false,"is_disabled":false,"rental_uris":{"android":"levelo://app?vid=4ca2074d-5be8-4f09-a2f9-0200664389f9","ios":"levelo://app?vid=4ca2074d-5be8-4f09-a2f9-0200664389f9"},"vehicle_type_id":"4","last_reported":1773726660,"current_range_meters":6400,"station_id":"st_cvj6ca6bvosntc0bfgr0","pricing_plan_id":"cebpf4jnsgd1na2vs0mg"},{"bike_id":"b11c0452-81c6-4fc8-9e9d-167cacd2bc53","system_id":"levelo_inurba_marseille","lat":43.2828,"lon":5.35093,"is_reserved":false,"is_disabled":false,"rental_uris":{"android":"levelo://app?vid=b11c0452-81c6-4fc8-9e9d-167cacd2bc53","ios":"levelo://app?vid=b11c0452-81c6-4fc8-9e9d-167cacd2bc53"},"vehicle_type_id":"4","last_reported":1773726660,"current_range_meters":6800,"station_id":"ce4bhbp2rcd13ifvqerg","pricing_plan_id":"cebpf4jnsgd1na2vs0mg"},{"bike_id":"55ad6576-3c79-4a6b-881b-323a7e8b70a1","system_id":"levelo_inurba_marseille","lat":43.25001,"lon":5.38936,"is_reserved":false,"is_disabled":false,"rental_uris":{"android":"levelo://app?vid=55ad6576-3c79-4a6b-881b-323a7e8b70a1","ios":"levelo://app?vid=55ad6576-3c79-4a6b-881b-323a7e8b70a1"},"vehicle_type_id":"4","last_reported":1773726660,"current_range_meters":6800,"station_id":"ce4bhgp2rcd13ifvqfd0","pricing_plan_id":"cebpf4jnsgd1na2vs0mg"},{"bike_id":"fcc16676-bdcc-453d-943e-a6082336e83f","system_id":"levelo_inurba_marseille","lat":43.29789,"lon":5.44085,"is_reserved":false,"is_disabled":false,"rental_uris":{"android":"levelo://app?vid=fcc16676-bdcc-453d-943e-a6082336e83f","ios":"levelo://app?vid=fcc16676-bdcc-453d-943e-a6082336e83f"},"vehicle_type_id":"4","last_reported":1773726660,"current_range_meters":6800,"station_id":"st_d3jp68qikq2c7381ktn0","pricing_plan_id":"cebpf4jnsgd1na2vs0mg"},{"bike_id":"b5a6141d-ba50-4acc-8bdc-bdaeedf60276","system_id":"levelo_inurba_marseille","lat":43.29577,"lon":5.37503,"is_reserved":false,"is_disabled":true,"rental_uris":{"android":"levelo://app?vid=b5a6141d-ba50-4acc-8bdc-bdaeedf60276","ios":"levelo://app?vid=b5a6141d-ba50-4acc-8bdc-bdaeedf60276"},"vehicle_type_id":"4","last_reported":1773726660,"current_range_meters":6800,"station_id":"ce4bgh92rcd13ifvqb50","pricing_plan_id":"cebpf4jnsgd1na2vs0mg"},{"bike_id":"4c3d3553-54d0-46a3-acda-d420768e23c3","system_id":"levelo_inurba_marseille","lat":43.27355,"lon":5.36263,"is_reserved":false,"is_disabled":false,"rental_uris":{"android":"levelo://app?vid=4c3d3553-54d0-46a3-acda-d420768e23c3","ios":"levelo://app?vid=4c3d3553-54d0-46a3-acda-d420768e23c3"},"vehicle_type_id":"4","last_reported":1773726660,"current_range_meters":6800,"station_id":"ce4bhbh2rcd13ifvqeo0","pricing_plan_id":"cebpf4jnsgd1na2vs0mg"},{"bike_id":"69d2e5d2-aab9-4fc9-a42e-b520c7e8b4f1","system_id":"levelo_inurba_marseille","lat":43.23058,"lon":5.355,"is_reserved":false,"is_disabled":false,"rental_uris":{"android":"levelo://app?vid=69d2e5d2-aab9-4fc9-a42e-b520c7e8b4f1","ios":"levelo://app?vid=69d2e5d2-aab9-4fc9-a42e-b520c7e8b4f1"},"vehicle_type_id":"4","last_reported":1773726660,"current_range_meters":6800,"station_id":"cpo3342slgdg3j2ifvpg","pricing_plan_id":"cebpf4jnsgd1na2vs0mg"},{"bike_id":"e2cb063b-d4c0-49ae-a9e6-3e54366b95e7","system_id":"levelo_inurba_marseille","lat":43.31163,"lon":5.38723,"is_reserved":false,"is_disabled":false,"rental_uris":{"android":"levelo://app?vid=e2cb063b-d4c0-49ae-a9e6-3e54366b95e7","ios":"levelo://app?vid=e2cb063b-d4c0-49ae-a9e6-3e54366b95e7"},"vehicle_type_id":"4","last_reported":1773726660,"current_range_meters":6800,"station_id":"ce4bgv12rcd13ifvqcp0","pricing_plan_id":"cebpf4jnsgd1na2vs0mg"},{"bike_id":"de42a507-3e11-4890-843b-f2e70371efaa","system_id":"levelo_inurba_marseille","lat":43.29223,"lon":5.39303,"is_reserved":false,"is_disabled":false,"rental_uris":{"android":"levelo://app?vid=de42a507-3e11-4890-843b-f2e70371efaa","ios":"levelo://app?vid=de42a507-3e11-4890-843b-f2e70371efaa"},"vehicle_type_id":"4","last_reported":1773726660,"current_range_meters":6800,"station_id":"ce4bh192rcd13ifvqdd0","pricing_plan_id":"cebpf4jnsgd1na2vs0mg"},{"bike_id":"e7729074-2a00-415f-9930-82488baee2d4","system_id":"levelo_inurba_marseille","lat":43.30739,"lon":5.44027,"is_reserved":false,"is_disabled":false,"rental_uris":{"android":"levelo://app?vid=e7729074-2a00-415f-9930-82488baee2d4","ios":"levelo://app?vid=e7729074-2a00-415f-9930-82488baee2d4"},"vehicle_type_id":"4","last_reported":1773726660,"current_range_meters":6800,"station_id":"","pricing_plan_id":"cebpf4jnsgd1na2vs0mg"},{"bike_id":"1a9fc9d5-bae5-4261-a897-bce269a6d0cd","system_id":"levelo_inurba_marseille","lat":43.28394,"lon":5.3753,"is_reserved":false,"is_disabled":false,"rental_uris":{"android":"levelo://app?vid=1a9fc9d5-bae5-4261-a897-bce269a6d0cd","ios":"levelo://app?vid=1a9fc9d5-bae5-4261-a897-bce269a6d0cd"},"vehicle_type_id":"4","last_reported":1773726660,"current_range_meters":6800,"station_id":"ce4bh412rcd13ifvqds0","pricing_plan_id":"cebpf4jnsgd1na2vs0mg"},{"bike_id":"8f31d5b9-6e05-407e-b4ff-967a781ffb57","system_id":"levelo_inurba_marseille","lat":43.25708,"lon":5.41089,"is_reserved":false,"is_disabled":false,"rental_uris":{"android":"levelo://app?vid=8f31d5b9-6e05-407e-b4ff-967a781ffb57","ios":"levelo://app?vid=8f31d5b9-6e05-407e-b4ff-967a781ffb57"},"vehicle_type_id":"4","last_reported":1773726660,"current_range_meters":6800,"station_id":"ce4bhkp2rcd13ifvqgd0","pricing_plan_id":"cebpf4jnsgd1na2vs0mg"},{"bike_id":"523ea723-1fdd-4331-ab86-103e48a58552","system_id":"levelo_inurba_marseille","lat":43.28661,"lon":5.36374,"is_reserved":false,"is_disabled":false,"rental_uris":{"android":"levelo://app?vid=523ea723-1fdd-4331-ab86-103e48a58552","ios":"levelo://app?vid=523ea723-1fdd-4331-ab86-103e48a58552"},"vehicle_type_id":"4","last_reported":1773726660,"current_range_meters":6800,"station_id":"ce4bhah2rcd13ifvqej0","pricing_plan_id":"cebpf4jnsgd1na2vs0mg"},{"bike_id":"88858f89-fe21-45f8-acbb-9ce67472ddb3","system_id":"levelo_inurba_marseille","lat":43.22926,"lon":5.3538,"is_reserved":false,"is_disabled":false,"rental_uris":{"android":"levelo://app?vid=88858f89-fe21-45f8-acbb-9ce67472ddb3","ios":"levelo://app?vid=88858f89-fe21-45f8-acbb-9ce67472ddb3"},"vehicle_type_id":"4","last_reported":1773726660,"current_range_meters":6800,"station_id":"cpo3532slgdg3j2ikp40","pricing_plan_id":"cebpf4jnsgd1na2vs0mg"},{"bike_id":"0da3b02c-b0d0-467c-97ca-108ebe63788e","system_id":"levelo_inurba_marseille","lat":43.24845,"lon":5.38513,"is_reserved":false,"is_disabled":false,"rental_uris":{"android":"levelo://app?vid=0da3b02c-b0d0-467c-97ca-108ebe63788e","ios":"levelo://app?vid=0da3b02c-b0d0-467c-97ca-108ebe63788e"},"vehicle_type_id":"4","last_reported":1773726660,"current_range_meters":6800,"station_id":"","pricing_plan_id":"cebpf4jnsgd1na2vs0mg"},{"bike_id":"d114d824-e871-4708-87e4-8f178331015c","system_id":"levelo_inurba_marseille","lat":43.26574,"lon":5.39049,"is_reserved":false,"is_disabled":false,"rental_uris":{"android":"levelo://app?vid=d114d824-e871-4708-87e4-8f178331015c","ios":"levelo://app?vid=d114d824-e871-4708-87e4-8f178331015c"},"vehicle_type_id":"4","last_reported":1773726660,"current_range_meters":6800,"station_id":"ce4bhe12rcd13ifvqf30","pricing_plan_id":"cebpf4jnsgd1na2vs0mg"},{"bike_id":"15cb20c7-4f13-4607-b418-37753c2a56fa","system_id":"levelo_inurba_marseille","lat":43.28925,"lon":5.38387,"is_reserved":false,"is_disabled":false,"rental_uris":{"android":"levelo://app?vid=15cb20c7-4f13-4607-b418-37753c2a56fa","ios":"levelo://app?vid=15cb20c7-4f13-4607-b418-37753c2a56fa"},"vehicle_type_id":"4","last_reported":1773726660,"current_range_meters":6800,"station_id":"ce4bh612rcd13ifvqe6g","pricing_plan_id":"cebpf4jnsgd1na2vs0mg"},{"bike_id":"99b3399f-a7f1-46ba-9d8d-17a6644bc2b4","system_id":"levelo_inurba_marseille","lat":43.21745,"lon":5.34622,"is_reserved":false,"is_disabled":false,"rental_uris":{"android":"levelo://app?vid=99b3399f-a7f1-46ba-9d8d-17a6644bc2b4","ios":"levelo://app?vid=99b3399f-a7f1-46ba-9d8d-17a6644bc2b4"},"vehicle_type_id":"4","last_reported":1773726660,"current_range_meters":6800,"station_id":"st_cvj6r9ubvosntc0bgbag","pricing_plan_id":"cebpf4jnsgd1na2vs0mg"},{"bike_id":"feaf2e83-6bc7-46d3-b8dc-e52b9fc8cf3e","system_id":"levelo_inurba_marseille","lat":43.22566,"lon":5.41614,"is_reserved":false,"is_disabled":false,"rental_uris":{"android":"levelo://app?vid=feaf2e83-6bc7-46d3-b8dc-e52b9fc8cf3e","ios":"levelo://app?vid=feaf2e83-6bc7-46d3-b8dc-e52b9fc8cf3e"},"vehicle_type_id":"4","last_reported":1773726660,"current_range_meters":7200,"station_id":"st_d2o4gvlbi1j2169b742g","pricing_plan_id":"cebpf4jnsgd1na2vs0mg"},{"bike_id":"2659684f-801c-4863-9231-9c2317cbd087","system_id":"levelo_inurba_marseille","lat":43.30313,"lon":5.40444,"is_reserved":false,"is_disabled":false,"rental_uris":{"android":"levelo://app?vid=2659684f-801c-4863-9231-9c2317cbd087","ios":"levelo://app?vid=2659684f-801c-4863-9231-9c2317cbd087"},"vehicle_type_id":"4","last_reported":1773726660,"current_range_meters":7200,"station_id":"ce4bh012rcd13ifvqd10","pricing_plan_id":"cebpf4jnsgd1na2vs0mg"},{"bike_id":"cf7e06e7-174f-44ce-bebf-7de04dbdbc0d","system_id":"levelo_inurba_marseille","lat":43.30313,"lon":5.36911,"is_reserved":false,"is_disabled":true,"rental_uris":{"android":"levelo://app?vid=cf7e06e7-174f-44ce-bebf-7de04dbdbc0d","ios":"levelo://app?vid=cf7e06e7-174f-44ce-bebf-7de04dbdbc0d"},"vehicle_type_id":"4","last_reported":1773726660,"current_range_meters":7200,"station_id":"ce4bgqh2rcd13ifvqc5g","pricing_plan_id":"cebpf4jnsgd1na2vs0mg"},{"bike_id":"c0ddb57f-e5f5-4ce0-b6c4-75fd2010b9ba","system_id":"levelo_inurba_marseille","lat":43.27488,"lon":5.41604,"is_reserved":false,"is_disabled":false,"rental_uris":{"android":"levelo://app?vid=c0ddb57f-e5f5-4ce0-b6c4-75fd2010b9ba","ios":"levelo://app?vid=c0ddb57f-e5f5-4ce0-b6c4-75fd2010b9ba"},"vehicle_type_id":"4","last_reported":1773726660,"current_range_meters":7200,"station_id":"st_d6im8g6chgec73a5pndg","pricing_plan_id":"cebpf4jnsgd1na2vs0mg"},{"bike_id":"37968066-0b78-49a9-89f8-964d9774907e","system_id":"levelo_inurba_marseille","lat":43.26545,"lon":5.37329,"is_reserved":false,"is_disabled":false,"rental_uris":{"android":"levelo://app?vid=37968066-0b78-49a9-89f8-964d9774907e","ios":"levelo://app?vid=37968066-0b78-49a9-89f8-964d9774907e"},"vehicle_type_id":"4","last_reported":1773726660,"current_range_meters":7200,"station_id":"ce4bhg12rcd13ifvqf70","pricing_plan_id":"cebpf4jnsgd1na2vs0mg"},{"bike_id":"b3f9d14b-bef5-4d03-bd67-be3b0a71369f","system_id":"levelo_inurba_marseille","lat":43.28131,"lon":5.4266,"is_reserved":false,"is_disabled":false,"rental_uris":{"android":"levelo://app?vid=b3f9d14b-bef5-4d03-bd67-be3b0a71369f","ios":"levelo://app?vid=b3f9d14b-bef5-4d03-bd67-be3b0a71369f"},"vehicle_type_id":"4","last_reported":1773726660,"current_range_meters":7200,"station_id":"ce4bhnh2rcd13ifvqgug","pricing_plan_id":"cebpf4jnsgd1na2vs0mg"},{"bike_id":"9cb07ab3-75f5-4b10-84f8-b86a241dd760","system_id":"levelo_inurba_marseille","lat":43.24962,"lon":5.40463,"is_reserved":false,"is_disabled":false,"rental_uris":{"android":"levelo://app?vid=9cb07ab3-75f5-4b10-84f8-b86a241dd760","ios":"levelo://app?vid=9cb07ab3-75f5-4b10-84f8-b86a241dd760"},"vehicle_type_id":"4","last_reported":1773726660,"current_range_meters":7200,"station_id":"st_d2ngiaodas8pm72gd1h0","pricing_plan_id":"cebpf4jnsgd1na2vs0mg"},{"bike_id":"92c4c058-9318-4088-8c0a-14423b05b62c","system_id":"levelo_inurba_marseille","lat":43.28923,"lon":5.36673,"is_reserved":false,"is_disabled":false,"rental_uris":{"android":"levelo://app?vid=92c4c058-9318-4088-8c0a-14423b05b62c","ios":"levelo://app?vid=92c4c058-9318-4088-8c0a-14423b05b62c"},"vehicle_type_id":"4","last_reported":1773726660,"current_range_meters":7200,"station_id":"ce4bhap2rcd13ifvqek0","pricing_plan_id":"cebpf4jnsgd1na2vs0mg"},{"bike_id":"b2f17826-1d3a-49f0-9532-d2b5fe65631a","system_id":"levelo_inurba_marseille","lat":43.30468,"lon":5.37908,"is_reserved":false,"is_disabled":false,"rental_uris":{"android":"levelo://app?vid=b2f17826-1d3a-49f0-9532-d2b5fe65631a","ios":"levelo://app?vid=b2f17826-1d3a-49f0-9532-d2b5fe65631a"},"vehicle_type_id":"4","last_reported":1773726660,"current_range_meters":7200,"station_id":"","pricing_plan_id":"cebpf4jnsgd1na2vs0mg"},{"bike_id":"df20bf0e-9c4a-4578-906f-eb4a10df313e","system_id":"levelo_inurba_marseille","lat":43.30143,"lon":5.3809,"is_reserved":false,"is_disabled":false,"rental_uris":{"android":"levelo://app?vid=df20bf0e-9c4a-4578-906f-eb4a10df313e","ios":"levelo://app?vid=df20bf0e-9c4a-4578-906f-eb4a10df313e"},"vehicle_type_id":"4","last_reported":1773726660,"current_range_meters":7200,"station_id":"ce4bgjp2rcd13ifvqbh0","pricing_plan_id":"cebpf4jnsgd1na2vs0mg"},{"bike_id":"b3e3399c-3837-42b8-afac-39674642005e","system_id":"levelo_inurba_marseille","lat":43.2975,"lon":5.42766,"is_reserved":false,"is_disabled":false,"rental_uris":{"android":"levelo://app?vid=b3e3399c-3837-42b8-afac-39674642005e","ios":"levelo://app?vid=b3e3399c-3837-42b8-afac-39674642005e"},"vehicle_type_id":"4","last_reported":1773726660,"current_range_meters":7200,"station_id":"st_d3md5207bmas73dh9klg","pricing_plan_id":"cebpf4jnsgd1na2vs0mg"},{"bike_id":"a2d729b6-89dd-466e-95da-9b2715a87bac","system_id":"levelo_inurba_marseille","lat":43.29549,"lon":5.42293,"is_reserved":false,"is_disabled":false,"rental_uris":{"android":"levelo://app?vid=a2d729b6-89dd-466e-95da-9b2715a87bac","ios":"levelo://app?vid=a2d729b6-89dd-466e-95da-9b2715a87bac"},"vehicle_type_id":"4","last_reported":1773726660,"current_range_meters":7200,"station_id":"ce4bhph2rcd13ifvqhdg","pricing_plan_id":"cebpf4jnsgd1na2vs0mg"},{"bike_id":"4edc1e69-f919-4c2f-a6b8-66257e87a54f","system_id":"levelo_inurba_marseille","lat":43.28476,"lon":5.48402,"is_reserved":false,"is_disabled":false,"rental_uris":{"android":"levelo://app?vid=4edc1e69-f919-4c2f-a6b8-66257e87a54f","ios":"levelo://app?vid=4edc1e69-f919-4c2f-a6b8-66257e87a54f"},"vehicle_type_id":"4","last_reported":1773726660,"current_range_meters":7200,"station_id":"","pricing_plan_id":"cebpf4jnsgd1na2vs0mg"},{"bike_id":"b26a183d-6c83-4d2a-a0e9-663ca30122f2","system_id":"levelo_inurba_marseille","lat":43.29739,"lon":5.3769,"is_reserved":false,"is_disabled":false,"rental_uris":{"android":"levelo://app?vid=b26a183d-6c83-4d2a-a0e9-663ca30122f2","ios":"levelo://app?vid=b26a183d-6c83-4d2a-a0e9-663ca30122f2"},"vehicle_type_id":"4","last_reported":1773726660,"current_range_meters":7200,"station_id":"ce4bgkh2rcd13ifvqbl0","pricing_plan_id":"cebpf4jnsgd1na2vs0mg"},{"bike_id":"e4b515b3-5a64-4f24-8a63-3407e3500a15","system_id":"levelo_inurba_marseille","lat":43.24302,"lon":5.40226,"is_reserved":false,"is_disabled":false,"rental_uris":{"android":"levelo://app?vid=e4b515b3-5a64-4f24-8a63-3407e3500a15","ios":"levelo://app?vid=e4b515b3-5a64-4f24-8a63-3407e3500a15"},"vehicle_type_id":"4","last_reported":1773726660,"current_range_meters":7200,"station_id":"","pricing_plan_id":"cebpf4jnsgd1na2vs0mg"},{"bike_id":"41b7b418-9b4f-4bf0-a387-6295ab4a59a6","system_id":"levelo_inurba_marseille","lat":43.25821,"lon":5.39437,"is_reserved":false,"is_disabled":false,"rental_uris":{"android":"levelo://app?vid=41b7b418-9b4f-4bf0-a387-6295ab4a59a6","ios":"levelo://app?vid=41b7b418-9b4f-4bf0-a387-6295ab4a59a6"},"vehicle_type_id":"4","last_reported":1773726660,"current_range_meters":7200,"station_id":"ce4bhip2rcd13ifvqft0","pricing_plan_id":"cebpf4jnsgd1na2vs0mg"},{"bike_id":"8489365d-5feb-4109-a0cf-3015c0ef09d7","system_id":"levelo_inurba_marseille","lat":43.30163,"lon":5.43713,"is_reserved":false,"is_disabled":false,"rental_uris":{"android":"levelo://app?vid=8489365d-5feb-4109-a0cf-3015c0ef09d7","ios":"levelo://app?vid=8489365d-5feb-4109-a0cf-3015c0ef09d7"},"vehicle_type_id":"4","last_reported":1773726660,"current_range_meters":7200,"station_id":"","pricing_plan_id":"cebpf4jnsgd1na2vs0mg"},{"bike_id":"5546bd0f-7ced-4964-ba48-a430fa2adf47","system_id":"levelo_inurba_marseille","lat":43.21741,"lon":5.3463,"is_reserved":false,"is_disabled":false,"rental_uris":{"android":"levelo://app?vid=5546bd0f-7ced-4964-ba48-a430fa2adf47","ios":"levelo://app?vid=5546bd0f-7ced-4964-ba48-a430fa2adf47"},"vehicle_type_id":"4","last_reported":1773726660,"current_range_meters":8000,"station_id":"st_cvj6r9ubvosntc0bgbag","pricing_plan_id":"cebpf4jnsgd1na2vs0mg"},{"bike_id":"3190f864-107e-4d78-958f-09306dea7eb8","system_id":"levelo_inurba_marseille","lat":43.25283,"lon":5.42162,"is_reserved":false,"is_disabled":false,"rental_uris":{"android":"levelo://app?vid=3190f864-107e-4d78-958f-09306dea7eb8","ios":"levelo://app?vid=3190f864-107e-4d78-958f-09306dea7eb8"},"vehicle_type_id":"4","last_reported":1773726660,"current_range_meters":8000,"station_id":"","pricing_plan_id":"cebpf4jnsgd1na2vs0mg"},{"bike_id":"62833aa1-f08b-421a-91dc-ee779a4b72de","system_id":"levelo_inurba_marseille","lat":43.29178,"lon":5.39365,"is_reserved":false,"is_disabled":false,"rental_uris":{"android":"levelo://app?vid=62833aa1-f08b-421a-91dc-ee779a4b72de","ios":"levelo://app?vid=62833aa1-f08b-421a-91dc-ee779a4b72de"},"vehicle_type_id":"4","last_reported":1773726660,"current_range_meters":8000,"station_id":"","pricing_plan_id":"cebpf4jnsgd1na2vs0mg"},{"bike_id":"47ef176d-68be-4aff-b054-43d33804887a","system_id":"levelo_inurba_marseille","lat":43.26557,"lon":5.37317,"is_reserved":false,"is_disabled":false,"rental_uris":{"android":"levelo://app?vid=47ef176d-68be-4aff-b054-43d33804887a","ios":"levelo://app?vid=47ef176d-68be-4aff-b054-43d33804887a"},"vehicle_type_id":"4","last_reported":1773726660,"current_range_meters":8000,"station_id":"ce4bhg12rcd13ifvqf70","pricing_plan_id":"cebpf4jnsgd1na2vs0mg"},{"bike_id":"57f59ea7-9661-484b-ab62-8930e39b76a3","system_id":"levelo_inurba_marseille","lat":43.23792,"lon":5.36632,"is_reserved":false,"is_disabled":false,"rental_uris":{"android":"levelo://app?vid=57f59ea7-9661-484b-ab62-8930e39b76a3","ios":"levelo://app?vid=57f59ea7-9661-484b-ab62-8930e39b76a3"},"vehicle_type_id":"4","last_reported":1773726660,"current_range_meters":8000,"station_id":"st_d3nk18o9ro0c73en2l3g","pricing_plan_id":"cebpf4jnsgd1na2vs0mg"},{"bike_id":"9ffcd30b-650f-4436-9b49-3da9737f924f","system_id":"levelo_inurba_marseille","lat":43.31023,"lon":5.37198,"is_reserved":false,"is_disabled":false,"rental_uris":{"android":"levelo://app?vid=9ffcd30b-650f-4436-9b49-3da9737f924f","ios":"levelo://app?vid=9ffcd30b-650f-4436-9b49-3da9737f924f"},"vehicle_type_id":"4","last_reported":1773726660,"current_range_meters":8000,"station_id":"st_d4kl2rp97mjs73e7tdfg","pricing_plan_id":"cebpf4jnsgd1na2vs0mg"},{"bike_id":"010a9f6e-3baf-4328-b2cc-6d9ecc86357b","system_id":"levelo_inurba_marseille","lat":43.31524,"lon":5.37268,"is_reserved":false,"is_disabled":false,"rental_uris":{"android":"levelo://app?vid=010a9f6e-3baf-4328-b2cc-6d9ecc86357b","ios":"levelo://app?vid=010a9f6e-3baf-4328-b2cc-6d9ecc86357b"},"vehicle_type_id":"4","last_reported":1773726660,"current_range_meters":8000,"station_id":"","pricing_plan_id":"cebpf4jnsgd1na2vs0mg"},{"bike_id":"01f976a6-bfab-43a9-ab03-c223379e11be","system_id":"levelo_inurba_marseille","lat":43.29262,"lon":5.36858,"is_reserved":false,"is_disabled":false,"rental_uris":{"android":"levelo://app?vid=01f976a6-bfab-43a9-ab03-c223379e11be","ios":"levelo://app?vid=01f976a6-bfab-43a9-ab03-c223379e11be"},"vehicle_type_id":"4","last_reported":1773726660,"current_range_meters":8000,"station_id":"ce4bhbp2rcd13ifvqesg","pricing_plan_id":"cebpf4jnsgd1na2vs0mg"},{"bike_id":"ea67d905-c4ed-45bd-8dcf-e898f8bb576f","system_id":"levelo_inurba_marseille","lat":43.27817,"lon":5.40763,"is_reserved":false,"is_disabled":false,"rental_uris":{"android":"levelo://app?vid=ea67d905-c4ed-45bd-8dcf-e898f8bb576f","ios":"levelo://app?vid=ea67d905-c4ed-45bd-8dcf-e898f8bb576f"},"vehicle_type_id":"4","last_reported":1773726660,"current_range_meters":8000,"station_id":"ce4bhnh2rcd13ifvqgtg","pricing_plan_id":"cebpf4jnsgd1na2vs0mg"},{"bike_id":"461b4985-36ff-4606-85aa-51c5861b5900","system_id":"levelo_inurba_marseille","lat":43.28699,"lon":5.37939,"is_reserved":false,"is_disabled":false,"rental_uris":{"android":"levelo://app?vid=461b4985-36ff-4606-85aa-51c5861b5900","ios":"levelo://app?vid=461b4985-36ff-4606-85aa-51c5861b5900"},"vehicle_type_id":"4","last_reported":1773726660,"current_range_meters":8000,"station_id":"ce4bh9p2rcd13ifvqec0","pricing_plan_id":"cebpf4jnsgd1na2vs0mg"},{"bike_id":"dd60e221-7b57-45b0-9f67-03f2a66d7ded","system_id":"levelo_inurba_marseille","lat":43.28218,"lon":5.39027,"is_reserved":false,"is_disabled":false,"rental_uris":{"android":"levelo://app?vid=dd60e221-7b57-45b0-9f67-03f2a66d7ded","ios":"levelo://app?vid=dd60e221-7b57-45b0-9f67-03f2a66d7ded"},"vehicle_type_id":"4","last_reported":1773726660,"current_range_meters":8000,"station_id":"ce4bhn92rcd13ifvqgsg","pricing_plan_id":"cebpf4jnsgd1na2vs0mg"},{"bike_id":"8cb2a7a3-90e1-4b31-8c3b-89053d13e1d9","system_id":"levelo_inurba_marseille","lat":43.23194,"lon":5.35549,"is_reserved":false,"is_disabled":false,"rental_uris":{"android":"levelo://app?vid=8cb2a7a3-90e1-4b31-8c3b-89053d13e1d9","ios":"levelo://app?vid=8cb2a7a3-90e1-4b31-8c3b-89053d13e1d9"},"vehicle_type_id":"4","last_reported":1773726660,"current_range_meters":8000,"station_id":"ce4bhu92rcd13ifvqi70","pricing_plan_id":"cebpf4jnsgd1na2vs0mg"},{"bike_id":"6f83eb31-b48e-41cc-86f8-dc0cead3d767","system_id":"levelo_inurba_marseille","lat":43.21196,"lon":5.3508,"is_reserved":false,"is_disabled":false,"rental_uris":{"android":"levelo://app?vid=6f83eb31-b48e-41cc-86f8-dc0cead3d767","ios":"levelo://app?vid=6f83eb31-b48e-41cc-86f8-dc0cead3d767"},"vehicle_type_id":"4","last_reported":1773726660,"current_range_meters":8000,"station_id":"st_cvj6sg6p6f1abm77japg","pricing_plan_id":"cebpf4jnsgd1na2vs0mg"},{"bike_id":"a1cbdf85-43b7-4cdc-b096-1df550b7ce74","system_id":"levelo_inurba_marseille","lat":43.29556,"lon":5.39918,"is_reserved":false,"is_disabled":false,"rental_uris":{"android":"levelo://app?vid=a1cbdf85-43b7-4cdc-b096-1df550b7ce74","ios":"levelo://app?vid=a1cbdf85-43b7-4cdc-b096-1df550b7ce74"},"vehicle_type_id":"4","last_reported":1773726660,"current_range_meters":8000,"station_id":"ce4bh312rcd13ifvqdj0","pricing_plan_id":"cebpf4jnsgd1na2vs0mg"},{"bike_id":"9b44eabc-9473-4aeb-8589-934e8f4a2c0e","system_id":"levelo_inurba_marseille","lat":43.2292,"lon":5.35391,"is_reserved":false,"is_disabled":false,"rental_uris":{"android":"levelo://app?vid=9b44eabc-9473-4aeb-8589-934e8f4a2c0e","ios":"levelo://app?vid=9b44eabc-9473-4aeb-8589-934e8f4a2c0e"},"vehicle_type_id":"4","last_reported":1773726660,"current_range_meters":8000,"station_id":"cpo3532slgdg3j2ikp40","pricing_plan_id":"cebpf4jnsgd1na2vs0mg"},{"bike_id":"3dad20a7-e396-4101-adc6-30f4c7f64d56","system_id":"levelo_inurba_marseille","lat":43.25001,"lon":5.38934,"is_reserved":false,"is_disabled":false,"rental_uris":{"android":"levelo://app?vid=3dad20a7-e396-4101-adc6-30f4c7f64d56","ios":"levelo://app?vid=3dad20a7-e396-4101-adc6-30f4c7f64d56"},"vehicle_type_id":"4","last_reported":1773726660,"current_range_meters":8000,"station_id":"ce4bhgp2rcd13ifvqfd0","pricing_plan_id":"cebpf4jnsgd1na2vs0mg"},{"bike_id":"c6bad372-41ad-42c1-be12-31c25e37b1de","system_id":"levelo_inurba_marseille","lat":43.30146,"lon":5.38088,"is_reserved":false,"is_disabled":true,"rental_uris":{"android":"levelo://app?vid=c6bad372-41ad-42c1-be12-31c25e37b1de","ios":"levelo://app?vid=c6bad372-41ad-42c1-be12-31c25e37b1de"},"vehicle_type_id":"4","last_reported":1773726660,"current_range_meters":8000,"station_id":"ce4bgjp2rcd13ifvqbh0","pricing_plan_id":"cebpf4jnsgd1na2vs0mg"},{"bike_id":"fab30b79-abc3-4296-b3f2-e9dd866ff19d","system_id":"levelo_inurba_marseille","lat":43.28391,"lon":5.37535,"is_reserved":false,"is_disabled":false,"rental_uris":{"android":"levelo://app?vid=fab30b79-abc3-4296-b3f2-e9dd866ff19d","ios":"levelo://app?vid=fab30b79-abc3-4296-b3f2-e9dd866ff19d"},"vehicle_type_id":"4","last_reported":1773726660,"current_range_meters":8000,"station_id":"ce4bh412rcd13ifvqds0","pricing_plan_id":"cebpf4jnsgd1na2vs0mg"},{"bike_id":"44abcca0-01f1-457d-9700-f4ae6bcdaacd","system_id":"levelo_inurba_marseille","lat":43.3099,"lon":5.39044,"is_reserved":false,"is_disabled":true,"rental_uris":{"android":"levelo://app?vid=44abcca0-01f1-457d-9700-f4ae6bcdaacd","ios":"levelo://app?vid=44abcca0-01f1-457d-9700-f4ae6bcdaacd"},"vehicle_type_id":"4","last_reported":1773726660,"current_range_meters":8000,"station_id":"ce4bgup2rcd13ifvqco0","pricing_plan_id":"cebpf4jnsgd1na2vs0mg"},{"bike_id":"14370fd8-633a-42b1-bb6d-842188cff19e","system_id":"levelo_inurba_marseille","lat":43.30886,"lon":5.39624,"is_reserved":false,"is_disabled":false,"rental_uris":{"android":"levelo://app?vid=14370fd8-633a-42b1-bb6d-842188cff19e","ios":"levelo://app?vid=14370fd8-633a-42b1-bb6d-842188cff19e"},"vehicle_type_id":"4","last_reported":1773726660,"current_range_meters":8000,"station_id":"ce4bh012rcd13ifvqcv0","pricing_plan_id":"cebpf4jnsgd1na2vs0mg"},{"bike_id":"75056a4b-7dce-4842-b5f6-e3da4f22a752","system_id":"levelo_inurba_marseille","lat":43.21734,"lon":5.34629,"is_reserved":false,"is_disabled":false,"rental_uris":{"android":"levelo://app?vid=75056a4b-7dce-4842-b5f6-e3da4f22a752","ios":"levelo://app?vid=75056a4b-7dce-4842-b5f6-e3da4f22a752"},"vehicle_type_id":"4","last_reported":1773726660,"current_range_meters":8000,"station_id":"st_cvj6r9ubvosntc0bgbag","pricing_plan_id":"cebpf4jnsgd1na2vs0mg"},{"bike_id":"faa8d18a-3767-4f17-b9c5-3e2ab989e6d0","system_id":"levelo_inurba_marseille","lat":43.25076,"lon":5.39545,"is_reserved":false,"is_disabled":false,"rental_uris":{"android":"levelo://app?vid=faa8d18a-3767-4f17-b9c5-3e2ab989e6d0","ios":"levelo://app?vid=faa8d18a-3767-4f17-b9c5-3e2ab989e6d0"},"vehicle_type_id":"4","last_reported":1773726660,"current_range_meters":8000,"station_id":"ce4bhm12rcd13ifvqgkg","pricing_plan_id":"cebpf4jnsgd1na2vs0mg"},{"bike_id":"1f50381c-781e-49e6-9665-ffc0ed64e369","system_id":"levelo_inurba_marseille","lat":43.30367,"lon":5.39796,"is_reserved":false,"is_disabled":false,"rental_uris":{"android":"levelo://app?vid=1f50381c-781e-49e6-9665-ffc0ed64e369","ios":"levelo://app?vid=1f50381c-781e-49e6-9665-ffc0ed64e369"},"vehicle_type_id":"4","last_reported":1773726660,"current_range_meters":8000,"station_id":"","pricing_plan_id":"cebpf4jnsgd1na2vs0mg"},{"bike_id":"7d5b3664-02ce-4451-b3f2-afda1ab3ce3d","system_id":"levelo_inurba_marseille","lat":43.33527,"lon":5.37477,"is_reserved":false,"is_disabled":false,"rental_uris":{"android":"levelo://app?vid=7d5b3664-02ce-4451-b3f2-afda1ab3ce3d","ios":"levelo://app?vid=7d5b3664-02ce-4451-b3f2-afda1ab3ce3d"},"vehicle_type_id":"4","last_reported":1773726660,"current_range_meters":8000,"station_id":"st_d46tts09ee8s73dlu43g","pricing_plan_id":"cebpf4jnsgd1na2vs0mg"},{"bike_id":"ced6b7b8-4385-4925-8d61-1a4631feac55","system_id":"levelo_inurba_marseille","lat":43.29841,"lon":5.3628,"is_reserved":false,"is_disabled":false,"rental_uris":{"android":"levelo://app?vid=ced6b7b8-4385-4925-8d61-1a4631feac55","ios":"levelo://app?vid=ced6b7b8-4385-4925-8d61-1a4631feac55"},"vehicle_type_id":"4","last_reported":1773726660,"current_range_meters":8000,"station_id":"ce4bgpp2rcd13ifvqc3g","pricing_plan_id":"cebpf4jnsgd1na2vs0mg"},{"bike_id":"70fdc065-93d6-4dd2-977b-71ec2a296371","system_id":"levelo_inurba_marseille","lat":43.21745,"lon":5.34604,"is_reserved":false,"is_disabled":false,"rental_uris":{"android":"levelo://app?vid=70fdc065-93d6-4dd2-977b-71ec2a296371","ios":"levelo://app?vid=70fdc065-93d6-4dd2-977b-71ec2a296371"},"vehicle_type_id":"4","last_reported":1773726660,"current_range_meters":8400,"station_id":"st_cvj6r9ubvosntc0bgbag","pricing_plan_id":"cebpf4jnsgd1na2vs0mg"},{"bike_id":"8c7e5b46-f676-445b-94f5-19e8387b60cc","system_id":"levelo_inurba_marseille","lat":43.29794,"lon":5.4042,"is_reserved":false,"is_disabled":false,"rental_uris":{"android":"levelo://app?vid=8c7e5b46-f676-445b-94f5-19e8387b60cc","ios":"levelo://app?vid=8c7e5b46-f676-445b-94f5-19e8387b60cc"},"vehicle_type_id":"4","last_reported":1773726660,"current_range_meters":8400,"station_id":"ce4bh112rcd13ifvqd90","pricing_plan_id":"cebpf4jnsgd1na2vs0mg"},{"bike_id":"aa8c03a5-097b-4c47-9e42-1ec9be261b8f","system_id":"levelo_inurba_marseille","lat":43.23195,"lon":5.39973,"is_reserved":false,"is_disabled":false,"rental_uris":{"android":"levelo://app?vid=aa8c03a5-097b-4c47-9e42-1ec9be261b8f","ios":"levelo://app?vid=aa8c03a5-097b-4c47-9e42-1ec9be261b8f"},"vehicle_type_id":"4","last_reported":1773726660,"current_range_meters":8400,"station_id":"ce4bhn12rcd13ifvqgqg","pricing_plan_id":"cebpf4jnsgd1na2vs0mg"},{"bike_id":"f6c860f4-9c2e-4a13-b509-50fb1709859b","system_id":"levelo_inurba_marseille","lat":43.21176,"lon":5.351,"is_reserved":false,"is_disabled":false,"rental_uris":{"android":"levelo://app?vid=f6c860f4-9c2e-4a13-b509-50fb1709859b","ios":"levelo://app?vid=f6c860f4-9c2e-4a13-b509-50fb1709859b"},"vehicle_type_id":"4","last_reported":1773726660,"current_range_meters":8400,"station_id":"st_cvj6sg6p6f1abm77japg","pricing_plan_id":"cebpf4jnsgd1na2vs0mg"},{"bike_id":"86f3c3e6-1877-45e4-95fe-47aa36990f39","system_id":"levelo_inurba_marseille","lat":43.3105,"lon":5.37184,"is_reserved":false,"is_disabled":false,"rental_uris":{"android":"levelo://app?vid=86f3c3e6-1877-45e4-95fe-47aa36990f39","ios":"levelo://app?vid=86f3c3e6-1877-45e4-95fe-47aa36990f39"},"vehicle_type_id":"4","last_reported":1773726660,"current_range_meters":8400,"station_id":"st_d4kl2rp97mjs73e7tdfg","pricing_plan_id":"cebpf4jnsgd1na2vs0mg"},{"bike_id":"03812eec-b185-465c-8c48-7984e651c3d0","system_id":"levelo_inurba_marseille","lat":43.33045,"lon":5.39014,"is_reserved":false,"is_disabled":false,"rental_uris":{"android":"levelo://app?vid=03812eec-b185-465c-8c48-7984e651c3d0","ios":"levelo://app?vid=03812eec-b185-465c-8c48-7984e651c3d0"},"vehicle_type_id":"4","last_reported":1773726660,"current_range_meters":8400,"station_id":"ce4bhr92rcd13ifvqhrg","pricing_plan_id":"cebpf4jnsgd1na2vs0mg"},{"bike_id":"4eeecf6d-6108-42a0-b77f-fc0c0b55b73c","system_id":"levelo_inurba_marseille","lat":43.29917,"lon":5.3745,"is_reserved":false,"is_disabled":true,"rental_uris":{"android":"levelo://app?vid=4eeecf6d-6108-42a0-b77f-fc0c0b55b73c","ios":"levelo://app?vid=4eeecf6d-6108-42a0-b77f-fc0c0b55b73c"},"vehicle_type_id":"4","last_reported":1773726660,"current_range_meters":8400,"station_id":"ce4bgjh2rcd13ifvqbg0","pricing_plan_id":"cebpf4jnsgd1na2vs0mg"},{"bike_id":"a198b19a-147f-4fb3-822c-608a1d587cb8","system_id":"levelo_inurba_marseille","lat":43.21745,"lon":5.34603,"is_reserved":false,"is_disabled":false,"rental_uris":{"android":"levelo://app?vid=a198b19a-147f-4fb3-822c-608a1d587cb8","ios":"levelo://app?vid=a198b19a-147f-4fb3-822c-608a1d587cb8"},"vehicle_type_id":"4","last_reported":1773726660,"current_range_meters":8400,"station_id":"st_cvj6r9ubvosntc0bgbag","pricing_plan_id":"cebpf4jnsgd1na2vs0mg"},{"bike_id":"b21e3be4-c7ed-41ef-8b12-6d82d73722e2","system_id":"levelo_inurba_marseille","lat":43.24805,"lon":5.37466,"is_reserved":false,"is_disabled":false,"rental_uris":{"android":"levelo://app?vid=b21e3be4-c7ed-41ef-8b12-6d82d73722e2","ios":"levelo://app?vid=b21e3be4-c7ed-41ef-8b12-6d82d73722e2"},"vehicle_type_id":"4","last_reported":1773726660,"current_range_meters":8400,"station_id":"ce4bhgh2rcd13ifvqfb0","pricing_plan_id":"cebpf4jnsgd1na2vs0mg"},{"bike_id":"f0d67aa5-6ce8-4985-ba9c-9a7791af2155","system_id":"levelo_inurba_marseille","lat":43.29516,"lon":5.39424,"is_reserved":false,"is_disabled":false,"rental_uris":{"android":"levelo://app?vid=f0d67aa5-6ce8-4985-ba9c-9a7791af2155","ios":"levelo://app?vid=f0d67aa5-6ce8-4985-ba9c-9a7791af2155"},"vehicle_type_id":"4","last_reported":1773726660,"current_range_meters":8400,"station_id":"ce4bh292rcd13ifvqdf0","pricing_plan_id":"cebpf4jnsgd1na2vs0mg"},{"bike_id":"53336338-5141-44ec-bb59-6df2460b79a8","system_id":"levelo_inurba_marseille","lat":43.30185,"lon":5.39495,"is_reserved":false,"is_disabled":true,"rental_uris":{"android":"levelo://app?vid=53336338-5141-44ec-bb59-6df2460b79a8","ios":"levelo://app?vid=53336338-5141-44ec-bb59-6df2460b79a8"},"vehicle_type_id":"4","last_reported":1773726660,"current_range_meters":8400,"station_id":"ce4bh0p2rcd13ifvqd70","pricing_plan_id":"cebpf4jnsgd1na2vs0mg"},{"bike_id":"225b849b-451b-440d-a48c-4a485e0a2d92","system_id":"levelo_inurba_marseille","lat":43.25868,"lon":5.39907,"is_reserved":false,"is_disabled":false,"rental_uris":{"android":"levelo://app?vid=225b849b-451b-440d-a48c-4a485e0a2d92","ios":"levelo://app?vid=225b849b-451b-440d-a48c-4a485e0a2d92"},"vehicle_type_id":"4","last_reported":1773726660,"current_range_meters":8400,"station_id":"ce4bhl92rcd13ifvqghg","pricing_plan_id":"cebpf4jnsgd1na2vs0mg"},{"bike_id":"5a6b09ca-106f-44d2-9055-b06f0e268d47","system_id":"levelo_inurba_marseille","lat":43.30332,"lon":5.4044,"is_reserved":false,"is_disabled":false,"rental_uris":{"android":"levelo://app?vid=5a6b09ca-106f-44d2-9055-b06f0e268d47","ios":"levelo://app?vid=5a6b09ca-106f-44d2-9055-b06f0e268d47"},"vehicle_type_id":"4","last_reported":1773726660,"current_range_meters":8400,"station_id":"ce4bh012rcd13ifvqd10","pricing_plan_id":"cebpf4jnsgd1na2vs0mg"},{"bike_id":"a650f10d-9ab2-42e1-a1ec-b23d66310508","system_id":"levelo_inurba_marseille","lat":43.27338,"lon":5.42415,"is_reserved":false,"is_disabled":true,"rental_uris":{"android":"levelo://app?vid=a650f10d-9ab2-42e1-a1ec-b23d66310508","ios":"levelo://app?vid=a650f10d-9ab2-42e1-a1ec-b23d66310508"},"vehicle_type_id":"4","last_reported":1773726660,"current_range_meters":8400,"station_id":"","pricing_plan_id":"cebpf4jnsgd1na2vs0mg"},{"bike_id":"99ba46b4-4c6f-44d5-9c27-ad82efd84c9b","system_id":"levelo_inurba_marseille","lat":43.21173,"lon":5.35079,"is_reserved":false,"is_disabled":false,"rental_uris":{"android":"levelo://app?vid=99ba46b4-4c6f-44d5-9c27-ad82efd84c9b","ios":"levelo://app?vid=99ba46b4-4c6f-44d5-9c27-ad82efd84c9b"},"vehicle_type_id":"4","last_reported":1773726660,"current_range_meters":8400,"station_id":"st_cvj6sg6p6f1abm77japg","pricing_plan_id":"cebpf4jnsgd1na2vs0mg"},{"bike_id":"37b76a4a-4617-40ad-8663-848e6cf36fa3","system_id":"levelo_inurba_marseille","lat":43.31365,"lon":5.36751,"is_reserved":false,"is_disabled":false,"rental_uris":{"android":"levelo://app?vid=37b76a4a-4617-40ad-8663-848e6cf36fa3","ios":"levelo://app?vid=37b76a4a-4617-40ad-8663-848e6cf36fa3"},"vehicle_type_id":"4","last_reported":1773726660,"current_range_meters":8400,"station_id":"ce4bgr92rcd13ifvqc6g","pricing_plan_id":"cebpf4jnsgd1na2vs0mg"},{"bike_id":"4758d3f8-edf7-48c4-932a-34b8f81efb84","system_id":"levelo_inurba_marseille","lat":43.25329,"lon":5.4218,"is_reserved":false,"is_disabled":false,"rental_uris":{"android":"levelo://app?vid=4758d3f8-edf7-48c4-932a-34b8f81efb84","ios":"levelo://app?vid=4758d3f8-edf7-48c4-932a-34b8f81efb84"},"vehicle_type_id":"4","last_reported":1773726660,"current_range_meters":8400,"station_id":"st_d2m65c5bi1j21697t3ng","pricing_plan_id":"cebpf4jnsgd1na2vs0mg"},{"bike_id":"f986afd9-309a-4656-a5b6-91519d19ac02","system_id":"levelo_inurba_marseille","lat":43.31125,"lon":5.37752,"is_reserved":false,"is_disabled":false,"rental_uris":{"android":"levelo://app?vid=f986afd9-309a-4656-a5b6-91519d19ac02","ios":"levelo://app?vid=f986afd9-309a-4656-a5b6-91519d19ac02"},"vehicle_type_id":"4","last_reported":1773726660,"current_range_meters":8400,"station_id":"ce4bgt92rcd13ifvqcg0","pricing_plan_id":"cebpf4jnsgd1na2vs0mg"},{"bike_id":"1f5bfe55-41d9-43f3-a84f-b130fbed01d6","system_id":"levelo_inurba_marseille","lat":43.21194,"lon":5.35073,"is_reserved":false,"is_disabled":false,"rental_uris":{"android":"levelo://app?vid=1f5bfe55-41d9-43f3-a84f-b130fbed01d6","ios":"levelo://app?vid=1f5bfe55-41d9-43f3-a84f-b130fbed01d6"},"vehicle_type_id":"4","last_reported":1773726660,"current_range_meters":8400,"station_id":"st_cvj6sg6p6f1abm77japg","pricing_plan_id":"cebpf4jnsgd1na2vs0mg"},{"bike_id":"9812183f-695a-4186-b0bd-d2ed9e64fd57","system_id":"levelo_inurba_marseille","lat":43.29261,"lon":5.40893,"is_reserved":false,"is_disabled":false,"rental_uris":{"android":"levelo://app?vid=9812183f-695a-4186-b0bd-d2ed9e64fd57","ios":"levelo://app?vid=9812183f-695a-4186-b0bd-d2ed9e64fd57"},"vehicle_type_id":"4","last_reported":1773726660,"current_range_meters":8400,"station_id":"ce4bh192rcd13ifvqdc0","pricing_plan_id":"cebpf4jnsgd1na2vs0mg"},{"bike_id":"947e1acd-8816-4ff5-9c35-e02eb3948228","system_id":"levelo_inurba_marseille","lat":43.29909,"lon":5.43673,"is_reserved":false,"is_disabled":false,"rental_uris":{"android":"levelo://app?vid=947e1acd-8816-4ff5-9c35-e02eb3948228","ios":"levelo://app?vid=947e1acd-8816-4ff5-9c35-e02eb3948228"},"vehicle_type_id":"4","last_reported":1773726660,"current_range_meters":8400,"station_id":"ce4bhpp2rcd13ifvqhfg","pricing_plan_id":"cebpf4jnsgd1na2vs0mg"},{"bike_id":"18d4da97-4d1e-4ec3-a9b0-1cc877f1b1a6","system_id":"levelo_inurba_marseille","lat":43.28413,"lon":5.37547,"is_reserved":false,"is_disabled":false,"rental_uris":{"android":"levelo://app?vid=18d4da97-4d1e-4ec3-a9b0-1cc877f1b1a6","ios":"levelo://app?vid=18d4da97-4d1e-4ec3-a9b0-1cc877f1b1a6"},"vehicle_type_id":"4","last_reported":1773726660,"current_range_meters":8400,"station_id":"ce4bh412rcd13ifvqds0","pricing_plan_id":"cebpf4jnsgd1na2vs0mg"},{"bike_id":"e8d8c5f0-9c1f-438a-8a70-f71901059aa4","system_id":"levelo_inurba_marseille","lat":43.30805,"lon":5.38158,"is_reserved":false,"is_disabled":false,"rental_uris":{"android":"levelo://app?vid=e8d8c5f0-9c1f-438a-8a70-f71901059aa4","ios":"levelo://app?vid=e8d8c5f0-9c1f-438a-8a70-f71901059aa4"},"vehicle_type_id":"4","last_reported":1773726660,"current_range_meters":8400,"station_id":"ce4bgt12rcd13ifvqce0","pricing_plan_id":"cebpf4jnsgd1na2vs0mg"},{"bike_id":"617de69c-c5b5-4a8d-82d1-0f8e4719e1e8","system_id":"levelo_inurba_marseille","lat":43.28844,"lon":5.39309,"is_reserved":false,"is_disabled":false,"rental_uris":{"android":"levelo://app?vid=617de69c-c5b5-4a8d-82d1-0f8e4719e1e8","ios":"levelo://app?vid=617de69c-c5b5-4a8d-82d1-0f8e4719e1e8"},"vehicle_type_id":"4","last_reported":1773726660,"current_range_meters":8400,"station_id":"ce4bh2p2rcd13ifvqdi0","pricing_plan_id":"cebpf4jnsgd1na2vs0mg"},{"bike_id":"36bcefea-1744-478b-a4f4-a282d99e8251","system_id":"levelo_inurba_marseille","lat":43.24543,"lon":5.39533,"is_reserved":false,"is_disabled":true,"rental_uris":{"android":"levelo://app?vid=36bcefea-1744-478b-a4f4-a282d99e8251","ios":"levelo://app?vid=36bcefea-1744-478b-a4f4-a282d99e8251"},"vehicle_type_id":"4","last_reported":1773726660,"current_range_meters":8400,"station_id":"ce4bhlp2rcd13ifvqgjg","pricing_plan_id":"cebpf4jnsgd1na2vs0mg"},{"bike_id":"6c7da26a-6e3c-4915-81a4-435886bc144f","system_id":"levelo_inurba_marseille","lat":43.23232,"lon":5.35559,"is_reserved":false,"is_disabled":false,"rental_uris":{"android":"levelo://app?vid=6c7da26a-6e3c-4915-81a4-435886bc144f","ios":"levelo://app?vid=6c7da26a-6e3c-4915-81a4-435886bc144f"},"vehicle_type_id":"4","last_reported":1773726660,"current_range_meters":8400,"station_id":"ce4bhu92rcd13ifvqi70","pricing_plan_id":"cebpf4jnsgd1na2vs0mg"},{"bike_id":"3a2c16fa-f087-430f-a626-5009aeb4e722","system_id":"levelo_inurba_marseille","lat":43.27498,"lon":5.41613,"is_reserved":false,"is_disabled":true,"rental_uris":{"android":"levelo://app?vid=3a2c16fa-f087-430f-a626-5009aeb4e722","ios":"levelo://app?vid=3a2c16fa-f087-430f-a626-5009aeb4e722"},"vehicle_type_id":"4","last_reported":1773726660,"current_range_meters":8400,"station_id":"st_d6im8g6chgec73a5pndg","pricing_plan_id":"cebpf4jnsgd1na2vs0mg"},{"bike_id":"cd459daa-f438-4782-85d7-185b801cd5ea","system_id":"levelo_inurba_marseille","lat":43.25072,"lon":5.39532,"is_reserved":false,"is_disabled":false,"rental_uris":{"android":"levelo://app?vid=cd459daa-f438-4782-85d7-185b801cd5ea","ios":"levelo://app?vid=cd459daa-f438-4782-85d7-185b801cd5ea"},"vehicle_type_id":"4","last_reported":1773726660,"current_range_meters":8400,"station_id":"ce4bhm12rcd13ifvqgkg","pricing_plan_id":"cebpf4jnsgd1na2vs0mg"},{"bike_id":"54af553e-147e-422c-8df8-1fced8e4968c","system_id":"levelo_inurba_marseille","lat":43.28689,"lon":5.3739,"is_reserved":false,"is_disabled":false,"rental_uris":{"android":"levelo://app?vid=54af553e-147e-422c-8df8-1fced8e4968c","ios":"levelo://app?vid=54af553e-147e-422c-8df8-1fced8e4968c"},"vehicle_type_id":"4","last_reported":1773726660,"current_range_meters":8400,"station_id":"ce4bh3p2rcd13ifvqdq0","pricing_plan_id":"cebpf4jnsgd1na2vs0mg"},{"bike_id":"e9be720d-c02e-4d00-adad-e923b392e145","system_id":"levelo_inurba_marseille","lat":43.3198,"lon":5.38138,"is_reserved":false,"is_disabled":false,"rental_uris":{"android":"levelo://app?vid=e9be720d-c02e-4d00-adad-e923b392e145","ios":"levelo://app?vid=e9be720d-c02e-4d00-adad-e923b392e145"},"vehicle_type_id":"4","last_reported":1773726660,"current_range_meters":8800,"station_id":"ce4bhr12rcd13ifvqhpg","pricing_plan_id":"cebpf4jnsgd1na2vs0mg"},{"bike_id":"458f604b-e062-47bf-ac14-a001a31d10d8","system_id":"levelo_inurba_marseille","lat":43.28467,"lon":5.48392,"is_reserved":false,"is_disabled":false,"rental_uris":{"android":"levelo://app?vid=458f604b-e062-47bf-ac14-a001a31d10d8","ios":"levelo://app?vid=458f604b-e062-47bf-ac14-a001a31d10d8"},"vehicle_type_id":"4","last_reported":1773726660,"current_range_meters":8800,"station_id":"","pricing_plan_id":"cebpf4jnsgd1na2vs0mg"},{"bike_id":"a172fb4c-0d89-4238-b899-c9d8e15b8540","system_id":"levelo_inurba_marseille","lat":43.2172,"lon":5.34644,"is_reserved":false,"is_disabled":false,"rental_uris":{"android":"levelo://app?vid=a172fb4c-0d89-4238-b899-c9d8e15b8540","ios":"levelo://app?vid=a172fb4c-0d89-4238-b899-c9d8e15b8540"},"vehicle_type_id":"4","last_reported":1773726660,"current_range_meters":8800,"station_id":"st_cvj6r9ubvosntc0bgbag","pricing_plan_id":"cebpf4jnsgd1na2vs0mg"},{"bike_id":"4d249554-eaa2-4bab-b72e-eeba96c5647c","system_id":"levelo_inurba_marseille","lat":43.287,"lon":5.38639,"is_reserved":false,"is_disabled":false,"rental_uris":{"android":"levelo://app?vid=4d249554-eaa2-4bab-b72e-eeba96c5647c","ios":"levelo://app?vid=4d249554-eaa2-4bab-b72e-eeba96c5647c"},"vehicle_type_id":"4","last_reported":1773726660,"current_range_meters":8800,"station_id":"","pricing_plan_id":"cebpf4jnsgd1na2vs0mg"},{"bike_id":"a18b068d-ee72-4ec9-8811-6eb4a904a5af","system_id":"levelo_inurba_marseille","lat":43.27369,"lon":5.36228,"is_reserved":false,"is_disabled":false,"rental_uris":{"android":"levelo://app?vid=a18b068d-ee72-4ec9-8811-6eb4a904a5af","ios":"levelo://app?vid=a18b068d-ee72-4ec9-8811-6eb4a904a5af"},"vehicle_type_id":"4","last_reported":1773726660,"current_range_meters":8800,"station_id":"ce4bhbh2rcd13ifvqeo0","pricing_plan_id":"cebpf4jnsgd1na2vs0mg"},{"bike_id":"bf20c14f-da9d-4805-8f18-b8dc2f56c951","system_id":"levelo_inurba_marseille","lat":43.25096,"lon":5.40328,"is_reserved":false,"is_disabled":false,"rental_uris":{"android":"levelo://app?vid=bf20c14f-da9d-4805-8f18-b8dc2f56c951","ios":"levelo://app?vid=bf20c14f-da9d-4805-8f18-b8dc2f56c951"},"vehicle_type_id":"4","last_reported":1773726660,"current_range_meters":8800,"station_id":"ce4bhlh2rcd13ifvqgig","pricing_plan_id":"cebpf4jnsgd1na2vs0mg"},{"bike_id":"9985140f-fed1-4163-9957-5fc76200bd08","system_id":"levelo_inurba_marseille","lat":43.30171,"lon":5.3808,"is_reserved":false,"is_disabled":false,"rental_uris":{"android":"levelo://app?vid=9985140f-fed1-4163-9957-5fc76200bd08","ios":"levelo://app?vid=9985140f-fed1-4163-9957-5fc76200bd08"},"vehicle_type_id":"4","last_reported":1773726660,"current_range_meters":8800,"station_id":"ce4bgjp2rcd13ifvqbh0","pricing_plan_id":"cebpf4jnsgd1na2vs0mg"},{"bike_id":"7e372e61-a4a4-4320-b78e-0115edf72ed5","system_id":"levelo_inurba_marseille","lat":43.24175,"lon":5.36386,"is_reserved":false,"is_disabled":true,"rental_uris":{"android":"levelo://app?vid=7e372e61-a4a4-4320-b78e-0115edf72ed5","ios":"levelo://app?vid=7e372e61-a4a4-4320-b78e-0115edf72ed5"},"vehicle_type_id":"4","last_reported":1773726660,"current_range_meters":8800,"station_id":"cpo36qri1sfpv3e86is0","pricing_plan_id":"cebpf4jnsgd1na2vs0mg"},{"bike_id":"dbf5d854-1aab-4032-ae98-ea5d370d4512","system_id":"levelo_inurba_marseille","lat":43.29007,"lon":5.35622,"is_reserved":false,"is_disabled":false,"rental_uris":{"android":"levelo://app?vid=dbf5d854-1aab-4032-ae98-ea5d370d4512","ios":"levelo://app?vid=dbf5d854-1aab-4032-ae98-ea5d370d4512"},"vehicle_type_id":"4","last_reported":1773726660,"current_range_meters":8800,"station_id":"ce4bhb92rcd13ifvqen0","pricing_plan_id":"cebpf4jnsgd1na2vs0mg"},{"bike_id":"47f16d00-d3b5-42b1-aa88-aede83d9f9e1","system_id":"levelo_inurba_marseille","lat":43.28456,"lon":5.35902,"is_reserved":false,"is_disabled":false,"rental_uris":{"android":"levelo://app?vid=47f16d00-d3b5-42b1-aa88-aede83d9f9e1","ios":"levelo://app?vid=47f16d00-d3b5-42b1-aa88-aede83d9f9e1"},"vehicle_type_id":"4","last_reported":1773726660,"current_range_meters":8800,"station_id":"ce4bhah2rcd13ifvqei0","pricing_plan_id":"cebpf4jnsgd1na2vs0mg"},{"bike_id":"b9ef10fd-0204-4e5f-bc92-673f50a6fcb4","system_id":"levelo_inurba_marseille","lat":43.21206,"lon":5.3507,"is_reserved":false,"is_disabled":false,"rental_uris":{"android":"levelo://app?vid=b9ef10fd-0204-4e5f-bc92-673f50a6fcb4","ios":"levelo://app?vid=b9ef10fd-0204-4e5f-bc92-673f50a6fcb4"},"vehicle_type_id":"4","last_reported":1773726660,"current_range_meters":8800,"station_id":"","pricing_plan_id":"cebpf4jnsgd1na2vs0mg"},{"bike_id":"c920e1a5-6d86-4392-a507-96ae9fac5090","system_id":"levelo_inurba_marseille","lat":43.24474,"lon":5.42544,"is_reserved":false,"is_disabled":false,"rental_uris":{"android":"levelo://app?vid=c920e1a5-6d86-4392-a507-96ae9fac5090","ios":"levelo://app?vid=c920e1a5-6d86-4392-a507-96ae9fac5090"},"vehicle_type_id":"4","last_reported":1773726660,"current_range_meters":8800,"station_id":"st_d4a3vfp97mjs738cd8kg","pricing_plan_id":"cebpf4jnsgd1na2vs0mg"},{"bike_id":"fedd208b-765e-4da1-9fcc-65999b120e19","system_id":"levelo_inurba_marseille","lat":43.24419,"lon":5.3703,"is_reserved":false,"is_disabled":false,"rental_uris":{"android":"levelo://app?vid=fedd208b-765e-4da1-9fcc-65999b120e19","ios":"levelo://app?vid=fedd208b-765e-4da1-9fcc-65999b120e19"},"vehicle_type_id":"4","last_reported":1773726660,"current_range_meters":8800,"station_id":"ce4bhhh2rcd13ifvqfk0","pricing_plan_id":"cebpf4jnsgd1na2vs0mg"},{"bike_id":"49e65091-b88b-41fb-b705-25c18f8aa129","system_id":"levelo_inurba_marseille","lat":43.31102,"lon":5.37767,"is_reserved":false,"is_disabled":false,"rental_uris":{"android":"levelo://app?vid=49e65091-b88b-41fb-b705-25c18f8aa129","ios":"levelo://app?vid=49e65091-b88b-41fb-b705-25c18f8aa129"},"vehicle_type_id":"4","last_reported":1773726660,"current_range_meters":8800,"station_id":"ce4bgt92rcd13ifvqcg0","pricing_plan_id":"cebpf4jnsgd1na2vs0mg"},{"bike_id":"6aa823cd-4931-4f3f-9262-0dcb3ae7b7e9","system_id":"levelo_inurba_marseille","lat":43.24805,"lon":5.37447,"is_reserved":false,"is_disabled":false,"rental_uris":{"android":"levelo://app?vid=6aa823cd-4931-4f3f-9262-0dcb3ae7b7e9","ios":"levelo://app?vid=6aa823cd-4931-4f3f-9262-0dcb3ae7b7e9"},"vehicle_type_id":"4","last_reported":1773726660,"current_range_meters":8800,"station_id":"ce4bhgh2rcd13ifvqfb0","pricing_plan_id":"cebpf4jnsgd1na2vs0mg"},{"bike_id":"75e32ad7-fe2d-47a6-8788-1025c91b7623","system_id":"levelo_inurba_marseille","lat":43.28229,"lon":5.39057,"is_reserved":false,"is_disabled":false,"rental_uris":{"android":"levelo://app?vid=75e32ad7-fe2d-47a6-8788-1025c91b7623","ios":"levelo://app?vid=75e32ad7-fe2d-47a6-8788-1025c91b7623"},"vehicle_type_id":"4","last_reported":1773726660,"current_range_meters":8800,"station_id":"ce4bhn92rcd13ifvqgsg","pricing_plan_id":"cebpf4jnsgd1na2vs0mg"},{"bike_id":"c35776a3-1ecf-486f-b6de-0c7c3e2f2dd1","system_id":"levelo_inurba_marseille","lat":43.3073,"lon":5.42434,"is_reserved":false,"is_disabled":false,"rental_uris":{"android":"levelo://app?vid=c35776a3-1ecf-486f-b6de-0c7c3e2f2dd1","ios":"levelo://app?vid=c35776a3-1ecf-486f-b6de-0c7c3e2f2dd1"},"vehicle_type_id":"4","last_reported":1773726660,"current_range_meters":8800,"station_id":"st_cvj6ca6bvosntc0bfgr0","pricing_plan_id":"cebpf4jnsgd1na2vs0mg"},{"bike_id":"5efbfe77-f336-4734-90ae-6b59653d3d20","system_id":"levelo_inurba_marseille","lat":43.26554,"lon":5.3901,"is_reserved":false,"is_disabled":true,"rental_uris":{"android":"levelo://app?vid=5efbfe77-f336-4734-90ae-6b59653d3d20","ios":"levelo://app?vid=5efbfe77-f336-4734-90ae-6b59653d3d20"},"vehicle_type_id":"4","last_reported":1773726660,"current_range_meters":8800,"station_id":"ce4bhe12rcd13ifvqf30","pricing_plan_id":"cebpf4jnsgd1na2vs0mg"},{"bike_id":"8a3db980-d9cf-46c6-a606-be2f4fa0269b","system_id":"levelo_inurba_marseille","lat":43.28686,"lon":5.37373,"is_reserved":false,"is_disabled":false,"rental_uris":{"android":"levelo://app?vid=8a3db980-d9cf-46c6-a606-be2f4fa0269b","ios":"levelo://app?vid=8a3db980-d9cf-46c6-a606-be2f4fa0269b"},"vehicle_type_id":"4","last_reported":1773726660,"current_range_meters":8800,"station_id":"ce4bh3p2rcd13ifvqdq0","pricing_plan_id":"cebpf4jnsgd1na2vs0mg"},{"bike_id":"f698aef6-43ae-4705-b2dd-a21032156ca0","system_id":"levelo_inurba_marseille","lat":43.28587,"lon":5.39936,"is_reserved":false,"is_disabled":false,"rental_uris":{"android":"levelo://app?vid=f698aef6-43ae-4705-b2dd-a21032156ca0","ios":"levelo://app?vid=f698aef6-43ae-4705-b2dd-a21032156ca0"},"vehicle_type_id":"4","last_reported":1773726660,"current_range_meters":8800,"station_id":"st_d4a7ka997mjs738ck50g","pricing_plan_id":"cebpf4jnsgd1na2vs0mg"},{"bike_id":"c2c7c530-5d90-493e-bc68-4654d00e1dc7","system_id":"levelo_inurba_marseille","lat":43.252,"lon":5.40603,"is_reserved":false,"is_disabled":false,"rental_uris":{"android":"levelo://app?vid=c2c7c530-5d90-493e-bc68-4654d00e1dc7","ios":"levelo://app?vid=c2c7c530-5d90-493e-bc68-4654d00e1dc7"},"vehicle_type_id":"4","last_reported":1773726660,"current_range_meters":8800,"station_id":"","pricing_plan_id":"cebpf4jnsgd1na2vs0mg"},{"bike_id":"c8b7cda9-9dc1-419c-b2c5-136fa39a2f8c","system_id":"levelo_inurba_marseille","lat":43.23145,"lon":5.4371,"is_reserved":false,"is_disabled":false,"rental_uris":{"android":"levelo://app?vid=c8b7cda9-9dc1-419c-b2c5-136fa39a2f8c","ios":"levelo://app?vid=c8b7cda9-9dc1-419c-b2c5-136fa39a2f8c"},"vehicle_type_id":"4","last_reported":1773726660,"current_range_meters":8800,"station_id":"ce4bhmp2rcd13ifvqgog","pricing_plan_id":"cebpf4jnsgd1na2vs0mg"},{"bike_id":"b59d4f73-3d14-4c34-aadd-fb45656c5f12","system_id":"levelo_inurba_marseille","lat":43.302,"lon":5.3947,"is_reserved":false,"is_disabled":false,"rental_uris":{"android":"levelo://app?vid=b59d4f73-3d14-4c34-aadd-fb45656c5f12","ios":"levelo://app?vid=b59d4f73-3d14-4c34-aadd-fb45656c5f12"},"vehicle_type_id":"4","last_reported":1773726660,"current_range_meters":9200,"station_id":"ce4bh0p2rcd13ifvqd70","pricing_plan_id":"cebpf4jnsgd1na2vs0mg"},{"bike_id":"b8f95b6a-43f8-4f84-83b9-af06677c76c5","system_id":"levelo_inurba_marseille","lat":43.29078,"lon":5.37153,"is_reserved":false,"is_disabled":false,"rental_uris":{"android":"levelo://app?vid=b8f95b6a-43f8-4f84-83b9-af06677c76c5","ios":"levelo://app?vid=b8f95b6a-43f8-4f84-83b9-af06677c76c5"},"vehicle_type_id":"4","last_reported":1773726660,"current_range_meters":9200,"station_id":"ce4bh5p2rcd13ifvqe4g","pricing_plan_id":"cebpf4jnsgd1na2vs0mg"},{"bike_id":"1f30759f-6331-4ddd-bc9a-6b33c2e8e2e5","system_id":"levelo_inurba_marseille","lat":43.21755,"lon":5.34626,"is_reserved":false,"is_disabled":false,"rental_uris":{"android":"levelo://app?vid=1f30759f-6331-4ddd-bc9a-6b33c2e8e2e5","ios":"levelo://app?vid=1f30759f-6331-4ddd-bc9a-6b33c2e8e2e5"},"vehicle_type_id":"4","last_reported":1773726660,"current_range_meters":9200,"station_id":"st_cvj6r9ubvosntc0bgbag","pricing_plan_id":"cebpf4jnsgd1na2vs0mg"},{"bike_id":"da4ef2fd-b4e4-45fc-9600-0bebce2854ca","system_id":"levelo_inurba_marseille","lat":43.24384,"lon":5.37082,"is_reserved":false,"is_disabled":false,"rental_uris":{"android":"levelo://app?vid=da4ef2fd-b4e4-45fc-9600-0bebce2854ca","ios":"levelo://app?vid=da4ef2fd-b4e4-45fc-9600-0bebce2854ca"},"vehicle_type_id":"4","last_reported":1773726660,"current_range_meters":9200,"station_id":"ce4bhhh2rcd13ifvqfk0","pricing_plan_id":"cebpf4jnsgd1na2vs0mg"},{"bike_id":"a8ae2d18-f400-4498-a610-fcd02a4b26fa","system_id":"levelo_inurba_marseille","lat":43.27981,"lon":5.4005,"is_reserved":false,"is_disabled":false,"rental_uris":{"android":"levelo://app?vid=a8ae2d18-f400-4498-a610-fcd02a4b26fa","ios":"levelo://app?vid=a8ae2d18-f400-4498-a610-fcd02a4b26fa"},"vehicle_type_id":"4","last_reported":1773726660,"current_range_meters":9200,"station_id":"ce4bho92rcd13ifvqh4g","pricing_plan_id":"cebpf4jnsgd1na2vs0mg"},{"bike_id":"3286180d-3b2d-484f-adc4-200321598259","system_id":"levelo_inurba_marseille","lat":43.31214,"lon":5.40197,"is_reserved":false,"is_disabled":false,"rental_uris":{"android":"levelo://app?vid=3286180d-3b2d-484f-adc4-200321598259","ios":"levelo://app?vid=3286180d-3b2d-484f-adc4-200321598259"},"vehicle_type_id":"4","last_reported":1773726660,"current_range_meters":9200,"station_id":"","pricing_plan_id":"cebpf4jnsgd1na2vs0mg"},{"bike_id":"e563383a-8a89-4304-b11f-18268886193e","system_id":"levelo_inurba_marseille","lat":43.25567,"lon":5.38248,"is_reserved":false,"is_disabled":false,"rental_uris":{"android":"levelo://app?vid=e563383a-8a89-4304-b11f-18268886193e","ios":"levelo://app?vid=e563383a-8a89-4304-b11f-18268886193e"},"vehicle_type_id":"4","last_reported":1773726660,"current_range_meters":9200,"station_id":"ce4bhih2rcd13ifvqfs0","pricing_plan_id":"cebpf4jnsgd1na2vs0mg"},{"bike_id":"e19bbcec-af9d-483d-ac29-18df3b9c0ab9","system_id":"levelo_inurba_marseille","lat":43.28451,"lon":5.48415,"is_reserved":false,"is_disabled":false,"rental_uris":{"android":"levelo://app?vid=e19bbcec-af9d-483d-ac29-18df3b9c0ab9","ios":"levelo://app?vid=e19bbcec-af9d-483d-ac29-18df3b9c0ab9"},"vehicle_type_id":"4","last_reported":1773726660,"current_range_meters":9200,"station_id":"st_d3svhcjqgbts73a3dn0g","pricing_plan_id":"cebpf4jnsgd1na2vs0mg"},{"bike_id":"f7cad0dd-4929-454b-8848-7575c69435e1","system_id":"levelo_inurba_marseille","lat":43.25844,"lon":5.39897,"is_reserved":false,"is_disabled":true,"rental_uris":{"android":"levelo://app?vid=f7cad0dd-4929-454b-8848-7575c69435e1","ios":"levelo://app?vid=f7cad0dd-4929-454b-8848-7575c69435e1"},"vehicle_type_id":"4","last_reported":1773726660,"current_range_meters":9200,"station_id":"ce4bhl92rcd13ifvqghg","pricing_plan_id":"cebpf4jnsgd1na2vs0mg"},{"bike_id":"1385b5c6-38db-4c64-8257-5317412d98a9","system_id":"levelo_inurba_marseille","lat":43.29697,"lon":5.36591,"is_reserved":false,"is_disabled":false,"rental_uris":{"android":"levelo://app?vid=1385b5c6-38db-4c64-8257-5317412d98a9","ios":"levelo://app?vid=1385b5c6-38db-4c64-8257-5317412d98a9"},"vehicle_type_id":"4","last_reported":1773726660,"current_range_meters":9200,"station_id":"ce4bgn12rcd13ifvqbt0","pricing_plan_id":"cebpf4jnsgd1na2vs0mg"},{"bike_id":"4910ac16-4610-4354-a211-1cfd6adfd12a","system_id":"levelo_inurba_marseille","lat":43.24774,"lon":5.37433,"is_reserved":false,"is_disabled":false,"rental_uris":{"android":"levelo://app?vid=4910ac16-4610-4354-a211-1cfd6adfd12a","ios":"levelo://app?vid=4910ac16-4610-4354-a211-1cfd6adfd12a"},"vehicle_type_id":"4","last_reported":1773726660,"current_range_meters":9200,"station_id":"ce4bhgh2rcd13ifvqfb0","pricing_plan_id":"cebpf4jnsgd1na2vs0mg"},{"bike_id":"80db3609-75ad-4c89-b2ce-16c9992dcab3","system_id":"levelo_inurba_marseille","lat":43.22926,"lon":5.35389,"is_reserved":false,"is_disabled":false,"rental_uris":{"android":"levelo://app?vid=80db3609-75ad-4c89-b2ce-16c9992dcab3","ios":"levelo://app?vid=80db3609-75ad-4c89-b2ce-16c9992dcab3"},"vehicle_type_id":"4","last_reported":1773726660,"current_range_meters":9200,"station_id":"cpo3532slgdg3j2ikp40","pricing_plan_id":"cebpf4jnsgd1na2vs0mg"},{"bike_id":"f8a00c49-c93d-41ce-9f11-d81257ca6394","system_id":"levelo_inurba_marseille","lat":43.22942,"lon":5.35376,"is_reserved":false,"is_disabled":false,"rental_uris":{"android":"levelo://app?vid=f8a00c49-c93d-41ce-9f11-d81257ca6394","ios":"levelo://app?vid=f8a00c49-c93d-41ce-9f11-d81257ca6394"},"vehicle_type_id":"4","last_reported":1773726660,"current_range_meters":9200,"station_id":"cpo3532slgdg3j2ikp40","pricing_plan_id":"cebpf4jnsgd1na2vs0mg"},{"bike_id":"9ca21543-5433-4d9c-9ec7-5c9b9d192661","system_id":"levelo_inurba_marseille","lat":43.28448,"lon":5.35913,"is_reserved":false,"is_disabled":false,"rental_uris":{"android":"levelo://app?vid=9ca21543-5433-4d9c-9ec7-5c9b9d192661","ios":"levelo://app?vid=9ca21543-5433-4d9c-9ec7-5c9b9d192661"},"vehicle_type_id":"4","last_reported":1773726660,"current_range_meters":9200,"station_id":"ce4bhah2rcd13ifvqei0","pricing_plan_id":"cebpf4jnsgd1na2vs0mg"},{"bike_id":"b9f2e5d5-d6ac-4c0d-86f2-4fe1a54ef3b3","system_id":"levelo_inurba_marseille","lat":43.32082,"lon":5.36808,"is_reserved":false,"is_disabled":false,"rental_uris":{"android":"levelo://app?vid=b9f2e5d5-d6ac-4c0d-86f2-4fe1a54ef3b3","ios":"levelo://app?vid=b9f2e5d5-d6ac-4c0d-86f2-4fe1a54ef3b3"},"vehicle_type_id":"4","last_reported":1773726660,"current_range_meters":9200,"station_id":"ce4bhrh2rcd13ifvqhug","pricing_plan_id":"cebpf4jnsgd1na2vs0mg"},