{"last_updated":1740740884,"ttl":60,"version":"2.2","data":{"bikes":[{"bike_id":"37e0bf95-0378-47a7-a066-f7d9ff71c126","system_id":"levelo_inurba_marseille","lat":43.29303,"lon":5.374371,"is_reserved":false,"is_disabled":true,"rental_uris":{"android":"levelo://app?vid=37e0bf95-0378-47a7-a066-f7d9ff71c126","ios":"levelo://app?vid=37e0bf95-0378-47a7-a066-f7d9ff71c126"},"vehicle_type_id":"4","last_reported":1740740884,"current_range_meters":2800,"station_id":"ce4bgi12rcd13ifvqb70","pricing_plan_id":"cebpf4jnsgd1na2vs0mg"},{"bike_id":"d584c654-6243-482b-a93c-dea73d3da1e6","system_id":"levelo_inurba_marseille","lat":43.26564,"lon":5.39009,"is_reserved":false,"is_disabled":false,"rental_uris":{"android":"levelo://app?vid=d584c654-6243-482b-a93c-dea73d3da1e6","ios":"levelo://app?vid=d584c654-6243-482b-a93c-dea73d3da1e6"},"vehicle_type_id":"4","last_reported":1740740884,"current_range_meters":2800,"station_id":"ce4bhe12rcd13ifvqf30","pricing_plan_id":"cebpf4jnsgd1na2vs0mg"},{"bike_id":"cc0a363d-f96d-4413-ae35-a9437bae04f1","system_id":"levelo_inurba_marseille","lat":43.3111,"lon":5.37766,"is_reserved":false,"is_disabled":false,"rental_uris":{"android":"levelo://app?vid=cc0a363d-f96d-4413-ae35-a9437bae04f1","ios":"levelo://app?vid=cc0a363d-f96d-4413-ae35-a9437bae04f1"},"vehicle_type_id":"4","last_reported":1740740884,"current_range_meters":3200,"station_id":"ce4bgt92rcd13ifvqcg0","pricing_plan_id":"cebpf4jnsgd1na2vs0mg"},{"bike_id":"ea738562-27b1-4645-9165-1513a999fe59","system_id":"levelo_inurba_marseille","lat":43.29576,"lon":5.39984,"is_reserved":false,"is_disabled":false,"rental_uris":{"android":"levelo://app?vid=ea738562-27b1-4645-9165-1513a999fe59","ios":"levelo://app?vid=ea738562-27b1-4645-9165-1513a999fe59"},"vehicle_type_id":"4","last_reported":1740740884,"current_range_meters":2800,"station_id":"ce4bh312rcd13ifvqdj0","pricing_plan_id":"cebpf4jnsgd1na2vs0mg"},{"bike_id":"a857a849-1414-4d4d-9dae-cc5261b581b9","system_id":"levelo_inurba_marseille","lat":43.2319,"lon":5.3555,"is_reserved":false,"is_disabled":false,"rental_uris":{"android":"levelo://app?vid=a857a849-1414-4d4d-9dae-cc5261b581b9","ios":"levelo://app?vid=a857a849-1414-4d4d-9dae-cc5261b581b9"},"vehicle_type_id":"4","last_reported":1740740884,"current_range_meters":3200,"station_id":"ce4bhu92rcd13ifvqi70","pricing_plan_id":"cebpf4jnsgd1na2vs0mg"},{"bike_id":"0108eba6-0a49-4f9a-9f5f-542d1d01f332","system_id":"levelo_inurba_marseille","lat":43.28936,"lon":5.36629,"is_reserved":false,"is_disabled":false,"rental_uris":{"android":"levelo://app?vid=0108eba6-0a49-4f9a-9f5f-542d1d01f332","ios":"levelo://app?vid=0108eba6-0a49-4f9a-9f5f-542d1d01f332"},"vehicle_type_id":"4","last_reported":1740740884,"current_range_meters":0,"station_id":"ce4bhap2rcd13ifvqek0","pricing_plan_id":"cebpf4jnsgd1na2vs0mg"},{"bike_id":"89ef82c5-0f9b-4193-8a2b-f551127e02fe","system_id":"levelo_inurba_marseille","lat":43.24385,"lon":5.37058,"is_reserved":false,"is_disabled":false,"rental_uris":{"android":"levelo://app?vid=89ef82c5-0f9b-4193-8a2b-f551127e02fe","ios":"levelo://app?vid=89ef82c5-0f9b-4193-8a2b-f551127e02fe"},"vehicle_type_id":"4","last_reported":1740740884,"current_range_meters":3200,"station_id":"ce4bhhh2rcd13ifvqfk0","pricing_plan_id":"cebpf4jnsgd1na2vs0mg"},{"bike_id":"ffa47711-08c4-4d28-ab96-5d7c8ce88f26","system_id":"levelo_inurba_marseille","lat":43.26945,"lon":5.40242,"is_reserved":false,"is_disabled":false,"rental_uris":{"android":"levelo://app?vid=ffa47711-08c4-4d28-ab96-5d7c8ce88f26","ios":"levelo://app?vid=ffa47711-08c4-4d28-ab96-5d7c8ce88f26"},"vehicle_type_id":"4","last_reported":1740740884,"current_range_meters":3200,"station_id":"cjm6bp8fraef2m0cb0m0","pricing_plan_id":"cebpf4jnsgd1na2vs0mg"},{"bike_id":"e8edc58d-690e-41f1-aeeb-cdbd898c3c46","system_id":"levelo_inurba_marseille","lat":43.2979,"lon":5.38077,"is_reserved":false,"is_disabled":false,"rental_uris":{"android":"levelo://app?vid=e8edc58d-690e-41f1-aeeb-cdbd898c3c46","ios":"levelo://app?vid=e8edc58d-690e-41f1-aeeb-cdbd898c3c46"},"vehicle_type_id":"4","last_reported":1740740884,"current_range_meters":3600,"station_id":"ce4bgip2rcd13ifvqbb0","pricing_plan_id":"cebpf4jnsgd1na2vs0mg"},{"bike_id":"c114eaef-f7a0-4aab-82ca-ead7e3ff61d2","system_id":"levelo_inurba_marseille","lat":43.28274,"lon":5.35066,"is_reserved":false,"is_disabled":false,"rental_uris":{"android":"levelo://app?vid=c114eaef-f7a0-4aab-82ca-ead7e3ff61d2","ios":"levelo://app?vid=c114eaef-f7a0-4aab-82ca-ead7e3ff61d2"},"vehicle_type_id":"4","last_reported":1740740884,"current_range_meters":3600,"station_id":"ce4bhbp2rcd13ifvqerg","pricing_plan_id":"cebpf4jnsgd1na2vs0mg"},{"bike_id":"be6e296c-2139-49f8-a707-34073a633797","system_id":"levelo_inurba_marseille","lat":43.30152,"lon":5.38085,"is_reserved":false,"is_disabled":false,"rental_uris":{"android":"levelo://app?vid=be6e296c-2139-49f8-a707-34073a633797","ios":"levelo://app?vid=be6e296c-2139-49f8-a707-34073a633797"},"vehicle_type_id":"4","last_reported":1740740884,"current_range_meters":4800,"station_id":"ce4bgjp2rcd13ifvqbh0","pricing_plan_id":"cebpf4jnsgd1na2vs0mg"},{"bike_id":"001efb2f-c069-40a3-a38d-6161ab025957","system_id":"levelo_inurba_marseille","lat":43.3361,"lon":5.4103,"is_reserved":false,"is_disabled":false,"rental_uris":{"android":"levelo://app?vid=001efb2f-c069-40a3-a38d-6161ab025957","ios":"levelo://app?vid=001efb2f-c069-40a3-a38d-6161ab025957"},"vehicle_type_id":"4","last_reported":1740740884,"current_range_meters":3600,"station_id":"ce4bhqh2rcd13ifvqhmg","pricing_plan_id":"cebpf4jnsgd1na2vs0mg"},{"bike_id":"9f2e3364-d5d9-4541-b42e-b45c51e62446","system_id":"levelo_inurba_marseille","lat":43.32749,"lon":5.39239,"is_reserved":false,"is_disabled":false,"rental_uris":{"android":"levelo://app?vid=9f2e3364-d5d9-4541-b42e-b45c51e62446","ios":"levelo://app?vid=9f2e3364-d5d9-4541-b42e-b45c51e62446"},"vehicle_type_id":"4","last_reported":1740740884,"current_range_meters":4000,"station_id":"","pricing_plan_id":"cebpf4jnsgd1na2vs0mg"},{"bike_id":"4de537a4-72b9-458e-acb7-1594d565ace4","system_id":"levelo_inurba_marseille","lat":43.29007,"lon":5.35616,"is_reserved":false,"is_disabled":false,"rental_uris":{"android":"levelo://app?vid=4de537a4-72b9-458e-acb7-1594d565ace4","ios":"levelo://app?vid=4de537a4-72b9-458e-acb7-1594d565ace4"},"vehicle_type_id":"4","last_reported":1740740884,"current_range_meters":4000,"station_id":"ce4bhb92rcd13ifvqen0","pricing_plan_id":"cebpf4jnsgd1na2vs0mg"},{"bike_id":"36fc0ac6-ee57-4711-92af-dc4dc17477a6","system_id":"levelo_inurba_marseille","lat":43.27489,"lon":5.42463,"is_reserved":false,"is_disabled":false,"rental_uris":{"android":"levelo://app?vid=36fc0ac6-ee57-4711-92af-dc4dc17477a6","ios":"levelo://app?vid=36fc0ac6-ee57-4711-92af-dc4dc17477a6"},"vehicle_type_id":"4","last_reported":1740740884,"current_range_meters":4000,"station_id":"ce4bhn92rcd13ifvqgrg","pricing_plan_id":"cebpf4jnsgd1na2vs0mg"},{"bike_id":"0c7e77c4-775f-4634-bb7d-e6dc5881f29b","system_id":"levelo_inurba_marseille","lat":43.24547,"lon":5.39536,"is_reserved":false,"is_disabled":false,"rental_uris":{"android":"levelo://app?vid=0c7e77c4-775f-4634-bb7d-e6dc5881f29b","ios":"levelo://app?vid=0c7e77c4-775f-4634-bb7d-e6dc5881f29b"},"vehicle_type_id":"4","last_reported":1740740884,"current_range_meters":4800,"station_id":"ce4bhlp2rcd13ifvqgjg","pricing_plan_id":"cebpf4jnsgd1na2vs0mg"},{"bike_id":"6a73ce27-e0dc-44c9-8926-2be8a8479fab","system_id":"levelo_inurba_marseille","lat":43.28935,"lon":5.36652,"is_reserved":false,"is_disabled":false,"rental_uris":{"android":"levelo://app?vid=6a73ce27-e0dc-44c9-8926-2be8a8479fab","ios":"levelo://app?vid=6a73ce27-e0dc-44c9-8926-2be8a8479fab"},"vehicle_type_id":"4","last_reported":1740740884,"current_range_meters":4800,"station_id":"ce4bhap2rcd13ifvqek0","pricing_plan_id":"cebpf4jnsgd1na2vs0mg"},{"bike_id":"0f9a68d5-c0e7-49f0-8f27-715d0b12c38f","system_id":"levelo_inurba_marseille","lat":43.29599,"lon":5.38099,"is_reserved":false,"is_disabled":false,"rental_uris":{"android":"levelo://app?vid=0f9a68d5-c0e7-49f0-8f27-715d0b12c38f","ios":"levelo://app?vid=0f9a68d5-c0e7-49f0-8f27-715d0b12c38f"},"vehicle_type_id":"4","last_reported":1740740884,"current_range_meters":4400,"station_id":"ce4bgl12rcd13ifvqbo0","pricing_plan_id":"cebpf4jnsgd1na2vs0mg"},{"bike_id":"371ec8be-df20-4908-86c5-72a4c9514c03","system_id":"levelo_inurba_marseille","lat":43.29037,"lon":5.3813,"is_reserved":false,"is_disabled":false,"rental_uris":{"android":"levelo://app?vid=371ec8be-df20-4908-86c5-72a4c9514c03","ios":"levelo://app?vid=371ec8be-df20-4908-86c5-72a4c9514c03"},"vehicle_type_id":"4","last_reported":1740740884,"current_range_meters":5600,"station_id":"ce4bh4p2rcd13ifvqe1g","pricing_plan_id":"cebpf4jnsgd1na2vs0mg"},{"bike_id":"346220dd-9c7d-4d77-be12-828e664c8a40","system_id":"levelo_inurba_marseille","lat":43.2985,"lon":5.36286,"is_reserved":false,"is_disabled":false,"rental_uris":{"android":"levelo://app?vid=346220dd-9c7d-4d77-be12-828e664c8a40","ios":"levelo://app?vid=346220dd-9c7d-4d77-be12-828e664c8a40"},"vehicle_type_id":"4","last_reported":1740740884,"current_range_meters":5600,"station_id":"ce4bgpp2rcd13ifvqc3g","pricing_plan_id":"cebpf4jnsgd1na2vs0mg"},{"bike_id":"af48260f-7450-44d2-af77-60ea47d09858","system_id":"levelo_inurba_marseille","lat":43.29965,"lon":5.37181,"is_reserved":false,"is_disabled":false,"rental_uris":{"android":"levelo://app?vid=af48260f-7450-44d2-af77-60ea47d09858","ios":"levelo://app?vid=af48260f-7450-44d2-af77-60ea47d09858"},"vehicle_type_id":"4","last_reported":1740740884,"current_range_meters":5600,"station_id":"ce4bgr92rcd13ifvqc7g","pricing_plan_id":"cebpf4jnsgd1na2vs0mg"},{"bike_id":"1a2568ed-a99a-48ba-9162-4d7558df7f34","system_id":"levelo_inurba_marseille","lat":43.27972,"lon":5.40026,"is_reserved":false,"is_disabled":false,"rental_uris":{"android":"levelo://app?vid=1a2568ed-a99a-48ba-9162-4d7558df7f34","ios":"levelo://app?vid=1a2568ed-a99a-48ba-9162-4d7558df7f34"},"vehicle_type_id":"4","last_reported":1740740884,"current_range_meters":5600,"station_id":"ce4bho92rcd13ifvqh4g","pricing_plan_id":"cebpf4jnsgd1na2vs0mg"},{"bike_id":"dee04613-fbaa-4eb6-911c-d41130b55850","system_id":"levelo_inurba_marseille","lat":43.26677,"lon":5.38275,"is_reserved":false,"is_disabled":true,"rental_uris":{"android":"levelo://app?vid=dee04613-fbaa-4eb6-911c-d41130b55850","ios":"levelo://app?vid=dee04613-fbaa-4eb6-911c-d41130b55850"},"vehicle_type_id":"4","last_reported":1740740884,"current_range_meters":5600,"station_id":"ce4bhg92rcd13ifvqf90","pricing_plan_id":"cebpf4jnsgd1na2vs0mg"},{"bike_id":"69e2e458-5f02-4def-a823-1b13c25461e8","system_id":"levelo_inurba_marseille","lat":43.29025,"lon":5.38123,"is_reserved":false,"is_disabled":false,"rental_uris":{"android":"levelo://app?vid=69e2e458-5f02-4def-a823-1b13c25461e8","ios":"levelo://app?vid=69e2e458-5f02-4def-a823-1b13c25461e8"},"vehicle_type_id":"4","last_reported":1740740884,"current_range_meters":5600,"station_id":"ce4bh4p2rcd13ifvqe1g","pricing_plan_id":"cebpf4jnsgd1na2vs0mg"},{"bike_id":"138882a3-ed4c-4122-8d5f-84ed720827af","system_id":"levelo_inurba_marseille","lat":43.29944,"lon":5.36541,"is_reserved":false,"is_disabled":false,"rental_uris":{"android":"levelo://app?vid=138882a3-ed4c-4122-8d5f-84ed720827af","ios":"levelo://app?vid=138882a3-ed4c-4122-8d5f-84ed720827af"},"vehicle_type_id":"4","last_reported":1740740884,"current_range_meters":5600,"station_id":"","pricing_plan_id":"cebpf4jnsgd1na2vs0mg"},{"bike_id":"87e9be60-5365-4a5f-84ee-a2b82a9a0420","system_id":"levelo_inurba_marseille","lat":43.23193,"lon":5.35554,"is_reserved":false,"is_disabled":false,"rental_uris":{"android":"levelo://app?vid=87e9be60-5365-4a5f-84ee-a2b82a9a0420","ios":"levelo://app?vid=87e9be60-5365-4a5f-84ee-a2b82a9a0420"},"vehicle_type_id":"4","last_reported":1740740884,"current_range_meters":6000,"station_id":"ce4bhu92rcd13ifvqi70","pricing_plan_id":"cebpf4jnsgd1na2vs0mg"},{"bike_id":"b5c04338-71b5-40e7-914f-5f1200a51a92","system_id":"levelo_inurba_marseille","lat":43.25901,"lon":5.40935,"is_reserved":false,"is_disabled":false,"rental_uris":{"android":"levelo://app?vid=b5c04338-71b5-40e7-914f-5f1200a51a92","ios":"levelo://app?vid=b5c04338-71b5-40e7-914f-5f1200a51a92"},"vehicle_type_id":"4","last_reported":1740740884,"current_range_meters":6000,"station_id":"ce4bhm92rcd13ifvqglg","pricing_plan_id":"cebpf4jnsgd1na2vs0mg"},{"bike_id":"42cf2fbb-d637-4a74-97c7-5f167f33cef8","system_id":"levelo_inurba_marseille","lat":43.301209,"lon":5.398473,"is_reserved":false,"is_disabled":false,"rental_uris":{"android":"levelo://app?vid=42cf2fbb-d637-4a74-97c7-5f167f33cef8","ios":"levelo://app?vid=42cf2fbb-d637-4a74-97c7-5f167f33cef8"},"vehicle_type_id":"4","last_reported":1740740884,"current_range_meters":6000,"station_id":"","pricing_plan_id":"cebpf4jnsgd1na2vs0mg"},{"bike_id":"9647918c-d815-4482-8c45-927333bd2450","system_id":"levelo_inurba_marseille","lat":43.27851,"lon":5.40697,"is_reserved":false,"is_disabled":false,"rental_uris":{"android":"levelo://app?vid=9647918c-d815-4482-8c45-927333bd2450","ios":"levelo://app?vid=9647918c-d815-4482-8c45-927333bd2450"},"vehicle_type_id":"4","last_reported":1740740884,"current_range_meters":6000,"station_id":"ce4bhnh2rcd13ifvqgtg","pricing_plan_id":"cebpf4jnsgd1na2vs0mg"},{"bike_id":"07807b6a-3762-4c29-b44f-8acb33fd3303","system_id":"levelo_inurba_marseille","lat":43.30197,"lon":5.3661,"is_reserved":false,"is_disabled":false,"rental_uris":{"android":"levelo://app?vid=07807b6a-3762-4c29-b44f-8acb33fd3303","ios":"levelo://app?vid=07807b6a-3762-4c29-b44f-8acb33fd3303"},"vehicle_type_id":"4","last_reported":1740740884,"current_range_meters":6000,"station_id":"ce4bgrh2rcd13ifvqc8g","pricing_plan_id":"cebpf4jnsgd1na2vs0mg"},{"bike_id":"c69bbbd0-7033-4869-a983-73b237d68322","system_id":"levelo_inurba_marseille","lat":43.310704,"lon":5.400808,"is_reserved":false,"is_disabled":false,"rental_uris":{"android":"levelo://app?vid=c69bbbd0-7033-4869-a983-73b237d68322","ios":"levelo://app?vid=c69bbbd0-7033-4869-a983-73b237d68322"},"vehicle_type_id":"4","last_reported":1740740884,"current_range_meters":6000,"station_id":"ce4bh092rcd13ifvqd30","pricing_plan_id":"cebpf4jnsgd1na2vs0mg"},{"bike_id":"58734ddf-a6a1-4aa4-933a-9e18fdd8a769","system_id":"levelo_inurba_marseille","lat":43.30531,"lon":5.36527,"is_reserved":false,"is_disabled":false,"rental_uris":{"android":"levelo://app?vid=58734ddf-a6a1-4aa4-933a-9e18fdd8a769","ios":"levelo://app?vid=58734ddf-a6a1-4aa4-933a-9e18fdd8a769"},"vehicle_type_id":"4","last_reported":1740740884,"current_range_meters":6400,"station_id":"ce4bgs12rcd13ifvqcag","pricing_plan_id":"cebpf4jnsgd1na2vs0mg"},{"bike_id":"2df5f414-aa5d-4d6b-8b88-6bfcd140a3b4","system_id":"levelo_inurba_marseille","lat":43.25931,"lon":5.40875,"is_reserved":false,"is_disabled":false,"rental_uris":{"android":"levelo://app?vid=2df5f414-aa5d-4d6b-8b88-6bfcd140a3b4","ios":"levelo://app?vid=2df5f414-aa5d-4d6b-8b88-6bfcd140a3b4"},"vehicle_type_id":"4","last_reported":1740740884,"current_range_meters":6400,"station_id":"ce4bhm92rcd13ifvqglg","pricing_plan_id":"cebpf4jnsgd1na2vs0mg"},{"bike_id":"dcae3671-751e-4aa7-8f8c-a77b8b5cfa54","system_id":"levelo_inurba_marseille","lat":43.29033,"lon":5.39964,"is_reserved":false,"is_disabled":false,"rental_uris":{"android":"levelo://app?vid=dcae3671-751e-4aa7-8f8c-a77b8b5cfa54","ios":"levelo://app?vid=dcae3671-751e-4aa7-8f8c-a77b8b5cfa54"},"vehicle_type_id":"4","last_reported":1740740884,"current_range_meters":6000,"station_id":"ce4bh392rcd13ifvqdm0","pricing_plan_id":"cebpf4jnsgd1na2vs0mg"},{"bike_id":"789337b8-0f05-440f-b866-6442627770c5","system_id":"levelo_inurba_marseille","lat":43.29843,"lon":5.36272,"is_reserved":false,"is_disabled":false,"rental_uris":{"android":"levelo://app?vid=789337b8-0f05-440f-b866-6442627770c5","ios":"levelo://app?vid=789337b8-0f05-440f-b866-6442627770c5"},"vehicle_type_id":"4","last_reported":1740740884,"current_range_meters":6400,"station_id":"ce4bgpp2rcd13ifvqc3g","pricing_plan_id":"cebpf4jnsgd1na2vs0mg"},{"bike_id":"2e06eef8-b840-4d6b-9ba9-f1ec31e038e5","system_id":"levelo_inurba_marseille","lat":43.26219,"lon":5.37439,"is_reserved":false,"is_disabled":false,"rental_uris":{"android":"levelo://app?vid=2e06eef8-b840-4d6b-9ba9-f1ec31e038e5","ios":"levelo://app?vid=2e06eef8-b840-4d6b-9ba9-f1ec31e038e5"},"vehicle_type_id":"4","last_reported":1740740884,"current_range_meters":6400,"station_id":"ce4bhgp2rcd13ifvqfc0","pricing_plan_id":"cebpf4jnsgd1na2vs0mg"},{"bike_id":"c75b3f4d-27b2-4224-a2b8-048ffba493c0","system_id":"levelo_inurba_marseille","lat":43.32108,"lon":5.36771,"is_reserved":false,"is_disabled":false,"rental_uris":{"android":"levelo://app?vid=c75b3f4d-27b2-4224-a2b8-048ffba493c0","ios":"levelo://app?vid=c75b3f4d-27b2-4224-a2b8-048ffba493c0"},"vehicle_type_id":"4","last_reported":1740740884,"current_range_meters":6400,"station_id":"ce4bhrh2rcd13ifvqhug","pricing_plan_id":"cebpf4jnsgd1na2vs0mg"},{"bike_id":"2d74afc8-e95b-4a28-bb8a-4d335b758ec3","system_id":"levelo_inurba_marseille","lat":43.2931,"lon":5.37176,"is_reserved":false,"is_disabled":false,"rental_uris":{"android":"levelo://app?vid=2d74afc8-e95b-4a28-bb8a-4d335b758ec3","ios":"levelo://app?vid=2d74afc8-e95b-4a28-bb8a-4d335b758ec3"},"vehicle_type_id":"4","last_reported":1740740884,"current_range_meters":8400,"station_id":"ce4bgh92rcd13ifvqb40","pricing_plan_id":"cebpf4jnsgd1na2vs0mg"},{"bike_id":"0093cb83-a560-478e-b53c-d01a12d0eb86","system_id":"levelo_inurba_marseille","lat":43.31371,"lon":5.36769,"is_reserved":false,"is_disabled":false,"rental_uris":{"android":"levelo://app?vid=0093cb83-a560-478e-b53c-d01a12d0eb86","ios":"levelo://app?vid=0093cb83-a560-478e-b53c-d01a12d0eb86"},"vehicle_type_id":"4","last_reported":1740740884,"current_range_meters":6400,"station_id":"","pricing_plan_id":"cebpf4jnsgd1na2vs0mg"},{"bike_id":"e01c4764-850a-4950-98a6-f7763ee410cb","system_id":"levelo_inurba_marseille","lat":43.336116,"lon":5.410317,"is_reserved":false,"is_disabled":false,"rental_uris":{"android":"levelo://app?vid=e01c4764-850a-4950-98a6-f7763ee410cb","ios":"levelo://app?vid=e01c4764-850a-4950-98a6-f7763ee410cb"},"vehicle_type_id":"4","last_reported":1740740884,"current_range_meters":6800,"station_id":"ce4bhqh2rcd13ifvqhmg","pricing_plan_id":"cebpf4jnsgd1na2vs0mg"},{"bike_id":"b8b5a57c-8dde-4019-bb6a-ae49adc55d76","system_id":"levelo_inurba_marseille","lat":43.26953,"lon":5.38634,"is_reserved":false,"is_disabled":false,"rental_uris":{"android":"levelo://app?vid=b8b5a57c-8dde-4019-bb6a-ae49adc55d76","ios":"levelo://app?vid=b8b5a57c-8dde-4019-bb6a-ae49adc55d76"},"vehicle_type_id":"4","last_reported":1740740884,"current_range_meters":6800,"station_id":"ce4bhh92rcd13ifvqfh0","pricing_plan_id":"cebpf4jnsgd1na2vs0mg"},{"bike_id":"33062305-f0dc-4541-96a3-ce40729727a3","system_id":"levelo_inurba_marseille","lat":43.25943,"lon":5.40893,"is_reserved":false,"is_disabled":false,"rental_uris":{"android":"levelo://app?vid=33062305-f0dc-4541-96a3-ce40729727a3","ios":"levelo://app?vid=33062305-f0dc-4541-96a3-ce40729727a3"},"vehicle_type_id":"4","last_reported":1740740884,"current_range_meters":6800,"station_id":"ce4bhm92rcd13ifvqglg","pricing_plan_id":"cebpf4jnsgd1na2vs0mg"},{"bike_id":"a402dcb0-63b6-4569-b9e8-ad825500c3f8","system_id":"levelo_inurba_marseille","lat":43.28997,"lon":5.35908,"is_reserved":false,"is_disabled":false,"rental_uris":{"android":"levelo://app?vid=a402dcb0-63b6-4569-b9e8-ad825500c3f8","ios":"levelo://app?vid=a402dcb0-63b6-4569-b9e8-ad825500c3f8"},"vehicle_type_id":"4","last_reported":1740740884,"current_range_meters":6800,"station_id":"","pricing_plan_id":"cebpf4jnsgd1na2vs0mg"},{"bike_id":"4a6ef6f7-a71d-40f3-9674-fe42f64fd354","system_id":"levelo_inurba_marseille","lat":43.31315,"lon":5.3667,"is_reserved":false,"is_disabled":false,"rental_uris":{"android":"levelo://app?vid=4a6ef6f7-a71d-40f3-9674-fe42f64fd354","ios":"levelo://app?vid=4a6ef6f7-a71d-40f3-9674-fe42f64fd354"},"vehicle_type_id":"4","last_reported":1740740884,"current_range_meters":6800,"station_id":"ce4bgr92rcd13ifvqc6g","pricing_plan_id":"cebpf4jnsgd1na2vs0mg"},{"bike_id":"fc43f240-dbbb-4748-be2b-8b9caa4a15b1","system_id":"levelo_inurba_marseille","lat":43.27945,"lon":5.41047,"is_reserved":false,"is_disabled":false,"rental_uris":{"android":"levelo://app?vid=fc43f240-dbbb-4748-be2b-8b9caa4a15b1","ios":"levelo://app?vid=fc43f240-dbbb-4748-be2b-8b9caa4a15b1"},"vehicle_type_id":"4","last_reported":1740740884,"current_range_meters":7200,"station_id":"ce4bhnp2rcd13ifvqh0g","pricing_plan_id":"cebpf4jnsgd1na2vs0mg"},{"bike_id":"6809ba24-8215-493c-90d3-164d5531e14b","system_id":"levelo_inurba_marseille","lat":43.28419,"lon":5.34987,"is_reserved":false,"is_disabled":false,"rental_uris":{"android":"levelo://app?vid=6809ba24-8215-493c-90d3-164d5531e14b","ios":"levelo://app?vid=6809ba24-8215-493c-90d3-164d5531e14b"},"vehicle_type_id":"4","last_reported":1740740884,"current_range_meters":7200,"station_id":"ce4bhbh2rcd13ifvqepg","pricing_plan_id":"cebpf4jnsgd1na2vs0mg"},{"bike_id":"b7b1cc05-fdfa-4c71-81d1-7e3854b0d22d","system_id":"levelo_inurba_marseille","lat":43.2499,"lon":5.38915,"is_reserved":false,"is_disabled":false,"rental_uris":{"android":"levelo://app?vid=b7b1cc05-fdfa-4c71-81d1-7e3854b0d22d","ios":"levelo://app?vid=b7b1cc05-fdfa-4c71-81d1-7e3854b0d22d"},"vehicle_type_id":"4","last_reported":1740740884,"current_range_meters":7200,"station_id":"ce4bhgp2rcd13ifvqfd0","pricing_plan_id":"cebpf4jnsgd1na2vs0mg"},{"bike_id":"126ec0c4-2156-4113-b120-770200002ad4","system_id":"levelo_inurba_marseille","lat":43.295422,"lon":5.375094,"is_reserved":false,"is_disabled":false,"rental_uris":{"android":"levelo://app?vid=126ec0c4-2156-4113-b120-770200002ad4","ios":"levelo://app?vid=126ec0c4-2156-4113-b120-770200002ad4"},"vehicle_type_id":"4","last_reported":1740740884,"current_range_meters":7200,"station_id":"ce4bgkp2rcd13ifvqbmg","pricing_plan_id":"cebpf4jnsgd1na2vs0mg"},{"bike_id":"507f2307-51f8-4762-a5e7-60fb68a748fc","system_id":"levelo_inurba_marseille","lat":43.31348,"lon":5.36714,"is_reserved":false,"is_disabled":false,"rental_uris":{"android":"levelo://app?vid=507f2307-51f8-4762-a5e7-60fb68a748fc","ios":"levelo://app?vid=507f2307-51f8-4762-a5e7-60fb68a748fc"},"vehicle_type_id":"4","last_reported":1740740884,"current_range_meters":7200,"station_id":"ce4bgr92rcd13ifvqc6g","pricing_plan_id":"cebpf4jnsgd1na2vs0mg"},{"bike_id":"54d46a8b-8314-471a-98f9-6d86686fc605","system_id":"levelo_inurba_marseille","lat":43.25844,"lon":5.39403,"is_reserved":false,"is_disabled":false,"rental_uris":{"android":"levelo://app?vid=54d46a8b-8314-471a-98f9-6d86686fc605","ios":"levelo://app?vid=54d46a8b-8314-471a-98f9-6d86686fc605"},"vehicle_type_id":"4","last_reported":1740740884,"current_range_meters":7200,"station_id":"ce4bhip2rcd13ifvqft0","pricing_plan_id":"cebpf4jnsgd1na2vs0mg"},{"bike_id":"28d4433b-3702-4dbc-b7d2-e122fb64bd93","system_id":"levelo_inurba_marseille","lat":43.33595,"lon":5.41029,"is_reserved":false,"is_disabled":false,"rental_uris":{"android":"levelo://app?vid=28d4433b-3702-4dbc-b7d2-e122fb64bd93","ios":"levelo://app?vid=28d4433b-3702-4dbc-b7d2-e122fb64bd93"},"vehicle_type_id":"4","last_reported":1740740884,"current_range_meters":7200,"station_id":"ce4bhqh2rcd13ifvqhmg","pricing_plan_id":"cebpf4jnsgd1na2vs0mg"},{"bike_id":"53d16b15-5ee3-49b8-adab-2902fe595101","system_id":"levelo_inurba_marseille","lat":43.29553,"lon":5.42282,"is_reserved":false,"is_disabled":false,"rental_uris":{"android":"levelo://app?vid=53d16b15-5ee3-49b8-adab-2902fe595101","ios":"levelo://app?vid=53d16b15-5ee3-49b8-adab-2902fe595101"},"vehicle_type_id":"4","last_reported":1740740884,"current_range_meters":7200,"station_id":"ce4bhph2rcd13ifvqhdg","pricing_plan_id":"cebpf4jnsgd1na2vs0mg"},{"bike_id":"d812d5d3-cdd1-4f10-8654-42478f31a56f","system_id":"levelo_inurba_marseille","lat":43.24082,"lon":5.37749,"is_reserved":false,"is_disabled":false,"rental_uris":{"android":"levelo://app?vid=d812d5d3-cdd1-4f10-8654-42478f31a56f","ios":"levelo://app?vid=d812d5d3-cdd1-4f10-8654-42478f31a56f"},"vehicle_type_id":"4","last_reported":1740740884,"current_range_meters":8000,"station_id":"ce4bhnp2rcd13ifvqgvg","pricing_plan_id":"cebpf4jnsgd1na2vs0mg"},{"bike_id":"7aa3304f-28b0-4f03-892b-b7eed2495dd5","system_id":"levelo_inurba_marseille","lat":43.30786,"lon":5.37648,"is_reserved":false,"is_disabled":false,"rental_uris":{"android":"levelo://app?vid=7aa3304f-28b0-4f03-892b-b7eed2495dd5","ios":"levelo://app?vid=7aa3304f-28b0-4f03-892b-b7eed2495dd5"},"vehicle_type_id":"4","last_reported":1740740884,"current_range_meters":7200,"station_id":"ce4bgv92rcd13ifvqcq0","pricing_plan_id":"cebpf4jnsgd1na2vs0mg"},{"bike_id":"5e0e22b0-e973-48d0-8bed-a771273f721a","system_id":"levelo_inurba_marseille","lat":43.27424,"lon":5.36303,"is_reserved":false,"is_disabled":false,"rental_uris":{"android":"levelo://app?vid=5e0e22b0-e973-48d0-8bed-a771273f721a","ios":"levelo://app?vid=5e0e22b0-e973-48d0-8bed-a771273f721a"},"vehicle_type_id":"4","last_reported":1740740884,"current_range_meters":8000,"station_id":"","pricing_plan_id":"cebpf4jnsgd1na2vs0mg"},{"bike_id":"289255f9-1c8a-4a8a-8c4d-565a207da30b","system_id":"levelo_inurba_marseille","lat":43.27958,"lon":5.41047,"is_reserved":false,"is_disabled":false,"rental_uris":{"android":"levelo://app?vid=289255f9-1c8a-4a8a-8c4d-565a207da30b","ios":"levelo://app?vid=289255f9-1c8a-4a8a-8c4d-565a207da30b"},"vehicle_type_id":"4","last_reported":1740740884,"current_range_meters":8000,"station_id":"ce4bhnp2rcd13ifvqh0g","pricing_plan_id":"cebpf4jnsgd1na2vs0mg"},{"bike_id":"08e0777c-18d6-455a-9b80-908f98ef8a8b","system_id":"levelo_inurba_marseille","lat":43.26213,"lon":5.37438,"is_reserved":false,"is_disabled":false,"rental_uris":{"android":"levelo://app?vid=08e0777c-18d6-455a-9b80-908f98ef8a8b","ios":"levelo://app?vid=08e0777c-18d6-455a-9b80-908f98ef8a8b"},"vehicle_type_id":"4","last_reported":1740740884,"current_range_meters":8000,"station_id":"ce4bhgp2rcd13ifvqfc0","pricing_plan_id":"cebpf4jnsgd1na2vs0mg"},{"bike_id":"e82a1286-988f-4104-9a62-e4d3a0d39d3a","system_id":"levelo_inurba_marseille","lat":43.29023,"lon":5.35933,"is_reserved":false,"is_disabled":false,"rental_uris":{"android":"levelo://app?vid=e82a1286-988f-4104-9a62-e4d3a0d39d3a","ios":"levelo://app?vid=e82a1286-988f-4104-9a62-e4d3a0d39d3a"},"vehicle_type_id":"4","last_reported":1740740884,"current_range_meters":8000,"station_id":"ce4bha92rcd13ifvqeg0","pricing_plan_id":"cebpf4jnsgd1na2vs0mg"},{"bike_id":"6fd31e0a-b17c-4850-a6b9-e357d3fc82a0","system_id":"levelo_inurba_marseille","lat":43.26028,"lon":5.37548,"is_reserved":false,"is_disabled":false,"rental_uris":{"android":"levelo://app?vid=6fd31e0a-b17c-4850-a6b9-e357d3fc82a0","ios":"levelo://app?vid=6fd31e0a-b17c-4850-a6b9-e357d3fc82a0"},"vehicle_type_id":"4","last_reported":1740740884,"current_range_meters":8000,"station_id":"ce4bhgh2rcd13ifvqfa0","pricing_plan_id":"cebpf4jnsgd1na2vs0mg"},{"bike_id":"a9f1f1e3-d3f5-491e-b067-729e0dc90246","system_id":"levelo_inurba_marseille","lat":43.30163,"lon":5.38097,"is_reserved":false,"is_disabled":false,"rental_uris":{"android":"levelo://app?vid=a9f1f1e3-d3f5-491e-b067-729e0dc90246","ios":"levelo://app?vid=a9f1f1e3-d3f5-491e-b067-729e0dc90246"},"vehicle_type_id":"4","last_reported":1740740884,"current_range_meters":8400,"station_id":"ce4bgjp2rcd13ifvqbh0","pricing_plan_id":"cebpf4jnsgd1na2vs0mg"},{"bike_id":"3b234b96-d280-43b3-8456-bbd93252a9ae","system_id":"levelo_inurba_marseille","lat":43.31228,"lon":5.368555,"is_reserved":false,"is_disabled":false,"rental_uris":{"android":"levelo://app?vid=3b234b96-d280-43b3-8456-bbd93252a9ae","ios":"levelo://app?vid=3b234b96-d280-43b3-8456-bbd93252a9ae"},"vehicle_type_id":"4","last_reported":1740740884,"current_range_meters":6800,"station_id":"ce4bgl92rcd13ifvqbq0","pricing_plan_id":"cebpf4jnsgd1na2vs0mg"},{"bike_id":"c2cd62fa-5421-4d8d-83f3-aa1ab92d9420","system_id":"levelo_inurba_marseille","lat":43.313617,"lon":5.367182,"is_reserved":false,"is_disabled":false,"rental_uris":{"android":"levelo://app?vid=c2cd62fa-5421-4d8d-83f3-aa1ab92d9420","ios":"levelo://app?vid=c2cd62fa-5421-4d8d-83f3-aa1ab92d9420"},"vehicle_type_id":"4","last_reported":1740740884,"current_range_meters":8400,"station_id":"ce4bgr92rcd13ifvqc6g","pricing_plan_id":"cebpf4jnsgd1na2vs0mg"},{"bike_id":"91162707-5565-46fe-a278-24d9a621dea6","system_id":"levelo_inurba_marseille","lat":43.30928,"lon":5.36829,"is_reserved":false,"is_disabled":false,"rental_uris":{"android":"levelo://app?vid=91162707-5565-46fe-a278-24d9a621dea6","ios":"levelo://app?vid=91162707-5565-46fe-a278-24d9a621dea6"},"vehicle_type_id":"4","last_reported":1740740884,"current_range_meters":8400,"station_id":"ce4bgn92rcd13ifvqbvg","pricing_plan_id":"cebpf4jnsgd1na2vs0mg"},{"bike_id":"8cef9073-e2e9-467e-af05-5af84549bb81","system_id":"levelo_inurba_marseille","lat":43.28425,"lon":5.34991,"is_reserved":false,"is_disabled":false,"rental_uris":{"android":"levelo://app?vid=8cef9073-e2e9-467e-af05-5af84549bb81","ios":"levelo://app?vid=8cef9073-e2e9-467e-af05-5af84549bb81"},"vehicle_type_id":"4","last_reported":1740740884,"current_range_meters":8400,"station_id":"ce4bhbh2rcd13ifvqepg","pricing_plan_id":"cebpf4jnsgd1na2vs0mg"},{"bike_id":"ec0c3b7d-e59a-44ca-a91a-f860d2fd7a88","system_id":"levelo_inurba_marseille","lat":43.30821,"lon":5.37405,"is_reserved":false,"is_disabled":false,"rental_uris":{"android":"levelo://app?vid=ec0c3b7d-e59a-44ca-a91a-f860d2fd7a88","ios":"levelo://app?vid=ec0c3b7d-e59a-44ca-a91a-f860d2fd7a88"},"vehicle_type_id":"4","last_reported":1740740884,"current_range_meters":8000,"station_id":"","pricing_plan_id":"cebpf4jnsgd1na2vs0mg"},{"bike_id":"4cd74513-afda-4309-9db0-ff642c907e5f","system_id":"levelo_inurba_marseille","lat":43.2929,"lon":5.37461,"is_reserved":false,"is_disabled":false,"rental_uris":{"android":"levelo://app?vid=4cd74513-afda-4309-9db0-ff642c907e5f","ios":"levelo://app?vid=4cd74513-afda-4309-9db0-ff642c907e5f"},"vehicle_type_id":"4","last_reported":1740740884,"current_range_meters":8400,"station_id":"ce4bgi12rcd13ifvqb70","pricing_plan_id":"cebpf4jnsgd1na2vs0mg"},{"bike_id":"2d713e86-84c1-414d-8586-0104afd3a051","system_id":"levelo_inurba_marseille","lat":43.28419,"lon":5.40426,"is_reserved":false,"is_disabled":true,"rental_uris":{"android":"levelo://app?vid=2d713e86-84c1-414d-8586-0104afd3a051","ios":"levelo://app?vid=2d713e86-84c1-414d-8586-0104afd3a051"},"vehicle_type_id":"4","last_reported":1740740884,"current_range_meters":8400,"station_id":"","pricing_plan_id":"cebpf4jnsgd1na2vs0mg"},{"bike_id":"aed92985-d89d-4e1e-836b-2b9802ce0d5a","system_id":"levelo_inurba_marseille","lat":43.27575,"lon":5.38415,"is_reserved":false,"is_disabled":false,"rental_uris":{"android":"levelo://app?vid=aed92985-d89d-4e1e-836b-2b9802ce0d5a","ios":"levelo://app?vid=aed92985-d89d-4e1e-836b-2b9802ce0d5a"},"vehicle_type_id":"4","last_reported":1740740884,"current_range_meters":8000,"station_id":"ce4bhh92rcd13ifvqfi0","pricing_plan_id":"cebpf4jnsgd1na2vs0mg"},{"bike_id":"6208017f-24c9-4f36-a465-a818621e4412","system_id":"levelo_inurba_marseille","lat":43.26211,"lon":5.37921,"is_reserved":false,"is_disabled":false,"rental_uris":{"android":"levelo://app?vid=6208017f-24c9-4f36-a465-a818621e4412","ios":"levelo://app?vid=6208017f-24c9-4f36-a465-a818621e4412"},"vehicle_type_id":"4","last_reported":1740740884,"current_range_meters":8400,"station_id":"ce4bhjp2rcd13ifvqg90","pricing_plan_id":"cebpf4jnsgd1na2vs0mg"},{"bike_id":"76adaa3a-550f-4c49-b3cf-88c40bc4d36e","system_id":"levelo_inurba_marseille","lat":43.27949,"lon":5.4105,"is_reserved":false,"is_disabled":false,"rental_uris":{"android":"levelo://app?vid=76adaa3a-550f-4c49-b3cf-88c40bc4d36e","ios":"levelo://app?vid=76adaa3a-550f-4c49-b3cf-88c40bc4d36e"},"vehicle_type_id":"4","last_reported":1740740884,"current_range_meters":9200,"station_id":"ce4bhnp2rcd13ifvqh0g","pricing_plan_id":"cebpf4jnsgd1na2vs0mg"},{"bike_id":"4c37fb25-e77d-4e00-a7ff-42a4fbd65a76","system_id":"levelo_inurba_marseille","lat":43.29031,"lon":5.38641,"is_reserved":false,"is_disabled":false,"rental_uris":{"android":"levelo://app?vid=4c37fb25-e77d-4e00-a7ff-42a4fbd65a76","ios":"levelo://app?vid=4c37fb25-e77d-4e00-a7ff-42a4fbd65a76"},"vehicle_type_id":"4","last_reported":1740740884,"current_range_meters":8800,"station_id":"ce4bh4p2rcd13ifvqe0g","pricing_plan_id":"cebpf4jnsgd1na2vs0mg"},{"bike_id":"1ab7b098-f66b-40af-b0cc-bd927e3e0ad1","system_id":"levelo_inurba_marseille","lat":43.23191,"lon":5.35553,"is_reserved":false,"is_disabled":false,"rental_uris":{"android":"levelo://app?vid=1ab7b098-f66b-40af-b0cc-bd927e3e0ad1","ios":"levelo://app?vid=1ab7b098-f66b-40af-b0cc-bd927e3e0ad1"},"vehicle_type_id":"4","last_reported":1740740884,"current_range_meters":8800,"station_id":"ce4bhu92rcd13ifvqi70","pricing_plan_id":"cebpf4jnsgd1na2vs0mg"},{"bike_id":"9c16f73b-d883-4318-9d54-d8eb1fe44c91","system_id":"levelo_inurba_marseille","lat":43.27852,"lon":5.40712,"is_reserved":false,"is_disabled":false,"rental_uris":{"android":"levelo://app?vid=9c16f73b-d883-4318-9d54-d8eb1fe44c91","ios":"levelo://app?vid=9c16f73b-d883-4318-9d54-d8eb1fe44c91"},"vehicle_type_id":"4","last_reported":1740740884,"current_range_meters":8800,"station_id":"ce4bhnh2rcd13ifvqgtg","pricing_plan_id":"cebpf4jnsgd1na2vs0mg"},{"bike_id":"6c554ff8-7372-45ad-973f-c07ecf6136a0","system_id":"levelo_inurba_marseille","lat":43.26943,"lon":5.40244,"is_reserved":false,"is_disabled":false,"rental_uris":{"android":"levelo://app?vid=6c554ff8-7372-45ad-973f-c07ecf6136a0","ios":"levelo://app?vid=6c554ff8-7372-45ad-973f-c07ecf6136a0"},"vehicle_type_id":"4","last_reported":1740740884,"current_range_meters":8400,"station_id":"cjm6bp8fraef2m0cb0m0","pricing_plan_id":"cebpf4jnsgd1na2vs0mg"},{"bike_id":"d4ffb101-314e-4834-9fe6-d05f389a1ee7","system_id":"levelo_inurba_marseille","lat":43.27994,"lon":5.40048,"is_reserved":false,"is_disabled":false,"rental_uris":{"android":"levelo://app?vid=d4ffb101-314e-4834-9fe6-d05f389a1ee7","ios":"levelo://app?vid=d4ffb101-314e-4834-9fe6-d05f389a1ee7"},"vehicle_type_id":"4","last_reported":1740740884,"current_range_meters":9200,"station_id":"ce4bho92rcd13ifvqh4g","pricing_plan_id":"cebpf4jnsgd1na2vs0mg"},{"bike_id":"026e178e-412a-49e0-9772-e5f6d0abaab4","system_id":"levelo_inurba_marseille","lat":43.30869,"lon":5.37102,"is_reserved":false,"is_disabled":false,"rental_uris":{"android":"levelo://app?vid=026e178e-412a-49e0-9772-e5f6d0abaab4","ios":"levelo://app?vid=026e178e-412a-49e0-9772-e5f6d0abaab4"},"vehicle_type_id":"4","last_reported":1740740884,"current_range_meters":9200,"station_id":"","pricing_plan_id":"cebpf4jnsgd1na2vs0mg"},{"bike_id":"738790dd-10dd-4ca0-b799-c7e96fb84b4b","system_id":"levelo_inurba_marseille","lat":43.32104,"lon":5.36783,"is_reserved":false,"is_disabled":false,"rental_uris":{"android":"levelo://app?vid=738790dd-10dd-4ca0-b799-c7e96fb84b4b","ios":"levelo://app?vid=738790dd-10dd-4ca0-b799-c7e96fb84b4b"},"vehicle_type_id":"4","last_reported":1740740884,"current_range_meters":9200,"station_id":"ce4bhrh2rcd13ifvqhug","pricing_plan_id":"cebpf4jnsgd1na2vs0mg"},{"bike_id":"443370dd-f8b8-457a-b6f8-389b804ff6fc","system_id":"levelo_inurba_marseille","lat":43.32391,"lon":5.38879,"is_reserved":false,"is_disabled":false,"rental_uris":{"android":"levelo://app?vid=443370dd-f8b8-457a-b6f8-389b804ff6fc","ios":"levelo://app?vid=443370dd-f8b8-457a-b6f8-389b804ff6fc"},"vehicle_type_id":"4","last_reported":1740740884,"current_range_meters":9600,"station_id":"ce4bhqp2rcd13ifvqhog","pricing_plan_id":"cebpf4jnsgd1na2vs0mg"},{"bike_id":"961073dd-4f2c-479d-a0c2-a990ebb610fe","system_id":"levelo_inurba_marseille","lat":43.28153,"lon":5.42641,"is_reserved":false,"is_disabled":false,"rental_uris":{"android":"levelo://app?vid=961073dd-4f2c-479d-a0c2-a990ebb610fe","ios":"levelo://app?vid=961073dd-4f2c-479d-a0c2-a990ebb610fe"},"vehicle_type_id":"4","last_reported":1740740884,"current_range_meters":9200,"station_id":"ce4bhnh2rcd13ifvqgug","pricing_plan_id":"cebpf4jnsgd1na2vs0mg"},{"bike_id":"75f7e27e-8a1f-4001-84ca-dc4ebd831804","system_id":"levelo_inurba_marseille","lat":43.30461,"lon":5.37904,"is_reserved":false,"is_disabled":false,"rental_uris":{"android":"levelo://app?vid=75f7e27e-8a1f-4001-84ca-dc4ebd831804","ios":"levelo://app?vid=75f7e27e-8a1f-4001-84ca-dc4ebd831804"},"vehicle_type_id":"4","last_reported":1740740884,"current_range_meters":9200,"station_id":"ce4bgup2rcd13ifvqcn0","pricing_plan_id":"cebpf4jnsgd1na2vs0mg"},{"bike_id":"dae47c4b-f4aa-40f9-b578-663f23812fe5","system_id":"levelo_inurba_marseille","lat":43.2782,"lon":5.40711,"is_reserved":false,"is_disabled":false,"rental_uris":{"android":"levelo://app?vid=dae47c4b-f4aa-40f9-b578-663f23812fe5","ios":"levelo://app?vid=dae47c4b-f4aa-40f9-b578-663f23812fe5"},"vehicle_type_id":"4","last_reported":1740740884,"current_range_meters":9200,"station_id":"ce4bhnh2rcd13ifvqgtg","pricing_plan_id":"cebpf4jnsgd1na2vs0mg"},{"bike_id":"b73bc810-b600-46ea-8898-7b9456349cb9","system_id":"levelo_inurba_marseille","lat":43.2956,"lon":5.37528,"is_reserved":false,"is_disabled":false,"rental_uris":{"android":"levelo://app?vid=b73bc810-b600-46ea-8898-7b9456349cb9","ios":"levelo://app?vid=b73bc810-b600-46ea-8898-7b9456349cb9"},"vehicle_type_id":"4","last_reported":1740740884,"current_range_meters":9200,"station_id":"ce4bgh92rcd13ifvqb50","pricing_plan_id":"cebpf4jnsgd1na2vs0mg"},{"bike_id":"9aa80983-02ef-4ba3-869f-d33f03257f7b","system_id":"levelo_inurba_marseille","lat":43.32023,"lon":5.41553,"is_reserved":false,"is_disabled":false,"rental_uris":{"android":"levelo://app?vid=9aa80983-02ef-4ba3-869f-d33f03257f7b","ios":"levelo://app?vid=9aa80983-02ef-4ba3-869f-d33f03257f7b"},"vehicle_type_id":"4","last_reported":1740740884,"current_range_meters":8800,"station_id":"ce4bhq92rcd13ifvqhkg","pricing_plan_id":"cebpf4jnsgd1na2vs0mg"},{"bike_id":"b1557ccb-84d0-4b15-9ed9-730b98e8e3c3","system_id":"levelo_inurba_marseille","lat":43.27819,"lon":5.40712,"is_reserved":false,"is_disabled":false,"rental_uris":{"android":"levelo://app?vid=b1557ccb-84d0-4b15-9ed9-730b98e8e3c3","ios":"levelo://app?vid=b1557ccb-84d0-4b15-9ed9-730b98e8e3c3"},"vehicle_type_id":"4","last_reported":1740740884,"current_range_meters":9200,"station_id":"ce4bhnh2rcd13ifvqgtg","pricing_plan_id":"cebpf4jnsgd1na2vs0mg"},{"bike_id":"b109a47b-c667-41d2-a309-49dcdc257a39","system_id":"levelo_inurba_marseille","lat":43.29006,"lon":5.35609,"is_reserved":false,"is_disabled":false,"rental_uris":{"android":"levelo://app?vid=b109a47b-c667-41d2-a309-49dcdc257a39","ios":"levelo://app?vid=b109a47b-c667-41d2-a309-49dcdc257a39"},"vehicle_type_id":"4","last_reported":1740740884,"current_range_meters":9600,"station_id":"ce4bhb92rcd13ifvqen0","pricing_plan_id":"cebpf4jnsgd1na2vs0mg"},{"bike_id":"3382c0a8-2e88-4e7a-b9b3-49a5a902c193","system_id":"levelo_inurba_marseille","lat":43.30417,"lon":5.38897,"is_reserved":false,"is_disabled":true,"rental_uris":{"android":"levelo://app?vid=3382c0a8-2e88-4e7a-b9b3-49a5a902c193","ios":"levelo://app?vid=3382c0a8-2e88-4e7a-b9b3-49a5a902c193"},"vehicle_type_id":"4","last_reported":1740740884,"current_range_meters":9600,"station_id":"ce4bgk12rcd13ifvqbi0","pricing_plan_id":"cebpf4jnsgd1na2vs0mg"},{"bike_id":"1393e48a-5096-48c2-8ef4-ef737b7b43ae","system_id":"levelo_inurba_marseille","lat":43.25109,"lon":5.39518,"is_reserved":false,"is_disabled":false,"rental_uris":{"android":"levelo://app?vid=1393e48a-5096-48c2-8ef4-ef737b7b43ae","ios":"levelo://app?vid=1393e48a-5096-48c2-8ef4-ef737b7b43ae"},"vehicle_type_id":"4","last_reported":1740740884,"current_range_meters":9600,"station_id":"ce4bhm12rcd13ifvqgkg","pricing_plan_id":"cebpf4jnsgd1na2vs0mg"},{"bike_id":"71f68bea-1636-449e-a230-6d983096a86d","system_id":"levelo_inurba_marseille","lat":43.2407,"lon":5.3775,"is_reserved":false,"is_disabled":false,"rental_uris":{"android":"levelo://app?vid=71f68bea-1636-449e-a230-6d983096a86d","ios":"levelo://app?vid=71f68bea-1636-449e-a230-6d983096a86d"},"vehicle_type_id":"4","last_reported":1740740884,"current_range_meters":9600,"station_id":"ce4bhnp2rcd13ifvqgvg","pricing_plan_id":"cebpf4jnsgd1na2vs0mg"},{"bike_id":"d722f0d4-588e-49c4-b50b-22cc4f6fc420","system_id":"levelo_inurba_marseille","lat":43.2781,"lon":5.4073,"is_reserved":false,"is_disabled":false,"rental_uris":{"android":"levelo://app?vid=d722f0d4-588e-49c4-b50b-22cc4f6fc420","ios":"levelo://app?vid=d722f0d4-588e-49c4-b50b-22cc4f6fc420"},"vehicle_type_id":"4","last_reported":1740740884,"current_range_meters":12400,"station_id":"ce4bhnh2rcd13ifvqgtg","pricing_plan_id":"cebpf4jnsgd1na2vs0mg"},{"bike_id":"d02aabfa-cf11-4e8c-afae-e75fbab4027c","system_id":"levelo_inurba_marseille","lat":43.32461,"lon":5.36529,"is_reserved":false,"is_disabled":false,"rental_uris":{"android":"levelo://app?vid=d02aabfa-cf11-4e8c-afae-e75fbab4027c","ios":"levelo://app?vid=d02aabfa-cf11-4e8c-afae-e75fbab4027c"},"vehicle_type_id":"4","last_reported":1740740884,"current_range_meters":9600,"station_id":"ce4bhs12rcd13ifvqhvg","pricing_plan_id":"cebpf4jnsgd1na2vs0mg"},{"bike_id":"ed20d749-b373-4b36-97bb-699c9aa93d63","system_id":"levelo_inurba_marseille","lat":43.29882,"lon":5.38893,"is_reserved":false,"is_disabled":false,"rental_uris":{"android":"levelo://app?vid=ed20d749-b373-4b36-97bb-699c9aa93d63","ios":"levelo://app?vid=ed20d749-b373-4b36-97bb-699c9aa93d63"},"vehicle_type_id":"4","last_reported":1740740884,"current_range_meters":9600,"station_id":"ce4bh392rcd13ifvqdl0","pricing_plan_id":"cebpf4jnsgd1na2vs0mg"},{"bike_id":"a97ef810-7225-4bf9-ae16-85c852e9dbad","system_id":"levelo_inurba_marseille","lat":43.30535,"lon":5.36522,"is_reserved":false,"is_disabled":false,"rental_uris":{"android":"levelo://app?vid=a97ef810-7225-4bf9-ae16-85c852e9dbad","ios":"levelo://app?vid=a97ef810-7225-4bf9-ae16-85c852e9dbad"},"vehicle_type_id":"4","last_reported":1740740884,"current_range_meters":9600,"station_id":"ce4bgs12rcd13ifvqcag","pricing_plan_id":"cebpf4jnsgd1na2vs0mg"},{"bike_id":"3de9aeda-1f9a-4bbc-8b90-e02a49e56ca9","system_id":"levelo_inurba_marseille","lat":43.23191,"lon":5.35575,"is_reserved":false,"is_disabled":false,"rental_uris":{"android":"levelo://app?vid=3de9aeda-1f9a-4bbc-8b90-e02a49e56ca9","ios":"levelo://app?vid=3de9aeda-1f9a-4bbc-8b90-e02a49e56ca9"},"vehicle_type_id":"4","last_reported":1740740884,"current_range_meters":9600,"station_id":"ce4bhu92rcd13ifvqi70","pricing_plan_id":"cebpf4jnsgd1na2vs0mg"},{"bike_id":"10b6c0d0-a3ef-460e-ad30-22fe050ad6b8","system_id":"levelo_inurba_marseille","lat":43.28851,"lon":5.35842,"is_reserved":false,"is_disabled":false,"rental_uris":{"android":"levelo://app?vid=10b6c0d0-a3ef-460e-ad30-22fe050ad6b8","ios":"levelo://app?vid=10b6c0d0-a3ef-460e-ad30-22fe050ad6b8"},"vehicle_type_id":"4","last_reported":1740740884,"current_range_meters":10000,"station_id":"ce4bhb12rcd13ifvqem0","pricing_plan_id":"cebpf4jnsgd1na2vs0mg"},{"bike_id":"a398afde-6deb-4f27-9b52-a47127b86fce","system_id":"levelo_inurba_marseille","lat":43.30528,"lon":5.36712,"is_reserved":false,"is_disabled":false,"rental_uris":{"android":"levelo://app?vid=a398afde-6deb-4f27-9b52-a47127b86fce","ios":"levelo://app?vid=a398afde-6deb-4f27-9b52-a47127b86fce"},"vehicle_type_id":"4","last_reported":1740740884,"current_range_meters":8800,"station_id":"ce4bgrp2rcd13ifvqc9g","pricing_plan_id":"cebpf4jnsgd1na2vs0mg"},{"bike_id":"06b91644-fcc8-46ff-8717-fd99f2ee51d4","system_id":"levelo_inurba_marseille","lat":43.30893,"lon":5.36859,"is_reserved":false,"is_disabled":false,"rental_uris":{"android":"levelo://app?vid=06b91644-fcc8-46ff-8717-fd99f2ee51d4","ios":"levelo://app?vid=06b91644-fcc8-46ff-8717-fd99f2ee51d4"},"vehicle_type_id":"4","last_reported":1740740884,"current_range_meters":10000,"station_id":"ce4bgn92rcd13ifvqbvg","pricing_plan_id":"cebpf4jnsgd1na2vs0mg"},{"bike_id":"0fa1537a-723f-4029-a1cc-94edc24d3f3b","system_id":"levelo_inurba_marseille","lat":43.268029,"lon":5.402656,"is_reserved":false,"is_disabled":true,"rental_uris":{"android":"levelo://app?vid=0fa1537a-723f-4029-a1cc-94edc24d3f3b","ios":"levelo://app?vid=0fa1537a-723f-4029-a1cc-94edc24d3f3b"},"vehicle_type_id":"4","last_reported":1740740884,"current_range_meters":11200,"station_id":"","pricing_plan_id":"cebpf4jnsgd1na2vs0mg"},{"bike_id":"d4918d6a-5525-4be8-b0c4-7af64b54343d","system_id":"levelo_inurba_marseille","lat":43.24171,"lon":5.3641,"is_reserved":false,"is_disabled":false,"rental_uris":{"android":"levelo://app?vid=d4918d6a-5525-4be8-b0c4-7af64b54343d","ios":"levelo://app?vid=d4918d6a-5525-4be8-b0c4-7af64b54343d"},"vehicle_type_id":"4","last_reported":1740740884,"current_range_meters":10800,"station_id":"cpo36qri1sfpv3e86is0","pricing_plan_id":"cebpf4jnsgd1na2vs0mg"},{"bike_id":"cf351987-7a8f-4867-b7b3-0781c8f98bac","system_id":"levelo_inurba_marseille","lat":43.292945,"lon":5.379688,"is_reserved":false,"is_disabled":false,"rental_uris":{"android":"levelo://app?vid=cf351987-7a8f-4867-b7b3-0781c8f98bac","ios":"levelo://app?vid=cf351987-7a8f-4867-b7b3-0781c8f98bac"},"vehicle_type_id":"4","last_reported":1740740884,"current_range_meters":11200,"station_id":"ce4bhb12rcd13ifvqel0","pricing_plan_id":"cebpf4jnsgd1na2vs0mg"},{"bike_id":"20d08730-d04f-482a-9ed2-1d3e29b92784","system_id":"levelo_inurba_marseille","lat":43.32385,"lon":5.38887,"is_reserved":false,"is_disabled":false,"rental_uris":{"android":"levelo://app?vid=20d08730-d04f-482a-9ed2-1d3e29b92784","ios":"levelo://app?vid=20d08730-d04f-482a-9ed2-1d3e29b92784"},"vehicle_type_id":"4","last_reported":1740740884,"current_range_meters":10800,"station_id":"ce4bhqp2rcd13ifvqhog","pricing_plan_id":"cebpf4jnsgd1na2vs0mg"},{"bike_id":"9cefaa5f-2047-4a29-ba27-fbad559e4baa","system_id":"levelo_inurba_marseille","lat":43.29575,"lon":5.375,"is_reserved":false,"is_disabled":true,"rental_uris":{"android":"levelo://app?vid=9cefaa5f-2047-4a29-ba27-fbad559e4baa","ios":"levelo://app?vid=9cefaa5f-2047-4a29-ba27-fbad559e4baa"},"vehicle_type_id":"4","last_reported":1740740884,"current_range_meters":10800,"station_id":"ce4bgh92rcd13ifvqb50","pricing_plan_id":"cebpf4jnsgd1na2vs0mg"},{"bike_id":"10be055f-dd9f-4dc6-8d3f-7aba3762d29b","system_id":"levelo_inurba_marseille","lat":43.32109,"lon":5.36771,"is_reserved":false,"is_disabled":false,"rental_uris":{"android":"levelo://app?vid=10be055f-dd9f-4dc6-8d3f-7aba3762d29b","ios":"levelo://app?vid=10be055f-dd9f-4dc6-8d3f-7aba3762d29b"},"vehicle_type_id":"4","last_reported":1740740884,"current_range_meters":10800,"station_id":"ce4bhrh2rcd13ifvqhug","pricing_plan_id":"cebpf4jnsgd1na2vs0mg"},{"bike_id":"5b28cd77-a409-482f-8702-f764eef9151e","system_id":"levelo_inurba_marseille","lat":43.25942,"lon":5.40915,"is_reserved":false,"is_disabled":false,"rental_uris":{"android":"levelo://app?vid=5b28cd77-a409-482f-8702-f764eef9151e","ios":"levelo://app?vid=5b28cd77-a409-482f-8702-f764eef9151e"},"vehicle_type_id":"4","last_reported":1740740884,"current_range_meters":10800,"station_id":"ce4bhm92rcd13ifvqglg","pricing_plan_id":"cebpf4jnsgd1na2vs0mg"},{"bike_id":"9fe1686b-87f4-4090-857d-b2cad3d05448","system_id":"levelo_inurba_marseille","lat":43.26032,"lon":5.4083,"is_reserved":false,"is_disabled":false,"rental_uris":{"android":"levelo://app?vid=9fe1686b-87f4-4090-857d-b2cad3d05448","ios":"levelo://app?vid=9fe1686b-87f4-4090-857d-b2cad3d05448"},"vehicle_type_id":"4","last_reported":1740740884,"current_range_meters":10800,"station_id":"ce4bhm92rcd13ifvqglg","pricing_plan_id":"cebpf4jnsgd1na2vs0mg"},{"bike_id":"94dc094b-e528-48cb-9927-c0d224136f8c","system_id":"levelo_inurba_marseille","lat":43.32483,"lon":5.36598,"is_reserved":false,"is_disabled":false,"rental_uris":{"android":"levelo://app?vid=94dc094b-e528-48cb-9927-c0d224136f8c","ios":"levelo://app?vid=94dc094b-e528-48cb-9927-c0d224136f8c"},"vehicle_type_id":"4","last_reported":1740740884,"current_range_meters":10800,"station_id":"ce4bhs12rcd13ifvqhvg","pricing_plan_id":"cebpf4jnsgd1na2vs0mg"},{"bike_id":"c28c6814-1135-4f5f-8b49-2e72894f89cd","system_id":"levelo_inurba_marseille","lat":43.33037,"lon":5.39032,"is_reserved":false,"is_disabled":false,"rental_uris":{"android":"levelo://app?vid=c28c6814-1135-4f5f-8b49-2e72894f89cd","ios":"levelo://app?vid=c28c6814-1135-4f5f-8b49-2e72894f89cd"},"vehicle_type_id":"4","last_reported":1740740884,"current_range_meters":11200,"station_id":"ce4bhr92rcd13ifvqhrg","pricing_plan_id":"cebpf4jnsgd1na2vs0mg"},{"bike_id":"fd7b97d5-5d34-41e5-834d-8332a41b4f24","system_id":"levelo_inurba_marseille","lat":43.26219,"lon":5.37437,"is_reserved":false,"is_disabled":false,"rental_uris":{"android":"levelo://app?vid=fd7b97d5-5d34-41e5-834d-8332a41b4f24","ios":"levelo://app?vid=fd7b97d5-5d34-41e5-834d-8332a41b4f24"},"vehicle_type_id":"4","last_reported":1740740884,"current_range_meters":11200,"station_id":"ce4bhgp2rcd13ifvqfc0","pricing_plan_id":"cebpf4jnsgd1na2vs0mg"},{"bike_id":"01c82ae4-a76e-4a32-afe9-20275f6dd01b","system_id":"levelo_inurba_marseille","lat":43.281008,"lon":5.378241,"is_reserved":false,"is_disabled":false,"rental_uris":{"android":"levelo://app?vid=01c82ae4-a76e-4a32-afe9-20275f6dd01b","ios":"levelo://app?vid=01c82ae4-a76e-4a32-afe9-20275f6dd01b"},"vehicle_type_id":"4","last_reported":1740740884,"current_range_meters":11600,"station_id":"ce4bha12rcd13ifvqee0","pricing_plan_id":"cebpf4jnsgd1na2vs0mg"},{"bike_id":"36aaff39-aaa8-465d-bd0a-3f671adb5484","system_id":"levelo_inurba_marseille","lat":43.29847,"lon":5.3628,"is_reserved":false,"is_disabled":false,"rental_uris":{"android":"levelo://app?vid=36aaff39-aaa8-465d-bd0a-3f671adb5484","ios":"levelo://app?vid=36aaff39-aaa8-465d-bd0a-3f671adb5484"},"vehicle_type_id":"4","last_reported":1740740884,"current_range_meters":11600,"station_id":"ce4bgpp2rcd13ifvqc3g","pricing_plan_id":"cebpf4jnsgd1na2vs0mg"},{"bike_id":"878be788-85d0-4a88-bb7a-fd25aefaac29","system_id":"levelo_inurba_marseille","lat":43.29607,"lon":5.40594,"is_reserved":false,"is_disabled":false,"rental_uris":{"android":"levelo://app?vid=878be788-85d0-4a88-bb7a-fd25aefaac29","ios":"levelo://app?vid=878be788-85d0-4a88-bb7a-fd25aefaac29"},"vehicle_type_id":"4","last_reported":1740740884,"current_range_meters":11200,"station_id":"ce4bh0h2rcd13ifvqd60","pricing_plan_id":"cebpf4jnsgd1na2vs0mg"},{"bike_id":"8d3bbe0c-2bce-4fed-ab42-e91101e74bd1","system_id":"levelo_inurba_marseille","lat":43.27037,"lon":5.40273,"is_reserved":false,"is_disabled":false,"rental_uris":{"android":"levelo://app?vid=8d3bbe0c-2bce-4fed-ab42-e91101e74bd1","ios":"levelo://app?vid=8d3bbe0c-2bce-4fed-ab42-e91101e74bd1"},"vehicle_type_id":"4","last_reported":1740740884,"current_range_meters":11600,"station_id":"ce4bhk92rcd13ifvqgc0","pricing_plan_id":"cebpf4jnsgd1na2vs0mg"},{"bike_id":"f48c7951-d803-4096-8a5d-0a3dfc17b1aa","system_id":"levelo_inurba_marseille","lat":43.31358,"lon":5.36722,"is_reserved":false,"is_disabled":false,"rental_uris":{"android":"levelo://app?vid=f48c7951-d803-4096-8a5d-0a3dfc17b1aa","ios":"levelo://app?vid=f48c7951-d803-4096-8a5d-0a3dfc17b1aa"},"vehicle_type_id":"4","last_reported":1740740884,"current_range_meters":11600,"station_id":"ce4bgr92rcd13ifvqc6g","pricing_plan_id":"cebpf4jnsgd1na2vs0mg"},{"bike_id":"52d182f1-5b35-456e-b120-700ad9b9c06b","system_id":"levelo_inurba_marseille","lat":43.24997,"lon":5.3893,"is_reserved":false,"is_disabled":false,"rental_uris":{"android":"levelo://app?vid=52d182f1-5b35-456e-b120-700ad9b9c06b","ios":"levelo://app?vid=52d182f1-5b35-456e-b120-700ad9b9c06b"},"vehicle_type_id":"4","last_reported":1740740884,"current_range_meters":11600,"station_id":"ce4bhgp2rcd13ifvqfd0","pricing_plan_id":"cebpf4jnsgd1na2vs0mg"},{"bike_id":"f8ce98ff-a922-4d9b-9fbc-7680c81d5c2c","system_id":"levelo_inurba_marseille","lat":43.296621,"lon":5.407162,"is_reserved":false,"is_disabled":false,"rental_uris":{"android":"levelo://app?vid=f8ce98ff-a922-4d9b-9fbc-7680c81d5c2c","ios":"levelo://app?vid=f8ce98ff-a922-4d9b-9fbc-7680c81d5c2c"},"vehicle_type_id":"4","last_reported":1740740884,"current_range_meters":11600,"station_id":"ce4bh0h2rcd13ifvqd60","pricing_plan_id":"cebpf4jnsgd1na2vs0mg"},{"bike_id":"43d6aa6f-20c7-4a1b-bcb8-31b660876567","system_id":"levelo_inurba_marseille","lat":43.26554,"lon":5.37286,"is_reserved":false,"is_disabled":false,"rental_uris":{"android":"levelo://app?vid=43d6aa6f-20c7-4a1b-bcb8-31b660876567","ios":"levelo://app?vid=43d6aa6f-20c7-4a1b-bcb8-31b660876567"},"vehicle_type_id":"4","last_reported":1740740884,"current_range_meters":12400,"station_id":"ce4bhg12rcd13ifvqf70","pricing_plan_id":"cebpf4jnsgd1na2vs0mg"},{"bike_id":"6d428432-8be2-47ad-b84d-a58bf7f395bd","system_id":"levelo_inurba_marseille","lat":43.28943,"lon":5.36409,"is_reserved":false,"is_disabled":false,"rental_uris":{"android":"levelo://app?vid=6d428432-8be2-47ad-b84d-a58bf7f395bd","ios":"levelo://app?vid=6d428432-8be2-47ad-b84d-a58bf7f395bd"},"vehicle_type_id":"4","last_reported":1740740884,"current_range_meters":12400,"station_id":"ce4bhc92rcd13ifvqetg","pricing_plan_id":"cebpf4jnsgd1na2vs0mg"},{"bike_id":"477e7770-5906-4cdc-a047-08af60219101","system_id":"levelo_inurba_marseille","lat":43.30543,"lon":5.36701,"is_reserved":false,"is_disabled":false,"rental_uris":{"android":"levelo://app?vid=477e7770-5906-4cdc-a047-08af60219101","ios":"levelo://app?vid=477e7770-5906-4cdc-a047-08af60219101"},"vehicle_type_id":"4","last_reported":1740740884,"current_range_meters":12400,"station_id":"ce4bgrp2rcd13ifvqc9g","pricing_plan_id":"cebpf4jnsgd1na2vs0mg"},{"bike_id":"3f5e4c77-943b-4a46-b257-614bf13afec4","system_id":"levelo_inurba_marseille","lat":43.24175,"lon":5.36413,"is_reserved":false,"is_disabled":false,"rental_uris":{"android":"levelo://app?vid=3f5e4c77-943b-4a46-b257-614bf13afec4","ios":"levelo://app?vid=3f5e4c77-943b-4a46-b257-614bf13afec4"},"vehicle_type_id":"4","last_reported":1740740884,"current_range_meters":12400,"station_id":"cpo36qri1sfpv3e86is0","pricing_plan_id":"cebpf4jnsgd1na2vs0mg"},{"bike_id":"04cc12a1-339d-4cfd-8541-987866583604","system_id":"levelo_inurba_marseille","lat":43.25866,"lon":5.39907,"is_reserved":false,"is_disabled":false,"rental_uris":{"android":"levelo://app?vid=04cc12a1-339d-4cfd-8541-987866583604","ios":"levelo://app?vid=04cc12a1-339d-4cfd-8541-987866583604"},"vehicle_type_id":"4","last_reported":1740740884,"current_range_meters":12000,"station_id":"ce4bhl92rcd13ifvqghg","pricing_plan_id":"cebpf4jnsgd1na2vs0mg"},{"bike_id":"14ede083-beed-4120-9361-5b22ef8e9594","system_id":"levelo_inurba_marseille","lat":43.29906,"lon":5.38148,"is_reserved":false,"is_disabled":false,"rental_uris":{"android":"levelo://app?vid=14ede083-beed-4120-9361-5b22ef8e9594","ios":"levelo://app?vid=14ede083-beed-4120-9361-5b22ef8e9594"},"vehicle_type_id":"4","last_reported":1740740884,"current_range_meters":12800,"station_id":"ce4bgj12rcd13ifvqbc0","pricing_plan_id":"cebpf4jnsgd1na2vs0mg"},{"bike_id":"c4c5f13c-e4a9-4738-8656-d8632b7372be","system_id":"levelo_inurba_marseille","lat":43.28615,"lon":5.351,"is_reserved":false,"is_disabled":false,"rental_uris":{"android":"levelo://app?vid=c4c5f13c-e4a9-4738-8656-d8632b7372be","ios":"levelo://app?vid=c4c5f13c-e4a9-4738-8656-d8632b7372be"},"vehicle_type_id":"4","last_reported":1740740884,"current_range_meters":12800,"station_id":"ce4bhch2rcd13ifvqeug","pricing_plan_id":"cebpf4jnsgd1na2vs0mg"},{"bike_id":"4d35c5ab-2d26-49b6-987d-5e60239bebb1","system_id":"levelo_inurba_marseille","lat":43.29571,"lon":5.37518,"is_reserved":false,"is_disabled":false,"rental_uris":{"android":"levelo://app?vid=4d35c5ab-2d26-49b6-987d-5e60239bebb1","ios":"levelo://app?vid=4d35c5ab-2d26-49b6-987d-5e60239bebb1"},"vehicle_type_id":"4","last_reported":1740740884,"current_range_meters":13600,"station_id":"ce4bgh92rcd13ifvqb50","pricing_plan_id":"cebpf4jnsgd1na2vs0mg"},{"bike_id":"e73557ec-12fc-4b31-84a8-85363ae9bfde","system_id":"levelo_inurba_marseille","lat":43.26558,"lon":5.37283,"is_reserved":false,"is_disabled":false,"rental_uris":{"android":"levelo://app?vid=e73557ec-12fc-4b31-84a8-85363ae9bfde","ios":"levelo://app?vid=e73557ec-12fc-4b31-84a8-85363ae9bfde"},"vehicle_type_id":"4","last_reported":1740740884,"current_range_meters":13600,"station_id":"ce4bhg12rcd13ifvqf70","pricing_plan_id":"cebpf4jnsgd1na2vs0mg"},{"bike_id":"b623d69d-f51d-475a-beb3-7245eec646b6","system_id":"levelo_inurba_marseille","lat":43.28922,"lon":5.36402,"is_reserved":false,"is_disabled":false,"rental_uris":{"android":"levelo://app?vid=b623d69d-f51d-475a-beb3-7245eec646b6","ios":"levelo://app?vid=b623d69d-f51d-475a-beb3-7245eec646b6"},"vehicle_type_id":"4","last_reported":1740740884,"current_range_meters":13600,"station_id":"ce4bhc92rcd13ifvqetg","pricing_plan_id":"cebpf4jnsgd1na2vs0mg"},{"bike_id":"afe74da2-8f9b-490f-ac13-478a925f939f","system_id":"levelo_inurba_marseille","lat":43.27809,"lon":5.40712,"is_reserved":false,"is_disabled":false,"rental_uris":{"android":"levelo://app?vid=afe74da2-8f9b-490f-ac13-478a925f939f","ios":"levelo://app?vid=afe74da2-8f9b-490f-ac13-478a925f939f"},"vehicle_type_id":"4","last_reported":1740740884,"current_range_meters":13600,"station_id":"ce4bhnh2rcd13ifvqgtg","pricing_plan_id":"cebpf4jnsgd1na2vs0mg"},{"bike_id":"7f460228-eaa7-4070-8c4f-3c84b0229773","system_id":"levelo_inurba_marseille","lat":43.25585,"lon":5.38239,"is_reserved":false,"is_disabled":false,"rental_uris":{"android":"levelo://app?vid=7f460228-eaa7-4070-8c4f-3c84b0229773","ios":"levelo://app?vid=7f460228-eaa7-4070-8c4f-3c84b0229773"},"vehicle_type_id":"4","last_reported":1740740884,"current_range_meters":13600,"station_id":"ce4bhih2rcd13ifvqfs0","pricing_plan_id":"cebpf4jnsgd1na2vs0mg"},{"bike_id":"367dd7b9-89ab-429e-9580-b4c70eb6ee26","system_id":"levelo_inurba_marseille","lat":43.30537,"lon":5.36547,"is_reserved":false,"is_disabled":false,"rental_uris":{"android":"levelo://app?vid=367dd7b9-89ab-429e-9580-b4c70eb6ee26","ios":"levelo://app?vid=367dd7b9-89ab-429e-9580-b4c70eb6ee26"},"vehicle_type_id":"4","last_reported":1740740884,"current_range_meters":14000,"station_id":"ce4bgs12rcd13ifvqcag","pricing_plan_id":"cebpf4jnsgd1na2vs0mg"},{"bike_id":"2144b65c-06cb-4a0c-b7c1-902501921c3f","system_id":"levelo_inurba_marseille","lat":43.29577,"lon":5.37499,"is_reserved":false,"is_disabled":false,"rental_uris":{"android":"levelo://app?vid=2144b65c-06cb-4a0c-b7c1-902501921c3f","ios":"levelo://app?vid=2144b65c-06cb-4a0c-b7c1-902501921c3f"},"vehicle_type_id":"4","last_reported":1740740884,"current_range_meters":13600,"station_id":"ce4bgh92rcd13ifvqb50","pricing_plan_id":"cebpf4jnsgd1na2vs0mg"},{"bike_id":"0ca3762a-72de-42a2-b6ac-f14be1a9578b","system_id":"levelo_inurba_marseille","lat":43.259392,"lon":5.409032,"is_reserved":false,"is_disabled":false,"rental_uris":{"android":"levelo://app?vid=0ca3762a-72de-42a2-b6ac-f14be1a9578b","ios":"levelo://app?vid=0ca3762a-72de-42a2-b6ac-f14be1a9578b"},"vehicle_type_id":"4","last_reported":1740740884,"current_range_meters":14400,"station_id":"ce4bhm92rcd13ifvqglg","pricing_plan_id":"cebpf4jnsgd1na2vs0mg"},{"bike_id":"f5fe4361-1d3d-4314-a7e8-95ca49fcf6f9","system_id":"levelo_inurba_marseille","lat":43.3106,"lon":5.37825,"is_reserved":false,"is_disabled":false,"rental_uris":{"android":"levelo://app?vid=f5fe4361-1d3d-4314-a7e8-95ca49fcf6f9","ios":"levelo://app?vid=f5fe4361-1d3d-4314-a7e8-95ca49fcf6f9"},"vehicle_type_id":"4","last_reported":1740740884,"current_range_meters":14000,"station_id":"","pricing_plan_id":"cebpf4jnsgd1na2vs0mg"},{"bike_id":"82632b97-95e0-43b1-8c15-9fd792690477","system_id":"levelo_inurba_marseille","lat":43.26835,"lon":5.40244,"is_reserved":false,"is_disabled":false,"rental_uris":{"android":"levelo://app?vid=82632b97-95e0-43b1-8c15-9fd792690477","ios":"levelo://app?vid=82632b97-95e0-43b1-8c15-9fd792690477"},"vehicle_type_id":"4","last_reported":1740740884,"current_range_meters":11200,"station_id":"ce501612rcd8frsf0b60","pricing_plan_id":"cebpf4jnsgd1na2vs0mg"},{"bike_id":"e62e4c2a-07e3-41ea-af00-47fec24e19ec","system_id":"levelo_inurba_marseille","lat":43.28834,"lon":5.35852,"is_reserved":false,"is_disabled":false,"rental_uris":{"android":"levelo://app?vid=e62e4c2a-07e3-41ea-af00-47fec24e19ec","ios":"levelo://app?vid=e62e4c2a-07e3-41ea-af00-47fec24e19ec"},"vehicle_type_id":"4","last_reported":1740740884,"current_range_meters":14800,"station_id":"ce4bhb12rcd13ifvqem0","pricing_plan_id":"cebpf4jnsgd1na2vs0mg"},{"bike_id":"382d557d-8024-4f45-8140-482a40d06b19","system_id":"levelo_inurba_marseille","lat":43.27835,"lon":5.40727,"is_reserved":false,"is_disabled":false,"rental_uris":{"android":"levelo://app?vid=382d557d-8024-4f45-8140-482a40d06b19","ios":"levelo://app?vid=382d557d-8024-4f45-8140-482a40d06b19"},"vehicle_type_id":"4","last_reported":1740740884,"current_range_meters":14400,"station_id":"ce4bhnh2rcd13ifvqgtg","pricing_plan_id":"cebpf4jnsgd1na2vs0mg"},{"bike_id":"593edb3c-7add-4a3d-9dbe-95cef549de0d","system_id":"levelo_inurba_marseille","lat":43.23066,"lon":5.35494,"is_reserved":false,"is_disabled":false,"rental_uris":{"android":"levelo://app?vid=593edb3c-7add-4a3d-9dbe-95cef549de0d","ios":"levelo://app?vid=593edb3c-7add-4a3d-9dbe-95cef549de0d"},"vehicle_type_id":"4","last_reported":1740740884,"current_range_meters":14400,"station_id":"cpo3342slgdg3j2ifvpg","pricing_plan_id":"cebpf4jnsgd1na2vs0mg"},{"bike_id":"ad5b58ef-35aa-402d-94e0-da855fa183c3","system_id":"levelo_inurba_marseille","lat":43.31332,"lon":5.397,"is_reserved":false,"is_disabled":false,"rental_uris":{"android":"levelo://app?vid=ad5b58ef-35aa-402d-94e0-da855fa183c3","ios":"levelo://app?vid=ad5b58ef-35aa-402d-94e0-da855fa183c3"},"vehicle_type_id":"4","last_reported":1740740884,"current_range_meters":14800,"station_id":"ce4bgvp2rcd13ifvqcu0","pricing_plan_id":"cebpf4jnsgd1na2vs0mg"},{"bike_id":"ec1f783c-be23-4e0c-a94d-c10615e50f5d","system_id":"levelo_inurba_marseille","lat":43.28177,"lon":5.42643,"is_reserved":false,"is_disabled":false,"rental_uris":{"android":"levelo://app?vid=ec1f783c-be23-4e0c-a94d-c10615e50f5d","ios":"levelo://app?vid=ec1f783c-be23-4e0c-a94d-c10615e50f5d"},"vehicle_type_id":"4","last_reported":1740740884,"current_range_meters":14800,"station_id":"ce4bhnh2rcd13ifvqgug","pricing_plan_id":"cebpf4jnsgd1na2vs0mg"},{"bike_id":"fd90c70d-a9c7-4bf7-b398-10eaf7e1b68e","system_id":"levelo_inurba_marseille","lat":43.25936,"lon":5.40908,"is_reserved":false,"is_disabled":false,"rental_uris":{"android":"levelo://app?vid=fd90c70d-a9c7-4bf7-b398-10eaf7e1b68e","ios":"levelo://app?vid=fd90c70d-a9c7-4bf7-b398-10eaf7e1b68e"},"vehicle_type_id":"4","last_reported":1740740884,"current_range_meters":14800,"station_id":"ce4bhm92rcd13ifvqglg","pricing_plan_id":"cebpf4jnsgd1na2vs0mg"},{"bike_id":"b61f0806-190c-4a93-a7f8-261fe3a6d0c4","system_id":"levelo_inurba_marseille","lat":43.265609,"lon":5.372978,"is_reserved":false,"is_disabled":true,"rental_uris":{"android":"levelo://app?vid=b61f0806-190c-4a93-a7f8-261fe3a6d0c4","ios":"levelo://app?vid=b61f0806-190c-4a93-a7f8-261fe3a6d0c4"},"vehicle_type_id":"4","last_reported":1740740884,"current_range_meters":14800,"station_id":"ce4bhg12rcd13ifvqf70","pricing_plan_id":"cebpf4jnsgd1na2vs0mg"},{"bike_id":"90bb0657-8dd1-4b3e-85eb-0ff57d024ae5","system_id":"levelo_inurba_marseille","lat":43.23156,"lon":5.43715,"is_reserved":false,"is_disabled":false,"rental_uris":{"android":"levelo://app?vid=90bb0657-8dd1-4b3e-85eb-0ff57d024ae5","ios":"levelo://app?vid=90bb0657-8dd1-4b3e-85eb-0ff57d024ae5"},"vehicle_type_id":"4","last_reported":1740740884,"current_range_meters":14800,"station_id":"ce4bhmp2rcd13ifvqgog","pricing_plan_id":"cebpf4jnsgd1na2vs0mg"},{"bike_id":"6f8b605a-bad4-44bd-9f24-895c99d18d65","system_id":"levelo_inurba_marseille","lat":43.28004,"lon":5.41667,"is_reserved":false,"is_disabled":false,"rental_uris":{"android":"levelo://app?vid=6f8b605a-bad4-44bd-9f24-895c99d18d65","ios":"levelo://app?vid=6f8b605a-bad4-44bd-9f24-895c99d18d65"},"vehicle_type_id":"4","last_reported":1740740884,"current_range_meters":14400,"station_id":"ce4bho12rcd13ifvqh1g","pricing_plan_id":"cebpf4jnsgd1na2vs0mg"},{"bike_id":"41b08ed5-a9ef-4eca-9733-de6e387bde0e","system_id":"levelo_inurba_marseille","lat":43.320343,"lon":5.415524,"is_reserved":false,"is_disabled":false,"rental_uris":{"android":"levelo://app?vid=41b08ed5-a9ef-4eca-9733-de6e387bde0e","ios":"levelo://app?vid=41b08ed5-a9ef-4eca-9733-de6e387bde0e"},"vehicle_type_id":"4","last_reported":1740740884,"current_range_meters":15200,"station_id":"ce4bhq92rcd13ifvqhkg","pricing_plan_id":"cebpf4jnsgd1na2vs0mg"},{"bike_id":"b512e819-657e-4709-b725-ca7fe89e43e9","system_id":"levelo_inurba_marseille","lat":43.27312,"lon":5.390807,"is_reserved":false,"is_disabled":false,"rental_uris":{"android":"levelo://app?vid=b512e819-657e-4709-b725-ca7fe89e43e9","ios":"levelo://app?vid=b512e819-657e-4709-b725-ca7fe89e43e9"},"vehicle_type_id":"4","last_reported":1740740884,"current_range_meters":15200,"station_id":"ce4bhgp2rcd13ifvqfe0","pricing_plan_id":"cebpf4jnsgd1na2vs0mg"},{"bike_id":"f00788a2-0a2f-43a1-8323-5b5bb0f3d51d","system_id":"levelo_inurba_marseille","lat":43.27943,"lon":5.41051,"is_reserved":false,"is_disabled":false,"rental_uris":{"android":"levelo://app?vid=f00788a2-0a2f-43a1-8323-5b5bb0f3d51d","ios":"levelo://app?vid=f00788a2-0a2f-43a1-8323-5b5bb0f3d51d"},"vehicle_type_id":"4","last_reported":1740740884,"current_range_meters":15200,"station_id":"ce4bhnp2rcd13ifvqh0g","pricing_plan_id":"cebpf4jnsgd1na2vs0mg"},{"bike_id":"c3879c4a-1f8e-4ca7-8a3b-195d6726be8b","system_id":"levelo_inurba_marseille","lat":43.30148,"lon":5.38073,"is_reserved":false,"is_disabled":false,"rental_uris":{"android":"levelo://app?vid=c3879c4a-1f8e-4ca7-8a3b-195d6726be8b","ios":"levelo://app?vid=c3879c4a-1f8e-4ca7-8a3b-195d6726be8b"},"vehicle_type_id":"4","last_reported":1740740884,"current_range_meters":15200,"station_id":"ce4bgjp2rcd13ifvqbh0","pricing_plan_id":"cebpf4jnsgd1na2vs0mg"},{"bike_id":"364b209e-752e-45ea-b26c-06b2552c1833","system_id":"levelo_inurba_marseille","lat":43.23191,"lon":5.3556,"is_reserved":false,"is_disabled":false,"rental_uris":{"android":"levelo://app?vid=364b209e-752e-45ea-b26c-06b2552c1833","ios":"levelo://app?vid=364b209e-752e-45ea-b26c-06b2552c1833"},"vehicle_type_id":"4","last_reported":1740740884,"current_range_meters":15200,"station_id":"ce4bhu92rcd13ifvqi70","pricing_plan_id":"cebpf4jnsgd1na2vs0mg"},{"bike_id":"3d811344-8892-48b8-9292-0ee1231c05f9","system_id":"levelo_inurba_marseille","lat":43.30009,"lon":5.37192,"is_reserved":false,"is_disabled":true,"rental_uris":{"android":"levelo://app?vid=3d811344-8892-48b8-9292-0ee1231c05f9","ios":"levelo://app?vid=3d811344-8892-48b8-9292-0ee1231c05f9"},"vehicle_type_id":"4","last_reported":1740740884,"current_range_meters":14800,"station_id":"","pricing_plan_id":"cebpf4jnsgd1na2vs0mg"},{"bike_id":"49e9cdc7-76a5-4b66-ae2d-61c73beb73a8","system_id":"levelo_inurba_marseille","lat":43.24169,"lon":5.36427,"is_reserved":false,"is_disabled":false,"rental_uris":{"android":"levelo://app?vid=49e9cdc7-76a5-4b66-ae2d-61c73beb73a8","ios":"levelo://app?vid=49e9cdc7-76a5-4b66-ae2d-61c73beb73a8"},"vehicle_type_id":"4","last_reported":1740740884,"current_range_meters":15200,"station_id":"cpo36qri1sfpv3e86is0","pricing_plan_id":"cebpf4jnsgd1na2vs0mg"},{"bike_id":"27f8d61f-de01-4772-8b8c-ceceaf4de61e","system_id":"levelo_inurba_marseille","lat":43.29057,"lon":5.37153,"is_reserved":false,"is_disabled":true,"rental_uris":{"android":"levelo://app?vid=27f8d61f-de01-4772-8b8c-ceceaf4de61e","ios":"levelo://app?vid=27f8d61f-de01-4772-8b8c-ceceaf4de61e"},"vehicle_type_id":"4","last_reported":1740740884,"current_range_meters":17200,"station_id":"ce4bh5p2rcd13ifvqe4g","pricing_plan_id":"cebpf4jnsgd1na2vs0mg"},{"bike_id":"420367c0-fdb7-4184-9642-593e9bc62cb3","system_id":"levelo_inurba_marseille","lat":43.30322,"lon":5.36895,"is_reserved":false,"is_disabled":false,"rental_uris":{"android":"levelo://app?vid=420367c0-fdb7-4184-9642-593e9bc62cb3","ios":"levelo://app?vid=420367c0-fdb7-4184-9642-593e9bc62cb3"},"vehicle_type_id":"4","last_reported":1740740884,"current_range_meters":15200,"station_id":"ce4bgqh2rcd13ifvqc5g","pricing_plan_id":"cebpf4jnsgd1na2vs0mg"},{"bike_id":"8b323395-5dee-4fac-a74e-f49feef77e83","system_id":"levelo_inurba_marseille","lat":43.29852,"lon":5.36267,"is_reserved":false,"is_disabled":false,"rental_uris":{"android":"levelo://app?vid=8b323395-5dee-4fac-a74e-f49feef77e83","ios":"levelo://app?vid=8b323395-5dee-4fac-a74e-f49feef77e83"},"vehicle_type_id":"4","last_reported":1740740884,"current_range_meters":16000,"station_id":"ce4bgpp2rcd13ifvqc3g","pricing_plan_id":"cebpf4jnsgd1na2vs0mg"},{"bike_id":"675e396f-142a-4a0f-a9c4-74f45b3ef2c9","system_id":"levelo_inurba_marseille","lat":43.26208,"lon":5.37439,"is_reserved":false,"is_disabled":false,"rental_uris":{"android":"levelo://app?vid=675e396f-142a-4a0f-a9c4-74f45b3ef2c9","ios":"levelo://app?vid=675e396f-142a-4a0f-a9c4-74f45b3ef2c9"},"vehicle_type_id":"4","last_reported":1740740884,"current_range_meters":16000,"station_id":"ce4bhgp2rcd13ifvqfc0","pricing_plan_id":"cebpf4jnsgd1na2vs0mg"},{"bike_id":"8df4f63a-a830-4554-8149-ef51bb507150","system_id":"levelo_inurba_marseille","lat":43.30592,"lon":5.37245,"is_reserved":false,"is_disabled":false,"rental_uris":{"android":"levelo://app?vid=8df4f63a-a830-4554-8149-ef51bb507150","ios":"levelo://app?vid=8df4f63a-a830-4554-8149-ef51bb507150"},"vehicle_type_id":"4","last_reported":1740740884,"current_range_meters":16000,"station_id":"ce4bgqh2rcd13ifvqc4g","pricing_plan_id":"cebpf4jnsgd1na2vs0mg"},{"bike_id":"6efc8275-ffc8-4f10-bbf2-20ae75df181c","system_id":"levelo_inurba_marseille","lat":43.31388,"lon":5.36728,"is_reserved":false,"is_disabled":false,"rental_uris":{"android":"levelo://app?vid=6efc8275-ffc8-4f10-bbf2-20ae75df181c","ios":"levelo://app?vid=6efc8275-ffc8-4f10-bbf2-20ae75df181c"},"vehicle_type_id":"4","last_reported":1740740884,"current_range_meters":16000,"station_id":"ce4bgr92rcd13ifvqc6g","pricing_plan_id":"cebpf4jnsgd1na2vs0mg"},{"bike_id":"c0ff170f-418c-4f35-bb5c-2b73d86fffd3","system_id":"levelo_inurba_marseille","lat":43.28685,"lon":5.38664,"is_reserved":false,"is_disabled":false,"rental_uris":{"android":"levelo://app?vid=c0ff170f-418c-4f35-bb5c-2b73d86fffd3","ios":"levelo://app?vid=c0ff170f-418c-4f35-bb5c-2b73d86fffd3"},"vehicle_type_id":"4","last_reported":1740740884,"current_range_meters":16400,"station_id":"ce4bh492rcd13ifvqdug","pricing_plan_id":"cebpf4jnsgd1na2vs0mg"},{"bike_id":"c8649755-e93f-4cda-a4ed-aa72cd8d18a8","system_id":"levelo_inurba_marseille","lat":43.28,"lon":5.40028,"is_reserved":false,"is_disabled":false,"rental_uris":{"android":"levelo://app?vid=c8649755-e93f-4cda-a4ed-aa72cd8d18a8","ios":"levelo://app?vid=c8649755-e93f-4cda-a4ed-aa72cd8d18a8"},"vehicle_type_id":"4","last_reported":1740740884,"current_range_meters":16000,"station_id":"ce4bho92rcd13ifvqh4g","pricing_plan_id":"cebpf4jnsgd1na2vs0mg"},{"bike_id":"597c78d8-1097-48db-b3be-fafc8754eab9","system_id":"levelo_inurba_marseille","lat":43.24166,"lon":5.36398,"is_reserved":false,"is_disabled":false,"rental_uris":{"android":"levelo://app?vid=597c78d8-1097-48db-b3be-fafc8754eab9","ios":"levelo://app?vid=597c78d8-1097-48db-b3be-fafc8754eab9"},"vehicle_type_id":"4","last_reported":1740740884,"current_range_meters":16000,"station_id":"cpo36qri1sfpv3e86is0","pricing_plan_id":"cebpf4jnsgd1na2vs0mg"},{"bike_id":"b64ac18b-e386-4017-a69f-d8149166eab7","system_id":"levelo_inurba_marseille","lat":43.30156,"lon":5.38081,"is_reserved":false,"is_disabled":false,"rental_uris":{"android":"levelo://app?vid=b64ac18b-e386-4017-a69f-d8149166eab7","ios":"levelo://app?vid=b64ac18b-e386-4017-a69f-d8149166eab7"},"vehicle_type_id":"4","last_reported":1740740884,"current_range_meters":16800,"station_id":"ce4bgjp2rcd13ifvqbh0","pricing_plan_id":"cebpf4jnsgd1na2vs0mg"},{"bike_id":"c84f47e5-27b1-47a9-a2d2-ba104cc1f39a","system_id":"levelo_inurba_marseille","lat":43.323558,"lon":5.367575,"is_reserved":false,"is_disabled":false,"rental_uris":{"android":"levelo://app?vid=c84f47e5-27b1-47a9-a2d2-ba104cc1f39a","ios":"levelo://app?vid=c84f47e5-27b1-47a9-a2d2-ba104cc1f39a"},"vehicle_type_id":"4","last_reported":1740740884,"current_range_meters":16400,"station_id":"ce4bhsh2rcd13ifvqi2g","pricing_plan_id":"cebpf4jnsgd1na2vs0mg"},{"bike_id":"64fc1650-f3a1-4993-be35-bbc0c55c0232","system_id":"levelo_inurba_marseille","lat":43.2781,"lon":5.36255,"is_reserved":false,"is_disabled":false,"rental_uris":{"android":"levelo://app?vid=64fc1650-f3a1-4993-be35-bbc0c55c0232","ios":"levelo://app?vid=64fc1650-f3a1-4993-be35-bbc0c55c0232"},"vehicle_type_id":"4","last_reported":1740740884,"current_range_meters":16400,"station_id":"","pricing_plan_id":"cebpf4jnsgd1na2vs0mg"},{"bike_id":"e14b89e4-e594-48d5-8dbd-a72d8c597903","system_id":"levelo_inurba_marseille","lat":43.26218,"lon":5.3744,"is_reserved":false,"is_disabled":false,"rental_uris":{"android":"levelo://app?vid=e14b89e4-e594-48d5-8dbd-a72d8c597903","ios":"levelo://app?vid=e14b89e4-e594-48d5-8dbd-a72d8c597903"},"vehicle_type_id":"4","last_reported":1740740884,"current_range_meters":16400,"station_id":"ce4bhgp2rcd13ifvqfc0","pricing_plan_id":"cebpf4jnsgd1na2vs0mg"},{"bike_id":"a8d635b8-5903-4c84-8a18-b0f4278e3f01","system_id":"levelo_inurba_marseille","lat":43.30662,"lon":5.40099,"is_reserved":false,"is_disabled":false,"rental_uris":{"android":"levelo://app?vid=a8d635b8-5903-4c84-8a18-b0f4278e3f01","ios":"levelo://app?vid=a8d635b8-5903-4c84-8a18-b0f4278e3f01"},"vehicle_type_id":"4","last_reported":1740740884,"current_range_meters":16400,"station_id":"ce4bh112rcd13ifvqda0","pricing_plan_id":"cebpf4jnsgd1na2vs0mg"},{"bike_id":"d593aa35-3fe9-4582-bd4f-2cfbcdc8b01b","system_id":"levelo_inurba_marseille","lat":43.23191,"lon":5.39981,"is_reserved":false,"is_disabled":false,"rental_uris":{"android":"levelo://app?vid=d593aa35-3fe9-4582-bd4f-2cfbcdc8b01b","ios":"levelo://app?vid=d593aa35-3fe9-4582-bd4f-2cfbcdc8b01b"},"vehicle_type_id":"4","last_reported":1740740884,"current_range_meters":16400,"station_id":"ce4bhn12rcd13ifvqgqg","pricing_plan_id":"cebpf4jnsgd1na2vs0mg"},{"bike_id":"57ec8465-c3c9-4132-bf64-41992c2bd7c6","system_id":"levelo_inurba_marseille","lat":43.31246,"lon":5.36857,"is_reserved":false,"is_disabled":false,"rental_uris":{"android":"levelo://app?vid=57ec8465-c3c9-4132-bf64-41992c2bd7c6","ios":"levelo://app?vid=57ec8465-c3c9-4132-bf64-41992c2bd7c6"},"vehicle_type_id":"4","last_reported":1740740884,"current_range_meters":16400,"station_id":"ce4bgl92rcd13ifvqbq0","pricing_plan_id":"cebpf4jnsgd1na2vs0mg"},{"bike_id":"adb8f438-ef7f-4a88-a20b-e58bb19d1859","system_id":"levelo_inurba_marseille","lat":43.32496,"lon":5.3623,"is_reserved":false,"is_disabled":true,"rental_uris":{"android":"levelo://app?vid=adb8f438-ef7f-4a88-a20b-e58bb19d1859","ios":"levelo://app?vid=adb8f438-ef7f-4a88-a20b-e58bb19d1859"},"vehicle_type_id":"4","last_reported":1740740884,"current_range_meters":16800,"station_id":"","pricing_plan_id":"cebpf4jnsgd1na2vs0mg"},{"bike_id":"cb2765a4-8835-4bc4-a4ee-79d998fd2722","system_id":"levelo_inurba_marseille","lat":43.262228,"lon":5.404544,"is_reserved":false,"is_disabled":false,"rental_uris":{"android":"levelo://app?vid=cb2765a4-8835-4bc4-a4ee-79d998fd2722","ios":"levelo://app?vid=cb2765a4-8835-4bc4-a4ee-79d998fd2722"},"vehicle_type_id":"4","last_reported":1740740884,"current_range_meters":16800,"station_id":"ce4bhmh2rcd13ifvqgmg","pricing_plan_id":"cebpf4jnsgd1na2vs0mg"},{"bike_id":"d5ddaf50-7496-4deb-ae53-972a4f97b44c","system_id":"levelo_inurba_marseille","lat":43.28993,"lon":5.35624,"is_reserved":false,"is_disabled":false,"rental_uris":{"android":"levelo://app?vid=d5ddaf50-7496-4deb-ae53-972a4f97b44c","ios":"levelo://app?vid=d5ddaf50-7496-4deb-ae53-972a4f97b44c"},"vehicle_type_id":"4","last_reported":1740740884,"current_range_meters":18800,"station_id":"ce4bhb92rcd13ifvqen0","pricing_plan_id":"cebpf4jnsgd1na2vs0mg"},{"bike_id":"695e9a27-d903-4bbc-b050-bcc463be80aa","system_id":"levelo_inurba_marseille","lat":43.24171,"lon":5.36425,"is_reserved":false,"is_disabled":false,"rental_uris":{"android":"levelo://app?vid=695e9a27-d903-4bbc-b050-bcc463be80aa","ios":"levelo://app?vid=695e9a27-d903-4bbc-b050-bcc463be80aa"},"vehicle_type_id":"4","last_reported":1740740884,"current_range_meters":16800,"station_id":"cpo36qri1sfpv3e86is0","pricing_plan_id":"cebpf4jnsgd1na2vs0mg"},{"bike_id":"86b7ab3e-622c-4fb7-96e4-176deecc02dc","system_id":"levelo_inurba_marseille","lat":43.26555,"lon":5.37285,"is_reserved":false,"is_disabled":false,"rental_uris":{"android":"levelo://app?vid=86b7ab3e-622c-4fb7-96e4-176deecc02dc","ios":"levelo://app?vid=86b7ab3e-622c-4fb7-96e4-176deecc02dc"},"vehicle_type_id":"4","last_reported":1740740884,"current_range_meters":16800,"station_id":"ce4bhg12rcd13ifvqf70","pricing_plan_id":"cebpf4jnsgd1na2vs0mg"},{"bike_id":"4f27def9-9f4b-46d5-98cd-ff33f940bcfa","system_id":"levelo_inurba_marseille","lat":43.26957,"lon":5.38661,"is_reserved":false,"is_disabled":false,"rental_uris":{"android":"levelo://app?vid=4f27def9-9f4b-46d5-98cd-ff33f940bcfa","ios":"levelo://app?vid=4f27def9-9f4b-46d5-98cd-ff33f940bcfa"},"vehicle_type_id":"4","last_reported":1740740884,"current_range_meters":16800,"station_id":"ce4bhh92rcd13ifvqfh0","pricing_plan_id":"cebpf4jnsgd1na2vs0mg"},{"bike_id":"c1a63d1d-81ed-4fe4-9f47-37f851f60f85","system_id":"levelo_inurba_marseille","lat":43.30146,"lon":5.38082,"is_reserved":false,"is_disabled":false,"rental_uris":{"android":"levelo://app?vid=c1a63d1d-81ed-4fe4-9f47-37f851f60f85","ios":"levelo://app?vid=c1a63d1d-81ed-4fe4-9f47-37f851f60f85"},"vehicle_type_id":"4","last_reported":1740740884,"current_range_meters":16800,"station_id":"ce4bgjp2rcd13ifvqbh0","pricing_plan_id":"cebpf4jnsgd1na2vs0mg"},{"bike_id":"d4bd8a8b-d7bf-4c05-b31a-2fd957b6a9e7","system_id":"levelo_inurba_marseille","lat":43.26064,"lon":5.394,"is_reserved":false,"is_disabled":false,"rental_uris":{"android":"levelo://app?vid=d4bd8a8b-d7bf-4c05-b31a-2fd957b6a9e7","ios":"levelo://app?vid=d4bd8a8b-d7bf-4c05-b31a-2fd957b6a9e7"},"vehicle_type_id":"4","last_reported":1740740884,"current_range_meters":16800,"station_id":"ce4bhh92rcd13ifvqfj0","pricing_plan_id":"cebpf4jnsgd1na2vs0mg"},{"bike_id":"04738e49-d0fa-43ea-ad90-692e239f16d8","system_id":"levelo_inurba_marseille","lat":43.28159,"lon":5.42651,"is_reserved":false,"is_disabled":false,"rental_uris":{"android":"levelo://app?vid=04738e49-d0fa-43ea-ad90-692e239f16d8","ios":"levelo://app?vid=04738e49-d0fa-43ea-ad90-692e239f16d8"},"vehicle_type_id":"4","last_reported":1740740884,"current_range_meters":16800,"station_id":"ce4bhnh2rcd13ifvqgug","pricing_plan_id":"cebpf4jnsgd1na2vs0mg"},{"bike_id":"0d7c47cd-8076-482b-b32a-7b42bea1d212","system_id":"levelo_inurba_marseille","lat":43.32,"lon":5.38167,"is_reserved":false,"is_disabled":false,"rental_uris":{"android":"levelo://app?vid=0d7c47cd-8076-482b-b32a-7b42bea1d212","ios":"levelo://app?vid=0d7c47cd-8076-482b-b32a-7b42bea1d212"},"vehicle_type_id":"4","last_reported":1740740884,"current_range_meters":16800,"station_id":"ce4bhr12rcd13ifvqhpg","pricing_plan_id":"cebpf4jnsgd1na2vs0mg"},{"bike_id":"0693b9d6-4a9d-4e38-bfa2-80f934bcc2e3","system_id":"levelo_inurba_marseille","lat":43.24176,"lon":5.36398,"is_reserved":false,"is_disabled":false,"rental_uris":{"android":"levelo://app?vid=0693b9d6-4a9d-4e38-bfa2-80f934bcc2e3","ios":"levelo://app?vid=0693b9d6-4a9d-4e38-bfa2-80f934bcc2e3"},"vehicle_type_id":"4","last_reported":1740740884,"current_range_meters":17200,"station_id":"cpo36qri1sfpv3e86is0","pricing_plan_id":"cebpf4jnsgd1na2vs0mg"},{"bike_id":"b9f3eecf-ac65-48ae-8e31-574335869279","system_id":"levelo_inurba_marseille","lat":43.28483,"lon":5.38538,"is_reserved":false,"is_disabled":false,"rental_uris":{"android":"levelo://app?vid=b9f3eecf-ac65-48ae-8e31-574335869279","ios":"levelo://app?vid=b9f3eecf-ac65-48ae-8e31-574335869279"},"vehicle_type_id":"4","last_reported":1740740884,"current_range_meters":17200,"station_id":"ce4bh8p2rcd13ifvqeb0","pricing_plan_id":"cebpf4jnsgd1na2vs0mg"},{"bike_id":"3c5ad829-4f18-4913-9225-70e2b636b9b9","system_id":"levelo_inurba_marseille","lat":43.32494,"lon":5.36595,"is_reserved":false,"is_disabled":false,"rental_uris":{"android":"levelo://app?vid=3c5ad829-4f18-4913-9225-70e2b636b9b9","ios":"levelo://app?vid=3c5ad829-4f18-4913-9225-70e2b636b9b9"},"vehicle_type_id":"4","last_reported":1740740884,"current_range_meters":17200,"station_id":"ce4bhs12rcd13ifvqhvg","pricing_plan_id":"cebpf4jnsgd1na2vs0mg"},{"bike_id":"8c86cb21-5e53-44c8-a766-70640a93721c","system_id":"levelo_inurba_marseille","lat":43.2916,"lon":5.37552,"is_reserved":false,"is_disabled":false,"rental_uris":{"android":"levelo://app?vid=8c86cb21-5e53-44c8-a766-70640a93721c","ios":"levelo://app?vid=8c86cb21-5e53-44c8-a766-70640a93721c"},"vehicle_type_id":"4","last_reported":1740740884,"current_range_meters":17200,"station_id":"","pricing_plan_id":"cebpf4jnsgd1na2vs0mg"},{"bike_id":"a43d23d2-0d6e-4cf7-8691-8ab079a8ff69","system_id":"levelo_inurba_marseille","lat":43.2993,"lon":5.43651,"is_reserved":false,"is_disabled":false,"rental_uris":{"android":"levelo://app?vid=a43d23d2-0d6e-4cf7-8691-8ab079a8ff69","ios":"levelo://app?vid=a43d23d2-0d6e-4cf7-8691-8ab079a8ff69"},"vehicle_type_id":"4","last_reported":1740740884,"current_range_meters":17200,"station_id":"","pricing_plan_id":"cebpf4jnsgd1na2vs0mg"},{"bike_id":"4015c440-7267-44b4-8be2-f4b87cb51aa9","system_id":"levelo_inurba_marseille","lat":43.25592,"lon":5.38244,"is_reserved":false,"is_disabled":false,"rental_uris":{"android":"levelo://app?vid=4015c440-7267-44b4-8be2-f4b87cb51aa9","ios":"levelo://app?vid=4015c440-7267-44b4-8be2-f4b87cb51aa9"},"vehicle_type_id":"4","last_reported":1740740884,"current_range_meters":17200,"station_id":"ce4bhih2rcd13ifvqfs0","pricing_plan_id":"cebpf4jnsgd1na2vs0mg"},{"bike_id":"766f9252-76ba-4151-9194-6d162e66f1d3","system_id":"levelo_inurba_marseille","lat":43.24816,"lon":5.37454,"is_reserved":false,"is_disabled":false,"rental_uris":{"android":"levelo://app?vid=766f9252-76ba-4151-9194-6d162e66f1d3","ios":"levelo://app?vid=766f9252-76ba-4151-9194-6d162e66f1d3"},"vehicle_type_id":"4","last_reported":1740740884,"current_range_meters":17200,"station_id":"ce4bhgh2rcd13ifvqfb0","pricing_plan_id":"cebpf4jnsgd1na2vs0mg"},{"bike_id":"a285cf3a-f34b-463b-9ca6-c83fa8218c02","system_id":"levelo_inurba_marseille","lat":43.29673,"lon":5.37294,"is_reserved":false,"is_disabled":false,"rental_uris":{"android":"levelo://app?vid=a285cf3a-f34b-463b-9ca6-c83fa8218c02","ios":"levelo://app?vid=a285cf3a-f34b-463b-9ca6-c83fa8218c02"},"vehicle_type_id":"4","last_reported":1740740884,"current_range_meters":17200,"station_id":"ce4bgk12rcd13ifvqbj0","pricing_plan_id":"cebpf4jnsgd1na2vs0mg"},{"bike_id":"3b51f321-7860-478d-8dcb-446f467539e5","system_id":"levelo_inurba_marseille","lat":43.31248,"lon":5.36838,"is_reserved":false,"is_disabled":false,"rental_uris":{"android":"levelo://app?vid=3b51f321-7860-478d-8dcb-446f467539e5","ios":"levelo://app?vid=3b51f321-7860-478d-8dcb-446f467539e5"},"vehicle_type_id":"4","last_reported":1740740884,"current_range_meters":17600,"station_id":"ce4bgl92rcd13ifvqbq0","pricing_plan_id":"cebpf4jnsgd1na2vs0mg"},{"bike_id":"f9f6bb57-d9a4-471d-95a7-50892c4dbabd","system_id":"levelo_inurba_marseille","lat":43.29851,"lon":5.36292,"is_reserved":false,"is_disabled":false,"rental_uris":{"android":"levelo://app?vid=f9f6bb57-d9a4-471d-95a7-50892c4dbabd","ios":"levelo://app?vid=f9f6bb57-d9a4-471d-95a7-50892c4dbabd"},"vehicle_type_id":"4","last_reported":1740740884,"current_range_meters":17200,"station_id":"ce4bgpp2rcd13ifvqc3g","pricing_plan_id":"cebpf4jnsgd1na2vs0mg"},{"bike_id":"8d91c655-19ff-47c9-a3e3-8857cd75c678","system_id":"levelo_inurba_marseille","lat":43.24812,"lon":5.37461,"is_reserved":false,"is_disabled":false,"rental_uris":{"android":"levelo://app?vid=8d91c655-19ff-47c9-a3e3-8857cd75c678","ios":"levelo://app?vid=8d91c655-19ff-47c9-a3e3-8857cd75c678"},"vehicle_type_id":"4","last_reported":1740740884,"current_range_meters":17200,"station_id":"ce4bhgh2rcd13ifvqfb0","pricing_plan_id":"cebpf4jnsgd1na2vs0mg"},{"bike_id":"ffaf6f36-9a5d-4aa5-acd6-d8f501231aa0","system_id":"levelo_inurba_marseille","lat":43.285702,"lon":5.385612,"is_reserved":false,"is_disabled":false,"rental_uris":{"android":"levelo://app?vid=ffaf6f36-9a5d-4aa5-acd6-d8f501231aa0","ios":"levelo://app?vid=ffaf6f36-9a5d-4aa5-acd6-d8f501231aa0"},"vehicle_type_id":"4","last_reported":1740740884,"current_range_meters":16800,"station_id":"ce4bhah2rcd13ifvqei0","pricing_plan_id":"cebpf4jnsgd1na2vs0mg"},{"bike_id":"8b383fad-f10f-4d6c-aa72-edd1d8053e2b","system_id":"levelo_inurba_marseille","lat":43.30367,"lon":5.37206,"is_reserved":false,"is_disabled":false,"rental_uris":{"android":"levelo://app?vid=8b383fad-f10f-4d6c-aa72-edd1d8053e2b","ios":"levelo://app?vid=8b383fad-f10f-4d6c-aa72-edd1d8053e2b"},"vehicle_type_id":"4","last_reported":1740740884,"current_range_meters":18000,"station_id":"","pricing_plan_id":"cebpf4jnsgd1na2vs0mg"},{"bike_id":"7530a028-687c-44db-bbdb-6e3fe3b9b1e1","system_id":"levelo_inurba_marseille","lat":43.30914,"lon":5.3686,"is_reserved":false,"is_disabled":false,"rental_uris":{"android":"levelo://app?vid=7530a028-687c-44db-bbdb-6e3fe3b9b1e1","ios":"levelo://app?vid=7530a028-687c-44db-bbdb-6e3fe3b9b1e1"},"vehicle_type_id":"4","last_reported":1740740884,"current_range_meters":17600,"station_id":"ce4bgn92rcd13ifvqbvg","pricing_plan_id":"cebpf4jnsgd1na2vs0mg"},{"bike_id":"085d28c3-d678-460a-a2b0-03561e14272e","system_id":"levelo_inurba_marseille","lat":43.32125,"lon":5.36758,"is_reserved":false,"is_disabled":false,"rental_uris":{"android":"levelo://app?vid=085d28c3-d678-460a-a2b0-03561e14272e","ios":"levelo://app?vid=085d28c3-d678-460a-a2b0-03561e14272e"},"vehicle_type_id":"4","last_reported":1740740884,"current_range_meters":17600,"station_id":"ce4bhrh2rcd13ifvqhug","pricing_plan_id":"cebpf4jnsgd1na2vs0mg"},{"bike_id":"25e89ac1-d6d0-41be-86e5-48f8b7f864e8","system_id":"levelo_inurba_marseille","lat":43.31341,"lon":5.3673,"is_reserved":false,"is_disabled":false,"rental_uris":{"android":"levelo://app?vid=25e89ac1-d6d0-41be-86e5-48f8b7f864e8","ios":"levelo://app?vid=25e89ac1-d6d0-41be-86e5-48f8b7f864e8"},"vehicle_type_id":"4","last_reported":1740740884,"current_range_meters":18000,"station_id":"ce4bgr92rcd13ifvqc6g","pricing_plan_id":"cebpf4jnsgd1na2vs0mg"},{"bike_id":"73054380-c047-46f0-aa7c-0ba092f2ca89","system_id":"levelo_inurba_marseille","lat":43.30309,"lon":5.3689,"is_reserved":false,"is_disabled":false,"rental_uris":{"android":"levelo://app?vid=73054380-c047-46f0-aa7c-0ba092f2ca89","ios":"levelo://app?vid=73054380-c047-46f0-aa7c-0ba092f2ca89"},"vehicle_type_id":"4","last_reported":1740740884,"current_range_meters":17600,"station_id":"ce4bgqh2rcd13ifvqc5g","pricing_plan_id":"cebpf4jnsgd1na2vs0mg"},{"bike_id":"fd1afb46-7763-4076-9ec8-e3ab3ebcdeba","system_id":"levelo_inurba_marseille","lat":43.30571,"lon":5.36692,"is_reserved":false,"is_disabled":false,"rental_uris":{"android":"levelo://app?vid=fd1afb46-7763-4076-9ec8-e3ab3ebcdeba","ios":"levelo://app?vid=fd1afb46-7763-4076-9ec8-e3ab3ebcdeba"},"vehicle_type_id":"4","last_reported":1740740884,"current_range_meters":17600,"station_id":"ce4bgrp2rcd13ifvqc9g","pricing_plan_id":"cebpf4jnsgd1na2vs0mg"},{"bike_id":"7f2a3035-d3a9-4b03-b15f-6b46856b23cc","system_id":"levelo_inurba_marseille","lat":43.28146,"lon":5.42643,"is_reserved":false,"is_disabled":false,"rental_uris":{"android":"levelo://app?vid=7f2a3035-d3a9-4b03-b15f-6b46856b23cc","ios":"levelo://app?vid=7f2a3035-d3a9-4b03-b15f-6b46856b23cc"},"vehicle_type_id":"4","last_reported":1740740884,"current_range_meters":17600,"station_id":"ce4bhnh2rcd13ifvqgug","pricing_plan_id":"cebpf4jnsgd1na2vs0mg"},{"bike_id":"b92189b5-a527-4745-841f-5b7dc999b18d","system_id":"levelo_inurba_marseille","lat":43.29701,"lon":5.36604,"is_reserved":false,"is_disabled":false,"rental_uris":{"android":"levelo://app?vid=b92189b5-a527-4745-841f-5b7dc999b18d","ios":"levelo://app?vid=b92189b5-a527-4745-841f-5b7dc999b18d"},"vehicle_type_id":"4","last_reported":1740740884,"current_range_meters":17200,"station_id":"ce4bgn12rcd13ifvqbt0","pricing_plan_id":"cebpf4jnsgd1na2vs0mg"},{"bike_id":"e6cba55c-9514-43d2-ac16-6dc1b2dcf70f","system_id":"levelo_inurba_marseille","lat":43.27815,"lon":5.4072,"is_reserved":false,"is_disabled":false,"rental_uris":{"android":"levelo://app?vid=e6cba55c-9514-43d2-ac16-6dc1b2dcf70f","ios":"levelo://app?vid=e6cba55c-9514-43d2-ac16-6dc1b2dcf70f"},"vehicle_type_id":"4","last_reported":1740740884,"current_range_meters":17600,"station_id":"ce4bhnh2rcd13ifvqgtg","pricing_plan_id":"cebpf4jnsgd1na2vs0mg"},{"bike_id":"6ca6c9b6-fa84-4456-b3e9-c07b9295842c","system_id":"levelo_inurba_marseille","lat":43.29906,"lon":5.38157,"is_reserved":false,"is_disabled":false,"rental_uris":{"android":"levelo://app?vid=6ca6c9b6-fa84-4456-b3e9-c07b9295842c","ios":"levelo://app?vid=6ca6c9b6-fa84-4456-b3e9-c07b9295842c"},"vehicle_type_id":"4","last_reported":1740740884,"current_range_meters":17600,"station_id":"ce4bgj12rcd13ifvqbc0","pricing_plan_id":"cebpf4jnsgd1na2vs0mg"},{"bike_id":"a593347e-3373-4cfa-8b1d-93a99dd1b13d","system_id":"levelo_inurba_marseille","lat":43.27569,"lon":5.38418,"is_reserved":false,"is_disabled":false,"rental_uris":{"android":"levelo://app?vid=a593347e-3373-4cfa-8b1d-93a99dd1b13d","ios":"levelo://app?vid=a593347e-3373-4cfa-8b1d-93a99dd1b13d"},"vehicle_type_id":"4","last_reported":1740740884,"current_range_meters":18000,"station_id":"ce4bhh92rcd13ifvqfi0","pricing_plan_id":"cebpf4jnsgd1na2vs0mg"},{"bike_id":"d29d2463-4b6b-49e7-ae94-090be811582e","system_id":"levelo_inurba_marseille","lat":43.25002,"lon":5.38929,"is_reserved":false,"is_disabled":false,"rental_uris":{"android":"levelo://app?vid=d29d2463-4b6b-49e7-ae94-090be811582e","ios":"levelo://app?vid=d29d2463-4b6b-49e7-ae94-090be811582e"},"vehicle_type_id":"4","last_reported":1740740884,"current_range_meters":17600,"station_id":"ce4bhgp2rcd13ifvqfd0","pricing_plan_id":"cebpf4jnsgd1na2vs0mg"},{"bike_id":"def9e2a0-5e7a-433a-86cc-874309487989","system_id":"levelo_inurba_marseille","lat":43.30529,"lon":5.36526,"is_reserved":false,"is_disabled":false,"rental_uris":{"android":"levelo://app?vid=def9e2a0-5e7a-433a-86cc-874309487989","ios":"levelo://app?vid=def9e2a0-5e7a-433a-86cc-874309487989"},"vehicle_type_id":"4","last_reported":1740740884,"current_range_meters":17200,"station_id":"ce4bgs12rcd13ifvqcag","pricing_plan_id":"cebpf4jnsgd1na2vs0mg"},{"bike_id":"fdef45c0-021d-4644-a138-bbed4f17dcfe","system_id":"levelo_inurba_marseille","lat":43.282695,"lon":5.350543,"is_reserved":false,"is_disabled":false,"rental_uris":{"android":"levelo://app?vid=fdef45c0-021d-4644-a138-bbed4f17dcfe","ios":"levelo://app?vid=fdef45c0-021d-4644-a138-bbed4f17dcfe"},"vehicle_type_id":"4","last_reported":1740740884,"current_range_meters":18000,"station_id":"ce4bhbp2rcd13ifvqerg","pricing_plan_id":"cebpf4jnsgd1na2vs0mg"},{"bike_id":"32ceb2c3-2f3b-4092-8d32-8ede67e0cd39","system_id":"levelo_inurba_marseille","lat":43.29916,"lon":5.43644,"is_reserved":false,"is_disabled":false,"rental_uris":{"android":"levelo://app?vid=32ceb2c3-2f3b-4092-8d32-8ede67e0cd39","ios":"levelo://app?vid=32ceb2c3-2f3b-4092-8d32-8ede67e0cd39"},"vehicle_type_id":"4","last_reported":1740740884,"current_range_meters":18000,"station_id":"ce4bhpp2rcd13ifvqhfg","pricing_plan_id":"cebpf4jnsgd1na2vs0mg"},{"bike_id":"547548cb-64d7-4285-9a6f-6a836e8a1c2f","system_id":"levelo_inurba_marseille","lat":43.29532,"lon":5.37494,"is_reserved":false,"is_disabled":false,"rental_uris":{"android":"levelo://app?vid=547548cb-64d7-4285-9a6f-6a836e8a1c2f","ios":"levelo://app?vid=547548cb-64d7-4285-9a6f-6a836e8a1c2f"},"vehicle_type_id":"4","last_reported":1740740884,"current_range_meters":18000,"station_id":"ce4bgkp2rcd13ifvqbmg","pricing_plan_id":"cebpf4jnsgd1na2vs0mg"},{"bike_id":"a9c77d76-560e-4582-a61a-947ce97d40af","system_id":"levelo_inurba_marseille","lat":43.29584,"lon":5.36747,"is_reserved":false,"is_disabled":false,"rental_uris":{"android":"levelo://app?vid=a9c77d76-560e-4582-a61a-947ce97d40af","ios":"levelo://app?vid=a9c77d76-560e-4582-a61a-947ce97d40af"},"vehicle_type_id":"4","last_reported":1740740884,"current_range_meters":18000,"station_id":"ce4bgph2rcd13ifvqc2g","pricing_plan_id":"cebpf4jnsgd1na2vs0mg"},{"bike_id":"2c94aabd-26bb-48bd-93d6-5144b0cb7d45","system_id":"levelo_inurba_marseille","lat":43.28413,"lon":5.34983,"is_reserved":false,"is_disabled":false,"rental_uris":{"android":"levelo://app?vid=2c94aabd-26bb-48bd-93d6-5144b0cb7d45","ios":"levelo://app?vid=2c94aabd-26bb-48bd-93d6-5144b0cb7d45"},"vehicle_type_id":"4","last_reported":1740740884,"current_range_meters":18800,"station_id":"ce4bhbh2rcd13ifvqepg","pricing_plan_id":"cebpf4jnsgd1na2vs0mg"},{"bike_id":"b9286100-9f76-4cd7-8e5c-52eab453158d","system_id":"levelo_inurba_marseille","lat":43.313965,"lon":5.367033,"is_reserved":false,"is_disabled":false,"rental_uris":{"android":"levelo://app?vid=b9286100-9f76-4cd7-8e5c-52eab453158d","ios":"levelo://app?vid=b9286100-9f76-4cd7-8e5c-52eab453158d"},"vehicle_type_id":"4","last_reported":1740740884,"current_range_meters":18000,"station_id":"","pricing_plan_id":"cebpf4jnsgd1na2vs0mg"},{"bike_id":"52ff85a7-1503-4e26-8085-7f0aa8eab6a8","system_id":"levelo_inurba_marseille","lat":43.28712,"lon":5.36095,"is_reserved":false,"is_disabled":false,"rental_uris":{"android":"levelo://app?vid=52ff85a7-1503-4e26-8085-7f0aa8eab6a8","ios":"levelo://app?vid=52ff85a7-1503-4e26-8085-7f0aa8eab6a8"},"vehicle_type_id":"4","last_reported":1740740884,"current_range_meters":18800,"station_id":"cki0cbj6b192h4jlfktg","pricing_plan_id":"cebpf4jnsgd1na2vs0mg"},{"bike_id":"70ddaebc-7fa8-4d76-8c30-03612d289ec1","system_id":"levelo_inurba_marseille","lat":43.28611,"lon":5.35093,"is_reserved":false,"is_disabled":false,"rental_uris":{"android":"levelo://app?vid=70ddaebc-7fa8-4d76-8c30-03612d289ec1","ios":"levelo://app?vid=70ddaebc-7fa8-4d76-8c30-03612d289ec1"},"vehicle_type_id":"4","last_reported":1740740884,"current_range_meters":18800,"station_id":"ce4bhch2rcd13ifvqeug","pricing_plan_id":"cebpf4jnsgd1na2vs0mg"},{"bike_id":"e3b9b7c4-e6c5-4fed-98fe-467d95aa23c6","system_id":"levelo_inurba_marseille","lat":43.22925,"lon":5.35373,"is_reserved":false,"is_disabled":true,"rental_uris":{"android":"levelo://app?vid=e3b9b7c4-e6c5-4fed-98fe-467d95aa23c6","ios":"levelo://app?vid=e3b9b7c4-e6c5-4fed-98fe-467d95aa23c6"},"vehicle_type_id":"4","last_reported":1740740884,"current_range_meters":18800,"station_id":"cpo3532slgdg3j2ikp40","pricing_plan_id":"cebpf4jnsgd1na2vs0mg"},{"bike_id":"1be015a1-7a67-4d46-b0be-64073b6e5930","system_id":"levelo_inurba_marseille","lat":43.27375,"lon":5.36248,"is_reserved":false,"is_disabled":false,"rental_uris":{"android":"levelo://app?vid=1be015a1-7a67-4d46-b0be-64073b6e5930","ios":"levelo://app?vid=1be015a1-7a67-4d46-b0be-64073b6e5930"},"vehicle_type_id":"4","last_reported":1740740884,"current_range_meters":18800,"station_id":"ce4bhbh2rcd13ifvqeo0","pricing_plan_id":"cebpf4jnsgd1na2vs0mg"},{"bike_id":"e6b9ecd6-8e2c-4698-9c82-03f9f63183b9","system_id":"levelo_inurba_marseille","lat":43.30802,"lon":5.38151,"is_reserved":false,"is_disabled":false,"rental_uris":{"android":"levelo://app?vid=e6b9ecd6-8e2c-4698-9c82-03f9f63183b9","ios":"levelo://app?vid=e6b9ecd6-8e2c-4698-9c82-03f9f63183b9"},"vehicle_type_id":"4","last_reported":1740740884,"current_range_meters":18000,"station_id":"ce4bgt12rcd13ifvqce0","pricing_plan_id":"cebpf4jnsgd1na2vs0mg"},{"bike_id":"38f5ae74-ed7e-467e-b239-39e2a7c7495b","system_id":"levelo_inurba_marseille","lat":43.280859,"lon":5.396412,"is_reserved":false,"is_disabled":false,"rental_uris":{"android":"levelo://app?vid=38f5ae74-ed7e-467e-b239-39e2a7c7495b","ios":"levelo://app?vid=38f5ae74-ed7e-467e-b239-39e2a7c7495b"},"vehicle_type_id":"4","last_reported":1740740884,"current_range_meters":19600,"station_id":"ce4bho12rcd13ifvqh2g","pricing_plan_id":"cebpf4jnsgd1na2vs0mg"},{"bike_id":"0b3c7a62-1fb3-4768-a862-eb1ceb1142c7","system_id":"levelo_inurba_marseille","lat":43.29847,"lon":5.36281,"is_reserved":false,"is_disabled":false,"rental_uris":{"android":"levelo://app?vid=0b3c7a62-1fb3-4768-a862-eb1ceb1142c7","ios":"levelo://app?vid=0b3c7a62-1fb3-4768-a862-eb1ceb1142c7"},"vehicle_type_id":"4","last_reported":1740740884,"current_range_meters":19200,"station_id":"ce4bgpp2rcd13ifvqc3g","pricing_plan_id":"cebpf4jnsgd1na2vs0mg"},{"bike_id":"6604308f-4355-481c-8d27-f7e262a5f13e","system_id":"levelo_inurba_marseille","lat":43.30605,"lon":5.37222,"is_reserved":false,"is_disabled":false,"rental_uris":{"android":"levelo://app?vid=6604308f-4355-481c-8d27-f7e262a5f13e","ios":"levelo://app?vid=6604308f-4355-481c-8d27-f7e262a5f13e"},"vehicle_type_id":"4","last_reported":1740740884,"current_range_meters":19200,"station_id":"ce4bgqh2rcd13ifvqc4g","pricing_plan_id":"cebpf4jnsgd1na2vs0mg"},{"bike_id":"35eec5f5-03f4-48d8-98a3-cffff77cf3eb","system_id":"levelo_inurba_marseille","lat":43.26554,"lon":5.37282,"is_reserved":false,"is_disabled":false,"rental_uris":{"android":"levelo://app?vid=35eec5f5-03f4-48d8-98a3-cffff77cf3eb","ios":"levelo://app?vid=35eec5f5-03f4-48d8-98a3-cffff77cf3eb"},"vehicle_type_id":"4","last_reported":1740740884,"current_range_meters":19200,"station_id":"ce4bhg12rcd13ifvqf70","pricing_plan_id":"cebpf4jnsgd1na2vs0mg"},{"bike_id":"e5d40e12-3b39-4fb1-8f6a-c6c20f849fed","system_id":"levelo_inurba_marseille","lat":43.29909,"lon":5.38127,"is_reserved":false,"is_disabled":false,"rental_uris":{"android":"levelo://app?vid=e5d40e12-3b39-4fb1-8f6a-c6c20f849fed","ios":"levelo://app?vid=e5d40e12-3b39-4fb1-8f6a-c6c20f849fed"},"vehicle_type_id":"4","last_reported":1740740884,"current_range_meters":19600,"station_id":"ce4bgj12rcd13ifvqbc0","pricing_plan_id":"cebpf4jnsgd1na2vs0mg"},{"bike_id":"b47b4a3a-e02d-4183-a6db-318da2892376","system_id":"levelo_inurba_marseille","lat":43.23174,"lon":5.3999,"is_reserved":false,"is_disabled":false,"rental_uris":{"android":"levelo://app?vid=b47b4a3a-e02d-4183-a6db-318da2892376","ios":"levelo://app?vid=b47b4a3a-e02d-4183-a6db-318da2892376"},"vehicle_type_id":"4","last_reported":1740740884,"current_range_meters":18800,"station_id":"ce4bhn12rcd13ifvqgqg","pricing_plan_id":"cebpf4jnsgd1na2vs0mg"},{"bike_id":"5163e503-2d54-4c5e-89cb-69e752fce66b","system_id":"levelo_inurba_marseille","lat":43.2499,"lon":5.38941,"is_reserved":false,"is_disabled":false,"rental_uris":{"android":"levelo://app?vid=5163e503-2d54-4c5e-89cb-69e752fce66b","ios":"levelo://app?vid=5163e503-2d54-4c5e-89cb-69e752fce66b"},"vehicle_type_id":"4","last_reported":1740740884,"current_range_meters":19600,"station_id":"ce4bhgp2rcd13ifvqfd0","pricing_plan_id":"cebpf4jnsgd1na2vs0mg"},{"bike_id":"b3093e8c-34c8-43f7-b829-5d8860f0be1e","system_id":"levelo_inurba_marseille","lat":43.26075,"lon":5.39386,"is_reserved":false,"is_disabled":false,"rental_uris":{"android":"levelo://app?vid=b3093e8c-34c8-43f7-b829-5d8860f0be1e","ios":"levelo://app?vid=b3093e8c-34c8-43f7-b829-5d8860f0be1e"},"vehicle_type_id":"4","last_reported":1740740884,"current_range_meters":20000,"station_id":"ce4bhh92rcd13ifvqfj0","pricing_plan_id":"cebpf4jnsgd1na2vs0mg"},{"bike_id":"92308d5c-dd27-4e16-b2f3-59999cab52ea","system_id":"levelo_inurba_marseille","lat":43.29764,"lon":5.37101,"is_reserved":false,"is_disabled":false,"rental_uris":{"android":"levelo://app?vid=92308d5c-dd27-4e16-b2f3-59999cab52ea","ios":"levelo://app?vid=92308d5c-dd27-4e16-b2f3-59999cab52ea"},"vehicle_type_id":"4","last_reported":1740740884,"current_range_meters":19200,"station_id":"ce4bgop2rcd13ifvqc1g","pricing_plan_id":"cebpf4jnsgd1na2vs0mg"},{"bike_id":"63cac712-0fe2-4b48-886b-3ed260a01f6d","system_id":"levelo_inurba_marseille","lat":43.2893,"lon":5.36409,"is_reserved":false,"is_disabled":true,"rental_uris":{"android":"levelo://app?vid=63cac712-0fe2-4b48-886b-3ed260a01f6d","ios":"levelo://app?vid=63cac712-0fe2-4b48-886b-3ed260a01f6d"},"vehicle_type_id":"4","last_reported":1740740884,"current_range_meters":19600,"station_id":"ce4bhc92rcd13ifvqetg","pricing_plan_id":"cebpf4jnsgd1na2vs0mg"},{"bike_id":"5272690c-dd41-407b-b850-fdfec2df2331","system_id":"levelo_inurba_marseille","lat":43.30295,"lon":5.39219,"is_reserved":false,"is_disabled":false,"rental_uris":{"android":"levelo://app?vid=5272690c-dd41-407b-b850-fdfec2df2331","ios":"levelo://app?vid=5272690c-dd41-407b-b850-fdfec2df2331"},