{"last_updated":1742324872,"ttl":60,"version":"2.2","data":{"bikes":[{"bike_id":"1d81a048-a6d6-4732-bc96-422394fc0cdd","system_id":"levelo_inurba_marseille","lat":43.27318,"lon":5.39109,"is_reserved":false,"is_disabled":true,"rental_uris":{"android":"levelo://app?vid=1d81a048-a6d6-4732-bc96-422394fc0cdd","ios":"levelo://app?vid=1d81a048-a6d6-4732-bc96-422394fc0cdd"},"vehicle_type_id":"4","last_reported":1742324872,"current_range_meters":2800,"station_id":"ce4bhgp2rcd13ifvqfe0","pricing_plan_id":"cebpf4jnsgd1na2vs0mg"},{"bike_id":"521bb4d0-42b4-4fdf-bfe1-5f5521e06ae4","system_id":"levelo_inurba_marseille","lat":43.29024,"lon":5.38644,"is_reserved":false,"is_disabled":false,"rental_uris":{"android":"levelo://app?vid=521bb4d0-42b4-4fdf-bfe1-5f5521e06ae4","ios":"levelo://app?vid=521bb4d0-42b4-4fdf-bfe1-5f5521e06ae4"},"vehicle_type_id":"4","last_reported":1742324872,"current_range_meters":2800,"station_id":"ce4bh4p2rcd13ifvqe0g","pricing_plan_id":"cebpf4jnsgd1na2vs0mg"},{"bike_id":"4b8804d0-5aca-4ced-a960-65f8ebd90dde","system_id":"levelo_inurba_marseille","lat":43.31112,"lon":5.37763,"is_reserved":false,"is_disabled":false,"rental_uris":{"android":"levelo://app?vid=4b8804d0-5aca-4ced-a960-65f8ebd90dde","ios":"levelo://app?vid=4b8804d0-5aca-4ced-a960-65f8ebd90dde"},"vehicle_type_id":"4","last_reported":1742324872,"current_range_meters":2800,"station_id":"ce4bgt92rcd13ifvqcg0","pricing_plan_id":"cebpf4jnsgd1na2vs0mg"},{"bike_id":"f6a557d8-f1cd-4b87-adbe-977c692a8b17","system_id":"levelo_inurba_marseille","lat":43.28707,"lon":5.3741,"is_reserved":false,"is_disabled":false,"rental_uris":{"android":"levelo://app?vid=f6a557d8-f1cd-4b87-adbe-977c692a8b17","ios":"levelo://app?vid=f6a557d8-f1cd-4b87-adbe-977c692a8b17"},"vehicle_type_id":"4","last_reported":1742324872,"current_range_meters":2800,"station_id":"ce4bh3p2rcd13ifvqdq0","pricing_plan_id":"cebpf4jnsgd1na2vs0mg"},{"bike_id":"cd76088d-3ea6-40a2-b281-5c844b31c02d","system_id":"levelo_inurba_marseille","lat":43.29365,"lon":5.37849,"is_reserved":false,"is_disabled":false,"rental_uris":{"android":"levelo://app?vid=cd76088d-3ea6-40a2-b281-5c844b31c02d","ios":"levelo://app?vid=cd76088d-3ea6-40a2-b281-5c844b31c02d"},"vehicle_type_id":"4","last_reported":1742324872,"current_range_meters":2800,"station_id":"ce4bgjh2rcd13ifvqbf0","pricing_plan_id":"cebpf4jnsgd1na2vs0mg"},{"bike_id":"495341db-a2b2-49f7-9ed9-3fdf659e4e07","system_id":"levelo_inurba_marseille","lat":43.29971,"lon":5.38514,"is_reserved":false,"is_disabled":false,"rental_uris":{"android":"levelo://app?vid=495341db-a2b2-49f7-9ed9-3fdf659e4e07","ios":"levelo://app?vid=495341db-a2b2-49f7-9ed9-3fdf659e4e07"},"vehicle_type_id":"4","last_reported":1742324872,"current_range_meters":2800,"station_id":"ce4bgj92rcd13ifvqbd0","pricing_plan_id":"cebpf4jnsgd1na2vs0mg"},{"bike_id":"97f1a9ef-23d7-46a5-a024-751b81083237","system_id":"levelo_inurba_marseille","lat":43.33024,"lon":5.39041,"is_reserved":false,"is_disabled":false,"rental_uris":{"android":"levelo://app?vid=97f1a9ef-23d7-46a5-a024-751b81083237","ios":"levelo://app?vid=97f1a9ef-23d7-46a5-a024-751b81083237"},"vehicle_type_id":"4","last_reported":1742324872,"current_range_meters":2800,"station_id":"ce4bhr92rcd13ifvqhrg","pricing_plan_id":"cebpf4jnsgd1na2vs0mg"},{"bike_id":"f4b56c1a-33f1-4457-a9fe-e3b112a9ec75","system_id":"levelo_inurba_marseille","lat":43.31167,"lon":5.38682,"is_reserved":false,"is_disabled":false,"rental_uris":{"android":"levelo://app?vid=f4b56c1a-33f1-4457-a9fe-e3b112a9ec75","ios":"levelo://app?vid=f4b56c1a-33f1-4457-a9fe-e3b112a9ec75"},"vehicle_type_id":"4","last_reported":1742324872,"current_range_meters":3200,"station_id":"ce4bgv12rcd13ifvqcp0","pricing_plan_id":"cebpf4jnsgd1na2vs0mg"},{"bike_id":"e687940f-3c9c-4a24-82d3-cc513234d0f2","system_id":"levelo_inurba_marseille","lat":43.26235,"lon":5.40471,"is_reserved":false,"is_disabled":true,"rental_uris":{"android":"levelo://app?vid=e687940f-3c9c-4a24-82d3-cc513234d0f2","ios":"levelo://app?vid=e687940f-3c9c-4a24-82d3-cc513234d0f2"},"vehicle_type_id":"4","last_reported":1742324872,"current_range_meters":3200,"station_id":"ce4bhmh2rcd13ifvqgmg","pricing_plan_id":"cebpf4jnsgd1na2vs0mg"},{"bike_id":"460cad94-7ea5-46a4-84bd-4b2efd0fadfb","system_id":"levelo_inurba_marseille","lat":43.32366,"lon":5.38893,"is_reserved":false,"is_disabled":false,"rental_uris":{"android":"levelo://app?vid=460cad94-7ea5-46a4-84bd-4b2efd0fadfb","ios":"levelo://app?vid=460cad94-7ea5-46a4-84bd-4b2efd0fadfb"},"vehicle_type_id":"4","last_reported":1742324872,"current_range_meters":3200,"station_id":"ce4bhqp2rcd13ifvqhog","pricing_plan_id":"cebpf4jnsgd1na2vs0mg"},{"bike_id":"22d73ee7-aec9-4511-af0d-2340b68d59e3","system_id":"levelo_inurba_marseille","lat":43.3113,"lon":5.37757,"is_reserved":false,"is_disabled":false,"rental_uris":{"android":"levelo://app?vid=22d73ee7-aec9-4511-af0d-2340b68d59e3","ios":"levelo://app?vid=22d73ee7-aec9-4511-af0d-2340b68d59e3"},"vehicle_type_id":"4","last_reported":1742324872,"current_range_meters":3200,"station_id":"ce4bgt92rcd13ifvqcg0","pricing_plan_id":"cebpf4jnsgd1na2vs0mg"},{"bike_id":"80a4abee-a67e-4ccf-bce1-80eb3223947a","system_id":"levelo_inurba_marseille","lat":43.27898,"lon":5.38011,"is_reserved":false,"is_disabled":false,"rental_uris":{"android":"levelo://app?vid=80a4abee-a67e-4ccf-bce1-80eb3223947a","ios":"levelo://app?vid=80a4abee-a67e-4ccf-bce1-80eb3223947a"},"vehicle_type_id":"4","last_reported":1742324872,"current_range_meters":3200,"station_id":"ce4bhf92rcd13ifvqf50","pricing_plan_id":"cebpf4jnsgd1na2vs0mg"},{"bike_id":"73503176-dc49-4e52-b3ff-290c62480dbe","system_id":"levelo_inurba_marseille","lat":43.28554,"lon":5.39504,"is_reserved":false,"is_disabled":false,"rental_uris":{"android":"levelo://app?vid=73503176-dc49-4e52-b3ff-290c62480dbe","ios":"levelo://app?vid=73503176-dc49-4e52-b3ff-290c62480dbe"},"vehicle_type_id":"4","last_reported":1742324872,"current_range_meters":3200,"station_id":"ce4bh292rcd13ifvqdg0","pricing_plan_id":"cebpf4jnsgd1na2vs0mg"},{"bike_id":"a34aa44b-da8b-461c-84a7-ad3f6c56b49a","system_id":"levelo_inurba_marseille","lat":43.28427,"lon":5.34995,"is_reserved":false,"is_disabled":false,"rental_uris":{"android":"levelo://app?vid=a34aa44b-da8b-461c-84a7-ad3f6c56b49a","ios":"levelo://app?vid=a34aa44b-da8b-461c-84a7-ad3f6c56b49a"},"vehicle_type_id":"4","last_reported":1742324872,"current_range_meters":3600,"station_id":"ce4bhbh2rcd13ifvqepg","pricing_plan_id":"cebpf4jnsgd1na2vs0mg"},{"bike_id":"e1b9536a-ceb8-4620-b3f9-c8352db62c6c","system_id":"levelo_inurba_marseille","lat":43.2855,"lon":5.39517,"is_reserved":false,"is_disabled":false,"rental_uris":{"android":"levelo://app?vid=e1b9536a-ceb8-4620-b3f9-c8352db62c6c","ios":"levelo://app?vid=e1b9536a-ceb8-4620-b3f9-c8352db62c6c"},"vehicle_type_id":"4","last_reported":1742324872,"current_range_meters":3600,"station_id":"ce4bh292rcd13ifvqdg0","pricing_plan_id":"cebpf4jnsgd1na2vs0mg"},{"bike_id":"36c1eac0-102d-49b2-8ae6-3942da83e3d9","system_id":"levelo_inurba_marseille","lat":43.2467,"lon":5.38166,"is_reserved":false,"is_disabled":false,"rental_uris":{"android":"levelo://app?vid=36c1eac0-102d-49b2-8ae6-3942da83e3d9","ios":"levelo://app?vid=36c1eac0-102d-49b2-8ae6-3942da83e3d9"},"vehicle_type_id":"4","last_reported":1742324872,"current_range_meters":3600,"station_id":"ce4bhih2rcd13ifvqfr0","pricing_plan_id":"cebpf4jnsgd1na2vs0mg"},{"bike_id":"60222d3e-6d9d-4bc3-87d3-864e443534d5","system_id":"levelo_inurba_marseille","lat":43.2607,"lon":5.39395,"is_reserved":false,"is_disabled":false,"rental_uris":{"android":"levelo://app?vid=60222d3e-6d9d-4bc3-87d3-864e443534d5","ios":"levelo://app?vid=60222d3e-6d9d-4bc3-87d3-864e443534d5"},"vehicle_type_id":"4","last_reported":1742324872,"current_range_meters":3600,"station_id":"ce4bhh92rcd13ifvqfj0","pricing_plan_id":"cebpf4jnsgd1na2vs0mg"},{"bike_id":"8cb0a54b-dec6-4c8a-8e58-748ccf8fdca2","system_id":"levelo_inurba_marseille","lat":43.30097,"lon":5.39086,"is_reserved":false,"is_disabled":false,"rental_uris":{"android":"levelo://app?vid=8cb0a54b-dec6-4c8a-8e58-748ccf8fdca2","ios":"levelo://app?vid=8cb0a54b-dec6-4c8a-8e58-748ccf8fdca2"},"vehicle_type_id":"4","last_reported":1742324872,"current_range_meters":3600,"station_id":"ce4bh192rcd13ifvqdb0","pricing_plan_id":"cebpf4jnsgd1na2vs0mg"},{"bike_id":"a6f3799f-bec8-4dd3-b896-14888248ba8d","system_id":"levelo_inurba_marseille","lat":43.28105,"lon":5.37841,"is_reserved":false,"is_disabled":false,"rental_uris":{"android":"levelo://app?vid=a6f3799f-bec8-4dd3-b896-14888248ba8d","ios":"levelo://app?vid=a6f3799f-bec8-4dd3-b896-14888248ba8d"},"vehicle_type_id":"4","last_reported":1742324872,"current_range_meters":3600,"station_id":"ce4bha12rcd13ifvqee0","pricing_plan_id":"cebpf4jnsgd1na2vs0mg"},{"bike_id":"05f500f2-ae0f-4f51-b308-035cc001963c","system_id":"levelo_inurba_marseille","lat":43.27814,"lon":5.40715,"is_reserved":false,"is_disabled":false,"rental_uris":{"android":"levelo://app?vid=05f500f2-ae0f-4f51-b308-035cc001963c","ios":"levelo://app?vid=05f500f2-ae0f-4f51-b308-035cc001963c"},"vehicle_type_id":"4","last_reported":1742324872,"current_range_meters":4000,"station_id":"ce4bhnh2rcd13ifvqgtg","pricing_plan_id":"cebpf4jnsgd1na2vs0mg"},{"bike_id":"85651bb9-b478-40a9-a32b-90ac86c23b2b","system_id":"levelo_inurba_marseille","lat":43.30965,"lon":5.39043,"is_reserved":false,"is_disabled":false,"rental_uris":{"android":"levelo://app?vid=85651bb9-b478-40a9-a32b-90ac86c23b2b","ios":"levelo://app?vid=85651bb9-b478-40a9-a32b-90ac86c23b2b"},"vehicle_type_id":"4","last_reported":1742324872,"current_range_meters":4000,"station_id":"ce4bgup2rcd13ifvqco0","pricing_plan_id":"cebpf4jnsgd1na2vs0mg"},{"bike_id":"ef0e6bd7-a9fe-4e50-8f54-21a353a3ea79","system_id":"levelo_inurba_marseille","lat":43.28035,"lon":5.36948,"is_reserved":false,"is_disabled":false,"rental_uris":{"android":"levelo://app?vid=ef0e6bd7-a9fe-4e50-8f54-21a353a3ea79","ios":"levelo://app?vid=ef0e6bd7-a9fe-4e50-8f54-21a353a3ea79"},"vehicle_type_id":"4","last_reported":1742324872,"current_range_meters":4400,"station_id":"ce4bha12rcd13ifvqef0","pricing_plan_id":"cebpf4jnsgd1na2vs0mg"},{"bike_id":"18bfb168-c098-4e9b-b586-d2828c6125f7","system_id":"levelo_inurba_marseille","lat":43.28442,"lon":5.39184,"is_reserved":false,"is_disabled":false,"rental_uris":{"android":"levelo://app?vid=18bfb168-c098-4e9b-b586-d2828c6125f7","ios":"levelo://app?vid=18bfb168-c098-4e9b-b586-d2828c6125f7"},"vehicle_type_id":"4","last_reported":1742324872,"current_range_meters":4400,"station_id":"ce4bhoh2rcd13ifvqh5g","pricing_plan_id":"cebpf4jnsgd1na2vs0mg"},{"bike_id":"78d9ed0f-dcf8-4d76-a00e-9b0d995fdf2d","system_id":"levelo_inurba_marseille","lat":43.31489,"lon":5.37308,"is_reserved":false,"is_disabled":false,"rental_uris":{"android":"levelo://app?vid=78d9ed0f-dcf8-4d76-a00e-9b0d995fdf2d","ios":"levelo://app?vid=78d9ed0f-dcf8-4d76-a00e-9b0d995fdf2d"},"vehicle_type_id":"4","last_reported":1742324872,"current_range_meters":4400,"station_id":"ce4bgt12rcd13ifvqcd0","pricing_plan_id":"cebpf4jnsgd1na2vs0mg"},{"bike_id":"057c4299-c24d-4a02-8ede-b4bf9523726b","system_id":"levelo_inurba_marseille","lat":43.23157,"lon":5.43722,"is_reserved":false,"is_disabled":true,"rental_uris":{"android":"levelo://app?vid=057c4299-c24d-4a02-8ede-b4bf9523726b","ios":"levelo://app?vid=057c4299-c24d-4a02-8ede-b4bf9523726b"},"vehicle_type_id":"4","last_reported":1742324872,"current_range_meters":4400,"station_id":"ce4bhmp2rcd13ifvqgog","pricing_plan_id":"cebpf4jnsgd1na2vs0mg"},{"bike_id":"88b1d9c6-8000-4bf8-a7d4-82d5a0690c4b","system_id":"levelo_inurba_marseille","lat":43.30095,"lon":5.39071,"is_reserved":false,"is_disabled":false,"rental_uris":{"android":"levelo://app?vid=88b1d9c6-8000-4bf8-a7d4-82d5a0690c4b","ios":"levelo://app?vid=88b1d9c6-8000-4bf8-a7d4-82d5a0690c4b"},"vehicle_type_id":"4","last_reported":1742324872,"current_range_meters":4400,"station_id":"ce4bh192rcd13ifvqdb0","pricing_plan_id":"cebpf4jnsgd1na2vs0mg"},{"bike_id":"fef9924a-f3db-42a9-812d-1b6cd61ae9ec","system_id":"levelo_inurba_marseille","lat":43.25872,"lon":5.39898,"is_reserved":false,"is_disabled":false,"rental_uris":{"android":"levelo://app?vid=fef9924a-f3db-42a9-812d-1b6cd61ae9ec","ios":"levelo://app?vid=fef9924a-f3db-42a9-812d-1b6cd61ae9ec"},"vehicle_type_id":"4","last_reported":1742324872,"current_range_meters":4400,"station_id":"ce4bhl92rcd13ifvqghg","pricing_plan_id":"cebpf4jnsgd1na2vs0mg"},{"bike_id":"d90cee46-fdab-4b9f-a974-2ef4c68db6c1","system_id":"levelo_inurba_marseille","lat":43.25826,"lon":5.39441,"is_reserved":false,"is_disabled":false,"rental_uris":{"android":"levelo://app?vid=d90cee46-fdab-4b9f-a974-2ef4c68db6c1","ios":"levelo://app?vid=d90cee46-fdab-4b9f-a974-2ef4c68db6c1"},"vehicle_type_id":"4","last_reported":1742324872,"current_range_meters":4400,"station_id":"ce4bhip2rcd13ifvqft0","pricing_plan_id":"cebpf4jnsgd1na2vs0mg"},{"bike_id":"fa5f15ab-8994-45e1-84de-31aa4c8b3ced","system_id":"levelo_inurba_marseille","lat":43.23211,"lon":5.35503,"is_reserved":false,"is_disabled":false,"rental_uris":{"android":"levelo://app?vid=fa5f15ab-8994-45e1-84de-31aa4c8b3ced","ios":"levelo://app?vid=fa5f15ab-8994-45e1-84de-31aa4c8b3ced"},"vehicle_type_id":"4","last_reported":1742324872,"current_range_meters":4400,"station_id":"ce4bhu92rcd13ifvqi70","pricing_plan_id":"cebpf4jnsgd1na2vs0mg"},{"bike_id":"c848e6bc-f2b3-48a5-9ba5-f3ecb77266a6","system_id":"levelo_inurba_marseille","lat":43.27321,"lon":5.39079,"is_reserved":false,"is_disabled":true,"rental_uris":{"android":"levelo://app?vid=c848e6bc-f2b3-48a5-9ba5-f3ecb77266a6","ios":"levelo://app?vid=c848e6bc-f2b3-48a5-9ba5-f3ecb77266a6"},"vehicle_type_id":"4","last_reported":1742324872,"current_range_meters":4400,"station_id":"ce4bhgp2rcd13ifvqfe0","pricing_plan_id":"cebpf4jnsgd1na2vs0mg"},{"bike_id":"22a15108-03a8-4897-9492-f8b3536837e9","system_id":"levelo_inurba_marseille","lat":43.30189,"lon":5.36644,"is_reserved":false,"is_disabled":false,"rental_uris":{"android":"levelo://app?vid=22a15108-03a8-4897-9492-f8b3536837e9","ios":"levelo://app?vid=22a15108-03a8-4897-9492-f8b3536837e9"},"vehicle_type_id":"4","last_reported":1742324872,"current_range_meters":4400,"station_id":"ce4bgrh2rcd13ifvqc8g","pricing_plan_id":"cebpf4jnsgd1na2vs0mg"},{"bike_id":"965fd4f9-ab8c-4e4a-960f-09c6ab65fd59","system_id":"levelo_inurba_marseille","lat":43.28457,"lon":5.35896,"is_reserved":false,"is_disabled":false,"rental_uris":{"android":"levelo://app?vid=965fd4f9-ab8c-4e4a-960f-09c6ab65fd59","ios":"levelo://app?vid=965fd4f9-ab8c-4e4a-960f-09c6ab65fd59"},"vehicle_type_id":"4","last_reported":1742324872,"current_range_meters":4400,"station_id":"ce4bhah2rcd13ifvqei0","pricing_plan_id":"cebpf4jnsgd1na2vs0mg"},{"bike_id":"085f5453-b673-4e10-bed9-4077a4ed34d4","system_id":"levelo_inurba_marseille","lat":43.31115,"lon":5.37764,"is_reserved":false,"is_disabled":false,"rental_uris":{"android":"levelo://app?vid=085f5453-b673-4e10-bed9-4077a4ed34d4","ios":"levelo://app?vid=085f5453-b673-4e10-bed9-4077a4ed34d4"},"vehicle_type_id":"4","last_reported":1742324872,"current_range_meters":4400,"station_id":"ce4bgt92rcd13ifvqcg0","pricing_plan_id":"cebpf4jnsgd1na2vs0mg"},{"bike_id":"94459868-c278-49a0-bca0-1f68cad8e573","system_id":"levelo_inurba_marseille","lat":43.31744,"lon":5.39013,"is_reserved":false,"is_disabled":false,"rental_uris":{"android":"levelo://app?vid=94459868-c278-49a0-bca0-1f68cad8e573","ios":"levelo://app?vid=94459868-c278-49a0-bca0-1f68cad8e573"},"vehicle_type_id":"4","last_reported":1742324872,"current_range_meters":4400,"station_id":"ce4bhqp2rcd13ifvqhng","pricing_plan_id":"cebpf4jnsgd1na2vs0mg"},{"bike_id":"e659212b-b248-45c7-8658-53c58f82a9b9","system_id":"levelo_inurba_marseille","lat":43.25715,"lon":5.41123,"is_reserved":false,"is_disabled":false,"rental_uris":{"android":"levelo://app?vid=e659212b-b248-45c7-8658-53c58f82a9b9","ios":"levelo://app?vid=e659212b-b248-45c7-8658-53c58f82a9b9"},"vehicle_type_id":"4","last_reported":1742324872,"current_range_meters":4800,"station_id":"ce4bhkp2rcd13ifvqgd0","pricing_plan_id":"cebpf4jnsgd1na2vs0mg"},{"bike_id":"6bb109a1-e8bb-4278-bb9e-c8feed927a8a","system_id":"levelo_inurba_marseille","lat":43.29423,"lon":5.38627,"is_reserved":false,"is_disabled":false,"rental_uris":{"android":"levelo://app?vid=6bb109a1-e8bb-4278-bb9e-c8feed927a8a","ios":"levelo://app?vid=6bb109a1-e8bb-4278-bb9e-c8feed927a8a"},"vehicle_type_id":"4","last_reported":1742324872,"current_range_meters":4800,"station_id":"ce4bh2h2rcd13ifvqdh0","pricing_plan_id":"cebpf4jnsgd1na2vs0mg"},{"bike_id":"57df815a-aee3-40a3-8562-c40e885ec31c","system_id":"levelo_inurba_marseille","lat":43.28675,"lon":5.3869,"is_reserved":false,"is_disabled":false,"rental_uris":{"android":"levelo://app?vid=57df815a-aee3-40a3-8562-c40e885ec31c","ios":"levelo://app?vid=57df815a-aee3-40a3-8562-c40e885ec31c"},"vehicle_type_id":"4","last_reported":1742324872,"current_range_meters":4800,"station_id":"ce4bh492rcd13ifvqdug","pricing_plan_id":"cebpf4jnsgd1na2vs0mg"},{"bike_id":"03fc8a09-d400-4673-a13e-fe1df265c3a6","system_id":"levelo_inurba_marseille","lat":43.28856,"lon":5.3932,"is_reserved":false,"is_disabled":false,"rental_uris":{"android":"levelo://app?vid=03fc8a09-d400-4673-a13e-fe1df265c3a6","ios":"levelo://app?vid=03fc8a09-d400-4673-a13e-fe1df265c3a6"},"vehicle_type_id":"4","last_reported":1742324872,"current_range_meters":4800,"station_id":"ce4bh2p2rcd13ifvqdi0","pricing_plan_id":"cebpf4jnsgd1na2vs0mg"},{"bike_id":"350bde59-3de3-4746-8b19-204a369d3977","system_id":"levelo_inurba_marseille","lat":43.30602,"lon":5.37232,"is_reserved":false,"is_disabled":false,"rental_uris":{"android":"levelo://app?vid=350bde59-3de3-4746-8b19-204a369d3977","ios":"levelo://app?vid=350bde59-3de3-4746-8b19-204a369d3977"},"vehicle_type_id":"4","last_reported":1742324872,"current_range_meters":4800,"station_id":"ce4bgqh2rcd13ifvqc4g","pricing_plan_id":"cebpf4jnsgd1na2vs0mg"},{"bike_id":"2124d011-eedd-45e0-a171-cc66ce628bb3","system_id":"levelo_inurba_marseille","lat":43.29035,"lon":5.37561,"is_reserved":false,"is_disabled":false,"rental_uris":{"android":"levelo://app?vid=2124d011-eedd-45e0-a171-cc66ce628bb3","ios":"levelo://app?vid=2124d011-eedd-45e0-a171-cc66ce628bb3"},"vehicle_type_id":"4","last_reported":1742324872,"current_range_meters":4400,"station_id":"ce4bh692rcd13ifvqe90","pricing_plan_id":"cebpf4jnsgd1na2vs0mg"},{"bike_id":"6030d9ab-0922-4379-becd-b3eabfbbef90","system_id":"levelo_inurba_marseille","lat":43.24102,"lon":5.3778,"is_reserved":false,"is_disabled":false,"rental_uris":{"android":"levelo://app?vid=6030d9ab-0922-4379-becd-b3eabfbbef90","ios":"levelo://app?vid=6030d9ab-0922-4379-becd-b3eabfbbef90"},"vehicle_type_id":"4","last_reported":1742324872,"current_range_meters":4800,"station_id":"ce4bhnp2rcd13ifvqgvg","pricing_plan_id":"cebpf4jnsgd1na2vs0mg"},{"bike_id":"0fe59c67-416a-4733-93d8-d0711c2927a8","system_id":"levelo_inurba_marseille","lat":43.29005,"lon":5.35615,"is_reserved":false,"is_disabled":false,"rental_uris":{"android":"levelo://app?vid=0fe59c67-416a-4733-93d8-d0711c2927a8","ios":"levelo://app?vid=0fe59c67-416a-4733-93d8-d0711c2927a8"},"vehicle_type_id":"4","last_reported":1742324872,"current_range_meters":8000,"station_id":"ce4bhb92rcd13ifvqen0","pricing_plan_id":"cebpf4jnsgd1na2vs0mg"},{"bike_id":"45b82e0f-05c8-4de5-b641-e0a386935fad","system_id":"levelo_inurba_marseille","lat":43.31277,"lon":5.40172,"is_reserved":false,"is_disabled":false,"rental_uris":{"android":"levelo://app?vid=45b82e0f-05c8-4de5-b641-e0a386935fad","ios":"levelo://app?vid=45b82e0f-05c8-4de5-b641-e0a386935fad"},"vehicle_type_id":"4","last_reported":1742324872,"current_range_meters":4800,"station_id":"ce4bh092rcd13ifvqd30","pricing_plan_id":"cebpf4jnsgd1na2vs0mg"},{"bike_id":"600ff7aa-6047-40f1-8a8b-967929044234","system_id":"levelo_inurba_marseille","lat":43.28927,"lon":5.38398,"is_reserved":false,"is_disabled":false,"rental_uris":{"android":"levelo://app?vid=600ff7aa-6047-40f1-8a8b-967929044234","ios":"levelo://app?vid=600ff7aa-6047-40f1-8a8b-967929044234"},"vehicle_type_id":"4","last_reported":1742324872,"current_range_meters":4800,"station_id":"ce4bh612rcd13ifvqe6g","pricing_plan_id":"cebpf4jnsgd1na2vs0mg"},{"bike_id":"41057c2b-8ed6-4261-a195-12023d09d4f3","system_id":"levelo_inurba_marseille","lat":43.26238,"lon":5.37452,"is_reserved":false,"is_disabled":false,"rental_uris":{"android":"levelo://app?vid=41057c2b-8ed6-4261-a195-12023d09d4f3","ios":"levelo://app?vid=41057c2b-8ed6-4261-a195-12023d09d4f3"},"vehicle_type_id":"4","last_reported":1742324872,"current_range_meters":4800,"station_id":"","pricing_plan_id":"cebpf4jnsgd1na2vs0mg"},{"bike_id":"df16f1d4-e09e-4cb8-96fd-4703887740cf","system_id":"levelo_inurba_marseille","lat":43.27846,"lon":5.39214,"is_reserved":false,"is_disabled":false,"rental_uris":{"android":"levelo://app?vid=df16f1d4-e09e-4cb8-96fd-4703887740cf","ios":"levelo://app?vid=df16f1d4-e09e-4cb8-96fd-4703887740cf"},"vehicle_type_id":"4","last_reported":1742324872,"current_range_meters":5600,"station_id":"ce4bhjp2rcd13ifvqga0","pricing_plan_id":"cebpf4jnsgd1na2vs0mg"},{"bike_id":"5fa2d8e0-8f3c-4f76-b52e-ed58e2347645","system_id":"levelo_inurba_marseille","lat":43.29209,"lon":5.39338,"is_reserved":false,"is_disabled":false,"rental_uris":{"android":"levelo://app?vid=5fa2d8e0-8f3c-4f76-b52e-ed58e2347645","ios":"levelo://app?vid=5fa2d8e0-8f3c-4f76-b52e-ed58e2347645"},"vehicle_type_id":"4","last_reported":1742324872,"current_range_meters":5600,"station_id":"ce4bh192rcd13ifvqdd0","pricing_plan_id":"cebpf4jnsgd1na2vs0mg"},{"bike_id":"d08d2689-aff1-453a-82bd-0a39b091e103","system_id":"levelo_inurba_marseille","lat":43.29722,"lon":5.37708,"is_reserved":false,"is_disabled":false,"rental_uris":{"android":"levelo://app?vid=d08d2689-aff1-453a-82bd-0a39b091e103","ios":"levelo://app?vid=d08d2689-aff1-453a-82bd-0a39b091e103"},"vehicle_type_id":"4","last_reported":1742324872,"current_range_meters":5600,"station_id":"ce4bgkh2rcd13ifvqbl0","pricing_plan_id":"cebpf4jnsgd1na2vs0mg"},{"bike_id":"92eb74ca-5db0-4730-bf51-f2146a91dc54","system_id":"levelo_inurba_marseille","lat":43.33018,"lon":5.39057,"is_reserved":false,"is_disabled":false,"rental_uris":{"android":"levelo://app?vid=92eb74ca-5db0-4730-bf51-f2146a91dc54","ios":"levelo://app?vid=92eb74ca-5db0-4730-bf51-f2146a91dc54"},"vehicle_type_id":"4","last_reported":1742324872,"current_range_meters":5600,"station_id":"ce4bhr92rcd13ifvqhrg","pricing_plan_id":"cebpf4jnsgd1na2vs0mg"},{"bike_id":"983fd643-91f3-4ff9-a71e-a742f91fbf6c","system_id":"levelo_inurba_marseille","lat":43.25111,"lon":5.40329,"is_reserved":false,"is_disabled":false,"rental_uris":{"android":"levelo://app?vid=983fd643-91f3-4ff9-a71e-a742f91fbf6c","ios":"levelo://app?vid=983fd643-91f3-4ff9-a71e-a742f91fbf6c"},"vehicle_type_id":"4","last_reported":1742324872,"current_range_meters":5600,"station_id":"ce4bhlh2rcd13ifvqgig","pricing_plan_id":"cebpf4jnsgd1na2vs0mg"},{"bike_id":"eb37f39b-3138-47e6-8860-39682583bd1f","system_id":"levelo_inurba_marseille","lat":43.32371,"lon":5.38885,"is_reserved":false,"is_disabled":false,"rental_uris":{"android":"levelo://app?vid=eb37f39b-3138-47e6-8860-39682583bd1f","ios":"levelo://app?vid=eb37f39b-3138-47e6-8860-39682583bd1f"},"vehicle_type_id":"4","last_reported":1742324872,"current_range_meters":5600,"station_id":"ce4bhqp2rcd13ifvqhog","pricing_plan_id":"cebpf4jnsgd1na2vs0mg"},{"bike_id":"f3b4e1ca-33fc-4951-ab2c-b3fe2f661f6a","system_id":"levelo_inurba_marseille","lat":43.28837,"lon":5.39298,"is_reserved":false,"is_disabled":false,"rental_uris":{"android":"levelo://app?vid=f3b4e1ca-33fc-4951-ab2c-b3fe2f661f6a","ios":"levelo://app?vid=f3b4e1ca-33fc-4951-ab2c-b3fe2f661f6a"},"vehicle_type_id":"4","last_reported":1742324872,"current_range_meters":6000,"station_id":"ce4bh2p2rcd13ifvqdi0","pricing_plan_id":"cebpf4jnsgd1na2vs0mg"},{"bike_id":"c019c698-ae30-4d4e-9efa-d31fe00b66be","system_id":"levelo_inurba_marseille","lat":43.30145,"lon":5.39884,"is_reserved":false,"is_disabled":false,"rental_uris":{"android":"levelo://app?vid=c019c698-ae30-4d4e-9efa-d31fe00b66be","ios":"levelo://app?vid=c019c698-ae30-4d4e-9efa-d31fe00b66be"},"vehicle_type_id":"4","last_reported":1742324872,"current_range_meters":6000,"station_id":"ce4bh0h2rcd13ifvqd40","pricing_plan_id":"cebpf4jnsgd1na2vs0mg"},{"bike_id":"7394c485-4821-4766-899b-affd6bf30d1c","system_id":"levelo_inurba_marseille","lat":43.29024,"lon":5.38636,"is_reserved":false,"is_disabled":true,"rental_uris":{"android":"levelo://app?vid=7394c485-4821-4766-899b-affd6bf30d1c","ios":"levelo://app?vid=7394c485-4821-4766-899b-affd6bf30d1c"},"vehicle_type_id":"4","last_reported":1742324872,"current_range_meters":6000,"station_id":"ce4bh4p2rcd13ifvqe0g","pricing_plan_id":"cebpf4jnsgd1na2vs0mg"},{"bike_id":"64177609-8c12-4303-8ea2-46f95e15cb9f","system_id":"levelo_inurba_marseille","lat":43.31132,"lon":5.37792,"is_reserved":false,"is_disabled":false,"rental_uris":{"android":"levelo://app?vid=64177609-8c12-4303-8ea2-46f95e15cb9f","ios":"levelo://app?vid=64177609-8c12-4303-8ea2-46f95e15cb9f"},"vehicle_type_id":"4","last_reported":1742324872,"current_range_meters":6000,"station_id":"ce4bgt92rcd13ifvqcg0","pricing_plan_id":"cebpf4jnsgd1na2vs0mg"},{"bike_id":"b9416fb6-9cc0-4164-b6a9-32098ba209cf","system_id":"levelo_inurba_marseille","lat":43.3111,"lon":5.37764,"is_reserved":false,"is_disabled":false,"rental_uris":{"android":"levelo://app?vid=b9416fb6-9cc0-4164-b6a9-32098ba209cf","ios":"levelo://app?vid=b9416fb6-9cc0-4164-b6a9-32098ba209cf"},"vehicle_type_id":"4","last_reported":1742324872,"current_range_meters":6000,"station_id":"ce4bgt92rcd13ifvqcg0","pricing_plan_id":"cebpf4jnsgd1na2vs0mg"},{"bike_id":"2665cc4b-07ed-4ae6-a66f-2b09983c709d","system_id":"levelo_inurba_marseille","lat":43.33761,"lon":5.37489,"is_reserved":false,"is_disabled":false,"rental_uris":{"android":"levelo://app?vid=2665cc4b-07ed-4ae6-a66f-2b09983c709d","ios":"levelo://app?vid=2665cc4b-07ed-4ae6-a66f-2b09983c709d"},"vehicle_type_id":"4","last_reported":1742324872,"current_range_meters":6000,"station_id":"","pricing_plan_id":"cebpf4jnsgd1na2vs0mg"},{"bike_id":"77c184f6-0d0e-4d99-a1ee-d28c0b65b4e1","system_id":"levelo_inurba_marseille","lat":43.30121,"lon":5.39849,"is_reserved":false,"is_disabled":false,"rental_uris":{"android":"levelo://app?vid=77c184f6-0d0e-4d99-a1ee-d28c0b65b4e1","ios":"levelo://app?vid=77c184f6-0d0e-4d99-a1ee-d28c0b65b4e1"},"vehicle_type_id":"4","last_reported":1742324872,"current_range_meters":6000,"station_id":"ce4bh0h2rcd13ifvqd40","pricing_plan_id":"cebpf4jnsgd1na2vs0mg"},{"bike_id":"ba322b99-70ba-4dfd-b293-18473ed578c1","system_id":"levelo_inurba_marseille","lat":43.29036,"lon":5.38644,"is_reserved":false,"is_disabled":false,"rental_uris":{"android":"levelo://app?vid=ba322b99-70ba-4dfd-b293-18473ed578c1","ios":"levelo://app?vid=ba322b99-70ba-4dfd-b293-18473ed578c1"},"vehicle_type_id":"4","last_reported":1742324872,"current_range_meters":6000,"station_id":"ce4bh4p2rcd13ifvqe0g","pricing_plan_id":"cebpf4jnsgd1na2vs0mg"},{"bike_id":"55c83ebf-913d-48a1-abee-3e29e6909fd2","system_id":"levelo_inurba_marseille","lat":43.27974,"lon":5.41665,"is_reserved":false,"is_disabled":true,"rental_uris":{"android":"levelo://app?vid=55c83ebf-913d-48a1-abee-3e29e6909fd2","ios":"levelo://app?vid=55c83ebf-913d-48a1-abee-3e29e6909fd2"},"vehicle_type_id":"4","last_reported":1742324872,"current_range_meters":6000,"station_id":"ce4bho12rcd13ifvqh1g","pricing_plan_id":"cebpf4jnsgd1na2vs0mg"},{"bike_id":"b30be957-4091-4091-9689-3da66932f45e","system_id":"levelo_inurba_marseille","lat":43.28427,"lon":5.34981,"is_reserved":false,"is_disabled":false,"rental_uris":{"android":"levelo://app?vid=b30be957-4091-4091-9689-3da66932f45e","ios":"levelo://app?vid=b30be957-4091-4091-9689-3da66932f45e"},"vehicle_type_id":"4","last_reported":1742324872,"current_range_meters":6000,"station_id":"ce4bhbh2rcd13ifvqepg","pricing_plan_id":"cebpf4jnsgd1na2vs0mg"},{"bike_id":"7fd97136-89e6-451f-8df0-aaf25d72d594","system_id":"levelo_inurba_marseille","lat":43.30183,"lon":5.39846,"is_reserved":false,"is_disabled":false,"rental_uris":{"android":"levelo://app?vid=7fd97136-89e6-451f-8df0-aaf25d72d594","ios":"levelo://app?vid=7fd97136-89e6-451f-8df0-aaf25d72d594"},"vehicle_type_id":"4","last_reported":1742324872,"current_range_meters":6000,"station_id":"","pricing_plan_id":"cebpf4jnsgd1na2vs0mg"},{"bike_id":"c293dc03-4f1c-4898-bb0b-c50d4575781f","system_id":"levelo_inurba_marseille","lat":43.29279,"lon":5.36843,"is_reserved":false,"is_disabled":false,"rental_uris":{"android":"levelo://app?vid=c293dc03-4f1c-4898-bb0b-c50d4575781f","ios":"levelo://app?vid=c293dc03-4f1c-4898-bb0b-c50d4575781f"},"vehicle_type_id":"4","last_reported":1742324872,"current_range_meters":6400,"station_id":"ce4bhbp2rcd13ifvqesg","pricing_plan_id":"cebpf4jnsgd1na2vs0mg"},{"bike_id":"6d8e8090-a4c7-4966-a3f4-a833922b9e5a","system_id":"levelo_inurba_marseille","lat":43.2321,"lon":5.35546,"is_reserved":false,"is_disabled":false,"rental_uris":{"android":"levelo://app?vid=6d8e8090-a4c7-4966-a3f4-a833922b9e5a","ios":"levelo://app?vid=6d8e8090-a4c7-4966-a3f4-a833922b9e5a"},"vehicle_type_id":"4","last_reported":1742324872,"current_range_meters":6400,"station_id":"ce4bhu92rcd13ifvqi70","pricing_plan_id":"cebpf4jnsgd1na2vs0mg"},{"bike_id":"2802ebc5-ed95-4bc0-9357-96baa41537dc","system_id":"levelo_inurba_marseille","lat":43.31176,"lon":5.38714,"is_reserved":false,"is_disabled":false,"rental_uris":{"android":"levelo://app?vid=2802ebc5-ed95-4bc0-9357-96baa41537dc","ios":"levelo://app?vid=2802ebc5-ed95-4bc0-9357-96baa41537dc"},"vehicle_type_id":"4","last_reported":1742324872,"current_range_meters":6000,"station_id":"ce4bgv12rcd13ifvqcp0","pricing_plan_id":"cebpf4jnsgd1na2vs0mg"},{"bike_id":"92ad8e1b-4e29-4c41-b758-3bb193eb6b43","system_id":"levelo_inurba_marseille","lat":43.31176,"lon":5.38689,"is_reserved":false,"is_disabled":false,"rental_uris":{"android":"levelo://app?vid=92ad8e1b-4e29-4c41-b758-3bb193eb6b43","ios":"levelo://app?vid=92ad8e1b-4e29-4c41-b758-3bb193eb6b43"},"vehicle_type_id":"4","last_reported":1742324872,"current_range_meters":6400,"station_id":"ce4bgv12rcd13ifvqcp0","pricing_plan_id":"cebpf4jnsgd1na2vs0mg"},{"bike_id":"3db91aa6-845b-4ce3-9a81-55687c0461bc","system_id":"levelo_inurba_marseille","lat":43.25,"lon":5.38946,"is_reserved":false,"is_disabled":false,"rental_uris":{"android":"levelo://app?vid=3db91aa6-845b-4ce3-9a81-55687c0461bc","ios":"levelo://app?vid=3db91aa6-845b-4ce3-9a81-55687c0461bc"},"vehicle_type_id":"4","last_reported":1742324872,"current_range_meters":6400,"station_id":"ce4bhgp2rcd13ifvqfd0","pricing_plan_id":"cebpf4jnsgd1na2vs0mg"},{"bike_id":"07524944-3a89-45ea-9024-ac359b4dd760","system_id":"levelo_inurba_marseille","lat":43.33752,"lon":5.39154,"is_reserved":false,"is_disabled":false,"rental_uris":{"android":"levelo://app?vid=07524944-3a89-45ea-9024-ac359b4dd760","ios":"levelo://app?vid=07524944-3a89-45ea-9024-ac359b4dd760"},"vehicle_type_id":"4","last_reported":1742324872,"current_range_meters":6400,"station_id":"ce4bhr92rcd13ifvqhsg","pricing_plan_id":"cebpf4jnsgd1na2vs0mg"},{"bike_id":"c826199c-5fa1-4e76-ac84-37c72b1c6513","system_id":"levelo_inurba_marseille","lat":43.2898,"lon":5.37853,"is_reserved":false,"is_disabled":false,"rental_uris":{"android":"levelo://app?vid=c826199c-5fa1-4e76-ac84-37c72b1c6513","ios":"levelo://app?vid=c826199c-5fa1-4e76-ac84-37c72b1c6513"},"vehicle_type_id":"4","last_reported":1742324872,"current_range_meters":6400,"station_id":"ce4bh9p2rcd13ifvqed0","pricing_plan_id":"cebpf4jnsgd1na2vs0mg"},{"bike_id":"55e4a76d-9ed3-444a-b91e-901348435a41","system_id":"levelo_inurba_marseille","lat":43.27316,"lon":5.39082,"is_reserved":false,"is_disabled":false,"rental_uris":{"android":"levelo://app?vid=55e4a76d-9ed3-444a-b91e-901348435a41","ios":"levelo://app?vid=55e4a76d-9ed3-444a-b91e-901348435a41"},"vehicle_type_id":"4","last_reported":1742324872,"current_range_meters":6400,"station_id":"ce4bhgp2rcd13ifvqfe0","pricing_plan_id":"cebpf4jnsgd1na2vs0mg"},{"bike_id":"52be3af1-26ad-4bf1-af35-b776c16ee65a","system_id":"levelo_inurba_marseille","lat":43.26061,"lon":5.39402,"is_reserved":false,"is_disabled":false,"rental_uris":{"android":"levelo://app?vid=52be3af1-26ad-4bf1-af35-b776c16ee65a","ios":"levelo://app?vid=52be3af1-26ad-4bf1-af35-b776c16ee65a"},"vehicle_type_id":"4","last_reported":1742324872,"current_range_meters":6400,"station_id":"ce4bhh92rcd13ifvqfj0","pricing_plan_id":"cebpf4jnsgd1na2vs0mg"},{"bike_id":"f72f4ae2-f6e9-495d-9f2b-9d211c7fdd4f","system_id":"levelo_inurba_marseille","lat":43.29933,"lon":5.36551,"is_reserved":false,"is_disabled":false,"rental_uris":{"android":"levelo://app?vid=f72f4ae2-f6e9-495d-9f2b-9d211c7fdd4f","ios":"levelo://app?vid=f72f4ae2-f6e9-495d-9f2b-9d211c7fdd4f"},"vehicle_type_id":"4","last_reported":1742324872,"current_range_meters":6400,"station_id":"ce4bgm92rcd13ifvqbr0","pricing_plan_id":"cebpf4jnsgd1na2vs0mg"},{"bike_id":"9c4685f3-07ec-44f1-876e-e4f7bb01eac7","system_id":"levelo_inurba_marseille","lat":43.32374,"lon":5.38858,"is_reserved":false,"is_disabled":false,"rental_uris":{"android":"levelo://app?vid=9c4685f3-07ec-44f1-876e-e4f7bb01eac7","ios":"levelo://app?vid=9c4685f3-07ec-44f1-876e-e4f7bb01eac7"},"vehicle_type_id":"4","last_reported":1742324872,"current_range_meters":6400,"station_id":"ce4bhqp2rcd13ifvqhog","pricing_plan_id":"cebpf4jnsgd1na2vs0mg"},{"bike_id":"80dc5fd0-289a-40fa-b0b5-c7379214243e","system_id":"levelo_inurba_marseille","lat":43.28457,"lon":5.35883,"is_reserved":false,"is_disabled":false,"rental_uris":{"android":"levelo://app?vid=80dc5fd0-289a-40fa-b0b5-c7379214243e","ios":"levelo://app?vid=80dc5fd0-289a-40fa-b0b5-c7379214243e"},"vehicle_type_id":"4","last_reported":1742324872,"current_range_meters":6400,"station_id":"ce4bhah2rcd13ifvqei0","pricing_plan_id":"cebpf4jnsgd1na2vs0mg"},{"bike_id":"a37fbc86-e575-4ffd-a4db-f74394b2d7d6","system_id":"levelo_inurba_marseille","lat":43.29063,"lon":5.37161,"is_reserved":false,"is_disabled":false,"rental_uris":{"android":"levelo://app?vid=a37fbc86-e575-4ffd-a4db-f74394b2d7d6","ios":"levelo://app?vid=a37fbc86-e575-4ffd-a4db-f74394b2d7d6"},"vehicle_type_id":"4","last_reported":1742324872,"current_range_meters":6400,"station_id":"ce4bh5p2rcd13ifvqe4g","pricing_plan_id":"cebpf4jnsgd1na2vs0mg"},{"bike_id":"bba3f1e7-53d2-4b2f-b476-2831b1f605dd","system_id":"levelo_inurba_marseille","lat":43.28858,"lon":5.35867,"is_reserved":false,"is_disabled":false,"rental_uris":{"android":"levelo://app?vid=bba3f1e7-53d2-4b2f-b476-2831b1f605dd","ios":"levelo://app?vid=bba3f1e7-53d2-4b2f-b476-2831b1f605dd"},"vehicle_type_id":"4","last_reported":1742324872,"current_range_meters":6400,"station_id":"ce4bhb12rcd13ifvqem0","pricing_plan_id":"cebpf4jnsgd1na2vs0mg"},{"bike_id":"d6e009b3-7f60-4e54-a5a6-c4d9a6136800","system_id":"levelo_inurba_marseille","lat":43.31107,"lon":5.37757,"is_reserved":false,"is_disabled":false,"rental_uris":{"android":"levelo://app?vid=d6e009b3-7f60-4e54-a5a6-c4d9a6136800","ios":"levelo://app?vid=d6e009b3-7f60-4e54-a5a6-c4d9a6136800"},"vehicle_type_id":"4","last_reported":1742324872,"current_range_meters":6400,"station_id":"ce4bgt92rcd13ifvqcg0","pricing_plan_id":"cebpf4jnsgd1na2vs0mg"},{"bike_id":"8f4a1035-d582-466c-ad9f-703b302df8c4","system_id":"levelo_inurba_marseille","lat":43.32365,"lon":5.38891,"is_reserved":false,"is_disabled":false,"rental_uris":{"android":"levelo://app?vid=8f4a1035-d582-466c-ad9f-703b302df8c4","ios":"levelo://app?vid=8f4a1035-d582-466c-ad9f-703b302df8c4"},"vehicle_type_id":"4","last_reported":1742324872,"current_range_meters":6400,"station_id":"ce4bhqp2rcd13ifvqhog","pricing_plan_id":"cebpf4jnsgd1na2vs0mg"},{"bike_id":"f5c97f8a-2624-4b99-bdf9-59f10ff7cfce","system_id":"levelo_inurba_marseille","lat":43.27616,"lon":5.36104,"is_reserved":false,"is_disabled":false,"rental_uris":{"android":"levelo://app?vid=f5c97f8a-2624-4b99-bdf9-59f10ff7cfce","ios":"levelo://app?vid=f5c97f8a-2624-4b99-bdf9-59f10ff7cfce"},"vehicle_type_id":"4","last_reported":1742324872,"current_range_meters":6800,"station_id":"ce4bgj92rcd13ifvqbe0","pricing_plan_id":"cebpf4jnsgd1na2vs0mg"},{"bike_id":"5c50b3bb-2a4b-4fc8-b273-bbfda62e2ea6","system_id":"levelo_inurba_marseille","lat":43.27996,"lon":5.3875,"is_reserved":false,"is_disabled":false,"rental_uris":{"android":"levelo://app?vid=5c50b3bb-2a4b-4fc8-b273-bbfda62e2ea6","ios":"levelo://app?vid=5c50b3bb-2a4b-4fc8-b273-bbfda62e2ea6"},"vehicle_type_id":"4","last_reported":1742324872,"current_range_meters":6800,"station_id":"ce4bhg12rcd13ifvqf80","pricing_plan_id":"cebpf4jnsgd1na2vs0mg"},{"bike_id":"db85a551-7379-4999-871e-b1611c31baae","system_id":"levelo_inurba_marseille","lat":43.27846,"lon":5.39241,"is_reserved":false,"is_disabled":false,"rental_uris":{"android":"levelo://app?vid=db85a551-7379-4999-871e-b1611c31baae","ios":"levelo://app?vid=db85a551-7379-4999-871e-b1611c31baae"},"vehicle_type_id":"4","last_reported":1742324872,"current_range_meters":6800,"station_id":"ce4bhjp2rcd13ifvqga0","pricing_plan_id":"cebpf4jnsgd1na2vs0mg"},{"bike_id":"35695dd4-791c-4486-b261-10bd7a9e52e9","system_id":"levelo_inurba_marseille","lat":43.26214,"lon":5.40466,"is_reserved":false,"is_disabled":true,"rental_uris":{"android":"levelo://app?vid=35695dd4-791c-4486-b261-10bd7a9e52e9","ios":"levelo://app?vid=35695dd4-791c-4486-b261-10bd7a9e52e9"},"vehicle_type_id":"4","last_reported":1742324872,"current_range_meters":6800,"station_id":"ce4bhmh2rcd13ifvqgmg","pricing_plan_id":"cebpf4jnsgd1na2vs0mg"},{"bike_id":"bce68321-ea46-45a1-acf4-411ff25d4aed","system_id":"levelo_inurba_marseille","lat":43.29267,"lon":5.40183,"is_reserved":false,"is_disabled":false,"rental_uris":{"android":"levelo://app?vid=bce68321-ea46-45a1-acf4-411ff25d4aed","ios":"levelo://app?vid=bce68321-ea46-45a1-acf4-411ff25d4aed"},"vehicle_type_id":"4","last_reported":1742324872,"current_range_meters":6800,"station_id":"","pricing_plan_id":"cebpf4jnsgd1na2vs0mg"},{"bike_id":"0d3accb9-853e-4df0-b9d8-4607b8048f46","system_id":"levelo_inurba_marseille","lat":43.241692,"lon":5.363952,"is_reserved":false,"is_disabled":false,"rental_uris":{"android":"levelo://app?vid=0d3accb9-853e-4df0-b9d8-4607b8048f46","ios":"levelo://app?vid=0d3accb9-853e-4df0-b9d8-4607b8048f46"},"vehicle_type_id":"4","last_reported":1742324872,"current_range_meters":6800,"station_id":"cpo36qri1sfpv3e86is0","pricing_plan_id":"cebpf4jnsgd1na2vs0mg"},{"bike_id":"c79383e1-b7d7-41c2-84b4-f21d4597d4dd","system_id":"levelo_inurba_marseille","lat":43.30576,"lon":5.39393,"is_reserved":false,"is_disabled":false,"rental_uris":{"android":"levelo://app?vid=c79383e1-b7d7-41c2-84b4-f21d4597d4dd","ios":"levelo://app?vid=c79383e1-b7d7-41c2-84b4-f21d4597d4dd"},"vehicle_type_id":"4","last_reported":1742324872,"current_range_meters":6800,"station_id":"ce4bh0p2rcd13ifvqd80","pricing_plan_id":"cebpf4jnsgd1na2vs0mg"},{"bike_id":"8fe7e33b-57fc-439c-ba02-015988635c80","system_id":"levelo_inurba_marseille","lat":43.27059,"lon":5.42249,"is_reserved":false,"is_disabled":true,"rental_uris":{"android":"levelo://app?vid=8fe7e33b-57fc-439c-ba02-015988635c80","ios":"levelo://app?vid=8fe7e33b-57fc-439c-ba02-015988635c80"},"vehicle_type_id":"4","last_reported":1742324872,"current_range_meters":6800,"station_id":"ce4bhk92rcd13ifvqgb0","pricing_plan_id":"cebpf4jnsgd1na2vs0mg"},{"bike_id":"bf53558a-323c-40e3-9c37-ac64ba388e1c","system_id":"levelo_inurba_marseille","lat":43.239633,"lon":5.366289,"is_reserved":false,"is_disabled":false,"rental_uris":{"android":"levelo://app?vid=bf53558a-323c-40e3-9c37-ac64ba388e1c","ios":"levelo://app?vid=bf53558a-323c-40e3-9c37-ac64ba388e1c"},"vehicle_type_id":"4","last_reported":1742324872,"current_range_meters":6800,"station_id":"ce4bhi12rcd13ifvqfp0","pricing_plan_id":"cebpf4jnsgd1na2vs0mg"},{"bike_id":"6368f354-6da7-4884-a394-062f1a963ed6","system_id":"levelo_inurba_marseille","lat":43.29289,"lon":5.4281,"is_reserved":false,"is_disabled":false,"rental_uris":{"android":"levelo://app?vid=6368f354-6da7-4884-a394-062f1a963ed6","ios":"levelo://app?vid=6368f354-6da7-4884-a394-062f1a963ed6"},"vehicle_type_id":"4","last_reported":1742324872,"current_range_meters":6800,"station_id":"","pricing_plan_id":"cebpf4jnsgd1na2vs0mg"},{"bike_id":"99db3951-c4b3-41dc-a2ed-a258284f612b","system_id":"levelo_inurba_marseille","lat":43.27956,"lon":5.41054,"is_reserved":false,"is_disabled":false,"rental_uris":{"android":"levelo://app?vid=99db3951-c4b3-41dc-a2ed-a258284f612b","ios":"levelo://app?vid=99db3951-c4b3-41dc-a2ed-a258284f612b"},"vehicle_type_id":"4","last_reported":1742324872,"current_range_meters":7200,"station_id":"ce4bhnp2rcd13ifvqh0g","pricing_plan_id":"cebpf4jnsgd1na2vs0mg"},{"bike_id":"97a1e633-c2b3-487e-8569-9036bf18d175","system_id":"levelo_inurba_marseille","lat":43.24163,"lon":5.36439,"is_reserved":false,"is_disabled":false,"rental_uris":{"android":"levelo://app?vid=97a1e633-c2b3-487e-8569-9036bf18d175","ios":"levelo://app?vid=97a1e633-c2b3-487e-8569-9036bf18d175"},"vehicle_type_id":"4","last_reported":1742324872,"current_range_meters":7200,"station_id":"cpo36qri1sfpv3e86is0","pricing_plan_id":"cebpf4jnsgd1na2vs0mg"},{"bike_id":"35cb1776-fa23-4e2a-8e48-57ce60999c69","system_id":"levelo_inurba_marseille","lat":43.33022,"lon":5.39031,"is_reserved":false,"is_disabled":false,"rental_uris":{"android":"levelo://app?vid=35cb1776-fa23-4e2a-8e48-57ce60999c69","ios":"levelo://app?vid=35cb1776-fa23-4e2a-8e48-57ce60999c69"},"vehicle_type_id":"4","last_reported":1742324872,"current_range_meters":7200,"station_id":"ce4bhr92rcd13ifvqhrg","pricing_plan_id":"cebpf4jnsgd1na2vs0mg"},{"bike_id":"5a6f8c2b-5aa1-4b2f-b5ae-da0e8f38903c","system_id":"levelo_inurba_marseille","lat":43.31322,"lon":5.39691,"is_reserved":false,"is_disabled":false,"rental_uris":{"android":"levelo://app?vid=5a6f8c2b-5aa1-4b2f-b5ae-da0e8f38903c","ios":"levelo://app?vid=5a6f8c2b-5aa1-4b2f-b5ae-da0e8f38903c"},"vehicle_type_id":"4","last_reported":1742324872,"current_range_meters":7200,"station_id":"ce4bgvp2rcd13ifvqcu0","pricing_plan_id":"cebpf4jnsgd1na2vs0mg"},{"bike_id":"df4642c9-c3fd-4f88-b1d5-c33a4aa2259c","system_id":"levelo_inurba_marseille","lat":43.23188,"lon":5.39998,"is_reserved":false,"is_disabled":false,"rental_uris":{"android":"levelo://app?vid=df4642c9-c3fd-4f88-b1d5-c33a4aa2259c","ios":"levelo://app?vid=df4642c9-c3fd-4f88-b1d5-c33a4aa2259c"},"vehicle_type_id":"4","last_reported":1742324872,"current_range_meters":7200,"station_id":"ce4bhn12rcd13ifvqgqg","pricing_plan_id":"cebpf4jnsgd1na2vs0mg"},{"bike_id":"10b17d45-81b5-40a2-938b-cc817dd1eaf7","system_id":"levelo_inurba_marseille","lat":43.2501,"lon":5.38935,"is_reserved":false,"is_disabled":true,"rental_uris":{"android":"levelo://app?vid=10b17d45-81b5-40a2-938b-cc817dd1eaf7","ios":"levelo://app?vid=10b17d45-81b5-40a2-938b-cc817dd1eaf7"},"vehicle_type_id":"4","last_reported":1742324872,"current_range_meters":7200,"station_id":"ce4bhgp2rcd13ifvqfd0","pricing_plan_id":"cebpf4jnsgd1na2vs0mg"},{"bike_id":"250c5758-5060-41bb-8ac1-9a0cf0278ed0","system_id":"levelo_inurba_marseille","lat":43.27821,"lon":5.40727,"is_reserved":false,"is_disabled":false,"rental_uris":{"android":"levelo://app?vid=250c5758-5060-41bb-8ac1-9a0cf0278ed0","ios":"levelo://app?vid=250c5758-5060-41bb-8ac1-9a0cf0278ed0"},"vehicle_type_id":"4","last_reported":1742324872,"current_range_meters":7200,"station_id":"ce4bhnh2rcd13ifvqgtg","pricing_plan_id":"cebpf4jnsgd1na2vs0mg"},{"bike_id":"8a4e1b2e-8fac-480b-a668-ef6a620a9814","system_id":"levelo_inurba_marseille","lat":43.27905,"lon":5.42417,"is_reserved":false,"is_disabled":false,"rental_uris":{"android":"levelo://app?vid=8a4e1b2e-8fac-480b-a668-ef6a620a9814","ios":"levelo://app?vid=8a4e1b2e-8fac-480b-a668-ef6a620a9814"},"vehicle_type_id":"4","last_reported":1742324872,"current_range_meters":7200,"station_id":"","pricing_plan_id":"cebpf4jnsgd1na2vs0mg"},{"bike_id":"e94b1f20-3e0e-4dcb-9056-1e4af333e85a","system_id":"levelo_inurba_marseille","lat":43.29195,"lon":5.39334,"is_reserved":false,"is_disabled":true,"rental_uris":{"android":"levelo://app?vid=e94b1f20-3e0e-4dcb-9056-1e4af333e85a","ios":"levelo://app?vid=e94b1f20-3e0e-4dcb-9056-1e4af333e85a"},"vehicle_type_id":"4","last_reported":1742324872,"current_range_meters":7200,"station_id":"ce4bh192rcd13ifvqdd0","pricing_plan_id":"cebpf4jnsgd1na2vs0mg"},{"bike_id":"effa4a25-70e2-4b36-b85f-2dfad7e52e85","system_id":"levelo_inurba_marseille","lat":43.25576,"lon":5.38245,"is_reserved":false,"is_disabled":false,"rental_uris":{"android":"levelo://app?vid=effa4a25-70e2-4b36-b85f-2dfad7e52e85","ios":"levelo://app?vid=effa4a25-70e2-4b36-b85f-2dfad7e52e85"},"vehicle_type_id":"4","last_reported":1742324872,"current_range_meters":8000,"station_id":"ce4bhih2rcd13ifvqfs0","pricing_plan_id":"cebpf4jnsgd1na2vs0mg"},{"bike_id":"e8a73224-328a-487c-87f0-01bcaef34fc9","system_id":"levelo_inurba_marseille","lat":43.28712,"lon":5.37401,"is_reserved":false,"is_disabled":false,"rental_uris":{"android":"levelo://app?vid=e8a73224-328a-487c-87f0-01bcaef34fc9","ios":"levelo://app?vid=e8a73224-328a-487c-87f0-01bcaef34fc9"},"vehicle_type_id":"4","last_reported":1742324872,"current_range_meters":8000,"station_id":"ce4bh3p2rcd13ifvqdq0","pricing_plan_id":"cebpf4jnsgd1na2vs0mg"},{"bike_id":"58a14cd0-cc36-4f39-98f8-ead4fe9adccd","system_id":"levelo_inurba_marseille","lat":43.29198,"lon":5.35823,"is_reserved":false,"is_disabled":false,"rental_uris":{"android":"levelo://app?vid=58a14cd0-cc36-4f39-98f8-ead4fe9adccd","ios":"levelo://app?vid=58a14cd0-cc36-4f39-98f8-ead4fe9adccd"},"vehicle_type_id":"4","last_reported":1742324872,"current_range_meters":8000,"station_id":"ce4bhb12rcd13ifvqel0","pricing_plan_id":"cebpf4jnsgd1na2vs0mg"},{"bike_id":"11ae9a5e-0a71-4a20-9502-08d6db110e90","system_id":"levelo_inurba_marseille","lat":43.22933,"lon":5.35379,"is_reserved":false,"is_disabled":false,"rental_uris":{"android":"levelo://app?vid=11ae9a5e-0a71-4a20-9502-08d6db110e90","ios":"levelo://app?vid=11ae9a5e-0a71-4a20-9502-08d6db110e90"},"vehicle_type_id":"4","last_reported":1742324872,"current_range_meters":8000,"station_id":"cpo3532slgdg3j2ikp40","pricing_plan_id":"cebpf4jnsgd1na2vs0mg"},{"bike_id":"52bd4f14-775f-459f-9791-851d088e69cb","system_id":"levelo_inurba_marseille","lat":43.24997,"lon":5.38932,"is_reserved":false,"is_disabled":false,"rental_uris":{"android":"levelo://app?vid=52bd4f14-775f-459f-9791-851d088e69cb","ios":"levelo://app?vid=52bd4f14-775f-459f-9791-851d088e69cb"},"vehicle_type_id":"4","last_reported":1742324872,"current_range_meters":8000,"station_id":"ce4bhgp2rcd13ifvqfd0","pricing_plan_id":"cebpf4jnsgd1na2vs0mg"},{"bike_id":"bdb8769c-3cc7-4c56-ae39-caab631c5811","system_id":"levelo_inurba_marseille","lat":43.30093,"lon":5.39074,"is_reserved":false,"is_disabled":false,"rental_uris":{"android":"levelo://app?vid=bdb8769c-3cc7-4c56-ae39-caab631c5811","ios":"levelo://app?vid=bdb8769c-3cc7-4c56-ae39-caab631c5811"},"vehicle_type_id":"4","last_reported":1742324872,"current_range_meters":8000,"station_id":"ce4bh192rcd13ifvqdb0","pricing_plan_id":"cebpf4jnsgd1na2vs0mg"},{"bike_id":"a31c77d8-4378-47d6-8c3a-a5063f16fc9d","system_id":"levelo_inurba_marseille","lat":43.27816,"lon":5.40706,"is_reserved":false,"is_disabled":false,"rental_uris":{"android":"levelo://app?vid=a31c77d8-4378-47d6-8c3a-a5063f16fc9d","ios":"levelo://app?vid=a31c77d8-4378-47d6-8c3a-a5063f16fc9d"},"vehicle_type_id":"4","last_reported":1742324872,"current_range_meters":8000,"station_id":"ce4bhnh2rcd13ifvqgtg","pricing_plan_id":"cebpf4jnsgd1na2vs0mg"},{"bike_id":"94411861-9616-448f-9fde-fe5607357fee","system_id":"levelo_inurba_marseille","lat":43.28858,"lon":5.39304,"is_reserved":false,"is_disabled":false,"rental_uris":{"android":"levelo://app?vid=94411861-9616-448f-9fde-fe5607357fee","ios":"levelo://app?vid=94411861-9616-448f-9fde-fe5607357fee"},"vehicle_type_id":"4","last_reported":1742324872,"current_range_meters":8000,"station_id":"ce4bh2p2rcd13ifvqdi0","pricing_plan_id":"cebpf4jnsgd1na2vs0mg"},{"bike_id":"a3fec295-68aa-470d-940b-bfa62c541ae0","system_id":"levelo_inurba_marseille","lat":43.26577,"lon":5.3902,"is_reserved":false,"is_disabled":false,"rental_uris":{"android":"levelo://app?vid=a3fec295-68aa-470d-940b-bfa62c541ae0","ios":"levelo://app?vid=a3fec295-68aa-470d-940b-bfa62c541ae0"},"vehicle_type_id":"4","last_reported":1742324872,"current_range_meters":8000,"station_id":"ce4bhe12rcd13ifvqf30","pricing_plan_id":"cebpf4jnsgd1na2vs0mg"},{"bike_id":"8b58540f-1057-48ac-95ef-922b5f2bd2a2","system_id":"levelo_inurba_marseille","lat":43.28464,"lon":5.35891,"is_reserved":false,"is_disabled":false,"rental_uris":{"android":"levelo://app?vid=8b58540f-1057-48ac-95ef-922b5f2bd2a2","ios":"levelo://app?vid=8b58540f-1057-48ac-95ef-922b5f2bd2a2"},"vehicle_type_id":"4","last_reported":1742324872,"current_range_meters":8000,"station_id":"ce4bhah2rcd13ifvqei0","pricing_plan_id":"cebpf4jnsgd1na2vs0mg"},{"bike_id":"bb28a487-396d-4178-be53-7a3f0425393c","system_id":"levelo_inurba_marseille","lat":43.29042,"lon":5.3997,"is_reserved":false,"is_disabled":false,"rental_uris":{"android":"levelo://app?vid=bb28a487-396d-4178-be53-7a3f0425393c","ios":"levelo://app?vid=bb28a487-396d-4178-be53-7a3f0425393c"},"vehicle_type_id":"4","last_reported":1742324872,"current_range_meters":5600,"station_id":"ce4bh392rcd13ifvqdm0","pricing_plan_id":"cebpf4jnsgd1na2vs0mg"},{"bike_id":"e7aa7552-9ec4-4605-8c8a-dfdfcb2f14ec","system_id":"levelo_inurba_marseille","lat":43.2886,"lon":5.35844,"is_reserved":false,"is_disabled":false,"rental_uris":{"android":"levelo://app?vid=e7aa7552-9ec4-4605-8c8a-dfdfcb2f14ec","ios":"levelo://app?vid=e7aa7552-9ec4-4605-8c8a-dfdfcb2f14ec"},"vehicle_type_id":"4","last_reported":1742324872,"current_range_meters":8000,"station_id":"ce4bhb12rcd13ifvqem0","pricing_plan_id":"cebpf4jnsgd1na2vs0mg"},{"bike_id":"b1d56c93-1c30-46d4-88e0-7bb2380440eb","system_id":"levelo_inurba_marseille","lat":43.29254,"lon":5.38438,"is_reserved":false,"is_disabled":false,"rental_uris":{"android":"levelo://app?vid=b1d56c93-1c30-46d4-88e0-7bb2380440eb","ios":"levelo://app?vid=b1d56c93-1c30-46d4-88e0-7bb2380440eb"},"vehicle_type_id":"4","last_reported":1742324872,"current_range_meters":8000,"station_id":"ce4bh692rcd13ifvqea0","pricing_plan_id":"cebpf4jnsgd1na2vs0mg"},{"bike_id":"a9c5c5af-9ef8-4f57-8e4e-fbc40fd053f3","system_id":"levelo_inurba_marseille","lat":43.32288,"lon":5.3829,"is_reserved":false,"is_disabled":false,"rental_uris":{"android":"levelo://app?vid=a9c5c5af-9ef8-4f57-8e4e-fbc40fd053f3","ios":"levelo://app?vid=a9c5c5af-9ef8-4f57-8e4e-fbc40fd053f3"},"vehicle_type_id":"4","last_reported":1742324872,"current_range_meters":8400,"station_id":"ce4bhr12rcd13ifvqhqg","pricing_plan_id":"cebpf4jnsgd1na2vs0mg"},{"bike_id":"0d56fa50-4182-45c4-a368-de058e300a1a","system_id":"levelo_inurba_marseille","lat":43.29068,"lon":5.37155,"is_reserved":false,"is_disabled":false,"rental_uris":{"android":"levelo://app?vid=0d56fa50-4182-45c4-a368-de058e300a1a","ios":"levelo://app?vid=0d56fa50-4182-45c4-a368-de058e300a1a"},"vehicle_type_id":"4","last_reported":1742324872,"current_range_meters":8400,"station_id":"ce4bh5p2rcd13ifvqe4g","pricing_plan_id":"cebpf4jnsgd1na2vs0mg"},{"bike_id":"05e17ea3-22c4-45fd-81c0-b80bf24215eb","system_id":"levelo_inurba_marseille","lat":43.28269,"lon":5.35065,"is_reserved":false,"is_disabled":false,"rental_uris":{"android":"levelo://app?vid=05e17ea3-22c4-45fd-81c0-b80bf24215eb","ios":"levelo://app?vid=05e17ea3-22c4-45fd-81c0-b80bf24215eb"},"vehicle_type_id":"4","last_reported":1742324872,"current_range_meters":8000,"station_id":"ce4bhbp2rcd13ifvqerg","pricing_plan_id":"cebpf4jnsgd1na2vs0mg"},{"bike_id":"efb75df5-e167-4fdc-9754-19b638fa1a14","system_id":"levelo_inurba_marseille","lat":43.28447,"lon":5.39207,"is_reserved":false,"is_disabled":false,"rental_uris":{"android":"levelo://app?vid=efb75df5-e167-4fdc-9754-19b638fa1a14","ios":"levelo://app?vid=efb75df5-e167-4fdc-9754-19b638fa1a14"},"vehicle_type_id":"4","last_reported":1742324872,"current_range_meters":11200,"station_id":"ce4bhoh2rcd13ifvqh5g","pricing_plan_id":"cebpf4jnsgd1na2vs0mg"},{"bike_id":"9533dcf1-615c-44dc-998d-470e23184004","system_id":"levelo_inurba_marseille","lat":43.28943,"lon":5.36638,"is_reserved":false,"is_disabled":false,"rental_uris":{"android":"levelo://app?vid=9533dcf1-615c-44dc-998d-470e23184004","ios":"levelo://app?vid=9533dcf1-615c-44dc-998d-470e23184004"},"vehicle_type_id":"4","last_reported":1742324872,"current_range_meters":8400,"station_id":"ce4bhap2rcd13ifvqek0","pricing_plan_id":"cebpf4jnsgd1na2vs0mg"},{"bike_id":"f6174ae0-720a-4ba6-b239-ca9c338b4e80","system_id":"levelo_inurba_marseille","lat":43.29545,"lon":5.37495,"is_reserved":false,"is_disabled":false,"rental_uris":{"android":"levelo://app?vid=f6174ae0-720a-4ba6-b239-ca9c338b4e80","ios":"levelo://app?vid=f6174ae0-720a-4ba6-b239-ca9c338b4e80"},"vehicle_type_id":"4","last_reported":1742324872,"current_range_meters":8400,"station_id":"ce4bgkp2rcd13ifvqbmg","pricing_plan_id":"cebpf4jnsgd1na2vs0mg"},{"bike_id":"8bfc242c-df93-4661-bdab-462c9f15b0d7","system_id":"levelo_inurba_marseille","lat":43.31168,"lon":5.38681,"is_reserved":false,"is_disabled":false,"rental_uris":{"android":"levelo://app?vid=8bfc242c-df93-4661-bdab-462c9f15b0d7","ios":"levelo://app?vid=8bfc242c-df93-4661-bdab-462c9f15b0d7"},"vehicle_type_id":"4","last_reported":1742324872,"current_range_meters":8400,"station_id":"ce4bgv12rcd13ifvqcp0","pricing_plan_id":"cebpf4jnsgd1na2vs0mg"},{"bike_id":"38233fcc-45aa-475d-b774-1f1525a8fb6d","system_id":"levelo_inurba_marseille","lat":43.26045,"lon":5.39436,"is_reserved":false,"is_disabled":false,"rental_uris":{"android":"levelo://app?vid=38233fcc-45aa-475d-b774-1f1525a8fb6d","ios":"levelo://app?vid=38233fcc-45aa-475d-b774-1f1525a8fb6d"},"vehicle_type_id":"4","last_reported":1742324872,"current_range_meters":8400,"station_id":"ce4bhh92rcd13ifvqfj0","pricing_plan_id":"cebpf4jnsgd1na2vs0mg"},{"bike_id":"9c47177a-7452-479f-9af2-f5dddd6db58b","system_id":"levelo_inurba_marseille","lat":43.33024,"lon":5.3903,"is_reserved":false,"is_disabled":false,"rental_uris":{"android":"levelo://app?vid=9c47177a-7452-479f-9af2-f5dddd6db58b","ios":"levelo://app?vid=9c47177a-7452-479f-9af2-f5dddd6db58b"},"vehicle_type_id":"4","last_reported":1742324872,"current_range_meters":8400,"station_id":"ce4bhr92rcd13ifvqhrg","pricing_plan_id":"cebpf4jnsgd1na2vs0mg"},{"bike_id":"fb145837-3957-4828-b675-d20baffd6aa7","system_id":"levelo_inurba_marseille","lat":43.27457,"lon":5.38501,"is_reserved":false,"is_disabled":false,"rental_uris":{"android":"levelo://app?vid=fb145837-3957-4828-b675-d20baffd6aa7","ios":"levelo://app?vid=fb145837-3957-4828-b675-d20baffd6aa7"},"vehicle_type_id":"4","last_reported":1742324872,"current_range_meters":8400,"station_id":"ce4bhh92rcd13ifvqfi0","pricing_plan_id":"cebpf4jnsgd1na2vs0mg"},{"bike_id":"821ec8bd-8264-4bcb-95fa-b86d86f34632","system_id":"levelo_inurba_marseille","lat":43.28677,"lon":5.38665,"is_reserved":false,"is_disabled":false,"rental_uris":{"android":"levelo://app?vid=821ec8bd-8264-4bcb-95fa-b86d86f34632","ios":"levelo://app?vid=821ec8bd-8264-4bcb-95fa-b86d86f34632"},"vehicle_type_id":"4","last_reported":1742324872,"current_range_meters":8400,"station_id":"ce4bh492rcd13ifvqdug","pricing_plan_id":"cebpf4jnsgd1na2vs0mg"},{"bike_id":"c615b7dd-2094-4974-82b8-2a84922ae42d","system_id":"levelo_inurba_marseille","lat":43.25508,"lon":5.37657,"is_reserved":false,"is_disabled":false,"rental_uris":{"android":"levelo://app?vid=c615b7dd-2094-4974-82b8-2a84922ae42d","ios":"levelo://app?vid=c615b7dd-2094-4974-82b8-2a84922ae42d"},"vehicle_type_id":"4","last_reported":1742324872,"current_range_meters":8400,"station_id":"ce4bhh12rcd13ifvqff0","pricing_plan_id":"cebpf4jnsgd1na2vs0mg"},{"bike_id":"1254e7e4-4ed8-4049-bc07-60ddfd8f73fe","system_id":"levelo_inurba_marseille","lat":43.30652,"lon":5.40081,"is_reserved":false,"is_disabled":false,"rental_uris":{"android":"levelo://app?vid=1254e7e4-4ed8-4049-bc07-60ddfd8f73fe","ios":"levelo://app?vid=1254e7e4-4ed8-4049-bc07-60ddfd8f73fe"},"vehicle_type_id":"4","last_reported":1742324872,"current_range_meters":8400,"station_id":"ce4bh112rcd13ifvqda0","pricing_plan_id":"cebpf4jnsgd1na2vs0mg"},{"bike_id":"e71849af-de56-4f87-b317-1ec98bcedad4","system_id":"levelo_inurba_marseille","lat":43.29255,"lon":5.38433,"is_reserved":false,"is_disabled":false,"rental_uris":{"android":"levelo://app?vid=e71849af-de56-4f87-b317-1ec98bcedad4","ios":"levelo://app?vid=e71849af-de56-4f87-b317-1ec98bcedad4"},"vehicle_type_id":"4","last_reported":1742324872,"current_range_meters":8400,"station_id":"ce4bh692rcd13ifvqea0","pricing_plan_id":"cebpf4jnsgd1na2vs0mg"},{"bike_id":"faccb755-09d8-4857-a76e-a52465dbf53e","system_id":"levelo_inurba_marseille","lat":43.28422,"lon":5.34992,"is_reserved":false,"is_disabled":false,"rental_uris":{"android":"levelo://app?vid=faccb755-09d8-4857-a76e-a52465dbf53e","ios":"levelo://app?vid=faccb755-09d8-4857-a76e-a52465dbf53e"},"vehicle_type_id":"4","last_reported":1742324872,"current_range_meters":8800,"station_id":"ce4bhbh2rcd13ifvqepg","pricing_plan_id":"cebpf4jnsgd1na2vs0mg"},{"bike_id":"bf851786-cfd2-4b4a-a4f0-07ea47005cae","system_id":"levelo_inurba_marseille","lat":43.24805,"lon":5.37456,"is_reserved":false,"is_disabled":false,"rental_uris":{"android":"levelo://app?vid=bf851786-cfd2-4b4a-a4f0-07ea47005cae","ios":"levelo://app?vid=bf851786-cfd2-4b4a-a4f0-07ea47005cae"},"vehicle_type_id":"4","last_reported":1742324872,"current_range_meters":8800,"station_id":"ce4bhgh2rcd13ifvqfb0","pricing_plan_id":"cebpf4jnsgd1na2vs0mg"},{"bike_id":"87abaf66-9fc5-4cf1-84c5-1f3afd52d3df","system_id":"levelo_inurba_marseille","lat":43.24805,"lon":5.37458,"is_reserved":false,"is_disabled":false,"rental_uris":{"android":"levelo://app?vid=87abaf66-9fc5-4cf1-84c5-1f3afd52d3df","ios":"levelo://app?vid=87abaf66-9fc5-4cf1-84c5-1f3afd52d3df"},"vehicle_type_id":"4","last_reported":1742324872,"current_range_meters":8800,"station_id":"ce4bhgh2rcd13ifvqfb0","pricing_plan_id":"cebpf4jnsgd1na2vs0mg"},{"bike_id":"9c9eefbe-8f3c-4001-87cb-225af4d0f3cc","system_id":"levelo_inurba_marseille","lat":43.27813,"lon":5.40718,"is_reserved":false,"is_disabled":false,"rental_uris":{"android":"levelo://app?vid=9c9eefbe-8f3c-4001-87cb-225af4d0f3cc","ios":"levelo://app?vid=9c9eefbe-8f3c-4001-87cb-225af4d0f3cc"},"vehicle_type_id":"4","last_reported":1742324872,"current_range_meters":8800,"station_id":"ce4bhnh2rcd13ifvqgtg","pricing_plan_id":"cebpf4jnsgd1na2vs0mg"},{"bike_id":"d0ecd06f-b344-485c-8550-9fa5bf448f53","system_id":"levelo_inurba_marseille","lat":43.25836,"lon":5.39433,"is_reserved":false,"is_disabled":false,"rental_uris":{"android":"levelo://app?vid=d0ecd06f-b344-485c-8550-9fa5bf448f53","ios":"levelo://app?vid=d0ecd06f-b344-485c-8550-9fa5bf448f53"},"vehicle_type_id":"4","last_reported":1742324872,"current_range_meters":8800,"station_id":"ce4bhip2rcd13ifvqft0","pricing_plan_id":"cebpf4jnsgd1na2vs0mg"},{"bike_id":"5cc7107b-4638-44b7-9016-fb56a8137a82","system_id":"levelo_inurba_marseille","lat":43.33019,"lon":5.39044,"is_reserved":false,"is_disabled":false,"rental_uris":{"android":"levelo://app?vid=5cc7107b-4638-44b7-9016-fb56a8137a82","ios":"levelo://app?vid=5cc7107b-4638-44b7-9016-fb56a8137a82"},"vehicle_type_id":"4","last_reported":1742324872,"current_range_meters":8800,"station_id":"ce4bhr92rcd13ifvqhrg","pricing_plan_id":"cebpf4jnsgd1na2vs0mg"},{"bike_id":"01ec6899-9e70-425a-a91b-c49e5fc36660","system_id":"levelo_inurba_marseille","lat":43.24812,"lon":5.37469,"is_reserved":false,"is_disabled":false,"rental_uris":{"android":"levelo://app?vid=01ec6899-9e70-425a-a91b-c49e5fc36660","ios":"levelo://app?vid=01ec6899-9e70-425a-a91b-c49e5fc36660"},"vehicle_type_id":"4","last_reported":1742324872,"current_range_meters":8800,"station_id":"ce4bhgh2rcd13ifvqfb0","pricing_plan_id":"cebpf4jnsgd1na2vs0mg"},{"bike_id":"049b5602-ba3f-4a09-ad40-b8c54e6f1cb6","system_id":"levelo_inurba_marseille","lat":43.25012,"lon":5.38915,"is_reserved":false,"is_disabled":true,"rental_uris":{"android":"levelo://app?vid=049b5602-ba3f-4a09-ad40-b8c54e6f1cb6","ios":"levelo://app?vid=049b5602-ba3f-4a09-ad40-b8c54e6f1cb6"},"vehicle_type_id":"4","last_reported":1742324872,"current_range_meters":8800,"station_id":"ce4bhgp2rcd13ifvqfd0","pricing_plan_id":"cebpf4jnsgd1na2vs0mg"},{"bike_id":"15645d94-7469-4019-9aed-16b0915fbe2f","system_id":"levelo_inurba_marseille","lat":43.32843,"lon":5.39137,"is_reserved":false,"is_disabled":false,"rental_uris":{"android":"levelo://app?vid=15645d94-7469-4019-9aed-16b0915fbe2f","ios":"levelo://app?vid=15645d94-7469-4019-9aed-16b0915fbe2f"},"vehicle_type_id":"4","last_reported":1742324872,"current_range_meters":8800,"station_id":"","pricing_plan_id":"cebpf4jnsgd1na2vs0mg"},{"bike_id":"523f7217-6365-4b44-af7f-96fbef032276","system_id":"levelo_inurba_marseille","lat":43.23144,"lon":5.43729,"is_reserved":false,"is_disabled":false,"rental_uris":{"android":"levelo://app?vid=523f7217-6365-4b44-af7f-96fbef032276","ios":"levelo://app?vid=523f7217-6365-4b44-af7f-96fbef032276"},"vehicle_type_id":"4","last_reported":1742324872,"current_range_meters":8800,"station_id":"ce4bhmp2rcd13ifvqgog","pricing_plan_id":"cebpf4jnsgd1na2vs0mg"},{"bike_id":"2e1c9b27-bb46-4223-94a6-6d251aad7971","system_id":"levelo_inurba_marseille","lat":43.27889,"lon":5.38019,"is_reserved":false,"is_disabled":false,"rental_uris":{"android":"levelo://app?vid=2e1c9b27-bb46-4223-94a6-6d251aad7971","ios":"levelo://app?vid=2e1c9b27-bb46-4223-94a6-6d251aad7971"},"vehicle_type_id":"4","last_reported":1742324872,"current_range_meters":8800,"station_id":"ce4bhf92rcd13ifvqf50","pricing_plan_id":"cebpf4jnsgd1na2vs0mg"},{"bike_id":"ab958f0d-4610-4713-b613-2b876456af05","system_id":"levelo_inurba_marseille","lat":43.30434,"lon":5.39754,"is_reserved":false,"is_disabled":false,"rental_uris":{"android":"levelo://app?vid=ab958f0d-4610-4713-b613-2b876456af05","ios":"levelo://app?vid=ab958f0d-4610-4713-b613-2b876456af05"},"vehicle_type_id":"4","last_reported":1742324872,"current_range_meters":8800,"station_id":"ce4bh092rcd13ifvqd20","pricing_plan_id":"cebpf4jnsgd1na2vs0mg"},{"bike_id":"8f79f3b7-6513-4def-bb2d-05a7d82b97a5","system_id":"levelo_inurba_marseille","lat":43.24155,"lon":5.36438,"is_reserved":false,"is_disabled":false,"rental_uris":{"android":"levelo://app?vid=8f79f3b7-6513-4def-bb2d-05a7d82b97a5","ios":"levelo://app?vid=8f79f3b7-6513-4def-bb2d-05a7d82b97a5"},"vehicle_type_id":"4","last_reported":1742324872,"current_range_meters":8800,"station_id":"cpo36qri1sfpv3e86is0","pricing_plan_id":"cebpf4jnsgd1na2vs0mg"},{"bike_id":"9120e1d8-20e9-414e-9c4f-f33aa615c8ae","system_id":"levelo_inurba_marseille","lat":43.30263,"lon":5.40083,"is_reserved":false,"is_disabled":false,"rental_uris":{"android":"levelo://app?vid=9120e1d8-20e9-414e-9c4f-f33aa615c8ae","ios":"levelo://app?vid=9120e1d8-20e9-414e-9c4f-f33aa615c8ae"},"vehicle_type_id":"4","last_reported":1742324872,"current_range_meters":8800,"station_id":"ce4bgvh2rcd13ifvqcs0","pricing_plan_id":"cebpf4jnsgd1na2vs0mg"},{"bike_id":"0b60e72b-d8b1-4266-9b63-b94b87c1ad4b","system_id":"levelo_inurba_marseille","lat":43.23205,"lon":5.39948,"is_reserved":false,"is_disabled":false,"rental_uris":{"android":"levelo://app?vid=0b60e72b-d8b1-4266-9b63-b94b87c1ad4b","ios":"levelo://app?vid=0b60e72b-d8b1-4266-9b63-b94b87c1ad4b"},"vehicle_type_id":"4","last_reported":1742324872,"current_range_meters":9200,"station_id":"ce4bhn12rcd13ifvqgqg","pricing_plan_id":"cebpf4jnsgd1na2vs0mg"},{"bike_id":"d51ac3ee-68ed-46a4-97c6-f7fcf150053e","system_id":"levelo_inurba_marseille","lat":43.29376,"lon":5.37862,"is_reserved":false,"is_disabled":false,"rental_uris":{"android":"levelo://app?vid=d51ac3ee-68ed-46a4-97c6-f7fcf150053e","ios":"levelo://app?vid=d51ac3ee-68ed-46a4-97c6-f7fcf150053e"},"vehicle_type_id":"4","last_reported":1742324872,"current_range_meters":10000,"station_id":"ce4bgjh2rcd13ifvqbf0","pricing_plan_id":"cebpf4jnsgd1na2vs0mg"},{"bike_id":"da3ce65a-126b-4df5-a824-65550dd78cf2","system_id":"levelo_inurba_marseille","lat":43.30304,"lon":5.392153,"is_reserved":false,"is_disabled":false,"rental_uris":{"android":"levelo://app?vid=da3ce65a-126b-4df5-a824-65550dd78cf2","ios":"levelo://app?vid=da3ce65a-126b-4df5-a824-65550dd78cf2"},"vehicle_type_id":"4","last_reported":1742324872,"current_range_meters":9200,"station_id":"ce4bh412rcd13ifvqds0","pricing_plan_id":"cebpf4jnsgd1na2vs0mg"},{"bike_id":"6ae6f76c-6a01-4d75-9d3f-dfa610803a78","system_id":"levelo_inurba_marseille","lat":43.23041,"lon":5.3555,"is_reserved":false,"is_disabled":false,"rental_uris":{"android":"levelo://app?vid=6ae6f76c-6a01-4d75-9d3f-dfa610803a78","ios":"levelo://app?vid=6ae6f76c-6a01-4d75-9d3f-dfa610803a78"},"vehicle_type_id":"4","last_reported":1742324872,"current_range_meters":9200,"station_id":"","pricing_plan_id":"cebpf4jnsgd1na2vs0mg"},{"bike_id":"519efbbc-7577-4063-8eac-658ef30e98a3","system_id":"levelo_inurba_marseille","lat":43.25009,"lon":5.38889,"is_reserved":false,"is_disabled":false,"rental_uris":{"android":"levelo://app?vid=519efbbc-7577-4063-8eac-658ef30e98a3","ios":"levelo://app?vid=519efbbc-7577-4063-8eac-658ef30e98a3"},"vehicle_type_id":"4","last_reported":1742324872,"current_range_meters":9200,"station_id":"ce4bhgp2rcd13ifvqfd0","pricing_plan_id":"cebpf4jnsgd1na2vs0mg"},{"bike_id":"adffc0b0-8550-43a2-a64b-d727ff4ea905","system_id":"levelo_inurba_marseille","lat":43.23199,"lon":5.35569,"is_reserved":false,"is_disabled":false,"rental_uris":{"android":"levelo://app?vid=adffc0b0-8550-43a2-a64b-d727ff4ea905","ios":"levelo://app?vid=adffc0b0-8550-43a2-a64b-d727ff4ea905"},"vehicle_type_id":"4","last_reported":1742324872,"current_range_meters":9200,"station_id":"ce4bhu92rcd13ifvqi70","pricing_plan_id":"cebpf4jnsgd1na2vs0mg"},{"bike_id":"5e244767-2fd5-4cae-9f0c-0a11498d0074","system_id":"levelo_inurba_marseille","lat":43.27498,"lon":5.42441,"is_reserved":false,"is_disabled":false,"rental_uris":{"android":"levelo://app?vid=5e244767-2fd5-4cae-9f0c-0a11498d0074","ios":"levelo://app?vid=5e244767-2fd5-4cae-9f0c-0a11498d0074"},"vehicle_type_id":"4","last_reported":1742324872,"current_range_meters":9200,"station_id":"ce4bhn92rcd13ifvqgrg","pricing_plan_id":"cebpf4jnsgd1na2vs0mg"},{"bike_id":"253fce13-8607-4f2f-839f-40104be19b05","system_id":"levelo_inurba_marseille","lat":43.23966,"lon":5.36645,"is_reserved":false,"is_disabled":false,"rental_uris":{"android":"levelo://app?vid=253fce13-8607-4f2f-839f-40104be19b05","ios":"levelo://app?vid=253fce13-8607-4f2f-839f-40104be19b05"},"vehicle_type_id":"4","last_reported":1742324872,"current_range_meters":9200,"station_id":"ce4bhi12rcd13ifvqfp0","pricing_plan_id":"cebpf4jnsgd1na2vs0mg"},{"bike_id":"0a1469d1-2516-44d3-ab50-b6768f154d31","system_id":"levelo_inurba_marseille","lat":43.30354,"lon":5.41874,"is_reserved":false,"is_disabled":false,"rental_uris":{"android":"levelo://app?vid=0a1469d1-2516-44d3-ab50-b6768f154d31","ios":"levelo://app?vid=0a1469d1-2516-44d3-ab50-b6768f154d31"},"vehicle_type_id":"4","last_reported":1742324872,"current_range_meters":9200,"station_id":"ce4bhop2rcd13ifvqh7g","pricing_plan_id":"cebpf4jnsgd1na2vs0mg"},{"bike_id":"bbf5da56-5845-424e-84cd-e22af187a017","system_id":"levelo_inurba_marseille","lat":43.29262,"lon":5.40915,"is_reserved":false,"is_disabled":false,"rental_uris":{"android":"levelo://app?vid=bbf5da56-5845-424e-84cd-e22af187a017","ios":"levelo://app?vid=bbf5da56-5845-424e-84cd-e22af187a017"},"vehicle_type_id":"4","last_reported":1742324872,"current_range_meters":9200,"station_id":"ce4bh192rcd13ifvqdc0","pricing_plan_id":"cebpf4jnsgd1na2vs0mg"},{"bike_id":"17bf02ea-1340-4fa3-9520-406736d267b6","system_id":"levelo_inurba_marseille","lat":43.23063,"lon":5.35496,"is_reserved":false,"is_disabled":false,"rental_uris":{"android":"levelo://app?vid=17bf02ea-1340-4fa3-9520-406736d267b6","ios":"levelo://app?vid=17bf02ea-1340-4fa3-9520-406736d267b6"},"vehicle_type_id":"4","last_reported":1742324872,"current_range_meters":9200,"station_id":"cpo3342slgdg3j2ifvpg","pricing_plan_id":"cebpf4jnsgd1na2vs0mg"},{"bike_id":"ff2a24dc-d06f-4ad0-875b-37b9079febeb","system_id":"levelo_inurba_marseille","lat":43.25592,"lon":5.38236,"is_reserved":false,"is_disabled":false,"rental_uris":{"android":"levelo://app?vid=ff2a24dc-d06f-4ad0-875b-37b9079febeb","ios":"levelo://app?vid=ff2a24dc-d06f-4ad0-875b-37b9079febeb"},"vehicle_type_id":"4","last_reported":1742324872,"current_range_meters":9200,"station_id":"ce4bhih2rcd13ifvqfs0","pricing_plan_id":"cebpf4jnsgd1na2vs0mg"},{"bike_id":"678e1f76-7be4-47de-9654-17049d89c2b3","system_id":"levelo_inurba_marseille","lat":43.291,"lon":5.38113,"is_reserved":false,"is_disabled":false,"rental_uris":{"android":"levelo://app?vid=678e1f76-7be4-47de-9654-17049d89c2b3","ios":"levelo://app?vid=678e1f76-7be4-47de-9654-17049d89c2b3"},"vehicle_type_id":"4","last_reported":1742324872,"current_range_meters":9200,"station_id":"ce4bh512rcd13ifvqe2g","pricing_plan_id":"cebpf4jnsgd1na2vs0mg"},{"bike_id":"e5baec60-65a0-4d2c-9bdb-30e74b91908c","system_id":"levelo_inurba_marseille","lat":43.3061,"lon":5.37231,"is_reserved":false,"is_disabled":false,"rental_uris":{"android":"levelo://app?vid=e5baec60-65a0-4d2c-9bdb-30e74b91908c","ios":"levelo://app?vid=e5baec60-65a0-4d2c-9bdb-30e74b91908c"},"vehicle_type_id":"4","last_reported":1742324872,"current_range_meters":9200,"station_id":"ce4bgqh2rcd13ifvqc4g","pricing_plan_id":"cebpf4jnsgd1na2vs0mg"},{"bike_id":"986ebad5-66cd-4978-a7c3-858ff316a973","system_id":"levelo_inurba_marseille","lat":43.3061,"lon":5.37154,"is_reserved":false,"is_disabled":false,"rental_uris":{"android":"levelo://app?vid=986ebad5-66cd-4978-a7c3-858ff316a973","ios":"levelo://app?vid=986ebad5-66cd-4978-a7c3-858ff316a973"},"vehicle_type_id":"4","last_reported":1742324872,"current_range_meters":9200,"station_id":"","pricing_plan_id":"cebpf4jnsgd1na2vs0mg"},{"bike_id":"2fc9495d-c829-4229-a4db-5c8674880d7a","system_id":"levelo_inurba_marseille","lat":43.23052,"lon":5.35499,"is_reserved":false,"is_disabled":false,"rental_uris":{"android":"levelo://app?vid=2fc9495d-c829-4229-a4db-5c8674880d7a","ios":"levelo://app?vid=2fc9495d-c829-4229-a4db-5c8674880d7a"},"vehicle_type_id":"4","last_reported":1742324872,"current_range_meters":9200,"station_id":"cpo3342slgdg3j2ifvpg","pricing_plan_id":"cebpf4jnsgd1na2vs0mg"},{"bike_id":"e0656cbe-17e2-4129-9aab-3876211c861f","system_id":"levelo_inurba_marseille","lat":43.2872,"lon":5.3796,"is_reserved":false,"is_disabled":false,"rental_uris":{"android":"levelo://app?vid=e0656cbe-17e2-4129-9aab-3876211c861f","ios":"levelo://app?vid=e0656cbe-17e2-4129-9aab-3876211c861f"},"vehicle_type_id":"4","last_reported":1742324872,"current_range_meters":9200,"station_id":"ce4bgs12rcd13ifvqcag","pricing_plan_id":"cebpf4jnsgd1na2vs0mg"},{"bike_id":"244972ac-6b8e-496c-8ff7-a07dcecb25e0","system_id":"levelo_inurba_marseille","lat":43.28074,"lon":5.39643,"is_reserved":false,"is_disabled":false,"rental_uris":{"android":"levelo://app?vid=244972ac-6b8e-496c-8ff7-a07dcecb25e0","ios":"levelo://app?vid=244972ac-6b8e-496c-8ff7-a07dcecb25e0"},"vehicle_type_id":"4","last_reported":1742324872,"current_range_meters":9200,"station_id":"ce4bho12rcd13ifvqh2g","pricing_plan_id":"cebpf4jnsgd1na2vs0mg"},{"bike_id":"07a4ebce-0330-4a0f-b43d-3bf5b684944d","system_id":"levelo_inurba_marseille","lat":43.281548,"lon":5.4264,"is_reserved":false,"is_disabled":false,"rental_uris":{"android":"levelo://app?vid=07a4ebce-0330-4a0f-b43d-3bf5b684944d","ios":"levelo://app?vid=07a4ebce-0330-4a0f-b43d-3bf5b684944d"},"vehicle_type_id":"4","last_reported":1742324872,"current_range_meters":9600,"station_id":"ce4bhnh2rcd13ifvqgug","pricing_plan_id":"cebpf4jnsgd1na2vs0mg"},{"bike_id":"0ead00a7-0923-41bd-982b-bf2fef995ba8","system_id":"levelo_inurba_marseille","lat":43.30142,"lon":5.38779,"is_reserved":false,"is_disabled":false,"rental_uris":{"android":"levelo://app?vid=0ead00a7-0923-41bd-982b-bf2fef995ba8","ios":"levelo://app?vid=0ead00a7-0923-41bd-982b-bf2fef995ba8"},"vehicle_type_id":"4","last_reported":1742324872,"current_range_meters":9600,"station_id":"ce4bghh2rcd13ifvqb60","pricing_plan_id":"cebpf4jnsgd1na2vs0mg"},{"bike_id":"e3aac069-549f-4c2d-ac34-683928aabbc3","system_id":"levelo_inurba_marseille","lat":43.27974,"lon":5.38739,"is_reserved":false,"is_disabled":false,"rental_uris":{"android":"levelo://app?vid=e3aac069-549f-4c2d-ac34-683928aabbc3","ios":"levelo://app?vid=e3aac069-549f-4c2d-ac34-683928aabbc3"},"vehicle_type_id":"4","last_reported":1742324872,"current_range_meters":9600,"station_id":"ce4bhg12rcd13ifvqf80","pricing_plan_id":"cebpf4jnsgd1na2vs0mg"},{"bike_id":"f158cb0f-0380-45cd-a82f-e7d941bda018","system_id":"levelo_inurba_marseille","lat":43.31718,"lon":5.43723,"is_reserved":false,"is_disabled":false,"rental_uris":{"android":"levelo://app?vid=f158cb0f-0380-45cd-a82f-e7d941bda018","ios":"levelo://app?vid=f158cb0f-0380-45cd-a82f-e7d941bda018"},"vehicle_type_id":"4","last_reported":1742324872,"current_range_meters":9600,"station_id":"ce4bhp92rcd13ifvqhcg","pricing_plan_id":"cebpf4jnsgd1na2vs0mg"},{"bike_id":"c2249414-bd6a-4233-8cb5-27178d8f4dbc","system_id":"levelo_inurba_marseille","lat":43.30601,"lon":5.37233,"is_reserved":false,"is_disabled":false,"rental_uris":{"android":"levelo://app?vid=c2249414-bd6a-4233-8cb5-27178d8f4dbc","ios":"levelo://app?vid=c2249414-bd6a-4233-8cb5-27178d8f4dbc"},"vehicle_type_id":"4","last_reported":1742324872,"current_range_meters":9600,"station_id":"ce4bgqh2rcd13ifvqc4g","pricing_plan_id":"cebpf4jnsgd1na2vs0mg"},{"bike_id":"9e9c2495-9473-40c9-b829-bb02ab558426","system_id":"levelo_inurba_marseille","lat":43.27938,"lon":5.41053,"is_reserved":false,"is_disabled":false,"rental_uris":{"android":"levelo://app?vid=9e9c2495-9473-40c9-b829-bb02ab558426","ios":"levelo://app?vid=9e9c2495-9473-40c9-b829-bb02ab558426"},"vehicle_type_id":"4","last_reported":1742324872,"current_range_meters":9600,"station_id":"ce4bhnp2rcd13ifvqh0g","pricing_plan_id":"cebpf4jnsgd1na2vs0mg"},{"bike_id":"3bff80ec-e94e-42a9-988b-9e0817493bec","system_id":"levelo_inurba_marseille","lat":43.23197,"lon":5.35544,"is_reserved":false,"is_disabled":false,"rental_uris":{"android":"levelo://app?vid=3bff80ec-e94e-42a9-988b-9e0817493bec","ios":"levelo://app?vid=3bff80ec-e94e-42a9-988b-9e0817493bec"},"vehicle_type_id":"4","last_reported":1742324872,"current_range_meters":9600,"station_id":"ce4bhu92rcd13ifvqi70","pricing_plan_id":"cebpf4jnsgd1na2vs0mg"},{"bike_id":"a8c89f12-e7b0-458f-b7a3-09032d50c758","system_id":"levelo_inurba_marseille","lat":43.27817,"lon":5.40732,"is_reserved":false,"is_disabled":false,"rental_uris":{"android":"levelo://app?vid=a8c89f12-e7b0-458f-b7a3-09032d50c758","ios":"levelo://app?vid=a8c89f12-e7b0-458f-b7a3-09032d50c758"},"vehicle_type_id":"4","last_reported":1742324872,"current_range_meters":9600,"station_id":"ce4bhnh2rcd13ifvqgtg","pricing_plan_id":"cebpf4jnsgd1na2vs0mg"},{"bike_id":"3654f42b-a616-4dfb-9697-8e89a26b56d8","system_id":"levelo_inurba_marseille","lat":43.24069,"lon":5.37755,"is_reserved":false,"is_disabled":false,"rental_uris":{"android":"levelo://app?vid=3654f42b-a616-4dfb-9697-8e89a26b56d8","ios":"levelo://app?vid=3654f42b-a616-4dfb-9697-8e89a26b56d8"},"vehicle_type_id":"4","last_reported":1742324872,"current_range_meters":9600,"station_id":"ce4bhnp2rcd13ifvqgvg","pricing_plan_id":"cebpf4jnsgd1na2vs0mg"},{"bike_id":"d1069439-00e9-4aad-ad31-ab5b44b63348","system_id":"levelo_inurba_marseille","lat":43.31723,"lon":5.40472,"is_reserved":false,"is_disabled":true,"rental_uris":{"android":"levelo://app?vid=d1069439-00e9-4aad-ad31-ab5b44b63348","ios":"levelo://app?vid=d1069439-00e9-4aad-ad31-ab5b44b63348"},"vehicle_type_id":"4","last_reported":1742324872,"current_range_meters":9600,"station_id":"ce4bh012rcd13ifvqd00","pricing_plan_id":"cebpf4jnsgd1na2vs0mg"},{"bike_id":"61c41159-7a8b-45ee-a18c-926f56b3edec","system_id":"levelo_inurba_marseille","lat":43.25816,"lon":5.39389,"is_reserved":false,"is_disabled":false,"rental_uris":{"android":"levelo://app?vid=61c41159-7a8b-45ee-a18c-926f56b3edec","ios":"levelo://app?vid=61c41159-7a8b-45ee-a18c-926f56b3edec"},"vehicle_type_id":"4","last_reported":1742324872,"current_range_meters":9600,"station_id":"ce4bhip2rcd13ifvqft0","pricing_plan_id":"cebpf4jnsgd1na2vs0mg"},{"bike_id":"9ba055d9-bed5-4c51-9bbc-22a94f913ef6","system_id":"levelo_inurba_marseille","lat":43.28269,"lon":5.35071,"is_reserved":false,"is_disabled":false,"rental_uris":{"android":"levelo://app?vid=9ba055d9-bed5-4c51-9bbc-22a94f913ef6","ios":"levelo://app?vid=9ba055d9-bed5-4c51-9bbc-22a94f913ef6"},"vehicle_type_id":"4","last_reported":1742324872,"current_range_meters":9600,"station_id":"ce4bhbp2rcd13ifvqerg","pricing_plan_id":"cebpf4jnsgd1na2vs0mg"},{"bike_id":"14c676b9-fd4a-4153-aaaf-2973addc24fb","system_id":"levelo_inurba_marseille","lat":43.28672,"lon":5.38656,"is_reserved":false,"is_disabled":false,"rental_uris":{"android":"levelo://app?vid=14c676b9-fd4a-4153-aaaf-2973addc24fb","ios":"levelo://app?vid=14c676b9-fd4a-4153-aaaf-2973addc24fb"},"vehicle_type_id":"4","last_reported":1742324872,"current_range_meters":9600,"station_id":"ce4bh492rcd13ifvqdug","pricing_plan_id":"cebpf4jnsgd1na2vs0mg"},{"bike_id":"ee790210-37db-425f-a8bc-1ad741e98cc7","system_id":"levelo_inurba_marseille","lat":43.269805,"lon":5.386756,"is_reserved":false,"is_disabled":false,"rental_uris":{"android":"levelo://app?vid=ee790210-37db-425f-a8bc-1ad741e98cc7","ios":"levelo://app?vid=ee790210-37db-425f-a8bc-1ad741e98cc7"},"vehicle_type_id":"4","last_reported":1742324872,"current_range_meters":1600,"station_id":"ce4bhh92rcd13ifvqfi0","pricing_plan_id":"cebpf4jnsgd1na2vs0mg"},{"bike_id":"19103674-cd1a-42e7-b191-5c5ae786196a","system_id":"levelo_inurba_marseille","lat":43.31759,"lon":5.39015,"is_reserved":false,"is_disabled":false,"rental_uris":{"android":"levelo://app?vid=19103674-cd1a-42e7-b191-5c5ae786196a","ios":"levelo://app?vid=19103674-cd1a-42e7-b191-5c5ae786196a"},"vehicle_type_id":"4","last_reported":1742324872,"current_range_meters":9600,"station_id":"ce4bhqp2rcd13ifvqhng","pricing_plan_id":"cebpf4jnsgd1na2vs0mg"},{"bike_id":"5f6a963b-ae34-496d-9fb9-a3bd66131fbd","system_id":"levelo_inurba_marseille","lat":43.29263,"lon":5.409,"is_reserved":false,"is_disabled":false,"rental_uris":{"android":"levelo://app?vid=5f6a963b-ae34-496d-9fb9-a3bd66131fbd","ios":"levelo://app?vid=5f6a963b-ae34-496d-9fb9-a3bd66131fbd"},"vehicle_type_id":"4","last_reported":1742324872,"current_range_meters":10000,"station_id":"ce4bh192rcd13ifvqdc0","pricing_plan_id":"cebpf4jnsgd1na2vs0mg"},{"bike_id":"d00028dc-9b0d-47df-ad9d-778d21fb21b2","system_id":"levelo_inurba_marseille","lat":43.23181,"lon":5.35525,"is_reserved":false,"is_disabled":false,"rental_uris":{"android":"levelo://app?vid=d00028dc-9b0d-47df-ad9d-778d21fb21b2","ios":"levelo://app?vid=d00028dc-9b0d-47df-ad9d-778d21fb21b2"},"vehicle_type_id":"4","last_reported":1742324872,"current_range_meters":10000,"station_id":"ce4bhu92rcd13ifvqi70","pricing_plan_id":"cebpf4jnsgd1na2vs0mg"},{"bike_id":"ca1c0a28-8faf-435f-9d8b-370c3a07ff34","system_id":"levelo_inurba_marseille","lat":43.24164,"lon":5.36397,"is_reserved":false,"is_disabled":false,"rental_uris":{"android":"levelo://app?vid=ca1c0a28-8faf-435f-9d8b-370c3a07ff34","ios":"levelo://app?vid=ca1c0a28-8faf-435f-9d8b-370c3a07ff34"},"vehicle_type_id":"4","last_reported":1742324872,"current_range_meters":10000,"station_id":"cpo36qri1sfpv3e86is0","pricing_plan_id":"cebpf4jnsgd1na2vs0mg"},{"bike_id":"539fc8c4-24e6-4af1-852f-0f9aae2257a1","system_id":"levelo_inurba_marseille","lat":43.23188,"lon":5.35531,"is_reserved":false,"is_disabled":false,"rental_uris":{"android":"levelo://app?vid=539fc8c4-24e6-4af1-852f-0f9aae2257a1","ios":"levelo://app?vid=539fc8c4-24e6-4af1-852f-0f9aae2257a1"},"vehicle_type_id":"4","last_reported":1742324872,"current_range_meters":10000,"station_id":"ce4bhu92rcd13ifvqi70","pricing_plan_id":"cebpf4jnsgd1na2vs0mg"},{"bike_id":"5b2a92e7-9ef9-4d13-be18-58603b1ecb1c","system_id":"levelo_inurba_marseille","lat":43.30416,"lon":5.41295,"is_reserved":false,"is_disabled":false,"rental_uris":{"android":"levelo://app?vid=5b2a92e7-9ef9-4d13-be18-58603b1ecb1c","ios":"levelo://app?vid=5b2a92e7-9ef9-4d13-be18-58603b1ecb1c"},"vehicle_type_id":"4","last_reported":1742324872,"current_range_meters":10000,"station_id":"ce4bhop2rcd13ifvqh8g","pricing_plan_id":"cebpf4jnsgd1na2vs0mg"},{"bike_id":"5bead0f2-5ada-420f-bea0-acb8d2ad9da4","system_id":"levelo_inurba_marseille","lat":43.23178,"lon":5.3999,"is_reserved":false,"is_disabled":false,"rental_uris":{"android":"levelo://app?vid=5bead0f2-5ada-420f-bea0-acb8d2ad9da4","ios":"levelo://app?vid=5bead0f2-5ada-420f-bea0-acb8d2ad9da4"},"vehicle_type_id":"4","last_reported":1742324872,"current_range_meters":10000,"station_id":"ce4bhn12rcd13ifvqgqg","pricing_plan_id":"cebpf4jnsgd1na2vs0mg"},{"bike_id":"20839acd-c91c-4986-8b63-65bf1e71d1fc","system_id":"levelo_inurba_marseille","lat":43.29383,"lon":5.37864,"is_reserved":false,"is_disabled":false,"rental_uris":{"android":"levelo://app?vid=20839acd-c91c-4986-8b63-65bf1e71d1fc","ios":"levelo://app?vid=20839acd-c91c-4986-8b63-65bf1e71d1fc"},"vehicle_type_id":"4","last_reported":1742324872,"current_range_meters":10000,"station_id":"ce4bgjh2rcd13ifvqbf0","pricing_plan_id":"cebpf4jnsgd1na2vs0mg"},{"bike_id":"357a930a-445a-4ae7-a8b2-6e9806cbb4e5","system_id":"levelo_inurba_marseille","lat":43.29767,"lon":5.37102,"is_reserved":false,"is_disabled":false,"rental_uris":{"android":"levelo://app?vid=357a930a-445a-4ae7-a8b2-6e9806cbb4e5","ios":"levelo://app?vid=357a930a-445a-4ae7-a8b2-6e9806cbb4e5"},"vehicle_type_id":"4","last_reported":1742324872,"current_range_meters":10000,"station_id":"ce4bgop2rcd13ifvqc1g","pricing_plan_id":"cebpf4jnsgd1na2vs0mg"},{"bike_id":"86618792-edc4-4cf7-905d-5a6339d80898","system_id":"levelo_inurba_marseille","lat":43.3123,"lon":5.36869,"is_reserved":false,"is_disabled":false,"rental_uris":{"android":"levelo://app?vid=86618792-edc4-4cf7-905d-5a6339d80898","ios":"levelo://app?vid=86618792-edc4-4cf7-905d-5a6339d80898"},"vehicle_type_id":"4","last_reported":1742324872,"current_range_meters":10000,"station_id":"ce4bgl92rcd13ifvqbq0","pricing_plan_id":"cebpf4jnsgd1na2vs0mg"},{"bike_id":"9877ebf1-bace-4428-95fd-e3f633a910bd","system_id":"levelo_inurba_marseille","lat":43.31881,"lon":5.40745,"is_reserved":false,"is_disabled":false,"rental_uris":{"android":"levelo://app?vid=9877ebf1-bace-4428-95fd-e3f633a910bd","ios":"levelo://app?vid=9877ebf1-bace-4428-95fd-e3f633a910bd"},"vehicle_type_id":"4","last_reported":1742324872,"current_range_meters":10000,"station_id":"ce4bhq12rcd13ifvqhig","pricing_plan_id":"cebpf4jnsgd1na2vs0mg"},{"bike_id":"97446a56-5f0f-46a3-92d5-82517aef5044","system_id":"levelo_inurba_marseille","lat":43.31072,"lon":5.38354,"is_reserved":false,"is_disabled":false,"rental_uris":{"android":"levelo://app?vid=97446a56-5f0f-46a3-92d5-82517aef5044","ios":"levelo://app?vid=97446a56-5f0f-46a3-92d5-82517aef5044"},"vehicle_type_id":"4","last_reported":1742324872,"current_range_meters":10000,"station_id":"ce4bgv92rcd13ifvqcr0","pricing_plan_id":"cebpf4jnsgd1na2vs0mg"},{"bike_id":"eb5cda5d-4aef-4d15-9f07-19ee412f38ba","system_id":"levelo_inurba_marseille","lat":43.29053,"lon":5.35909,"is_reserved":false,"is_disabled":false,"rental_uris":{"android":"levelo://app?vid=eb5cda5d-4aef-4d15-9f07-19ee412f38ba","ios":"levelo://app?vid=eb5cda5d-4aef-4d15-9f07-19ee412f38ba"},"vehicle_type_id":"4","last_reported":1742324872,"current_range_meters":10000,"station_id":"ce4bha92rcd13ifvqeg0","pricing_plan_id":"cebpf4jnsgd1na2vs0mg"},{"bike_id":"5b27da58-9a0f-42dd-a3fc-c404568e4634","system_id":"levelo_inurba_marseille","lat":43.28156,"lon":5.42543,"is_reserved":false,"is_disabled":false,"rental_uris":{"android":"levelo://app?vid=5b27da58-9a0f-42dd-a3fc-c404568e4634","ios":"levelo://app?vid=5b27da58-9a0f-42dd-a3fc-c404568e4634"},"vehicle_type_id":"4","last_reported":1742324872,"current_range_meters":10000,"station_id":"","pricing_plan_id":"cebpf4jnsgd1na2vs0mg"},{"bike_id":"ef800766-0282-45cc-b8a0-55f2107e08b0","system_id":"levelo_inurba_marseille","lat":43.29783,"lon":5.38109,"is_reserved":false,"is_disabled":false,"rental_uris":{"android":"levelo://app?vid=ef800766-0282-45cc-b8a0-55f2107e08b0","ios":"levelo://app?vid=ef800766-0282-45cc-b8a0-55f2107e08b0"},"vehicle_type_id":"4","last_reported":1742324872,"current_range_meters":10800,"station_id":"ce4bgip2rcd13ifvqbb0","pricing_plan_id":"cebpf4jnsgd1na2vs0mg"},{"bike_id":"ab11fa9b-759f-447f-a4f1-b143e2360775","system_id":"levelo_inurba_marseille","lat":43.31343,"lon":5.39181,"is_reserved":false,"is_disabled":false,"rental_uris":{"android":"levelo://app?vid=ab11fa9b-759f-447f-a4f1-b143e2360775","ios":"levelo://app?vid=ab11fa9b-759f-447f-a4f1-b143e2360775"},"vehicle_type_id":"4","last_reported":1742324872,"current_range_meters":10800,"station_id":"","pricing_plan_id":"cebpf4jnsgd1na2vs0mg"},{"bike_id":"7f82e0ec-a832-4b5f-ad9c-04cf2a74d1ec","system_id":"levelo_inurba_marseille","lat":43.26061,"lon":5.394,"is_reserved":false,"is_disabled":false,"rental_uris":{"android":"levelo://app?vid=7f82e0ec-a832-4b5f-ad9c-04cf2a74d1ec","ios":"levelo://app?vid=7f82e0ec-a832-4b5f-ad9c-04cf2a74d1ec"},"vehicle_type_id":"4","last_reported":1742324872,"current_range_meters":10800,"station_id":"ce4bhh92rcd13ifvqfj0","pricing_plan_id":"cebpf4jnsgd1na2vs0mg"},{"bike_id":"973865f6-58dd-4c3b-a8e6-3b547f045c92","system_id":"levelo_inurba_marseille","lat":43.29068,"lon":5.37146,"is_reserved":false,"is_disabled":false,"rental_uris":{"android":"levelo://app?vid=973865f6-58dd-4c3b-a8e6-3b547f045c92","ios":"levelo://app?vid=973865f6-58dd-4c3b-a8e6-3b547f045c92"},"vehicle_type_id":"4","last_reported":1742324872,"current_range_meters":10800,"station_id":"ce4bgs92rcd13ifvqcc0","pricing_plan_id":"cebpf4jnsgd1na2vs0mg"},{"bike_id":"501f7fd9-069d-4c8f-b512-803a0a667daa","system_id":"levelo_inurba_marseille","lat":43.31697,"lon":5.43688,"is_reserved":false,"is_disabled":false,"rental_uris":{"android":"levelo://app?vid=501f7fd9-069d-4c8f-b512-803a0a667daa","ios":"levelo://app?vid=501f7fd9-069d-4c8f-b512-803a0a667daa"},"vehicle_type_id":"4","last_reported":1742324872,"current_range_meters":10800,"station_id":"ce4bhp92rcd13ifvqhcg","pricing_plan_id":"cebpf4jnsgd1na2vs0mg"},{"bike_id":"3f699908-6991-47dd-aac2-e7b89ac6be94","system_id":"levelo_inurba_marseille","lat":43.31714,"lon":5.43709,"is_reserved":false,"is_disabled":false,"rental_uris":{"android":"levelo://app?vid=3f699908-6991-47dd-aac2-e7b89ac6be94","ios":"levelo://app?vid=3f699908-6991-47dd-aac2-e7b89ac6be94"},"vehicle_type_id":"4","last_reported":1742324872,"current_range_meters":10800,"station_id":"ce4bhp92rcd13ifvqhcg","pricing_plan_id":"cebpf4jnsgd1na2vs0mg"},{"bike_id":"6427f4f6-8c7a-4e37-a4d9-34cec003da81","system_id":"levelo_inurba_marseille","lat":43.29176,"lon":5.3714,"is_reserved":false,"is_disabled":false,"rental_uris":{"android":"levelo://app?vid=6427f4f6-8c7a-4e37-a4d9-34cec003da81","ios":"levelo://app?vid=6427f4f6-8c7a-4e37-a4d9-34cec003da81"},"vehicle_type_id":"4","last_reported":1742324872,"current_range_meters":10800,"station_id":"ce4bha92rcd13ifvqeh0","pricing_plan_id":"cebpf4jnsgd1na2vs0mg"},{"bike_id":"6b162ed9-3599-4156-a34b-2df90433ae5c","system_id":"levelo_inurba_marseille","lat":43.24178,"lon":5.39743,"is_reserved":false,"is_disabled":false,"rental_uris":{"android":"levelo://app?vid=6b162ed9-3599-4156-a34b-2df90433ae5c","ios":"levelo://app?vid=6b162ed9-3599-4156-a34b-2df90433ae5c"},"vehicle_type_id":"4","last_reported":1742324872,"current_range_meters":10800,"station_id":"ce4bhn12rcd13ifvqgpg","pricing_plan_id":"cebpf4jnsgd1na2vs0mg"},{"bike_id":"4ccc3f56-6ae5-4d6a-9eb1-b86c5e38aaee","system_id":"levelo_inurba_marseille","lat":43.27813,"lon":5.40716,"is_reserved":false,"is_disabled":false,"rental_uris":{"android":"levelo://app?vid=4ccc3f56-6ae5-4d6a-9eb1-b86c5e38aaee","ios":"levelo://app?vid=4ccc3f56-6ae5-4d6a-9eb1-b86c5e38aaee"},"vehicle_type_id":"4","last_reported":1742324872,"current_range_meters":10800,"station_id":"ce4bhnh2rcd13ifvqgtg","pricing_plan_id":"cebpf4jnsgd1na2vs0mg"},{"bike_id":"4d12d4a4-0513-4e8e-8fa7-6ed60d7dc437","system_id":"levelo_inurba_marseille","lat":43.30249,"lon":5.40063,"is_reserved":false,"is_disabled":false,"rental_uris":{"android":"levelo://app?vid=4d12d4a4-0513-4e8e-8fa7-6ed60d7dc437","ios":"levelo://app?vid=4d12d4a4-0513-4e8e-8fa7-6ed60d7dc437"},"vehicle_type_id":"4","last_reported":1742324872,"current_range_meters":11200,"station_id":"ce4bgvh2rcd13ifvqcs0","pricing_plan_id":"cebpf4jnsgd1na2vs0mg"},{"bike_id":"44a4af3e-84f5-4f54-943d-83cf9fa4d793","system_id":"levelo_inurba_marseille","lat":43.27814,"lon":5.4072,"is_reserved":false,"is_disabled":false,"rental_uris":{"android":"levelo://app?vid=44a4af3e-84f5-4f54-943d-83cf9fa4d793","ios":"levelo://app?vid=44a4af3e-84f5-4f54-943d-83cf9fa4d793"},"vehicle_type_id":"4","last_reported":1742324872,"current_range_meters":11200,"station_id":"ce4bhnh2rcd13ifvqgtg","pricing_plan_id":"cebpf4jnsgd1na2vs0mg"},{"bike_id":"0cb439ba-c73c-4e00-a10d-d81c8bff11ec","system_id":"levelo_inurba_marseille","lat":43.32506,"lon":5.36573,"is_reserved":false,"is_disabled":false,"rental_uris":{"android":"levelo://app?vid=0cb439ba-c73c-4e00-a10d-d81c8bff11ec","ios":"levelo://app?vid=0cb439ba-c73c-4e00-a10d-d81c8bff11ec"},"vehicle_type_id":"4","last_reported":1742324872,"current_range_meters":11200,"station_id":"ce4bhs12rcd13ifvqhvg","pricing_plan_id":"cebpf4jnsgd1na2vs0mg"},{"bike_id":"c3047ac2-244c-495e-b7f0-4816471f7651","system_id":"levelo_inurba_marseille","lat":43.29228,"lon":5.36059,"is_reserved":false,"is_disabled":false,"rental_uris":{"android":"levelo://app?vid=c3047ac2-244c-495e-b7f0-4816471f7651","ios":"levelo://app?vid=c3047ac2-244c-495e-b7f0-4816471f7651"},"vehicle_type_id":"4","last_reported":1742324872,"current_range_meters":11200,"station_id":"ce4bhbh2rcd13ifvqeqg","pricing_plan_id":"cebpf4jnsgd1na2vs0mg"},{"bike_id":"cb83bb7b-da1e-4e39-8df9-8da005404b0c","system_id":"levelo_inurba_marseille","lat":43.23068,"lon":5.35466,"is_reserved":false,"is_disabled":false,"rental_uris":{"android":"levelo://app?vid=cb83bb7b-da1e-4e39-8df9-8da005404b0c","ios":"levelo://app?vid=cb83bb7b-da1e-4e39-8df9-8da005404b0c"},"vehicle_type_id":"4","last_reported":1742324872,"current_range_meters":11200,"station_id":"cpo3342slgdg3j2ifvpg","pricing_plan_id":"cebpf4jnsgd1na2vs0mg"},{"bike_id":"33cee87d-54df-4382-b486-e00c9953097c","system_id":"levelo_inurba_marseille","lat":43.25526,"lon":5.37662,"is_reserved":false,"is_disabled":false,"rental_uris":{"android":"levelo://app?vid=33cee87d-54df-4382-b486-e00c9953097c","ios":"levelo://app?vid=33cee87d-54df-4382-b486-e00c9953097c"},"vehicle_type_id":"4","last_reported":1742324872,"current_range_meters":11200,"station_id":"ce4bhh12rcd13ifvqff0","pricing_plan_id":"cebpf4jnsgd1na2vs0mg"},{"bike_id":"1a5fdb09-4049-4b09-84d7-0200301def35","system_id":"levelo_inurba_marseille","lat":43.29195,"lon":5.35813,"is_reserved":false,"is_disabled":false,"rental_uris":{"android":"levelo://app?vid=1a5fdb09-4049-4b09-84d7-0200301def35","ios":"levelo://app?vid=1a5fdb09-4049-4b09-84d7-0200301def35"},"vehicle_type_id":"4","last_reported":1742324872,"current_range_meters":11200,"station_id":"ce4bhb12rcd13ifvqel0","pricing_plan_id":"cebpf4jnsgd1na2vs0mg"},{"bike_id":"47643e5e-76a5-4454-9b8b-472326fad8da","system_id":"levelo_inurba_marseille","lat":43.2654,"lon":5.39017,"is_reserved":false,"is_disabled":false,"rental_uris":{"android":"levelo://app?vid=47643e5e-76a5-4454-9b8b-472326fad8da","ios":"levelo://app?vid=47643e5e-76a5-4454-9b8b-472326fad8da"},"vehicle_type_id":"4","last_reported":1742324872,"current_range_meters":11200,"station_id":"ce4bhe12rcd13ifvqf30","pricing_plan_id":"cebpf4jnsgd1na2vs0mg"},{"bike_id":"37fda4d6-d984-4f10-95fc-f4f112550cae","system_id":"levelo_inurba_marseille","lat":43.292,"lon":5.35815,"is_reserved":false,"is_disabled":false,"rental_uris":{"android":"levelo://app?vid=37fda4d6-d984-4f10-95fc-f4f112550cae","ios":"levelo://app?vid=37fda4d6-d984-4f10-95fc-f4f112550cae"},"vehicle_type_id":"4","last_reported":1742324872,"current_range_meters":11600,"station_id":"ce4bhb12rcd13ifvqel0","pricing_plan_id":"cebpf4jnsgd1na2vs0mg"},{"bike_id":"11bffd4d-691e-479c-be44-e39bfa076b4b","system_id":"levelo_inurba_marseille","lat":43.28461,"lon":5.35882,"is_reserved":false,"is_disabled":false,"rental_uris":{"android":"levelo://app?vid=11bffd4d-691e-479c-be44-e39bfa076b4b","ios":"levelo://app?vid=11bffd4d-691e-479c-be44-e39bfa076b4b"},"vehicle_type_id":"4","last_reported":1742324872,"current_range_meters":11600,"station_id":"ce4bhah2rcd13ifvqei0","pricing_plan_id":"cebpf4jnsgd1na2vs0mg"},{"bike_id":"4b1455e3-a129-4c21-aa44-d1039bebb628","system_id":"levelo_inurba_marseille","lat":43.27828,"lon":5.40719,"is_reserved":false,"is_disabled":false,"rental_uris":{"android":"levelo://app?vid=4b1455e3-a129-4c21-aa44-d1039bebb628","ios":"levelo://app?vid=4b1455e3-a129-4c21-aa44-d1039bebb628"},"vehicle_type_id":"4","last_reported":1742324872,"current_range_meters":11600,"station_id":"ce4bhnh2rcd13ifvqgtg","pricing_plan_id":"cebpf4jnsgd1na2vs0mg"},{"bike_id":"f9b33dfe-714a-48e3-9bff-44028b95c2b8","system_id":"levelo_inurba_marseille","lat":43.293,"lon":5.37465,"is_reserved":false,"is_disabled":false,"rental_uris":{"android":"levelo://app?vid=f9b33dfe-714a-48e3-9bff-44028b95c2b8","ios":"levelo://app?vid=f9b33dfe-714a-48e3-9bff-44028b95c2b8"},"vehicle_type_id":"4","last_reported":1742324872,"current_range_meters":11600,"station_id":"ce4bgi12rcd13ifvqb70","pricing_plan_id":"cebpf4jnsgd1na2vs0mg"},{"bike_id":"8c539c07-583b-48b3-8f00-7ab19ad14c41","system_id":"levelo_inurba_marseille","lat":43.29307,"lon":5.37171,"is_reserved":false,"is_disabled":false,"rental_uris":{"android":"levelo://app?vid=8c539c07-583b-48b3-8f00-7ab19ad14c41","ios":"levelo://app?vid=8c539c07-583b-48b3-8f00-7ab19ad14c41"},"vehicle_type_id":"4","last_reported":1742324872,"current_range_meters":11600,"station_id":"ce4bgh92rcd13ifvqb40","pricing_plan_id":"cebpf4jnsgd1na2vs0mg"},{"bike_id":"70cf8ec2-6b42-404d-8c20-978c5f553857","system_id":"levelo_inurba_marseille","lat":43.29084,"lon":5.35948,"is_reserved":false,"is_disabled":false,"rental_uris":{"android":"levelo://app?vid=70cf8ec2-6b42-404d-8c20-978c5f553857","ios":"levelo://app?vid=70cf8ec2-6b42-404d-8c20-978c5f553857"},"vehicle_type_id":"4","last_reported":1742324872,"current_range_meters":11600,"station_id":"ce4bha92rcd13ifvqeg0","pricing_plan_id":"cebpf4jnsgd1na2vs0mg"},{"bike_id":"f31fd8fc-38af-431a-83a8-4d065c63a44e","system_id":"levelo_inurba_marseille","lat":43.28386,"lon":5.38649,"is_reserved":false,"is_disabled":false,"rental_uris":{"android":"levelo://app?vid=f31fd8fc-38af-431a-83a8-4d065c63a44e","ios":"levelo://app?vid=f31fd8fc-38af-431a-83a8-4d065c63a44e"},"vehicle_type_id":"4","last_reported":1742324872,"current_range_meters":11600,"station_id":"ce4bh492rcd13ifvqdvg","pricing_plan_id":"cebpf4jnsgd1na2vs0mg"},{"bike_id":"4e0bb360-4702-455d-b34e-a9d8a863158b","system_id":"levelo_inurba_marseille","lat":43.3019,"lon":5.36627,"is_reserved":false,"is_disabled":false,"rental_uris":{"android":"levelo://app?vid=4e0bb360-4702-455d-b34e-a9d8a863158b","ios":"levelo://app?vid=4e0bb360-4702-455d-b34e-a9d8a863158b"},"vehicle_type_id":"4","last_reported":1742324872,"current_range_meters":11600,"station_id":"ce4bgrh2rcd13ifvqc8g","pricing_plan_id":"cebpf4jnsgd1na2vs0mg"},{"bike_id":"f8a76e32-3fd7-414e-8564-7e3717cd51c6","system_id":"levelo_inurba_marseille","lat":43.28109,"lon":5.3784,"is_reserved":false,"is_disabled":false,"rental_uris":{"android":"levelo://app?vid=f8a76e32-3fd7-414e-8564-7e3717cd51c6","ios":"levelo://app?vid=f8a76e32-3fd7-414e-8564-7e3717cd51c6"},"vehicle_type_id":"4","last_reported":1742324872,"current_range_meters":12000,"station_id":"ce4bha12rcd13ifvqee0","pricing_plan_id":"cebpf4jnsgd1na2vs0mg"},{"bike_id":"a7704c7d-e8ff-4dfe-82a5-4b1a91ddd668","system_id":"levelo_inurba_marseille","lat":43.30287,"lon":5.40071,"is_reserved":false,"is_disabled":false,"rental_uris":{"android":"levelo://app?vid=a7704c7d-e8ff-4dfe-82a5-4b1a91ddd668","ios":"levelo://app?vid=a7704c7d-e8ff-4dfe-82a5-4b1a91ddd668"},"vehicle_type_id":"4","last_reported":1742324872,"current_range_meters":12000,"station_id":"ce4bgvh2rcd13ifvqcs0","pricing_plan_id":"cebpf4jnsgd1na2vs0mg"},{"bike_id":"56c544f3-8624-417d-977f-0f77b27c48cc","system_id":"levelo_inurba_marseille","lat":43.23191,"lon":5.3554,"is_reserved":false,"is_disabled":false,"rental_uris":{"android":"levelo://app?vid=56c544f3-8624-417d-977f-0f77b27c48cc","ios":"levelo://app?vid=56c544f3-8624-417d-977f-0f77b27c48cc"},"vehicle_type_id":"4","last_reported":1742324872,"current_range_meters":12000,"station_id":"ce4bhu92rcd13ifvqi70","pricing_plan_id":"cebpf4jnsgd1na2vs0mg"},{"bike_id":"1f4d04b1-8f45-4926-aad8-072dc7b7d942","system_id":"levelo_inurba_marseille","lat":43.28041,"lon":5.36949,"is_reserved":false,"is_disabled":false,"rental_uris":{"android":"levelo://app?vid=1f4d04b1-8f45-4926-aad8-072dc7b7d942","ios":"levelo://app?vid=1f4d04b1-8f45-4926-aad8-072dc7b7d942"},"vehicle_type_id":"4","last_reported":1742324872,"current_range_meters":12000,"station_id":"ce4bha12rcd13ifvqef0","pricing_plan_id":"cebpf4jnsgd1na2vs0mg"},{"bike_id":"846b9b28-0850-476b-84a7-c5dd3131168f","system_id":"levelo_inurba_marseille","lat":43.25117,"lon":5.40325,"is_reserved":false,"is_disabled":false,"rental_uris":{"android":"levelo://app?vid=846b9b28-0850-476b-84a7-c5dd3131168f","ios":"levelo://app?vid=846b9b28-0850-476b-84a7-c5dd3131168f"},"vehicle_type_id":"4","last_reported":1742324872,"current_range_meters":12000,"station_id":"ce4bhlh2rcd13ifvqgig","pricing_plan_id":"cebpf4jnsgd1na2vs0mg"},{"bike_id":"b132483d-1d99-4f2a-9ca2-8544144e934f","system_id":"levelo_inurba_marseille","lat":43.32362,"lon":5.389,"is_reserved":false,"is_disabled":false,"rental_uris":{"android":"levelo://app?vid=b132483d-1d99-4f2a-9ca2-8544144e934f","ios":"levelo://app?vid=b132483d-1d99-4f2a-9ca2-8544144e934f"},"vehicle_type_id":"4","last_reported":1742324872,"current_range_meters":12000,"station_id":"ce4bhqp2rcd13ifvqhog","pricing_plan_id":"cebpf4jnsgd1na2vs0mg"},{"bike_id":"b0326f88-76f3-40de-9a71-993106fe8f19","system_id":"levelo_inurba_marseille","lat":43.24084,"lon":5.37726,"is_reserved":false,"is_disabled":false,"rental_uris":{"android":"levelo://app?vid=b0326f88-76f3-40de-9a71-993106fe8f19","ios":"levelo://app?vid=b0326f88-76f3-40de-9a71-993106fe8f19"},"vehicle_type_id":"4","last_reported":1742324872,"current_range_meters":12000,"station_id":"ce4bhnp2rcd13ifvqgvg","pricing_plan_id":"cebpf4jnsgd1na2vs0mg"},{"bike_id":"e5e5d60d-040e-49d1-bbd0-e95e967bbe12","system_id":"levelo_inurba_marseille","lat":43.29182,"lon":5.37139,"is_reserved":false,"is_disabled":false,"rental_uris":{"android":"levelo://app?vid=e5e5d60d-040e-49d1-bbd0-e95e967bbe12","ios":"levelo://app?vid=e5e5d60d-040e-49d1-bbd0-e95e967bbe12"},"vehicle_type_id":"4","last_reported":1742324872,"current_range_meters":12000,"station_id":"ce4bha92rcd13ifvqeh0","pricing_plan_id":"cebpf4jnsgd1na2vs0mg"},{"bike_id":"b98eff8b-8bbd-44cf-94d7-71a6341eecc2","system_id":"levelo_inurba_marseille","lat":43.23197,"lon":5.3998,"is_reserved":false,"is_disabled":false,"rental_uris":{"android":"levelo://app?vid=b98eff8b-8bbd-44cf-94d7-71a6341eecc2","ios":"levelo://app?vid=b98eff8b-8bbd-44cf-94d7-71a6341eecc2"},"vehicle_type_id":"4","last_reported":1742324872,"current_range_meters":12000,"station_id":"ce4bhn12rcd13ifvqgqg","pricing_plan_id":"cebpf4jnsgd1na2vs0mg"},{"bike_id":"c13edf3e-21a1-42c7-8625-770717cf1eba","system_id":"levelo_inurba_marseille","lat":43.27065,"lon":5.42262,"is_reserved":false,"is_disabled":false,"rental_uris":{"android":"levelo://app?vid=c13edf3e-21a1-42c7-8625-770717cf1eba","ios":"levelo://app?vid=c13edf3e-21a1-42c7-8625-770717cf1eba"},"vehicle_type_id":"4","last_reported":1742324872,"current_range_meters":12000,"station_id":"ce4bhk92rcd13ifvqgb0","pricing_plan_id":"cebpf4jnsgd1na2vs0mg"},