{"last_updated":1684888675,"ttl":30,"version":"2.2","data":{"bikes":[{"bike_id":"41892a07-6a1f-4061-ab05-7c3547d27e02","system_id":"levelo_inurba_marseille","lat":43.312239,"lon":5.368562,"is_reserved":false,"is_disabled":false,"rental_uris":{"android":"levelo://app?vid=41892a07-6a1f-4061-ab05-7c3547d27e02","ios":"levelo://app?vid=41892a07-6a1f-4061-ab05-7c3547d27e02"},"vehicle_type_id":"4","last_reported":1684888675,"current_range_meters":30800,"station_id":"ce4bgl92rcd13ifvqbq0","pricing_plan_id":"free"},{"bike_id":"d6ced96e-b91b-4c22-a606-0e34bb2bf11f","system_id":"levelo_inurba_marseille","lat":43.309076,"lon":5.368465,"is_reserved":false,"is_disabled":false,"rental_uris":{"android":"levelo://app?vid=d6ced96e-b91b-4c22-a606-0e34bb2bf11f","ios":"levelo://app?vid=d6ced96e-b91b-4c22-a606-0e34bb2bf11f"},"vehicle_type_id":"4","last_reported":1684888675,"current_range_meters":25200,"station_id":"ce4bgn92rcd13ifvqbvg","pricing_plan_id":"free"},{"bike_id":"9304b63c-9755-4b26-b0ab-67f0dc3f1c72","system_id":"levelo_inurba_marseille","lat":43.314811,"lon":5.373103,"is_reserved":false,"is_disabled":false,"rental_uris":{"android":"levelo://app?vid=9304b63c-9755-4b26-b0ab-67f0dc3f1c72","ios":"levelo://app?vid=9304b63c-9755-4b26-b0ab-67f0dc3f1c72"},"vehicle_type_id":"4","last_reported":1684888675,"current_range_meters":0,"station_id":"ce4bgt12rcd13ifvqcd0","pricing_plan_id":"free"},{"bike_id":"0ac0c577-8ad8-430a-a7df-04771f79fb85","system_id":"levelo_inurba_marseille","lat":43.314811,"lon":5.373103,"is_reserved":false,"is_disabled":false,"rental_uris":{"android":"levelo://app?vid=0ac0c577-8ad8-430a-a7df-04771f79fb85","ios":"levelo://app?vid=0ac0c577-8ad8-430a-a7df-04771f79fb85"},"vehicle_type_id":"4","last_reported":1684888675,"current_range_meters":28000,"station_id":"ce4bgt12rcd13ifvqcd0","pricing_plan_id":"free"},{"bike_id":"19204805-aa03-4f0c-ae90-7533744c11dc","system_id":"levelo_inurba_marseille","lat":43.314811,"lon":5.373104,"is_reserved":false,"is_disabled":false,"rental_uris":{"android":"levelo://app?vid=19204805-aa03-4f0c-ae90-7533744c11dc","ios":"levelo://app?vid=19204805-aa03-4f0c-ae90-7533744c11dc"},"vehicle_type_id":"4","last_reported":1684888675,"current_range_meters":25600,"station_id":"ce4bgt12rcd13ifvqcd0","pricing_plan_id":"free"},{"bike_id":"5959ebf8-b9cf-47d8-9316-ec2494ff9d9a","system_id":"levelo_inurba_marseille","lat":43.308614,"lon":5.372098,"is_reserved":false,"is_disabled":false,"rental_uris":{"android":"levelo://app?vid=5959ebf8-b9cf-47d8-9316-ec2494ff9d9a","ios":"levelo://app?vid=5959ebf8-b9cf-47d8-9316-ec2494ff9d9a"},"vehicle_type_id":"4","last_reported":1684888675,"current_range_meters":17600,"station_id":"ce4bguh2rcd13ifvqckg","pricing_plan_id":"free"},{"bike_id":"7d1c63c6-2694-4de9-b813-bdd9259db552","system_id":"levelo_inurba_marseille","lat":43.308614,"lon":5.372098,"is_reserved":false,"is_disabled":false,"rental_uris":{"android":"levelo://app?vid=7d1c63c6-2694-4de9-b813-bdd9259db552","ios":"levelo://app?vid=7d1c63c6-2694-4de9-b813-bdd9259db552"},"vehicle_type_id":"4","last_reported":1684888675,"current_range_meters":14000,"station_id":"ce4bguh2rcd13ifvqckg","pricing_plan_id":"free"},{"bike_id":"59ce19b0-f1d4-4b5f-ba78-977caf17327a","system_id":"levelo_inurba_marseille","lat":43.305368,"lon":5.367343,"is_reserved":false,"is_disabled":false,"rental_uris":{"android":"levelo://app?vid=59ce19b0-f1d4-4b5f-ba78-977caf17327a","ios":"levelo://app?vid=59ce19b0-f1d4-4b5f-ba78-977caf17327a"},"vehicle_type_id":"4","last_reported":1684888675,"current_range_meters":21600,"station_id":"ce4bgrp2rcd13ifvqc9g","pricing_plan_id":"free"},{"bike_id":"d4a95210-eee9-42ea-b41c-a3d4d2a45ed8","system_id":"levelo_inurba_marseille","lat":43.30537,"lon":5.367345,"is_reserved":false,"is_disabled":false,"rental_uris":{"android":"levelo://app?vid=d4a95210-eee9-42ea-b41c-a3d4d2a45ed8","ios":"levelo://app?vid=d4a95210-eee9-42ea-b41c-a3d4d2a45ed8"},"vehicle_type_id":"4","last_reported":1684888675,"current_range_meters":6000,"station_id":"ce4bgrp2rcd13ifvqc9g","pricing_plan_id":"free"},{"bike_id":"e52fa197-a55c-42ad-80cd-d0868906299c","system_id":"levelo_inurba_marseille","lat":43.30537,"lon":5.36698,"is_reserved":false,"is_disabled":false,"rental_uris":{"android":"levelo://app?vid=e52fa197-a55c-42ad-80cd-d0868906299c","ios":"levelo://app?vid=e52fa197-a55c-42ad-80cd-d0868906299c"},"vehicle_type_id":"4","last_reported":1684888675,"current_range_meters":0,"station_id":"","pricing_plan_id":"free"},{"bike_id":"75303d6b-da95-47ee-8e85-87b824c43d78","system_id":"levelo_inurba_marseille","lat":43.305989,"lon":5.37225,"is_reserved":false,"is_disabled":false,"rental_uris":{"android":"levelo://app?vid=75303d6b-da95-47ee-8e85-87b824c43d78","ios":"levelo://app?vid=75303d6b-da95-47ee-8e85-87b824c43d78"},"vehicle_type_id":"4","last_reported":1684888675,"current_range_meters":14000,"station_id":"ce4bgqh2rcd13ifvqc4g","pricing_plan_id":"free"},{"bike_id":"2d0b9321-a326-4fbc-a58b-f7c917f18b52","system_id":"levelo_inurba_marseille","lat":43.305989,"lon":5.37225,"is_reserved":false,"is_disabled":false,"rental_uris":{"android":"levelo://app?vid=2d0b9321-a326-4fbc-a58b-f7c917f18b52","ios":"levelo://app?vid=2d0b9321-a326-4fbc-a58b-f7c917f18b52"},"vehicle_type_id":"4","last_reported":1684888675,"current_range_meters":28000,"station_id":"ce4bgqh2rcd13ifvqc4g","pricing_plan_id":"free"},{"bike_id":"2872aa79-7c87-4ecb-801f-c8147b52e23d","system_id":"levelo_inurba_marseille","lat":43.311131,"lon":5.377651,"is_reserved":false,"is_disabled":false,"rental_uris":{"android":"levelo://app?vid=2872aa79-7c87-4ecb-801f-c8147b52e23d","ios":"levelo://app?vid=2872aa79-7c87-4ecb-801f-c8147b52e23d"},"vehicle_type_id":"4","last_reported":1684888675,"current_range_meters":4400,"station_id":"ce4bgt92rcd13ifvqcg0","pricing_plan_id":"free"},{"bike_id":"cf181879-b182-4216-9335-90ca07f1917a","system_id":"levelo_inurba_marseille","lat":43.31124,"lon":5.37762,"is_reserved":false,"is_disabled":false,"rental_uris":{"android":"levelo://app?vid=cf181879-b182-4216-9335-90ca07f1917a","ios":"levelo://app?vid=cf181879-b182-4216-9335-90ca07f1917a"},"vehicle_type_id":"4","last_reported":1684888675,"current_range_meters":22400,"station_id":"ce4bgt92rcd13ifvqcg0","pricing_plan_id":"free"},{"bike_id":"91733e52-2da5-440a-b8c3-275cf67a5b98","system_id":"levelo_inurba_marseille","lat":43.317075,"lon":5.377367,"is_reserved":false,"is_disabled":false,"rental_uris":{"android":"levelo://app?vid=91733e52-2da5-440a-b8c3-275cf67a5b98","ios":"levelo://app?vid=91733e52-2da5-440a-b8c3-275cf67a5b98"},"vehicle_type_id":"4","last_reported":1684888675,"current_range_meters":30400,"station_id":"ce4bgth2rcd13ifvqch0","pricing_plan_id":"free"},{"bike_id":"725fdaf0-d18a-4817-82e7-216b57da6c3f","system_id":"levelo_inurba_marseille","lat":43.317075,"lon":5.377367,"is_reserved":false,"is_disabled":false,"rental_uris":{"android":"levelo://app?vid=725fdaf0-d18a-4817-82e7-216b57da6c3f","ios":"levelo://app?vid=725fdaf0-d18a-4817-82e7-216b57da6c3f"},"vehicle_type_id":"4","last_reported":1684888675,"current_range_meters":31200,"station_id":"ce4bgth2rcd13ifvqch0","pricing_plan_id":"free"},{"bike_id":"c8407b09-5fd3-450e-8818-b255f95a522d","system_id":"levelo_inurba_marseille","lat":43.303046,"lon":5.368981,"is_reserved":false,"is_disabled":false,"rental_uris":{"android":"levelo://app?vid=c8407b09-5fd3-450e-8818-b255f95a522d","ios":"levelo://app?vid=c8407b09-5fd3-450e-8818-b255f95a522d"},"vehicle_type_id":"4","last_reported":1684888675,"current_range_meters":29600,"station_id":"ce4bgqh2rcd13ifvqc5g","pricing_plan_id":"free"},{"bike_id":"bac910ed-968f-403c-af0d-34d1a6bd76f0","system_id":"levelo_inurba_marseille","lat":43.303046,"lon":5.368981,"is_reserved":false,"is_disabled":false,"rental_uris":{"android":"levelo://app?vid=bac910ed-968f-403c-af0d-34d1a6bd76f0","ios":"levelo://app?vid=bac910ed-968f-403c-af0d-34d1a6bd76f0"},"vehicle_type_id":"4","last_reported":1684888675,"current_range_meters":3600,"station_id":"ce4bgqh2rcd13ifvqc5g","pricing_plan_id":"free"},{"bike_id":"b47d0fca-6c9f-450e-9c02-b2c5eb2d1b02","system_id":"levelo_inurba_marseille","lat":43.303046,"lon":5.368981,"is_reserved":false,"is_disabled":false,"rental_uris":{"android":"levelo://app?vid=b47d0fca-6c9f-450e-9c02-b2c5eb2d1b02","ios":"levelo://app?vid=b47d0fca-6c9f-450e-9c02-b2c5eb2d1b02"},"vehicle_type_id":"4","last_reported":1684888675,"current_range_meters":30000,"station_id":"ce4bgqh2rcd13ifvqc5g","pricing_plan_id":"free"},{"bike_id":"b2fb8e11-ab40-4027-9707-e2bda2441bcc","system_id":"levelo_inurba_marseille","lat":43.303046,"lon":5.368981,"is_reserved":false,"is_disabled":false,"rental_uris":{"android":"levelo://app?vid=b2fb8e11-ab40-4027-9707-e2bda2441bcc","ios":"levelo://app?vid=b2fb8e11-ab40-4027-9707-e2bda2441bcc"},"vehicle_type_id":"4","last_reported":1684888675,"current_range_meters":25600,"station_id":"ce4bgqh2rcd13ifvqc5g","pricing_plan_id":"free"},{"bike_id":"793c83ee-be81-439f-89ca-c0b492d22eae","system_id":"levelo_inurba_marseille","lat":43.303046,"lon":5.368981,"is_reserved":false,"is_disabled":false,"rental_uris":{"android":"levelo://app?vid=793c83ee-be81-439f-89ca-c0b492d22eae","ios":"levelo://app?vid=793c83ee-be81-439f-89ca-c0b492d22eae"},"vehicle_type_id":"4","last_reported":1684888675,"current_range_meters":0,"station_id":"ce4bgqh2rcd13ifvqc5g","pricing_plan_id":"free"},{"bike_id":"71564ce8-da8f-4a6a-9a31-dcb4b866566d","system_id":"levelo_inurba_marseille","lat":43.303046,"lon":5.368981,"is_reserved":false,"is_disabled":false,"rental_uris":{"android":"levelo://app?vid=71564ce8-da8f-4a6a-9a31-dcb4b866566d","ios":"levelo://app?vid=71564ce8-da8f-4a6a-9a31-dcb4b866566d"},"vehicle_type_id":"4","last_reported":1684888675,"current_range_meters":11200,"station_id":"ce4bgqh2rcd13ifvqc5g","pricing_plan_id":"free"},{"bike_id":"1e02102e-be4d-45cb-9214-830fb672d5dc","system_id":"levelo_inurba_marseille","lat":43.303046,"lon":5.368981,"is_reserved":false,"is_disabled":false,"rental_uris":{"android":"levelo://app?vid=1e02102e-be4d-45cb-9214-830fb672d5dc","ios":"levelo://app?vid=1e02102e-be4d-45cb-9214-830fb672d5dc"},"vehicle_type_id":"4","last_reported":1684888675,"current_range_meters":11200,"station_id":"ce4bgqh2rcd13ifvqc5g","pricing_plan_id":"free"},{"bike_id":"705f333d-8eba-4643-a47f-0a0b124dc2f3","system_id":"levelo_inurba_marseille","lat":43.303046,"lon":5.368981,"is_reserved":false,"is_disabled":false,"rental_uris":{"android":"levelo://app?vid=705f333d-8eba-4643-a47f-0a0b124dc2f3","ios":"levelo://app?vid=705f333d-8eba-4643-a47f-0a0b124dc2f3"},"vehicle_type_id":"4","last_reported":1684888675,"current_range_meters":26800,"station_id":"ce4bgqh2rcd13ifvqc5g","pricing_plan_id":"free"},{"bike_id":"f53edd6c-97f5-4ebb-b4b1-b3db4b5cf5e4","system_id":"levelo_inurba_marseille","lat":43.303046,"lon":5.368981,"is_reserved":false,"is_disabled":false,"rental_uris":{"android":"levelo://app?vid=f53edd6c-97f5-4ebb-b4b1-b3db4b5cf5e4","ios":"levelo://app?vid=f53edd6c-97f5-4ebb-b4b1-b3db4b5cf5e4"},"vehicle_type_id":"4","last_reported":1684888675,"current_range_meters":3600,"station_id":"ce4bgqh2rcd13ifvqc5g","pricing_plan_id":"free"},{"bike_id":"e4ddf4c1-6177-4538-8b58-75117487e999","system_id":"levelo_inurba_marseille","lat":43.315293,"lon":5.380349,"is_reserved":false,"is_disabled":false,"rental_uris":{"android":"levelo://app?vid=e4ddf4c1-6177-4538-8b58-75117487e999","ios":"levelo://app?vid=e4ddf4c1-6177-4538-8b58-75117487e999"},"vehicle_type_id":"4","last_reported":1684888675,"current_range_meters":28400,"station_id":"ce4bhsp2rcd13ifvqi50","pricing_plan_id":"free"},{"bike_id":"c9461532-81ed-4526-b6ba-b7bd13132531","system_id":"levelo_inurba_marseille","lat":43.315289,"lon":5.380349,"is_reserved":false,"is_disabled":false,"rental_uris":{"android":"levelo://app?vid=c9461532-81ed-4526-b6ba-b7bd13132531","ios":"levelo://app?vid=c9461532-81ed-4526-b6ba-b7bd13132531"},"vehicle_type_id":"4","last_reported":1684888675,"current_range_meters":14800,"station_id":"ce4bhsp2rcd13ifvqi50","pricing_plan_id":"free"},{"bike_id":"790119bb-79b7-4ba9-805d-a80ff92b80f0","system_id":"levelo_inurba_marseille","lat":43.315289,"lon":5.380349,"is_reserved":false,"is_disabled":false,"rental_uris":{"android":"levelo://app?vid=790119bb-79b7-4ba9-805d-a80ff92b80f0","ios":"levelo://app?vid=790119bb-79b7-4ba9-805d-a80ff92b80f0"},"vehicle_type_id":"4","last_reported":1684888675,"current_range_meters":13200,"station_id":"ce4bhsp2rcd13ifvqi50","pricing_plan_id":"free"},{"bike_id":"5d6b7210-ac96-414e-9692-1a40f5b7d754","system_id":"levelo_inurba_marseille","lat":43.315289,"lon":5.380349,"is_reserved":false,"is_disabled":false,"rental_uris":{"android":"levelo://app?vid=5d6b7210-ac96-414e-9692-1a40f5b7d754","ios":"levelo://app?vid=5d6b7210-ac96-414e-9692-1a40f5b7d754"},"vehicle_type_id":"4","last_reported":1684888675,"current_range_meters":25600,"station_id":"ce4bhsp2rcd13ifvqi50","pricing_plan_id":"free"},{"bike_id":"9bae9840-ed93-44fb-a5d4-fae1df29a1de","system_id":"levelo_inurba_marseille","lat":43.3104,"lon":5.38184,"is_reserved":false,"is_disabled":false,"rental_uris":{"android":"levelo://app?vid=9bae9840-ed93-44fb-a5d4-fae1df29a1de","ios":"levelo://app?vid=9bae9840-ed93-44fb-a5d4-fae1df29a1de"},"vehicle_type_id":"4","last_reported":1684888675,"current_range_meters":18000,"station_id":"","pricing_plan_id":"free"},{"bike_id":"8d88d637-6f4c-43d4-89f9-b1928eb2612a","system_id":"levelo_inurba_marseille","lat":43.304608,"lon":5.379136,"is_reserved":false,"is_disabled":false,"rental_uris":{"android":"levelo://app?vid=8d88d637-6f4c-43d4-89f9-b1928eb2612a","ios":"levelo://app?vid=8d88d637-6f4c-43d4-89f9-b1928eb2612a"},"vehicle_type_id":"4","last_reported":1684888675,"current_range_meters":16000,"station_id":"ce4bgup2rcd13ifvqcn0","pricing_plan_id":"free"},{"bike_id":"bd819eea-25e9-43ea-8400-f6e1076fe7bc","system_id":"levelo_inurba_marseille","lat":43.30051,"lon":5.37001,"is_reserved":false,"is_disabled":false,"rental_uris":{"android":"levelo://app?vid=bd819eea-25e9-43ea-8400-f6e1076fe7bc","ios":"levelo://app?vid=bd819eea-25e9-43ea-8400-f6e1076fe7bc"},"vehicle_type_id":"4","last_reported":1684888675,"current_range_meters":3200,"station_id":"","pricing_plan_id":"free"},{"bike_id":"fe86a46d-67b3-4aa0-afa4-77047d9713e8","system_id":"levelo_inurba_marseille","lat":43.30138,"lon":5.37406,"is_reserved":false,"is_disabled":false,"rental_uris":{"android":"levelo://app?vid=fe86a46d-67b3-4aa0-afa4-77047d9713e8","ios":"levelo://app?vid=fe86a46d-67b3-4aa0-afa4-77047d9713e8"},"vehicle_type_id":"4","last_reported":1684888675,"current_range_meters":19200,"station_id":"","pricing_plan_id":"free"},{"bike_id":"da893150-345a-42c2-bf69-62809f6e449e","system_id":"levelo_inurba_marseille","lat":43.301309,"lon":5.374252,"is_reserved":false,"is_disabled":false,"rental_uris":{"android":"levelo://app?vid=da893150-345a-42c2-bf69-62809f6e449e","ios":"levelo://app?vid=da893150-345a-42c2-bf69-62809f6e449e"},"vehicle_type_id":"4","last_reported":1684888675,"current_range_meters":21600,"station_id":"","pricing_plan_id":"free"},{"bike_id":"e13f48db-f4f6-48c2-8df8-a752fcd43e65","system_id":"levelo_inurba_marseille","lat":43.319935,"lon":5.381699,"is_reserved":false,"is_disabled":false,"rental_uris":{"android":"levelo://app?vid=e13f48db-f4f6-48c2-8df8-a752fcd43e65","ios":"levelo://app?vid=e13f48db-f4f6-48c2-8df8-a752fcd43e65"},"vehicle_type_id":"4","last_reported":1684888675,"current_range_meters":10400,"station_id":"ce4bhr12rcd13ifvqhpg","pricing_plan_id":"free"},{"bike_id":"4bdc3ba6-87ef-41d2-8f67-88669efaedb9","system_id":"levelo_inurba_marseille","lat":43.319935,"lon":5.381699,"is_reserved":false,"is_disabled":false,"rental_uris":{"android":"levelo://app?vid=4bdc3ba6-87ef-41d2-8f67-88669efaedb9","ios":"levelo://app?vid=4bdc3ba6-87ef-41d2-8f67-88669efaedb9"},"vehicle_type_id":"4","last_reported":1684888675,"current_range_meters":18400,"station_id":"ce4bhr12rcd13ifvqhpg","pricing_plan_id":"free"},{"bike_id":"48670c4a-356f-4324-89be-9dcf58d3306a","system_id":"levelo_inurba_marseille","lat":43.31998,"lon":5.38152,"is_reserved":false,"is_disabled":false,"rental_uris":{"android":"levelo://app?vid=48670c4a-356f-4324-89be-9dcf58d3306a","ios":"levelo://app?vid=48670c4a-356f-4324-89be-9dcf58d3306a"},"vehicle_type_id":"4","last_reported":1684888675,"current_range_meters":16800,"station_id":"ce4bhr12rcd13ifvqhpg","pricing_plan_id":"free"},{"bike_id":"30a37701-e3b4-4434-93c2-13ebaedcd785","system_id":"levelo_inurba_marseille","lat":43.319935,"lon":5.381699,"is_reserved":false,"is_disabled":false,"rental_uris":{"android":"levelo://app?vid=30a37701-e3b4-4434-93c2-13ebaedcd785","ios":"levelo://app?vid=30a37701-e3b4-4434-93c2-13ebaedcd785"},"vehicle_type_id":"4","last_reported":1684888675,"current_range_meters":12400,"station_id":"ce4bhr12rcd13ifvqhpg","pricing_plan_id":"free"},{"bike_id":"230b1831-d669-4c7b-86ec-946d59f20e2e","system_id":"levelo_inurba_marseille","lat":43.313571,"lon":5.384829,"is_reserved":false,"is_disabled":false,"rental_uris":{"android":"levelo://app?vid=230b1831-d669-4c7b-86ec-946d59f20e2e","ios":"levelo://app?vid=230b1831-d669-4c7b-86ec-946d59f20e2e"},"vehicle_type_id":"4","last_reported":1684888675,"current_range_meters":9200,"station_id":"ce4bgt92rcd13ifvqcf0","pricing_plan_id":"free"},{"bike_id":"dbfcb96a-7e19-49cf-a280-31141e1b1585","system_id":"levelo_inurba_marseille","lat":43.313571,"lon":5.384829,"is_reserved":false,"is_disabled":false,"rental_uris":{"android":"levelo://app?vid=dbfcb96a-7e19-49cf-a280-31141e1b1585","ios":"levelo://app?vid=dbfcb96a-7e19-49cf-a280-31141e1b1585"},"vehicle_type_id":"4","last_reported":1684888675,"current_range_meters":20800,"station_id":"ce4bgt92rcd13ifvqcf0","pricing_plan_id":"free"},{"bike_id":"e2b09657-3223-45c0-8972-f51487d9add9","system_id":"levelo_inurba_marseille","lat":43.313571,"lon":5.384829,"is_reserved":false,"is_disabled":false,"rental_uris":{"android":"levelo://app?vid=e2b09657-3223-45c0-8972-f51487d9add9","ios":"levelo://app?vid=e2b09657-3223-45c0-8972-f51487d9add9"},"vehicle_type_id":"4","last_reported":1684888675,"current_range_meters":31200,"station_id":"ce4bgt92rcd13ifvqcf0","pricing_plan_id":"free"},{"bike_id":"acf20d30-2c0c-4d96-bb32-3843daf91dd3","system_id":"levelo_inurba_marseille","lat":43.313571,"lon":5.384829,"is_reserved":false,"is_disabled":false,"rental_uris":{"android":"levelo://app?vid=acf20d30-2c0c-4d96-bb32-3843daf91dd3","ios":"levelo://app?vid=acf20d30-2c0c-4d96-bb32-3843daf91dd3"},"vehicle_type_id":"4","last_reported":1684888675,"current_range_meters":31200,"station_id":"ce4bgt92rcd13ifvqcf0","pricing_plan_id":"free"},{"bike_id":"a690fbb0-a61c-401c-9489-5da2f0b05254","system_id":"levelo_inurba_marseille","lat":43.313571,"lon":5.384829,"is_reserved":false,"is_disabled":false,"rental_uris":{"android":"levelo://app?vid=a690fbb0-a61c-401c-9489-5da2f0b05254","ios":"levelo://app?vid=a690fbb0-a61c-401c-9489-5da2f0b05254"},"vehicle_type_id":"4","last_reported":1684888675,"current_range_meters":28000,"station_id":"ce4bgt92rcd13ifvqcf0","pricing_plan_id":"free"},{"bike_id":"d0695cbb-de3a-42ba-a878-ff6ab70822fc","system_id":"levelo_inurba_marseille","lat":43.313571,"lon":5.384829,"is_reserved":false,"is_disabled":false,"rental_uris":{"android":"levelo://app?vid=d0695cbb-de3a-42ba-a878-ff6ab70822fc","ios":"levelo://app?vid=d0695cbb-de3a-42ba-a878-ff6ab70822fc"},"vehicle_type_id":"4","last_reported":1684888675,"current_range_meters":14400,"station_id":"ce4bgt92rcd13ifvqcf0","pricing_plan_id":"free"},{"bike_id":"e86d6283-8d92-4567-8c84-dd1b9f66f001","system_id":"levelo_inurba_marseille","lat":43.313571,"lon":5.384829,"is_reserved":false,"is_disabled":false,"rental_uris":{"android":"levelo://app?vid=e86d6283-8d92-4567-8c84-dd1b9f66f001","ios":"levelo://app?vid=e86d6283-8d92-4567-8c84-dd1b9f66f001"},"vehicle_type_id":"4","last_reported":1684888675,"current_range_meters":22800,"station_id":"ce4bgt92rcd13ifvqcf0","pricing_plan_id":"free"},{"bike_id":"89aee25a-d04e-43dd-bf69-a808b7abe903","system_id":"levelo_inurba_marseille","lat":43.31375,"lon":5.38515,"is_reserved":false,"is_disabled":false,"rental_uris":{"android":"levelo://app?vid=89aee25a-d04e-43dd-bf69-a808b7abe903","ios":"levelo://app?vid=89aee25a-d04e-43dd-bf69-a808b7abe903"},"vehicle_type_id":"4","last_reported":1684888675,"current_range_meters":10800,"station_id":"","pricing_plan_id":"free"},{"bike_id":"43fc0082-9e98-4346-b413-a4cadc757bc5","system_id":"levelo_inurba_marseille","lat":43.29911,"lon":5.37459,"is_reserved":false,"is_disabled":false,"rental_uris":{"android":"levelo://app?vid=43fc0082-9e98-4346-b413-a4cadc757bc5","ios":"levelo://app?vid=43fc0082-9e98-4346-b413-a4cadc757bc5"},"vehicle_type_id":"4","last_reported":1684888675,"current_range_meters":12400,"station_id":"ce4bgjh2rcd13ifvqbg0","pricing_plan_id":"free"},{"bike_id":"208be67c-b90a-41dd-b6f6-f46a9fc121f9","system_id":"levelo_inurba_marseille","lat":43.311722,"lon":5.387247,"is_reserved":false,"is_disabled":false,"rental_uris":{"android":"levelo://app?vid=208be67c-b90a-41dd-b6f6-f46a9fc121f9","ios":"levelo://app?vid=208be67c-b90a-41dd-b6f6-f46a9fc121f9"},"vehicle_type_id":"4","last_reported":1684888675,"current_range_meters":14800,"station_id":"ce4bgv12rcd13ifvqcp0","pricing_plan_id":"free"},{"bike_id":"384c7232-ad86-4d69-91dc-26de656d0302","system_id":"levelo_inurba_marseille","lat":43.311722,"lon":5.387247,"is_reserved":false,"is_disabled":false,"rental_uris":{"android":"levelo://app?vid=384c7232-ad86-4d69-91dc-26de656d0302","ios":"levelo://app?vid=384c7232-ad86-4d69-91dc-26de656d0302"},"vehicle_type_id":"4","last_reported":1684888675,"current_range_meters":11200,"station_id":"ce4bgv12rcd13ifvqcp0","pricing_plan_id":"free"},{"bike_id":"07d0f5f8-594a-4c99-bd5f-efd86e16327f","system_id":"levelo_inurba_marseille","lat":43.328371,"lon":5.366912,"is_reserved":false,"is_disabled":false,"rental_uris":{"android":"levelo://app?vid=07d0f5f8-594a-4c99-bd5f-efd86e16327f","ios":"levelo://app?vid=07d0f5f8-594a-4c99-bd5f-efd86e16327f"},"vehicle_type_id":"4","last_reported":1684888675,"current_range_meters":18400,"station_id":"ce4bhs92rcd13ifvqi0g","pricing_plan_id":"free"},{"bike_id":"0022c8e0-b57f-4a16-94cb-1fbd25366096","system_id":"levelo_inurba_marseille","lat":43.29626,"lon":5.37146,"is_reserved":false,"is_disabled":false,"rental_uris":{"android":"levelo://app?vid=0022c8e0-b57f-4a16-94cb-1fbd25366096","ios":"levelo://app?vid=0022c8e0-b57f-4a16-94cb-1fbd25366096"},"vehicle_type_id":"4","last_reported":1684888675,"current_range_meters":28800,"station_id":"","pricing_plan_id":"free"},{"bike_id":"09b7cffd-5ae1-4a72-ae40-6a9a40df8a58","system_id":"levelo_inurba_marseille","lat":43.309589,"lon":5.390258,"is_reserved":false,"is_disabled":false,"rental_uris":{"android":"levelo://app?vid=09b7cffd-5ae1-4a72-ae40-6a9a40df8a58","ios":"levelo://app?vid=09b7cffd-5ae1-4a72-ae40-6a9a40df8a58"},"vehicle_type_id":"4","last_reported":1684888675,"current_range_meters":2800,"station_id":"ce4bgup2rcd13ifvqco0","pricing_plan_id":"free"},{"bike_id":"4dd12e1a-131c-4b48-865b-f24828c5e015","system_id":"levelo_inurba_marseille","lat":43.309589,"lon":5.390258,"is_reserved":false,"is_disabled":false,"rental_uris":{"android":"levelo://app?vid=4dd12e1a-131c-4b48-865b-f24828c5e015","ios":"levelo://app?vid=4dd12e1a-131c-4b48-865b-f24828c5e015"},"vehicle_type_id":"4","last_reported":1684888675,"current_range_meters":24400,"station_id":"ce4bgup2rcd13ifvqco0","pricing_plan_id":"free"},{"bike_id":"57927a99-8484-4848-aa55-81084d7c1d22","system_id":"levelo_inurba_marseille","lat":43.309589,"lon":5.390258,"is_reserved":false,"is_disabled":false,"rental_uris":{"android":"levelo://app?vid=57927a99-8484-4848-aa55-81084d7c1d22","ios":"levelo://app?vid=57927a99-8484-4848-aa55-81084d7c1d22"},"vehicle_type_id":"4","last_reported":1684888675,"current_range_meters":13600,"station_id":"ce4bgup2rcd13ifvqco0","pricing_plan_id":"free"},{"bike_id":"c79bf59d-a4c4-4a1d-9c89-6f9737efa96f","system_id":"levelo_inurba_marseille","lat":43.295763,"lon":5.375157,"is_reserved":false,"is_disabled":false,"rental_uris":{"android":"levelo://app?vid=c79bf59d-a4c4-4a1d-9c89-6f9737efa96f","ios":"levelo://app?vid=c79bf59d-a4c4-4a1d-9c89-6f9737efa96f"},"vehicle_type_id":"4","last_reported":1684888675,"current_range_meters":4800,"station_id":"ce4bgh92rcd13ifvqb50","pricing_plan_id":"free"},{"bike_id":"84e3aba5-c178-4cc2-83de-dd9842bda854","system_id":"levelo_inurba_marseille","lat":43.30438,"lon":5.38889,"is_reserved":false,"is_disabled":false,"rental_uris":{"android":"levelo://app?vid=84e3aba5-c178-4cc2-83de-dd9842bda854","ios":"levelo://app?vid=84e3aba5-c178-4cc2-83de-dd9842bda854"},"vehicle_type_id":"4","last_reported":1684888675,"current_range_meters":1200,"station_id":"ce4bgk12rcd13ifvqbi0","pricing_plan_id":"free"},{"bike_id":"696f66a1-2d25-4e58-b6b7-1173465c6541","system_id":"levelo_inurba_marseille","lat":43.304274,"lon":5.388873,"is_reserved":false,"is_disabled":false,"rental_uris":{"android":"levelo://app?vid=696f66a1-2d25-4e58-b6b7-1173465c6541","ios":"levelo://app?vid=696f66a1-2d25-4e58-b6b7-1173465c6541"},"vehicle_type_id":"4","last_reported":1684888675,"current_range_meters":31200,"station_id":"ce4bgk12rcd13ifvqbi0","pricing_plan_id":"free"},{"bike_id":"851c2f6c-8b4c-4dba-beeb-0abed6008d86","system_id":"levelo_inurba_marseille","lat":43.304274,"lon":5.388873,"is_reserved":false,"is_disabled":false,"rental_uris":{"android":"levelo://app?vid=851c2f6c-8b4c-4dba-beeb-0abed6008d86","ios":"levelo://app?vid=851c2f6c-8b4c-4dba-beeb-0abed6008d86"},"vehicle_type_id":"4","last_reported":1684888675,"current_range_meters":31200,"station_id":"ce4bgk12rcd13ifvqbi0","pricing_plan_id":"free"},{"bike_id":"8f405896-6196-4084-90af-fdecae214aed","system_id":"levelo_inurba_marseille","lat":43.304274,"lon":5.388873,"is_reserved":false,"is_disabled":false,"rental_uris":{"android":"levelo://app?vid=8f405896-6196-4084-90af-fdecae214aed","ios":"levelo://app?vid=8f405896-6196-4084-90af-fdecae214aed"},"vehicle_type_id":"4","last_reported":1684888675,"current_range_meters":31200,"station_id":"ce4bgk12rcd13ifvqbi0","pricing_plan_id":"free"},{"bike_id":"08e8a38c-cf2d-48da-8cde-42382ed7e109","system_id":"levelo_inurba_marseille","lat":43.289184,"lon":5.366408,"is_reserved":false,"is_disabled":false,"rental_uris":{"android":"levelo://app?vid=08e8a38c-cf2d-48da-8cde-42382ed7e109","ios":"levelo://app?vid=08e8a38c-cf2d-48da-8cde-42382ed7e109"},"vehicle_type_id":"4","last_reported":1684888675,"current_range_meters":25200,"station_id":"ce4bhap2rcd13ifvqek0","pricing_plan_id":"free"},{"bike_id":"6e929eea-ce83-4051-9199-c8d1e6f83d61","system_id":"levelo_inurba_marseille","lat":43.3237,"lon":5.38876,"is_reserved":false,"is_disabled":false,"rental_uris":{"android":"levelo://app?vid=6e929eea-ce83-4051-9199-c8d1e6f83d61","ios":"levelo://app?vid=6e929eea-ce83-4051-9199-c8d1e6f83d61"},"vehicle_type_id":"4","last_reported":1684888675,"current_range_meters":11600,"station_id":"ce4bhqp2rcd13ifvqhog","pricing_plan_id":"free"},{"bike_id":"3f8c51b1-976c-4389-91e4-6aba882bdcd1","system_id":"levelo_inurba_marseille","lat":43.32364,"lon":5.38883,"is_reserved":false,"is_disabled":false,"rental_uris":{"android":"levelo://app?vid=3f8c51b1-976c-4389-91e4-6aba882bdcd1","ios":"levelo://app?vid=3f8c51b1-976c-4389-91e4-6aba882bdcd1"},"vehicle_type_id":"4","last_reported":1684888675,"current_range_meters":13600,"station_id":"ce4bhqp2rcd13ifvqhog","pricing_plan_id":"free"},{"bike_id":"d08580f2-e011-42b3-a9e9-78969f789498","system_id":"levelo_inurba_marseille","lat":43.32369,"lon":5.38879,"is_reserved":false,"is_disabled":false,"rental_uris":{"android":"levelo://app?vid=d08580f2-e011-42b3-a9e9-78969f789498","ios":"levelo://app?vid=d08580f2-e011-42b3-a9e9-78969f789498"},"vehicle_type_id":"4","last_reported":1684888675,"current_range_meters":29600,"station_id":"ce4bhqp2rcd13ifvqhog","pricing_plan_id":"free"},{"bike_id":"435efeae-a7e4-48dc-9ebe-ef72d32dbddd","system_id":"levelo_inurba_marseille","lat":43.3237,"lon":5.38879,"is_reserved":false,"is_disabled":false,"rental_uris":{"android":"levelo://app?vid=435efeae-a7e4-48dc-9ebe-ef72d32dbddd","ios":"levelo://app?vid=435efeae-a7e4-48dc-9ebe-ef72d32dbddd"},"vehicle_type_id":"4","last_reported":1684888675,"current_range_meters":20800,"station_id":"ce4bhqp2rcd13ifvqhog","pricing_plan_id":"free"},{"bike_id":"f2371f63-e4eb-48fe-aaa9-64cb538c1f31","system_id":"levelo_inurba_marseille","lat":43.32369,"lon":5.3888,"is_reserved":false,"is_disabled":false,"rental_uris":{"android":"levelo://app?vid=f2371f63-e4eb-48fe-aaa9-64cb538c1f31","ios":"levelo://app?vid=f2371f63-e4eb-48fe-aaa9-64cb538c1f31"},"vehicle_type_id":"4","last_reported":1684888675,"current_range_meters":28000,"station_id":"ce4bhqp2rcd13ifvqhog","pricing_plan_id":"free"},{"bike_id":"b2239e09-41dc-4cde-9b2f-b27fe7d0a355","system_id":"levelo_inurba_marseille","lat":43.32367,"lon":5.388836,"is_reserved":false,"is_disabled":false,"rental_uris":{"android":"levelo://app?vid=b2239e09-41dc-4cde-9b2f-b27fe7d0a355","ios":"levelo://app?vid=b2239e09-41dc-4cde-9b2f-b27fe7d0a355"},"vehicle_type_id":"4","last_reported":1684888675,"current_range_meters":19200,"station_id":"ce4bhqp2rcd13ifvqhog","pricing_plan_id":"free"},{"bike_id":"fedfefbd-f4ac-4628-9143-199cd82a31c7","system_id":"levelo_inurba_marseille","lat":43.32367,"lon":5.388836,"is_reserved":false,"is_disabled":false,"rental_uris":{"android":"levelo://app?vid=fedfefbd-f4ac-4628-9143-199cd82a31c7","ios":"levelo://app?vid=fedfefbd-f4ac-4628-9143-199cd82a31c7"},"vehicle_type_id":"4","last_reported":1684888675,"current_range_meters":17200,"station_id":"ce4bhqp2rcd13ifvqhog","pricing_plan_id":"free"},{"bike_id":"01d401da-ad68-4b2e-a4ac-24f3f8771d91","system_id":"levelo_inurba_marseille","lat":43.32367,"lon":5.388836,"is_reserved":false,"is_disabled":false,"rental_uris":{"android":"levelo://app?vid=01d401da-ad68-4b2e-a4ac-24f3f8771d91","ios":"levelo://app?vid=01d401da-ad68-4b2e-a4ac-24f3f8771d91"},"vehicle_type_id":"4","last_reported":1684888675,"current_range_meters":25200,"station_id":"ce4bhqp2rcd13ifvqhog","pricing_plan_id":"free"},{"bike_id":"278cf516-bd46-4a4e-b2c7-90ce64b42f33","system_id":"levelo_inurba_marseille","lat":43.32367,"lon":5.388836,"is_reserved":false,"is_disabled":false,"rental_uris":{"android":"levelo://app?vid=278cf516-bd46-4a4e-b2c7-90ce64b42f33","ios":"levelo://app?vid=278cf516-bd46-4a4e-b2c7-90ce64b42f33"},"vehicle_type_id":"4","last_reported":1684888675,"current_range_meters":14800,"station_id":"ce4bhqp2rcd13ifvqhog","pricing_plan_id":"free"},{"bike_id":"85c3a2a8-4ed0-4e25-984c-42800c661b39","system_id":"levelo_inurba_marseille","lat":43.29601,"lon":5.381084,"is_reserved":false,"is_disabled":false,"rental_uris":{"android":"levelo://app?vid=85c3a2a8-4ed0-4e25-984c-42800c661b39","ios":"levelo://app?vid=85c3a2a8-4ed0-4e25-984c-42800c661b39"},"vehicle_type_id":"4","last_reported":1684888675,"current_range_meters":26400,"station_id":"ce4bgl12rcd13ifvqbo0","pricing_plan_id":"free"},{"bike_id":"2ba4cba3-d7f4-4ec5-ae5f-024cc86586e3","system_id":"levelo_inurba_marseille","lat":43.305994,"lon":5.393687,"is_reserved":false,"is_disabled":false,"rental_uris":{"android":"levelo://app?vid=2ba4cba3-d7f4-4ec5-ae5f-024cc86586e3","ios":"levelo://app?vid=2ba4cba3-d7f4-4ec5-ae5f-024cc86586e3"},"vehicle_type_id":"4","last_reported":1684888675,"current_range_meters":3600,"station_id":"ce4bh0p2rcd13ifvqd80","pricing_plan_id":"free"},{"bike_id":"40b33942-a7ff-4ad4-a59f-03ca3da64e40","system_id":"levelo_inurba_marseille","lat":43.2936,"lon":5.37835,"is_reserved":false,"is_disabled":false,"rental_uris":{"android":"levelo://app?vid=40b33942-a7ff-4ad4-a59f-03ca3da64e40","ios":"levelo://app?vid=40b33942-a7ff-4ad4-a59f-03ca3da64e40"},"vehicle_type_id":"4","last_reported":1684888675,"current_range_meters":22400,"station_id":"ce4bgjh2rcd13ifvqbf0","pricing_plan_id":"free"},{"bike_id":"4efe0607-c817-4529-9aa3-acbbf4d14668","system_id":"levelo_inurba_marseille","lat":43.32766,"lon":5.38813,"is_reserved":false,"is_disabled":false,"rental_uris":{"android":"levelo://app?vid=4efe0607-c817-4529-9aa3-acbbf4d14668","ios":"levelo://app?vid=4efe0607-c817-4529-9aa3-acbbf4d14668"},"vehicle_type_id":"4","last_reported":1684888675,"current_range_meters":13200,"station_id":"","pricing_plan_id":"free"},{"bike_id":"3d88e0ca-c4c6-410c-8362-b80eda22dd25","system_id":"levelo_inurba_marseille","lat":43.309038,"lon":5.396546,"is_reserved":false,"is_disabled":false,"rental_uris":{"android":"levelo://app?vid=3d88e0ca-c4c6-410c-8362-b80eda22dd25","ios":"levelo://app?vid=3d88e0ca-c4c6-410c-8362-b80eda22dd25"},"vehicle_type_id":"4","last_reported":1684888675,"current_range_meters":26800,"station_id":"ce4bh012rcd13ifvqcv0","pricing_plan_id":"free"},{"bike_id":"4f7c8bed-1bf8-4a63-8c02-f7954328d701","system_id":"levelo_inurba_marseille","lat":43.30885,"lon":5.39632,"is_reserved":false,"is_disabled":false,"rental_uris":{"android":"levelo://app?vid=4f7c8bed-1bf8-4a63-8c02-f7954328d701","ios":"levelo://app?vid=4f7c8bed-1bf8-4a63-8c02-f7954328d701"},"vehicle_type_id":"4","last_reported":1684888675,"current_range_meters":12400,"station_id":"","pricing_plan_id":"free"},{"bike_id":"2306df84-8ca6-40ae-9914-69aa6b40656b","system_id":"levelo_inurba_marseille","lat":43.3089,"lon":5.39634,"is_reserved":false,"is_disabled":false,"rental_uris":{"android":"levelo://app?vid=2306df84-8ca6-40ae-9914-69aa6b40656b","ios":"levelo://app?vid=2306df84-8ca6-40ae-9914-69aa6b40656b"},"vehicle_type_id":"4","last_reported":1684888675,"current_range_meters":23200,"station_id":"ce4bh012rcd13ifvqcv0","pricing_plan_id":"free"},{"bike_id":"75f6bd3c-59f4-4cfc-9b8e-d75de06e04aa","system_id":"levelo_inurba_marseille","lat":43.30884,"lon":5.39633,"is_reserved":false,"is_disabled":false,"rental_uris":{"android":"levelo://app?vid=75f6bd3c-59f4-4cfc-9b8e-d75de06e04aa","ios":"levelo://app?vid=75f6bd3c-59f4-4cfc-9b8e-d75de06e04aa"},"vehicle_type_id":"4","last_reported":1684888675,"current_range_meters":11600,"station_id":"","pricing_plan_id":"free"},{"bike_id":"c5acdd90-7174-48da-bf24-dce574cabd8f","system_id":"levelo_inurba_marseille","lat":43.309038,"lon":5.396546,"is_reserved":false,"is_disabled":false,"rental_uris":{"android":"levelo://app?vid=c5acdd90-7174-48da-bf24-dce574cabd8f","ios":"levelo://app?vid=c5acdd90-7174-48da-bf24-dce574cabd8f"},"vehicle_type_id":"4","last_reported":1684888675,"current_range_meters":11600,"station_id":"ce4bh012rcd13ifvqcv0","pricing_plan_id":"free"},{"bike_id":"19de3111-607c-4434-8dd8-91a055fdd362","system_id":"levelo_inurba_marseille","lat":43.30887,"lon":5.39637,"is_reserved":false,"is_disabled":false,"rental_uris":{"android":"levelo://app?vid=19de3111-607c-4434-8dd8-91a055fdd362","ios":"levelo://app?vid=19de3111-607c-4434-8dd8-91a055fdd362"},"vehicle_type_id":"4","last_reported":1684888675,"current_range_meters":31200,"station_id":"ce4bh012rcd13ifvqcv0","pricing_plan_id":"free"},{"bike_id":"e51623fe-c624-4c27-8da1-76f132393614","system_id":"levelo_inurba_marseille","lat":43.30883,"lon":5.39637,"is_reserved":false,"is_disabled":false,"rental_uris":{"android":"levelo://app?vid=e51623fe-c624-4c27-8da1-76f132393614","ios":"levelo://app?vid=e51623fe-c624-4c27-8da1-76f132393614"},"vehicle_type_id":"4","last_reported":1684888675,"current_range_meters":11200,"station_id":"","pricing_plan_id":"free"},{"bike_id":"54c6f172-54d1-46b0-a9c1-bc128b7d13ec","system_id":"levelo_inurba_marseille","lat":43.309038,"lon":5.396546,"is_reserved":false,"is_disabled":false,"rental_uris":{"android":"levelo://app?vid=54c6f172-54d1-46b0-a9c1-bc128b7d13ec","ios":"levelo://app?vid=54c6f172-54d1-46b0-a9c1-bc128b7d13ec"},"vehicle_type_id":"4","last_reported":1684888675,"current_range_meters":28800,"station_id":"ce4bh012rcd13ifvqcv0","pricing_plan_id":"free"},{"bike_id":"6b01b672-ca16-4c8c-a609-eaa448a62259","system_id":"levelo_inurba_marseille","lat":43.313291,"lon":5.396838,"is_reserved":false,"is_disabled":false,"rental_uris":{"android":"levelo://app?vid=6b01b672-ca16-4c8c-a609-eaa448a62259","ios":"levelo://app?vid=6b01b672-ca16-4c8c-a609-eaa448a62259"},"vehicle_type_id":"4","last_reported":1684888675,"current_range_meters":29200,"station_id":"ce4bgvp2rcd13ifvqcu0","pricing_plan_id":"free"},{"bike_id":"8b764d5d-e2e1-4a29-8ef6-ef16ae1d11a4","system_id":"levelo_inurba_marseille","lat":43.29189,"lon":5.35805,"is_reserved":false,"is_disabled":false,"rental_uris":{"android":"levelo://app?vid=8b764d5d-e2e1-4a29-8ef6-ef16ae1d11a4","ios":"levelo://app?vid=8b764d5d-e2e1-4a29-8ef6-ef16ae1d11a4"},"vehicle_type_id":"4","last_reported":1684888675,"current_range_meters":31200,"station_id":"ce4bhb12rcd13ifvqel0","pricing_plan_id":"free"},{"bike_id":"4a74cade-446d-4477-8c3b-839cd9ca8bff","system_id":"levelo_inurba_marseille","lat":43.313291,"lon":5.396838,"is_reserved":false,"is_disabled":false,"rental_uris":{"android":"levelo://app?vid=4a74cade-446d-4477-8c3b-839cd9ca8bff","ios":"levelo://app?vid=4a74cade-446d-4477-8c3b-839cd9ca8bff"},"vehicle_type_id":"4","last_reported":1684888675,"current_range_meters":31200,"station_id":"ce4bgvp2rcd13ifvqcu0","pricing_plan_id":"free"},{"bike_id":"2c665ebf-313d-4e9d-b836-a6b59fda5c98","system_id":"levelo_inurba_marseille","lat":43.313291,"lon":5.396838,"is_reserved":false,"is_disabled":false,"rental_uris":{"android":"levelo://app?vid=2c665ebf-313d-4e9d-b836-a6b59fda5c98","ios":"levelo://app?vid=2c665ebf-313d-4e9d-b836-a6b59fda5c98"},"vehicle_type_id":"4","last_reported":1684888675,"current_range_meters":31200,"station_id":"ce4bgvp2rcd13ifvqcu0","pricing_plan_id":"free"},{"bike_id":"3e7c7ecc-c6fa-450b-90f1-23fcfce19293","system_id":"levelo_inurba_marseille","lat":43.31333,"lon":5.39693,"is_reserved":false,"is_disabled":false,"rental_uris":{"android":"levelo://app?vid=3e7c7ecc-c6fa-450b-90f1-23fcfce19293","ios":"levelo://app?vid=3e7c7ecc-c6fa-450b-90f1-23fcfce19293"},"vehicle_type_id":"4","last_reported":1684888675,"current_range_meters":800,"station_id":"ce4bgvp2rcd13ifvqcu0","pricing_plan_id":"free"},{"bike_id":"4c1e3b57-92b1-4105-b6ab-3cfb2eef35ca","system_id":"levelo_inurba_marseille","lat":43.313109,"lon":5.396952,"is_reserved":false,"is_disabled":false,"rental_uris":{"android":"levelo://app?vid=4c1e3b57-92b1-4105-b6ab-3cfb2eef35ca","ios":"levelo://app?vid=4c1e3b57-92b1-4105-b6ab-3cfb2eef35ca"},"vehicle_type_id":"4","last_reported":1684888675,"current_range_meters":0,"station_id":"","pricing_plan_id":"free"},{"bike_id":"44cb98f5-1dd5-4085-9d37-159ebf1bc69c","system_id":"levelo_inurba_marseille","lat":43.313291,"lon":5.396838,"is_reserved":false,"is_disabled":false,"rental_uris":{"android":"levelo://app?vid=44cb98f5-1dd5-4085-9d37-159ebf1bc69c","ios":"levelo://app?vid=44cb98f5-1dd5-4085-9d37-159ebf1bc69c"},"vehicle_type_id":"4","last_reported":1684888675,"current_range_meters":12000,"station_id":"ce4bgvp2rcd13ifvqcu0","pricing_plan_id":"free"},{"bike_id":"718b8cb7-16bb-499e-b558-848e606ef8ac","system_id":"levelo_inurba_marseille","lat":43.313291,"lon":5.396838,"is_reserved":false,"is_disabled":false,"rental_uris":{"android":"levelo://app?vid=718b8cb7-16bb-499e-b558-848e606ef8ac","ios":"levelo://app?vid=718b8cb7-16bb-499e-b558-848e606ef8ac"},"vehicle_type_id":"4","last_reported":1684888675,"current_range_meters":19200,"station_id":"ce4bgvp2rcd13ifvqcu0","pricing_plan_id":"free"},{"bike_id":"dc23d398-a0e1-4c1e-b3e2-79924dcb61c1","system_id":"levelo_inurba_marseille","lat":43.313291,"lon":5.396838,"is_reserved":false,"is_disabled":false,"rental_uris":{"android":"levelo://app?vid=dc23d398-a0e1-4c1e-b3e2-79924dcb61c1","ios":"levelo://app?vid=dc23d398-a0e1-4c1e-b3e2-79924dcb61c1"},"vehicle_type_id":"4","last_reported":1684888675,"current_range_meters":31200,"station_id":"ce4bgvp2rcd13ifvqcu0","pricing_plan_id":"free"},{"bike_id":"8abb052a-54d7-406c-ab0f-a49d41527023","system_id":"levelo_inurba_marseille","lat":43.313291,"lon":5.396838,"is_reserved":false,"is_disabled":false,"rental_uris":{"android":"levelo://app?vid=8abb052a-54d7-406c-ab0f-a49d41527023","ios":"levelo://app?vid=8abb052a-54d7-406c-ab0f-a49d41527023"},"vehicle_type_id":"4","last_reported":1684888675,"current_range_meters":31200,"station_id":"ce4bgvp2rcd13ifvqcu0","pricing_plan_id":"free"},{"bike_id":"d36ff719-ee23-4ad9-b679-77e774f836ef","system_id":"levelo_inurba_marseille","lat":43.313291,"lon":5.396838,"is_reserved":false,"is_disabled":false,"rental_uris":{"android":"levelo://app?vid=d36ff719-ee23-4ad9-b679-77e774f836ef","ios":"levelo://app?vid=d36ff719-ee23-4ad9-b679-77e774f836ef"},"vehicle_type_id":"4","last_reported":1684888675,"current_range_meters":31200,"station_id":"ce4bgvp2rcd13ifvqcu0","pricing_plan_id":"free"},{"bike_id":"1eb3c035-ef3c-4fb7-80ab-12677b0d6ac3","system_id":"levelo_inurba_marseille","lat":43.291994,"lon":5.357886,"is_reserved":false,"is_disabled":false,"rental_uris":{"android":"levelo://app?vid=1eb3c035-ef3c-4fb7-80ab-12677b0d6ac3","ios":"levelo://app?vid=1eb3c035-ef3c-4fb7-80ab-12677b0d6ac3"},"vehicle_type_id":"4","last_reported":1684888675,"current_range_meters":31200,"station_id":"ce4bhb12rcd13ifvqel0","pricing_plan_id":"free"},{"bike_id":"689d641b-e2d6-421d-a1a4-1aed3ab15277","system_id":"levelo_inurba_marseille","lat":43.313291,"lon":5.396838,"is_reserved":false,"is_disabled":false,"rental_uris":{"android":"levelo://app?vid=689d641b-e2d6-421d-a1a4-1aed3ab15277","ios":"levelo://app?vid=689d641b-e2d6-421d-a1a4-1aed3ab15277"},"vehicle_type_id":"4","last_reported":1684888675,"current_range_meters":13600,"station_id":"ce4bgvp2rcd13ifvqcu0","pricing_plan_id":"free"},{"bike_id":"78173b35-9e73-4b21-94fe-66c134b5a868","system_id":"levelo_inurba_marseille","lat":43.313291,"lon":5.396838,"is_reserved":false,"is_disabled":false,"rental_uris":{"android":"levelo://app?vid=78173b35-9e73-4b21-94fe-66c134b5a868","ios":"levelo://app?vid=78173b35-9e73-4b21-94fe-66c134b5a868"},"vehicle_type_id":"4","last_reported":1684888675,"current_range_meters":16400,"station_id":"ce4bgvp2rcd13ifvqcu0","pricing_plan_id":"free"},{"bike_id":"232b2d1d-0ca1-43d3-b3cd-1083a051d3fb","system_id":"levelo_inurba_marseille","lat":43.308766,"lon":5.396589,"is_reserved":false,"is_disabled":false,"rental_uris":{"android":"levelo://app?vid=232b2d1d-0ca1-43d3-b3cd-1083a051d3fb","ios":"levelo://app?vid=232b2d1d-0ca1-43d3-b3cd-1083a051d3fb"},"vehicle_type_id":"4","last_reported":1684888675,"current_range_meters":0,"station_id":"","pricing_plan_id":"free"},{"bike_id":"c00c10ba-bf1c-4884-9085-ab49342c17cc","system_id":"levelo_inurba_marseille","lat":43.31029,"lon":5.39811,"is_reserved":false,"is_disabled":false,"rental_uris":{"android":"levelo://app?vid=c00c10ba-bf1c-4884-9085-ab49342c17cc","ios":"levelo://app?vid=c00c10ba-bf1c-4884-9085-ab49342c17cc"},"vehicle_type_id":"4","last_reported":1684888675,"current_range_meters":26800,"station_id":"","pricing_plan_id":"free"},{"bike_id":"2a8952b5-14aa-4abd-90f2-aae39ed2ebe1","system_id":"levelo_inurba_marseille","lat":43.290631,"lon":5.359244,"is_reserved":false,"is_disabled":false,"rental_uris":{"android":"levelo://app?vid=2a8952b5-14aa-4abd-90f2-aae39ed2ebe1","ios":"levelo://app?vid=2a8952b5-14aa-4abd-90f2-aae39ed2ebe1"},"vehicle_type_id":"4","last_reported":1684888675,"current_range_meters":30400,"station_id":"ce4bha92rcd13ifvqeg0","pricing_plan_id":"free"},{"bike_id":"1642125e-f634-49ff-8312-210f51505601","system_id":"levelo_inurba_marseille","lat":43.290631,"lon":5.359244,"is_reserved":false,"is_disabled":false,"rental_uris":{"android":"levelo://app?vid=1642125e-f634-49ff-8312-210f51505601","ios":"levelo://app?vid=1642125e-f634-49ff-8312-210f51505601"},"vehicle_type_id":"4","last_reported":1684888675,"current_range_meters":30800,"station_id":"ce4bha92rcd13ifvqeg0","pricing_plan_id":"free"},{"bike_id":"ae5a3a83-fd34-46b0-b676-43df5adc9e80","system_id":"levelo_inurba_marseille","lat":43.290631,"lon":5.359244,"is_reserved":false,"is_disabled":false,"rental_uris":{"android":"levelo://app?vid=ae5a3a83-fd34-46b0-b676-43df5adc9e80","ios":"levelo://app?vid=ae5a3a83-fd34-46b0-b676-43df5adc9e80"},"vehicle_type_id":"4","last_reported":1684888675,"current_range_meters":31200,"station_id":"ce4bha92rcd13ifvqeg0","pricing_plan_id":"free"},{"bike_id":"7d98a2a3-0803-4c01-935d-35d45d96ba94","system_id":"levelo_inurba_marseille","lat":43.290631,"lon":5.359244,"is_reserved":false,"is_disabled":false,"rental_uris":{"android":"levelo://app?vid=7d98a2a3-0803-4c01-935d-35d45d96ba94","ios":"levelo://app?vid=7d98a2a3-0803-4c01-935d-35d45d96ba94"},"vehicle_type_id":"4","last_reported":1684888675,"current_range_meters":27600,"station_id":"ce4bha92rcd13ifvqeg0","pricing_plan_id":"free"},{"bike_id":"f2c0f78e-5359-40cc-b104-9a27e1849cfb","system_id":"levelo_inurba_marseille","lat":43.289184,"lon":5.366408,"is_reserved":false,"is_disabled":false,"rental_uris":{"android":"levelo://app?vid=f2c0f78e-5359-40cc-b104-9a27e1849cfb","ios":"levelo://app?vid=f2c0f78e-5359-40cc-b104-9a27e1849cfb"},"vehicle_type_id":"4","last_reported":1684888675,"current_range_meters":14800,"station_id":"ce4bhap2rcd13ifvqek0","pricing_plan_id":"free"},{"bike_id":"c05efa02-1e71-4b1a-990a-940ff8cb2a9f","system_id":"levelo_inurba_marseille","lat":43.289184,"lon":5.366408,"is_reserved":false,"is_disabled":false,"rental_uris":{"android":"levelo://app?vid=c05efa02-1e71-4b1a-990a-940ff8cb2a9f","ios":"levelo://app?vid=c05efa02-1e71-4b1a-990a-940ff8cb2a9f"},"vehicle_type_id":"4","last_reported":1684888675,"current_range_meters":18000,"station_id":"ce4bhap2rcd13ifvqek0","pricing_plan_id":"free"},{"bike_id":"48c046e4-835e-429c-b10f-d9095236d429","system_id":"levelo_inurba_marseille","lat":43.289184,"lon":5.366408,"is_reserved":false,"is_disabled":false,"rental_uris":{"android":"levelo://app?vid=48c046e4-835e-429c-b10f-d9095236d429","ios":"levelo://app?vid=48c046e4-835e-429c-b10f-d9095236d429"},"vehicle_type_id":"4","last_reported":1684888675,"current_range_meters":29600,"station_id":"ce4bhap2rcd13ifvqek0","pricing_plan_id":"free"},{"bike_id":"e65cb25c-ab0e-4160-9964-9586a04606af","system_id":"levelo_inurba_marseille","lat":43.289468,"lon":5.363719,"is_reserved":false,"is_disabled":false,"rental_uris":{"android":"levelo://app?vid=e65cb25c-ab0e-4160-9964-9586a04606af","ios":"levelo://app?vid=e65cb25c-ab0e-4160-9964-9586a04606af"},"vehicle_type_id":"4","last_reported":1684888675,"current_range_meters":22000,"station_id":"ce4bhc92rcd13ifvqetg","pricing_plan_id":"free"},{"bike_id":"109ae847-d1e5-44b4-93cf-8f55ec3daa82","system_id":"levelo_inurba_marseille","lat":43.289184,"lon":5.366408,"is_reserved":false,"is_disabled":false,"rental_uris":{"android":"levelo://app?vid=109ae847-d1e5-44b4-93cf-8f55ec3daa82","ios":"levelo://app?vid=109ae847-d1e5-44b4-93cf-8f55ec3daa82"},"vehicle_type_id":"4","last_reported":1684888675,"current_range_meters":29200,"station_id":"ce4bhap2rcd13ifvqek0","pricing_plan_id":"free"},{"bike_id":"42ac9ba7-bc56-4104-bf70-571eb3cb0f80","system_id":"levelo_inurba_marseille","lat":43.289184,"lon":5.366408,"is_reserved":false,"is_disabled":false,"rental_uris":{"android":"levelo://app?vid=42ac9ba7-bc56-4104-bf70-571eb3cb0f80","ios":"levelo://app?vid=42ac9ba7-bc56-4104-bf70-571eb3cb0f80"},"vehicle_type_id":"4","last_reported":1684888675,"current_range_meters":21600,"station_id":"ce4bhap2rcd13ifvqek0","pricing_plan_id":"free"},{"bike_id":"c2c9218e-b7a4-44bb-950c-f9106bfa52ed","system_id":"levelo_inurba_marseille","lat":43.289468,"lon":5.363719,"is_reserved":false,"is_disabled":false,"rental_uris":{"android":"levelo://app?vid=c2c9218e-b7a4-44bb-950c-f9106bfa52ed","ios":"levelo://app?vid=c2c9218e-b7a4-44bb-950c-f9106bfa52ed"},"vehicle_type_id":"4","last_reported":1684888675,"current_range_meters":26400,"station_id":"ce4bhc92rcd13ifvqetg","pricing_plan_id":"free"},{"bike_id":"da0227a2-f348-4adf-9631-c90153ea939f","system_id":"levelo_inurba_marseille","lat":43.30436,"lon":5.39748,"is_reserved":false,"is_disabled":false,"rental_uris":{"android":"levelo://app?vid=da0227a2-f348-4adf-9631-c90153ea939f","ios":"levelo://app?vid=da0227a2-f348-4adf-9631-c90153ea939f"},"vehicle_type_id":"4","last_reported":1684888675,"current_range_meters":4800,"station_id":"ce4bh092rcd13ifvqd20","pricing_plan_id":"free"},{"bike_id":"3adf8e5c-286a-4182-b7b0-67c891443512","system_id":"levelo_inurba_marseille","lat":43.304274,"lon":5.397513,"is_reserved":false,"is_disabled":false,"rental_uris":{"android":"levelo://app?vid=3adf8e5c-286a-4182-b7b0-67c891443512","ios":"levelo://app?vid=3adf8e5c-286a-4182-b7b0-67c891443512"},"vehicle_type_id":"4","last_reported":1684888675,"current_range_meters":11200,"station_id":"ce4bh092rcd13ifvqd20","pricing_plan_id":"free"},{"bike_id":"10173f54-ce03-47c2-aa4d-d9bd41a6cd92","system_id":"levelo_inurba_marseille","lat":43.30429,"lon":5.39752,"is_reserved":false,"is_disabled":false,"rental_uris":{"android":"levelo://app?vid=10173f54-ce03-47c2-aa4d-d9bd41a6cd92","ios":"levelo://app?vid=10173f54-ce03-47c2-aa4d-d9bd41a6cd92"},"vehicle_type_id":"4","last_reported":1684888675,"current_range_meters":13200,"station_id":"ce4bh092rcd13ifvqd20","pricing_plan_id":"free"},{"bike_id":"649048bb-3e9b-48e2-8ce7-87a550e114e9","system_id":"levelo_inurba_marseille","lat":43.304274,"lon":5.397513,"is_reserved":false,"is_disabled":false,"rental_uris":{"android":"levelo://app?vid=649048bb-3e9b-48e2-8ce7-87a550e114e9","ios":"levelo://app?vid=649048bb-3e9b-48e2-8ce7-87a550e114e9"},"vehicle_type_id":"4","last_reported":1684888675,"current_range_meters":4000,"station_id":"ce4bh092rcd13ifvqd20","pricing_plan_id":"free"},{"bike_id":"18d95485-f0c6-4aa8-8383-16c87a3a57e1","system_id":"levelo_inurba_marseille","lat":43.3043,"lon":5.39756,"is_reserved":false,"is_disabled":false,"rental_uris":{"android":"levelo://app?vid=18d95485-f0c6-4aa8-8383-16c87a3a57e1","ios":"levelo://app?vid=18d95485-f0c6-4aa8-8383-16c87a3a57e1"},"vehicle_type_id":"4","last_reported":1684888675,"current_range_meters":6000,"station_id":"ce4bh092rcd13ifvqd20","pricing_plan_id":"free"},{"bike_id":"5be9e55d-723c-4686-bba5-7790c5ed9d51","system_id":"levelo_inurba_marseille","lat":43.304274,"lon":5.397513,"is_reserved":false,"is_disabled":false,"rental_uris":{"android":"levelo://app?vid=5be9e55d-723c-4686-bba5-7790c5ed9d51","ios":"levelo://app?vid=5be9e55d-723c-4686-bba5-7790c5ed9d51"},"vehicle_type_id":"4","last_reported":1684888675,"current_range_meters":28400,"station_id":"ce4bh092rcd13ifvqd20","pricing_plan_id":"free"},{"bike_id":"888e22a2-99d9-4fc1-abcd-75c70d66bbbe","system_id":"levelo_inurba_marseille","lat":43.30428,"lon":5.39757,"is_reserved":false,"is_disabled":false,"rental_uris":{"android":"levelo://app?vid=888e22a2-99d9-4fc1-abcd-75c70d66bbbe","ios":"levelo://app?vid=888e22a2-99d9-4fc1-abcd-75c70d66bbbe"},"vehicle_type_id":"4","last_reported":1684888675,"current_range_meters":30400,"station_id":"ce4bh092rcd13ifvqd20","pricing_plan_id":"free"},{"bike_id":"7903c7d5-3fb3-4112-bcab-7146c5db279b","system_id":"levelo_inurba_marseille","lat":43.304274,"lon":5.397513,"is_reserved":false,"is_disabled":false,"rental_uris":{"android":"levelo://app?vid=7903c7d5-3fb3-4112-bcab-7146c5db279b","ios":"levelo://app?vid=7903c7d5-3fb3-4112-bcab-7146c5db279b"},"vehicle_type_id":"4","last_reported":1684888675,"current_range_meters":30800,"station_id":"ce4bh092rcd13ifvqd20","pricing_plan_id":"free"},{"bike_id":"1185e6ef-9bac-40e6-8b2a-ad5b72702c2f","system_id":"levelo_inurba_marseille","lat":43.30424,"lon":5.39758,"is_reserved":false,"is_disabled":false,"rental_uris":{"android":"levelo://app?vid=1185e6ef-9bac-40e6-8b2a-ad5b72702c2f","ios":"levelo://app?vid=1185e6ef-9bac-40e6-8b2a-ad5b72702c2f"},"vehicle_type_id":"4","last_reported":1684888675,"current_range_meters":11600,"station_id":"ce4bh092rcd13ifvqd20","pricing_plan_id":"free"},{"bike_id":"96712b4a-6e3e-4157-920b-b8141c678f09","system_id":"levelo_inurba_marseille","lat":43.33043,"lon":5.38916,"is_reserved":false,"is_disabled":false,"rental_uris":{"android":"levelo://app?vid=96712b4a-6e3e-4157-920b-b8141c678f09","ios":"levelo://app?vid=96712b4a-6e3e-4157-920b-b8141c678f09"},"vehicle_type_id":"4","last_reported":1684888675,"current_range_meters":16000,"station_id":"ce4bhr92rcd13ifvqhrg","pricing_plan_id":"free"},{"bike_id":"89436d2a-e1c6-4c5d-8c21-4f5ddca0c3e6","system_id":"levelo_inurba_marseille","lat":43.33046,"lon":5.38913,"is_reserved":false,"is_disabled":false,"rental_uris":{"android":"levelo://app?vid=89436d2a-e1c6-4c5d-8c21-4f5ddca0c3e6","ios":"levelo://app?vid=89436d2a-e1c6-4c5d-8c21-4f5ddca0c3e6"},"vehicle_type_id":"4","last_reported":1684888675,"current_range_meters":18800,"station_id":"ce4bhr92rcd13ifvqhrg","pricing_plan_id":"free"},{"bike_id":"772c2fec-0c60-4a29-9bc6-550f431238ed","system_id":"levelo_inurba_marseille","lat":43.33047,"lon":5.38914,"is_reserved":false,"is_disabled":false,"rental_uris":{"android":"levelo://app?vid=772c2fec-0c60-4a29-9bc6-550f431238ed","ios":"levelo://app?vid=772c2fec-0c60-4a29-9bc6-550f431238ed"},"vehicle_type_id":"4","last_reported":1684888675,"current_range_meters":13200,"station_id":"ce4bhr92rcd13ifvqhrg","pricing_plan_id":"free"},{"bike_id":"5bdfcb69-a712-4fdb-aaca-35c9a327a274","system_id":"levelo_inurba_marseille","lat":43.297814,"lon":5.393513,"is_reserved":false,"is_disabled":false,"rental_uris":{"android":"levelo://app?vid=5bdfcb69-a712-4fdb-aaca-35c9a327a274","ios":"levelo://app?vid=5bdfcb69-a712-4fdb-aaca-35c9a327a274"},"vehicle_type_id":"4","last_reported":1684888675,"current_range_meters":12400,"station_id":"chh1huq6cuj3fo74tm60","pricing_plan_id":"free"},{"bike_id":"44751f6c-f3eb-45e1-b024-f70ba1609ebc","system_id":"levelo_inurba_marseille","lat":43.297814,"lon":5.393513,"is_reserved":false,"is_disabled":false,"rental_uris":{"android":"levelo://app?vid=44751f6c-f3eb-45e1-b024-f70ba1609ebc","ios":"levelo://app?vid=44751f6c-f3eb-45e1-b024-f70ba1609ebc"},"vehicle_type_id":"4","last_reported":1684888675,"current_range_meters":16000,"station_id":"chh1huq6cuj3fo74tm60","pricing_plan_id":"free"},{"bike_id":"ee19220e-3a26-42f5-911d-4887ffa5fd90","system_id":"levelo_inurba_marseille","lat":43.289743,"lon":5.378304,"is_reserved":false,"is_disabled":false,"rental_uris":{"android":"levelo://app?vid=ee19220e-3a26-42f5-911d-4887ffa5fd90","ios":"levelo://app?vid=ee19220e-3a26-42f5-911d-4887ffa5fd90"},"vehicle_type_id":"4","last_reported":1684888675,"current_range_meters":16000,"station_id":"ce4bh9p2rcd13ifvqed0","pricing_plan_id":"free"},{"bike_id":"95151d67-901b-413e-b179-f8a416ec40c3","system_id":"levelo_inurba_marseille","lat":43.30516,"lon":5.39936,"is_reserved":false,"is_disabled":false,"rental_uris":{"android":"levelo://app?vid=95151d67-901b-413e-b179-f8a416ec40c3","ios":"levelo://app?vid=95151d67-901b-413e-b179-f8a416ec40c3"},"vehicle_type_id":"4","last_reported":1684888675,"current_range_meters":3200,"station_id":"","pricing_plan_id":"free"},{"bike_id":"6c0a4d9b-5a94-4e51-b059-4b459ad653bc","system_id":"levelo_inurba_marseille","lat":43.28846,"lon":5.35835,"is_reserved":false,"is_disabled":false,"rental_uris":{"android":"levelo://app?vid=6c0a4d9b-5a94-4e51-b059-4b459ad653bc","ios":"levelo://app?vid=6c0a4d9b-5a94-4e51-b059-4b459ad653bc"},"vehicle_type_id":"4","last_reported":1684888675,"current_range_meters":5600,"station_id":"ce4bhb12rcd13ifvqem0","pricing_plan_id":"free"},{"bike_id":"3141cfac-d7ef-4a24-b276-c8b50671e026","system_id":"levelo_inurba_marseille","lat":43.28844,"lon":5.35838,"is_reserved":false,"is_disabled":false,"rental_uris":{"android":"levelo://app?vid=3141cfac-d7ef-4a24-b276-c8b50671e026","ios":"levelo://app?vid=3141cfac-d7ef-4a24-b276-c8b50671e026"},"vehicle_type_id":"4","last_reported":1684888675,"current_range_meters":31200,"station_id":"ce4bhb12rcd13ifvqem0","pricing_plan_id":"free"},{"bike_id":"7df7a62c-f249-4aee-a961-7f8771c1e324","system_id":"levelo_inurba_marseille","lat":43.33756,"lon":5.37431,"is_reserved":false,"is_disabled":false,"rental_uris":{"android":"levelo://app?vid=7df7a62c-f249-4aee-a961-7f8771c1e324","ios":"levelo://app?vid=7df7a62c-f249-4aee-a961-7f8771c1e324"},"vehicle_type_id":"4","last_reported":1684888675,"current_range_meters":26800,"station_id":"","pricing_plan_id":"free"},{"bike_id":"45506292-f55c-467e-bcf7-ca72fe20e71c","system_id":"levelo_inurba_marseille","lat":43.30638,"lon":5.40076,"is_reserved":false,"is_disabled":false,"rental_uris":{"android":"levelo://app?vid=45506292-f55c-467e-bcf7-ca72fe20e71c","ios":"levelo://app?vid=45506292-f55c-467e-bcf7-ca72fe20e71c"},"vehicle_type_id":"4","last_reported":1684888675,"current_range_meters":14000,"station_id":"ce4bh112rcd13ifvqda0","pricing_plan_id":"free"},{"bike_id":"fa8aa980-3d66-469a-9738-e2e7d6b7aad7","system_id":"levelo_inurba_marseille","lat":43.3376,"lon":5.37439,"is_reserved":false,"is_disabled":false,"rental_uris":{"android":"levelo://app?vid=fa8aa980-3d66-469a-9738-e2e7d6b7aad7","ios":"levelo://app?vid=fa8aa980-3d66-469a-9738-e2e7d6b7aad7"},"vehicle_type_id":"4","last_reported":1684888675,"current_range_meters":30800,"station_id":"","pricing_plan_id":"free"},{"bike_id":"8b89341e-b439-4b8b-abce-366165733ffa","system_id":"levelo_inurba_marseille","lat":43.30642,"lon":5.401031,"is_reserved":false,"is_disabled":false,"rental_uris":{"android":"levelo://app?vid=8b89341e-b439-4b8b-abce-366165733ffa","ios":"levelo://app?vid=8b89341e-b439-4b8b-abce-366165733ffa"},"vehicle_type_id":"4","last_reported":1684888675,"current_range_meters":8800,"station_id":"ce4bh112rcd13ifvqda0","pricing_plan_id":"free"},{"bike_id":"42fe6271-5913-42a0-810f-21eec146368b","system_id":"levelo_inurba_marseille","lat":43.30642,"lon":5.401031,"is_reserved":false,"is_disabled":false,"rental_uris":{"android":"levelo://app?vid=42fe6271-5913-42a0-810f-21eec146368b","ios":"levelo://app?vid=42fe6271-5913-42a0-810f-21eec146368b"},"vehicle_type_id":"4","last_reported":1684888675,"current_range_meters":17200,"station_id":"ce4bh112rcd13ifvqda0","pricing_plan_id":"free"},{"bike_id":"e123cd43-562a-427d-b741-98d33ce5dea2","system_id":"levelo_inurba_marseille","lat":43.33767,"lon":5.37438,"is_reserved":false,"is_disabled":false,"rental_uris":{"android":"levelo://app?vid=e123cd43-562a-427d-b741-98d33ce5dea2","ios":"levelo://app?vid=e123cd43-562a-427d-b741-98d33ce5dea2"},"vehicle_type_id":"4","last_reported":1684888675,"current_range_meters":31200,"station_id":"","pricing_plan_id":"free"},{"bike_id":"c4a5185a-3a53-47d1-96ae-3197849b49ff","system_id":"levelo_inurba_marseille","lat":43.30642,"lon":5.401031,"is_reserved":false,"is_disabled":false,"rental_uris":{"android":"levelo://app?vid=c4a5185a-3a53-47d1-96ae-3197849b49ff","ios":"levelo://app?vid=c4a5185a-3a53-47d1-96ae-3197849b49ff"},"vehicle_type_id":"4","last_reported":1684888675,"current_range_meters":20000,"station_id":"ce4bh112rcd13ifvqda0","pricing_plan_id":"free"},{"bike_id":"c3b66989-b85e-4172-b369-d5cd98ae4ea7","system_id":"levelo_inurba_marseille","lat":43.33765,"lon":5.37465,"is_reserved":false,"is_disabled":false,"rental_uris":{"android":"levelo://app?vid=c3b66989-b85e-4172-b369-d5cd98ae4ea7","ios":"levelo://app?vid=c3b66989-b85e-4172-b369-d5cd98ae4ea7"},"vehicle_type_id":"4","last_reported":1684888675,"current_range_meters":0,"station_id":"","pricing_plan_id":"free"},{"bike_id":"c079649d-6e21-4aec-9e98-d4123192d026","system_id":"levelo_inurba_marseille","lat":43.33767,"lon":5.37455,"is_reserved":false,"is_disabled":false,"rental_uris":{"android":"levelo://app?vid=c079649d-6e21-4aec-9e98-d4123192d026","ios":"levelo://app?vid=c079649d-6e21-4aec-9e98-d4123192d026"},"vehicle_type_id":"4","last_reported":1684888675,"current_range_meters":26800,"station_id":"ce4bhgh2rcd13ifvqfb0","pricing_plan_id":"free"},{"bike_id":"920f04cf-6011-406c-9304-c415ecb6e1ed","system_id":"levelo_inurba_marseille","lat":43.30642,"lon":5.401031,"is_reserved":false,"is_disabled":false,"rental_uris":{"android":"levelo://app?vid=920f04cf-6011-406c-9304-c415ecb6e1ed","ios":"levelo://app?vid=920f04cf-6011-406c-9304-c415ecb6e1ed"},"vehicle_type_id":"4","last_reported":1684888675,"current_range_meters":25600,"station_id":"ce4bh112rcd13ifvqda0","pricing_plan_id":"free"},{"bike_id":"67751db1-d909-45bd-9e47-d32a4fef5f76","system_id":"levelo_inurba_marseille","lat":43.33774,"lon":5.37436,"is_reserved":false,"is_disabled":false,"rental_uris":{"android":"levelo://app?vid=67751db1-d909-45bd-9e47-d32a4fef5f76","ios":"levelo://app?vid=67751db1-d909-45bd-9e47-d32a4fef5f76"},"vehicle_type_id":"4","last_reported":1684888675,"current_range_meters":28800,"station_id":"","pricing_plan_id":"free"},{"bike_id":"c8a6a57f-cf6f-47a9-b295-a6917843e52c","system_id":"levelo_inurba_marseille","lat":43.3377,"lon":5.37485,"is_reserved":false,"is_disabled":false,"rental_uris":{"android":"levelo://app?vid=c8a6a57f-cf6f-47a9-b295-a6917843e52c","ios":"levelo://app?vid=c8a6a57f-cf6f-47a9-b295-a6917843e52c"},"vehicle_type_id":"4","last_reported":1684888675,"current_range_meters":800,"station_id":"","pricing_plan_id":"free"},{"bike_id":"df3e7de2-0515-43f8-a0d4-a6a8240ba5c7","system_id":"levelo_inurba_marseille","lat":43.301117,"lon":5.398795,"is_reserved":false,"is_disabled":false,"rental_uris":{"android":"levelo://app?vid=df3e7de2-0515-43f8-a0d4-a6a8240ba5c7","ios":"levelo://app?vid=df3e7de2-0515-43f8-a0d4-a6a8240ba5c7"},"vehicle_type_id":"4","last_reported":1684888675,"current_range_meters":30800,"station_id":"ce4bh0h2rcd13ifvqd40","pricing_plan_id":"free"},{"bike_id":"10499af1-2806-4e28-a7c5-e4dc26aef808","system_id":"levelo_inurba_marseille","lat":43.30434,"lon":5.40088,"is_reserved":false,"is_disabled":false,"rental_uris":{"android":"levelo://app?vid=10499af1-2806-4e28-a7c5-e4dc26aef808","ios":"levelo://app?vid=10499af1-2806-4e28-a7c5-e4dc26aef808"},"vehicle_type_id":"4","last_reported":1684888675,"current_range_meters":8800,"station_id":"","pricing_plan_id":"free"},{"bike_id":"ada03108-7606-4103-9816-bcfead2b09b7","system_id":"levelo_inurba_marseille","lat":43.3042,"lon":5.40084,"is_reserved":false,"is_disabled":false,"rental_uris":{"android":"levelo://app?vid=ada03108-7606-4103-9816-bcfead2b09b7","ios":"levelo://app?vid=ada03108-7606-4103-9816-bcfead2b09b7"},"vehicle_type_id":"4","last_reported":1684888675,"current_range_meters":23200,"station_id":"","pricing_plan_id":"free"},{"bike_id":"06902aca-77ad-4368-be1c-8c2f1a00eadd","system_id":"levelo_inurba_marseille","lat":43.298681,"lon":5.397225,"is_reserved":false,"is_disabled":false,"rental_uris":{"android":"levelo://app?vid=06902aca-77ad-4368-be1c-8c2f1a00eadd","ios":"levelo://app?vid=06902aca-77ad-4368-be1c-8c2f1a00eadd"},"vehicle_type_id":"4","last_reported":1684888675,"current_range_meters":1600,"station_id":"ce4bh0h2rcd13ifvqd50","pricing_plan_id":"free"},{"bike_id":"690d9bb7-0fbd-44e2-8d20-06a03776c3cd","system_id":"levelo_inurba_marseille","lat":43.286591,"lon":5.363346,"is_reserved":false,"is_disabled":false,"rental_uris":{"android":"levelo://app?vid=690d9bb7-0fbd-44e2-8d20-06a03776c3cd","ios":"levelo://app?vid=690d9bb7-0fbd-44e2-8d20-06a03776c3cd"},"vehicle_type_id":"4","last_reported":1684888675,"current_range_meters":24000,"station_id":"ce4bhah2rcd13ifvqej0","pricing_plan_id":"free"},{"bike_id":"be01e501-4ce7-4020-ac6a-90047ed27e2c","system_id":"levelo_inurba_marseille","lat":43.286593,"lon":5.363346,"is_reserved":false,"is_disabled":false,"rental_uris":{"android":"levelo://app?vid=be01e501-4ce7-4020-ac6a-90047ed27e2c","ios":"levelo://app?vid=be01e501-4ce7-4020-ac6a-90047ed27e2c"},"vehicle_type_id":"4","last_reported":1684888675,"current_range_meters":31600,"station_id":"ce4bhah2rcd13ifvqej0","pricing_plan_id":"free"},{"bike_id":"1532a28d-24fd-4a7f-9258-baaa3b063c49","system_id":"levelo_inurba_marseille","lat":43.286591,"lon":5.363346,"is_reserved":false,"is_disabled":false,"rental_uris":{"android":"levelo://app?vid=1532a28d-24fd-4a7f-9258-baaa3b063c49","ios":"levelo://app?vid=1532a28d-24fd-4a7f-9258-baaa3b063c49"},"vehicle_type_id":"4","last_reported":1684888675,"current_range_meters":19200,"station_id":"ce4bhah2rcd13ifvqej0","pricing_plan_id":"free"},{"bike_id":"5dea5d4c-76c4-48bb-baf3-87d441f40cf1","system_id":"levelo_inurba_marseille","lat":43.286591,"lon":5.363346,"is_reserved":false,"is_disabled":false,"rental_uris":{"android":"levelo://app?vid=5dea5d4c-76c4-48bb-baf3-87d441f40cf1","ios":"levelo://app?vid=5dea5d4c-76c4-48bb-baf3-87d441f40cf1"},"vehicle_type_id":"4","last_reported":1684888675,"current_range_meters":29600,"station_id":"ce4bhah2rcd13ifvqej0","pricing_plan_id":"free"},{"bike_id":"abbb07c1-ed9e-4b09-8541-a088bb42b6a6","system_id":"levelo_inurba_marseille","lat":43.286591,"lon":5.363346,"is_reserved":false,"is_disabled":false,"rental_uris":{"android":"levelo://app?vid=abbb07c1-ed9e-4b09-8541-a088bb42b6a6","ios":"levelo://app?vid=abbb07c1-ed9e-4b09-8541-a088bb42b6a6"},"vehicle_type_id":"4","last_reported":1684888675,"current_range_meters":24800,"station_id":"ce4bhah2rcd13ifvqej0","pricing_plan_id":"free"},{"bike_id":"5913b661-430e-4b79-947b-67fc67f7f40b","system_id":"levelo_inurba_marseille","lat":43.286591,"lon":5.363346,"is_reserved":false,"is_disabled":false,"rental_uris":{"android":"levelo://app?vid=5913b661-430e-4b79-947b-67fc67f7f40b","ios":"levelo://app?vid=5913b661-430e-4b79-947b-67fc67f7f40b"},"vehicle_type_id":"4","last_reported":1684888675,"current_range_meters":32000,"station_id":"ce4bhah2rcd13ifvqej0","pricing_plan_id":"free"},{"bike_id":"70fe74c8-2580-4e8e-8f74-5bea4c0e210c","system_id":"levelo_inurba_marseille","lat":43.286593,"lon":5.363346,"is_reserved":false,"is_disabled":false,"rental_uris":{"android":"levelo://app?vid=70fe74c8-2580-4e8e-8f74-5bea4c0e210c","ios":"levelo://app?vid=70fe74c8-2580-4e8e-8f74-5bea4c0e210c"},"vehicle_type_id":"4","last_reported":1684888675,"current_range_meters":4400,"station_id":"ce4bhah2rcd13ifvqej0","pricing_plan_id":"free"},{"bike_id":"ccec814b-ee3b-44fd-b0a2-01fc8379724f","system_id":"levelo_inurba_marseille","lat":43.286593,"lon":5.363346,"is_reserved":false,"is_disabled":false,"rental_uris":{"android":"levelo://app?vid=ccec814b-ee3b-44fd-b0a2-01fc8379724f","ios":"levelo://app?vid=ccec814b-ee3b-44fd-b0a2-01fc8379724f"},"vehicle_type_id":"4","last_reported":1684888675,"current_range_meters":2800,"station_id":"ce4bhah2rcd13ifvqej0","pricing_plan_id":"free"},{"bike_id":"b4b80226-83c8-4c7f-916b-33846d482e4e","system_id":"levelo_inurba_marseille","lat":43.286593,"lon":5.363346,"is_reserved":false,"is_disabled":false,"rental_uris":{"android":"levelo://app?vid=b4b80226-83c8-4c7f-916b-33846d482e4e","ios":"levelo://app?vid=b4b80226-83c8-4c7f-916b-33846d482e4e"},"vehicle_type_id":"4","last_reported":1684888675,"current_range_meters":31200,"station_id":"ce4bhah2rcd13ifvqej0","pricing_plan_id":"free"},{"bike_id":"651f95b8-bd06-43e6-a773-2bed2468d127","system_id":"levelo_inurba_marseille","lat":43.286591,"lon":5.363346,"is_reserved":false,"is_disabled":false,"rental_uris":{"android":"levelo://app?vid=651f95b8-bd06-43e6-a773-2bed2468d127","ios":"levelo://app?vid=651f95b8-bd06-43e6-a773-2bed2468d127"},"vehicle_type_id":"4","last_reported":1684888675,"current_range_meters":24400,"station_id":"ce4bhah2rcd13ifvqej0","pricing_plan_id":"free"},{"bike_id":"69b9a307-3679-4251-af69-c2a8f0a206cb","system_id":"levelo_inurba_marseille","lat":43.286591,"lon":5.363346,"is_reserved":false,"is_disabled":false,"rental_uris":{"android":"levelo://app?vid=69b9a307-3679-4251-af69-c2a8f0a206cb","ios":"levelo://app?vid=69b9a307-3679-4251-af69-c2a8f0a206cb"},"vehicle_type_id":"4","last_reported":1684888675,"current_range_meters":31200,"station_id":"ce4bhah2rcd13ifvqej0","pricing_plan_id":"free"},{"bike_id":"15c1d60d-7203-4309-be3c-e3bc742ce68a","system_id":"levelo_inurba_marseille","lat":43.286591,"lon":5.363346,"is_reserved":false,"is_disabled":false,"rental_uris":{"android":"levelo://app?vid=15c1d60d-7203-4309-be3c-e3bc742ce68a","ios":"levelo://app?vid=15c1d60d-7203-4309-be3c-e3bc742ce68a"},"vehicle_type_id":"4","last_reported":1684888675,"current_range_meters":31200,"station_id":"ce4bhah2rcd13ifvqej0","pricing_plan_id":"free"},{"bike_id":"f88821db-c576-4401-b7b3-13289cb9d77e","system_id":"levelo_inurba_marseille","lat":43.286591,"lon":5.363346,"is_reserved":false,"is_disabled":false,"rental_uris":{"android":"levelo://app?vid=f88821db-c576-4401-b7b3-13289cb9d77e","ios":"levelo://app?vid=f88821db-c576-4401-b7b3-13289cb9d77e"},"vehicle_type_id":"4","last_reported":1684888675,"current_range_meters":27600,"station_id":"ce4bhah2rcd13ifvqej0","pricing_plan_id":"free"},{"bike_id":"20f8981e-69e2-475d-b416-11457ff35fc0","system_id":"levelo_inurba_marseille","lat":43.286591,"lon":5.363346,"is_reserved":false,"is_disabled":false,"rental_uris":{"android":"levelo://app?vid=20f8981e-69e2-475d-b416-11457ff35fc0","ios":"levelo://app?vid=20f8981e-69e2-475d-b416-11457ff35fc0"},"vehicle_type_id":"4","last_reported":1684888675,"current_range_meters":31200,"station_id":"ce4bhah2rcd13ifvqej0","pricing_plan_id":"free"},{"bike_id":"44e782fd-a942-4618-8122-c09833c081b9","system_id":"levelo_inurba_marseille","lat":43.286593,"lon":5.363346,"is_reserved":false,"is_disabled":false,"rental_uris":{"android":"levelo://app?vid=44e782fd-a942-4618-8122-c09833c081b9","ios":"levelo://app?vid=44e782fd-a942-4618-8122-c09833c081b9"},"vehicle_type_id":"4","last_reported":1684888675,"current_range_meters":30800,"station_id":"ce4bhah2rcd13ifvqej0","pricing_plan_id":"free"},{"bike_id":"896998a4-734f-4288-8a11-f8c5787d11e0","system_id":"levelo_inurba_marseille","lat":43.286591,"lon":5.363346,"is_reserved":false,"is_disabled":false,"rental_uris":{"android":"levelo://app?vid=896998a4-734f-4288-8a11-f8c5787d11e0","ios":"levelo://app?vid=896998a4-734f-4288-8a11-f8c5787d11e0"},"vehicle_type_id":"4","last_reported":1684888675,"current_range_meters":29200,"station_id":"ce4bhah2rcd13ifvqej0","pricing_plan_id":"free"},{"bike_id":"8c3e0d6f-395a-42bc-b3d4-134beb35fe06","system_id":"levelo_inurba_marseille","lat":43.298681,"lon":5.397225,"is_reserved":false,"is_disabled":false,"rental_uris":{"android":"levelo://app?vid=8c3e0d6f-395a-42bc-b3d4-134beb35fe06","ios":"levelo://app?vid=8c3e0d6f-395a-42bc-b3d4-134beb35fe06"},"vehicle_type_id":"4","last_reported":1684888675,"current_range_meters":27600,"station_id":"ce4bh0h2rcd13ifvqd50","pricing_plan_id":"free"},{"bike_id":"5cbad4ca-8a87-4c05-9272-3a4bbeac04a1","system_id":"levelo_inurba_marseille","lat":43.295194,"lon":5.39397,"is_reserved":false,"is_disabled":false,"rental_uris":{"android":"levelo://app?vid=5cbad4ca-8a87-4c05-9272-3a4bbeac04a1","ios":"levelo://app?vid=5cbad4ca-8a87-4c05-9272-3a4bbeac04a1"},"vehicle_type_id":"4","last_reported":1684888675,"current_range_meters":16000,"station_id":"ce4bh292rcd13ifvqdf0","pricing_plan_id":"free"},{"bike_id":"e7eb36cb-42ee-4011-9f68-40f4e74c7f41","system_id":"levelo_inurba_marseille","lat":43.295194,"lon":5.39397,"is_reserved":false,"is_disabled":false,"rental_uris":{"android":"levelo://app?vid=e7eb36cb-42ee-4011-9f68-40f4e74c7f41","ios":"levelo://app?vid=e7eb36cb-42ee-4011-9f68-40f4e74c7f41"},"vehicle_type_id":"4","last_reported":1684888675,"current_range_meters":20400,"station_id":"ce4bh292rcd13ifvqdf0","pricing_plan_id":"free"},{"bike_id":"7318173a-2d98-4c42-ae79-ff14898807e1","system_id":"levelo_inurba_marseille","lat":43.295194,"lon":5.39397,"is_reserved":false,"is_disabled":false,"rental_uris":{"android":"levelo://app?vid=7318173a-2d98-4c42-ae79-ff14898807e1","ios":"levelo://app?vid=7318173a-2d98-4c42-ae79-ff14898807e1"},"vehicle_type_id":"4","last_reported":1684888675,"current_range_meters":3200,"station_id":"ce4bh292rcd13ifvqdf0","pricing_plan_id":"free"},{"bike_id":"b23466db-046d-4f59-88b6-ebdc5cb24e88","system_id":"levelo_inurba_marseille","lat":43.295194,"lon":5.39397,"is_reserved":false,"is_disabled":false,"rental_uris":{"android":"levelo://app?vid=b23466db-046d-4f59-88b6-ebdc5cb24e88","ios":"levelo://app?vid=b23466db-046d-4f59-88b6-ebdc5cb24e88"},"vehicle_type_id":"4","last_reported":1684888675,"current_range_meters":0,"station_id":"ce4bh292rcd13ifvqdf0","pricing_plan_id":"free"},{"bike_id":"2166fcec-45a6-457b-8392-d3d710cbc236","system_id":"levelo_inurba_marseille","lat":43.302759,"lon":5.400793,"is_reserved":false,"is_disabled":false,"rental_uris":{"android":"levelo://app?vid=2166fcec-45a6-457b-8392-d3d710cbc236","ios":"levelo://app?vid=2166fcec-45a6-457b-8392-d3d710cbc236"},"vehicle_type_id":"4","last_reported":1684888675,"current_range_meters":9600,"station_id":"ce4bgvh2rcd13ifvqcs0","pricing_plan_id":"free"},{"bike_id":"37e0ba86-92a3-4dad-b511-68d44cb7861a","system_id":"levelo_inurba_marseille","lat":43.302759,"lon":5.400793,"is_reserved":false,"is_disabled":false,"rental_uris":{"android":"levelo://app?vid=37e0ba86-92a3-4dad-b511-68d44cb7861a","ios":"levelo://app?vid=37e0ba86-92a3-4dad-b511-68d44cb7861a"},"vehicle_type_id":"4","last_reported":1684888675,"current_range_meters":27200,"station_id":"ce4bgvh2rcd13ifvqcs0","pricing_plan_id":"free"},{"bike_id":"0d2c01df-6024-4dc3-9931-0bfe071d7465","system_id":"levelo_inurba_marseille","lat":43.302759,"lon":5.400793,"is_reserved":false,"is_disabled":false,"rental_uris":{"android":"levelo://app?vid=0d2c01df-6024-4dc3-9931-0bfe071d7465","ios":"levelo://app?vid=0d2c01df-6024-4dc3-9931-0bfe071d7465"},"vehicle_type_id":"4","last_reported":1684888675,"current_range_meters":28000,"station_id":"ce4bgvh2rcd13ifvqcs0","pricing_plan_id":"free"},{"bike_id":"fe9420fe-19ad-41cb-b0e0-a3199e478bd6","system_id":"levelo_inurba_marseille","lat":43.30258,"lon":5.40067,"is_reserved":false,"is_disabled":false,"rental_uris":{"android":"levelo://app?vid=fe9420fe-19ad-41cb-b0e0-a3199e478bd6","ios":"levelo://app?vid=fe9420fe-19ad-41cb-b0e0-a3199e478bd6"},"vehicle_type_id":"4","last_reported":1684888675,"current_range_meters":25200,"station_id":"ce4bgvh2rcd13ifvqcs0","pricing_plan_id":"free"},{"bike_id":"f43ebb5c-b258-469e-9e0c-c9f555a8855c","system_id":"levelo_inurba_marseille","lat":43.30254,"lon":5.40065,"is_reserved":false,"is_disabled":false,"rental_uris":{"android":"levelo://app?vid=f43ebb5c-b258-469e-9e0c-c9f555a8855c","ios":"levelo://app?vid=f43ebb5c-b258-469e-9e0c-c9f555a8855c"},"vehicle_type_id":"4","last_reported":1684888675,"current_range_meters":20000,"station_id":"ce4bgvh2rcd13ifvqcs0","pricing_plan_id":"free"},{"bike_id":"2e0842fd-2685-4f3e-bbb2-c008e7a5c048","system_id":"levelo_inurba_marseille","lat":43.302597,"lon":5.400693,"is_reserved":false,"is_disabled":false,"rental_uris":{"android":"levelo://app?vid=2e0842fd-2685-4f3e-bbb2-c008e7a5c048","ios":"levelo://app?vid=2e0842fd-2685-4f3e-bbb2-c008e7a5c048"},"vehicle_type_id":"4","last_reported":1684888675,"current_range_meters":9600,"station_id":"ce4bgph2rcd13ifvqc2g","pricing_plan_id":"free"},{"bike_id":"d84e8ee9-c7be-462f-82ba-b7b89589b636","system_id":"levelo_inurba_marseille","lat":43.30263,"lon":5.40072,"is_reserved":false,"is_disabled":false,"rental_uris":{"android":"levelo://app?vid=d84e8ee9-c7be-462f-82ba-b7b89589b636","ios":"levelo://app?vid=d84e8ee9-c7be-462f-82ba-b7b89589b636"},"vehicle_type_id":"4","last_reported":1684888675,"current_range_meters":15600,"station_id":"ce4bgvh2rcd13ifvqcs0","pricing_plan_id":"free"},{"bike_id":"f2c4288d-0771-4498-ae73-8eddb47b28b3","system_id":"levelo_inurba_marseille","lat":43.302759,"lon":5.400793,"is_reserved":false,"is_disabled":false,"rental_uris":{"android":"levelo://app?vid=f2c4288d-0771-4498-ae73-8eddb47b28b3","ios":"levelo://app?vid=f2c4288d-0771-4498-ae73-8eddb47b28b3"},"vehicle_type_id":"4","last_reported":1684888675,"current_range_meters":28400,"station_id":"ce4bgvh2rcd13ifvqcs0","pricing_plan_id":"free"},{"bike_id":"68855b71-ae00-4605-a3a8-f12886ec2de7","system_id":"levelo_inurba_marseille","lat":43.29024,"lon":5.38641,"is_reserved":false,"is_disabled":false,"rental_uris":{"android":"levelo://app?vid=68855b71-ae00-4605-a3a8-f12886ec2de7","ios":"levelo://app?vid=68855b71-ae00-4605-a3a8-f12886ec2de7"},"vehicle_type_id":"4","last_reported":1684888675,"current_range_meters":28800,"station_id":"ce4bh4p2rcd13ifvqe0g","pricing_plan_id":"free"},{"bike_id":"2213330f-2a90-4241-a8e9-be77543d0b6c","system_id":"levelo_inurba_marseille","lat":43.3026,"lon":5.40081,"is_reserved":false,"is_disabled":false,"rental_uris":{"android":"levelo://app?vid=2213330f-2a90-4241-a8e9-be77543d0b6c","ios":"levelo://app?vid=2213330f-2a90-4241-a8e9-be77543d0b6c"},"vehicle_type_id":"4","last_reported":1684888675,"current_range_meters":26400,"station_id":"ce4bgvh2rcd13ifvqcs0","pricing_plan_id":"free"},{"bike_id":"5dd05891-8960-49d3-9dd4-ece2f6470681","system_id":"levelo_inurba_marseille","lat":43.30257,"lon":5.40082,"is_reserved":false,"is_disabled":false,"rental_uris":{"android":"levelo://app?vid=5dd05891-8960-49d3-9dd4-ece2f6470681","ios":"levelo://app?vid=5dd05891-8960-49d3-9dd4-ece2f6470681"},"vehicle_type_id":"4","last_reported":1684888675,"current_range_meters":24400,"station_id":"ce4bgvh2rcd13ifvqcs0","pricing_plan_id":"free"},{"bike_id":"0dda87a3-a992-4dcc-ba58-e0b1af84287f","system_id":"levelo_inurba_marseille","lat":43.28616,"lon":5.37062,"is_reserved":false,"is_disabled":false,"rental_uris":{"android":"levelo://app?vid=0dda87a3-a992-4dcc-ba58-e0b1af84287f","ios":"levelo://app?vid=0dda87a3-a992-4dcc-ba58-e0b1af84287f"},"vehicle_type_id":"4","last_reported":1684888675,"current_range_meters":1600,"station_id":"ce4bht12rcd13ifvqi60","pricing_plan_id":"free"},{"bike_id":"27fe7851-4d49-4a82-adb8-01ed3ac9bfd2","system_id":"levelo_inurba_marseille","lat":43.286039,"lon":5.370679,"is_reserved":false,"is_disabled":false,"rental_uris":{"android":"levelo://app?vid=27fe7851-4d49-4a82-adb8-01ed3ac9bfd2","ios":"levelo://app?vid=27fe7851-4d49-4a82-adb8-01ed3ac9bfd2"},"vehicle_type_id":"4","last_reported":1684888675,"current_range_meters":26800,"station_id":"ce4bht12rcd13ifvqi60","pricing_plan_id":"free"},{"bike_id":"e0a9c2a4-91f7-49a9-bbb9-511d30be07ef","system_id":"levelo_inurba_marseille","lat":43.286039,"lon":5.370679,"is_reserved":false,"is_disabled":false,"rental_uris":{"android":"levelo://app?vid=e0a9c2a4-91f7-49a9-bbb9-511d30be07ef","ios":"levelo://app?vid=e0a9c2a4-91f7-49a9-bbb9-511d30be07ef"},"vehicle_type_id":"4","last_reported":1684888675,"current_range_meters":8400,"station_id":"ce4bht12rcd13ifvqi60","pricing_plan_id":"free"},{"bike_id":"d7bb18c1-11cf-44bd-a074-3d8567e14bba","system_id":"levelo_inurba_marseille","lat":43.286039,"lon":5.370679,"is_reserved":false,"is_disabled":false,"rental_uris":{"android":"levelo://app?vid=d7bb18c1-11cf-44bd-a074-3d8567e14bba","ios":"levelo://app?vid=d7bb18c1-11cf-44bd-a074-3d8567e14bba"},"vehicle_type_id":"4","last_reported":1684888675,"current_range_meters":32000,"station_id":"ce4bht12rcd13ifvqi60","pricing_plan_id":"free"},{"bike_id":"76121621-4191-47a6-a793-670335ead76e","system_id":"levelo_inurba_marseille","lat":43.287185,"lon":5.379373,"is_reserved":false,"is_disabled":false,"rental_uris":{"android":"levelo://app?vid=76121621-4191-47a6-a793-670335ead76e","ios":"levelo://app?vid=76121621-4191-47a6-a793-670335ead76e"},"vehicle_type_id":"4","last_reported":1684888675,"current_range_meters":31200,"station_id":"ce4bh9p2rcd13ifvqec0","pricing_plan_id":"free"},{"bike_id":"7bf7dbc2-bf3c-4813-b4ef-b3973040ef2f","system_id":"levelo_inurba_marseille","lat":43.287184,"lon":5.37937,"is_reserved":false,"is_disabled":false,"rental_uris":{"android":"levelo://app?vid=7bf7dbc2-bf3c-4813-b4ef-b3973040ef2f","ios":"levelo://app?vid=7bf7dbc2-bf3c-4813-b4ef-b3973040ef2f"},"vehicle_type_id":"4","last_reported":1684888675,"current_range_meters":24400,"station_id":"ce4bh9p2rcd13ifvqec0","pricing_plan_id":"free"},{"bike_id":"2b98a86c-82f6-4f76-bc37-de03cc56a2bb","system_id":"levelo_inurba_marseille","lat":43.287184,"lon":5.37937,"is_reserved":false,"is_disabled":false,"rental_uris":{"android":"levelo://app?vid=2b98a86c-82f6-4f76-bc37-de03cc56a2bb","ios":"levelo://app?vid=2b98a86c-82f6-4f76-bc37-de03cc56a2bb"},"vehicle_type_id":"4","last_reported":1684888675,"current_range_meters":31200,"station_id":"ce4bh9p2rcd13ifvqec0","pricing_plan_id":"free"},{"bike_id":"1452636e-f392-44e9-bf2c-3ac12c16b690","system_id":"levelo_inurba_marseille","lat":43.287185,"lon":5.379373,"is_reserved":false,"is_disabled":false,"rental_uris":{"android":"levelo://app?vid=1452636e-f392-44e9-bf2c-3ac12c16b690","ios":"levelo://app?vid=1452636e-f392-44e9-bf2c-3ac12c16b690"},"vehicle_type_id":"4","last_reported":1684888675,"current_range_meters":31200,"station_id":"ce4bh9p2rcd13ifvqec0","pricing_plan_id":"free"},{"bike_id":"df33b3a4-f376-4743-8817-cf1221c21c34","system_id":"levelo_inurba_marseille","lat":43.287184,"lon":5.37937,"is_reserved":false,"is_disabled":false,"rental_uris":{"android":"levelo://app?vid=df33b3a4-f376-4743-8817-cf1221c21c34","ios":"levelo://app?vid=df33b3a4-f376-4743-8817-cf1221c21c34"},"vehicle_type_id":"4","last_reported":1684888675,"current_range_meters":26400,"station_id":"ce4bh9p2rcd13ifvqec0","pricing_plan_id":"free"},{"bike_id":"2873eec2-7ee9-4b25-ad2d-176901ff7d86","system_id":"levelo_inurba_marseille","lat":43.287184,"lon":5.37937,"is_reserved":false,"is_disabled":false,"rental_uris":{"android":"levelo://app?vid=2873eec2-7ee9-4b25-ad2d-176901ff7d86","ios":"levelo://app?vid=2873eec2-7ee9-4b25-ad2d-176901ff7d86"},"vehicle_type_id":"4","last_reported":1684888675,"current_range_meters":6800,"station_id":"ce4bh9p2rcd13ifvqec0","pricing_plan_id":"free"},{"bike_id":"89d45e58-6498-4d95-a788-46ec52a6fabf","system_id":"levelo_inurba_marseille","lat":43.287185,"lon":5.379373,"is_reserved":false,"is_disabled":false,"rental_uris":{"android":"levelo://app?vid=89d45e58-6498-4d95-a788-46ec52a6fabf","ios":"levelo://app?vid=89d45e58-6498-4d95-a788-46ec52a6fabf"},"vehicle_type_id":"4","last_reported":1684888675,"current_range_meters":18400,"station_id":"ce4bh9p2rcd13ifvqec0","pricing_plan_id":"free"},{"bike_id":"53278427-cff7-4539-8def-4f1a9cd5e6b4","system_id":"levelo_inurba_marseille","lat":43.287184,"lon":5.37937,"is_reserved":false,"is_disabled":false,"rental_uris":{"android":"levelo://app?vid=53278427-cff7-4539-8def-4f1a9cd5e6b4","ios":"levelo://app?vid=53278427-cff7-4539-8def-4f1a9cd5e6b4"},"vehicle_type_id":"4","last_reported":1684888675,"current_range_meters":15200,"station_id":"ce4bh9p2rcd13ifvqec0","pricing_plan_id":"free"},{"bike_id":"12c72002-6376-437a-bd0f-13d0729a50a2","system_id":"levelo_inurba_marseille","lat":43.28712,"lon":5.37942,"is_reserved":false,"is_disabled":false,"rental_uris":{"android":"levelo://app?vid=12c72002-6376-437a-bd0f-13d0729a50a2","ios":"levelo://app?vid=12c72002-6376-437a-bd0f-13d0729a50a2"},"vehicle_type_id":"4","last_reported":1684888675,"current_range_meters":30800,"station_id":"ce4bh9p2rcd13ifvqec0","pricing_plan_id":"free"},{"bike_id":"3040fa13-36c4-4b1b-a9ab-734c6e85cab0","system_id":"levelo_inurba_marseille","lat":43.287185,"lon":5.379373,"is_reserved":false,"is_disabled":false,"rental_uris":{"android":"levelo://app?vid=3040fa13-36c4-4b1b-a9ab-734c6e85cab0","ios":"levelo://app?vid=3040fa13-36c4-4b1b-a9ab-734c6e85cab0"},"vehicle_type_id":"4","last_reported":1684888675,"current_range_meters":13600,"station_id":"ce4bh9p2rcd13ifvqec0","pricing_plan_id":"free"},{"bike_id":"62d5ded5-8dea-41ee-8574-dc187e707a81","system_id":"levelo_inurba_marseille","lat":43.288,"lon":5.38252,"is_reserved":false,"is_disabled":false,"rental_uris":{"android":"levelo://app?vid=62d5ded5-8dea-41ee-8574-dc187e707a81","ios":"levelo://app?vid=62d5ded5-8dea-41ee-8574-dc187e707a81"},"vehicle_type_id":"4","last_reported":1684888675,"current_range_meters":6800,"station_id":"","pricing_plan_id":"free"},{"bike_id":"0584f162-e7e1-4228-8704-51a25e29d1cf","system_id":"levelo_inurba_marseille","lat":43.316517,"lon":5.404375,"is_reserved":false,"is_disabled":false,"rental_uris":{"android":"levelo://app?vid=0584f162-e7e1-4228-8704-51a25e29d1cf","ios":"levelo://app?vid=0584f162-e7e1-4228-8704-51a25e29d1cf"},"vehicle_type_id":"4","last_reported":1684888675,"current_range_meters":5200,"station_id":"ce4bh012rcd13ifvqd00","pricing_plan_id":"free"},{"bike_id":"cb8e2cf5-8da3-457b-8d07-99f139cd3802","system_id":"levelo_inurba_marseille","lat":43.316517,"lon":5.404375,"is_reserved":false,"is_disabled":false,"rental_uris":{"android":"levelo://app?vid=cb8e2cf5-8da3-457b-8d07-99f139cd3802","ios":"levelo://app?vid=cb8e2cf5-8da3-457b-8d07-99f139cd3802"},"vehicle_type_id":"4","last_reported":1684888675,"current_range_meters":10000,"station_id":"ce4bh012rcd13ifvqd00","pricing_plan_id":"free"},{"bike_id":"9bca0271-d2ec-49ba-a6d9-a406c9cdab05","system_id":"levelo_inurba_marseille","lat":43.316517,"lon":5.404375,"is_reserved":false,"is_disabled":false,"rental_uris":{"android":"levelo://app?vid=9bca0271-d2ec-49ba-a6d9-a406c9cdab05","ios":"levelo://app?vid=9bca0271-d2ec-49ba-a6d9-a406c9cdab05"},"vehicle_type_id":"4","last_reported":1684888675,"current_range_meters":4000,"station_id":"ce4bh012rcd13ifvqd00","pricing_plan_id":"free"},{"bike_id":"d2626e12-92ef-4e8b-98f7-f7f7d8432194","system_id":"levelo_inurba_marseille","lat":43.29193,"lon":5.39307,"is_reserved":false,"is_disabled":false,"rental_uris":{"android":"levelo://app?vid=d2626e12-92ef-4e8b-98f7-f7f7d8432194","ios":"levelo://app?vid=d2626e12-92ef-4e8b-98f7-f7f7d8432194"},"vehicle_type_id":"4","last_reported":1684888675,"current_range_meters":1600,"station_id":"ce4bh192rcd13ifvqdd0","pricing_plan_id":"free"},{"bike_id":"16d87cf0-9231-49a3-b964-be782d7c66a9","system_id":"levelo_inurba_marseille","lat":43.291994,"lon":5.392907,"is_reserved":false,"is_disabled":false,"rental_uris":{"android":"levelo://app?vid=16d87cf0-9231-49a3-b964-be782d7c66a9","ios":"levelo://app?vid=16d87cf0-9231-49a3-b964-be782d7c66a9"},"vehicle_type_id":"4","last_reported":1684888675,"current_range_meters":26000,"station_id":"ce4bh192rcd13ifvqdd0","pricing_plan_id":"free"},{"bike_id":"b636f954-6fba-42dc-8fe8-4c23634c40d6","system_id":"levelo_inurba_marseille","lat":43.29195,"lon":5.39323,"is_reserved":false,"is_disabled":false,"rental_uris":{"android":"levelo://app?vid=b636f954-6fba-42dc-8fe8-4c23634c40d6","ios":"levelo://app?vid=b636f954-6fba-42dc-8fe8-4c23634c40d6"},"vehicle_type_id":"4","last_reported":1684888675,"current_range_meters":0,"station_id":"ce4bh192rcd13ifvqdd0","pricing_plan_id":"free"},{"bike_id":"e4361c12-fb94-4064-8e13-c075d1c1851a","system_id":"levelo_inurba_marseille","lat":43.291994,"lon":5.392907,"is_reserved":false,"is_disabled":false,"rental_uris":{"android":"levelo://app?vid=e4361c12-fb94-4064-8e13-c075d1c1851a","ios":"levelo://app?vid=e4361c12-fb94-4064-8e13-c075d1c1851a"},"vehicle_type_id":"4","last_reported":1684888675,"current_range_meters":1600,"station_id":"ce4bh192rcd13ifvqdd0","pricing_plan_id":"free"},{"bike_id":"91baa219-7894-4665-a987-b982ab33a75b","system_id":"levelo_inurba_marseille","lat":43.291994,"lon":5.392907,"is_reserved":false,"is_disabled":false,"rental_uris":{"android":"levelo://app?vid=91baa219-7894-4665-a987-b982ab33a75b","ios":"levelo://app?vid=91baa219-7894-4665-a987-b982ab33a75b"},"vehicle_type_id":"4","last_reported":1684888675,"current_range_meters":2000,"station_id":"ce4bh192rcd13ifvqdd0","pricing_plan_id":"free"},{"bike_id":"fbf5927b-921b-4f1f-9c4e-64b4bea86076","system_id":"levelo_inurba_marseille","lat":43.291994,"lon":5.392907,"is_reserved":false,"is_disabled":false,"rental_uris":{"android":"levelo://app?vid=fbf5927b-921b-4f1f-9c4e-64b4bea86076","ios":"levelo://app?vid=fbf5927b-921b-4f1f-9c4e-64b4bea86076"},"vehicle_type_id":"4","last_reported":1684888675,"current_range_meters":26400,"station_id":"ce4bh192rcd13ifvqdd0","pricing_plan_id":"free"},{"bike_id":"1e2d7091-9927-4f62-9087-bfb3d6cdce85","system_id":"levelo_inurba_marseille","lat":43.284534,"lon":5.358662,"is_reserved":false,"is_disabled":false,"rental_uris":{"android":"levelo://app?vid=1e2d7091-9927-4f62-9087-bfb3d6cdce85","ios":"levelo://app?vid=1e2d7091-9927-4f62-9087-bfb3d6cdce85"},"vehicle_type_id":"4","last_reported":1684888675,"current_range_meters":15600,"station_id":"ce4bhah2rcd13ifvqei0","pricing_plan_id":"free"},{"bike_id":"1919365d-fbbc-493a-b24e-5fd61202b101","system_id":"levelo_inurba_marseille","lat":43.284534,"lon":5.358662,"is_reserved":false,"is_disabled":false,"rental_uris":{"android":"levelo://app?vid=1919365d-fbbc-493a-b24e-5fd61202b101","ios":"levelo://app?vid=1919365d-fbbc-493a-b24e-5fd61202b101"},"vehicle_type_id":"4","last_reported":1684888675,"current_range_meters":31200,"station_id":"ce4bhah2rcd13ifvqei0","pricing_plan_id":"free"},{"bike_id":"c9005856-2311-4b7e-a8e6-9a0070f2d3f8","system_id":"levelo_inurba_marseille","lat":43.284534,"lon":5.358662,"is_reserved":false,"is_disabled":false,"rental_uris":{"android":"levelo://app?vid=c9005856-2311-4b7e-a8e6-9a0070f2d3f8","ios":"levelo://app?vid=c9005856-2311-4b7e-a8e6-9a0070f2d3f8"},"vehicle_type_id":"4","last_reported":1684888675,"current_range_meters":26000,"station_id":"ce4bhah2rcd13ifvqei0","pricing_plan_id":"free"},{"bike_id":"246310d4-111c-466a-a242-a80b7e0325dd","system_id":"levelo_inurba_marseille","lat":43.284534,"lon":5.358662,"is_reserved":false,"is_disabled":false,"rental_uris":{"android":"levelo://app?vid=246310d4-111c-466a-a242-a80b7e0325dd","ios":"levelo://app?vid=246310d4-111c-466a-a242-a80b7e0325dd"},"vehicle_type_id":"4","last_reported":1684888675,"current_range_meters":24800,"station_id":"ce4bhah2rcd13ifvqei0","pricing_plan_id":"free"},{"bike_id":"f3f2e139-9f9c-43e7-8983-fd74cc64e2c7","system_id":"levelo_inurba_marseille","lat":43.28465,"lon":5.35887,"is_reserved":false,"is_disabled":false,"rental_uris":{"android":"levelo://app?vid=f3f2e139-9f9c-43e7-8983-fd74cc64e2c7","ios":"levelo://app?vid=f3f2e139-9f9c-43e7-8983-fd74cc64e2c7"},"vehicle_type_id":"4","last_reported":1684888675,"current_range_meters":31200,"station_id":"ce4bhah2rcd13ifvqei0","pricing_plan_id":"free"},{"bike_id":"8610fff9-e716-4928-a90b-3c5730670c79","system_id":"levelo_inurba_marseille","lat":43.284534,"lon":5.358662,"is_reserved":false,"is_disabled":false,"rental_uris":{"android":"levelo://app?vid=8610fff9-e716-4928-a90b-3c5730670c79","ios":"levelo://app?vid=8610fff9-e716-4928-a90b-3c5730670c79"},"vehicle_type_id":"4","last_reported":1684888675,"current_range_meters":31200,"station_id":"ce4bhah2rcd13ifvqei0","pricing_plan_id":"free"},{"bike_id":"4588d10b-86c9-45e2-89e3-935730e037da","system_id":"levelo_inurba_marseille","lat":43.284534,"lon":5.358662,"is_reserved":false,"is_disabled":false,"rental_uris":{"android":"levelo://app?vid=4588d10b-86c9-45e2-89e3-935730e037da","ios":"levelo://app?vid=4588d10b-86c9-45e2-89e3-935730e037da"},"vehicle_type_id":"4","last_reported":1684888675,"current_range_meters":31200,"station_id":"ce4bhah2rcd13ifvqei0","pricing_plan_id":"free"},{"bike_id":"1ec2f03b-4abe-4a0d-aace-cd5b98a6159f","system_id":"levelo_inurba_marseille","lat":43.284534,"lon":5.358662,"is_reserved":false,"is_disabled":false,"rental_uris":{"android":"levelo://app?vid=1ec2f03b-4abe-4a0d-aace-cd5b98a6159f","ios":"levelo://app?vid=1ec2f03b-4abe-4a0d-aace-cd5b98a6159f"},"vehicle_type_id":"4","last_reported":1684888675,"current_range_meters":20000,"station_id":"ce4bhah2rcd13ifvqei0","pricing_plan_id":"free"},{"bike_id":"ac4b2d97-6056-4503-b313-5d6ea8837e76","system_id":"levelo_inurba_marseille","lat":43.284534,"lon":5.358662,"is_reserved":false,"is_disabled":false,"rental_uris":{"android":"levelo://app?vid=ac4b2d97-6056-4503-b313-5d6ea8837e76","ios":"levelo://app?vid=ac4b2d97-6056-4503-b313-5d6ea8837e76"},"vehicle_type_id":"4","last_reported":1684888675,"current_range_meters":14400,"station_id":"ce4bhah2rcd13ifvqei0","pricing_plan_id":"free"},{"bike_id":"da5bad9a-7da4-44f5-b7cc-17e8365b3e35","system_id":"levelo_inurba_marseille","lat":43.284534,"lon":5.358662,"is_reserved":false,"is_disabled":false,"rental_uris":{"android":"levelo://app?vid=da5bad9a-7da4-44f5-b7cc-17e8365b3e35","ios":"levelo://app?vid=da5bad9a-7da4-44f5-b7cc-17e8365b3e35"},"vehicle_type_id":"4","last_reported":1684888675,"current_range_meters":15200,"station_id":"ce4bhah2rcd13ifvqei0","pricing_plan_id":"free"},{"bike_id":"24a9f437-3f10-4ec5-811e-48a2ceb23afc","system_id":"levelo_inurba_marseille","lat":43.284534,"lon":5.358662,"is_reserved":false,"is_disabled":false,"rental_uris":{"android":"levelo://app?vid=24a9f437-3f10-4ec5-811e-48a2ceb23afc","ios":"levelo://app?vid=24a9f437-3f10-4ec5-811e-48a2ceb23afc"},"vehicle_type_id":"4","last_reported":1684888675,"current_range_meters":16400,"station_id":"ce4bhah2rcd13ifvqei0","pricing_plan_id":"free"},{"bike_id":"e7f47499-2326-4757-bd1f-dbb6bd389aa8","system_id":"levelo_inurba_marseille","lat":43.284534,"lon":5.358662,"is_reserved":false,"is_disabled":false,"rental_uris":{"android":"levelo://app?vid=e7f47499-2326-4757-bd1f-dbb6bd389aa8","ios":"levelo://app?vid=e7f47499-2326-4757-bd1f-dbb6bd389aa8"},"vehicle_type_id":"4","last_reported":1684888675,"current_range_meters":31200,"station_id":"ce4bhah2rcd13ifvqei0","pricing_plan_id":"free"},{"bike_id":"f8c8e9b7-6dc7-418d-b9ca-0805bbcf11be","system_id":"levelo_inurba_marseille","lat":43.284534,"lon":5.358662,"is_reserved":false,"is_disabled":false,"rental_uris":{"android":"levelo://app?vid=f8c8e9b7-6dc7-418d-b9ca-0805bbcf11be","ios":"levelo://app?vid=f8c8e9b7-6dc7-418d-b9ca-0805bbcf11be"},"vehicle_type_id":"4","last_reported":1684888675,"current_range_meters":22000,"station_id":"ce4bhah2rcd13ifvqei0","pricing_plan_id":"free"},{"bike_id":"e65acaa8-3a82-4724-a9c5-e2993b01818f","system_id":"levelo_inurba_marseille","lat":43.284534,"lon":5.358662,"is_reserved":false,"is_disabled":false,"rental_uris":{"android":"levelo://app?vid=e65acaa8-3a82-4724-a9c5-e2993b01818f","ios":"levelo://app?vid=e65acaa8-3a82-4724-a9c5-e2993b01818f"},"vehicle_type_id":"4","last_reported":1684888675,"current_range_meters":31200,"station_id":"ce4bhah2rcd13ifvqei0","pricing_plan_id":"free"},{"bike_id":"218976a2-047c-46c9-b969-9a9fb079e238","system_id":"levelo_inurba_marseille","lat":43.284534,"lon":5.358662,"is_reserved":false,"is_disabled":false,"rental_uris":{"android":"levelo://app?vid=218976a2-047c-46c9-b969-9a9fb079e238","ios":"levelo://app?vid=218976a2-047c-46c9-b969-9a9fb079e238"},"vehicle_type_id":"4","last_reported":1684888675,"current_range_meters":24800,"station_id":"ce4bhah2rcd13ifvqei0","pricing_plan_id":"free"},{"bike_id":"43ee0f7c-0953-4722-9e40-7ed749c743f3","system_id":"levelo_inurba_marseille","lat":43.284534,"lon":5.358662,"is_reserved":false,"is_disabled":false,"rental_uris":{"android":"levelo://app?vid=43ee0f7c-0953-4722-9e40-7ed749c743f3","ios":"levelo://app?vid=43ee0f7c-0953-4722-9e40-7ed749c743f3"},"vehicle_type_id":"4","last_reported":1684888675,"current_range_meters":31200,"station_id":"ce4bhah2rcd13ifvqei0","pricing_plan_id":"free"},{"bike_id":"59e35aed-2436-4ff7-a3f6-cb7e03bdb2e5","system_id":"levelo_inurba_marseille","lat":43.28458,"lon":5.35891,"is_reserved":false,"is_disabled":false,"rental_uris":{"android":"levelo://app?vid=59e35aed-2436-4ff7-a3f6-cb7e03bdb2e5","ios":"levelo://app?vid=59e35aed-2436-4ff7-a3f6-cb7e03bdb2e5"},"vehicle_type_id":"4","last_reported":1684888675,"current_range_meters":0,"station_id":"ce4bhah2rcd13ifvqei0","pricing_plan_id":"free"},{"bike_id":"cbde816a-eb28-46a5-83be-89fae6918151","system_id":"levelo_inurba_marseille","lat":43.284534,"lon":5.358662,"is_reserved":false,"is_disabled":false,"rental_uris":{"android":"levelo://app?vid=cbde816a-eb28-46a5-83be-89fae6918151","ios":"levelo://app?vid=cbde816a-eb28-46a5-83be-89fae6918151"},"vehicle_type_id":"4","last_reported":1684888675,"current_range_meters":26800,"station_id":"ce4bhah2rcd13ifvqei0","pricing_plan_id":"free"},{"bike_id":"a0c19ad0-e657-4cfd-a81b-2a096e6fac1b","system_id":"levelo_inurba_marseille","lat":43.28457,"lon":5.35897,"is_reserved":false,"is_disabled":false,"rental_uris":{"android":"levelo://app?vid=a0c19ad0-e657-4cfd-a81b-2a096e6fac1b","ios":"levelo://app?vid=a0c19ad0-e657-4cfd-a81b-2a096e6fac1b"},"vehicle_type_id":"4","last_reported":1684888675,"current_range_meters":11200,"station_id":"ce4bhah2rcd13ifvqei0","pricing_plan_id":"free"},{"bike_id":"154056b9-33f7-4a84-98e1-b1ecf7fa098e","system_id":"levelo_inurba_marseille","lat":43.284534,"lon":5.358662,"is_reserved":false,"is_disabled":false,"rental_uris":{"android":"levelo://app?vid=154056b9-33f7-4a84-98e1-b1ecf7fa098e","ios":"levelo://app?vid=154056b9-33f7-4a84-98e1-b1ecf7fa098e"},"vehicle_type_id":"4","last_reported":1684888675,"current_range_meters":11200,"station_id":"ce4bhah2rcd13ifvqei0","pricing_plan_id":"free"},{"bike_id":"ae4a9f70-99d5-4d86-8781-4cc643fdb0cb","system_id":"levelo_inurba_marseille","lat":43.284534,"lon":5.358662,"is_reserved":false,"is_disabled":false,"rental_uris":{"android":"levelo://app?vid=ae4a9f70-99d5-4d86-8781-4cc643fdb0cb","ios":"levelo://app?vid=ae4a9f70-99d5-4d86-8781-4cc643fdb0cb"},"vehicle_type_id":"4","last_reported":1684888675,"current_range_meters":18400,"station_id":"ce4bhah2rcd13ifvqei0","pricing_plan_id":"free"},{"bike_id":"a9952965-61e6-4bba-9631-ae54b2ddd031","system_id":"levelo_inurba_marseille","lat":43.284534,"lon":5.358662,"is_reserved":false,"is_disabled":false,"rental_uris":{"android":"levelo://app?vid=a9952965-61e6-4bba-9631-ae54b2ddd031","ios":"levelo://app?vid=a9952965-61e6-4bba-9631-ae54b2ddd031"},"vehicle_type_id":"4","last_reported":1684888675,"current_range_meters":31200,"station_id":"ce4bhah2rcd13ifvqei0","pricing_plan_id":"free"},{"bike_id":"b30fecd7-0390-4300-8b2a-d8089641a0cc","system_id":"levelo_inurba_marseille","lat":43.284534,"lon":5.358662,"is_reserved":false,"is_disabled":false,"rental_uris":{"android":"levelo://app?vid=b30fecd7-0390-4300-8b2a-d8089641a0cc","ios":"levelo://app?vid=b30fecd7-0390-4300-8b2a-d8089641a0cc"},"vehicle_type_id":"4","last_reported":1684888675,"current_range_meters":15600,"station_id":"ce4bhah2rcd13ifvqei0","pricing_plan_id":"free"},{"bike_id":"3ab430b9-35e4-440a-9289-df17dedebaf0","system_id":"levelo_inurba_marseille","lat":43.284534,"lon":5.358662,"is_reserved":false,"is_disabled":false,"rental_uris":{"android":"levelo://app?vid=3ab430b9-35e4-440a-9289-df17dedebaf0","ios":"levelo://app?vid=3ab430b9-35e4-440a-9289-df17dedebaf0"},"vehicle_type_id":"4","last_reported":1684888675,"current_range_meters":25200,"station_id":"ce4bhah2rcd13ifvqei0","pricing_plan_id":"free"},{"bike_id":"54df7ffb-7202-4fdb-9eb4-4c01031807e2","system_id":"levelo_inurba_marseille","lat":43.284534,"lon":5.358662,"is_reserved":false,"is_disabled":false,"rental_uris":{"android":"levelo://app?vid=54df7ffb-7202-4fdb-9eb4-4c01031807e2","ios":"levelo://app?vid=54df7ffb-7202-4fdb-9eb4-4c01031807e2"},"vehicle_type_id":"4","last_reported":1684888675,"current_range_meters":20400,"station_id":"ce4bhah2rcd13ifvqei0","pricing_plan_id":"free"},{"bike_id":"3f2d1e4b-b301-45c2-8c99-be1bae6f5d82","system_id":"levelo_inurba_marseille","lat":43.284534,"lon":5.358662,"is_reserved":false,"is_disabled":false,"rental_uris":{"android":"levelo://app?vid=3f2d1e4b-b301-45c2-8c99-be1bae6f5d82","ios":"levelo://app?vid=3f2d1e4b-b301-45c2-8c99-be1bae6f5d82"},"vehicle_type_id":"4","last_reported":1684888675,"current_range_meters":17600,"station_id":"ce4bhah2rcd13ifvqei0","pricing_plan_id":"free"},{"bike_id":"c54e99c2-d9e8-4a32-abb0-e74299061968","system_id":"levelo_inurba_marseille","lat":43.284534,"lon":5.358662,"is_reserved":false,"is_disabled":false,"rental_uris":{"android":"levelo://app?vid=c54e99c2-d9e8-4a32-abb0-e74299061968","ios":"levelo://app?vid=c54e99c2-d9e8-4a32-abb0-e74299061968"},"vehicle_type_id":"4","last_reported":1684888675,"current_range_meters":27200,"station_id":"ce4bhah2rcd13ifvqei0","pricing_plan_id":"free"},{"bike_id":"b15ac710-d89a-47d0-89ad-51703bc79cd0","system_id":"levelo_inurba_marseille","lat":43.284534,"lon":5.358662,"is_reserved":false,"is_disabled":false,"rental_uris":{"android":"levelo://app?vid=b15ac710-d89a-47d0-89ad-51703bc79cd0","ios":"levelo://app?vid=b15ac710-d89a-47d0-89ad-51703bc79cd0"},"vehicle_type_id":"4","last_reported":1684888675,"current_range_meters":27200,"station_id":"ce4bhah2rcd13ifvqei0","pricing_plan_id":"free"},{"bike_id":"1b95c390-f78b-4c4d-b02a-107b3d641731","system_id":"levelo_inurba_marseille","lat":43.28457,"lon":5.35884,"is_reserved":false,"is_disabled":false,"rental_uris":{"android":"levelo://app?vid=1b95c390-f78b-4c4d-b02a-107b3d641731","ios":"levelo://app?vid=1b95c390-f78b-4c4d-b02a-107b3d641731"},"vehicle_type_id":"4","last_reported":1684888675,"current_range_meters":19600,"station_id":"ce4bhah2rcd13ifvqei0","pricing_plan_id":"free"},