{"last_updated":1701954641,"ttl":30,"version":"2.2","data":{"bikes":[{"bike_id":"ed6850d9-7dce-4843-9ed1-b551b0e8daf0","system_id":"levelo_inurba_marseille","lat":43.31341,"lon":5.367098,"is_reserved":false,"is_disabled":false,"rental_uris":{"android":"levelo://app?vid=ed6850d9-7dce-4843-9ed1-b551b0e8daf0","ios":"levelo://app?vid=ed6850d9-7dce-4843-9ed1-b551b0e8daf0"},"vehicle_type_id":"4","last_reported":1701954641,"current_range_meters":1600,"station_id":"ce4bgr92rcd13ifvqc6g","pricing_plan_id":"free"},{"bike_id":"b7c2b7a8-41bd-4446-a6e1-cfe28355ab86","system_id":"levelo_inurba_marseille","lat":43.309076,"lon":5.368465,"is_reserved":false,"is_disabled":false,"rental_uris":{"android":"levelo://app?vid=b7c2b7a8-41bd-4446-a6e1-cfe28355ab86","ios":"levelo://app?vid=b7c2b7a8-41bd-4446-a6e1-cfe28355ab86"},"vehicle_type_id":"4","last_reported":1701954641,"current_range_meters":4800,"station_id":"ce4bgn92rcd13ifvqbvg","pricing_plan_id":"free"},{"bike_id":"80321399-ef33-4274-8227-06d6d833373c","system_id":"levelo_inurba_marseille","lat":43.305505,"lon":5.36532,"is_reserved":false,"is_disabled":false,"rental_uris":{"android":"levelo://app?vid=80321399-ef33-4274-8227-06d6d833373c","ios":"levelo://app?vid=80321399-ef33-4274-8227-06d6d833373c"},"vehicle_type_id":"4","last_reported":1701954641,"current_range_meters":30400,"station_id":"ce4bgs12rcd13ifvqcag","pricing_plan_id":"free"},{"bike_id":"76192d41-548a-40df-b6c2-c5871b6f3625","system_id":"levelo_inurba_marseille","lat":43.305714,"lon":5.365633,"is_reserved":false,"is_disabled":false,"rental_uris":{"android":"levelo://app?vid=76192d41-548a-40df-b6c2-c5871b6f3625","ios":"levelo://app?vid=76192d41-548a-40df-b6c2-c5871b6f3625"},"vehicle_type_id":"4","last_reported":1701954641,"current_range_meters":24800,"station_id":"ce4bgs12rcd13ifvqcag","pricing_plan_id":"free"},{"bike_id":"16b4688d-b88b-4372-b352-2f024646a1e8","system_id":"levelo_inurba_marseille","lat":43.305706,"lon":5.365654,"is_reserved":false,"is_disabled":false,"rental_uris":{"android":"levelo://app?vid=16b4688d-b88b-4372-b352-2f024646a1e8","ios":"levelo://app?vid=16b4688d-b88b-4372-b352-2f024646a1e8"},"vehicle_type_id":"4","last_reported":1701954641,"current_range_meters":17600,"station_id":"ce4bgs12rcd13ifvqcag","pricing_plan_id":"free"},{"bike_id":"0117b3e7-e758-4084-acd5-d2a32066274d","system_id":"levelo_inurba_marseille","lat":43.30523,"lon":5.36715,"is_reserved":false,"is_disabled":false,"rental_uris":{"android":"levelo://app?vid=0117b3e7-e758-4084-acd5-d2a32066274d","ios":"levelo://app?vid=0117b3e7-e758-4084-acd5-d2a32066274d"},"vehicle_type_id":"4","last_reported":1701954641,"current_range_meters":12000,"station_id":"ce4bgrp2rcd13ifvqc9g","pricing_plan_id":"free"},{"bike_id":"4006b661-9e13-4e42-b5f5-b4f8373f68a2","system_id":"levelo_inurba_marseille","lat":43.305706,"lon":5.365654,"is_reserved":false,"is_disabled":false,"rental_uris":{"android":"levelo://app?vid=4006b661-9e13-4e42-b5f5-b4f8373f68a2","ios":"levelo://app?vid=4006b661-9e13-4e42-b5f5-b4f8373f68a2"},"vehicle_type_id":"4","last_reported":1701954641,"current_range_meters":24000,"station_id":"ce4bgs12rcd13ifvqcag","pricing_plan_id":"free"},{"bike_id":"ba0b15d0-2277-4238-a22f-394648130026","system_id":"levelo_inurba_marseille","lat":43.30521,"lon":5.36719,"is_reserved":false,"is_disabled":false,"rental_uris":{"android":"levelo://app?vid=ba0b15d0-2277-4238-a22f-394648130026","ios":"levelo://app?vid=ba0b15d0-2277-4238-a22f-394648130026"},"vehicle_type_id":"4","last_reported":1701954641,"current_range_meters":18800,"station_id":"ce4bgrp2rcd13ifvqc9g","pricing_plan_id":"free"},{"bike_id":"1795b059-2f06-4f74-9266-d14e463b0e1c","system_id":"levelo_inurba_marseille","lat":43.311125,"lon":5.377624,"is_reserved":false,"is_disabled":false,"rental_uris":{"android":"levelo://app?vid=1795b059-2f06-4f74-9266-d14e463b0e1c","ios":"levelo://app?vid=1795b059-2f06-4f74-9266-d14e463b0e1c"},"vehicle_type_id":"4","last_reported":1701954641,"current_range_meters":22800,"station_id":"ce4bgt92rcd13ifvqcg0","pricing_plan_id":"free"},{"bike_id":"3efa0940-dcb0-44ce-9e34-83c55f0c57c5","system_id":"levelo_inurba_marseille","lat":43.31113,"lon":5.37771,"is_reserved":false,"is_disabled":false,"rental_uris":{"android":"levelo://app?vid=3efa0940-dcb0-44ce-9e34-83c55f0c57c5","ios":"levelo://app?vid=3efa0940-dcb0-44ce-9e34-83c55f0c57c5"},"vehicle_type_id":"4","last_reported":1701954641,"current_range_meters":14400,"station_id":"ce4bgt92rcd13ifvqcg0","pricing_plan_id":"free"},{"bike_id":"adf146c5-e4e1-4668-9a33-042940925130","system_id":"levelo_inurba_marseille","lat":43.31351,"lon":5.37909,"is_reserved":false,"is_disabled":false,"rental_uris":{"android":"levelo://app?vid=adf146c5-e4e1-4668-9a33-042940925130","ios":"levelo://app?vid=adf146c5-e4e1-4668-9a33-042940925130"},"vehicle_type_id":"4","last_reported":1701954641,"current_range_meters":2400,"station_id":"","pricing_plan_id":"free"},{"bike_id":"52ad1926-3e70-4aef-b245-0ca657d243f5","system_id":"levelo_inurba_marseille","lat":43.317075,"lon":5.377367,"is_reserved":false,"is_disabled":false,"rental_uris":{"android":"levelo://app?vid=52ad1926-3e70-4aef-b245-0ca657d243f5","ios":"levelo://app?vid=52ad1926-3e70-4aef-b245-0ca657d243f5"},"vehicle_type_id":"4","last_reported":1701954641,"current_range_meters":27200,"station_id":"ce4bgth2rcd13ifvqch0","pricing_plan_id":"free"},{"bike_id":"1ea60f58-75f7-4484-b705-1156df4b02ad","system_id":"levelo_inurba_marseille","lat":43.302821,"lon":5.373431,"is_reserved":false,"is_disabled":false,"rental_uris":{"android":"levelo://app?vid=1ea60f58-75f7-4484-b705-1156df4b02ad","ios":"levelo://app?vid=1ea60f58-75f7-4484-b705-1156df4b02ad"},"vehicle_type_id":"4","last_reported":1701954641,"current_range_meters":5200,"station_id":"","pricing_plan_id":"free"},{"bike_id":"1c3409b6-3ef7-4201-9477-ace56ebe0ee1","system_id":"levelo_inurba_marseille","lat":43.30463,"lon":5.37896,"is_reserved":false,"is_disabled":false,"rental_uris":{"android":"levelo://app?vid=1c3409b6-3ef7-4201-9477-ace56ebe0ee1","ios":"levelo://app?vid=1c3409b6-3ef7-4201-9477-ace56ebe0ee1"},"vehicle_type_id":"4","last_reported":1701954641,"current_range_meters":0,"station_id":"ce4bgup2rcd13ifvqcn0","pricing_plan_id":"free"},{"bike_id":"a00c380e-6267-4284-8939-b7d234885bf2","system_id":"levelo_inurba_marseille","lat":43.30454,"lon":5.37903,"is_reserved":false,"is_disabled":false,"rental_uris":{"android":"levelo://app?vid=a00c380e-6267-4284-8939-b7d234885bf2","ios":"levelo://app?vid=a00c380e-6267-4284-8939-b7d234885bf2"},"vehicle_type_id":"4","last_reported":1701954641,"current_range_meters":0,"station_id":"ce4bgup2rcd13ifvqcn0","pricing_plan_id":"free"},{"bike_id":"e6a7946c-a7d5-4369-b254-577b631c8d1a","system_id":"levelo_inurba_marseille","lat":43.31723,"lon":5.38245,"is_reserved":false,"is_disabled":false,"rental_uris":{"android":"levelo://app?vid=e6a7946c-a7d5-4369-b254-577b631c8d1a","ios":"levelo://app?vid=e6a7946c-a7d5-4369-b254-577b631c8d1a"},"vehicle_type_id":"4","last_reported":1701954641,"current_range_meters":25200,"station_id":"","pricing_plan_id":"free"},{"bike_id":"44b639d4-c394-49b2-9e18-6098ae373bd6","system_id":"levelo_inurba_marseille","lat":43.31932,"lon":5.38124,"is_reserved":false,"is_disabled":false,"rental_uris":{"android":"levelo://app?vid=44b639d4-c394-49b2-9e18-6098ae373bd6","ios":"levelo://app?vid=44b639d4-c394-49b2-9e18-6098ae373bd6"},"vehicle_type_id":"4","last_reported":1701954641,"current_range_meters":29600,"station_id":"","pricing_plan_id":"free"},{"bike_id":"08b20987-5cb6-40f7-becd-9f69b951e039","system_id":"levelo_inurba_marseille","lat":43.302784,"lon":5.377158,"is_reserved":false,"is_disabled":false,"rental_uris":{"android":"levelo://app?vid=08b20987-5cb6-40f7-becd-9f69b951e039","ios":"levelo://app?vid=08b20987-5cb6-40f7-becd-9f69b951e039"},"vehicle_type_id":"4","last_reported":1701954641,"current_range_meters":4000,"station_id":"ce4bguh2rcd13ifvqcj0","pricing_plan_id":"free"},{"bike_id":"9ee0ef7a-8d9c-4d78-8ae5-64e12b708d26","system_id":"levelo_inurba_marseille","lat":43.319997,"lon":5.381594,"is_reserved":false,"is_disabled":false,"rental_uris":{"android":"levelo://app?vid=9ee0ef7a-8d9c-4d78-8ae5-64e12b708d26","ios":"levelo://app?vid=9ee0ef7a-8d9c-4d78-8ae5-64e12b708d26"},"vehicle_type_id":"4","last_reported":1701954641,"current_range_meters":0,"station_id":"ce4bhr12rcd13ifvqhpg","pricing_plan_id":"free"},{"bike_id":"85edba32-a155-4c3c-979b-d8bb518bd50d","system_id":"levelo_inurba_marseille","lat":43.313571,"lon":5.384829,"is_reserved":false,"is_disabled":false,"rental_uris":{"android":"levelo://app?vid=85edba32-a155-4c3c-979b-d8bb518bd50d","ios":"levelo://app?vid=85edba32-a155-4c3c-979b-d8bb518bd50d"},"vehicle_type_id":"4","last_reported":1701954641,"current_range_meters":22800,"station_id":"ce4bgt92rcd13ifvqcf0","pricing_plan_id":"free"},{"bike_id":"a1edd78e-c81e-46e2-84e6-30df7e83f8ae","system_id":"levelo_inurba_marseille","lat":43.29936,"lon":5.365548,"is_reserved":false,"is_disabled":false,"rental_uris":{"android":"levelo://app?vid=a1edd78e-c81e-46e2-84e6-30df7e83f8ae","ios":"levelo://app?vid=a1edd78e-c81e-46e2-84e6-30df7e83f8ae"},"vehicle_type_id":"4","last_reported":1701954641,"current_range_meters":23200,"station_id":"ce4bgm92rcd13ifvqbr0","pricing_plan_id":"free"},{"bike_id":"35d1ed6b-138f-4e8d-addf-72c050409f7d","system_id":"levelo_inurba_marseille","lat":43.299724,"lon":5.371829,"is_reserved":false,"is_disabled":false,"rental_uris":{"android":"levelo://app?vid=35d1ed6b-138f-4e8d-addf-72c050409f7d","ios":"levelo://app?vid=35d1ed6b-138f-4e8d-addf-72c050409f7d"},"vehicle_type_id":"4","last_reported":1701954641,"current_range_meters":25600,"station_id":"ce4bgr92rcd13ifvqc7g","pricing_plan_id":"free"},{"bike_id":"71fee797-53fd-4426-b959-ce2b0cb34d29","system_id":"levelo_inurba_marseille","lat":43.305364,"lon":5.384119,"is_reserved":false,"is_disabled":false,"rental_uris":{"android":"levelo://app?vid=71fee797-53fd-4426-b959-ce2b0cb34d29","ios":"levelo://app?vid=71fee797-53fd-4426-b959-ce2b0cb34d29"},"vehicle_type_id":"4","last_reported":1701954641,"current_range_meters":400,"station_id":"ce4bgg92rcd13ifvqb30","pricing_plan_id":"free"},{"bike_id":"b7171cec-dd33-488f-b065-0831a9103f7a","system_id":"levelo_inurba_marseille","lat":43.328371,"lon":5.366909,"is_reserved":false,"is_disabled":false,"rental_uris":{"android":"levelo://app?vid=b7171cec-dd33-488f-b065-0831a9103f7a","ios":"levelo://app?vid=b7171cec-dd33-488f-b065-0831a9103f7a"},"vehicle_type_id":"4","last_reported":1701954641,"current_range_meters":20000,"station_id":"ce4bhs92rcd13ifvqi0g","pricing_plan_id":"free"},{"bike_id":"9190eb99-d6ca-4501-a2a4-7ed7fc8df97e","system_id":"levelo_inurba_marseille","lat":43.328371,"lon":5.366909,"is_reserved":false,"is_disabled":false,"rental_uris":{"android":"levelo://app?vid=9190eb99-d6ca-4501-a2a4-7ed7fc8df97e","ios":"levelo://app?vid=9190eb99-d6ca-4501-a2a4-7ed7fc8df97e"},"vehicle_type_id":"4","last_reported":1701954641,"current_range_meters":18800,"station_id":"ce4bhs92rcd13ifvqi0g","pricing_plan_id":"free"},{"bike_id":"2cad760e-93db-4a89-b098-860b1e2a6aef","system_id":"levelo_inurba_marseille","lat":43.298218,"lon":5.374416,"is_reserved":false,"is_disabled":false,"rental_uris":{"android":"levelo://app?vid=2cad760e-93db-4a89-b098-860b1e2a6aef","ios":"levelo://app?vid=2cad760e-93db-4a89-b098-860b1e2a6aef"},"vehicle_type_id":"4","last_reported":1701954641,"current_range_meters":10000,"station_id":"","pricing_plan_id":"free"},{"bike_id":"ab3dc538-cc39-480e-9b91-e3606a385be2","system_id":"levelo_inurba_marseille","lat":43.32826,"lon":5.36688,"is_reserved":false,"is_disabled":false,"rental_uris":{"android":"levelo://app?vid=ab3dc538-cc39-480e-9b91-e3606a385be2","ios":"levelo://app?vid=ab3dc538-cc39-480e-9b91-e3606a385be2"},"vehicle_type_id":"4","last_reported":1701954641,"current_range_meters":18000,"station_id":"ce4bhs92rcd13ifvqi0g","pricing_plan_id":"free"},{"bike_id":"26fc0c47-e5ee-49d2-911f-b4135c252acd","system_id":"levelo_inurba_marseille","lat":43.328371,"lon":5.366909,"is_reserved":false,"is_disabled":false,"rental_uris":{"android":"levelo://app?vid=26fc0c47-e5ee-49d2-911f-b4135c252acd","ios":"levelo://app?vid=26fc0c47-e5ee-49d2-911f-b4135c252acd"},"vehicle_type_id":"4","last_reported":1701954641,"current_range_meters":26000,"station_id":"ce4bhs92rcd13ifvqi0g","pricing_plan_id":"free"},{"bike_id":"55311dec-ec61-4646-8d1a-4ddd89532043","system_id":"levelo_inurba_marseille","lat":43.328371,"lon":5.366909,"is_reserved":false,"is_disabled":false,"rental_uris":{"android":"levelo://app?vid=55311dec-ec61-4646-8d1a-4ddd89532043","ios":"levelo://app?vid=55311dec-ec61-4646-8d1a-4ddd89532043"},"vehicle_type_id":"4","last_reported":1701954641,"current_range_meters":23600,"station_id":"ce4bhs92rcd13ifvqi0g","pricing_plan_id":"free"},{"bike_id":"92dc65d6-6823-4de3-93d4-056f738f090c","system_id":"levelo_inurba_marseille","lat":43.316538,"lon":5.38954,"is_reserved":false,"is_disabled":false,"rental_uris":{"android":"levelo://app?vid=92dc65d6-6823-4de3-93d4-056f738f090c","ios":"levelo://app?vid=92dc65d6-6823-4de3-93d4-056f738f090c"},"vehicle_type_id":"4","last_reported":1701954641,"current_range_meters":5600,"station_id":"","pricing_plan_id":"free"},{"bike_id":"53273157-254c-444f-a8b8-ed09066649fa","system_id":"levelo_inurba_marseille","lat":43.29582,"lon":5.36752,"is_reserved":false,"is_disabled":false,"rental_uris":{"android":"levelo://app?vid=53273157-254c-444f-a8b8-ed09066649fa","ios":"levelo://app?vid=53273157-254c-444f-a8b8-ed09066649fa"},"vehicle_type_id":"4","last_reported":1701954641,"current_range_meters":0,"station_id":"ce4bgph2rcd13ifvqc2g","pricing_plan_id":"free"},{"bike_id":"5666c17d-f217-4565-ab6a-dc1ce3f781d9","system_id":"levelo_inurba_marseille","lat":43.299028,"lon":5.381509,"is_reserved":false,"is_disabled":false,"rental_uris":{"android":"levelo://app?vid=5666c17d-f217-4565-ab6a-dc1ce3f781d9","ios":"levelo://app?vid=5666c17d-f217-4565-ab6a-dc1ce3f781d9"},"vehicle_type_id":"4","last_reported":1701954641,"current_range_meters":9600,"station_id":"ce4bgj12rcd13ifvqbc0","pricing_plan_id":"free"},{"bike_id":"e2d1f81d-3e58-4e2b-9dbb-0af1b95b353b","system_id":"levelo_inurba_marseille","lat":43.309589,"lon":5.390258,"is_reserved":false,"is_disabled":false,"rental_uris":{"android":"levelo://app?vid=e2d1f81d-3e58-4e2b-9dbb-0af1b95b353b","ios":"levelo://app?vid=e2d1f81d-3e58-4e2b-9dbb-0af1b95b353b"},"vehicle_type_id":"4","last_reported":1701954641,"current_range_meters":8400,"station_id":"ce4bgup2rcd13ifvqco0","pricing_plan_id":"free"},{"bike_id":"a2555cde-c2c3-4693-9eff-9971ae357f9c","system_id":"levelo_inurba_marseille","lat":43.298037,"lon":5.381066,"is_reserved":false,"is_disabled":false,"rental_uris":{"android":"levelo://app?vid=a2555cde-c2c3-4693-9eff-9971ae357f9c","ios":"levelo://app?vid=a2555cde-c2c3-4693-9eff-9971ae357f9c"},"vehicle_type_id":"4","last_reported":1701954641,"current_range_meters":12400,"station_id":"ce4bgip2rcd13ifvqbb0","pricing_plan_id":"free"},{"bike_id":"939df909-61ad-47d2-9a24-279eade37c8c","system_id":"levelo_inurba_marseille","lat":43.29569,"lon":5.37509,"is_reserved":false,"is_disabled":false,"rental_uris":{"android":"levelo://app?vid=939df909-61ad-47d2-9a24-279eade37c8c","ios":"levelo://app?vid=939df909-61ad-47d2-9a24-279eade37c8c"},"vehicle_type_id":"4","last_reported":1701954641,"current_range_meters":0,"station_id":"ce4bgh92rcd13ifvqb50","pricing_plan_id":"free"},{"bike_id":"906a6abb-f9ae-4c0b-890f-a297f7d08003","system_id":"levelo_inurba_marseille","lat":43.298037,"lon":5.381066,"is_reserved":false,"is_disabled":false,"rental_uris":{"android":"levelo://app?vid=906a6abb-f9ae-4c0b-890f-a297f7d08003","ios":"levelo://app?vid=906a6abb-f9ae-4c0b-890f-a297f7d08003"},"vehicle_type_id":"4","last_reported":1701954641,"current_range_meters":20000,"station_id":"ce4bgip2rcd13ifvqbb0","pricing_plan_id":"free"},{"bike_id":"f6637155-7825-42ab-9f12-eb70330b5bc0","system_id":"levelo_inurba_marseille","lat":43.296263,"lon":5.377094,"is_reserved":false,"is_disabled":false,"rental_uris":{"android":"levelo://app?vid=f6637155-7825-42ab-9f12-eb70330b5bc0","ios":"levelo://app?vid=f6637155-7825-42ab-9f12-eb70330b5bc0"},"vehicle_type_id":"4","last_reported":1701954641,"current_range_meters":8800,"station_id":"ce4bgi92rcd13ifvqb90","pricing_plan_id":"free"},{"bike_id":"c89be194-43ef-4f21-8729-ef0bd599e118","system_id":"levelo_inurba_marseille","lat":43.296263,"lon":5.377094,"is_reserved":false,"is_disabled":false,"rental_uris":{"android":"levelo://app?vid=c89be194-43ef-4f21-8729-ef0bd599e118","ios":"levelo://app?vid=c89be194-43ef-4f21-8729-ef0bd599e118"},"vehicle_type_id":"4","last_reported":1701954641,"current_range_meters":0,"station_id":"ce4bgi92rcd13ifvqb90","pricing_plan_id":"free"},{"bike_id":"8173668d-d458-43fc-b8d0-d5b008dc41ae","system_id":"levelo_inurba_marseille","lat":43.29981,"lon":5.38489,"is_reserved":false,"is_disabled":false,"rental_uris":{"android":"levelo://app?vid=8173668d-d458-43fc-b8d0-d5b008dc41ae","ios":"levelo://app?vid=8173668d-d458-43fc-b8d0-d5b008dc41ae"},"vehicle_type_id":"4","last_reported":1701954641,"current_range_meters":0,"station_id":"ce4bgj92rcd13ifvqbd0","pricing_plan_id":"free"},{"bike_id":"e170744e-09b9-4092-824f-a2ecc5da2cfb","system_id":"levelo_inurba_marseille","lat":43.323573,"lon":5.38883,"is_reserved":false,"is_disabled":false,"rental_uris":{"android":"levelo://app?vid=e170744e-09b9-4092-824f-a2ecc5da2cfb","ios":"levelo://app?vid=e170744e-09b9-4092-824f-a2ecc5da2cfb"},"vehicle_type_id":"4","last_reported":1701954641,"current_range_meters":10000,"station_id":"ce4bhqp2rcd13ifvqhog","pricing_plan_id":"free"},{"bike_id":"150d08e5-65b3-4925-a669-2d09b97eb2b3","system_id":"levelo_inurba_marseille","lat":43.29601,"lon":5.381084,"is_reserved":false,"is_disabled":false,"rental_uris":{"android":"levelo://app?vid=150d08e5-65b3-4925-a669-2d09b97eb2b3","ios":"levelo://app?vid=150d08e5-65b3-4925-a669-2d09b97eb2b3"},"vehicle_type_id":"4","last_reported":1701954641,"current_range_meters":3200,"station_id":"ce4bgl12rcd13ifvqbo0","pricing_plan_id":"free"},{"bike_id":"2424b203-2bfa-46d0-8b7b-b616d11edac6","system_id":"levelo_inurba_marseille","lat":43.332503,"lon":5.364707,"is_reserved":false,"is_disabled":false,"rental_uris":{"android":"levelo://app?vid=2424b203-2bfa-46d0-8b7b-b616d11edac6","ios":"levelo://app?vid=2424b203-2bfa-46d0-8b7b-b616d11edac6"},"vehicle_type_id":"4","last_reported":1701954641,"current_range_meters":8400,"station_id":"","pricing_plan_id":"free"},{"bike_id":"2986beae-d9ce-4a55-8c1a-1d1684e82bb6","system_id":"levelo_inurba_marseille","lat":43.293009,"lon":5.374584,"is_reserved":false,"is_disabled":false,"rental_uris":{"android":"levelo://app?vid=2986beae-d9ce-4a55-8c1a-1d1684e82bb6","ios":"levelo://app?vid=2986beae-d9ce-4a55-8c1a-1d1684e82bb6"},"vehicle_type_id":"4","last_reported":1701954641,"current_range_meters":2000,"station_id":"ce4bgi12rcd13ifvqb70","pricing_plan_id":"free"},{"bike_id":"72714644-a730-462a-b220-6837667c5de6","system_id":"levelo_inurba_marseille","lat":43.318158,"lon":5.394118,"is_reserved":false,"is_disabled":false,"rental_uris":{"android":"levelo://app?vid=72714644-a730-462a-b220-6837667c5de6","ios":"levelo://app?vid=72714644-a730-462a-b220-6837667c5de6"},"vehicle_type_id":"4","last_reported":1701954641,"current_range_meters":14000,"station_id":"","pricing_plan_id":"free"},{"bike_id":"d46c7f35-d449-4233-b3de-37aedc6a041a","system_id":"levelo_inurba_marseille","lat":43.303002,"lon":5.392142,"is_reserved":false,"is_disabled":false,"rental_uris":{"android":"levelo://app?vid=d46c7f35-d449-4233-b3de-37aedc6a041a","ios":"levelo://app?vid=d46c7f35-d449-4233-b3de-37aedc6a041a"},"vehicle_type_id":"4","last_reported":1701954641,"current_range_meters":31200,"station_id":"ce4bgkh2rcd13ifvqbk0","pricing_plan_id":"free"},{"bike_id":"ffaa6a95-780e-4f88-bc73-c6f0042f2b46","system_id":"levelo_inurba_marseille","lat":43.2936,"lon":5.37835,"is_reserved":false,"is_disabled":false,"rental_uris":{"android":"levelo://app?vid=ffaa6a95-780e-4f88-bc73-c6f0042f2b46","ios":"levelo://app?vid=ffaa6a95-780e-4f88-bc73-c6f0042f2b46"},"vehicle_type_id":"4","last_reported":1701954641,"current_range_meters":28400,"station_id":"ce4bgjh2rcd13ifvqbf0","pricing_plan_id":"free"},{"bike_id":"8eab1b85-d68a-47cc-aa14-39f662391495","system_id":"levelo_inurba_marseille","lat":43.292311,"lon":5.360731,"is_reserved":false,"is_disabled":false,"rental_uris":{"android":"levelo://app?vid=8eab1b85-d68a-47cc-aa14-39f662391495","ios":"levelo://app?vid=8eab1b85-d68a-47cc-aa14-39f662391495"},"vehicle_type_id":"4","last_reported":1701954641,"current_range_meters":24000,"station_id":"ce4bhbh2rcd13ifvqeqg","pricing_plan_id":"free"},{"bike_id":"44b2b85f-1ed5-4514-97dd-16637606b122","system_id":"levelo_inurba_marseille","lat":43.292311,"lon":5.360731,"is_reserved":false,"is_disabled":false,"rental_uris":{"android":"levelo://app?vid=44b2b85f-1ed5-4514-97dd-16637606b122","ios":"levelo://app?vid=44b2b85f-1ed5-4514-97dd-16637606b122"},"vehicle_type_id":"4","last_reported":1701954641,"current_range_meters":23200,"station_id":"ce4bhbh2rcd13ifvqeqg","pricing_plan_id":"free"},{"bike_id":"e3010699-be5b-422f-9213-8df0238f3bf9","system_id":"levelo_inurba_marseille","lat":43.292311,"lon":5.360731,"is_reserved":false,"is_disabled":false,"rental_uris":{"android":"levelo://app?vid=e3010699-be5b-422f-9213-8df0238f3bf9","ios":"levelo://app?vid=e3010699-be5b-422f-9213-8df0238f3bf9"},"vehicle_type_id":"4","last_reported":1701954641,"current_range_meters":21200,"station_id":"ce4bhbh2rcd13ifvqeqg","pricing_plan_id":"free"},{"bike_id":"876820b2-d28f-4d8b-9066-110d484db65b","system_id":"levelo_inurba_marseille","lat":43.292178,"lon":5.360408,"is_reserved":false,"is_disabled":false,"rental_uris":{"android":"levelo://app?vid=876820b2-d28f-4d8b-9066-110d484db65b","ios":"levelo://app?vid=876820b2-d28f-4d8b-9066-110d484db65b"},"vehicle_type_id":"4","last_reported":1701954641,"current_range_meters":30000,"station_id":"ce4bhbh2rcd13ifvqeqg","pricing_plan_id":"free"},{"bike_id":"1bcd45a0-1ece-412d-850e-eae7553bf1e6","system_id":"levelo_inurba_marseille","lat":43.291675,"lon":5.371583,"is_reserved":false,"is_disabled":false,"rental_uris":{"android":"levelo://app?vid=1bcd45a0-1ece-412d-850e-eae7553bf1e6","ios":"levelo://app?vid=1bcd45a0-1ece-412d-850e-eae7553bf1e6"},"vehicle_type_id":"4","last_reported":1701954641,"current_range_meters":4000,"station_id":"ce4bha92rcd13ifvqeh0","pricing_plan_id":"free"},{"bike_id":"3fd26f5e-1e04-4d29-a3e5-761aa5c585ac","system_id":"levelo_inurba_marseille","lat":43.291675,"lon":5.371583,"is_reserved":false,"is_disabled":false,"rental_uris":{"android":"levelo://app?vid=3fd26f5e-1e04-4d29-a3e5-761aa5c585ac","ios":"levelo://app?vid=3fd26f5e-1e04-4d29-a3e5-761aa5c585ac"},"vehicle_type_id":"4","last_reported":1701954641,"current_range_meters":3200,"station_id":"ce4bha92rcd13ifvqeh0","pricing_plan_id":"free"},{"bike_id":"ceae909e-0f16-43bc-8a11-624c7908ae0b","system_id":"levelo_inurba_marseille","lat":43.291897,"lon":5.35797,"is_reserved":false,"is_disabled":false,"rental_uris":{"android":"levelo://app?vid=ceae909e-0f16-43bc-8a11-624c7908ae0b","ios":"levelo://app?vid=ceae909e-0f16-43bc-8a11-624c7908ae0b"},"vehicle_type_id":"4","last_reported":1701954641,"current_range_meters":13600,"station_id":"ce4bhb12rcd13ifvqel0","pricing_plan_id":"free"},{"bike_id":"2d959302-2dba-4e0a-baee-259cbec89891","system_id":"levelo_inurba_marseille","lat":43.29529,"lon":5.385581,"is_reserved":false,"is_disabled":false,"rental_uris":{"android":"levelo://app?vid=2d959302-2dba-4e0a-baee-259cbec89891","ios":"levelo://app?vid=2d959302-2dba-4e0a-baee-259cbec89891"},"vehicle_type_id":"4","last_reported":1701954641,"current_range_meters":11200,"station_id":"ce4bgih2rcd13ifvqba0","pricing_plan_id":"free"},{"bike_id":"a2ba83d9-dff2-41db-a744-2a2636df9e65","system_id":"levelo_inurba_marseille","lat":43.302008,"lon":5.394694,"is_reserved":false,"is_disabled":false,"rental_uris":{"android":"levelo://app?vid=a2ba83d9-dff2-41db-a744-2a2636df9e65","ios":"levelo://app?vid=a2ba83d9-dff2-41db-a744-2a2636df9e65"},"vehicle_type_id":"4","last_reported":1701954641,"current_range_meters":18800,"station_id":"ce4bh0p2rcd13ifvqd70","pricing_plan_id":"free"},{"bike_id":"934587b0-87ca-4667-994a-84d46a623c8b","system_id":"levelo_inurba_marseille","lat":43.290631,"lon":5.359244,"is_reserved":false,"is_disabled":false,"rental_uris":{"android":"levelo://app?vid=934587b0-87ca-4667-994a-84d46a623c8b","ios":"levelo://app?vid=934587b0-87ca-4667-994a-84d46a623c8b"},"vehicle_type_id":"4","last_reported":1701954641,"current_range_meters":30400,"station_id":"ce4bha92rcd13ifvqeg0","pricing_plan_id":"free"},{"bike_id":"bcdf663a-951b-4459-bc40-4697f6974438","system_id":"levelo_inurba_marseille","lat":43.289184,"lon":5.366408,"is_reserved":false,"is_disabled":false,"rental_uris":{"android":"levelo://app?vid=bcdf663a-951b-4459-bc40-4697f6974438","ios":"levelo://app?vid=bcdf663a-951b-4459-bc40-4697f6974438"},"vehicle_type_id":"4","last_reported":1701954641,"current_range_meters":25200,"station_id":"ce4bhap2rcd13ifvqek0","pricing_plan_id":"free"},{"bike_id":"c9a6f734-7854-4c8b-bf7f-f5ce3f3ace5f","system_id":"levelo_inurba_marseille","lat":43.289184,"lon":5.366408,"is_reserved":false,"is_disabled":false,"rental_uris":{"android":"levelo://app?vid=c9a6f734-7854-4c8b-bf7f-f5ce3f3ace5f","ios":"levelo://app?vid=c9a6f734-7854-4c8b-bf7f-f5ce3f3ace5f"},"vehicle_type_id":"4","last_reported":1701954641,"current_range_meters":6800,"station_id":"ce4bhap2rcd13ifvqek0","pricing_plan_id":"free"},{"bike_id":"5eafab14-1eeb-4432-b967-d62f7c0359cd","system_id":"levelo_inurba_marseille","lat":43.302008,"lon":5.394694,"is_reserved":false,"is_disabled":false,"rental_uris":{"android":"levelo://app?vid=5eafab14-1eeb-4432-b967-d62f7c0359cd","ios":"levelo://app?vid=5eafab14-1eeb-4432-b967-d62f7c0359cd"},"vehicle_type_id":"4","last_reported":1701954641,"current_range_meters":12000,"station_id":"ce4bh0p2rcd13ifvqd70","pricing_plan_id":"free"},{"bike_id":"979efed3-06e3-4729-ae02-533ca4b5f100","system_id":"levelo_inurba_marseille","lat":43.28939,"lon":5.364055,"is_reserved":false,"is_disabled":false,"rental_uris":{"android":"levelo://app?vid=979efed3-06e3-4729-ae02-533ca4b5f100","ios":"levelo://app?vid=979efed3-06e3-4729-ae02-533ca4b5f100"},"vehicle_type_id":"4","last_reported":1701954641,"current_range_meters":28000,"station_id":"ce4bhc92rcd13ifvqetg","pricing_plan_id":"free"},{"bike_id":"a02a1b20-1fb1-4951-988a-77389649024d","system_id":"levelo_inurba_marseille","lat":43.289259,"lon":5.366364,"is_reserved":false,"is_disabled":false,"rental_uris":{"android":"levelo://app?vid=a02a1b20-1fb1-4951-988a-77389649024d","ios":"levelo://app?vid=a02a1b20-1fb1-4951-988a-77389649024d"},"vehicle_type_id":"4","last_reported":1701954641,"current_range_meters":19600,"station_id":"","pricing_plan_id":"free"},{"bike_id":"210c3bec-8293-4e21-912d-0757f00fe62a","system_id":"levelo_inurba_marseille","lat":43.292642,"lon":5.384254,"is_reserved":false,"is_disabled":false,"rental_uris":{"android":"levelo://app?vid=210c3bec-8293-4e21-912d-0757f00fe62a","ios":"levelo://app?vid=210c3bec-8293-4e21-912d-0757f00fe62a"},"vehicle_type_id":"4","last_reported":1701954641,"current_range_meters":26800,"station_id":"ce4bh692rcd13ifvqea0","pricing_plan_id":"free"},{"bike_id":"2b6b6bbb-2fe6-4cef-a55a-75b95e492229","system_id":"levelo_inurba_marseille","lat":43.289184,"lon":5.366408,"is_reserved":false,"is_disabled":false,"rental_uris":{"android":"levelo://app?vid=2b6b6bbb-2fe6-4cef-a55a-75b95e492229","ios":"levelo://app?vid=2b6b6bbb-2fe6-4cef-a55a-75b95e492229"},"vehicle_type_id":"4","last_reported":1701954641,"current_range_meters":21600,"station_id":"ce4bhap2rcd13ifvqek0","pricing_plan_id":"free"},{"bike_id":"81387550-c76b-45b1-8d16-a73c3710bb3c","system_id":"levelo_inurba_marseille","lat":43.292642,"lon":5.384254,"is_reserved":false,"is_disabled":false,"rental_uris":{"android":"levelo://app?vid=81387550-c76b-45b1-8d16-a73c3710bb3c","ios":"levelo://app?vid=81387550-c76b-45b1-8d16-a73c3710bb3c"},"vehicle_type_id":"4","last_reported":1701954641,"current_range_meters":27600,"station_id":"ce4bh692rcd13ifvqea0","pricing_plan_id":"free"},{"bike_id":"836b6bea-3e42-42ac-8bd0-361452937ef1","system_id":"levelo_inurba_marseille","lat":43.292644,"lon":5.384257,"is_reserved":false,"is_disabled":false,"rental_uris":{"android":"levelo://app?vid=836b6bea-3e42-42ac-8bd0-361452937ef1","ios":"levelo://app?vid=836b6bea-3e42-42ac-8bd0-361452937ef1"},"vehicle_type_id":"4","last_reported":1701954641,"current_range_meters":16000,"station_id":"ce4bh692rcd13ifvqea0","pricing_plan_id":"free"},{"bike_id":"00591346-67ae-4007-835b-88c5e9f7a162","system_id":"levelo_inurba_marseille","lat":43.33043,"lon":5.38917,"is_reserved":false,"is_disabled":false,"rental_uris":{"android":"levelo://app?vid=00591346-67ae-4007-835b-88c5e9f7a162","ios":"levelo://app?vid=00591346-67ae-4007-835b-88c5e9f7a162"},"vehicle_type_id":"4","last_reported":1701954641,"current_range_meters":0,"station_id":"ce4bhr92rcd13ifvqhrg","pricing_plan_id":"free"},{"bike_id":"bf611a86-039a-45af-8cf4-96ee5765970f","system_id":"levelo_inurba_marseille","lat":43.330442,"lon":5.389148,"is_reserved":false,"is_disabled":false,"rental_uris":{"android":"levelo://app?vid=bf611a86-039a-45af-8cf4-96ee5765970f","ios":"levelo://app?vid=bf611a86-039a-45af-8cf4-96ee5765970f"},"vehicle_type_id":"4","last_reported":1701954641,"current_range_meters":26800,"station_id":"ce4bhr92rcd13ifvqhrg","pricing_plan_id":"free"},{"bike_id":"c12df127-f915-48f4-85a1-4011b4c894ae","system_id":"levelo_inurba_marseille","lat":43.330442,"lon":5.389148,"is_reserved":false,"is_disabled":false,"rental_uris":{"android":"levelo://app?vid=c12df127-f915-48f4-85a1-4011b4c894ae","ios":"levelo://app?vid=c12df127-f915-48f4-85a1-4011b4c894ae"},"vehicle_type_id":"4","last_reported":1701954641,"current_range_meters":16800,"station_id":"ce4bhr92rcd13ifvqhrg","pricing_plan_id":"free"},{"bike_id":"36ad5a8d-006a-4bca-966c-0cd300744d21","system_id":"levelo_inurba_marseille","lat":43.290104,"lon":5.356111,"is_reserved":false,"is_disabled":false,"rental_uris":{"android":"levelo://app?vid=36ad5a8d-006a-4bca-966c-0cd300744d21","ios":"levelo://app?vid=36ad5a8d-006a-4bca-966c-0cd300744d21"},"vehicle_type_id":"4","last_reported":1701954641,"current_range_meters":30000,"station_id":"ce4bhb92rcd13ifvqen0","pricing_plan_id":"free"},{"bike_id":"ad6f177d-1e39-4c33-8f0c-ff87a13e279c","system_id":"levelo_inurba_marseille","lat":43.290104,"lon":5.356111,"is_reserved":false,"is_disabled":false,"rental_uris":{"android":"levelo://app?vid=ad6f177d-1e39-4c33-8f0c-ff87a13e279c","ios":"levelo://app?vid=ad6f177d-1e39-4c33-8f0c-ff87a13e279c"},"vehicle_type_id":"4","last_reported":1701954641,"current_range_meters":0,"station_id":"ce4bhb92rcd13ifvqen0","pricing_plan_id":"free"},{"bike_id":"e2e35671-0b4d-4a49-a7a5-d316bab863c5","system_id":"levelo_inurba_marseille","lat":43.2979,"lon":5.39341,"is_reserved":false,"is_disabled":false,"rental_uris":{"android":"levelo://app?vid=e2e35671-0b4d-4a49-a7a5-d316bab863c5","ios":"levelo://app?vid=e2e35671-0b4d-4a49-a7a5-d316bab863c5"},"vehicle_type_id":"4","last_reported":1701954641,"current_range_meters":22000,"station_id":"chh1huq6cuj3fo74tm60","pricing_plan_id":"free"},{"bike_id":"b0e7298d-5203-4983-b7f7-60b8fee86899","system_id":"levelo_inurba_marseille","lat":43.33717,"lon":5.391857,"is_reserved":false,"is_disabled":false,"rental_uris":{"android":"levelo://app?vid=b0e7298d-5203-4983-b7f7-60b8fee86899","ios":"levelo://app?vid=b0e7298d-5203-4983-b7f7-60b8fee86899"},"vehicle_type_id":"4","last_reported":1701954641,"current_range_meters":14400,"station_id":"ce4bhr92rcd13ifvqhsg","pricing_plan_id":"free"},{"bike_id":"c61855d1-e4ba-4484-8e3a-3734a6148306","system_id":"levelo_inurba_marseille","lat":43.289743,"lon":5.378304,"is_reserved":false,"is_disabled":false,"rental_uris":{"android":"levelo://app?vid=c61855d1-e4ba-4484-8e3a-3734a6148306","ios":"levelo://app?vid=c61855d1-e4ba-4484-8e3a-3734a6148306"},"vehicle_type_id":"4","last_reported":1701954641,"current_range_meters":3600,"station_id":"ce4bh9p2rcd13ifvqed0","pricing_plan_id":"free"},{"bike_id":"13934ab4-d292-4ed0-960d-f2aa56a7f1fc","system_id":"levelo_inurba_marseille","lat":43.29021,"lon":5.38132,"is_reserved":false,"is_disabled":false,"rental_uris":{"android":"levelo://app?vid=13934ab4-d292-4ed0-960d-f2aa56a7f1fc","ios":"levelo://app?vid=13934ab4-d292-4ed0-960d-f2aa56a7f1fc"},"vehicle_type_id":"4","last_reported":1701954641,"current_range_meters":0,"station_id":"ce4bh4p2rcd13ifvqe1g","pricing_plan_id":"free"},{"bike_id":"37882813-abbd-47e3-8c41-2f3b782c6807","system_id":"levelo_inurba_marseille","lat":43.2901,"lon":5.381269,"is_reserved":false,"is_disabled":false,"rental_uris":{"android":"levelo://app?vid=37882813-abbd-47e3-8c41-2f3b782c6807","ios":"levelo://app?vid=37882813-abbd-47e3-8c41-2f3b782c6807"},"vehicle_type_id":"4","last_reported":1701954641,"current_range_meters":8000,"station_id":"ce4bh4p2rcd13ifvqe1g","pricing_plan_id":"free"},{"bike_id":"efe46e7c-cf49-4c7b-80fb-eea57c1d5a63","system_id":"levelo_inurba_marseille","lat":43.288558,"lon":5.358635,"is_reserved":false,"is_disabled":false,"rental_uris":{"android":"levelo://app?vid=efe46e7c-cf49-4c7b-80fb-eea57c1d5a63","ios":"levelo://app?vid=efe46e7c-cf49-4c7b-80fb-eea57c1d5a63"},"vehicle_type_id":"4","last_reported":1701954641,"current_range_meters":28000,"station_id":"","pricing_plan_id":"free"},{"bike_id":"88d2013d-ea6f-49df-8ba6-1144d4547705","system_id":"levelo_inurba_marseille","lat":43.28856,"lon":5.358371,"is_reserved":false,"is_disabled":false,"rental_uris":{"android":"levelo://app?vid=88d2013d-ea6f-49df-8ba6-1144d4547705","ios":"levelo://app?vid=88d2013d-ea6f-49df-8ba6-1144d4547705"},"vehicle_type_id":"4","last_reported":1701954641,"current_range_meters":23600,"station_id":"ce4bhb12rcd13ifvqem0","pricing_plan_id":"free"},{"bike_id":"92791b3d-71fc-4f66-9988-6f4acd042d6f","system_id":"levelo_inurba_marseille","lat":43.28856,"lon":5.358371,"is_reserved":false,"is_disabled":false,"rental_uris":{"android":"levelo://app?vid=92791b3d-71fc-4f66-9988-6f4acd042d6f","ios":"levelo://app?vid=92791b3d-71fc-4f66-9988-6f4acd042d6f"},"vehicle_type_id":"4","last_reported":1701954641,"current_range_meters":26000,"station_id":"ce4bhb12rcd13ifvqem0","pricing_plan_id":"free"},{"bike_id":"88ee7519-1ed4-452e-b351-9f93c9ff0d48","system_id":"levelo_inurba_marseille","lat":43.30928,"lon":5.40144,"is_reserved":false,"is_disabled":false,"rental_uris":{"android":"levelo://app?vid=88ee7519-1ed4-452e-b351-9f93c9ff0d48","ios":"levelo://app?vid=88ee7519-1ed4-452e-b351-9f93c9ff0d48"},"vehicle_type_id":"4","last_reported":1701954641,"current_range_meters":400,"station_id":"ce4bgvp2rcd13ifvqct0","pricing_plan_id":"free"},{"bike_id":"908bb06e-3540-45ea-a799-b20b40be1eca","system_id":"levelo_inurba_marseille","lat":43.309371,"lon":5.401449,"is_reserved":false,"is_disabled":false,"rental_uris":{"android":"levelo://app?vid=908bb06e-3540-45ea-a799-b20b40be1eca","ios":"levelo://app?vid=908bb06e-3540-45ea-a799-b20b40be1eca"},"vehicle_type_id":"4","last_reported":1701954641,"current_range_meters":18000,"station_id":"ce4bgvp2rcd13ifvqct0","pricing_plan_id":"free"},{"bike_id":"89b1152c-adf6-470b-9fcc-aedef3f8370b","system_id":"levelo_inurba_marseille","lat":43.301117,"lon":5.398795,"is_reserved":false,"is_disabled":false,"rental_uris":{"android":"levelo://app?vid=89b1152c-adf6-470b-9fcc-aedef3f8370b","ios":"levelo://app?vid=89b1152c-adf6-470b-9fcc-aedef3f8370b"},"vehicle_type_id":"4","last_reported":1701954641,"current_range_meters":3600,"station_id":"ce4bh0h2rcd13ifvqd40","pricing_plan_id":"free"},{"bike_id":"53a0628f-02a0-4f37-84ad-91a5f6de232f","system_id":"levelo_inurba_marseille","lat":43.302759,"lon":5.400793,"is_reserved":false,"is_disabled":false,"rental_uris":{"android":"levelo://app?vid=53a0628f-02a0-4f37-84ad-91a5f6de232f","ios":"levelo://app?vid=53a0628f-02a0-4f37-84ad-91a5f6de232f"},"vehicle_type_id":"4","last_reported":1701954641,"current_range_meters":30800,"station_id":"ce4bgvh2rcd13ifvqcs0","pricing_plan_id":"free"},{"bike_id":"3d249442-281a-4312-bdaa-804887165e1e","system_id":"levelo_inurba_marseille","lat":43.302759,"lon":5.400793,"is_reserved":false,"is_disabled":false,"rental_uris":{"android":"levelo://app?vid=3d249442-281a-4312-bdaa-804887165e1e","ios":"levelo://app?vid=3d249442-281a-4312-bdaa-804887165e1e"},"vehicle_type_id":"4","last_reported":1701954641,"current_range_meters":23600,"station_id":"ce4bgvh2rcd13ifvqcs0","pricing_plan_id":"free"},{"bike_id":"71a692ad-dadb-4683-8fa5-8aff4ab23b0b","system_id":"levelo_inurba_marseille","lat":43.302759,"lon":5.400793,"is_reserved":false,"is_disabled":false,"rental_uris":{"android":"levelo://app?vid=71a692ad-dadb-4683-8fa5-8aff4ab23b0b","ios":"levelo://app?vid=71a692ad-dadb-4683-8fa5-8aff4ab23b0b"},"vehicle_type_id":"4","last_reported":1701954641,"current_range_meters":14400,"station_id":"ce4bgvh2rcd13ifvqcs0","pricing_plan_id":"free"},{"bike_id":"a5d13238-a60e-4907-b15c-05b9b476718a","system_id":"levelo_inurba_marseille","lat":43.286039,"lon":5.370679,"is_reserved":false,"is_disabled":false,"rental_uris":{"android":"levelo://app?vid=a5d13238-a60e-4907-b15c-05b9b476718a","ios":"levelo://app?vid=a5d13238-a60e-4907-b15c-05b9b476718a"},"vehicle_type_id":"4","last_reported":1701954641,"current_range_meters":16000,"station_id":"ce4bht12rcd13ifvqi60","pricing_plan_id":"free"},{"bike_id":"e99eb46b-77e8-4adc-95b2-867d78cd2a96","system_id":"levelo_inurba_marseille","lat":43.28415,"lon":5.37509,"is_reserved":false,"is_disabled":false,"rental_uris":{"android":"levelo://app?vid=e99eb46b-77e8-4adc-95b2-867d78cd2a96","ios":"levelo://app?vid=e99eb46b-77e8-4adc-95b2-867d78cd2a96"},"vehicle_type_id":"4","last_reported":1701954641,"current_range_meters":20000,"station_id":"ce4bh412rcd13ifvqds0","pricing_plan_id":"free"},{"bike_id":"925c6bfe-1e7b-4b1a-88fa-9c06c8535740","system_id":"levelo_inurba_marseille","lat":43.283998,"lon":5.375062,"is_reserved":false,"is_disabled":false,"rental_uris":{"android":"levelo://app?vid=925c6bfe-1e7b-4b1a-88fa-9c06c8535740","ios":"levelo://app?vid=925c6bfe-1e7b-4b1a-88fa-9c06c8535740"},"vehicle_type_id":"4","last_reported":1701954641,"current_range_meters":29600,"station_id":"ce4bh412rcd13ifvqds0","pricing_plan_id":"free"},{"bike_id":"6082ab4d-1d41-4959-becc-5af8afc40ad1","system_id":"levelo_inurba_marseille","lat":43.283998,"lon":5.375062,"is_reserved":false,"is_disabled":false,"rental_uris":{"android":"levelo://app?vid=6082ab4d-1d41-4959-becc-5af8afc40ad1","ios":"levelo://app?vid=6082ab4d-1d41-4959-becc-5af8afc40ad1"},"vehicle_type_id":"4","last_reported":1701954641,"current_range_meters":8400,"station_id":"ce4bh412rcd13ifvqds0","pricing_plan_id":"free"},{"bike_id":"1e0b22f7-f2ee-4455-9fb7-08ec045e1e71","system_id":"levelo_inurba_marseille","lat":43.28403,"lon":5.37515,"is_reserved":false,"is_disabled":false,"rental_uris":{"android":"levelo://app?vid=1e0b22f7-f2ee-4455-9fb7-08ec045e1e71","ios":"levelo://app?vid=1e0b22f7-f2ee-4455-9fb7-08ec045e1e71"},"vehicle_type_id":"4","last_reported":1701954641,"current_range_meters":0,"station_id":"ce4bh412rcd13ifvqds0","pricing_plan_id":"free"},{"bike_id":"3466e1ed-c933-4fde-bccd-5f0620a6bc1d","system_id":"levelo_inurba_marseille","lat":43.286595,"lon":5.386795,"is_reserved":false,"is_disabled":false,"rental_uris":{"android":"levelo://app?vid=3466e1ed-c933-4fde-bccd-5f0620a6bc1d","ios":"levelo://app?vid=3466e1ed-c933-4fde-bccd-5f0620a6bc1d"},"vehicle_type_id":"4","last_reported":1701954641,"current_range_meters":7600,"station_id":"ce4bh492rcd13ifvqdug","pricing_plan_id":"free"},{"bike_id":"bf15e178-c74c-462d-8a50-150604cde3fd","system_id":"levelo_inurba_marseille","lat":43.286595,"lon":5.386795,"is_reserved":false,"is_disabled":false,"rental_uris":{"android":"levelo://app?vid=bf15e178-c74c-462d-8a50-150604cde3fd","ios":"levelo://app?vid=bf15e178-c74c-462d-8a50-150604cde3fd"},"vehicle_type_id":"4","last_reported":1701954641,"current_range_meters":22400,"station_id":"ce4bh492rcd13ifvqdug","pricing_plan_id":"free"},{"bike_id":"1e880783-c968-4080-99e0-58226b06ccc1","system_id":"levelo_inurba_marseille","lat":43.319179,"lon":5.407725,"is_reserved":false,"is_disabled":false,"rental_uris":{"android":"levelo://app?vid=1e880783-c968-4080-99e0-58226b06ccc1","ios":"levelo://app?vid=1e880783-c968-4080-99e0-58226b06ccc1"},"vehicle_type_id":"4","last_reported":1701954641,"current_range_meters":26000,"station_id":"ce4bhq12rcd13ifvqhig","pricing_plan_id":"free"},{"bike_id":"6db55031-df47-4fb6-8b80-a9e9fa62b66a","system_id":"levelo_inurba_marseille","lat":43.33719,"lon":5.391836,"is_reserved":false,"is_disabled":false,"rental_uris":{"android":"levelo://app?vid=6db55031-df47-4fb6-8b80-a9e9fa62b66a","ios":"levelo://app?vid=6db55031-df47-4fb6-8b80-a9e9fa62b66a"},"vehicle_type_id":"4","last_reported":1701954641,"current_range_meters":30800,"station_id":"ce4bhr92rcd13ifvqhsg","pricing_plan_id":"free"},{"bike_id":"56ac9cc9-bb61-47d5-bb32-c23299a9fd93","system_id":"levelo_inurba_marseille","lat":43.323464,"lon":5.406297,"is_reserved":false,"is_disabled":false,"rental_uris":{"android":"levelo://app?vid=56ac9cc9-bb61-47d5-bb32-c23299a9fd93","ios":"levelo://app?vid=56ac9cc9-bb61-47d5-bb32-c23299a9fd93"},"vehicle_type_id":"4","last_reported":1701954641,"current_range_meters":15600,"station_id":"ce4bhq92rcd13ifvqhjg","pricing_plan_id":"free"},{"bike_id":"ab35a2f2-f918-4558-963b-805798e7fe1d","system_id":"levelo_inurba_marseille","lat":43.33717,"lon":5.391857,"is_reserved":false,"is_disabled":false,"rental_uris":{"android":"levelo://app?vid=ab35a2f2-f918-4558-963b-805798e7fe1d","ios":"levelo://app?vid=ab35a2f2-f918-4558-963b-805798e7fe1d"},"vehicle_type_id":"4","last_reported":1701954641,"current_range_meters":14800,"station_id":"ce4bhr92rcd13ifvqhsg","pricing_plan_id":"free"},{"bike_id":"eec017fd-8297-4ba4-b48c-cbce9b0a3f5e","system_id":"levelo_inurba_marseille","lat":43.3373,"lon":5.3918,"is_reserved":false,"is_disabled":false,"rental_uris":{"android":"levelo://app?vid=eec017fd-8297-4ba4-b48c-cbce9b0a3f5e","ios":"levelo://app?vid=eec017fd-8297-4ba4-b48c-cbce9b0a3f5e"},"vehicle_type_id":"4","last_reported":1701954641,"current_range_meters":31200,"station_id":"ce4bhr92rcd13ifvqhsg","pricing_plan_id":"free"},{"bike_id":"6c5e65ef-9dd1-44d4-8e4c-9eaf8e3e90a0","system_id":"levelo_inurba_marseille","lat":43.284787,"lon":5.384116,"is_reserved":false,"is_disabled":false,"rental_uris":{"android":"levelo://app?vid=6c5e65ef-9dd1-44d4-8e4c-9eaf8e3e90a0","ios":"levelo://app?vid=6c5e65ef-9dd1-44d4-8e4c-9eaf8e3e90a0"},"vehicle_type_id":"4","last_reported":1701954641,"current_range_meters":5200,"station_id":"ce4bh512rcd13ifvqe3g","pricing_plan_id":"free"},{"bike_id":"3186e6df-754c-46a2-8ec4-51980f9b04c9","system_id":"levelo_inurba_marseille","lat":43.284793,"lon":5.384119,"is_reserved":false,"is_disabled":false,"rental_uris":{"android":"levelo://app?vid=3186e6df-754c-46a2-8ec4-51980f9b04c9","ios":"levelo://app?vid=3186e6df-754c-46a2-8ec4-51980f9b04c9"},"vehicle_type_id":"4","last_reported":1701954641,"current_range_meters":6400,"station_id":"ce4bh512rcd13ifvqe3g","pricing_plan_id":"free"},{"bike_id":"1dc3188c-ccba-4374-ab4d-bc15cf8a8d78","system_id":"levelo_inurba_marseille","lat":43.29795,"lon":5.404086,"is_reserved":false,"is_disabled":false,"rental_uris":{"android":"levelo://app?vid=1dc3188c-ccba-4374-ab4d-bc15cf8a8d78","ios":"levelo://app?vid=1dc3188c-ccba-4374-ab4d-bc15cf8a8d78"},"vehicle_type_id":"4","last_reported":1701954641,"current_range_meters":31200,"station_id":"ce4bh112rcd13ifvqd90","pricing_plan_id":"free"},{"bike_id":"8d2de53e-a143-48d7-80d4-77ab1354f8a4","system_id":"levelo_inurba_marseille","lat":43.29795,"lon":5.404086,"is_reserved":false,"is_disabled":false,"rental_uris":{"android":"levelo://app?vid=8d2de53e-a143-48d7-80d4-77ab1354f8a4","ios":"levelo://app?vid=8d2de53e-a143-48d7-80d4-77ab1354f8a4"},"vehicle_type_id":"4","last_reported":1701954641,"current_range_meters":26000,"station_id":"ce4bh112rcd13ifvqd90","pricing_plan_id":"free"},{"bike_id":"b623ca4a-e91f-422d-82fe-3e84a7715bb5","system_id":"levelo_inurba_marseille","lat":43.284219,"lon":5.3497,"is_reserved":false,"is_disabled":false,"rental_uris":{"android":"levelo://app?vid=b623ca4a-e91f-422d-82fe-3e84a7715bb5","ios":"levelo://app?vid=b623ca4a-e91f-422d-82fe-3e84a7715bb5"},"vehicle_type_id":"4","last_reported":1701954641,"current_range_meters":29200,"station_id":"ce4bhbh2rcd13ifvqepg","pricing_plan_id":"free"},{"bike_id":"a383b531-0765-4fcd-8d16-a9e5acc282fd","system_id":"levelo_inurba_marseille","lat":43.280382,"lon":5.369291,"is_reserved":false,"is_disabled":false,"rental_uris":{"android":"levelo://app?vid=a383b531-0765-4fcd-8d16-a9e5acc282fd","ios":"levelo://app?vid=a383b531-0765-4fcd-8d16-a9e5acc282fd"},"vehicle_type_id":"4","last_reported":1701954641,"current_range_meters":22000,"station_id":"ce4bha12rcd13ifvqef0","pricing_plan_id":"free"},{"bike_id":"f2d499b8-6e62-451e-820f-5edacdec98ee","system_id":"levelo_inurba_marseille","lat":43.316823,"lon":5.412353,"is_reserved":false,"is_disabled":false,"rental_uris":{"android":"levelo://app?vid=f2d499b8-6e62-451e-820f-5edacdec98ee","ios":"levelo://app?vid=f2d499b8-6e62-451e-820f-5edacdec98ee"},"vehicle_type_id":"4","last_reported":1701954641,"current_range_meters":13600,"station_id":"","pricing_plan_id":"free"},{"bike_id":"3d8caf9c-9fe8-4633-9f6c-862bd321c294","system_id":"levelo_inurba_marseille","lat":43.279087,"lon":5.380114,"is_reserved":false,"is_disabled":false,"rental_uris":{"android":"levelo://app?vid=3d8caf9c-9fe8-4633-9f6c-862bd321c294","ios":"levelo://app?vid=3d8caf9c-9fe8-4633-9f6c-862bd321c294"},"vehicle_type_id":"4","last_reported":1701954641,"current_range_meters":5600,"station_id":"ce4bhf92rcd13ifvqf50","pricing_plan_id":"free"},{"bike_id":"154dce98-8c69-46f1-80f8-a329d3eb674d","system_id":"levelo_inurba_marseille","lat":43.320045,"lon":5.415048,"is_reserved":false,"is_disabled":false,"rental_uris":{"android":"levelo://app?vid=154dce98-8c69-46f1-80f8-a329d3eb674d","ios":"levelo://app?vid=154dce98-8c69-46f1-80f8-a329d3eb674d"},"vehicle_type_id":"4","last_reported":1701954641,"current_range_meters":22800,"station_id":"ce4bhq92rcd13ifvqhkg","pricing_plan_id":"free"},{"bike_id":"af238a2c-0a73-48b8-89a7-5a514db59de8","system_id":"levelo_inurba_marseille","lat":43.325233,"lon":5.414318,"is_reserved":false,"is_disabled":false,"rental_uris":{"android":"levelo://app?vid=af238a2c-0a73-48b8-89a7-5a514db59de8","ios":"levelo://app?vid=af238a2c-0a73-48b8-89a7-5a514db59de8"},"vehicle_type_id":"4","last_reported":1701954641,"current_range_meters":27600,"station_id":"ce4bhq12rcd13ifvqhhg","pricing_plan_id":"free"},{"bike_id":"141c5ab2-7324-4bae-a648-85f927c82dc4","system_id":"levelo_inurba_marseille","lat":43.325243,"lon":5.414326,"is_reserved":false,"is_disabled":false,"rental_uris":{"android":"levelo://app?vid=141c5ab2-7324-4bae-a648-85f927c82dc4","ios":"levelo://app?vid=141c5ab2-7324-4bae-a648-85f927c82dc4"},"vehicle_type_id":"4","last_reported":1701954641,"current_range_meters":14400,"station_id":"ce4bhq12rcd13ifvqhhg","pricing_plan_id":"free"},{"bike_id":"fd8cd521-2ecb-4347-a21e-6daaea84ce3c","system_id":"levelo_inurba_marseille","lat":43.292569,"lon":5.409107,"is_reserved":false,"is_disabled":false,"rental_uris":{"android":"levelo://app?vid=fd8cd521-2ecb-4347-a21e-6daaea84ce3c","ios":"levelo://app?vid=fd8cd521-2ecb-4347-a21e-6daaea84ce3c"},"vehicle_type_id":"4","last_reported":1701954641,"current_range_meters":15600,"station_id":"ce4bh192rcd13ifvqdc0","pricing_plan_id":"free"},{"bike_id":"3fba8176-dd2e-4653-9532-48e5754b5b59","system_id":"levelo_inurba_marseille","lat":43.276179,"lon":5.361009,"is_reserved":false,"is_disabled":false,"rental_uris":{"android":"levelo://app?vid=3fba8176-dd2e-4653-9532-48e5754b5b59","ios":"levelo://app?vid=3fba8176-dd2e-4653-9532-48e5754b5b59"},"vehicle_type_id":"4","last_reported":1701954641,"current_range_meters":30400,"station_id":"ce4bgj92rcd13ifvqbe0","pricing_plan_id":"free"},{"bike_id":"a6c3c522-51b6-4487-b146-158254682cdc","system_id":"levelo_inurba_marseille","lat":43.273613,"lon":5.362705,"is_reserved":false,"is_disabled":false,"rental_uris":{"android":"levelo://app?vid=a6c3c522-51b6-4487-b146-158254682cdc","ios":"levelo://app?vid=a6c3c522-51b6-4487-b146-158254682cdc"},"vehicle_type_id":"4","last_reported":1701954641,"current_range_meters":28800,"station_id":"ce4bhbh2rcd13ifvqeo0","pricing_plan_id":"free"},{"bike_id":"122aaf6f-cace-4423-b0ca-c40768795b9a","system_id":"levelo_inurba_marseille","lat":43.276771,"lon":5.388799,"is_reserved":false,"is_disabled":false,"rental_uris":{"android":"levelo://app?vid=122aaf6f-cace-4423-b0ca-c40768795b9a","ios":"levelo://app?vid=122aaf6f-cace-4423-b0ca-c40768795b9a"},"vehicle_type_id":"4","last_reported":1701954641,"current_range_meters":15600,"station_id":"ce4bhi12rcd13ifvqfo0","pricing_plan_id":"free"},{"bike_id":"f2d0cdfb-5903-48ce-979d-363406bb33d4","system_id":"levelo_inurba_marseille","lat":43.279952,"lon":5.400085,"is_reserved":false,"is_disabled":false,"rental_uris":{"android":"levelo://app?vid=f2d0cdfb-5903-48ce-979d-363406bb33d4","ios":"levelo://app?vid=f2d0cdfb-5903-48ce-979d-363406bb33d4"},"vehicle_type_id":"4","last_reported":1701954641,"current_range_meters":23600,"station_id":"ce4bho92rcd13ifvqh4g","pricing_plan_id":"free"},{"bike_id":"11b2e0c5-092e-464c-b4a7-0f59de41f213","system_id":"levelo_inurba_marseille","lat":43.340804,"lon":5.410219,"is_reserved":false,"is_disabled":false,"rental_uris":{"android":"levelo://app?vid=11b2e0c5-092e-464c-b4a7-0f59de41f213","ios":"levelo://app?vid=11b2e0c5-092e-464c-b4a7-0f59de41f213"},"vehicle_type_id":"4","last_reported":1701954641,"current_range_meters":30400,"station_id":"ce4bhqh2rcd13ifvqhlg","pricing_plan_id":"free"},{"bike_id":"e2974ef0-b795-40e9-9747-fddba6e3adb3","system_id":"levelo_inurba_marseille","lat":43.274099,"lon":5.394019,"is_reserved":false,"is_disabled":false,"rental_uris":{"android":"levelo://app?vid=e2974ef0-b795-40e9-9747-fddba6e3adb3","ios":"levelo://app?vid=e2974ef0-b795-40e9-9747-fddba6e3adb3"},"vehicle_type_id":"4","last_reported":1701954641,"current_range_meters":24400,"station_id":"ce4bhdp2rcd13ifvqf20","pricing_plan_id":"free"},{"bike_id":"fc452a7a-a221-40ab-bc47-a38b73e93524","system_id":"levelo_inurba_marseille","lat":43.30414,"lon":5.42537,"is_reserved":false,"is_disabled":false,"rental_uris":{"android":"levelo://app?vid=fc452a7a-a221-40ab-bc47-a38b73e93524","ios":"levelo://app?vid=fc452a7a-a221-40ab-bc47-a38b73e93524"},"vehicle_type_id":"4","last_reported":1701954641,"current_range_meters":0,"station_id":"ce4bhoh2rcd13ifvqh6g","pricing_plan_id":"free"},{"bike_id":"dd96a520-871a-4bf6-8463-a37285139ea6","system_id":"levelo_inurba_marseille","lat":43.304096,"lon":5.425385,"is_reserved":false,"is_disabled":false,"rental_uris":{"android":"levelo://app?vid=dd96a520-871a-4bf6-8463-a37285139ea6","ios":"levelo://app?vid=dd96a520-871a-4bf6-8463-a37285139ea6"},"vehicle_type_id":"4","last_reported":1701954641,"current_range_meters":6000,"station_id":"ce4bhoh2rcd13ifvqh6g","pricing_plan_id":"free"},{"bike_id":"43ef42de-4670-4ab5-b91c-d702ce98c02b","system_id":"levelo_inurba_marseille","lat":43.30414,"lon":5.42546,"is_reserved":false,"is_disabled":false,"rental_uris":{"android":"levelo://app?vid=43ef42de-4670-4ab5-b91c-d702ce98c02b","ios":"levelo://app?vid=43ef42de-4670-4ab5-b91c-d702ce98c02b"},"vehicle_type_id":"4","last_reported":1701954641,"current_range_meters":26800,"station_id":"ce4bhoh2rcd13ifvqh6g","pricing_plan_id":"free"},{"bike_id":"e0756567-7870-49b5-9af8-73e51703da33","system_id":"levelo_inurba_marseille","lat":43.295523,"lon":5.422926,"is_reserved":false,"is_disabled":false,"rental_uris":{"android":"levelo://app?vid=e0756567-7870-49b5-9af8-73e51703da33","ios":"levelo://app?vid=e0756567-7870-49b5-9af8-73e51703da33"},"vehicle_type_id":"4","last_reported":1701954641,"current_range_meters":30400,"station_id":"ce4bhph2rcd13ifvqhdg","pricing_plan_id":"free"},{"bike_id":"34a30d98-3292-4da7-bc24-5d076d6335e3","system_id":"levelo_inurba_marseille","lat":43.295523,"lon":5.422926,"is_reserved":false,"is_disabled":false,"rental_uris":{"android":"levelo://app?vid=34a30d98-3292-4da7-bc24-5d076d6335e3","ios":"levelo://app?vid=34a30d98-3292-4da7-bc24-5d076d6335e3"},"vehicle_type_id":"4","last_reported":1701954641,"current_range_meters":9200,"station_id":"ce4bhph2rcd13ifvqhdg","pricing_plan_id":"free"},{"bike_id":"77e2df1b-d75a-48fe-a6ad-744dfbe91f1d","system_id":"levelo_inurba_marseille","lat":43.27214,"lon":5.3925,"is_reserved":false,"is_disabled":false,"rental_uris":{"android":"levelo://app?vid=77e2df1b-d75a-48fe-a6ad-744dfbe91f1d","ios":"levelo://app?vid=77e2df1b-d75a-48fe-a6ad-744dfbe91f1d"},"vehicle_type_id":"4","last_reported":1701954641,"current_range_meters":9200,"station_id":"","pricing_plan_id":"free"},{"bike_id":"17bee6ea-d0ae-440c-b450-e4377bc60b6d","system_id":"levelo_inurba_marseille","lat":43.269467,"lon":5.386439,"is_reserved":false,"is_disabled":false,"rental_uris":{"android":"levelo://app?vid=17bee6ea-d0ae-440c-b450-e4377bc60b6d","ios":"levelo://app?vid=17bee6ea-d0ae-440c-b450-e4377bc60b6d"},"vehicle_type_id":"4","last_reported":1701954641,"current_range_meters":25600,"station_id":"ce4bhh92rcd13ifvqfh0","pricing_plan_id":"free"},{"bike_id":"8a8bc4d6-0029-4fbf-9728-a692a0316877","system_id":"levelo_inurba_marseille","lat":43.27021,"lon":5.39287,"is_reserved":false,"is_disabled":false,"rental_uris":{"android":"levelo://app?vid=8a8bc4d6-0029-4fbf-9728-a692a0316877","ios":"levelo://app?vid=8a8bc4d6-0029-4fbf-9728-a692a0316877"},"vehicle_type_id":"4","last_reported":1701954641,"current_range_meters":4000,"station_id":"","pricing_plan_id":"free"},{"bike_id":"25f3ef44-fe1c-4ced-8cf6-a573bfc7f1e6","system_id":"levelo_inurba_marseille","lat":43.26681,"lon":5.382694,"is_reserved":false,"is_disabled":false,"rental_uris":{"android":"levelo://app?vid=25f3ef44-fe1c-4ced-8cf6-a573bfc7f1e6","ios":"levelo://app?vid=25f3ef44-fe1c-4ced-8cf6-a573bfc7f1e6"},"vehicle_type_id":"4","last_reported":1701954641,"current_range_meters":19600,"station_id":"ce4bhg92rcd13ifvqf90","pricing_plan_id":"free"},{"bike_id":"8951efc9-29f0-4482-b7ae-af84100db63e","system_id":"levelo_inurba_marseille","lat":43.26555,"lon":5.37285,"is_reserved":false,"is_disabled":false,"rental_uris":{"android":"levelo://app?vid=8951efc9-29f0-4482-b7ae-af84100db63e","ios":"levelo://app?vid=8951efc9-29f0-4482-b7ae-af84100db63e"},"vehicle_type_id":"4","last_reported":1701954641,"current_range_meters":5600,"station_id":"ce4bhg12rcd13ifvqf70","pricing_plan_id":"free"},{"bike_id":"5c62f0fe-2a68-4f0e-8c5e-1c3be35b64ff","system_id":"levelo_inurba_marseille","lat":43.29293,"lon":5.42854,"is_reserved":false,"is_disabled":false,"rental_uris":{"android":"levelo://app?vid=5c62f0fe-2a68-4f0e-8c5e-1c3be35b64ff","ios":"levelo://app?vid=5c62f0fe-2a68-4f0e-8c5e-1c3be35b64ff"},"vehicle_type_id":"4","last_reported":1701954641,"current_range_meters":15600,"station_id":"","pricing_plan_id":"free"},{"bike_id":"b247a92a-93de-46ee-9ece-835a4a488a7c","system_id":"levelo_inurba_marseille","lat":43.26563,"lon":5.3901,"is_reserved":false,"is_disabled":false,"rental_uris":{"android":"levelo://app?vid=b247a92a-93de-46ee-9ece-835a4a488a7c","ios":"levelo://app?vid=b247a92a-93de-46ee-9ece-835a4a488a7c"},"vehicle_type_id":"4","last_reported":1701954641,"current_range_meters":23200,"station_id":"ce4bhe12rcd13ifvqf30","pricing_plan_id":"free"},{"bike_id":"4f0f1fc1-3481-4fd8-a7dc-b2c366879e32","system_id":"levelo_inurba_marseille","lat":43.26949,"lon":5.40262,"is_reserved":false,"is_disabled":false,"rental_uris":{"android":"levelo://app?vid=4f0f1fc1-3481-4fd8-a7dc-b2c366879e32","ios":"levelo://app?vid=4f0f1fc1-3481-4fd8-a7dc-b2c366879e32"},"vehicle_type_id":"4","last_reported":1701954641,"current_range_meters":14400,"station_id":"cjm6bp8fraef2m0cb0m0","pricing_plan_id":"free"},{"bike_id":"8ecc1ca2-d3cc-4e55-8740-58158937e1d8","system_id":"levelo_inurba_marseille","lat":43.26202,"lon":5.379299,"is_reserved":false,"is_disabled":false,"rental_uris":{"android":"levelo://app?vid=8ecc1ca2-d3cc-4e55-8740-58158937e1d8","ios":"levelo://app?vid=8ecc1ca2-d3cc-4e55-8740-58158937e1d8"},"vehicle_type_id":"4","last_reported":1701954641,"current_range_meters":11600,"station_id":"ce4bhjp2rcd13ifvqg90","pricing_plan_id":"free"},{"bike_id":"a544c043-8e6f-49f0-bf91-d0190aa99f34","system_id":"levelo_inurba_marseille","lat":43.267959,"lon":5.402685,"is_reserved":false,"is_disabled":false,"rental_uris":{"android":"levelo://app?vid=a544c043-8e6f-49f0-bf91-d0190aa99f34","ios":"levelo://app?vid=a544c043-8e6f-49f0-bf91-d0190aa99f34"},"vehicle_type_id":"4","last_reported":1701954641,"current_range_meters":4800,"station_id":"ce501612rcd8frsf0b60","pricing_plan_id":"free"},{"bike_id":"4f68f183-a711-4386-a731-e8ea8e2f115e","system_id":"levelo_inurba_marseille","lat":43.298768,"lon":5.43643,"is_reserved":false,"is_disabled":false,"rental_uris":{"android":"levelo://app?vid=4f68f183-a711-4386-a731-e8ea8e2f115e","ios":"levelo://app?vid=4f68f183-a711-4386-a731-e8ea8e2f115e"},"vehicle_type_id":"4","last_reported":1701954641,"current_range_meters":27200,"station_id":"ce4bhpp2rcd13ifvqhfg","pricing_plan_id":"free"},{"bike_id":"15516f19-6688-4602-81b1-7032ebea46f1","system_id":"levelo_inurba_marseille","lat":43.298768,"lon":5.43643,"is_reserved":false,"is_disabled":false,"rental_uris":{"android":"levelo://app?vid=15516f19-6688-4602-81b1-7032ebea46f1","ios":"levelo://app?vid=15516f19-6688-4602-81b1-7032ebea46f1"},"vehicle_type_id":"4","last_reported":1701954641,"current_range_meters":2000,"station_id":"ce4bhpp2rcd13ifvqhfg","pricing_plan_id":"free"},{"bike_id":"8c066ef0-8e33-4692-81e9-53a96288cf19","system_id":"levelo_inurba_marseille","lat":43.298768,"lon":5.43643,"is_reserved":false,"is_disabled":false,"rental_uris":{"android":"levelo://app?vid=8c066ef0-8e33-4692-81e9-53a96288cf19","ios":"levelo://app?vid=8c066ef0-8e33-4692-81e9-53a96288cf19"},"vehicle_type_id":"4","last_reported":1701954641,"current_range_meters":32000,"station_id":"ce4bhpp2rcd13ifvqhfg","pricing_plan_id":"free"},{"bike_id":"83e2018e-7127-4415-8bbf-2e347a9c6750","system_id":"levelo_inurba_marseille","lat":43.29892,"lon":5.43664,"is_reserved":false,"is_disabled":false,"rental_uris":{"android":"levelo://app?vid=83e2018e-7127-4415-8bbf-2e347a9c6750","ios":"levelo://app?vid=83e2018e-7127-4415-8bbf-2e347a9c6750"},"vehicle_type_id":"4","last_reported":1701954641,"current_range_meters":8000,"station_id":"ce4bhpp2rcd13ifvqhfg","pricing_plan_id":"free"},{"bike_id":"6f0d6e31-4c33-4fe5-a7b5-c1c3590aa2e4","system_id":"levelo_inurba_marseille","lat":43.275028,"lon":5.424534,"is_reserved":false,"is_disabled":false,"rental_uris":{"android":"levelo://app?vid=6f0d6e31-4c33-4fe5-a7b5-c1c3590aa2e4","ios":"levelo://app?vid=6f0d6e31-4c33-4fe5-a7b5-c1c3590aa2e4"},"vehicle_type_id":"4","last_reported":1701954641,"current_range_meters":16800,"station_id":"ce4bhn92rcd13ifvqgrg","pricing_plan_id":"free"},{"bike_id":"f5517869-02b3-439a-998a-72e19b717f58","system_id":"levelo_inurba_marseille","lat":43.275028,"lon":5.424534,"is_reserved":false,"is_disabled":false,"rental_uris":{"android":"levelo://app?vid=f5517869-02b3-439a-998a-72e19b717f58","ios":"levelo://app?vid=f5517869-02b3-439a-998a-72e19b717f58"},"vehicle_type_id":"4","last_reported":1701954641,"current_range_meters":16400,"station_id":"ce4bhn92rcd13ifvqgrg","pricing_plan_id":"free"},{"bike_id":"4a827ad6-3fd9-4f25-97bc-767a436fb70f","system_id":"levelo_inurba_marseille","lat":43.275028,"lon":5.424534,"is_reserved":false,"is_disabled":false,"rental_uris":{"android":"levelo://app?vid=4a827ad6-3fd9-4f25-97bc-767a436fb70f","ios":"levelo://app?vid=4a827ad6-3fd9-4f25-97bc-767a436fb70f"},"vehicle_type_id":"4","last_reported":1701954641,"current_range_meters":14800,"station_id":"ce4bhn92rcd13ifvqgrg","pricing_plan_id":"free"},{"bike_id":"37803714-58e7-4967-b600-803dd2d65b74","system_id":"levelo_inurba_marseille","lat":43.275028,"lon":5.424534,"is_reserved":false,"is_disabled":false,"rental_uris":{"android":"levelo://app?vid=37803714-58e7-4967-b600-803dd2d65b74","ios":"levelo://app?vid=37803714-58e7-4967-b600-803dd2d65b74"},"vehicle_type_id":"4","last_reported":1701954641,"current_range_meters":12400,"station_id":"ce4bhn92rcd13ifvqgrg","pricing_plan_id":"free"},{"bike_id":"ec47f428-afa1-4872-b9fb-d6844d743bf2","system_id":"levelo_inurba_marseille","lat":43.2549,"lon":5.37648,"is_reserved":false,"is_disabled":false,"rental_uris":{"android":"levelo://app?vid=ec47f428-afa1-4872-b9fb-d6844d743bf2","ios":"levelo://app?vid=ec47f428-afa1-4872-b9fb-d6844d743bf2"},"vehicle_type_id":"4","last_reported":1701954641,"current_range_meters":0,"station_id":"ce4bhh12rcd13ifvqff0","pricing_plan_id":"free"},{"bike_id":"b7123a1f-3bd3-49c8-8217-c1d1bf86b6f8","system_id":"levelo_inurba_marseille","lat":43.24547,"lon":5.37333,"is_reserved":false,"is_disabled":false,"rental_uris":{"android":"levelo://app?vid=b7123a1f-3bd3-49c8-8217-c1d1bf86b6f8","ios":"levelo://app?vid=b7123a1f-3bd3-49c8-8217-c1d1bf86b6f8"},"vehicle_type_id":"4","last_reported":1701954641,"current_range_meters":0,"station_id":"","pricing_plan_id":"free"},{"bike_id":"4d95d612-a722-4e65-9627-31a974135e47","system_id":"levelo_inurba_marseille","lat":43.246467,"lon":5.388984,"is_reserved":false,"is_disabled":false,"rental_uris":{"android":"levelo://app?vid=4d95d612-a722-4e65-9627-31a974135e47","ios":"levelo://app?vid=4d95d612-a722-4e65-9627-31a974135e47"},"vehicle_type_id":"4","last_reported":1701954641,"current_range_meters":0,"station_id":"ce4bhg12rcd13ifvqf60","pricing_plan_id":"free"},{"bike_id":"9ced888b-eaff-4811-aa15-a7d83cc1b1ff","system_id":"levelo_inurba_marseille","lat":43.243884,"lon":5.370736,"is_reserved":false,"is_disabled":false,"rental_uris":{"android":"levelo://app?vid=9ced888b-eaff-4811-aa15-a7d83cc1b1ff","ios":"levelo://app?vid=9ced888b-eaff-4811-aa15-a7d83cc1b1ff"},"vehicle_type_id":"4","last_reported":1701954641,"current_range_meters":10800,"station_id":"ce4bhhh2rcd13ifvqfk0","pricing_plan_id":"free"},{"bike_id":"04e82811-eacf-456d-9ed3-2cc6371e7bdb","system_id":"levelo_inurba_marseille","lat":43.245581,"lon":5.395069,"is_reserved":false,"is_disabled":false,"rental_uris":{"android":"levelo://app?vid=04e82811-eacf-456d-9ed3-2cc6371e7bdb","ios":"levelo://app?vid=04e82811-eacf-456d-9ed3-2cc6371e7bdb"},"vehicle_type_id":"4","last_reported":1701954641,"current_range_meters":0,"station_id":"ce4bhlp2rcd13ifvqgjg","pricing_plan_id":"free"},{"bike_id":"e67fab8f-d7bd-46b0-9722-95cb899dfef3","system_id":"levelo_inurba_marseille","lat":43.240623,"lon":5.377642,"is_reserved":false,"is_disabled":false,"rental_uris":{"android":"levelo://app?vid=e67fab8f-d7bd-46b0-9722-95cb899dfef3","ios":"levelo://app?vid=e67fab8f-d7bd-46b0-9722-95cb899dfef3"},"vehicle_type_id":"4","last_reported":1701954641,"current_range_meters":25200,"station_id":"ce4bhnp2rcd13ifvqgvg","pricing_plan_id":"free"},{"bike_id":"4a843790-098d-49cd-a271-e8699c241565","system_id":"levelo_inurba_marseille","lat":43.240623,"lon":5.377642,"is_reserved":false,"is_disabled":false,"rental_uris":{"android":"levelo://app?vid=4a843790-098d-49cd-a271-e8699c241565","ios":"levelo://app?vid=4a843790-098d-49cd-a271-e8699c241565"},"vehicle_type_id":"4","last_reported":1701954641,"current_range_meters":14800,"station_id":"ce4bhnp2rcd13ifvqgvg","pricing_plan_id":"free"},{"bike_id":"18472806-1e7e-48d9-a5c2-d7e1d094ad7b","system_id":"levelo_inurba_marseille","lat":43.239588,"lon":5.366238,"is_reserved":false,"is_disabled":false,"rental_uris":{"android":"levelo://app?vid=18472806-1e7e-48d9-a5c2-d7e1d094ad7b","ios":"levelo://app?vid=18472806-1e7e-48d9-a5c2-d7e1d094ad7b"},"vehicle_type_id":"4","last_reported":1701954641,"current_range_meters":2400,"station_id":"ce4bhi12rcd13ifvqfp0","pricing_plan_id":"free"},{"bike_id":"a37f1f93-b2e5-4e8d-80a1-d0d56ff41bf6","system_id":"levelo_inurba_marseille","lat":43.24179,"lon":5.397294,"is_reserved":false,"is_disabled":false,"rental_uris":{"android":"levelo://app?vid=a37f1f93-b2e5-4e8d-80a1-d0d56ff41bf6","ios":"levelo://app?vid=a37f1f93-b2e5-4e8d-80a1-d0d56ff41bf6"},"vehicle_type_id":"4","last_reported":1701954641,"current_range_meters":13600,"station_id":"ce4bhn12rcd13ifvqgpg","pricing_plan_id":"free"},{"bike_id":"dafb76d3-48a3-4e10-8abe-6207ac6827bf","system_id":"levelo_inurba_marseille","lat":43.231562,"lon":5.436933,"is_reserved":false,"is_disabled":false,"rental_uris":{"android":"levelo://app?vid=dafb76d3-48a3-4e10-8abe-6207ac6827bf","ios":"levelo://app?vid=dafb76d3-48a3-4e10-8abe-6207ac6827bf"},"vehicle_type_id":"4","last_reported":1701954641,"current_range_meters":12400,"station_id":"ce4bhmp2rcd13ifvqgog","pricing_plan_id":"free"},{"bike_id":"ebbb1f26-1216-4b9d-ac47-aa159ee3f051","system_id":"levelo_inurba_marseille","lat":43.231562,"lon":5.436933,"is_reserved":false,"is_disabled":false,"rental_uris":{"android":"levelo://app?vid=ebbb1f26-1216-4b9d-ac47-aa159ee3f051","ios":"levelo://app?vid=ebbb1f26-1216-4b9d-ac47-aa159ee3f051"},"vehicle_type_id":"4","last_reported":1701954641,"current_range_meters":3600,"station_id":"ce4bhmp2rcd13ifvqgog","pricing_plan_id":"free"},{"bike_id":"b9d744bc-aef7-4aa6-b329-f06ddd152e7f","system_id":"levelo_inurba_marseille","lat":43.231562,"lon":5.436933,"is_reserved":false,"is_disabled":false,"rental_uris":{"android":"levelo://app?vid=b9d744bc-aef7-4aa6-b329-f06ddd152e7f","ios":"levelo://app?vid=b9d744bc-aef7-4aa6-b329-f06ddd152e7f"},"vehicle_type_id":"4","last_reported":1701954641,"current_range_meters":10400,"station_id":"ce4bhmp2rcd13ifvqgog","pricing_plan_id":"free"},{"bike_id":"7a322856-79ba-4174-90e9-188e9c210a06","system_id":"levelo_inurba_marseille","lat":43.231562,"lon":5.436933,"is_reserved":false,"is_disabled":false,"rental_uris":{"android":"levelo://app?vid=7a322856-79ba-4174-90e9-188e9c210a06","ios":"levelo://app?vid=7a322856-79ba-4174-90e9-188e9c210a06"},"vehicle_type_id":"4","last_reported":1701954641,"current_range_meters":19200,"station_id":"ce4bhmp2rcd13ifvqgog","pricing_plan_id":"free"},{"bike_id":"e1251306-c052-40e5-b5f2-27796c9c4ad8","system_id":"levelo_inurba_marseille","lat":43.231562,"lon":5.436933,"is_reserved":false,"is_disabled":false,"rental_uris":{"android":"levelo://app?vid=e1251306-c052-40e5-b5f2-27796c9c4ad8","ios":"levelo://app?vid=e1251306-c052-40e5-b5f2-27796c9c4ad8"},"vehicle_type_id":"4","last_reported":1701954641,"current_range_meters":2400,"station_id":"ce4bhmp2rcd13ifvqgog","pricing_plan_id":"free"},{"bike_id":"4ccba871-beb4-4c6d-a451-b9020fb73037","system_id":"levelo_inurba_marseille","lat":43.231562,"lon":5.436933,"is_reserved":false,"is_disabled":false,"rental_uris":{"android":"levelo://app?vid=4ccba871-beb4-4c6d-a451-b9020fb73037","ios":"levelo://app?vid=4ccba871-beb4-4c6d-a451-b9020fb73037"},"vehicle_type_id":"4","last_reported":1701954641,"current_range_meters":17600,"station_id":"ce4bhmp2rcd13ifvqgog","pricing_plan_id":"free"},{"bike_id":"96614ef2-cec9-4e17-bb2c-aff188332efc","system_id":"levelo_inurba_marseille","lat":43.231562,"lon":5.436933,"is_reserved":false,"is_disabled":false,"rental_uris":{"android":"levelo://app?vid=96614ef2-cec9-4e17-bb2c-aff188332efc","ios":"levelo://app?vid=96614ef2-cec9-4e17-bb2c-aff188332efc"},"vehicle_type_id":"4","last_reported":1701954641,"current_range_meters":28800,"station_id":"ce4bhmp2rcd13ifvqgog","pricing_plan_id":"free"},{"bike_id":"f2a13acd-23e0-4753-890d-e38186f79475","system_id":"levelo_inurba_marseille","lat":43.231562,"lon":5.436933,"is_reserved":false,"is_disabled":false,"rental_uris":{"android":"levelo://app?vid=f2a13acd-23e0-4753-890d-e38186f79475","ios":"levelo://app?vid=f2a13acd-23e0-4753-890d-e38186f79475"},"vehicle_type_id":"4","last_reported":1701954641,"current_range_meters":19600,"station_id":"ce4bhmp2rcd13ifvqgog","pricing_plan_id":"free"},{"bike_id":"64d7e3a8-78e1-4b86-897c-e8c197f98a5a","system_id":"levelo_inurba_marseille","lat":43.231562,"lon":5.436933,"is_reserved":false,"is_disabled":false,"rental_uris":{"android":"levelo://app?vid=64d7e3a8-78e1-4b86-897c-e8c197f98a5a","ios":"levelo://app?vid=64d7e3a8-78e1-4b86-897c-e8c197f98a5a"},"vehicle_type_id":"4","last_reported":1701954641,"current_range_meters":13600,"station_id":"ce4bhmp2rcd13ifvqgog","pricing_plan_id":"free"},{"bike_id":"32b30606-14b9-41e6-a49f-da3543c8206c","system_id":"levelo_inurba_marseille","lat":43.231562,"lon":5.436933,"is_reserved":false,"is_disabled":false,"rental_uris":{"android":"levelo://app?vid=32b30606-14b9-41e6-a49f-da3543c8206c","ios":"levelo://app?vid=32b30606-14b9-41e6-a49f-da3543c8206c"},"vehicle_type_id":"4","last_reported":1701954641,"current_range_meters":31600,"station_id":"ce4bhmp2rcd13ifvqgog","pricing_plan_id":"free"},{"bike_id":"26aa31e9-78f8-402e-9844-92fcde0d8e9e","system_id":"levelo_inurba_marseille","lat":43.231562,"lon":5.436933,"is_reserved":false,"is_disabled":false,"rental_uris":{"android":"levelo://app?vid=26aa31e9-78f8-402e-9844-92fcde0d8e9e","ios":"levelo://app?vid=26aa31e9-78f8-402e-9844-92fcde0d8e9e"},"vehicle_type_id":"4","last_reported":1701954641,"current_range_meters":5200,"station_id":"ce4bhmp2rcd13ifvqgog","pricing_plan_id":"free"},{"bike_id":"8e108615-2715-45ef-8f2d-511cdf7276bc","system_id":"levelo_inurba_marseille","lat":43.231562,"lon":5.436933,"is_reserved":false,"is_disabled":false,"rental_uris":{"android":"levelo://app?vid=8e108615-2715-45ef-8f2d-511cdf7276bc","ios":"levelo://app?vid=8e108615-2715-45ef-8f2d-511cdf7276bc"},"vehicle_type_id":"4","last_reported":1701954641,"current_range_meters":8400,"station_id":"ce4bhmp2rcd13ifvqgog","pricing_plan_id":"free"},{"bike_id":"c4d763e0-a870-4439-9182-df46647c88f5","system_id":"levelo_inurba_marseille","lat":43.23151,"lon":5.43719,"is_reserved":false,"is_disabled":false,"rental_uris":{"android":"levelo://app?vid=c4d763e0-a870-4439-9182-df46647c88f5","ios":"levelo://app?vid=c4d763e0-a870-4439-9182-df46647c88f5"},"vehicle_type_id":"4","last_reported":1701954641,"current_range_meters":9600,"station_id":"ce4bhmp2rcd13ifvqgog","pricing_plan_id":"free"},{"bike_id":"41e229a8-b68d-42af-ba6b-b6cd94dad415","system_id":"levelo_inurba_marseille","lat":43.231562,"lon":5.436933,"is_reserved":false,"is_disabled":false,"rental_uris":{"android":"levelo://app?vid=41e229a8-b68d-42af-ba6b-b6cd94dad415","ios":"levelo://app?vid=41e229a8-b68d-42af-ba6b-b6cd94dad415"},"vehicle_type_id":"4","last_reported":1701954641,"current_range_meters":14800,"station_id":"ce4bhmp2rcd13ifvqgog","pricing_plan_id":"free"},{"bike_id":"167bdd97-62db-414a-9aaa-885881545e21","system_id":"levelo_inurba_marseille","lat":43.231562,"lon":5.436933,"is_reserved":false,"is_disabled":false,"rental_uris":{"android":"levelo://app?vid=167bdd97-62db-414a-9aaa-885881545e21","ios":"levelo://app?vid=167bdd97-62db-414a-9aaa-885881545e21"},"vehicle_type_id":"4","last_reported":1701954641,"current_range_meters":11200,"station_id":"ce4bhmp2rcd13ifvqgog","pricing_plan_id":"free"},{"bike_id":"ebb8e937-193f-4764-86cc-14f6a3f49c69","system_id":"levelo_inurba_marseille","lat":43.231562,"lon":5.436933,"is_reserved":false,"is_disabled":false,"rental_uris":{"android":"levelo://app?vid=ebb8e937-193f-4764-86cc-14f6a3f49c69","ios":"levelo://app?vid=ebb8e937-193f-4764-86cc-14f6a3f49c69"},"vehicle_type_id":"4","last_reported":1701954641,"current_range_meters":11600,"station_id":"ce4bhmp2rcd13ifvqgog","pricing_plan_id":"free"},{"bike_id":"fcd5f4bd-6a9a-4e01-afb4-af3429f1f986","system_id":"levelo_inurba_marseille","lat":43.231562,"lon":5.436933,"is_reserved":false,"is_disabled":false,"rental_uris":{"android":"levelo://app?vid=fcd5f4bd-6a9a-4e01-afb4-af3429f1f986","ios":"levelo://app?vid=fcd5f4bd-6a9a-4e01-afb4-af3429f1f986"},"vehicle_type_id":"4","last_reported":1701954641,"current_range_meters":9600,"station_id":"ce4bhmp2rcd13ifvqgog","pricing_plan_id":"free"},{"bike_id":"149734cf-0231-46c5-b4e5-ccd25f43cea6","system_id":"levelo_inurba_marseille","lat":43.231562,"lon":5.436933,"is_reserved":false,"is_disabled":false,"rental_uris":{"android":"levelo://app?vid=149734cf-0231-46c5-b4e5-ccd25f43cea6","ios":"levelo://app?vid=149734cf-0231-46c5-b4e5-ccd25f43cea6"},"vehicle_type_id":"4","last_reported":1701954641,"current_range_meters":3200,"station_id":"ce4bhmp2rcd13ifvqgog","pricing_plan_id":"free"},{"bike_id":"0388cfcc-aee4-4b56-aaf5-4a4cb85d6319","system_id":"levelo_inurba_marseille","lat":43.231562,"lon":5.436933,"is_reserved":false,"is_disabled":false,"rental_uris":{"android":"levelo://app?vid=0388cfcc-aee4-4b56-aaf5-4a4cb85d6319","ios":"levelo://app?vid=0388cfcc-aee4-4b56-aaf5-4a4cb85d6319"},"vehicle_type_id":"4","last_reported":1701954641,"current_range_meters":19600,"station_id":"ce4bhmp2rcd13ifvqgog","pricing_plan_id":"free"},{"bike_id":"6044dcff-6eb4-461c-91be-600815014433","system_id":"levelo_inurba_marseille","lat":43.231562,"lon":5.436933,"is_reserved":false,"is_disabled":false,"rental_uris":{"android":"levelo://app?vid=6044dcff-6eb4-461c-91be-600815014433","ios":"levelo://app?vid=6044dcff-6eb4-461c-91be-600815014433"},"vehicle_type_id":"4","last_reported":1701954641,"current_range_meters":31200,"station_id":"ce4bhmp2rcd13ifvqgog","pricing_plan_id":"free"}]}}