{"last_updated":1752952079,"ttl":60,"version":"2.2","data":{"bikes":[{"bike_id":"53b742a7-31ae-4272-9bba-7740339e2a2f","system_id":"levelo_inurba_marseille","lat":43.33747,"lon":5.37463,"is_reserved":false,"is_disabled":false,"rental_uris":{"android":"levelo://app?vid=53b742a7-31ae-4272-9bba-7740339e2a2f","ios":"levelo://app?vid=53b742a7-31ae-4272-9bba-7740339e2a2f"},"vehicle_type_id":"1","last_reported":1752952079,"current_range_meters":14400,"station_id":"","pricing_plan_id":"cebpf4jnsgd1na2vs0mg"},{"bike_id":"fb97084d-db40-425b-83e1-b2f87b6404df","system_id":"levelo_inurba_marseille","lat":43.26034,"lon":5.37545,"is_reserved":false,"is_disabled":false,"rental_uris":{"android":"levelo://app?vid=fb97084d-db40-425b-83e1-b2f87b6404df","ios":"levelo://app?vid=fb97084d-db40-425b-83e1-b2f87b6404df"},"vehicle_type_id":"4","last_reported":1752952079,"current_range_meters":2800,"station_id":"ce4bhgh2rcd13ifvqfa0","pricing_plan_id":"cebpf4jnsgd1na2vs0mg"},{"bike_id":"a3fea934-e8d0-49e8-b719-8cc2baad773f","system_id":"levelo_inurba_marseille","lat":43.2696,"lon":5.38887,"is_reserved":false,"is_disabled":true,"rental_uris":{"android":"levelo://app?vid=a3fea934-e8d0-49e8-b719-8cc2baad773f","ios":"levelo://app?vid=a3fea934-e8d0-49e8-b719-8cc2baad773f"},"vehicle_type_id":"4","last_reported":1752952079,"current_range_meters":2800,"station_id":"","pricing_plan_id":"cebpf4jnsgd1na2vs0mg"},{"bike_id":"d4616602-547a-4299-bf11-9f28112a37b4","system_id":"levelo_inurba_marseille","lat":43.332952,"lon":5.39748,"is_reserved":false,"is_disabled":false,"rental_uris":{"android":"levelo://app?vid=d4616602-547a-4299-bf11-9f28112a37b4","ios":"levelo://app?vid=d4616602-547a-4299-bf11-9f28112a37b4"},"vehicle_type_id":"4","last_reported":1752952079,"current_range_meters":2800,"station_id":"","pricing_plan_id":"cebpf4jnsgd1na2vs0mg"},{"bike_id":"3444bdc6-514a-4ba6-9650-f9073305e33d","system_id":"levelo_inurba_marseille","lat":43.29682,"lon":5.3698,"is_reserved":false,"is_disabled":false,"rental_uris":{"android":"levelo://app?vid=3444bdc6-514a-4ba6-9650-f9073305e33d","ios":"levelo://app?vid=3444bdc6-514a-4ba6-9650-f9073305e33d"},"vehicle_type_id":"4","last_reported":1752952079,"current_range_meters":3200,"station_id":"","pricing_plan_id":"cebpf4jnsgd1na2vs0mg"},{"bike_id":"0e6de4ee-1c91-439b-aa8e-7f0e8955bb18","system_id":"levelo_inurba_marseille","lat":43.21746,"lon":5.34615,"is_reserved":false,"is_disabled":false,"rental_uris":{"android":"levelo://app?vid=0e6de4ee-1c91-439b-aa8e-7f0e8955bb18","ios":"levelo://app?vid=0e6de4ee-1c91-439b-aa8e-7f0e8955bb18"},"vehicle_type_id":"4","last_reported":1752952079,"current_range_meters":3200,"station_id":"st_cvj6r9ubvosntc0bgbag","pricing_plan_id":"cebpf4jnsgd1na2vs0mg"},{"bike_id":"4b28b04b-a324-4560-b3f1-6a386f19e139","system_id":"levelo_inurba_marseille","lat":43.26196,"lon":5.3744,"is_reserved":false,"is_disabled":false,"rental_uris":{"android":"levelo://app?vid=4b28b04b-a324-4560-b3f1-6a386f19e139","ios":"levelo://app?vid=4b28b04b-a324-4560-b3f1-6a386f19e139"},"vehicle_type_id":"4","last_reported":1752952079,"current_range_meters":3200,"station_id":"ce4bhgp2rcd13ifvqfc0","pricing_plan_id":"cebpf4jnsgd1na2vs0mg"},{"bike_id":"388ef3fa-edf1-4a4f-bb6a-236abc146871","system_id":"levelo_inurba_marseille","lat":43.33217,"lon":5.39847,"is_reserved":false,"is_disabled":false,"rental_uris":{"android":"levelo://app?vid=388ef3fa-edf1-4a4f-bb6a-236abc146871","ios":"levelo://app?vid=388ef3fa-edf1-4a4f-bb6a-236abc146871"},"vehicle_type_id":"4","last_reported":1752952079,"current_range_meters":3200,"station_id":"","pricing_plan_id":"cebpf4jnsgd1na2vs0mg"},{"bike_id":"d8b15bbe-77d9-44c6-add4-2b27922ba914","system_id":"levelo_inurba_marseille","lat":43.30946,"lon":5.39045,"is_reserved":false,"is_disabled":false,"rental_uris":{"android":"levelo://app?vid=d8b15bbe-77d9-44c6-add4-2b27922ba914","ios":"levelo://app?vid=d8b15bbe-77d9-44c6-add4-2b27922ba914"},"vehicle_type_id":"4","last_reported":1752952079,"current_range_meters":3200,"station_id":"ce4bgup2rcd13ifvqco0","pricing_plan_id":"cebpf4jnsgd1na2vs0mg"},{"bike_id":"57bf6570-ff1a-4d36-a914-38a00de3af53","system_id":"levelo_inurba_marseille","lat":43.2397,"lon":5.36618,"is_reserved":false,"is_disabled":true,"rental_uris":{"android":"levelo://app?vid=57bf6570-ff1a-4d36-a914-38a00de3af53","ios":"levelo://app?vid=57bf6570-ff1a-4d36-a914-38a00de3af53"},"vehicle_type_id":"4","last_reported":1752952079,"current_range_meters":3600,"station_id":"ce4bhi12rcd13ifvqfp0","pricing_plan_id":"cebpf4jnsgd1na2vs0mg"},{"bike_id":"c4f13283-cc1a-48e1-bc1d-05e3ac6ac9de","system_id":"levelo_inurba_marseille","lat":43.26209,"lon":5.37479,"is_reserved":false,"is_disabled":false,"rental_uris":{"android":"levelo://app?vid=c4f13283-cc1a-48e1-bc1d-05e3ac6ac9de","ios":"levelo://app?vid=c4f13283-cc1a-48e1-bc1d-05e3ac6ac9de"},"vehicle_type_id":"4","last_reported":1752952079,"current_range_meters":3600,"station_id":"ce4bhgp2rcd13ifvqfc0","pricing_plan_id":"cebpf4jnsgd1na2vs0mg"},{"bike_id":"e1dbfb19-cd08-46f7-aa30-e89e52a812ff","system_id":"levelo_inurba_marseille","lat":43.32286,"lon":5.38263,"is_reserved":false,"is_disabled":false,"rental_uris":{"android":"levelo://app?vid=e1dbfb19-cd08-46f7-aa30-e89e52a812ff","ios":"levelo://app?vid=e1dbfb19-cd08-46f7-aa30-e89e52a812ff"},"vehicle_type_id":"4","last_reported":1752952079,"current_range_meters":3600,"station_id":"ce4bhr12rcd13ifvqhqg","pricing_plan_id":"cebpf4jnsgd1na2vs0mg"},{"bike_id":"6ed18a94-3d4c-41da-b584-ed7262cb9b88","system_id":"levelo_inurba_marseille","lat":43.25492,"lon":5.37651,"is_reserved":false,"is_disabled":false,"rental_uris":{"android":"levelo://app?vid=6ed18a94-3d4c-41da-b584-ed7262cb9b88","ios":"levelo://app?vid=6ed18a94-3d4c-41da-b584-ed7262cb9b88"},"vehicle_type_id":"4","last_reported":1752952079,"current_range_meters":4000,"station_id":"ce4bhh12rcd13ifvqff0","pricing_plan_id":"cebpf4jnsgd1na2vs0mg"},{"bike_id":"0f546e4d-f277-4c83-8bfe-f202f8b727f8","system_id":"levelo_inurba_marseille","lat":43.30417,"lon":5.41287,"is_reserved":false,"is_disabled":false,"rental_uris":{"android":"levelo://app?vid=0f546e4d-f277-4c83-8bfe-f202f8b727f8","ios":"levelo://app?vid=0f546e4d-f277-4c83-8bfe-f202f8b727f8"},"vehicle_type_id":"4","last_reported":1752952079,"current_range_meters":4000,"station_id":"ce4bhop2rcd13ifvqh8g","pricing_plan_id":"cebpf4jnsgd1na2vs0mg"},{"bike_id":"097fb417-221a-4ca5-b229-d5feda8b3797","system_id":"levelo_inurba_marseille","lat":43.26212,"lon":5.37434,"is_reserved":false,"is_disabled":false,"rental_uris":{"android":"levelo://app?vid=097fb417-221a-4ca5-b229-d5feda8b3797","ios":"levelo://app?vid=097fb417-221a-4ca5-b229-d5feda8b3797"},"vehicle_type_id":"4","last_reported":1752952079,"current_range_meters":4000,"station_id":"ce4bhgp2rcd13ifvqfc0","pricing_plan_id":"cebpf4jnsgd1na2vs0mg"},{"bike_id":"d362ed07-2747-4729-9350-38ff4942d3b2","system_id":"levelo_inurba_marseille","lat":43.296823,"lon":5.372862,"is_reserved":false,"is_disabled":false,"rental_uris":{"android":"levelo://app?vid=d362ed07-2747-4729-9350-38ff4942d3b2","ios":"levelo://app?vid=d362ed07-2747-4729-9350-38ff4942d3b2"},"vehicle_type_id":"4","last_reported":1752952079,"current_range_meters":4400,"station_id":"ce4bgk12rcd13ifvqbj0","pricing_plan_id":"cebpf4jnsgd1na2vs0mg"},{"bike_id":"9bdcfb5e-ac16-41d0-a4c2-388bc36976bb","system_id":"levelo_inurba_marseille","lat":43.29558,"lon":5.42284,"is_reserved":false,"is_disabled":false,"rental_uris":{"android":"levelo://app?vid=9bdcfb5e-ac16-41d0-a4c2-388bc36976bb","ios":"levelo://app?vid=9bdcfb5e-ac16-41d0-a4c2-388bc36976bb"},"vehicle_type_id":"4","last_reported":1752952079,"current_range_meters":5600,"station_id":"ce4bhph2rcd13ifvqhdg","pricing_plan_id":"cebpf4jnsgd1na2vs0mg"},{"bike_id":"54b6eb57-77c7-478a-8076-f955652fc8a9","system_id":"levelo_inurba_marseille","lat":43.32111,"lon":5.36763,"is_reserved":false,"is_disabled":false,"rental_uris":{"android":"levelo://app?vid=54b6eb57-77c7-478a-8076-f955652fc8a9","ios":"levelo://app?vid=54b6eb57-77c7-478a-8076-f955652fc8a9"},"vehicle_type_id":"4","last_reported":1752952079,"current_range_meters":5600,"station_id":"ce4bhrh2rcd13ifvqhug","pricing_plan_id":"cebpf4jnsgd1na2vs0mg"},{"bike_id":"b3c20171-789b-4f2e-a78c-f182493a896f","system_id":"levelo_inurba_marseille","lat":43.2815,"lon":5.42627,"is_reserved":false,"is_disabled":true,"rental_uris":{"android":"levelo://app?vid=b3c20171-789b-4f2e-a78c-f182493a896f","ios":"levelo://app?vid=b3c20171-789b-4f2e-a78c-f182493a896f"},"vehicle_type_id":"4","last_reported":1752952079,"current_range_meters":5600,"station_id":"ce4bhnh2rcd13ifvqgug","pricing_plan_id":"cebpf4jnsgd1na2vs0mg"},{"bike_id":"da891840-0cec-4ccc-961c-48903736c6fa","system_id":"levelo_inurba_marseille","lat":43.31139,"lon":5.37692,"is_reserved":false,"is_disabled":false,"rental_uris":{"android":"levelo://app?vid=da891840-0cec-4ccc-961c-48903736c6fa","ios":"levelo://app?vid=da891840-0cec-4ccc-961c-48903736c6fa"},"vehicle_type_id":"4","last_reported":1752952079,"current_range_meters":5600,"station_id":"","pricing_plan_id":"cebpf4jnsgd1na2vs0mg"},{"bike_id":"1a4ea74f-27f2-4d57-8044-e79e26731520","system_id":"levelo_inurba_marseille","lat":43.284856,"lon":5.384281,"is_reserved":false,"is_disabled":false,"rental_uris":{"android":"levelo://app?vid=1a4ea74f-27f2-4d57-8044-e79e26731520","ios":"levelo://app?vid=1a4ea74f-27f2-4d57-8044-e79e26731520"},"vehicle_type_id":"4","last_reported":1752952079,"current_range_meters":5600,"station_id":"","pricing_plan_id":"cebpf4jnsgd1na2vs0mg"},{"bike_id":"74726b47-0518-422e-b5e6-75974a78a58b","system_id":"levelo_inurba_marseille","lat":43.32656,"lon":5.40981,"is_reserved":false,"is_disabled":false,"rental_uris":{"android":"levelo://app?vid=74726b47-0518-422e-b5e6-75974a78a58b","ios":"levelo://app?vid=74726b47-0518-422e-b5e6-75974a78a58b"},"vehicle_type_id":"4","last_reported":1752952079,"current_range_meters":5600,"station_id":"ce4bhpp2rcd13ifvqhgg","pricing_plan_id":"cebpf4jnsgd1na2vs0mg"},{"bike_id":"616cc88b-7196-4cd0-93fb-a71ec71026c6","system_id":"levelo_inurba_marseille","lat":43.27375,"lon":5.36257,"is_reserved":false,"is_disabled":false,"rental_uris":{"android":"levelo://app?vid=616cc88b-7196-4cd0-93fb-a71ec71026c6","ios":"levelo://app?vid=616cc88b-7196-4cd0-93fb-a71ec71026c6"},"vehicle_type_id":"4","last_reported":1752952079,"current_range_meters":5600,"station_id":"ce4bhbh2rcd13ifvqeo0","pricing_plan_id":"cebpf4jnsgd1na2vs0mg"},{"bike_id":"4108938b-6cb1-49cf-9b34-f5aba76f8c8e","system_id":"levelo_inurba_marseille","lat":43.25872,"lon":5.39892,"is_reserved":false,"is_disabled":true,"rental_uris":{"android":"levelo://app?vid=4108938b-6cb1-49cf-9b34-f5aba76f8c8e","ios":"levelo://app?vid=4108938b-6cb1-49cf-9b34-f5aba76f8c8e"},"vehicle_type_id":"4","last_reported":1752952079,"current_range_meters":6000,"station_id":"ce4bhl92rcd13ifvqghg","pricing_plan_id":"cebpf4jnsgd1na2vs0mg"},{"bike_id":"dd26fa45-583c-44d1-9a9e-4f63984f70a3","system_id":"levelo_inurba_marseille","lat":43.2989,"lon":5.43655,"is_reserved":false,"is_disabled":false,"rental_uris":{"android":"levelo://app?vid=dd26fa45-583c-44d1-9a9e-4f63984f70a3","ios":"levelo://app?vid=dd26fa45-583c-44d1-9a9e-4f63984f70a3"},"vehicle_type_id":"4","last_reported":1752952079,"current_range_meters":6400,"station_id":"ce4bhpp2rcd13ifvqhfg","pricing_plan_id":"cebpf4jnsgd1na2vs0mg"},{"bike_id":"a65c328b-eeef-473d-b027-6783c4530355","system_id":"levelo_inurba_marseille","lat":43.28265,"lon":5.3506,"is_reserved":false,"is_disabled":false,"rental_uris":{"android":"levelo://app?vid=a65c328b-eeef-473d-b027-6783c4530355","ios":"levelo://app?vid=a65c328b-eeef-473d-b027-6783c4530355"},"vehicle_type_id":"4","last_reported":1752952079,"current_range_meters":6000,"station_id":"ce4bhbp2rcd13ifvqerg","pricing_plan_id":"cebpf4jnsgd1na2vs0mg"},{"bike_id":"2d95b47d-d06f-40a4-bb6e-c13e954e3c8f","system_id":"levelo_inurba_marseille","lat":43.277195,"lon":5.414267,"is_reserved":false,"is_disabled":false,"rental_uris":{"android":"levelo://app?vid=2d95b47d-d06f-40a4-bb6e-c13e954e3c8f","ios":"levelo://app?vid=2d95b47d-d06f-40a4-bb6e-c13e954e3c8f"},"vehicle_type_id":"4","last_reported":1752952079,"current_range_meters":6400,"station_id":"","pricing_plan_id":"cebpf4jnsgd1na2vs0mg"},{"bike_id":"44b73254-6d5b-42ec-9e3a-52236fbf71fc","system_id":"levelo_inurba_marseille","lat":43.33346,"lon":5.39849,"is_reserved":false,"is_disabled":false,"rental_uris":{"android":"levelo://app?vid=44b73254-6d5b-42ec-9e3a-52236fbf71fc","ios":"levelo://app?vid=44b73254-6d5b-42ec-9e3a-52236fbf71fc"},"vehicle_type_id":"4","last_reported":1752952079,"current_range_meters":6400,"station_id":"","pricing_plan_id":"cebpf4jnsgd1na2vs0mg"},{"bike_id":"a168d389-ea1d-4756-ad9b-cf73a31ab442","system_id":"levelo_inurba_marseille","lat":43.28565,"lon":5.38365,"is_reserved":false,"is_disabled":true,"rental_uris":{"android":"levelo://app?vid=a168d389-ea1d-4756-ad9b-cf73a31ab442","ios":"levelo://app?vid=a168d389-ea1d-4756-ad9b-cf73a31ab442"},"vehicle_type_id":"4","last_reported":1752952079,"current_range_meters":6400,"station_id":"","pricing_plan_id":"cebpf4jnsgd1na2vs0mg"},{"bike_id":"8f4efc4a-ee43-4756-babf-8953fefa070d","system_id":"levelo_inurba_marseille","lat":43.26555,"lon":5.37279,"is_reserved":false,"is_disabled":true,"rental_uris":{"android":"levelo://app?vid=8f4efc4a-ee43-4756-babf-8953fefa070d","ios":"levelo://app?vid=8f4efc4a-ee43-4756-babf-8953fefa070d"},"vehicle_type_id":"4","last_reported":1752952079,"current_range_meters":6400,"station_id":"ce4bhg12rcd13ifvqf70","pricing_plan_id":"cebpf4jnsgd1na2vs0mg"},{"bike_id":"1d1be68d-d556-4fac-99d6-9591985b08e4","system_id":"levelo_inurba_marseille","lat":43.27374,"lon":5.36254,"is_reserved":false,"is_disabled":false,"rental_uris":{"android":"levelo://app?vid=1d1be68d-d556-4fac-99d6-9591985b08e4","ios":"levelo://app?vid=1d1be68d-d556-4fac-99d6-9591985b08e4"},"vehicle_type_id":"4","last_reported":1752952079,"current_range_meters":6000,"station_id":"ce4bhbh2rcd13ifvqeo0","pricing_plan_id":"cebpf4jnsgd1na2vs0mg"},{"bike_id":"3d6239bd-7f73-4565-8844-8b293631c57b","system_id":"levelo_inurba_marseille","lat":43.26208,"lon":5.37445,"is_reserved":false,"is_disabled":false,"rental_uris":{"android":"levelo://app?vid=3d6239bd-7f73-4565-8844-8b293631c57b","ios":"levelo://app?vid=3d6239bd-7f73-4565-8844-8b293631c57b"},"vehicle_type_id":"4","last_reported":1752952079,"current_range_meters":6800,"station_id":"ce4bhgp2rcd13ifvqfc0","pricing_plan_id":"cebpf4jnsgd1na2vs0mg"},{"bike_id":"9b5c585d-8663-431b-b52e-044e7e453831","system_id":"levelo_inurba_marseille","lat":43.29526,"lon":5.38552,"is_reserved":false,"is_disabled":false,"rental_uris":{"android":"levelo://app?vid=9b5c585d-8663-431b-b52e-044e7e453831","ios":"levelo://app?vid=9b5c585d-8663-431b-b52e-044e7e453831"},"vehicle_type_id":"4","last_reported":1752952079,"current_range_meters":6800,"station_id":"ce4bgih2rcd13ifvqba0","pricing_plan_id":"cebpf4jnsgd1na2vs0mg"},{"bike_id":"04729887-1d0e-4632-a971-1f59b317ea39","system_id":"levelo_inurba_marseille","lat":43.29532,"lon":5.3854,"is_reserved":false,"is_disabled":false,"rental_uris":{"android":"levelo://app?vid=04729887-1d0e-4632-a971-1f59b317ea39","ios":"levelo://app?vid=04729887-1d0e-4632-a971-1f59b317ea39"},"vehicle_type_id":"4","last_reported":1752952079,"current_range_meters":6800,"station_id":"ce4bgih2rcd13ifvqba0","pricing_plan_id":"cebpf4jnsgd1na2vs0mg"},{"bike_id":"72acce2b-2249-45a2-be91-c8268f8a11e8","system_id":"levelo_inurba_marseille","lat":43.225067,"lon":5.347838,"is_reserved":false,"is_disabled":false,"rental_uris":{"android":"levelo://app?vid=72acce2b-2249-45a2-be91-c8268f8a11e8","ios":"levelo://app?vid=72acce2b-2249-45a2-be91-c8268f8a11e8"},"vehicle_type_id":"4","last_reported":1752952079,"current_range_meters":7200,"station_id":"st_cvj5dfep6f1abm77gieg","pricing_plan_id":"cebpf4jnsgd1na2vs0mg"},{"bike_id":"efeb7eed-5770-4fa4-8989-4696e3b03168","system_id":"levelo_inurba_marseille","lat":43.31517,"lon":5.38034,"is_reserved":false,"is_disabled":false,"rental_uris":{"android":"levelo://app?vid=efeb7eed-5770-4fa4-8989-4696e3b03168","ios":"levelo://app?vid=efeb7eed-5770-4fa4-8989-4696e3b03168"},"vehicle_type_id":"4","last_reported":1752952079,"current_range_meters":7200,"station_id":"ce4bhsp2rcd13ifvqi50","pricing_plan_id":"cebpf4jnsgd1na2vs0mg"},{"bike_id":"6886b2dc-c853-4217-be12-6dff39415262","system_id":"levelo_inurba_marseille","lat":43.26937,"lon":5.40243,"is_reserved":false,"is_disabled":false,"rental_uris":{"android":"levelo://app?vid=6886b2dc-c853-4217-be12-6dff39415262","ios":"levelo://app?vid=6886b2dc-c853-4217-be12-6dff39415262"},"vehicle_type_id":"4","last_reported":1752952079,"current_range_meters":7200,"station_id":"cjm6bp8fraef2m0cb0m0","pricing_plan_id":"cebpf4jnsgd1na2vs0mg"},{"bike_id":"1401e8a0-2f82-4631-9c4b-5665c04bbea0","system_id":"levelo_inurba_marseille","lat":43.2954,"lon":5.38526,"is_reserved":false,"is_disabled":false,"rental_uris":{"android":"levelo://app?vid=1401e8a0-2f82-4631-9c4b-5665c04bbea0","ios":"levelo://app?vid=1401e8a0-2f82-4631-9c4b-5665c04bbea0"},"vehicle_type_id":"4","last_reported":1752952079,"current_range_meters":7200,"station_id":"ce4bgih2rcd13ifvqba0","pricing_plan_id":"cebpf4jnsgd1na2vs0mg"},{"bike_id":"cbef6d7f-f1d6-44e6-b174-3e44811341e1","system_id":"levelo_inurba_marseille","lat":43.30596,"lon":5.39358,"is_reserved":false,"is_disabled":false,"rental_uris":{"android":"levelo://app?vid=cbef6d7f-f1d6-44e6-b174-3e44811341e1","ios":"levelo://app?vid=cbef6d7f-f1d6-44e6-b174-3e44811341e1"},"vehicle_type_id":"4","last_reported":1752952079,"current_range_meters":7200,"station_id":"ce4bh0p2rcd13ifvqd80","pricing_plan_id":"cebpf4jnsgd1na2vs0mg"},{"bike_id":"24b92386-177a-40f1-8d58-c9a2eeaa3c10","system_id":"levelo_inurba_marseille","lat":43.32478,"lon":5.365677,"is_reserved":false,"is_disabled":false,"rental_uris":{"android":"levelo://app?vid=24b92386-177a-40f1-8d58-c9a2eeaa3c10","ios":"levelo://app?vid=24b92386-177a-40f1-8d58-c9a2eeaa3c10"},"vehicle_type_id":"4","last_reported":1752952079,"current_range_meters":7200,"station_id":"ce4bhs12rcd13ifvqhvg","pricing_plan_id":"cebpf4jnsgd1na2vs0mg"},{"bike_id":"0fef251c-0615-4208-a4ac-5c56f64bb05a","system_id":"levelo_inurba_marseille","lat":43.29076,"lon":5.37169,"is_reserved":false,"is_disabled":false,"rental_uris":{"android":"levelo://app?vid=0fef251c-0615-4208-a4ac-5c56f64bb05a","ios":"levelo://app?vid=0fef251c-0615-4208-a4ac-5c56f64bb05a"},"vehicle_type_id":"4","last_reported":1752952079,"current_range_meters":8000,"station_id":"ce4bh5p2rcd13ifvqe4g","pricing_plan_id":"cebpf4jnsgd1na2vs0mg"},{"bike_id":"7eb0825e-58fb-4abc-b7c8-8973a0081fa9","system_id":"levelo_inurba_marseille","lat":43.32477,"lon":5.36559,"is_reserved":false,"is_disabled":false,"rental_uris":{"android":"levelo://app?vid=7eb0825e-58fb-4abc-b7c8-8973a0081fa9","ios":"levelo://app?vid=7eb0825e-58fb-4abc-b7c8-8973a0081fa9"},"vehicle_type_id":"4","last_reported":1752952079,"current_range_meters":7200,"station_id":"ce4bhs12rcd13ifvqhvg","pricing_plan_id":"cebpf4jnsgd1na2vs0mg"},{"bike_id":"13b8cade-c225-44f1-99e9-1ebdfa64250f","system_id":"levelo_inurba_marseille","lat":43.287174,"lon":5.379359,"is_reserved":false,"is_disabled":false,"rental_uris":{"android":"levelo://app?vid=13b8cade-c225-44f1-99e9-1ebdfa64250f","ios":"levelo://app?vid=13b8cade-c225-44f1-99e9-1ebdfa64250f"},"vehicle_type_id":"4","last_reported":1752952079,"current_range_meters":6800,"station_id":"ce4bh9p2rcd13ifvqec0","pricing_plan_id":"cebpf4jnsgd1na2vs0mg"},{"bike_id":"ce7bd25b-5213-4881-a28b-f582e6a1d712","system_id":"levelo_inurba_marseille","lat":43.31355,"lon":5.36748,"is_reserved":false,"is_disabled":true,"rental_uris":{"android":"levelo://app?vid=ce7bd25b-5213-4881-a28b-f582e6a1d712","ios":"levelo://app?vid=ce7bd25b-5213-4881-a28b-f582e6a1d712"},"vehicle_type_id":"4","last_reported":1752952079,"current_range_meters":7200,"station_id":"ce4bgr92rcd13ifvqc6g","pricing_plan_id":"cebpf4jnsgd1na2vs0mg"},{"bike_id":"a1d3d1e5-2550-4d3e-942e-771635f6e6c7","system_id":"levelo_inurba_marseille","lat":43.30943,"lon":5.39036,"is_reserved":false,"is_disabled":false,"rental_uris":{"android":"levelo://app?vid=a1d3d1e5-2550-4d3e-942e-771635f6e6c7","ios":"levelo://app?vid=a1d3d1e5-2550-4d3e-942e-771635f6e6c7"},"vehicle_type_id":"4","last_reported":1752952079,"current_range_meters":7200,"station_id":"ce4bgup2rcd13ifvqco0","pricing_plan_id":"cebpf4jnsgd1na2vs0mg"},{"bike_id":"7bf94bb1-5008-49ae-919b-29d7682cb7ee","system_id":"levelo_inurba_marseille","lat":43.30087,"lon":5.39078,"is_reserved":false,"is_disabled":true,"rental_uris":{"android":"levelo://app?vid=7bf94bb1-5008-49ae-919b-29d7682cb7ee","ios":"levelo://app?vid=7bf94bb1-5008-49ae-919b-29d7682cb7ee"},"vehicle_type_id":"4","last_reported":1752952079,"current_range_meters":8000,"station_id":"ce4bh192rcd13ifvqdb0","pricing_plan_id":"cebpf4jnsgd1na2vs0mg"},{"bike_id":"a8061cf1-7ba2-437b-b60f-0e387620ac03","system_id":"levelo_inurba_marseille","lat":43.30949,"lon":5.39034,"is_reserved":false,"is_disabled":false,"rental_uris":{"android":"levelo://app?vid=a8061cf1-7ba2-437b-b60f-0e387620ac03","ios":"levelo://app?vid=a8061cf1-7ba2-437b-b60f-0e387620ac03"},"vehicle_type_id":"4","last_reported":1752952079,"current_range_meters":8000,"station_id":"ce4bgup2rcd13ifvqco0","pricing_plan_id":"cebpf4jnsgd1na2vs0mg"},{"bike_id":"ea4322c5-5e4c-4eba-a3d3-71c4d33b1090","system_id":"levelo_inurba_marseille","lat":43.27069,"lon":5.40236,"is_reserved":false,"is_disabled":false,"rental_uris":{"android":"levelo://app?vid=ea4322c5-5e4c-4eba-a3d3-71c4d33b1090","ios":"levelo://app?vid=ea4322c5-5e4c-4eba-a3d3-71c4d33b1090"},"vehicle_type_id":"4","last_reported":1752952079,"current_range_meters":8000,"station_id":"ce4bhk92rcd13ifvqgc0","pricing_plan_id":"cebpf4jnsgd1na2vs0mg"},{"bike_id":"7ba80774-b11e-4526-b36d-edd358abb392","system_id":"levelo_inurba_marseille","lat":43.22506,"lon":5.34767,"is_reserved":false,"is_disabled":false,"rental_uris":{"android":"levelo://app?vid=7ba80774-b11e-4526-b36d-edd358abb392","ios":"levelo://app?vid=7ba80774-b11e-4526-b36d-edd358abb392"},"vehicle_type_id":"4","last_reported":1752952079,"current_range_meters":8000,"station_id":"st_cvj5dfep6f1abm77gieg","pricing_plan_id":"cebpf4jnsgd1na2vs0mg"},{"bike_id":"a5d9b68a-867c-470c-a12b-798500f9d4d7","system_id":"levelo_inurba_marseille","lat":43.30954,"lon":5.39027,"is_reserved":false,"is_disabled":false,"rental_uris":{"android":"levelo://app?vid=a5d9b68a-867c-470c-a12b-798500f9d4d7","ios":"levelo://app?vid=a5d9b68a-867c-470c-a12b-798500f9d4d7"},"vehicle_type_id":"4","last_reported":1752952079,"current_range_meters":8000,"station_id":"ce4bgup2rcd13ifvqco0","pricing_plan_id":"cebpf4jnsgd1na2vs0mg"},{"bike_id":"eb3652bd-4820-451d-ad41-fb8e06faf188","system_id":"levelo_inurba_marseille","lat":43.28608,"lon":5.37054,"is_reserved":false,"is_disabled":false,"rental_uris":{"android":"levelo://app?vid=eb3652bd-4820-451d-ad41-fb8e06faf188","ios":"levelo://app?vid=eb3652bd-4820-451d-ad41-fb8e06faf188"},"vehicle_type_id":"4","last_reported":1752952079,"current_range_meters":8000,"station_id":"ce4bht12rcd13ifvqi60","pricing_plan_id":"cebpf4jnsgd1na2vs0mg"},{"bike_id":"2b44c136-99c1-4ea4-a32f-73849c5ce9d7","system_id":"levelo_inurba_marseille","lat":43.30956,"lon":5.3902,"is_reserved":false,"is_disabled":false,"rental_uris":{"android":"levelo://app?vid=2b44c136-99c1-4ea4-a32f-73849c5ce9d7","ios":"levelo://app?vid=2b44c136-99c1-4ea4-a32f-73849c5ce9d7"},"vehicle_type_id":"4","last_reported":1752952079,"current_range_meters":8000,"station_id":"ce4bgup2rcd13ifvqco0","pricing_plan_id":"cebpf4jnsgd1na2vs0mg"},{"bike_id":"36c63082-f3ba-4ca1-acea-1f36683570a3","system_id":"levelo_inurba_marseille","lat":43.28411,"lon":5.34982,"is_reserved":false,"is_disabled":false,"rental_uris":{"android":"levelo://app?vid=36c63082-f3ba-4ca1-acea-1f36683570a3","ios":"levelo://app?vid=36c63082-f3ba-4ca1-acea-1f36683570a3"},"vehicle_type_id":"4","last_reported":1752952079,"current_range_meters":5600,"station_id":"ce4bhbh2rcd13ifvqepg","pricing_plan_id":"cebpf4jnsgd1na2vs0mg"},{"bike_id":"c6db0f6a-96fe-4e1d-8ded-c2ef38c9bab4","system_id":"levelo_inurba_marseille","lat":43.305688,"lon":5.418387,"is_reserved":false,"is_disabled":true,"rental_uris":{"android":"levelo://app?vid=c6db0f6a-96fe-4e1d-8ded-c2ef38c9bab4","ios":"levelo://app?vid=c6db0f6a-96fe-4e1d-8ded-c2ef38c9bab4"},"vehicle_type_id":"4","last_reported":1752952079,"current_range_meters":8400,"station_id":"ce4bht12rcd13ifvqi60","pricing_plan_id":"cebpf4jnsgd1na2vs0mg"},{"bike_id":"0349cc66-1be2-468d-bf49-6ada04dc88e1","system_id":"levelo_inurba_marseille","lat":43.284146,"lon":5.349661,"is_reserved":false,"is_disabled":false,"rental_uris":{"android":"levelo://app?vid=0349cc66-1be2-468d-bf49-6ada04dc88e1","ios":"levelo://app?vid=0349cc66-1be2-468d-bf49-6ada04dc88e1"},"vehicle_type_id":"4","last_reported":1752952079,"current_range_meters":8400,"station_id":"ce4bhbh2rcd13ifvqepg","pricing_plan_id":"cebpf4jnsgd1na2vs0mg"},{"bike_id":"2e532954-91d6-45d0-820d-bd93ef877e83","system_id":"levelo_inurba_marseille","lat":43.303243,"lon":5.394574,"is_reserved":false,"is_disabled":true,"rental_uris":{"android":"levelo://app?vid=2e532954-91d6-45d0-820d-bd93ef877e83","ios":"levelo://app?vid=2e532954-91d6-45d0-820d-bd93ef877e83"},"vehicle_type_id":"4","last_reported":1752952079,"current_range_meters":8400,"station_id":"","pricing_plan_id":"cebpf4jnsgd1na2vs0mg"},{"bike_id":"0e42a7ec-0d0d-4b91-a100-e1bcd751f991","system_id":"levelo_inurba_marseille","lat":43.29919,"lon":5.43667,"is_reserved":false,"is_disabled":false,"rental_uris":{"android":"levelo://app?vid=0e42a7ec-0d0d-4b91-a100-e1bcd751f991","ios":"levelo://app?vid=0e42a7ec-0d0d-4b91-a100-e1bcd751f991"},"vehicle_type_id":"4","last_reported":1752952079,"current_range_meters":8400,"station_id":"ce4bhpp2rcd13ifvqhfg","pricing_plan_id":"cebpf4jnsgd1na2vs0mg"},{"bike_id":"840c6345-f892-450a-a5bb-e13ff1e4bad5","system_id":"levelo_inurba_marseille","lat":43.289368,"lon":5.366423,"is_reserved":false,"is_disabled":false,"rental_uris":{"android":"levelo://app?vid=840c6345-f892-450a-a5bb-e13ff1e4bad5","ios":"levelo://app?vid=840c6345-f892-450a-a5bb-e13ff1e4bad5"},"vehicle_type_id":"4","last_reported":1752952079,"current_range_meters":8400,"station_id":"ce4bhap2rcd13ifvqek0","pricing_plan_id":"cebpf4jnsgd1na2vs0mg"},{"bike_id":"dd13f2a0-e932-4706-8154-ce91178730c9","system_id":"levelo_inurba_marseille","lat":43.32474,"lon":5.36553,"is_reserved":false,"is_disabled":false,"rental_uris":{"android":"levelo://app?vid=dd13f2a0-e932-4706-8154-ce91178730c9","ios":"levelo://app?vid=dd13f2a0-e932-4706-8154-ce91178730c9"},"vehicle_type_id":"4","last_reported":1752952079,"current_range_meters":8400,"station_id":"ce4bhs12rcd13ifvqhvg","pricing_plan_id":"cebpf4jnsgd1na2vs0mg"},{"bike_id":"e25d2cb1-8659-4e3a-a55f-69234974764e","system_id":"levelo_inurba_marseille","lat":43.27427,"lon":5.39424,"is_reserved":false,"is_disabled":false,"rental_uris":{"android":"levelo://app?vid=e25d2cb1-8659-4e3a-a55f-69234974764e","ios":"levelo://app?vid=e25d2cb1-8659-4e3a-a55f-69234974764e"},"vehicle_type_id":"4","last_reported":1752952079,"current_range_meters":8400,"station_id":"ce4bhdp2rcd13ifvqf20","pricing_plan_id":"cebpf4jnsgd1na2vs0mg"},{"bike_id":"23c10e8d-6b1f-4bfe-9228-a6daaf472390","system_id":"levelo_inurba_marseille","lat":43.28106,"lon":5.37834,"is_reserved":false,"is_disabled":false,"rental_uris":{"android":"levelo://app?vid=23c10e8d-6b1f-4bfe-9228-a6daaf472390","ios":"levelo://app?vid=23c10e8d-6b1f-4bfe-9228-a6daaf472390"},"vehicle_type_id":"4","last_reported":1752952079,"current_range_meters":8400,"station_id":"ce4bha12rcd13ifvqee0","pricing_plan_id":"cebpf4jnsgd1na2vs0mg"},{"bike_id":"07aeb5da-15b1-4b73-9d17-70e8acd75061","system_id":"levelo_inurba_marseille","lat":43.225098,"lon":5.3478,"is_reserved":false,"is_disabled":false,"rental_uris":{"android":"levelo://app?vid=07aeb5da-15b1-4b73-9d17-70e8acd75061","ios":"levelo://app?vid=07aeb5da-15b1-4b73-9d17-70e8acd75061"},"vehicle_type_id":"4","last_reported":1752952079,"current_range_meters":8800,"station_id":"st_cvj5dfep6f1abm77gieg","pricing_plan_id":"cebpf4jnsgd1na2vs0mg"},{"bike_id":"25652d4a-5511-4888-9669-acaf0916d2f4","system_id":"levelo_inurba_marseille","lat":43.29426,"lon":5.3859,"is_reserved":false,"is_disabled":false,"rental_uris":{"android":"levelo://app?vid=25652d4a-5511-4888-9669-acaf0916d2f4","ios":"levelo://app?vid=25652d4a-5511-4888-9669-acaf0916d2f4"},"vehicle_type_id":"4","last_reported":1752952079,"current_range_meters":9200,"station_id":"ce4bh2h2rcd13ifvqdh0","pricing_plan_id":"cebpf4jnsgd1na2vs0mg"},{"bike_id":"cf4d3384-91fb-48e3-9bd1-a32e556a01af","system_id":"levelo_inurba_marseille","lat":43.25491,"lon":5.3764,"is_reserved":false,"is_disabled":false,"rental_uris":{"android":"levelo://app?vid=cf4d3384-91fb-48e3-9bd1-a32e556a01af","ios":"levelo://app?vid=cf4d3384-91fb-48e3-9bd1-a32e556a01af"},"vehicle_type_id":"4","last_reported":1752952079,"current_range_meters":9200,"station_id":"ce4bhh12rcd13ifvqff0","pricing_plan_id":"cebpf4jnsgd1na2vs0mg"},{"bike_id":"1edfd83a-342b-4721-9f23-3e01838ffb5d","system_id":"levelo_inurba_marseille","lat":43.29968,"lon":5.38486,"is_reserved":false,"is_disabled":false,"rental_uris":{"android":"levelo://app?vid=1edfd83a-342b-4721-9f23-3e01838ffb5d","ios":"levelo://app?vid=1edfd83a-342b-4721-9f23-3e01838ffb5d"},"vehicle_type_id":"4","last_reported":1752952079,"current_range_meters":8000,"station_id":"ce4bgj92rcd13ifvqbd0","pricing_plan_id":"cebpf4jnsgd1na2vs0mg"},{"bike_id":"74040fcf-5fd4-40e9-a58a-b3373eb283ab","system_id":"levelo_inurba_marseille","lat":43.307323,"lon":5.424253,"is_reserved":false,"is_disabled":false,"rental_uris":{"android":"levelo://app?vid=74040fcf-5fd4-40e9-a58a-b3373eb283ab","ios":"levelo://app?vid=74040fcf-5fd4-40e9-a58a-b3373eb283ab"},"vehicle_type_id":"4","last_reported":1752952079,"current_range_meters":9200,"station_id":"st_cvj6ca6bvosntc0bfgr0","pricing_plan_id":"cebpf4jnsgd1na2vs0mg"},{"bike_id":"07031401-5de3-48ec-9421-390ae8f08d8a","system_id":"levelo_inurba_marseille","lat":43.29293,"lon":5.37466,"is_reserved":false,"is_disabled":false,"rental_uris":{"android":"levelo://app?vid=07031401-5de3-48ec-9421-390ae8f08d8a","ios":"levelo://app?vid=07031401-5de3-48ec-9421-390ae8f08d8a"},"vehicle_type_id":"4","last_reported":1752952079,"current_range_meters":9200,"station_id":"ce4bgi12rcd13ifvqb70","pricing_plan_id":"cebpf4jnsgd1na2vs0mg"},{"bike_id":"57a30f0b-84eb-4b98-8989-8d3c02b43bf0","system_id":"levelo_inurba_marseille","lat":43.28641,"lon":5.37012,"is_reserved":false,"is_disabled":false,"rental_uris":{"android":"levelo://app?vid=57a30f0b-84eb-4b98-8989-8d3c02b43bf0","ios":"levelo://app?vid=57a30f0b-84eb-4b98-8989-8d3c02b43bf0"},"vehicle_type_id":"4","last_reported":1752952079,"current_range_meters":9200,"station_id":"","pricing_plan_id":"cebpf4jnsgd1na2vs0mg"},{"bike_id":"df4e3dad-c1df-4112-b330-27fba42c48f7","system_id":"levelo_inurba_marseille","lat":43.31169,"lon":5.38716,"is_reserved":false,"is_disabled":false,"rental_uris":{"android":"levelo://app?vid=df4e3dad-c1df-4112-b330-27fba42c48f7","ios":"levelo://app?vid=df4e3dad-c1df-4112-b330-27fba42c48f7"},"vehicle_type_id":"4","last_reported":1752952079,"current_range_meters":9200,"station_id":"ce4bgv12rcd13ifvqcp0","pricing_plan_id":"cebpf4jnsgd1na2vs0mg"},{"bike_id":"cfb52d04-9134-4c86-8269-771716b20f27","system_id":"levelo_inurba_marseille","lat":43.21193,"lon":5.35067,"is_reserved":false,"is_disabled":false,"rental_uris":{"android":"levelo://app?vid=cfb52d04-9134-4c86-8269-771716b20f27","ios":"levelo://app?vid=cfb52d04-9134-4c86-8269-771716b20f27"},"vehicle_type_id":"4","last_reported":1752952079,"current_range_meters":9200,"station_id":"st_cvj6sg6p6f1abm77japg","pricing_plan_id":"cebpf4jnsgd1na2vs0mg"},{"bike_id":"2e5ca637-d18b-4819-bbd5-d98f1ed774bc","system_id":"levelo_inurba_marseille","lat":43.26923,"lon":5.40256,"is_reserved":false,"is_disabled":false,"rental_uris":{"android":"levelo://app?vid=2e5ca637-d18b-4819-bbd5-d98f1ed774bc","ios":"levelo://app?vid=2e5ca637-d18b-4819-bbd5-d98f1ed774bc"},"vehicle_type_id":"4","last_reported":1752952079,"current_range_meters":9600,"station_id":"cjm6bp8fraef2m0cb0m0","pricing_plan_id":"cebpf4jnsgd1na2vs0mg"},{"bike_id":"34305679-397b-4205-a2a1-6bbaa66c4395","system_id":"levelo_inurba_marseille","lat":43.27056,"lon":5.4026,"is_reserved":false,"is_disabled":false,"rental_uris":{"android":"levelo://app?vid=34305679-397b-4205-a2a1-6bbaa66c4395","ios":"levelo://app?vid=34305679-397b-4205-a2a1-6bbaa66c4395"},"vehicle_type_id":"4","last_reported":1752952079,"current_range_meters":9600,"station_id":"ce4bhk92rcd13ifvqgc0","pricing_plan_id":"cebpf4jnsgd1na2vs0mg"},{"bike_id":"13a8215d-b980-4aaf-9305-c13b60c9608a","system_id":"levelo_inurba_marseille","lat":43.30939,"lon":5.39028,"is_reserved":false,"is_disabled":false,"rental_uris":{"android":"levelo://app?vid=13a8215d-b980-4aaf-9305-c13b60c9608a","ios":"levelo://app?vid=13a8215d-b980-4aaf-9305-c13b60c9608a"},"vehicle_type_id":"4","last_reported":1752952079,"current_range_meters":9600,"station_id":"ce4bgup2rcd13ifvqco0","pricing_plan_id":"cebpf4jnsgd1na2vs0mg"},{"bike_id":"aee640cd-4458-4ce9-aa35-c252b099965a","system_id":"levelo_inurba_marseille","lat":43.320765,"lon":5.41508,"is_reserved":false,"is_disabled":false,"rental_uris":{"android":"levelo://app?vid=aee640cd-4458-4ce9-aa35-c252b099965a","ios":"levelo://app?vid=aee640cd-4458-4ce9-aa35-c252b099965a"},"vehicle_type_id":"4","last_reported":1752952079,"current_range_meters":9200,"station_id":"ce4bhq92rcd13ifvqhkg","pricing_plan_id":"cebpf4jnsgd1na2vs0mg"},{"bike_id":"71e7e8f6-d495-4cb4-9aa9-016e59797b4a","system_id":"levelo_inurba_marseille","lat":43.26198,"lon":5.3745,"is_reserved":false,"is_disabled":false,"rental_uris":{"android":"levelo://app?vid=71e7e8f6-d495-4cb4-9aa9-016e59797b4a","ios":"levelo://app?vid=71e7e8f6-d495-4cb4-9aa9-016e59797b4a"},"vehicle_type_id":"4","last_reported":1752952079,"current_range_meters":9600,"station_id":"ce4bhgp2rcd13ifvqfc0","pricing_plan_id":"cebpf4jnsgd1na2vs0mg"},{"bike_id":"6eb3e664-0db0-4cc9-b99a-6834a0cbac8b","system_id":"levelo_inurba_marseille","lat":43.23965,"lon":5.36628,"is_reserved":false,"is_disabled":false,"rental_uris":{"android":"levelo://app?vid=6eb3e664-0db0-4cc9-b99a-6834a0cbac8b","ios":"levelo://app?vid=6eb3e664-0db0-4cc9-b99a-6834a0cbac8b"},"vehicle_type_id":"4","last_reported":1752952079,"current_range_meters":9600,"station_id":"ce4bhi12rcd13ifvqfp0","pricing_plan_id":"cebpf4jnsgd1na2vs0mg"},{"bike_id":"c0e3d1b7-6467-464d-8cad-cbe0045da429","system_id":"levelo_inurba_marseille","lat":43.31076,"lon":5.38355,"is_reserved":false,"is_disabled":false,"rental_uris":{"android":"levelo://app?vid=c0e3d1b7-6467-464d-8cad-cbe0045da429","ios":"levelo://app?vid=c0e3d1b7-6467-464d-8cad-cbe0045da429"},"vehicle_type_id":"4","last_reported":1752952079,"current_range_meters":9600,"station_id":"ce4bgv92rcd13ifvqcr0","pricing_plan_id":"cebpf4jnsgd1na2vs0mg"},{"bike_id":"6f18ab1b-0c74-47b1-bed8-837677176207","system_id":"levelo_inurba_marseille","lat":43.32061,"lon":5.40898,"is_reserved":false,"is_disabled":false,"rental_uris":{"android":"levelo://app?vid=6f18ab1b-0c74-47b1-bed8-837677176207","ios":"levelo://app?vid=6f18ab1b-0c74-47b1-bed8-837677176207"},"vehicle_type_id":"4","last_reported":1752952079,"current_range_meters":9600,"station_id":"","pricing_plan_id":"cebpf4jnsgd1na2vs0mg"},{"bike_id":"3fd1f57e-2ca8-4f2a-a378-79a933ab5576","system_id":"levelo_inurba_marseille","lat":43.30138,"lon":5.3877,"is_reserved":false,"is_disabled":false,"rental_uris":{"android":"levelo://app?vid=3fd1f57e-2ca8-4f2a-a378-79a933ab5576","ios":"levelo://app?vid=3fd1f57e-2ca8-4f2a-a378-79a933ab5576"},"vehicle_type_id":"4","last_reported":1752952079,"current_range_meters":4800,"station_id":"ce4bghh2rcd13ifvqb60","pricing_plan_id":"cebpf4jnsgd1na2vs0mg"},{"bike_id":"7fe9cb0d-e9a6-4be7-946f-f60031476e9e","system_id":"levelo_inurba_marseille","lat":43.31488,"lon":5.37308,"is_reserved":false,"is_disabled":false,"rental_uris":{"android":"levelo://app?vid=7fe9cb0d-e9a6-4be7-946f-f60031476e9e","ios":"levelo://app?vid=7fe9cb0d-e9a6-4be7-946f-f60031476e9e"},"vehicle_type_id":"4","last_reported":1752952079,"current_range_meters":10000,"station_id":"ce4bgt12rcd13ifvqcd0","pricing_plan_id":"cebpf4jnsgd1na2vs0mg"},{"bike_id":"eb3e85f5-a55f-4898-86be-892eb29ade46","system_id":"levelo_inurba_marseille","lat":43.29712,"lon":5.36607,"is_reserved":false,"is_disabled":false,"rental_uris":{"android":"levelo://app?vid=eb3e85f5-a55f-4898-86be-892eb29ade46","ios":"levelo://app?vid=eb3e85f5-a55f-4898-86be-892eb29ade46"},"vehicle_type_id":"4","last_reported":1752952079,"current_range_meters":10000,"station_id":"ce4bgn12rcd13ifvqbt0","pricing_plan_id":"cebpf4jnsgd1na2vs0mg"},{"bike_id":"93f32558-d0c8-48ab-ba27-e1a1ccba7659","system_id":"levelo_inurba_marseille","lat":43.28608,"lon":5.35097,"is_reserved":false,"is_disabled":false,"rental_uris":{"android":"levelo://app?vid=93f32558-d0c8-48ab-ba27-e1a1ccba7659","ios":"levelo://app?vid=93f32558-d0c8-48ab-ba27-e1a1ccba7659"},"vehicle_type_id":"4","last_reported":1752952079,"current_range_meters":10000,"station_id":"ce4bhch2rcd13ifvqeug","pricing_plan_id":"cebpf4jnsgd1na2vs0mg"},{"bike_id":"35808219-5db5-4b9e-951b-af9db1301e12","system_id":"levelo_inurba_marseille","lat":43.22502,"lon":5.34787,"is_reserved":false,"is_disabled":false,"rental_uris":{"android":"levelo://app?vid=35808219-5db5-4b9e-951b-af9db1301e12","ios":"levelo://app?vid=35808219-5db5-4b9e-951b-af9db1301e12"},"vehicle_type_id":"4","last_reported":1752952079,"current_range_meters":10000,"station_id":"st_cvj5dfep6f1abm77gieg","pricing_plan_id":"cebpf4jnsgd1na2vs0mg"},{"bike_id":"94bc2d83-044d-47e9-9a52-bb6c99a3df4e","system_id":"levelo_inurba_marseille","lat":43.25492,"lon":5.37665,"is_reserved":false,"is_disabled":false,"rental_uris":{"android":"levelo://app?vid=94bc2d83-044d-47e9-9a52-bb6c99a3df4e","ios":"levelo://app?vid=94bc2d83-044d-47e9-9a52-bb6c99a3df4e"},"vehicle_type_id":"4","last_reported":1752952079,"current_range_meters":10000,"station_id":"ce4bhh12rcd13ifvqff0","pricing_plan_id":"cebpf4jnsgd1na2vs0mg"},{"bike_id":"741b15b8-211d-44e8-b4e3-0621fc8f6138","system_id":"levelo_inurba_marseille","lat":43.29309,"lon":5.37174,"is_reserved":false,"is_disabled":false,"rental_uris":{"android":"levelo://app?vid=741b15b8-211d-44e8-b4e3-0621fc8f6138","ios":"levelo://app?vid=741b15b8-211d-44e8-b4e3-0621fc8f6138"},"vehicle_type_id":"4","last_reported":1752952079,"current_range_meters":10000,"station_id":"ce4bgh92rcd13ifvqb40","pricing_plan_id":"cebpf4jnsgd1na2vs0mg"},{"bike_id":"a0bed47b-9f29-4ff7-bcbc-fdf55727fa0e","system_id":"levelo_inurba_marseille","lat":43.25002,"lon":5.38918,"is_reserved":false,"is_disabled":false,"rental_uris":{"android":"levelo://app?vid=a0bed47b-9f29-4ff7-bcbc-fdf55727fa0e","ios":"levelo://app?vid=a0bed47b-9f29-4ff7-bcbc-fdf55727fa0e"},"vehicle_type_id":"4","last_reported":1752952079,"current_range_meters":9600,"station_id":"ce4bhgp2rcd13ifvqfd0","pricing_plan_id":"cebpf4jnsgd1na2vs0mg"},{"bike_id":"b545278d-1ee4-4ad7-bc9f-6f9cf3676dfd","system_id":"levelo_inurba_marseille","lat":43.28428,"lon":5.34973,"is_reserved":false,"is_disabled":false,"rental_uris":{"android":"levelo://app?vid=b545278d-1ee4-4ad7-bc9f-6f9cf3676dfd","ios":"levelo://app?vid=b545278d-1ee4-4ad7-bc9f-6f9cf3676dfd"},"vehicle_type_id":"4","last_reported":1752952079,"current_range_meters":10000,"station_id":"ce4bhbh2rcd13ifvqepg","pricing_plan_id":"cebpf4jnsgd1na2vs0mg"},{"bike_id":"4773865f-b87f-4cf8-8ecd-bc7066f9852c","system_id":"levelo_inurba_marseille","lat":43.314905,"lon":5.373112,"is_reserved":false,"is_disabled":false,"rental_uris":{"android":"levelo://app?vid=4773865f-b87f-4cf8-8ecd-bc7066f9852c","ios":"levelo://app?vid=4773865f-b87f-4cf8-8ecd-bc7066f9852c"},"vehicle_type_id":"4","last_reported":1752952079,"current_range_meters":10000,"station_id":"","pricing_plan_id":"cebpf4jnsgd1na2vs0mg"},{"bike_id":"6acf6616-5bc2-413d-b8a9-de0cef45b2d4","system_id":"levelo_inurba_marseille","lat":43.24814,"lon":5.37466,"is_reserved":false,"is_disabled":true,"rental_uris":{"android":"levelo://app?vid=6acf6616-5bc2-413d-b8a9-de0cef45b2d4","ios":"levelo://app?vid=6acf6616-5bc2-413d-b8a9-de0cef45b2d4"},"vehicle_type_id":"4","last_reported":1752952079,"current_range_meters":10000,"station_id":"ce4bhgh2rcd13ifvqfb0","pricing_plan_id":"cebpf4jnsgd1na2vs0mg"},{"bike_id":"84af61b8-33ed-44e6-973c-e7d6c7592a35","system_id":"levelo_inurba_marseille","lat":43.3229,"lon":5.3827,"is_reserved":false,"is_disabled":false,"rental_uris":{"android":"levelo://app?vid=84af61b8-33ed-44e6-973c-e7d6c7592a35","ios":"levelo://app?vid=84af61b8-33ed-44e6-973c-e7d6c7592a35"},"vehicle_type_id":"4","last_reported":1752952079,"current_range_meters":10000,"station_id":"ce4bhr12rcd13ifvqhqg","pricing_plan_id":"cebpf4jnsgd1na2vs0mg"},{"bike_id":"0d9174fa-5c3b-4a5d-b71a-38d62bf28603","system_id":"levelo_inurba_marseille","lat":43.29618,"lon":5.37721,"is_reserved":false,"is_disabled":false,"rental_uris":{"android":"levelo://app?vid=0d9174fa-5c3b-4a5d-b71a-38d62bf28603","ios":"levelo://app?vid=0d9174fa-5c3b-4a5d-b71a-38d62bf28603"},"vehicle_type_id":"4","last_reported":1752952079,"current_range_meters":10000,"station_id":"ce4bgi92rcd13ifvqb90","pricing_plan_id":"cebpf4jnsgd1na2vs0mg"},{"bike_id":"cf9da0b2-9c2f-48ee-ae92-32a14e4d9b10","system_id":"levelo_inurba_marseille","lat":43.24803,"lon":5.37453,"is_reserved":false,"is_disabled":false,"rental_uris":{"android":"levelo://app?vid=cf9da0b2-9c2f-48ee-ae92-32a14e4d9b10","ios":"levelo://app?vid=cf9da0b2-9c2f-48ee-ae92-32a14e4d9b10"},"vehicle_type_id":"4","last_reported":1752952079,"current_range_meters":10800,"station_id":"ce4bhgh2rcd13ifvqfb0","pricing_plan_id":"cebpf4jnsgd1na2vs0mg"},{"bike_id":"1f35f77d-9f4a-4f02-900c-4104eadb16c4","system_id":"levelo_inurba_marseille","lat":43.25816,"lon":5.39434,"is_reserved":false,"is_disabled":false,"rental_uris":{"android":"levelo://app?vid=1f35f77d-9f4a-4f02-900c-4104eadb16c4","ios":"levelo://app?vid=1f35f77d-9f4a-4f02-900c-4104eadb16c4"},"vehicle_type_id":"4","last_reported":1752952079,"current_range_meters":10800,"station_id":"ce4bhip2rcd13ifvqft0","pricing_plan_id":"cebpf4jnsgd1na2vs0mg"},{"bike_id":"4b0ce299-727c-48ce-b95a-b67cdf638733","system_id":"levelo_inurba_marseille","lat":43.22499,"lon":5.34767,"is_reserved":false,"is_disabled":false,"rental_uris":{"android":"levelo://app?vid=4b0ce299-727c-48ce-b95a-b67cdf638733","ios":"levelo://app?vid=4b0ce299-727c-48ce-b95a-b67cdf638733"},"vehicle_type_id":"4","last_reported":1752952079,"current_range_meters":11200,"station_id":"st_cvj5dfep6f1abm77gieg","pricing_plan_id":"cebpf4jnsgd1na2vs0mg"},{"bike_id":"475b9799-8c28-49d7-a2bd-b989a871d401","system_id":"levelo_inurba_marseille","lat":43.240742,"lon":5.377536,"is_reserved":false,"is_disabled":true,"rental_uris":{"android":"levelo://app?vid=475b9799-8c28-49d7-a2bd-b989a871d401","ios":"levelo://app?vid=475b9799-8c28-49d7-a2bd-b989a871d401"},"vehicle_type_id":"4","last_reported":1752952079,"current_range_meters":11200,"station_id":"ce4bhnp2rcd13ifvqgvg","pricing_plan_id":"cebpf4jnsgd1na2vs0mg"},{"bike_id":"0b7ecae2-4b75-4ba4-98f9-2158ef2d52e7","system_id":"levelo_inurba_marseille","lat":43.2861,"lon":5.37057,"is_reserved":false,"is_disabled":false,"rental_uris":{"android":"levelo://app?vid=0b7ecae2-4b75-4ba4-98f9-2158ef2d52e7","ios":"levelo://app?vid=0b7ecae2-4b75-4ba4-98f9-2158ef2d52e7"},"vehicle_type_id":"4","last_reported":1752952079,"current_range_meters":5600,"station_id":"ce4bht12rcd13ifvqi60","pricing_plan_id":"cebpf4jnsgd1na2vs0mg"},{"bike_id":"27d4ff55-a9b6-4fcf-a8d5-743c00d0f902","system_id":"levelo_inurba_marseille","lat":43.31168,"lon":5.38714,"is_reserved":false,"is_disabled":false,"rental_uris":{"android":"levelo://app?vid=27d4ff55-a9b6-4fcf-a8d5-743c00d0f902","ios":"levelo://app?vid=27d4ff55-a9b6-4fcf-a8d5-743c00d0f902"},"vehicle_type_id":"4","last_reported":1752952079,"current_range_meters":11200,"station_id":"ce4bgv12rcd13ifvqcp0","pricing_plan_id":"cebpf4jnsgd1na2vs0mg"},{"bike_id":"0e8aada6-fff9-417b-9804-4a7763718d11","system_id":"levelo_inurba_marseille","lat":43.30432,"lon":5.38896,"is_reserved":false,"is_disabled":false,"rental_uris":{"android":"levelo://app?vid=0e8aada6-fff9-417b-9804-4a7763718d11","ios":"levelo://app?vid=0e8aada6-fff9-417b-9804-4a7763718d11"},"vehicle_type_id":"4","last_reported":1752952079,"current_range_meters":11200,"station_id":"ce4bgk12rcd13ifvqbi0","pricing_plan_id":"cebpf4jnsgd1na2vs0mg"},{"bike_id":"252ba4fd-ef21-4868-a925-836be711bf82","system_id":"levelo_inurba_marseille","lat":43.29422,"lon":5.38595,"is_reserved":false,"is_disabled":false,"rental_uris":{"android":"levelo://app?vid=252ba4fd-ef21-4868-a925-836be711bf82","ios":"levelo://app?vid=252ba4fd-ef21-4868-a925-836be711bf82"},"vehicle_type_id":"4","last_reported":1752952079,"current_range_meters":11200,"station_id":"ce4bh2h2rcd13ifvqdh0","pricing_plan_id":"cebpf4jnsgd1na2vs0mg"},{"bike_id":"96579d04-b9e9-484c-9b9a-af500e5e8552","system_id":"levelo_inurba_marseille","lat":43.32649,"lon":5.36377,"is_reserved":false,"is_disabled":false,"rental_uris":{"android":"levelo://app?vid=96579d04-b9e9-484c-9b9a-af500e5e8552","ios":"levelo://app?vid=96579d04-b9e9-484c-9b9a-af500e5e8552"},"vehicle_type_id":"4","last_reported":1752952079,"current_range_meters":11200,"station_id":"","pricing_plan_id":"cebpf4jnsgd1na2vs0mg"},{"bike_id":"e3e45220-9535-45a9-9414-2a4df9387de7","system_id":"levelo_inurba_marseille","lat":43.25679,"lon":5.41161,"is_reserved":false,"is_disabled":false,"rental_uris":{"android":"levelo://app?vid=e3e45220-9535-45a9-9414-2a4df9387de7","ios":"levelo://app?vid=e3e45220-9535-45a9-9414-2a4df9387de7"},"vehicle_type_id":"4","last_reported":1752952079,"current_range_meters":11200,"station_id":"ce4bhkp2rcd13ifvqgd0","pricing_plan_id":"cebpf4jnsgd1na2vs0mg"},{"bike_id":"e13c101c-255c-419a-bf37-e1dc67e54c4a","system_id":"levelo_inurba_marseille","lat":43.27294,"lon":5.36274,"is_reserved":false,"is_disabled":false,"rental_uris":{"android":"levelo://app?vid=e13c101c-255c-419a-bf37-e1dc67e54c4a","ios":"levelo://app?vid=e13c101c-255c-419a-bf37-e1dc67e54c4a"},"vehicle_type_id":"4","last_reported":1752952079,"current_range_meters":11600,"station_id":"","pricing_plan_id":"cebpf4jnsgd1na2vs0mg"},{"bike_id":"a650875e-dab1-4190-8d4b-30bfcfb0ee5b","system_id":"levelo_inurba_marseille","lat":43.21742,"lon":5.34594,"is_reserved":false,"is_disabled":false,"rental_uris":{"android":"levelo://app?vid=a650875e-dab1-4190-8d4b-30bfcfb0ee5b","ios":"levelo://app?vid=a650875e-dab1-4190-8d4b-30bfcfb0ee5b"},"vehicle_type_id":"4","last_reported":1752952079,"current_range_meters":11600,"station_id":"st_cvj6r9ubvosntc0bgbag","pricing_plan_id":"cebpf4jnsgd1na2vs0mg"},{"bike_id":"78dac670-8038-4764-9038-c62b6c645d4b","system_id":"levelo_inurba_marseille","lat":43.31773,"lon":5.38557,"is_reserved":false,"is_disabled":false,"rental_uris":{"android":"levelo://app?vid=78dac670-8038-4764-9038-c62b6c645d4b","ios":"levelo://app?vid=78dac670-8038-4764-9038-c62b6c645d4b"},"vehicle_type_id":"4","last_reported":1752952079,"current_range_meters":11600,"station_id":"","pricing_plan_id":"cebpf4jnsgd1na2vs0mg"},{"bike_id":"875e79b8-828f-41e0-8e09-6cdd5634f137","system_id":"levelo_inurba_marseille","lat":43.284161,"lon":5.349902,"is_reserved":false,"is_disabled":false,"rental_uris":{"android":"levelo://app?vid=875e79b8-828f-41e0-8e09-6cdd5634f137","ios":"levelo://app?vid=875e79b8-828f-41e0-8e09-6cdd5634f137"},"vehicle_type_id":"4","last_reported":1752952079,"current_range_meters":11600,"station_id":"ce4bhbh2rcd13ifvqepg","pricing_plan_id":"cebpf4jnsgd1na2vs0mg"},{"bike_id":"ac141403-2eff-454e-8bd1-3d400d40ed2b","system_id":"levelo_inurba_marseille","lat":43.3312,"lon":5.39963,"is_reserved":false,"is_disabled":false,"rental_uris":{"android":"levelo://app?vid=ac141403-2eff-454e-8bd1-3d400d40ed2b","ios":"levelo://app?vid=ac141403-2eff-454e-8bd1-3d400d40ed2b"},"vehicle_type_id":"4","last_reported":1752952079,"current_range_meters":11600,"station_id":"","pricing_plan_id":"cebpf4jnsgd1na2vs0mg"},{"bike_id":"cb45790e-0f2e-4e73-bdb0-7fbfd97ed29b","system_id":"levelo_inurba_marseille","lat":43.29889,"lon":5.43651,"is_reserved":false,"is_disabled":false,"rental_uris":{"android":"levelo://app?vid=cb45790e-0f2e-4e73-bdb0-7fbfd97ed29b","ios":"levelo://app?vid=cb45790e-0f2e-4e73-bdb0-7fbfd97ed29b"},"vehicle_type_id":"4","last_reported":1752952079,"current_range_meters":11600,"station_id":"ce4bhpp2rcd13ifvqhfg","pricing_plan_id":"cebpf4jnsgd1na2vs0mg"},{"bike_id":"779179fb-89f0-4f19-a8e1-bcf9140d6a02","system_id":"levelo_inurba_marseille","lat":43.294255,"lon":5.386707,"is_reserved":false,"is_disabled":false,"rental_uris":{"android":"levelo://app?vid=779179fb-89f0-4f19-a8e1-bcf9140d6a02","ios":"levelo://app?vid=779179fb-89f0-4f19-a8e1-bcf9140d6a02"},"vehicle_type_id":"4","last_reported":1752952079,"current_range_meters":11600,"station_id":"ce4bh2h2rcd13ifvqdh0","pricing_plan_id":"cebpf4jnsgd1na2vs0mg"},{"bike_id":"d7149a46-fb39-4935-aa6a-50600ec45c29","system_id":"levelo_inurba_marseille","lat":43.21752,"lon":5.34589,"is_reserved":false,"is_disabled":true,"rental_uris":{"android":"levelo://app?vid=d7149a46-fb39-4935-aa6a-50600ec45c29","ios":"levelo://app?vid=d7149a46-fb39-4935-aa6a-50600ec45c29"},"vehicle_type_id":"4","last_reported":1752952079,"current_range_meters":11600,"station_id":"st_cvj6r9ubvosntc0bgbag","pricing_plan_id":"cebpf4jnsgd1na2vs0mg"},{"bike_id":"dec9d31e-0eb4-4e53-8bf4-b8964ec46e69","system_id":"levelo_inurba_marseille","lat":43.30947,"lon":5.39035,"is_reserved":false,"is_disabled":false,"rental_uris":{"android":"levelo://app?vid=dec9d31e-0eb4-4e53-8bf4-b8964ec46e69","ios":"levelo://app?vid=dec9d31e-0eb4-4e53-8bf4-b8964ec46e69"},"vehicle_type_id":"4","last_reported":1752952079,"current_range_meters":12000,"station_id":"ce4bgup2rcd13ifvqco0","pricing_plan_id":"cebpf4jnsgd1na2vs0mg"},{"bike_id":"e8fda0aa-0a49-4b55-95a7-3ae6a93822a1","system_id":"levelo_inurba_marseille","lat":43.32535,"lon":5.41444,"is_reserved":false,"is_disabled":false,"rental_uris":{"android":"levelo://app?vid=e8fda0aa-0a49-4b55-95a7-3ae6a93822a1","ios":"levelo://app?vid=e8fda0aa-0a49-4b55-95a7-3ae6a93822a1"},"vehicle_type_id":"4","last_reported":1752952079,"current_range_meters":12000,"station_id":"ce4bhq12rcd13ifvqhhg","pricing_plan_id":"cebpf4jnsgd1na2vs0mg"},{"bike_id":"08ad2eb2-71f8-46c7-bfe0-3e1c5ab65afc","system_id":"levelo_inurba_marseille","lat":43.27371,"lon":5.36255,"is_reserved":false,"is_disabled":false,"rental_uris":{"android":"levelo://app?vid=08ad2eb2-71f8-46c7-bfe0-3e1c5ab65afc","ios":"levelo://app?vid=08ad2eb2-71f8-46c7-bfe0-3e1c5ab65afc"},"vehicle_type_id":"4","last_reported":1752952079,"current_range_meters":14400,"station_id":"ce4bhbh2rcd13ifvqeo0","pricing_plan_id":"cebpf4jnsgd1na2vs0mg"},{"bike_id":"d9749d8f-7121-4a45-ac25-8f48b28876d4","system_id":"levelo_inurba_marseille","lat":43.28088,"lon":5.35205,"is_reserved":false,"is_disabled":false,"rental_uris":{"android":"levelo://app?vid=d9749d8f-7121-4a45-ac25-8f48b28876d4","ios":"levelo://app?vid=d9749d8f-7121-4a45-ac25-8f48b28876d4"},"vehicle_type_id":"4","last_reported":1752952079,"current_range_meters":12000,"station_id":"","pricing_plan_id":"cebpf4jnsgd1na2vs0mg"},{"bike_id":"fefb77b0-2a56-42df-9936-58f211846461","system_id":"levelo_inurba_marseille","lat":43.30945,"lon":5.39036,"is_reserved":false,"is_disabled":false,"rental_uris":{"android":"levelo://app?vid=fefb77b0-2a56-42df-9936-58f211846461","ios":"levelo://app?vid=fefb77b0-2a56-42df-9936-58f211846461"},"vehicle_type_id":"4","last_reported":1752952079,"current_range_meters":12000,"station_id":"ce4bgup2rcd13ifvqco0","pricing_plan_id":"cebpf4jnsgd1na2vs0mg"},{"bike_id":"a5bd850c-70ba-4646-83ef-08f50a6e3ee4","system_id":"levelo_inurba_marseille","lat":43.239476,"lon":5.366651,"is_reserved":false,"is_disabled":false,"rental_uris":{"android":"levelo://app?vid=a5bd850c-70ba-4646-83ef-08f50a6e3ee4","ios":"levelo://app?vid=a5bd850c-70ba-4646-83ef-08f50a6e3ee4"},"vehicle_type_id":"4","last_reported":1752952079,"current_range_meters":12000,"station_id":"ce4bhi12rcd13ifvqfp0","pricing_plan_id":"cebpf4jnsgd1na2vs0mg"},{"bike_id":"dbfb380f-9e3e-4b39-a5ac-71ab48600195","system_id":"levelo_inurba_marseille","lat":43.28079,"lon":5.39656,"is_reserved":false,"is_disabled":false,"rental_uris":{"android":"levelo://app?vid=dbfb380f-9e3e-4b39-a5ac-71ab48600195","ios":"levelo://app?vid=dbfb380f-9e3e-4b39-a5ac-71ab48600195"},"vehicle_type_id":"4","last_reported":1752952079,"current_range_meters":12000,"station_id":"ce4bho12rcd13ifvqh2g","pricing_plan_id":"cebpf4jnsgd1na2vs0mg"},{"bike_id":"40382f90-2ff0-425b-9d60-e0ebb2e17930","system_id":"levelo_inurba_marseille","lat":43.27997,"lon":5.41664,"is_reserved":false,"is_disabled":false,"rental_uris":{"android":"levelo://app?vid=40382f90-2ff0-425b-9d60-e0ebb2e17930","ios":"levelo://app?vid=40382f90-2ff0-425b-9d60-e0ebb2e17930"},"vehicle_type_id":"4","last_reported":1752952079,"current_range_meters":12000,"station_id":"ce4bho12rcd13ifvqh1g","pricing_plan_id":"cebpf4jnsgd1na2vs0mg"},{"bike_id":"6993a81c-fa14-4a47-be56-af2e854ea71d","system_id":"levelo_inurba_marseille","lat":43.28003,"lon":5.40004,"is_reserved":false,"is_disabled":false,"rental_uris":{"android":"levelo://app?vid=6993a81c-fa14-4a47-be56-af2e854ea71d","ios":"levelo://app?vid=6993a81c-fa14-4a47-be56-af2e854ea71d"},"vehicle_type_id":"4","last_reported":1752952079,"current_range_meters":12000,"station_id":"ce4bho92rcd13ifvqh4g","pricing_plan_id":"cebpf4jnsgd1na2vs0mg"},{"bike_id":"ab22402c-6609-4c48-b37f-f8d88a2c88af","system_id":"levelo_inurba_marseille","lat":43.25822,"lon":5.39436,"is_reserved":false,"is_disabled":false,"rental_uris":{"android":"levelo://app?vid=ab22402c-6609-4c48-b37f-f8d88a2c88af","ios":"levelo://app?vid=ab22402c-6609-4c48-b37f-f8d88a2c88af"},"vehicle_type_id":"4","last_reported":1752952079,"current_range_meters":11600,"station_id":"ce4bhip2rcd13ifvqft0","pricing_plan_id":"cebpf4jnsgd1na2vs0mg"},{"bike_id":"94c07cb2-0943-4d24-99f2-97bdab47aa3f","system_id":"levelo_inurba_marseille","lat":43.337444,"lon":5.374475,"is_reserved":false,"is_disabled":false,"rental_uris":{"android":"levelo://app?vid=94c07cb2-0943-4d24-99f2-97bdab47aa3f","ios":"levelo://app?vid=94c07cb2-0943-4d24-99f2-97bdab47aa3f"},"vehicle_type_id":"4","last_reported":1752952079,"current_range_meters":12000,"station_id":"","pricing_plan_id":"cebpf4jnsgd1na2vs0mg"},{"bike_id":"1dbf2136-f97c-44d6-9a3b-28225cdc0487","system_id":"levelo_inurba_marseille","lat":43.24178,"lon":5.39726,"is_reserved":false,"is_disabled":false,"rental_uris":{"android":"levelo://app?vid=1dbf2136-f97c-44d6-9a3b-28225cdc0487","ios":"levelo://app?vid=1dbf2136-f97c-44d6-9a3b-28225cdc0487"},"vehicle_type_id":"4","last_reported":1752952079,"current_range_meters":12400,"station_id":"ce4bhn12rcd13ifvqgpg","pricing_plan_id":"cebpf4jnsgd1na2vs0mg"},{"bike_id":"f1809c6d-a698-4f48-95f7-3baa320675f9","system_id":"levelo_inurba_marseille","lat":43.2862,"lon":5.35099,"is_reserved":false,"is_disabled":false,"rental_uris":{"android":"levelo://app?vid=f1809c6d-a698-4f48-95f7-3baa320675f9","ios":"levelo://app?vid=f1809c6d-a698-4f48-95f7-3baa320675f9"},"vehicle_type_id":"4","last_reported":1752952079,"current_range_meters":12400,"station_id":"ce4bhch2rcd13ifvqeug","pricing_plan_id":"cebpf4jnsgd1na2vs0mg"},{"bike_id":"b9fced18-9d1a-4197-85f4-d3fcdf201017","system_id":"levelo_inurba_marseille","lat":43.29868,"lon":5.39734,"is_reserved":false,"is_disabled":false,"rental_uris":{"android":"levelo://app?vid=b9fced18-9d1a-4197-85f4-d3fcdf201017","ios":"levelo://app?vid=b9fced18-9d1a-4197-85f4-d3fcdf201017"},"vehicle_type_id":"4","last_reported":1752952079,"current_range_meters":12400,"station_id":"","pricing_plan_id":"cebpf4jnsgd1na2vs0mg"},{"bike_id":"d1381b68-1bce-4c98-9d41-e5f856dfe042","system_id":"levelo_inurba_marseille","lat":43.28607,"lon":5.35103,"is_reserved":false,"is_disabled":false,"rental_uris":{"android":"levelo://app?vid=d1381b68-1bce-4c98-9d41-e5f856dfe042","ios":"levelo://app?vid=d1381b68-1bce-4c98-9d41-e5f856dfe042"},"vehicle_type_id":"4","last_reported":1752952079,"current_range_meters":12400,"station_id":"ce4bhch2rcd13ifvqeug","pricing_plan_id":"cebpf4jnsgd1na2vs0mg"},{"bike_id":"4b8dc513-60f0-49ad-b282-0ce57025de3b","system_id":"levelo_inurba_marseille","lat":43.2621,"lon":5.3744,"is_reserved":false,"is_disabled":false,"rental_uris":{"android":"levelo://app?vid=4b8dc513-60f0-49ad-b282-0ce57025de3b","ios":"levelo://app?vid=4b8dc513-60f0-49ad-b282-0ce57025de3b"},"vehicle_type_id":"4","last_reported":1752952079,"current_range_meters":12400,"station_id":"ce4bhgp2rcd13ifvqfc0","pricing_plan_id":"cebpf4jnsgd1na2vs0mg"},{"bike_id":"81379d5c-b587-4a32-b8d5-56741410afac","system_id":"levelo_inurba_marseille","lat":43.25827,"lon":5.394386,"is_reserved":false,"is_disabled":false,"rental_uris":{"android":"levelo://app?vid=81379d5c-b587-4a32-b8d5-56741410afac","ios":"levelo://app?vid=81379d5c-b587-4a32-b8d5-56741410afac"},"vehicle_type_id":"4","last_reported":1752952079,"current_range_meters":12400,"station_id":"ce4bhip2rcd13ifvqft0","pricing_plan_id":"cebpf4jnsgd1na2vs0mg"},{"bike_id":"1e2db9af-b5ea-4200-b3b9-7fac9764b08e","system_id":"levelo_inurba_marseille","lat":43.31182,"lon":5.38724,"is_reserved":false,"is_disabled":false,"rental_uris":{"android":"levelo://app?vid=1e2db9af-b5ea-4200-b3b9-7fac9764b08e","ios":"levelo://app?vid=1e2db9af-b5ea-4200-b3b9-7fac9764b08e"},"vehicle_type_id":"4","last_reported":1752952079,"current_range_meters":12400,"station_id":"ce4bgv12rcd13ifvqcp0","pricing_plan_id":"cebpf4jnsgd1na2vs0mg"},{"bike_id":"76be2c35-c55f-40d4-ac62-3b68fa26d931","system_id":"levelo_inurba_marseille","lat":43.31168,"lon":5.38704,"is_reserved":false,"is_disabled":false,"rental_uris":{"android":"levelo://app?vid=76be2c35-c55f-40d4-ac62-3b68fa26d931","ios":"levelo://app?vid=76be2c35-c55f-40d4-ac62-3b68fa26d931"},"vehicle_type_id":"4","last_reported":1752952079,"current_range_meters":12000,"station_id":"ce4bgv12rcd13ifvqcp0","pricing_plan_id":"cebpf4jnsgd1na2vs0mg"},{"bike_id":"26d4151f-9549-44eb-a5f4-acb24ea42496","system_id":"levelo_inurba_marseille","lat":43.295543,"lon":5.422944,"is_reserved":false,"is_disabled":false,"rental_uris":{"android":"levelo://app?vid=26d4151f-9549-44eb-a5f4-acb24ea42496","ios":"levelo://app?vid=26d4151f-9549-44eb-a5f4-acb24ea42496"},"vehicle_type_id":"4","last_reported":1752952079,"current_range_meters":12400,"station_id":"ce4bhph2rcd13ifvqhdg","pricing_plan_id":"cebpf4jnsgd1na2vs0mg"},{"bike_id":"9eee562f-c74b-4c1a-8fa0-1792764207de","system_id":"levelo_inurba_marseille","lat":43.25488,"lon":5.37653,"is_reserved":false,"is_disabled":false,"rental_uris":{"android":"levelo://app?vid=9eee562f-c74b-4c1a-8fa0-1792764207de","ios":"levelo://app?vid=9eee562f-c74b-4c1a-8fa0-1792764207de"},"vehicle_type_id":"4","last_reported":1752952079,"current_range_meters":12800,"station_id":"ce4bhh12rcd13ifvqff0","pricing_plan_id":"cebpf4jnsgd1na2vs0mg"},{"bike_id":"9f96b854-e027-4c40-b573-f426a572ccbf","system_id":"levelo_inurba_marseille","lat":43.32959,"lon":5.39742,"is_reserved":false,"is_disabled":false,"rental_uris":{"android":"levelo://app?vid=9f96b854-e027-4c40-b573-f426a572ccbf","ios":"levelo://app?vid=9f96b854-e027-4c40-b573-f426a572ccbf"},"vehicle_type_id":"4","last_reported":1752952079,"current_range_meters":12800,"station_id":"","pricing_plan_id":"cebpf4jnsgd1na2vs0mg"},{"bike_id":"f9d8db9c-e2b5-49b3-a065-ecbddb17acfb","system_id":"levelo_inurba_marseille","lat":43.30957,"lon":5.39027,"is_reserved":false,"is_disabled":false,"rental_uris":{"android":"levelo://app?vid=f9d8db9c-e2b5-49b3-a065-ecbddb17acfb","ios":"levelo://app?vid=f9d8db9c-e2b5-49b3-a065-ecbddb17acfb"},"vehicle_type_id":"4","last_reported":1752952079,"current_range_meters":12800,"station_id":"ce4bgup2rcd13ifvqco0","pricing_plan_id":"cebpf4jnsgd1na2vs0mg"},{"bike_id":"b970126c-c1c3-439a-8880-44ad88bd90cf","system_id":"levelo_inurba_marseille","lat":43.321249,"lon":5.367739,"is_reserved":false,"is_disabled":false,"rental_uris":{"android":"levelo://app?vid=b970126c-c1c3-439a-8880-44ad88bd90cf","ios":"levelo://app?vid=b970126c-c1c3-439a-8880-44ad88bd90cf"},"vehicle_type_id":"4","last_reported":1752952079,"current_range_meters":12800,"station_id":"ce4bhrh2rcd13ifvqhug","pricing_plan_id":"cebpf4jnsgd1na2vs0mg"},{"bike_id":"66350367-0e49-41be-bbe9-e7a64fe34639","system_id":"levelo_inurba_marseille","lat":43.3247,"lon":5.3656,"is_reserved":false,"is_disabled":false,"rental_uris":{"android":"levelo://app?vid=66350367-0e49-41be-bbe9-e7a64fe34639","ios":"levelo://app?vid=66350367-0e49-41be-bbe9-e7a64fe34639"},"vehicle_type_id":"4","last_reported":1752952079,"current_range_meters":12800,"station_id":"ce4bhs12rcd13ifvqhvg","pricing_plan_id":"cebpf4jnsgd1na2vs0mg"},{"bike_id":"7360b2c1-827d-4a45-ba07-948ef7d2fc35","system_id":"levelo_inurba_marseille","lat":43.229295,"lon":5.353761,"is_reserved":false,"is_disabled":false,"rental_uris":{"android":"levelo://app?vid=7360b2c1-827d-4a45-ba07-948ef7d2fc35","ios":"levelo://app?vid=7360b2c1-827d-4a45-ba07-948ef7d2fc35"},"vehicle_type_id":"4","last_reported":1752952079,"current_range_meters":12800,"station_id":"","pricing_plan_id":"cebpf4jnsgd1na2vs0mg"},{"bike_id":"d1e9c72e-7489-4052-b944-813b64bc55b4","system_id":"levelo_inurba_marseille","lat":43.31587,"lon":5.38924,"is_reserved":false,"is_disabled":false,"rental_uris":{"android":"levelo://app?vid=d1e9c72e-7489-4052-b944-813b64bc55b4","ios":"levelo://app?vid=d1e9c72e-7489-4052-b944-813b64bc55b4"},"vehicle_type_id":"4","last_reported":1752952079,"current_range_meters":12800,"station_id":"","pricing_plan_id":"cebpf4jnsgd1na2vs0mg"},{"bike_id":"3ad37f1b-5c1c-42bb-8c8a-36228b5bd575","system_id":"levelo_inurba_marseille","lat":43.24661,"lon":5.38157,"is_reserved":false,"is_disabled":false,"rental_uris":{"android":"levelo://app?vid=3ad37f1b-5c1c-42bb-8c8a-36228b5bd575","ios":"levelo://app?vid=3ad37f1b-5c1c-42bb-8c8a-36228b5bd575"},"vehicle_type_id":"4","last_reported":1752952079,"current_range_meters":12800,"station_id":"ce4bhih2rcd13ifvqfr0","pricing_plan_id":"cebpf4jnsgd1na2vs0mg"},{"bike_id":"6c94a3c6-eefd-42a4-8b56-a2b409bbbaa7","system_id":"levelo_inurba_marseille","lat":43.25813,"lon":5.39431,"is_reserved":false,"is_disabled":false,"rental_uris":{"android":"levelo://app?vid=6c94a3c6-eefd-42a4-8b56-a2b409bbbaa7","ios":"levelo://app?vid=6c94a3c6-eefd-42a4-8b56-a2b409bbbaa7"},"vehicle_type_id":"4","last_reported":1752952079,"current_range_meters":12800,"station_id":"ce4bhip2rcd13ifvqft0","pricing_plan_id":"cebpf4jnsgd1na2vs0mg"},{"bike_id":"04875c53-372c-4c72-9234-b6655053e6f6","system_id":"levelo_inurba_marseille","lat":43.264696,"lon":5.373376,"is_reserved":false,"is_disabled":false,"rental_uris":{"android":"levelo://app?vid=04875c53-372c-4c72-9234-b6655053e6f6","ios":"levelo://app?vid=04875c53-372c-4c72-9234-b6655053e6f6"},"vehicle_type_id":"4","last_reported":1752952079,"current_range_meters":13600,"station_id":"ce4bhh92rcd13ifvqfh0","pricing_plan_id":"cebpf4jnsgd1na2vs0mg"},{"bike_id":"b32d1a93-0beb-427d-955f-7686e06dec9b","system_id":"levelo_inurba_marseille","lat":43.23186,"lon":5.35546,"is_reserved":false,"is_disabled":false,"rental_uris":{"android":"levelo://app?vid=b32d1a93-0beb-427d-955f-7686e06dec9b","ios":"levelo://app?vid=b32d1a93-0beb-427d-955f-7686e06dec9b"},"vehicle_type_id":"4","last_reported":1752952079,"current_range_meters":13600,"station_id":"ce4bhu92rcd13ifvqi70","pricing_plan_id":"cebpf4jnsgd1na2vs0mg"},{"bike_id":"82eeb3dc-bcaf-4681-8ac3-94ba4f20dd0e","system_id":"levelo_inurba_marseille","lat":43.28611,"lon":5.35098,"is_reserved":false,"is_disabled":false,"rental_uris":{"android":"levelo://app?vid=82eeb3dc-bcaf-4681-8ac3-94ba4f20dd0e","ios":"levelo://app?vid=82eeb3dc-bcaf-4681-8ac3-94ba4f20dd0e"},"vehicle_type_id":"4","last_reported":1752952079,"current_range_meters":13600,"station_id":"ce4bhch2rcd13ifvqeug","pricing_plan_id":"cebpf4jnsgd1na2vs0mg"},{"bike_id":"69174324-2b6a-4eaf-b188-60080a25b908","system_id":"levelo_inurba_marseille","lat":43.32365,"lon":5.36747,"is_reserved":false,"is_disabled":false,"rental_uris":{"android":"levelo://app?vid=69174324-2b6a-4eaf-b188-60080a25b908","ios":"levelo://app?vid=69174324-2b6a-4eaf-b188-60080a25b908"},"vehicle_type_id":"4","last_reported":1752952079,"current_range_meters":13600,"station_id":"ce4bhsh2rcd13ifvqi2g","pricing_plan_id":"cebpf4jnsgd1na2vs0mg"},{"bike_id":"c3239f38-a480-458c-989a-c445241004ea","system_id":"levelo_inurba_marseille","lat":43.30934,"lon":5.39059,"is_reserved":false,"is_disabled":false,"rental_uris":{"android":"levelo://app?vid=c3239f38-a480-458c-989a-c445241004ea","ios":"levelo://app?vid=c3239f38-a480-458c-989a-c445241004ea"},"vehicle_type_id":"4","last_reported":1752952079,"current_range_meters":13600,"station_id":"ce4bgup2rcd13ifvqco0","pricing_plan_id":"cebpf4jnsgd1na2vs0mg"},{"bike_id":"d4f7966d-1541-41ca-b9ac-b8a2201ca11d","system_id":"levelo_inurba_marseille","lat":43.30943,"lon":5.39049,"is_reserved":false,"is_disabled":false,"rental_uris":{"android":"levelo://app?vid=d4f7966d-1541-41ca-b9ac-b8a2201ca11d","ios":"levelo://app?vid=d4f7966d-1541-41ca-b9ac-b8a2201ca11d"},"vehicle_type_id":"4","last_reported":1752952079,"current_range_meters":13600,"station_id":"ce4bgup2rcd13ifvqco0","pricing_plan_id":"cebpf4jnsgd1na2vs0mg"},{"bike_id":"fc6b25a3-506b-4c18-b7ea-c56c67a95aa9","system_id":"levelo_inurba_marseille","lat":43.28421,"lon":5.34995,"is_reserved":false,"is_disabled":false,"rental_uris":{"android":"levelo://app?vid=fc6b25a3-506b-4c18-b7ea-c56c67a95aa9","ios":"levelo://app?vid=fc6b25a3-506b-4c18-b7ea-c56c67a95aa9"},"vehicle_type_id":"4","last_reported":1752952079,"current_range_meters":13600,"station_id":"ce4bhbh2rcd13ifvqepg","pricing_plan_id":"cebpf4jnsgd1na2vs0mg"},{"bike_id":"b3c5a29a-caee-4b6b-9dfc-fac2d1ca3742","system_id":"levelo_inurba_marseille","lat":43.28475,"lon":5.35886,"is_reserved":false,"is_disabled":false,"rental_uris":{"android":"levelo://app?vid=b3c5a29a-caee-4b6b-9dfc-fac2d1ca3742","ios":"levelo://app?vid=b3c5a29a-caee-4b6b-9dfc-fac2d1ca3742"},"vehicle_type_id":"4","last_reported":1752952079,"current_range_meters":14000,"station_id":"ce4bhah2rcd13ifvqei0","pricing_plan_id":"cebpf4jnsgd1na2vs0mg"},{"bike_id":"fdbeb289-adb3-4e25-b0dd-c635efbe92b2","system_id":"levelo_inurba_marseille","lat":43.31683,"lon":5.40455,"is_reserved":false,"is_disabled":false,"rental_uris":{"android":"levelo://app?vid=fdbeb289-adb3-4e25-b0dd-c635efbe92b2","ios":"levelo://app?vid=fdbeb289-adb3-4e25-b0dd-c635efbe92b2"},"vehicle_type_id":"4","last_reported":1752952079,"current_range_meters":14000,"station_id":"ce4bh012rcd13ifvqd00","pricing_plan_id":"cebpf4jnsgd1na2vs0mg"},{"bike_id":"c9ffd04b-c3a5-49bc-9896-054acbb108c7","system_id":"levelo_inurba_marseille","lat":43.22505,"lon":5.34773,"is_reserved":false,"is_disabled":false,"rental_uris":{"android":"levelo://app?vid=c9ffd04b-c3a5-49bc-9896-054acbb108c7","ios":"levelo://app?vid=c9ffd04b-c3a5-49bc-9896-054acbb108c7"},"vehicle_type_id":"4","last_reported":1752952079,"current_range_meters":14000,"station_id":"st_cvj5dfep6f1abm77gieg","pricing_plan_id":"cebpf4jnsgd1na2vs0mg"},{"bike_id":"0b4d64d7-ce07-4b5c-9792-6df1ddd2d170","system_id":"levelo_inurba_marseille","lat":43.30948,"lon":5.39036,"is_reserved":false,"is_disabled":false,"rental_uris":{"android":"levelo://app?vid=0b4d64d7-ce07-4b5c-9792-6df1ddd2d170","ios":"levelo://app?vid=0b4d64d7-ce07-4b5c-9792-6df1ddd2d170"},"vehicle_type_id":"4","last_reported":1752952079,"current_range_meters":14400,"station_id":"ce4bgup2rcd13ifvqco0","pricing_plan_id":"cebpf4jnsgd1na2vs0mg"},{"bike_id":"0fd02cf6-67fb-4589-807f-241dd50b7e1a","system_id":"levelo_inurba_marseille","lat":43.29901,"lon":5.43641,"is_reserved":false,"is_disabled":true,"rental_uris":{"android":"levelo://app?vid=0fd02cf6-67fb-4589-807f-241dd50b7e1a","ios":"levelo://app?vid=0fd02cf6-67fb-4589-807f-241dd50b7e1a"},"vehicle_type_id":"4","last_reported":1752952079,"current_range_meters":14400,"station_id":"ce4bhpp2rcd13ifvqhfg","pricing_plan_id":"cebpf4jnsgd1na2vs0mg"},{"bike_id":"a2ce4468-26ca-451c-81f3-60a68b7a3b72","system_id":"levelo_inurba_marseille","lat":43.304329,"lon":5.388918,"is_reserved":false,"is_disabled":false,"rental_uris":{"android":"levelo://app?vid=a2ce4468-26ca-451c-81f3-60a68b7a3b72","ios":"levelo://app?vid=a2ce4468-26ca-451c-81f3-60a68b7a3b72"},"vehicle_type_id":"4","last_reported":1752952079,"current_range_meters":16000,"station_id":"ce4bgk12rcd13ifvqbi0","pricing_plan_id":"cebpf4jnsgd1na2vs0mg"},{"bike_id":"f3be6351-4005-409e-b4b7-19f0b55b0d8c","system_id":"levelo_inurba_marseille","lat":43.30428,"lon":5.39726,"is_reserved":false,"is_disabled":false,"rental_uris":{"android":"levelo://app?vid=f3be6351-4005-409e-b4b7-19f0b55b0d8c","ios":"levelo://app?vid=f3be6351-4005-409e-b4b7-19f0b55b0d8c"},"vehicle_type_id":"4","last_reported":1752952079,"current_range_meters":14000,"station_id":"ce4bh092rcd13ifvqd20","pricing_plan_id":"cebpf4jnsgd1na2vs0mg"},{"bike_id":"2e161da6-a39d-48d6-98dd-4e81dcecb0b8","system_id":"levelo_inurba_marseille","lat":43.25575,"lon":5.38232,"is_reserved":false,"is_disabled":false,"rental_uris":{"android":"levelo://app?vid=2e161da6-a39d-48d6-98dd-4e81dcecb0b8","ios":"levelo://app?vid=2e161da6-a39d-48d6-98dd-4e81dcecb0b8"},"vehicle_type_id":"4","last_reported":1752952079,"current_range_meters":14400,"station_id":"ce4bhih2rcd13ifvqfs0","pricing_plan_id":"cebpf4jnsgd1na2vs0mg"},{"bike_id":"0ab5edff-8724-4c93-922c-a841549140d2","system_id":"levelo_inurba_marseille","lat":43.31757,"lon":5.39006,"is_reserved":false,"is_disabled":false,"rental_uris":{"android":"levelo://app?vid=0ab5edff-8724-4c93-922c-a841549140d2","ios":"levelo://app?vid=0ab5edff-8724-4c93-922c-a841549140d2"},"vehicle_type_id":"4","last_reported":1752952079,"current_range_meters":14400,"station_id":"ce4bhqp2rcd13ifvqhng","pricing_plan_id":"cebpf4jnsgd1na2vs0mg"},{"bike_id":"d421927e-7ddd-40a0-904f-5b4ff0266a72","system_id":"levelo_inurba_marseille","lat":43.31912,"lon":5.40139,"is_reserved":false,"is_disabled":false,"rental_uris":{"android":"levelo://app?vid=d421927e-7ddd-40a0-904f-5b4ff0266a72","ios":"levelo://app?vid=d421927e-7ddd-40a0-904f-5b4ff0266a72"},"vehicle_type_id":"4","last_reported":1752952079,"current_range_meters":14800,"station_id":"","pricing_plan_id":"cebpf4jnsgd1na2vs0mg"},{"bike_id":"74e93ff0-0fe3-46c1-8291-4ed06dfeed28","system_id":"levelo_inurba_marseille","lat":43.28617,"lon":5.35094,"is_reserved":false,"is_disabled":false,"rental_uris":{"android":"levelo://app?vid=74e93ff0-0fe3-46c1-8291-4ed06dfeed28","ios":"levelo://app?vid=74e93ff0-0fe3-46c1-8291-4ed06dfeed28"},"vehicle_type_id":"4","last_reported":1752952079,"current_range_meters":14800,"station_id":"ce4bhch2rcd13ifvqeug","pricing_plan_id":"cebpf4jnsgd1na2vs0mg"},{"bike_id":"646bd144-4ffa-49b8-a08d-6b47ca08200f","system_id":"levelo_inurba_marseille","lat":43.255,"lon":5.37622,"is_reserved":false,"is_disabled":true,"rental_uris":{"android":"levelo://app?vid=646bd144-4ffa-49b8-a08d-6b47ca08200f","ios":"levelo://app?vid=646bd144-4ffa-49b8-a08d-6b47ca08200f"},"vehicle_type_id":"4","last_reported":1752952079,"current_range_meters":14800,"station_id":"ce4bhh12rcd13ifvqff0","pricing_plan_id":"cebpf4jnsgd1na2vs0mg"},{"bike_id":"a62cc4c5-a33a-41a4-aaa0-8f6555738fe8","system_id":"levelo_inurba_marseille","lat":43.2957,"lon":5.37522,"is_reserved":false,"is_disabled":false,"rental_uris":{"android":"levelo://app?vid=a62cc4c5-a33a-41a4-aaa0-8f6555738fe8","ios":"levelo://app?vid=a62cc4c5-a33a-41a4-aaa0-8f6555738fe8"},"vehicle_type_id":"4","last_reported":1752952079,"current_range_meters":14800,"station_id":"ce4bgh92rcd13ifvqb50","pricing_plan_id":"cebpf4jnsgd1na2vs0mg"},{"bike_id":"6a193f41-f336-48d3-a5d0-a6fca3bf067e","system_id":"levelo_inurba_marseille","lat":43.24672,"lon":5.381576,"is_reserved":false,"is_disabled":false,"rental_uris":{"android":"levelo://app?vid=6a193f41-f336-48d3-a5d0-a6fca3bf067e","ios":"levelo://app?vid=6a193f41-f336-48d3-a5d0-a6fca3bf067e"},"vehicle_type_id":"4","last_reported":1752952079,"current_range_meters":14800,"station_id":"ce4bhih2rcd13ifvqfr0","pricing_plan_id":"cebpf4jnsgd1na2vs0mg"},{"bike_id":"ad71a6d2-7246-483a-8c5c-3dec00534677","system_id":"levelo_inurba_marseille","lat":43.24805,"lon":5.37451,"is_reserved":false,"is_disabled":false,"rental_uris":{"android":"levelo://app?vid=ad71a6d2-7246-483a-8c5c-3dec00534677","ios":"levelo://app?vid=ad71a6d2-7246-483a-8c5c-3dec00534677"},"vehicle_type_id":"4","last_reported":1752952079,"current_range_meters":14800,"station_id":"ce4bhgh2rcd13ifvqfb0","pricing_plan_id":"cebpf4jnsgd1na2vs0mg"},{"bike_id":"04da29c2-9915-4f4c-bcae-365d3d558f2c","system_id":"levelo_inurba_marseille","lat":43.29968,"lon":5.38487,"is_reserved":false,"is_disabled":false,"rental_uris":{"android":"levelo://app?vid=04da29c2-9915-4f4c-bcae-365d3d558f2c","ios":"levelo://app?vid=04da29c2-9915-4f4c-bcae-365d3d558f2c"},"vehicle_type_id":"4","last_reported":1752952079,"current_range_meters":14800,"station_id":"ce4bgj92rcd13ifvqbd0","pricing_plan_id":"cebpf4jnsgd1na2vs0mg"},{"bike_id":"46acccef-b10e-425f-913a-d36865f4eac4","system_id":"levelo_inurba_marseille","lat":43.26194,"lon":5.37458,"is_reserved":false,"is_disabled":false,"rental_uris":{"android":"levelo://app?vid=46acccef-b10e-425f-913a-d36865f4eac4","ios":"levelo://app?vid=46acccef-b10e-425f-913a-d36865f4eac4"},"vehicle_type_id":"4","last_reported":1752952079,"current_range_meters":14800,"station_id":"ce4bhgp2rcd13ifvqfc0","pricing_plan_id":"cebpf4jnsgd1na2vs0mg"},{"bike_id":"c8f45d6c-8661-49f2-a8a9-0932105ee9c6","system_id":"levelo_inurba_marseille","lat":43.29969,"lon":5.38493,"is_reserved":false,"is_disabled":false,"rental_uris":{"android":"levelo://app?vid=c8f45d6c-8661-49f2-a8a9-0932105ee9c6","ios":"levelo://app?vid=c8f45d6c-8661-49f2-a8a9-0932105ee9c6"},"vehicle_type_id":"4","last_reported":1752952079,"current_range_meters":14800,"station_id":"ce4bgj92rcd13ifvqbd0","pricing_plan_id":"cebpf4jnsgd1na2vs0mg"},{"bike_id":"16792f92-649d-41ed-a9d4-4f88e400ed2a","system_id":"levelo_inurba_marseille","lat":43.25201,"lon":5.37889,"is_reserved":false,"is_disabled":false,"rental_uris":{"android":"levelo://app?vid=16792f92-649d-41ed-a9d4-4f88e400ed2a","ios":"levelo://app?vid=16792f92-649d-41ed-a9d4-4f88e400ed2a"},"vehicle_type_id":"4","last_reported":1752952079,"current_range_meters":15200,"station_id":"","pricing_plan_id":"cebpf4jnsgd1na2vs0mg"},{"bike_id":"c04f4d0e-09c8-4656-9c87-195fcc2f8942","system_id":"levelo_inurba_marseille","lat":43.28419,"lon":5.34971,"is_reserved":false,"is_disabled":false,"rental_uris":{"android":"levelo://app?vid=c04f4d0e-09c8-4656-9c87-195fcc2f8942","ios":"levelo://app?vid=c04f4d0e-09c8-4656-9c87-195fcc2f8942"},"vehicle_type_id":"4","last_reported":1752952079,"current_range_meters":15200,"station_id":"ce4bhbh2rcd13ifvqepg","pricing_plan_id":"cebpf4jnsgd1na2vs0mg"},{"bike_id":"45dea0eb-918d-49f1-8341-001e35c226f0","system_id":"levelo_inurba_marseille","lat":43.2121,"lon":5.35066,"is_reserved":false,"is_disabled":false,"rental_uris":{"android":"levelo://app?vid=45dea0eb-918d-49f1-8341-001e35c226f0","ios":"levelo://app?vid=45dea0eb-918d-49f1-8341-001e35c226f0"},"vehicle_type_id":"4","last_reported":1752952079,"current_range_meters":15200,"station_id":"st_cvj6sg6p6f1abm77japg","pricing_plan_id":"cebpf4jnsgd1na2vs0mg"},{"bike_id":"cf9f7b6f-b252-45aa-bd41-e7b8a5947e88","system_id":"levelo_inurba_marseille","lat":43.26951,"lon":5.402507,"is_reserved":false,"is_disabled":true,"rental_uris":{"android":"levelo://app?vid=cf9f7b6f-b252-45aa-bd41-e7b8a5947e88","ios":"levelo://app?vid=cf9f7b6f-b252-45aa-bd41-e7b8a5947e88"},"vehicle_type_id":"4","last_reported":1752952079,"current_range_meters":15200,"station_id":"cjm6bp8fraef2m0cb0m0","pricing_plan_id":"cebpf4jnsgd1na2vs0mg"},{"bike_id":"2edddcc5-74b5-4812-a3f7-13401703667b","system_id":"levelo_inurba_marseille","lat":43.26218,"lon":5.37433,"is_reserved":false,"is_disabled":false,"rental_uris":{"android":"levelo://app?vid=2edddcc5-74b5-4812-a3f7-13401703667b","ios":"levelo://app?vid=2edddcc5-74b5-4812-a3f7-13401703667b"},"vehicle_type_id":"4","last_reported":1752952079,"current_range_meters":15200,"station_id":"ce4bhgp2rcd13ifvqfc0","pricing_plan_id":"cebpf4jnsgd1na2vs0mg"},{"bike_id":"a6de290b-5c15-427b-bc37-8301607e1735","system_id":"levelo_inurba_marseille","lat":43.337444,"lon":5.374475,"is_reserved":false,"is_disabled":false,"rental_uris":{"android":"levelo://app?vid=a6de290b-5c15-427b-bc37-8301607e1735","ios":"levelo://app?vid=a6de290b-5c15-427b-bc37-8301607e1735"},"vehicle_type_id":"4","last_reported":1752952079,"current_range_meters":15200,"station_id":"","pricing_plan_id":"cebpf4jnsgd1na2vs0mg"},{"bike_id":"154acc77-365c-46bf-97ae-11c847ce5055","system_id":"levelo_inurba_marseille","lat":43.33718,"lon":5.39172,"is_reserved":false,"is_disabled":false,"rental_uris":{"android":"levelo://app?vid=154acc77-365c-46bf-97ae-11c847ce5055","ios":"levelo://app?vid=154acc77-365c-46bf-97ae-11c847ce5055"},"vehicle_type_id":"4","last_reported":1752952079,"current_range_meters":15200,"station_id":"ce4bhr92rcd13ifvqhsg","pricing_plan_id":"cebpf4jnsgd1na2vs0mg"},{"bike_id":"fbd9a3d1-b647-4525-9df7-6e974a638ddb","system_id":"levelo_inurba_marseille","lat":43.26192,"lon":5.37455,"is_reserved":false,"is_disabled":false,"rental_uris":{"android":"levelo://app?vid=fbd9a3d1-b647-4525-9df7-6e974a638ddb","ios":"levelo://app?vid=fbd9a3d1-b647-4525-9df7-6e974a638ddb"},"vehicle_type_id":"4","last_reported":1752952079,"current_range_meters":15200,"station_id":"ce4bhgp2rcd13ifvqfc0","pricing_plan_id":"cebpf4jnsgd1na2vs0mg"},{"bike_id":"5e4c7e79-d415-46fe-9743-654374be7b02","system_id":"levelo_inurba_marseille","lat":43.29098,"lon":5.38146,"is_reserved":false,"is_disabled":false,"rental_uris":{"android":"levelo://app?vid=5e4c7e79-d415-46fe-9743-654374be7b02","ios":"levelo://app?vid=5e4c7e79-d415-46fe-9743-654374be7b02"},"vehicle_type_id":"4","last_reported":1752952079,"current_range_meters":15200,"station_id":"ce4bh512rcd13ifvqe2g","pricing_plan_id":"cebpf4jnsgd1na2vs0mg"},{"bike_id":"c37b5c86-3e55-4f4b-870f-cbb09c385e03","system_id":"levelo_inurba_marseille","lat":43.30949,"lon":5.39036,"is_reserved":false,"is_disabled":false,"rental_uris":{"android":"levelo://app?vid=c37b5c86-3e55-4f4b-870f-cbb09c385e03","ios":"levelo://app?vid=c37b5c86-3e55-4f4b-870f-cbb09c385e03"},"vehicle_type_id":"4","last_reported":1752952079,"current_range_meters":15200,"station_id":"ce4bgup2rcd13ifvqco0","pricing_plan_id":"cebpf4jnsgd1na2vs0mg"},{"bike_id":"dee567a5-f4e3-445c-9787-ae8da9917fba","system_id":"levelo_inurba_marseille","lat":43.27945,"lon":5.41041,"is_reserved":false,"is_disabled":false,"rental_uris":{"android":"levelo://app?vid=dee567a5-f4e3-445c-9787-ae8da9917fba","ios":"levelo://app?vid=dee567a5-f4e3-445c-9787-ae8da9917fba"},"vehicle_type_id":"4","last_reported":1752952079,"current_range_meters":15200,"station_id":"ce4bhnp2rcd13ifvqh0g","pricing_plan_id":"cebpf4jnsgd1na2vs0mg"},{"bike_id":"44e89ad7-16a2-4910-805f-061f2aee5ab7","system_id":"levelo_inurba_marseille","lat":43.2318,"lon":5.35559,"is_reserved":false,"is_disabled":false,"rental_uris":{"android":"levelo://app?vid=44e89ad7-16a2-4910-805f-061f2aee5ab7","ios":"levelo://app?vid=44e89ad7-16a2-4910-805f-061f2aee5ab7"},"vehicle_type_id":"4","last_reported":1752952079,"current_range_meters":15200,"station_id":"ce4bhu92rcd13ifvqi70","pricing_plan_id":"cebpf4jnsgd1na2vs0mg"},{"bike_id":"5a570911-22d0-41b1-a776-0fe138c4bdc4","system_id":"levelo_inurba_marseille","lat":43.21196,"lon":5.35057,"is_reserved":false,"is_disabled":false,"rental_uris":{"android":"levelo://app?vid=5a570911-22d0-41b1-a776-0fe138c4bdc4","ios":"levelo://app?vid=5a570911-22d0-41b1-a776-0fe138c4bdc4"},"vehicle_type_id":"4","last_reported":1752952079,"current_range_meters":15200,"station_id":"st_cvj6sg6p6f1abm77japg","pricing_plan_id":"cebpf4jnsgd1na2vs0mg"},{"bike_id":"867734f5-4fb7-4576-a64b-3de2eac033bb","system_id":"levelo_inurba_marseille","lat":43.23958,"lon":5.36623,"is_reserved":false,"is_disabled":false,"rental_uris":{"android":"levelo://app?vid=867734f5-4fb7-4576-a64b-3de2eac033bb","ios":"levelo://app?vid=867734f5-4fb7-4576-a64b-3de2eac033bb"},"vehicle_type_id":"4","last_reported":1752952079,"current_range_meters":16000,"station_id":"ce4bhi12rcd13ifvqfp0","pricing_plan_id":"cebpf4jnsgd1na2vs0mg"},{"bike_id":"f64d4495-c6c3-4047-b421-2e9c29951567","system_id":"levelo_inurba_marseille","lat":43.225362,"lon":5.347694,"is_reserved":false,"is_disabled":false,"rental_uris":{"android":"levelo://app?vid=f64d4495-c6c3-4047-b421-2e9c29951567","ios":"levelo://app?vid=f64d4495-c6c3-4047-b421-2e9c29951567"},"vehicle_type_id":"4","last_reported":1752952079,"current_range_meters":16000,"station_id":"st_cvj5dfep6f1abm77gieg","pricing_plan_id":"cebpf4jnsgd1na2vs0mg"},{"bike_id":"7d3e3c79-9d49-4e54-97b5-77ff8044cb77","system_id":"levelo_inurba_marseille","lat":43.32108,"lon":5.36768,"is_reserved":false,"is_disabled":false,"rental_uris":{"android":"levelo://app?vid=7d3e3c79-9d49-4e54-97b5-77ff8044cb77","ios":"levelo://app?vid=7d3e3c79-9d49-4e54-97b5-77ff8044cb77"},"vehicle_type_id":"4","last_reported":1752952079,"current_range_meters":16000,"station_id":"ce4bhrh2rcd13ifvqhug","pricing_plan_id":"cebpf4jnsgd1na2vs0mg"},{"bike_id":"03c31e56-bfa4-48a1-bb04-4770ab6c338e","system_id":"levelo_inurba_marseille","lat":43.30944,"lon":5.39034,"is_reserved":false,"is_disabled":false,"rental_uris":{"android":"levelo://app?vid=03c31e56-bfa4-48a1-bb04-4770ab6c338e","ios":"levelo://app?vid=03c31e56-bfa4-48a1-bb04-4770ab6c338e"},"vehicle_type_id":"4","last_reported":1752952079,"current_range_meters":16000,"station_id":"ce4bgup2rcd13ifvqco0","pricing_plan_id":"cebpf4jnsgd1na2vs0mg"},{"bike_id":"57aa01e2-8924-4946-b8d0-3a864282df09","system_id":"levelo_inurba_marseille","lat":43.31161,"lon":5.38716,"is_reserved":false,"is_disabled":false,"rental_uris":{"android":"levelo://app?vid=57aa01e2-8924-4946-b8d0-3a864282df09","ios":"levelo://app?vid=57aa01e2-8924-4946-b8d0-3a864282df09"},"vehicle_type_id":"4","last_reported":1752952079,"current_range_meters":16000,"station_id":"ce4bgv12rcd13ifvqcp0","pricing_plan_id":"cebpf4jnsgd1na2vs0mg"},{"bike_id":"892e06aa-05f6-415f-96f6-13455b0802de","system_id":"levelo_inurba_marseille","lat":43.295733,"lon":5.374902,"is_reserved":false,"is_disabled":true,"rental_uris":{"android":"levelo://app?vid=892e06aa-05f6-415f-96f6-13455b0802de","ios":"levelo://app?vid=892e06aa-05f6-415f-96f6-13455b0802de"},"vehicle_type_id":"4","last_reported":1752952079,"current_range_meters":16000,"station_id":"ce4bgh92rcd13ifvqb50","pricing_plan_id":"cebpf4jnsgd1na2vs0mg"},{"bike_id":"77e5d396-9f38-43c2-ae33-ac1f85df337d","system_id":"levelo_inurba_marseille","lat":43.29567,"lon":5.42286,"is_reserved":false,"is_disabled":false,"rental_uris":{"android":"levelo://app?vid=77e5d396-9f38-43c2-ae33-ac1f85df337d","ios":"levelo://app?vid=77e5d396-9f38-43c2-ae33-ac1f85df337d"},"vehicle_type_id":"4","last_reported":1752952079,"current_range_meters":16000,"station_id":"ce4bhph2rcd13ifvqhdg","pricing_plan_id":"cebpf4jnsgd1na2vs0mg"},{"bike_id":"2623ee54-e811-418c-8411-9986e8afd90f","system_id":"levelo_inurba_marseille","lat":43.24388,"lon":5.3706,"is_reserved":false,"is_disabled":false,"rental_uris":{"android":"levelo://app?vid=2623ee54-e811-418c-8411-9986e8afd90f","ios":"levelo://app?vid=2623ee54-e811-418c-8411-9986e8afd90f"},"vehicle_type_id":"4","last_reported":1752952079,"current_range_meters":16000,"station_id":"ce4bhhh2rcd13ifvqfk0","pricing_plan_id":"cebpf4jnsgd1na2vs0mg"},{"bike_id":"7592d3b0-727d-4107-ba81-a2966cdc2b34","system_id":"levelo_inurba_marseille","lat":43.26215,"lon":5.40442,"is_reserved":false,"is_disabled":false,"rental_uris":{"android":"levelo://app?vid=7592d3b0-727d-4107-ba81-a2966cdc2b34","ios":"levelo://app?vid=7592d3b0-727d-4107-ba81-a2966cdc2b34"},"vehicle_type_id":"4","last_reported":1752952079,"current_range_meters":16000,"station_id":"ce4bhmh2rcd13ifvqgmg","pricing_plan_id":"cebpf4jnsgd1na2vs0mg"},{"bike_id":"7d91d34c-95ba-419a-8d0b-21d2aeaa83ad","system_id":"levelo_inurba_marseille","lat":43.25501,"lon":5.37621,"is_reserved":false,"is_disabled":true,"rental_uris":{"android":"levelo://app?vid=7d91d34c-95ba-419a-8d0b-21d2aeaa83ad","ios":"levelo://app?vid=7d91d34c-95ba-419a-8d0b-21d2aeaa83ad"},"vehicle_type_id":"4","last_reported":1752952079,"current_range_meters":16000,"station_id":"ce4bhh12rcd13ifvqff0","pricing_plan_id":"cebpf4jnsgd1na2vs0mg"},{"bike_id":"f10b94a7-bdf9-4fe7-bb69-1da8d25869bd","system_id":"levelo_inurba_marseille","lat":43.29573,"lon":5.36736,"is_reserved":false,"is_disabled":false,"rental_uris":{"android":"levelo://app?vid=f10b94a7-bdf9-4fe7-bb69-1da8d25869bd","ios":"levelo://app?vid=f10b94a7-bdf9-4fe7-bb69-1da8d25869bd"},"vehicle_type_id":"4","last_reported":1752952079,"current_range_meters":16400,"station_id":"ce4bgph2rcd13ifvqc2g","pricing_plan_id":"cebpf4jnsgd1na2vs0mg"},{"bike_id":"fc2795f7-54a6-4c4a-b4ec-211c7dd23bfb","system_id":"levelo_inurba_marseille","lat":43.30944,"lon":5.3903,"is_reserved":false,"is_disabled":false,"rental_uris":{"android":"levelo://app?vid=fc2795f7-54a6-4c4a-b4ec-211c7dd23bfb","ios":"levelo://app?vid=fc2795f7-54a6-4c4a-b4ec-211c7dd23bfb"},"vehicle_type_id":"4","last_reported":1752952079,"current_range_meters":16400,"station_id":"ce4bgup2rcd13ifvqco0","pricing_plan_id":"cebpf4jnsgd1na2vs0mg"},{"bike_id":"343b8808-d2b9-4da6-ac44-50f7b7b85104","system_id":"levelo_inurba_marseille","lat":43.22938,"lon":5.35383,"is_reserved":false,"is_disabled":false,"rental_uris":{"android":"levelo://app?vid=343b8808-d2b9-4da6-ac44-50f7b7b85104","ios":"levelo://app?vid=343b8808-d2b9-4da6-ac44-50f7b7b85104"},"vehicle_type_id":"4","last_reported":1752952079,"current_range_meters":16400,"station_id":"cpo3532slgdg3j2ikp40","pricing_plan_id":"cebpf4jnsgd1na2vs0mg"},{"bike_id":"0ac9b427-819d-4139-8162-77866abdf07d","system_id":"levelo_inurba_marseille","lat":43.246546,"lon":5.388912,"is_reserved":false,"is_disabled":false,"rental_uris":{"android":"levelo://app?vid=0ac9b427-819d-4139-8162-77866abdf07d","ios":"levelo://app?vid=0ac9b427-819d-4139-8162-77866abdf07d"},"vehicle_type_id":"4","last_reported":1752952079,"current_range_meters":16400,"station_id":"ce4bhg12rcd13ifvqf60","pricing_plan_id":"cebpf4jnsgd1na2vs0mg"},{"bike_id":"2749dec6-4189-49b3-be5e-3848ee1435ec","system_id":"levelo_inurba_marseille","lat":43.284,"lon":5.37501,"is_reserved":false,"is_disabled":false,"rental_uris":{"android":"levelo://app?vid=2749dec6-4189-49b3-be5e-3848ee1435ec","ios":"levelo://app?vid=2749dec6-4189-49b3-be5e-3848ee1435ec"},"vehicle_type_id":"4","last_reported":1752952079,"current_range_meters":16400,"station_id":"ce4bh412rcd13ifvqds0","pricing_plan_id":"cebpf4jnsgd1na2vs0mg"},{"bike_id":"50817c71-c433-41db-8588-f3f5b56e9306","system_id":"levelo_inurba_marseille","lat":43.225,"lon":5.34779,"is_reserved":false,"is_disabled":false,"rental_uris":{"android":"levelo://app?vid=50817c71-c433-41db-8588-f3f5b56e9306","ios":"levelo://app?vid=50817c71-c433-41db-8588-f3f5b56e9306"},"vehicle_type_id":"4","last_reported":1752952079,"current_range_meters":16400,"station_id":"st_cvj5dfep6f1abm77gieg","pricing_plan_id":"cebpf4jnsgd1na2vs0mg"},{"bike_id":"684e48a9-55db-44b4-9be8-e39ba359659a","system_id":"levelo_inurba_marseille","lat":43.2861,"lon":5.37056,"is_reserved":false,"is_disabled":false,"rental_uris":{"android":"levelo://app?vid=684e48a9-55db-44b4-9be8-e39ba359659a","ios":"levelo://app?vid=684e48a9-55db-44b4-9be8-e39ba359659a"},"vehicle_type_id":"4","last_reported":1752952079,"current_range_meters":16800,"station_id":"ce4bht12rcd13ifvqi60","pricing_plan_id":"cebpf4jnsgd1na2vs0mg"},{"bike_id":"7a2e1cf8-de90-4b24-ade1-9d8b3a17f052","system_id":"levelo_inurba_marseille","lat":43.25188,"lon":5.375675,"is_reserved":false,"is_disabled":false,"rental_uris":{"android":"levelo://app?vid=7a2e1cf8-de90-4b24-ade1-9d8b3a17f052","ios":"levelo://app?vid=7a2e1cf8-de90-4b24-ade1-9d8b3a17f052"},"vehicle_type_id":"4","last_reported":1752952079,"current_range_meters":16400,"station_id":"","pricing_plan_id":"cebpf4jnsgd1na2vs0mg"},{"bike_id":"1cb80cc0-badd-4dbd-8b15-4bfb1460c1b4","system_id":"levelo_inurba_marseille","lat":43.27826,"lon":5.40697,"is_reserved":false,"is_disabled":false,"rental_uris":{"android":"levelo://app?vid=1cb80cc0-badd-4dbd-8b15-4bfb1460c1b4","ios":"levelo://app?vid=1cb80cc0-badd-4dbd-8b15-4bfb1460c1b4"},"vehicle_type_id":"4","last_reported":1752952079,"current_range_meters":16400,"station_id":"ce4bhnh2rcd13ifvqgtg","pricing_plan_id":"cebpf4jnsgd1na2vs0mg"},{"bike_id":"07c01608-4615-47ed-b60e-9053e408f040","system_id":"levelo_inurba_marseille","lat":43.291969,"lon":5.393252,"is_reserved":false,"is_disabled":false,"rental_uris":{"android":"levelo://app?vid=07c01608-4615-47ed-b60e-9053e408f040","ios":"levelo://app?vid=07c01608-4615-47ed-b60e-9053e408f040"},"vehicle_type_id":"4","last_reported":1752952079,"current_range_meters":16400,"station_id":"ce4bh192rcd13ifvqdd0","pricing_plan_id":"cebpf4jnsgd1na2vs0mg"},{"bike_id":"344fdc2a-4a94-40d9-acfa-ab802e78741f","system_id":"levelo_inurba_marseille","lat":43.278389,"lon":5.392064,"is_reserved":false,"is_disabled":false,"rental_uris":{"android":"levelo://app?vid=344fdc2a-4a94-40d9-acfa-ab802e78741f","ios":"levelo://app?vid=344fdc2a-4a94-40d9-acfa-ab802e78741f"},"vehicle_type_id":"4","last_reported":1752952079,"current_range_meters":16800,"station_id":"ce4bhjp2rcd13ifvqga0","pricing_plan_id":"cebpf4jnsgd1na2vs0mg"},{"bike_id":"6fb131dd-8bae-4bc0-b0c0-17992306572f","system_id":"levelo_inurba_marseille","lat":43.29549,"lon":5.42278,"is_reserved":false,"is_disabled":false,"rental_uris":{"android":"levelo://app?vid=6fb131dd-8bae-4bc0-b0c0-17992306572f","ios":"levelo://app?vid=6fb131dd-8bae-4bc0-b0c0-17992306572f"},"vehicle_type_id":"4","last_reported":1752952079,"current_range_meters":16800,"station_id":"ce4bhph2rcd13ifvqhdg","pricing_plan_id":"cebpf4jnsgd1na2vs0mg"},{"bike_id":"ba4389f1-ab47-4940-9c96-be668b1b69ad","system_id":"levelo_inurba_marseille","lat":43.29303,"lon":5.37456,"is_reserved":false,"is_disabled":false,"rental_uris":{"android":"levelo://app?vid=ba4389f1-ab47-4940-9c96-be668b1b69ad","ios":"levelo://app?vid=ba4389f1-ab47-4940-9c96-be668b1b69ad"},"vehicle_type_id":"4","last_reported":1752952079,"current_range_meters":16800,"station_id":"ce4bgi12rcd13ifvqb70","pricing_plan_id":"cebpf4jnsgd1na2vs0mg"},{"bike_id":"2426105b-d0c3-404a-aca9-f5c6baa1c7f4","system_id":"levelo_inurba_marseille","lat":43.29596,"lon":5.38084,"is_reserved":false,"is_disabled":false,"rental_uris":{"android":"levelo://app?vid=2426105b-d0c3-404a-aca9-f5c6baa1c7f4","ios":"levelo://app?vid=2426105b-d0c3-404a-aca9-f5c6baa1c7f4"},"vehicle_type_id":"4","last_reported":1752952079,"current_range_meters":16800,"station_id":"ce4bgl12rcd13ifvqbo0","pricing_plan_id":"cebpf4jnsgd1na2vs0mg"},{"bike_id":"a4849453-fc76-4eef-856a-587b0feaf6dc","system_id":"levelo_inurba_marseille","lat":43.28427,"lon":5.34969,"is_reserved":false,"is_disabled":false,"rental_uris":{"android":"levelo://app?vid=a4849453-fc76-4eef-856a-587b0feaf6dc","ios":"levelo://app?vid=a4849453-fc76-4eef-856a-587b0feaf6dc"},"vehicle_type_id":"4","last_reported":1752952079,"current_range_meters":16800,"station_id":"ce4bhbh2rcd13ifvqepg","pricing_plan_id":"cebpf4jnsgd1na2vs0mg"},{"bike_id":"3466169e-1475-4825-aabd-00520b0ad294","system_id":"levelo_inurba_marseille","lat":43.29534,"lon":5.38524,"is_reserved":false,"is_disabled":false,"rental_uris":{"android":"levelo://app?vid=3466169e-1475-4825-aabd-00520b0ad294","ios":"levelo://app?vid=3466169e-1475-4825-aabd-00520b0ad294"},"vehicle_type_id":"4","last_reported":1752952079,"current_range_meters":16800,"station_id":"ce4bgih2rcd13ifvqba0","pricing_plan_id":"cebpf4jnsgd1na2vs0mg"},{"bike_id":"b113f225-6aed-49e0-b815-a5d9f7472168","system_id":"levelo_inurba_marseille","lat":43.30143,"lon":5.37407,"is_reserved":false,"is_disabled":false,"rental_uris":{"android":"levelo://app?vid=b113f225-6aed-49e0-b815-a5d9f7472168","ios":"levelo://app?vid=b113f225-6aed-49e0-b815-a5d9f7472168"},"vehicle_type_id":"4","last_reported":1752952079,"current_range_meters":17200,"station_id":"ce4bgs92rcd13ifvqcc0","pricing_plan_id":"cebpf4jnsgd1na2vs0mg"},{"bike_id":"56d9a8ff-7cd7-40bd-9c56-7ace19e5c43d","system_id":"levelo_inurba_marseille","lat":43.295793,"lon":5.367395,"is_reserved":false,"is_disabled":false,"rental_uris":{"android":"levelo://app?vid=56d9a8ff-7cd7-40bd-9c56-7ace19e5c43d","ios":"levelo://app?vid=56d9a8ff-7cd7-40bd-9c56-7ace19e5c43d"},"vehicle_type_id":"4","last_reported":1752952079,"current_range_meters":16800,"station_id":"","pricing_plan_id":"cebpf4jnsgd1na2vs0mg"},{"bike_id":"4e76405e-58c3-4577-8fe7-20bdffd1e39d","system_id":"levelo_inurba_marseille","lat":43.26219,"lon":5.37428,"is_reserved":false,"is_disabled":false,"rental_uris":{"android":"levelo://app?vid=4e76405e-58c3-4577-8fe7-20bdffd1e39d","ios":"levelo://app?vid=4e76405e-58c3-4577-8fe7-20bdffd1e39d"},"vehicle_type_id":"4","last_reported":1752952079,"current_range_meters":16800,"station_id":"ce4bhgp2rcd13ifvqfc0","pricing_plan_id":"cebpf4jnsgd1na2vs0mg"},{"bike_id":"005a30b0-8bb0-4f90-b5df-3bc911016354","system_id":"levelo_inurba_marseille","lat":43.24799,"lon":5.3745,"is_reserved":false,"is_disabled":false,"rental_uris":{"android":"levelo://app?vid=005a30b0-8bb0-4f90-b5df-3bc911016354","ios":"levelo://app?vid=005a30b0-8bb0-4f90-b5df-3bc911016354"},"vehicle_type_id":"4","last_reported":1752952079,"current_range_meters":16800,"station_id":"ce4bhgh2rcd13ifvqfb0","pricing_plan_id":"cebpf4jnsgd1na2vs0mg"},{"bike_id":"8eecb308-4ad0-4b20-8e2b-f6aac4784ac9","system_id":"levelo_inurba_marseille","lat":43.27909,"lon":5.35314,"is_reserved":false,"is_disabled":false,"rental_uris":{"android":"levelo://app?vid=8eecb308-4ad0-4b20-8e2b-f6aac4784ac9","ios":"levelo://app?vid=8eecb308-4ad0-4b20-8e2b-f6aac4784ac9"},"vehicle_type_id":"4","last_reported":1752952079,"current_range_meters":16800,"station_id":"","pricing_plan_id":"cebpf4jnsgd1na2vs0mg"},{"bike_id":"95b5bcfa-54af-48c0-bd18-8f73f959ce2b","system_id":"levelo_inurba_marseille","lat":43.31935,"lon":5.37313,"is_reserved":false,"is_disabled":false,"rental_uris":{"android":"levelo://app?vid=95b5bcfa-54af-48c0-bd18-8f73f959ce2b","ios":"levelo://app?vid=95b5bcfa-54af-48c0-bd18-8f73f959ce2b"},"vehicle_type_id":"4","last_reported":1752952079,"current_range_meters":16800,"station_id":"","pricing_plan_id":"cebpf4jnsgd1na2vs0mg"},{"bike_id":"4756c3e0-fc87-4647-b159-7725acd8ef8b","system_id":"levelo_inurba_marseille","lat":43.21751,"lon":5.34597,"is_reserved":false,"is_disabled":false,"rental_uris":{"android":"levelo://app?vid=4756c3e0-fc87-4647-b159-7725acd8ef8b","ios":"levelo://app?vid=4756c3e0-fc87-4647-b159-7725acd8ef8b"},"vehicle_type_id":"4","last_reported":1752952079,"current_range_meters":17200,"station_id":"st_cvj6r9ubvosntc0bgbag","pricing_plan_id":"cebpf4jnsgd1na2vs0mg"},{"bike_id":"44c41988-0237-42d8-bd7e-50d90d850ba2","system_id":"levelo_inurba_marseille","lat":43.24804,"lon":5.37457,"is_reserved":false,"is_disabled":false,"rental_uris":{"android":"levelo://app?vid=44c41988-0237-42d8-bd7e-50d90d850ba2","ios":"levelo://app?vid=44c41988-0237-42d8-bd7e-50d90d850ba2"},"vehicle_type_id":"4","last_reported":1752952079,"current_range_meters":17200,"station_id":"ce4bhgh2rcd13ifvqfb0","pricing_plan_id":"cebpf4jnsgd1na2vs0mg"},{"bike_id":"e4e6db7f-6842-4f2c-9bda-e73f51413a84","system_id":"levelo_inurba_marseille","lat":43.28612,"lon":5.35099,"is_reserved":false,"is_disabled":false,"rental_uris":{"android":"levelo://app?vid=e4e6db7f-6842-4f2c-9bda-e73f51413a84","ios":"levelo://app?vid=e4e6db7f-6842-4f2c-9bda-e73f51413a84"},"vehicle_type_id":"4","last_reported":1752952079,"current_range_meters":17200,"station_id":"ce4bhch2rcd13ifvqeug","pricing_plan_id":"cebpf4jnsgd1na2vs0mg"},{"bike_id":"6c46cf99-3ee7-420b-9677-34b4d266b177","system_id":"levelo_inurba_marseille","lat":43.21192,"lon":5.35067,"is_reserved":false,"is_disabled":false,"rental_uris":{"android":"levelo://app?vid=6c46cf99-3ee7-420b-9677-34b4d266b177","ios":"levelo://app?vid=6c46cf99-3ee7-420b-9677-34b4d266b177"},"vehicle_type_id":"4","last_reported":1752952079,"current_range_meters":17200,"station_id":"st_cvj6sg6p6f1abm77japg","pricing_plan_id":"cebpf4jnsgd1na2vs0mg"},{"bike_id":"c9e13ae8-81d2-45a5-adef-f1b61a66153b","system_id":"levelo_inurba_marseille","lat":43.23963,"lon":5.36623,"is_reserved":false,"is_disabled":false,"rental_uris":{"android":"levelo://app?vid=c9e13ae8-81d2-45a5-adef-f1b61a66153b","ios":"levelo://app?vid=c9e13ae8-81d2-45a5-adef-f1b61a66153b"},"vehicle_type_id":"4","last_reported":1752952079,"current_range_meters":17200,"station_id":"ce4bhi12rcd13ifvqfp0","pricing_plan_id":"cebpf4jnsgd1na2vs0mg"},{"bike_id":"beb14892-a851-4f8e-b873-cbd3d15ad0a9","system_id":"levelo_inurba_marseille","lat":43.23768,"lon":5.36175,"is_reserved":false,"is_disabled":false,"rental_uris":{"android":"levelo://app?vid=beb14892-a851-4f8e-b873-cbd3d15ad0a9","ios":"levelo://app?vid=beb14892-a851-4f8e-b873-cbd3d15ad0a9"},"vehicle_type_id":"4","last_reported":1752952079,"current_range_meters":17200,"station_id":"","pricing_plan_id":"cebpf4jnsgd1na2vs0mg"},{"bike_id":"39abf049-3891-4481-9c25-7fb7a413c85a","system_id":"levelo_inurba_marseille","lat":43.25482,"lon":5.37646,"is_reserved":false,"is_disabled":false,"rental_uris":{"android":"levelo://app?vid=39abf049-3891-4481-9c25-7fb7a413c85a","ios":"levelo://app?vid=39abf049-3891-4481-9c25-7fb7a413c85a"},"vehicle_type_id":"4","last_reported":1752952079,"current_range_meters":17200,"station_id":"ce4bhh12rcd13ifvqff0","pricing_plan_id":"cebpf4jnsgd1na2vs0mg"},{"bike_id":"62ee53de-dec1-4002-9b14-4a00bcd3066e","system_id":"levelo_inurba_marseille","lat":43.2925,"lon":5.3844,"is_reserved":false,"is_disabled":false,"rental_uris":{"android":"levelo://app?vid=62ee53de-dec1-4002-9b14-4a00bcd3066e","ios":"levelo://app?vid=62ee53de-dec1-4002-9b14-4a00bcd3066e"},"vehicle_type_id":"4","last_reported":1752952079,"current_range_meters":17200,"station_id":"ce4bh692rcd13ifvqea0","pricing_plan_id":"cebpf4jnsgd1na2vs0mg"},{"bike_id":"0597825e-1731-4559-868d-ada87dd00171","system_id":"levelo_inurba_marseille","lat":43.33499,"lon":5.39836,"is_reserved":false,"is_disabled":false,"rental_uris":{"android":"levelo://app?vid=0597825e-1731-4559-868d-ada87dd00171","ios":"levelo://app?vid=0597825e-1731-4559-868d-ada87dd00171"},"vehicle_type_id":"4","last_reported":1752952079,"current_range_meters":17600,"station_id":"","pricing_plan_id":"cebpf4jnsgd1na2vs0mg"},{"bike_id":"ce15b79a-09d0-4a54-9c5d-f4e2fb90d2b8","system_id":"levelo_inurba_marseille","lat":43.260148,"lon":5.375479,"is_reserved":false,"is_disabled":false,"rental_uris":{"android":"levelo://app?vid=ce15b79a-09d0-4a54-9c5d-f4e2fb90d2b8","ios":"levelo://app?vid=ce15b79a-09d0-4a54-9c5d-f4e2fb90d2b8"},"vehicle_type_id":"4","last_reported":1752952079,"current_range_meters":17200,"station_id":"ce4bhgh2rcd13ifvqfa0","pricing_plan_id":"cebpf4jnsgd1na2vs0mg"},{"bike_id":"0a73cc88-8cd8-4e82-aea6-dfffa321c31d","system_id":"levelo_inurba_marseille","lat":43.29551,"lon":5.37501,"is_reserved":false,"is_disabled":false,"rental_uris":{"android":"levelo://app?vid=0a73cc88-8cd8-4e82-aea6-dfffa321c31d","ios":"levelo://app?vid=0a73cc88-8cd8-4e82-aea6-dfffa321c31d"},"vehicle_type_id":"4","last_reported":1752952079,"current_range_meters":17200,"station_id":"ce4bgkp2rcd13ifvqbmg","pricing_plan_id":"cebpf4jnsgd1na2vs0mg"},{"bike_id":"af6dc479-ce09-4a01-9bc6-b2373c57f01e","system_id":"levelo_inurba_marseille","lat":43.29532,"lon":5.38532,"is_reserved":false,"is_disabled":false,"rental_uris":{"android":"levelo://app?vid=af6dc479-ce09-4a01-9bc6-b2373c57f01e","ios":"levelo://app?vid=af6dc479-ce09-4a01-9bc6-b2373c57f01e"},"vehicle_type_id":"4","last_reported":1752952079,"current_range_meters":17200,"station_id":"ce4bgih2rcd13ifvqba0","pricing_plan_id":"cebpf4jnsgd1na2vs0mg"},