{"last_updated":1747300290,"ttl":60,"version":"2.2","data":{"bikes":[{"bike_id":"f37b7848-b34f-4203-8cd6-ee4ac88ff930","system_id":"levelo_inurba_marseille","lat":43.239619,"lon":5.3663,"is_reserved":false,"is_disabled":false,"rental_uris":{"android":"levelo://app?vid=f37b7848-b34f-4203-8cd6-ee4ac88ff930","ios":"levelo://app?vid=f37b7848-b34f-4203-8cd6-ee4ac88ff930"},"vehicle_type_id":"4","last_reported":1747300290,"current_range_meters":2800,"station_id":"ce4bhi12rcd13ifvqfp0","pricing_plan_id":"cebpf4jnsgd1na2vs0mg"},{"bike_id":"20e032c4-c3bc-427a-a0d4-3427bf606ccc","system_id":"levelo_inurba_marseille","lat":43.29255,"lon":5.38438,"is_reserved":false,"is_disabled":false,"rental_uris":{"android":"levelo://app?vid=20e032c4-c3bc-427a-a0d4-3427bf606ccc","ios":"levelo://app?vid=20e032c4-c3bc-427a-a0d4-3427bf606ccc"},"vehicle_type_id":"4","last_reported":1747300290,"current_range_meters":2800,"station_id":"ce4bh692rcd13ifvqea0","pricing_plan_id":"cebpf4jnsgd1na2vs0mg"},{"bike_id":"ce4325af-2448-4172-bdec-81d552ee0b62","system_id":"levelo_inurba_marseille","lat":43.26163,"lon":5.42026,"is_reserved":false,"is_disabled":false,"rental_uris":{"android":"levelo://app?vid=ce4325af-2448-4172-bdec-81d552ee0b62","ios":"levelo://app?vid=ce4325af-2448-4172-bdec-81d552ee0b62"},"vehicle_type_id":"4","last_reported":1747300290,"current_range_meters":2800,"station_id":"","pricing_plan_id":"cebpf4jnsgd1na2vs0mg"},{"bike_id":"c6c04b3c-6f0d-49c7-b079-24bb308e0633","system_id":"levelo_inurba_marseille","lat":43.2827,"lon":5.35074,"is_reserved":false,"is_disabled":false,"rental_uris":{"android":"levelo://app?vid=c6c04b3c-6f0d-49c7-b079-24bb308e0633","ios":"levelo://app?vid=c6c04b3c-6f0d-49c7-b079-24bb308e0633"},"vehicle_type_id":"4","last_reported":1747300290,"current_range_meters":2800,"station_id":"ce4bhbp2rcd13ifvqerg","pricing_plan_id":"cebpf4jnsgd1na2vs0mg"},{"bike_id":"6953ca09-b1d0-473e-8b94-d568eb1a7f43","system_id":"levelo_inurba_marseille","lat":43.29012,"lon":5.37247,"is_reserved":false,"is_disabled":false,"rental_uris":{"android":"levelo://app?vid=6953ca09-b1d0-473e-8b94-d568eb1a7f43","ios":"levelo://app?vid=6953ca09-b1d0-473e-8b94-d568eb1a7f43"},"vehicle_type_id":"4","last_reported":1747300290,"current_range_meters":2800,"station_id":"","pricing_plan_id":"cebpf4jnsgd1na2vs0mg"},{"bike_id":"d3410c93-fe44-4494-99a0-0488a9e043c8","system_id":"levelo_inurba_marseille","lat":43.23962,"lon":5.36628,"is_reserved":false,"is_disabled":false,"rental_uris":{"android":"levelo://app?vid=d3410c93-fe44-4494-99a0-0488a9e043c8","ios":"levelo://app?vid=d3410c93-fe44-4494-99a0-0488a9e043c8"},"vehicle_type_id":"4","last_reported":1747300290,"current_range_meters":4400,"station_id":"ce4bhi12rcd13ifvqfp0","pricing_plan_id":"cebpf4jnsgd1na2vs0mg"},{"bike_id":"b1300f5d-3162-4cb6-a406-76e132de693e","system_id":"levelo_inurba_marseille","lat":43.28481,"lon":5.38414,"is_reserved":false,"is_disabled":false,"rental_uris":{"android":"levelo://app?vid=b1300f5d-3162-4cb6-a406-76e132de693e","ios":"levelo://app?vid=b1300f5d-3162-4cb6-a406-76e132de693e"},"vehicle_type_id":"4","last_reported":1747300290,"current_range_meters":4400,"station_id":"ce4bh512rcd13ifvqe3g","pricing_plan_id":"cebpf4jnsgd1na2vs0mg"},{"bike_id":"6c5e2750-bf55-4812-bb81-a9df60873a61","system_id":"levelo_inurba_marseille","lat":43.29639,"lon":5.36185,"is_reserved":false,"is_disabled":true,"rental_uris":{"android":"levelo://app?vid=6c5e2750-bf55-4812-bb81-a9df60873a61","ios":"levelo://app?vid=6c5e2750-bf55-4812-bb81-a9df60873a61"},"vehicle_type_id":"4","last_reported":1747300290,"current_range_meters":5600,"station_id":"","pricing_plan_id":"cebpf4jnsgd1na2vs0mg"},{"bike_id":"041723d0-3fd7-4999-a34d-c1d74c78bd2b","system_id":"levelo_inurba_marseille","lat":43.30152,"lon":5.38088,"is_reserved":false,"is_disabled":false,"rental_uris":{"android":"levelo://app?vid=041723d0-3fd7-4999-a34d-c1d74c78bd2b","ios":"levelo://app?vid=041723d0-3fd7-4999-a34d-c1d74c78bd2b"},"vehicle_type_id":"4","last_reported":1747300290,"current_range_meters":5600,"station_id":"ce4bgjp2rcd13ifvqbh0","pricing_plan_id":"cebpf4jnsgd1na2vs0mg"},{"bike_id":"c980f7a1-12c8-4d68-b029-2ed568a6d769","system_id":"levelo_inurba_marseille","lat":43.29568,"lon":5.39978,"is_reserved":false,"is_disabled":false,"rental_uris":{"android":"levelo://app?vid=c980f7a1-12c8-4d68-b029-2ed568a6d769","ios":"levelo://app?vid=c980f7a1-12c8-4d68-b029-2ed568a6d769"},"vehicle_type_id":"4","last_reported":1747300290,"current_range_meters":6000,"station_id":"ce4bh312rcd13ifvqdj0","pricing_plan_id":"cebpf4jnsgd1na2vs0mg"},{"bike_id":"11648e85-43c9-4715-80dd-7370c6ef3843","system_id":"levelo_inurba_marseille","lat":43.29541,"lon":5.39051,"is_reserved":false,"is_disabled":false,"rental_uris":{"android":"levelo://app?vid=11648e85-43c9-4715-80dd-7370c6ef3843","ios":"levelo://app?vid=11648e85-43c9-4715-80dd-7370c6ef3843"},"vehicle_type_id":"4","last_reported":1747300290,"current_range_meters":3600,"station_id":"ce4bh3p2rcd13ifvqdp0","pricing_plan_id":"cebpf4jnsgd1na2vs0mg"},{"bike_id":"eae2ffaa-0204-41fd-aaec-fb4ab296b71c","system_id":"levelo_inurba_marseille","lat":43.27914,"lon":5.3958,"is_reserved":false,"is_disabled":false,"rental_uris":{"android":"levelo://app?vid=eae2ffaa-0204-41fd-aaec-fb4ab296b71c","ios":"levelo://app?vid=eae2ffaa-0204-41fd-aaec-fb4ab296b71c"},"vehicle_type_id":"4","last_reported":1747300290,"current_range_meters":6400,"station_id":"ce4bhf92rcd13ifvqf40","pricing_plan_id":"cebpf4jnsgd1na2vs0mg"},{"bike_id":"a4475511-dd18-4806-bccd-5e8413de3711","system_id":"levelo_inurba_marseille","lat":43.30525,"lon":5.36689,"is_reserved":false,"is_disabled":false,"rental_uris":{"android":"levelo://app?vid=a4475511-dd18-4806-bccd-5e8413de3711","ios":"levelo://app?vid=a4475511-dd18-4806-bccd-5e8413de3711"},"vehicle_type_id":"4","last_reported":1747300290,"current_range_meters":6400,"station_id":"ce4bgrp2rcd13ifvqc9g","pricing_plan_id":"cebpf4jnsgd1na2vs0mg"},{"bike_id":"9a3c7d30-12aa-469c-8ce0-eaf060c71ad4","system_id":"levelo_inurba_marseille","lat":43.31683,"lon":5.40474,"is_reserved":false,"is_disabled":false,"rental_uris":{"android":"levelo://app?vid=9a3c7d30-12aa-469c-8ce0-eaf060c71ad4","ios":"levelo://app?vid=9a3c7d30-12aa-469c-8ce0-eaf060c71ad4"},"vehicle_type_id":"4","last_reported":1747300290,"current_range_meters":6400,"station_id":"ce4bh012rcd13ifvqd00","pricing_plan_id":"cebpf4jnsgd1na2vs0mg"},{"bike_id":"4a81308a-342b-427b-a159-19c06c731c3e","system_id":"levelo_inurba_marseille","lat":43.24072,"lon":5.37757,"is_reserved":false,"is_disabled":false,"rental_uris":{"android":"levelo://app?vid=4a81308a-342b-427b-a159-19c06c731c3e","ios":"levelo://app?vid=4a81308a-342b-427b-a159-19c06c731c3e"},"vehicle_type_id":"4","last_reported":1747300290,"current_range_meters":7200,"station_id":"ce4bhnp2rcd13ifvqgvg","pricing_plan_id":"cebpf4jnsgd1na2vs0mg"},{"bike_id":"d3adf1de-82ef-485f-b931-44e738c720a9","system_id":"levelo_inurba_marseille","lat":43.32483,"lon":5.36606,"is_reserved":false,"is_disabled":false,"rental_uris":{"android":"levelo://app?vid=d3adf1de-82ef-485f-b931-44e738c720a9","ios":"levelo://app?vid=d3adf1de-82ef-485f-b931-44e738c720a9"},"vehicle_type_id":"4","last_reported":1747300290,"current_range_meters":7200,"station_id":"ce4bhs12rcd13ifvqhvg","pricing_plan_id":"cebpf4jnsgd1na2vs0mg"},{"bike_id":"0fae8473-1029-4d38-a67a-15b945b08784","system_id":"levelo_inurba_marseille","lat":43.337444,"lon":5.374475,"is_reserved":false,"is_disabled":false,"rental_uris":{"android":"levelo://app?vid=0fae8473-1029-4d38-a67a-15b945b08784","ios":"levelo://app?vid=0fae8473-1029-4d38-a67a-15b945b08784"},"vehicle_type_id":"4","last_reported":1747300290,"current_range_meters":7200,"station_id":"","pricing_plan_id":"cebpf4jnsgd1na2vs0mg"},{"bike_id":"3faf053c-e846-4d83-83ee-8fd51efc38bb","system_id":"levelo_inurba_marseille","lat":43.321059,"lon":5.367717,"is_reserved":false,"is_disabled":false,"rental_uris":{"android":"levelo://app?vid=3faf053c-e846-4d83-83ee-8fd51efc38bb","ios":"levelo://app?vid=3faf053c-e846-4d83-83ee-8fd51efc38bb"},"vehicle_type_id":"4","last_reported":1747300290,"current_range_meters":8000,"station_id":"ce4bhrh2rcd13ifvqhug","pricing_plan_id":"cebpf4jnsgd1na2vs0mg"},{"bike_id":"6a94c510-06e9-4819-80f4-2a1f66907200","system_id":"levelo_inurba_marseille","lat":43.24312,"lon":5.38003,"is_reserved":false,"is_disabled":false,"rental_uris":{"android":"levelo://app?vid=6a94c510-06e9-4819-80f4-2a1f66907200","ios":"levelo://app?vid=6a94c510-06e9-4819-80f4-2a1f66907200"},"vehicle_type_id":"4","last_reported":1747300290,"current_range_meters":8400,"station_id":"","pricing_plan_id":"cebpf4jnsgd1na2vs0mg"},{"bike_id":"82603b8c-d6ba-4619-8add-12c049338456","system_id":"levelo_inurba_marseille","lat":43.2909,"lon":5.38153,"is_reserved":false,"is_disabled":false,"rental_uris":{"android":"levelo://app?vid=82603b8c-d6ba-4619-8add-12c049338456","ios":"levelo://app?vid=82603b8c-d6ba-4619-8add-12c049338456"},"vehicle_type_id":"4","last_reported":1747300290,"current_range_meters":8400,"station_id":"ce4bh512rcd13ifvqe2g","pricing_plan_id":"cebpf4jnsgd1na2vs0mg"},{"bike_id":"d414cc79-093d-4e3c-a0fb-23753cfee462","system_id":"levelo_inurba_marseille","lat":43.30511,"lon":5.36557,"is_reserved":false,"is_disabled":false,"rental_uris":{"android":"levelo://app?vid=d414cc79-093d-4e3c-a0fb-23753cfee462","ios":"levelo://app?vid=d414cc79-093d-4e3c-a0fb-23753cfee462"},"vehicle_type_id":"4","last_reported":1747300290,"current_range_meters":8400,"station_id":"ce4bgs12rcd13ifvqcag","pricing_plan_id":"cebpf4jnsgd1na2vs0mg"},{"bike_id":"d6b6dc69-f44a-4bb1-8871-3d6962ef58ae","system_id":"levelo_inurba_marseille","lat":43.32474,"lon":5.36578,"is_reserved":false,"is_disabled":false,"rental_uris":{"android":"levelo://app?vid=d6b6dc69-f44a-4bb1-8871-3d6962ef58ae","ios":"levelo://app?vid=d6b6dc69-f44a-4bb1-8871-3d6962ef58ae"},"vehicle_type_id":"4","last_reported":1747300290,"current_range_meters":8400,"station_id":"ce4bhs12rcd13ifvqhvg","pricing_plan_id":"cebpf4jnsgd1na2vs0mg"},{"bike_id":"e3faef6f-635a-4b6b-b2b3-c0b918604df6","system_id":"levelo_inurba_marseille","lat":43.299139,"lon":5.436625,"is_reserved":false,"is_disabled":false,"rental_uris":{"android":"levelo://app?vid=e3faef6f-635a-4b6b-b2b3-c0b918604df6","ios":"levelo://app?vid=e3faef6f-635a-4b6b-b2b3-c0b918604df6"},"vehicle_type_id":"4","last_reported":1747300290,"current_range_meters":8400,"station_id":"ce4bhpp2rcd13ifvqhfg","pricing_plan_id":"cebpf4jnsgd1na2vs0mg"},{"bike_id":"4a0abeac-b196-4bcd-ab54-60fd237c0be2","system_id":"levelo_inurba_marseille","lat":43.241677,"lon":5.363937,"is_reserved":false,"is_disabled":false,"rental_uris":{"android":"levelo://app?vid=4a0abeac-b196-4bcd-ab54-60fd237c0be2","ios":"levelo://app?vid=4a0abeac-b196-4bcd-ab54-60fd237c0be2"},"vehicle_type_id":"4","last_reported":1747300290,"current_range_meters":8800,"station_id":"cpo36qri1sfpv3e86is0","pricing_plan_id":"cebpf4jnsgd1na2vs0mg"},{"bike_id":"0cdbca49-b276-449f-a941-1fbcbec55b0b","system_id":"levelo_inurba_marseille","lat":43.2923,"lon":5.36367,"is_reserved":false,"is_disabled":true,"rental_uris":{"android":"levelo://app?vid=0cdbca49-b276-449f-a941-1fbcbec55b0b","ios":"levelo://app?vid=0cdbca49-b276-449f-a941-1fbcbec55b0b"},"vehicle_type_id":"4","last_reported":1747300290,"current_range_meters":8800,"station_id":"","pricing_plan_id":"cebpf4jnsgd1na2vs0mg"},{"bike_id":"47a9c23f-1771-461f-89ed-b94ee9b8ab8a","system_id":"levelo_inurba_marseille","lat":43.27492,"lon":5.42459,"is_reserved":false,"is_disabled":false,"rental_uris":{"android":"levelo://app?vid=47a9c23f-1771-461f-89ed-b94ee9b8ab8a","ios":"levelo://app?vid=47a9c23f-1771-461f-89ed-b94ee9b8ab8a"},"vehicle_type_id":"4","last_reported":1747300290,"current_range_meters":9200,"station_id":"ce4bhn92rcd13ifvqgrg","pricing_plan_id":"cebpf4jnsgd1na2vs0mg"},{"bike_id":"c74d9a46-e945-4927-8583-d428d0eb9ac1","system_id":"levelo_inurba_marseille","lat":43.24067,"lon":5.37756,"is_reserved":false,"is_disabled":false,"rental_uris":{"android":"levelo://app?vid=c74d9a46-e945-4927-8583-d428d0eb9ac1","ios":"levelo://app?vid=c74d9a46-e945-4927-8583-d428d0eb9ac1"},"vehicle_type_id":"4","last_reported":1747300290,"current_range_meters":9200,"station_id":"ce4bhnp2rcd13ifvqgvg","pricing_plan_id":"cebpf4jnsgd1na2vs0mg"},{"bike_id":"8983af57-2b74-48d8-ac5d-b01434d42f53","system_id":"levelo_inurba_marseille","lat":43.30901,"lon":5.36852,"is_reserved":false,"is_disabled":false,"rental_uris":{"android":"levelo://app?vid=8983af57-2b74-48d8-ac5d-b01434d42f53","ios":"levelo://app?vid=8983af57-2b74-48d8-ac5d-b01434d42f53"},"vehicle_type_id":"4","last_reported":1747300290,"current_range_meters":9200,"station_id":"ce4bgn92rcd13ifvqbvg","pricing_plan_id":"cebpf4jnsgd1na2vs0mg"},{"bike_id":"803e72a1-5d0e-4def-87b2-deb9c4d14ee4","system_id":"levelo_inurba_marseille","lat":43.325387,"lon":5.414293,"is_reserved":false,"is_disabled":false,"rental_uris":{"android":"levelo://app?vid=803e72a1-5d0e-4def-87b2-deb9c4d14ee4","ios":"levelo://app?vid=803e72a1-5d0e-4def-87b2-deb9c4d14ee4"},"vehicle_type_id":"4","last_reported":1747300290,"current_range_meters":9200,"station_id":"ce4bhq12rcd13ifvqhhg","pricing_plan_id":"cebpf4jnsgd1na2vs0mg"},{"bike_id":"20fcda9d-0115-470e-9652-ba64d3c9d75e","system_id":"levelo_inurba_marseille","lat":43.243873,"lon":5.370547,"is_reserved":false,"is_disabled":false,"rental_uris":{"android":"levelo://app?vid=20fcda9d-0115-470e-9652-ba64d3c9d75e","ios":"levelo://app?vid=20fcda9d-0115-470e-9652-ba64d3c9d75e"},"vehicle_type_id":"4","last_reported":1747300290,"current_range_meters":9600,"station_id":"ce4bhhh2rcd13ifvqfk0","pricing_plan_id":"cebpf4jnsgd1na2vs0mg"},{"bike_id":"9f22b8aa-a9ca-4a2c-ab0b-0a0b10dbe182","system_id":"levelo_inurba_marseille","lat":43.3248,"lon":5.36603,"is_reserved":false,"is_disabled":false,"rental_uris":{"android":"levelo://app?vid=9f22b8aa-a9ca-4a2c-ab0b-0a0b10dbe182","ios":"levelo://app?vid=9f22b8aa-a9ca-4a2c-ab0b-0a0b10dbe182"},"vehicle_type_id":"4","last_reported":1747300290,"current_range_meters":9600,"station_id":"ce4bhs12rcd13ifvqhvg","pricing_plan_id":"cebpf4jnsgd1na2vs0mg"},{"bike_id":"c68022f0-7be7-4dde-9a51-7a59aed68b2d","system_id":"levelo_inurba_marseille","lat":43.231495,"lon":5.437062,"is_reserved":false,"is_disabled":false,"rental_uris":{"android":"levelo://app?vid=c68022f0-7be7-4dde-9a51-7a59aed68b2d","ios":"levelo://app?vid=c68022f0-7be7-4dde-9a51-7a59aed68b2d"},"vehicle_type_id":"4","last_reported":1747300290,"current_range_meters":9600,"station_id":"ce4bhmp2rcd13ifvqgog","pricing_plan_id":"cebpf4jnsgd1na2vs0mg"},{"bike_id":"b4ab39c3-0d60-4245-b87b-09baaec1b976","system_id":"levelo_inurba_marseille","lat":43.299323,"lon":5.381983,"is_reserved":false,"is_disabled":false,"rental_uris":{"android":"levelo://app?vid=b4ab39c3-0d60-4245-b87b-09baaec1b976","ios":"levelo://app?vid=b4ab39c3-0d60-4245-b87b-09baaec1b976"},"vehicle_type_id":"4","last_reported":1747300290,"current_range_meters":9600,"station_id":"","pricing_plan_id":"cebpf4jnsgd1na2vs0mg"},{"bike_id":"35af60dd-3daa-43a1-a3c9-97c17558b338","system_id":"levelo_inurba_marseille","lat":43.28043,"lon":5.36942,"is_reserved":false,"is_disabled":false,"rental_uris":{"android":"levelo://app?vid=35af60dd-3daa-43a1-a3c9-97c17558b338","ios":"levelo://app?vid=35af60dd-3daa-43a1-a3c9-97c17558b338"},"vehicle_type_id":"4","last_reported":1747300290,"current_range_meters":9600,"station_id":"ce4bha12rcd13ifvqef0","pricing_plan_id":"cebpf4jnsgd1na2vs0mg"},{"bike_id":"32b795b7-31fb-4b27-8f5a-521ce3813fee","system_id":"levelo_inurba_marseille","lat":43.26947,"lon":5.38634,"is_reserved":false,"is_disabled":false,"rental_uris":{"android":"levelo://app?vid=32b795b7-31fb-4b27-8f5a-521ce3813fee","ios":"levelo://app?vid=32b795b7-31fb-4b27-8f5a-521ce3813fee"},"vehicle_type_id":"4","last_reported":1747300290,"current_range_meters":9600,"station_id":"ce4bhh92rcd13ifvqfh0","pricing_plan_id":"cebpf4jnsgd1na2vs0mg"},{"bike_id":"15b66e6f-f5b4-4e63-91d4-0c7c7c64d470","system_id":"levelo_inurba_marseille","lat":43.31345,"lon":5.36724,"is_reserved":false,"is_disabled":false,"rental_uris":{"android":"levelo://app?vid=15b66e6f-f5b4-4e63-91d4-0c7c7c64d470","ios":"levelo://app?vid=15b66e6f-f5b4-4e63-91d4-0c7c7c64d470"},"vehicle_type_id":"4","last_reported":1747300290,"current_range_meters":10000,"station_id":"ce4bgr92rcd13ifvqc6g","pricing_plan_id":"cebpf4jnsgd1na2vs0mg"},{"bike_id":"f301c5cf-fe86-4623-864c-8d34f772cdbd","system_id":"levelo_inurba_marseille","lat":43.28961,"lon":5.37841,"is_reserved":false,"is_disabled":false,"rental_uris":{"android":"levelo://app?vid=f301c5cf-fe86-4623-864c-8d34f772cdbd","ios":"levelo://app?vid=f301c5cf-fe86-4623-864c-8d34f772cdbd"},"vehicle_type_id":"4","last_reported":1747300290,"current_range_meters":10000,"station_id":"ce4bh9p2rcd13ifvqed0","pricing_plan_id":"cebpf4jnsgd1na2vs0mg"},{"bike_id":"cb06962e-7764-4659-aa53-de99a4637cff","system_id":"levelo_inurba_marseille","lat":43.29264,"lon":5.38429,"is_reserved":false,"is_disabled":false,"rental_uris":{"android":"levelo://app?vid=cb06962e-7764-4659-aa53-de99a4637cff","ios":"levelo://app?vid=cb06962e-7764-4659-aa53-de99a4637cff"},"vehicle_type_id":"4","last_reported":1747300290,"current_range_meters":10000,"station_id":"ce4bh692rcd13ifvqea0","pricing_plan_id":"cebpf4jnsgd1na2vs0mg"},{"bike_id":"c0e50a0a-d47d-4ec7-ba5c-4b56053f7d0f","system_id":"levelo_inurba_marseille","lat":43.23149,"lon":5.43725,"is_reserved":false,"is_disabled":false,"rental_uris":{"android":"levelo://app?vid=c0e50a0a-d47d-4ec7-ba5c-4b56053f7d0f","ios":"levelo://app?vid=c0e50a0a-d47d-4ec7-ba5c-4b56053f7d0f"},"vehicle_type_id":"4","last_reported":1747300290,"current_range_meters":10000,"station_id":"ce4bhmp2rcd13ifvqgog","pricing_plan_id":"cebpf4jnsgd1na2vs0mg"},{"bike_id":"267c9e85-5681-4963-84eb-5898f4a618db","system_id":"levelo_inurba_marseille","lat":43.3126,"lon":5.36868,"is_reserved":false,"is_disabled":false,"rental_uris":{"android":"levelo://app?vid=267c9e85-5681-4963-84eb-5898f4a618db","ios":"levelo://app?vid=267c9e85-5681-4963-84eb-5898f4a618db"},"vehicle_type_id":"4","last_reported":1747300290,"current_range_meters":10000,"station_id":"ce4bgl92rcd13ifvqbq0","pricing_plan_id":"cebpf4jnsgd1na2vs0mg"},{"bike_id":"17d57f58-ffb0-4d77-bbe5-7f462887ac74","system_id":"levelo_inurba_marseille","lat":43.24165,"lon":5.39726,"is_reserved":false,"is_disabled":false,"rental_uris":{"android":"levelo://app?vid=17d57f58-ffb0-4d77-bbe5-7f462887ac74","ios":"levelo://app?vid=17d57f58-ffb0-4d77-bbe5-7f462887ac74"},"vehicle_type_id":"4","last_reported":1747300290,"current_range_meters":10000,"station_id":"ce4bhn12rcd13ifvqgpg","pricing_plan_id":"cebpf4jnsgd1na2vs0mg"},{"bike_id":"7cad8bbf-afe9-4767-8543-3e633fd367b9","system_id":"levelo_inurba_marseille","lat":43.27804,"lon":5.40712,"is_reserved":false,"is_disabled":false,"rental_uris":{"android":"levelo://app?vid=7cad8bbf-afe9-4767-8543-3e633fd367b9","ios":"levelo://app?vid=7cad8bbf-afe9-4767-8543-3e633fd367b9"},"vehicle_type_id":"4","last_reported":1747300290,"current_range_meters":10000,"station_id":"ce4bhnh2rcd13ifvqgtg","pricing_plan_id":"cebpf4jnsgd1na2vs0mg"},{"bike_id":"e53c7f18-60cf-4219-9ac8-4254c2f9fe68","system_id":"levelo_inurba_marseille","lat":43.312231,"lon":5.368524,"is_reserved":false,"is_disabled":false,"rental_uris":{"android":"levelo://app?vid=e53c7f18-60cf-4219-9ac8-4254c2f9fe68","ios":"levelo://app?vid=e53c7f18-60cf-4219-9ac8-4254c2f9fe68"},"vehicle_type_id":"4","last_reported":1747300290,"current_range_meters":10000,"station_id":"ce4bgl92rcd13ifvqbq0","pricing_plan_id":"cebpf4jnsgd1na2vs0mg"},{"bike_id":"41b33d7c-6c8a-409a-b131-255c477e31e5","system_id":"levelo_inurba_marseille","lat":43.28942,"lon":5.39622,"is_reserved":false,"is_disabled":false,"rental_uris":{"android":"levelo://app?vid=41b33d7c-6c8a-409a-b131-255c477e31e5","ios":"levelo://app?vid=41b33d7c-6c8a-409a-b131-255c477e31e5"},"vehicle_type_id":"4","last_reported":1747300290,"current_range_meters":10800,"station_id":"ce4bh3h2rcd13ifvqdn0","pricing_plan_id":"cebpf4jnsgd1na2vs0mg"},{"bike_id":"506fdbcb-8e6c-468e-b3c3-c6dc180ea9e2","system_id":"levelo_inurba_marseille","lat":43.30535,"lon":5.36509,"is_reserved":false,"is_disabled":false,"rental_uris":{"android":"levelo://app?vid=506fdbcb-8e6c-468e-b3c3-c6dc180ea9e2","ios":"levelo://app?vid=506fdbcb-8e6c-468e-b3c3-c6dc180ea9e2"},"vehicle_type_id":"4","last_reported":1747300290,"current_range_meters":10800,"station_id":"ce4bgs12rcd13ifvqcag","pricing_plan_id":"cebpf4jnsgd1na2vs0mg"},{"bike_id":"0530a2ed-92a9-4159-924b-fea1b126d795","system_id":"levelo_inurba_marseille","lat":43.27492,"lon":5.42456,"is_reserved":false,"is_disabled":false,"rental_uris":{"android":"levelo://app?vid=0530a2ed-92a9-4159-924b-fea1b126d795","ios":"levelo://app?vid=0530a2ed-92a9-4159-924b-fea1b126d795"},"vehicle_type_id":"4","last_reported":1747300290,"current_range_meters":10800,"station_id":"ce4bhn92rcd13ifvqgrg","pricing_plan_id":"cebpf4jnsgd1na2vs0mg"},{"bike_id":"44fb5e37-bb3e-4724-a1f0-683c574ce577","system_id":"levelo_inurba_marseille","lat":43.30146,"lon":5.37423,"is_reserved":false,"is_disabled":false,"rental_uris":{"android":"levelo://app?vid=44fb5e37-bb3e-4724-a1f0-683c574ce577","ios":"levelo://app?vid=44fb5e37-bb3e-4724-a1f0-683c574ce577"},"vehicle_type_id":"4","last_reported":1747300290,"current_range_meters":10800,"station_id":"ce4bgs92rcd13ifvqcc0","pricing_plan_id":"cebpf4jnsgd1na2vs0mg"},{"bike_id":"935a4618-7a7b-441e-821f-b751e9f1c0bf","system_id":"levelo_inurba_marseille","lat":43.33606,"lon":5.41035,"is_reserved":false,"is_disabled":false,"rental_uris":{"android":"levelo://app?vid=935a4618-7a7b-441e-821f-b751e9f1c0bf","ios":"levelo://app?vid=935a4618-7a7b-441e-821f-b751e9f1c0bf"},"vehicle_type_id":"4","last_reported":1747300290,"current_range_meters":11200,"station_id":"ce4bhqh2rcd13ifvqhmg","pricing_plan_id":"cebpf4jnsgd1na2vs0mg"},{"bike_id":"15b78ca4-8eda-4012-b392-8e1c04a2c79c","system_id":"levelo_inurba_marseille","lat":43.27987,"lon":5.41658,"is_reserved":false,"is_disabled":true,"rental_uris":{"android":"levelo://app?vid=15b78ca4-8eda-4012-b392-8e1c04a2c79c","ios":"levelo://app?vid=15b78ca4-8eda-4012-b392-8e1c04a2c79c"},"vehicle_type_id":"4","last_reported":1747300290,"current_range_meters":11200,"station_id":"ce4bho12rcd13ifvqh1g","pricing_plan_id":"cebpf4jnsgd1na2vs0mg"},{"bike_id":"a659d3a2-a77e-4445-b865-dc8af1e6016e","system_id":"levelo_inurba_marseille","lat":43.30551,"lon":5.36565,"is_reserved":false,"is_disabled":false,"rental_uris":{"android":"levelo://app?vid=a659d3a2-a77e-4445-b865-dc8af1e6016e","ios":"levelo://app?vid=a659d3a2-a77e-4445-b865-dc8af1e6016e"},"vehicle_type_id":"4","last_reported":1747300290,"current_range_meters":11200,"station_id":"ce4bgs12rcd13ifvqcag","pricing_plan_id":"cebpf4jnsgd1na2vs0mg"},{"bike_id":"8c7308bf-84fd-4edb-9b86-07fbeaf5e51b","system_id":"levelo_inurba_marseille","lat":43.31715,"lon":5.42415,"is_reserved":false,"is_disabled":false,"rental_uris":{"android":"levelo://app?vid=8c7308bf-84fd-4edb-9b86-07fbeaf5e51b","ios":"levelo://app?vid=8c7308bf-84fd-4edb-9b86-07fbeaf5e51b"},"vehicle_type_id":"4","last_reported":1747300290,"current_range_meters":11200,"station_id":"ce4bhp92rcd13ifvqhbg","pricing_plan_id":"cebpf4jnsgd1na2vs0mg"},{"bike_id":"5f8fafbd-da8c-48ac-8c7c-bf3d8590025a","system_id":"levelo_inurba_marseille","lat":43.30417,"lon":5.3975,"is_reserved":false,"is_disabled":false,"rental_uris":{"android":"levelo://app?vid=5f8fafbd-da8c-48ac-8c7c-bf3d8590025a","ios":"levelo://app?vid=5f8fafbd-da8c-48ac-8c7c-bf3d8590025a"},"vehicle_type_id":"4","last_reported":1747300290,"current_range_meters":11600,"station_id":"ce4bh092rcd13ifvqd20","pricing_plan_id":"cebpf4jnsgd1na2vs0mg"},{"bike_id":"4b861f6c-3490-40c2-86d9-e3e7a9b252dd","system_id":"levelo_inurba_marseille","lat":43.30425,"lon":5.39751,"is_reserved":false,"is_disabled":false,"rental_uris":{"android":"levelo://app?vid=4b861f6c-3490-40c2-86d9-e3e7a9b252dd","ios":"levelo://app?vid=4b861f6c-3490-40c2-86d9-e3e7a9b252dd"},"vehicle_type_id":"4","last_reported":1747300290,"current_range_meters":11600,"station_id":"ce4bh092rcd13ifvqd20","pricing_plan_id":"cebpf4jnsgd1na2vs0mg"},{"bike_id":"7c58a3f4-6a98-4306-8dfb-142f4c573f02","system_id":"levelo_inurba_marseille","lat":43.29527,"lon":5.38551,"is_reserved":false,"is_disabled":false,"rental_uris":{"android":"levelo://app?vid=7c58a3f4-6a98-4306-8dfb-142f4c573f02","ios":"levelo://app?vid=7c58a3f4-6a98-4306-8dfb-142f4c573f02"},"vehicle_type_id":"4","last_reported":1747300290,"current_range_meters":11600,"station_id":"ce4bgih2rcd13ifvqba0","pricing_plan_id":"cebpf4jnsgd1na2vs0mg"},{"bike_id":"7b639391-7de1-4dee-9a05-5bf24b20b1b5","system_id":"levelo_inurba_marseille","lat":43.31528,"lon":5.38043,"is_reserved":false,"is_disabled":false,"rental_uris":{"android":"levelo://app?vid=7b639391-7de1-4dee-9a05-5bf24b20b1b5","ios":"levelo://app?vid=7b639391-7de1-4dee-9a05-5bf24b20b1b5"},"vehicle_type_id":"4","last_reported":1747300290,"current_range_meters":11600,"station_id":"ce4bhsp2rcd13ifvqi50","pricing_plan_id":"cebpf4jnsgd1na2vs0mg"},{"bike_id":"f77b579e-9457-48a0-bf9a-123df6174e93","system_id":"levelo_inurba_marseille","lat":43.29083,"lon":5.38136,"is_reserved":false,"is_disabled":false,"rental_uris":{"android":"levelo://app?vid=f77b579e-9457-48a0-bf9a-123df6174e93","ios":"levelo://app?vid=f77b579e-9457-48a0-bf9a-123df6174e93"},"vehicle_type_id":"4","last_reported":1747300290,"current_range_meters":11600,"station_id":"ce4bh512rcd13ifvqe2g","pricing_plan_id":"cebpf4jnsgd1na2vs0mg"},{"bike_id":"cc377332-c824-4cf8-bc9d-97d1852f3692","system_id":"levelo_inurba_marseille","lat":43.317071,"lon":5.404599,"is_reserved":false,"is_disabled":false,"rental_uris":{"android":"levelo://app?vid=cc377332-c824-4cf8-bc9d-97d1852f3692","ios":"levelo://app?vid=cc377332-c824-4cf8-bc9d-97d1852f3692"},"vehicle_type_id":"4","last_reported":1747300290,"current_range_meters":12000,"station_id":"ce4bh012rcd13ifvqd00","pricing_plan_id":"cebpf4jnsgd1na2vs0mg"},{"bike_id":"1c511ce5-cc87-4793-99cb-f76dd1aa2b63","system_id":"levelo_inurba_marseille","lat":43.29874,"lon":5.38916,"is_reserved":false,"is_disabled":false,"rental_uris":{"android":"levelo://app?vid=1c511ce5-cc87-4793-99cb-f76dd1aa2b63","ios":"levelo://app?vid=1c511ce5-cc87-4793-99cb-f76dd1aa2b63"},"vehicle_type_id":"4","last_reported":1747300290,"current_range_meters":14000,"station_id":"ce4bh392rcd13ifvqdl0","pricing_plan_id":"cebpf4jnsgd1na2vs0mg"},{"bike_id":"cb8b7059-8a42-4571-9d84-7a35fb676251","system_id":"levelo_inurba_marseille","lat":43.26219,"lon":5.40455,"is_reserved":false,"is_disabled":true,"rental_uris":{"android":"levelo://app?vid=cb8b7059-8a42-4571-9d84-7a35fb676251","ios":"levelo://app?vid=cb8b7059-8a42-4571-9d84-7a35fb676251"},"vehicle_type_id":"4","last_reported":1747300290,"current_range_meters":12000,"station_id":"ce4bhmh2rcd13ifvqgmg","pricing_plan_id":"cebpf4jnsgd1na2vs0mg"},{"bike_id":"c7b1bacc-7751-409b-a0a7-624e134e58f3","system_id":"levelo_inurba_marseille","lat":43.297738,"lon":5.371265,"is_reserved":false,"is_disabled":false,"rental_uris":{"android":"levelo://app?vid=c7b1bacc-7751-409b-a0a7-624e134e58f3","ios":"levelo://app?vid=c7b1bacc-7751-409b-a0a7-624e134e58f3"},"vehicle_type_id":"4","last_reported":1747300290,"current_range_meters":12400,"station_id":"ce4bgop2rcd13ifvqc1g","pricing_plan_id":"cebpf4jnsgd1na2vs0mg"},{"bike_id":"49f5e08c-8dfa-4303-8db1-a90c2ea2bd03","system_id":"levelo_inurba_marseille","lat":43.27053,"lon":5.40258,"is_reserved":false,"is_disabled":false,"rental_uris":{"android":"levelo://app?vid=49f5e08c-8dfa-4303-8db1-a90c2ea2bd03","ios":"levelo://app?vid=49f5e08c-8dfa-4303-8db1-a90c2ea2bd03"},"vehicle_type_id":"4","last_reported":1747300290,"current_range_meters":12400,"station_id":"ce4bhk92rcd13ifvqgc0","pricing_plan_id":"cebpf4jnsgd1na2vs0mg"},{"bike_id":"f9f3d72e-85fc-4f6f-9267-8ebbd98e1a23","system_id":"levelo_inurba_marseille","lat":43.28278,"lon":5.35069,"is_reserved":false,"is_disabled":false,"rental_uris":{"android":"levelo://app?vid=f9f3d72e-85fc-4f6f-9267-8ebbd98e1a23","ios":"levelo://app?vid=f9f3d72e-85fc-4f6f-9267-8ebbd98e1a23"},"vehicle_type_id":"4","last_reported":1747300290,"current_range_meters":12400,"station_id":"ce4bhbp2rcd13ifvqerg","pricing_plan_id":"cebpf4jnsgd1na2vs0mg"},{"bike_id":"f614fbc3-09e3-4995-91c5-2566ddf9ad78","system_id":"levelo_inurba_marseille","lat":43.31235,"lon":5.36872,"is_reserved":false,"is_disabled":false,"rental_uris":{"android":"levelo://app?vid=f614fbc3-09e3-4995-91c5-2566ddf9ad78","ios":"levelo://app?vid=f614fbc3-09e3-4995-91c5-2566ddf9ad78"},"vehicle_type_id":"4","last_reported":1747300290,"current_range_meters":12400,"station_id":"ce4bgl92rcd13ifvqbq0","pricing_plan_id":"cebpf4jnsgd1na2vs0mg"},{"bike_id":"7d4b24cf-88a0-49f6-b6a5-d91d4118010c","system_id":"levelo_inurba_marseille","lat":43.24073,"lon":5.37763,"is_reserved":false,"is_disabled":false,"rental_uris":{"android":"levelo://app?vid=7d4b24cf-88a0-49f6-b6a5-d91d4118010c","ios":"levelo://app?vid=7d4b24cf-88a0-49f6-b6a5-d91d4118010c"},"vehicle_type_id":"4","last_reported":1747300290,"current_range_meters":12400,"station_id":"ce4bhnp2rcd13ifvqgvg","pricing_plan_id":"cebpf4jnsgd1na2vs0mg"},{"bike_id":"34af7d95-a46f-4a4d-b96f-03cda0e7d10e","system_id":"levelo_inurba_marseille","lat":43.27068,"lon":5.42283,"is_reserved":false,"is_disabled":false,"rental_uris":{"android":"levelo://app?vid=34af7d95-a46f-4a4d-b96f-03cda0e7d10e","ios":"levelo://app?vid=34af7d95-a46f-4a4d-b96f-03cda0e7d10e"},"vehicle_type_id":"4","last_reported":1747300290,"current_range_meters":12400,"station_id":"ce4bhk92rcd13ifvqgb0","pricing_plan_id":"cebpf4jnsgd1na2vs0mg"},{"bike_id":"94425245-09df-4108-9a30-610dbcaf2585","system_id":"levelo_inurba_marseille","lat":43.31718,"lon":5.42393,"is_reserved":false,"is_disabled":false,"rental_uris":{"android":"levelo://app?vid=94425245-09df-4108-9a30-610dbcaf2585","ios":"levelo://app?vid=94425245-09df-4108-9a30-610dbcaf2585"},"vehicle_type_id":"4","last_reported":1747300290,"current_range_meters":12800,"station_id":"ce4bhp92rcd13ifvqhbg","pricing_plan_id":"cebpf4jnsgd1na2vs0mg"},{"bike_id":"c482b56e-3d0c-4fc7-8b90-164a43f3f9c9","system_id":"levelo_inurba_marseille","lat":43.29628,"lon":5.40591,"is_reserved":false,"is_disabled":false,"rental_uris":{"android":"levelo://app?vid=c482b56e-3d0c-4fc7-8b90-164a43f3f9c9","ios":"levelo://app?vid=c482b56e-3d0c-4fc7-8b90-164a43f3f9c9"},"vehicle_type_id":"4","last_reported":1747300290,"current_range_meters":12800,"station_id":"ce4bh0h2rcd13ifvqd60","pricing_plan_id":"cebpf4jnsgd1na2vs0mg"},{"bike_id":"2c511460-bc69-4192-ae4d-20f65777a559","system_id":"levelo_inurba_marseille","lat":43.21747,"lon":5.34601,"is_reserved":false,"is_disabled":false,"rental_uris":{"android":"levelo://app?vid=2c511460-bc69-4192-ae4d-20f65777a559","ios":"levelo://app?vid=2c511460-bc69-4192-ae4d-20f65777a559"},"vehicle_type_id":"4","last_reported":1747300290,"current_range_meters":12800,"station_id":"st_cvj6r9ubvosntc0bgbag","pricing_plan_id":"cebpf4jnsgd1na2vs0mg"},{"bike_id":"a4254f33-dfdc-4beb-9ee4-21271a8a3aac","system_id":"levelo_inurba_marseille","lat":43.304174,"lon":5.412828,"is_reserved":false,"is_disabled":true,"rental_uris":{"android":"levelo://app?vid=a4254f33-dfdc-4beb-9ee4-21271a8a3aac","ios":"levelo://app?vid=a4254f33-dfdc-4beb-9ee4-21271a8a3aac"},"vehicle_type_id":"4","last_reported":1747300290,"current_range_meters":12800,"station_id":"ce4bhop2rcd13ifvqh8g","pricing_plan_id":"cebpf4jnsgd1na2vs0mg"},{"bike_id":"663ff73a-1f1c-4297-937e-01b4880b5a71","system_id":"levelo_inurba_marseille","lat":43.26058,"lon":5.3939,"is_reserved":false,"is_disabled":false,"rental_uris":{"android":"levelo://app?vid=663ff73a-1f1c-4297-937e-01b4880b5a71","ios":"levelo://app?vid=663ff73a-1f1c-4297-937e-01b4880b5a71"},"vehicle_type_id":"4","last_reported":1747300290,"current_range_meters":13600,"station_id":"ce4bhh92rcd13ifvqfj0","pricing_plan_id":"cebpf4jnsgd1na2vs0mg"},{"bike_id":"21f5a1a4-43c5-4049-8a8d-3146c5c35157","system_id":"levelo_inurba_marseille","lat":43.22934,"lon":5.35374,"is_reserved":false,"is_disabled":false,"rental_uris":{"android":"levelo://app?vid=21f5a1a4-43c5-4049-8a8d-3146c5c35157","ios":"levelo://app?vid=21f5a1a4-43c5-4049-8a8d-3146c5c35157"},"vehicle_type_id":"4","last_reported":1747300290,"current_range_meters":13600,"station_id":"cpo3532slgdg3j2ikp40","pricing_plan_id":"cebpf4jnsgd1na2vs0mg"},{"bike_id":"9b4b440d-b8c0-4709-9c4b-431dc1629b9a","system_id":"levelo_inurba_marseille","lat":43.27071,"lon":5.42281,"is_reserved":false,"is_disabled":false,"rental_uris":{"android":"levelo://app?vid=9b4b440d-b8c0-4709-9c4b-431dc1629b9a","ios":"levelo://app?vid=9b4b440d-b8c0-4709-9c4b-431dc1629b9a"},"vehicle_type_id":"4","last_reported":1747300290,"current_range_meters":13600,"station_id":"ce4bhk92rcd13ifvqgb0","pricing_plan_id":"cebpf4jnsgd1na2vs0mg"},{"bike_id":"ddfd940d-95a7-45bf-9c9c-763900983f9b","system_id":"levelo_inurba_marseille","lat":43.30537,"lon":5.36711,"is_reserved":false,"is_disabled":false,"rental_uris":{"android":"levelo://app?vid=ddfd940d-95a7-45bf-9c9c-763900983f9b","ios":"levelo://app?vid=ddfd940d-95a7-45bf-9c9c-763900983f9b"},"vehicle_type_id":"4","last_reported":1747300290,"current_range_meters":13600,"station_id":"ce4bgrp2rcd13ifvqc9g","pricing_plan_id":"cebpf4jnsgd1na2vs0mg"},{"bike_id":"503b1e6e-2a73-4f04-bb9f-80c3831538b1","system_id":"levelo_inurba_marseille","lat":43.30908,"lon":5.36848,"is_reserved":false,"is_disabled":false,"rental_uris":{"android":"levelo://app?vid=503b1e6e-2a73-4f04-bb9f-80c3831538b1","ios":"levelo://app?vid=503b1e6e-2a73-4f04-bb9f-80c3831538b1"},"vehicle_type_id":"4","last_reported":1747300290,"current_range_meters":14000,"station_id":"ce4bgn92rcd13ifvqbvg","pricing_plan_id":"cebpf4jnsgd1na2vs0mg"},{"bike_id":"a7ea9c6b-79ca-475f-9687-e86c8539d1a8","system_id":"levelo_inurba_marseille","lat":43.33611,"lon":5.41036,"is_reserved":false,"is_disabled":false,"rental_uris":{"android":"levelo://app?vid=a7ea9c6b-79ca-475f-9687-e86c8539d1a8","ios":"levelo://app?vid=a7ea9c6b-79ca-475f-9687-e86c8539d1a8"},"vehicle_type_id":"4","last_reported":1747300290,"current_range_meters":14400,"station_id":"ce4bhqh2rcd13ifvqhmg","pricing_plan_id":"cebpf4jnsgd1na2vs0mg"},{"bike_id":"2b1fb545-c4ae-47b0-a825-ffe05056cf90","system_id":"levelo_inurba_marseille","lat":43.301346,"lon":5.3741,"is_reserved":false,"is_disabled":false,"rental_uris":{"android":"levelo://app?vid=2b1fb545-c4ae-47b0-a825-ffe05056cf90","ios":"levelo://app?vid=2b1fb545-c4ae-47b0-a825-ffe05056cf90"},"vehicle_type_id":"4","last_reported":1747300290,"current_range_meters":14400,"station_id":"ce4bgs92rcd13ifvqcc0","pricing_plan_id":"cebpf4jnsgd1na2vs0mg"},{"bike_id":"249de94b-fd95-4983-a475-f4b57b786f5e","system_id":"levelo_inurba_marseille","lat":43.33604,"lon":5.41032,"is_reserved":false,"is_disabled":false,"rental_uris":{"android":"levelo://app?vid=249de94b-fd95-4983-a475-f4b57b786f5e","ios":"levelo://app?vid=249de94b-fd95-4983-a475-f4b57b786f5e"},"vehicle_type_id":"4","last_reported":1747300290,"current_range_meters":14400,"station_id":"ce4bhqh2rcd13ifvqhmg","pricing_plan_id":"cebpf4jnsgd1na2vs0mg"},{"bike_id":"56e65eb9-ab4c-4364-8104-32d9fc7f4088","system_id":"levelo_inurba_marseille","lat":43.30138,"lon":5.37428,"is_reserved":false,"is_disabled":false,"rental_uris":{"android":"levelo://app?vid=56e65eb9-ab4c-4364-8104-32d9fc7f4088","ios":"levelo://app?vid=56e65eb9-ab4c-4364-8104-32d9fc7f4088"},"vehicle_type_id":"4","last_reported":1747300290,"current_range_meters":14400,"station_id":"ce4bgs92rcd13ifvqcc0","pricing_plan_id":"cebpf4jnsgd1na2vs0mg"},{"bike_id":"d9a9c110-ce4d-471f-b0b4-35c9c28ef371","system_id":"levelo_inurba_marseille","lat":43.25487,"lon":5.37645,"is_reserved":false,"is_disabled":false,"rental_uris":{"android":"levelo://app?vid=d9a9c110-ce4d-471f-b0b4-35c9c28ef371","ios":"levelo://app?vid=d9a9c110-ce4d-471f-b0b4-35c9c28ef371"},"vehicle_type_id":"4","last_reported":1747300290,"current_range_meters":14800,"station_id":"ce4bhh12rcd13ifvqff0","pricing_plan_id":"cebpf4jnsgd1na2vs0mg"},{"bike_id":"29f31b6e-00bf-43cf-b902-125abe593de5","system_id":"levelo_inurba_marseille","lat":43.30546,"lon":5.36689,"is_reserved":false,"is_disabled":false,"rental_uris":{"android":"levelo://app?vid=29f31b6e-00bf-43cf-b902-125abe593de5","ios":"levelo://app?vid=29f31b6e-00bf-43cf-b902-125abe593de5"},"vehicle_type_id":"4","last_reported":1747300290,"current_range_meters":14800,"station_id":"ce4bgrp2rcd13ifvqc9g","pricing_plan_id":"cebpf4jnsgd1na2vs0mg"},{"bike_id":"92537683-4d91-4a32-bb5a-02ddb8e66aad","system_id":"levelo_inurba_marseille","lat":43.30134,"lon":5.37428,"is_reserved":false,"is_disabled":false,"rental_uris":{"android":"levelo://app?vid=92537683-4d91-4a32-bb5a-02ddb8e66aad","ios":"levelo://app?vid=92537683-4d91-4a32-bb5a-02ddb8e66aad"},"vehicle_type_id":"4","last_reported":1747300290,"current_range_meters":14800,"station_id":"ce4bgs92rcd13ifvqcc0","pricing_plan_id":"cebpf4jnsgd1na2vs0mg"},{"bike_id":"214e0fae-df4c-4c1f-8550-fe4eafcb836a","system_id":"levelo_inurba_marseille","lat":43.31352,"lon":5.3674,"is_reserved":false,"is_disabled":true,"rental_uris":{"android":"levelo://app?vid=214e0fae-df4c-4c1f-8550-fe4eafcb836a","ios":"levelo://app?vid=214e0fae-df4c-4c1f-8550-fe4eafcb836a"},"vehicle_type_id":"4","last_reported":1747300290,"current_range_meters":14800,"station_id":"ce4bgr92rcd13ifvqc6g","pricing_plan_id":"cebpf4jnsgd1na2vs0mg"},{"bike_id":"38d4b61c-75a4-4742-9581-e451ee5b8d79","system_id":"levelo_inurba_marseille","lat":43.255,"lon":5.37651,"is_reserved":false,"is_disabled":false,"rental_uris":{"android":"levelo://app?vid=38d4b61c-75a4-4742-9581-e451ee5b8d79","ios":"levelo://app?vid=38d4b61c-75a4-4742-9581-e451ee5b8d79"},"vehicle_type_id":"4","last_reported":1747300290,"current_range_meters":14800,"station_id":"ce4bhh12rcd13ifvqff0","pricing_plan_id":"cebpf4jnsgd1na2vs0mg"},{"bike_id":"eac3a62f-2d80-4d99-bc0d-ad84964488bb","system_id":"levelo_inurba_marseille","lat":43.30536,"lon":5.367,"is_reserved":false,"is_disabled":false,"rental_uris":{"android":"levelo://app?vid=eac3a62f-2d80-4d99-bc0d-ad84964488bb","ios":"levelo://app?vid=eac3a62f-2d80-4d99-bc0d-ad84964488bb"},"vehicle_type_id":"4","last_reported":1747300290,"current_range_meters":14800,"station_id":"ce4bgrp2rcd13ifvqc9g","pricing_plan_id":"cebpf4jnsgd1na2vs0mg"},{"bike_id":"6512dc23-f60a-488d-a315-f5d48618081a","system_id":"levelo_inurba_marseille","lat":43.26616,"lon":5.39014,"is_reserved":false,"is_disabled":false,"rental_uris":{"android":"levelo://app?vid=6512dc23-f60a-488d-a315-f5d48618081a","ios":"levelo://app?vid=6512dc23-f60a-488d-a315-f5d48618081a"},"vehicle_type_id":"4","last_reported":1747300290,"current_range_meters":14800,"station_id":"","pricing_plan_id":"cebpf4jnsgd1na2vs0mg"},{"bike_id":"2fcc4300-9147-4a4b-a12c-17076499c238","system_id":"levelo_inurba_marseille","lat":43.32541,"lon":5.41458,"is_reserved":false,"is_disabled":false,"rental_uris":{"android":"levelo://app?vid=2fcc4300-9147-4a4b-a12c-17076499c238","ios":"levelo://app?vid=2fcc4300-9147-4a4b-a12c-17076499c238"},"vehicle_type_id":"4","last_reported":1747300290,"current_range_meters":15200,"station_id":"ce4bhq12rcd13ifvqhhg","pricing_plan_id":"cebpf4jnsgd1na2vs0mg"},{"bike_id":"f0699f96-2baf-4e99-98c2-1b907d84825a","system_id":"levelo_inurba_marseille","lat":43.31529,"lon":5.38031,"is_reserved":false,"is_disabled":false,"rental_uris":{"android":"levelo://app?vid=f0699f96-2baf-4e99-98c2-1b907d84825a","ios":"levelo://app?vid=f0699f96-2baf-4e99-98c2-1b907d84825a"},"vehicle_type_id":"4","last_reported":1747300290,"current_range_meters":15200,"station_id":"ce4bhsp2rcd13ifvqi50","pricing_plan_id":"cebpf4jnsgd1na2vs0mg"},{"bike_id":"c1156e7e-4dc8-4d9f-982b-81f4b7e6218c","system_id":"levelo_inurba_marseille","lat":43.29879,"lon":5.39743,"is_reserved":false,"is_disabled":false,"rental_uris":{"android":"levelo://app?vid=c1156e7e-4dc8-4d9f-982b-81f4b7e6218c","ios":"levelo://app?vid=c1156e7e-4dc8-4d9f-982b-81f4b7e6218c"},"vehicle_type_id":"4","last_reported":1747300290,"current_range_meters":15200,"station_id":"ce4bh0h2rcd13ifvqd50","pricing_plan_id":"cebpf4jnsgd1na2vs0mg"},{"bike_id":"1d96b846-3f98-4789-9f4e-718c7a5c2479","system_id":"levelo_inurba_marseille","lat":43.31368,"lon":5.36752,"is_reserved":false,"is_disabled":false,"rental_uris":{"android":"levelo://app?vid=1d96b846-3f98-4789-9f4e-718c7a5c2479","ios":"levelo://app?vid=1d96b846-3f98-4789-9f4e-718c7a5c2479"},"vehicle_type_id":"4","last_reported":1747300290,"current_range_meters":15200,"station_id":"ce4bgr92rcd13ifvqc6g","pricing_plan_id":"cebpf4jnsgd1na2vs0mg"},{"bike_id":"24f5c00b-dc7e-40e1-a77c-02041c4d0155","system_id":"levelo_inurba_marseille","lat":43.29426,"lon":5.38576,"is_reserved":false,"is_disabled":true,"rental_uris":{"android":"levelo://app?vid=24f5c00b-dc7e-40e1-a77c-02041c4d0155","ios":"levelo://app?vid=24f5c00b-dc7e-40e1-a77c-02041c4d0155"},"vehicle_type_id":"4","last_reported":1747300290,"current_range_meters":15200,"station_id":"ce4bh2h2rcd13ifvqdh0","pricing_plan_id":"cebpf4jnsgd1na2vs0mg"},{"bike_id":"c0b9fd4f-e181-46ce-b0bf-f5119973334f","system_id":"levelo_inurba_marseille","lat":43.33771,"lon":5.37424,"is_reserved":false,"is_disabled":false,"rental_uris":{"android":"levelo://app?vid=c0b9fd4f-e181-46ce-b0bf-f5119973334f","ios":"levelo://app?vid=c0b9fd4f-e181-46ce-b0bf-f5119973334f"},"vehicle_type_id":"4","last_reported":1747300290,"current_range_meters":15200,"station_id":"","pricing_plan_id":"cebpf4jnsgd1na2vs0mg"},{"bike_id":"5df5f25e-a346-436e-b3c7-0939f5cb869e","system_id":"levelo_inurba_marseille","lat":43.3123,"lon":5.36795,"is_reserved":false,"is_disabled":false,"rental_uris":{"android":"levelo://app?vid=5df5f25e-a346-436e-b3c7-0939f5cb869e","ios":"levelo://app?vid=5df5f25e-a346-436e-b3c7-0939f5cb869e"},"vehicle_type_id":"4","last_reported":1747300290,"current_range_meters":16000,"station_id":"ce4bgl92rcd13ifvqbq0","pricing_plan_id":"cebpf4jnsgd1na2vs0mg"},{"bike_id":"1b2ca96b-a115-4009-b707-71f4c5b975d8","system_id":"levelo_inurba_marseille","lat":43.324877,"lon":5.365726,"is_reserved":false,"is_disabled":false,"rental_uris":{"android":"levelo://app?vid=1b2ca96b-a115-4009-b707-71f4c5b975d8","ios":"levelo://app?vid=1b2ca96b-a115-4009-b707-71f4c5b975d8"},"vehicle_type_id":"4","last_reported":1747300290,"current_range_meters":16000,"station_id":"ce4bhs12rcd13ifvqhvg","pricing_plan_id":"cebpf4jnsgd1na2vs0mg"},{"bike_id":"c3acc1e9-c036-4520-87a3-7e8466cee4e3","system_id":"levelo_inurba_marseille","lat":43.324914,"lon":5.365552,"is_reserved":false,"is_disabled":false,"rental_uris":{"android":"levelo://app?vid=c3acc1e9-c036-4520-87a3-7e8466cee4e3","ios":"levelo://app?vid=c3acc1e9-c036-4520-87a3-7e8466cee4e3"},"vehicle_type_id":"4","last_reported":1747300290,"current_range_meters":16000,"station_id":"ce4bhs12rcd13ifvqhvg","pricing_plan_id":"cebpf4jnsgd1na2vs0mg"},{"bike_id":"adef5078-55ad-4d03-ab0e-7c2e01abde19","system_id":"levelo_inurba_marseille","lat":43.23168,"lon":5.43696,"is_reserved":false,"is_disabled":false,"rental_uris":{"android":"levelo://app?vid=adef5078-55ad-4d03-ab0e-7c2e01abde19","ios":"levelo://app?vid=adef5078-55ad-4d03-ab0e-7c2e01abde19"},"vehicle_type_id":"4","last_reported":1747300290,"current_range_meters":16400,"station_id":"ce4bhmp2rcd13ifvqgog","pricing_plan_id":"cebpf4jnsgd1na2vs0mg"},{"bike_id":"7f113863-16e5-47f3-ad4a-4d9ec21d97bf","system_id":"levelo_inurba_marseille","lat":43.29254,"lon":5.40915,"is_reserved":false,"is_disabled":false,"rental_uris":{"android":"levelo://app?vid=7f113863-16e5-47f3-ad4a-4d9ec21d97bf","ios":"levelo://app?vid=7f113863-16e5-47f3-ad4a-4d9ec21d97bf"},"vehicle_type_id":"4","last_reported":1747300290,"current_range_meters":16400,"station_id":"ce4bh192rcd13ifvqdc0","pricing_plan_id":"cebpf4jnsgd1na2vs0mg"},{"bike_id":"d82557df-e581-4e7c-a50d-54afec677056","system_id":"levelo_inurba_marseille","lat":43.21747,"lon":5.34603,"is_reserved":false,"is_disabled":false,"rental_uris":{"android":"levelo://app?vid=d82557df-e581-4e7c-a50d-54afec677056","ios":"levelo://app?vid=d82557df-e581-4e7c-a50d-54afec677056"},"vehicle_type_id":"4","last_reported":1747300290,"current_range_meters":16400,"station_id":"st_cvj6r9ubvosntc0bgbag","pricing_plan_id":"cebpf4jnsgd1na2vs0mg"},{"bike_id":"27e9a88e-415a-4bca-b9c7-7005fff53b64","system_id":"levelo_inurba_marseille","lat":43.24077,"lon":5.37753,"is_reserved":false,"is_disabled":false,"rental_uris":{"android":"levelo://app?vid=27e9a88e-415a-4bca-b9c7-7005fff53b64","ios":"levelo://app?vid=27e9a88e-415a-4bca-b9c7-7005fff53b64"},"vehicle_type_id":"4","last_reported":1747300290,"current_range_meters":16800,"station_id":"ce4bhnp2rcd13ifvqgvg","pricing_plan_id":"cebpf4jnsgd1na2vs0mg"},{"bike_id":"385c5680-aa17-4953-8596-7f0cb64e8bcd","system_id":"levelo_inurba_marseille","lat":43.32476,"lon":5.36584,"is_reserved":false,"is_disabled":false,"rental_uris":{"android":"levelo://app?vid=385c5680-aa17-4953-8596-7f0cb64e8bcd","ios":"levelo://app?vid=385c5680-aa17-4953-8596-7f0cb64e8bcd"},"vehicle_type_id":"4","last_reported":1747300290,"current_range_meters":16800,"station_id":"ce4bhs12rcd13ifvqhvg","pricing_plan_id":"cebpf4jnsgd1na2vs0mg"},{"bike_id":"4b1ee3e0-2175-4959-bad5-9c90ab93a1ec","system_id":"levelo_inurba_marseille","lat":43.24071,"lon":5.37752,"is_reserved":false,"is_disabled":false,"rental_uris":{"android":"levelo://app?vid=4b1ee3e0-2175-4959-bad5-9c90ab93a1ec","ios":"levelo://app?vid=4b1ee3e0-2175-4959-bad5-9c90ab93a1ec"},"vehicle_type_id":"4","last_reported":1747300290,"current_range_meters":16800,"station_id":"ce4bhnp2rcd13ifvqgvg","pricing_plan_id":"cebpf4jnsgd1na2vs0mg"},{"bike_id":"a432731c-7424-4368-8893-6da21cb76da3","system_id":"levelo_inurba_marseille","lat":43.32474,"lon":5.36569,"is_reserved":false,"is_disabled":false,"rental_uris":{"android":"levelo://app?vid=a432731c-7424-4368-8893-6da21cb76da3","ios":"levelo://app?vid=a432731c-7424-4368-8893-6da21cb76da3"},"vehicle_type_id":"4","last_reported":1747300290,"current_range_meters":16800,"station_id":"ce4bhs12rcd13ifvqhvg","pricing_plan_id":"cebpf4jnsgd1na2vs0mg"},{"bike_id":"a97e7f2f-a4bd-43dc-a4a3-f47c4b150cbd","system_id":"levelo_inurba_marseille","lat":43.24185,"lon":5.3972,"is_reserved":false,"is_disabled":false,"rental_uris":{"android":"levelo://app?vid=a97e7f2f-a4bd-43dc-a4a3-f47c4b150cbd","ios":"levelo://app?vid=a97e7f2f-a4bd-43dc-a4a3-f47c4b150cbd"},"vehicle_type_id":"4","last_reported":1747300290,"current_range_meters":16800,"station_id":"ce4bhn12rcd13ifvqgpg","pricing_plan_id":"cebpf4jnsgd1na2vs0mg"},{"bike_id":"46d8de76-ce03-4a99-b9a9-0e690e273029","system_id":"levelo_inurba_marseille","lat":43.337716,"lon":5.374211,"is_reserved":false,"is_disabled":false,"rental_uris":{"android":"levelo://app?vid=46d8de76-ce03-4a99-b9a9-0e690e273029","ios":"levelo://app?vid=46d8de76-ce03-4a99-b9a9-0e690e273029"},"vehicle_type_id":"4","last_reported":1747300290,"current_range_meters":16800,"station_id":"","pricing_plan_id":"cebpf4jnsgd1na2vs0mg"},{"bike_id":"c282e99c-4751-49ad-8d00-d47b65a0649b","system_id":"levelo_inurba_marseille","lat":43.30612,"lon":5.37211,"is_reserved":false,"is_disabled":false,"rental_uris":{"android":"levelo://app?vid=c282e99c-4751-49ad-8d00-d47b65a0649b","ios":"levelo://app?vid=c282e99c-4751-49ad-8d00-d47b65a0649b"},"vehicle_type_id":"4","last_reported":1747300290,"current_range_meters":16800,"station_id":"ce4bgqh2rcd13ifvqc4g","pricing_plan_id":"cebpf4jnsgd1na2vs0mg"},{"bike_id":"bf148fad-e35c-429e-bfcc-e69d3314491e","system_id":"levelo_inurba_marseille","lat":43.312774,"lon":5.401671,"is_reserved":false,"is_disabled":false,"rental_uris":{"android":"levelo://app?vid=bf148fad-e35c-429e-bfcc-e69d3314491e","ios":"levelo://app?vid=bf148fad-e35c-429e-bfcc-e69d3314491e"},"vehicle_type_id":"4","last_reported":1747300290,"current_range_meters":16800,"station_id":"ce4bh092rcd13ifvqd30","pricing_plan_id":"cebpf4jnsgd1na2vs0mg"},{"bike_id":"23340d87-59f5-4bc6-8602-a0bd649c693b","system_id":"levelo_inurba_marseille","lat":43.27961,"lon":5.38716,"is_reserved":false,"is_disabled":false,"rental_uris":{"android":"levelo://app?vid=23340d87-59f5-4bc6-8602-a0bd649c693b","ios":"levelo://app?vid=23340d87-59f5-4bc6-8602-a0bd649c693b"},"vehicle_type_id":"4","last_reported":1747300290,"current_range_meters":16800,"station_id":"ce4bhg12rcd13ifvqf80","pricing_plan_id":"cebpf4jnsgd1na2vs0mg"},{"bike_id":"8b44f886-59c7-4896-a2ca-0dea931a883f","system_id":"levelo_inurba_marseille","lat":43.21205,"lon":5.3508,"is_reserved":false,"is_disabled":false,"rental_uris":{"android":"levelo://app?vid=8b44f886-59c7-4896-a2ca-0dea931a883f","ios":"levelo://app?vid=8b44f886-59c7-4896-a2ca-0dea931a883f"},"vehicle_type_id":"4","last_reported":1747300290,"current_range_meters":17200,"station_id":"st_cvj6sg6p6f1abm77japg","pricing_plan_id":"cebpf4jnsgd1na2vs0mg"},{"bike_id":"da199870-7ef4-4b69-93e0-cadbcc53e94c","system_id":"levelo_inurba_marseille","lat":43.32496,"lon":5.36576,"is_reserved":false,"is_disabled":false,"rental_uris":{"android":"levelo://app?vid=da199870-7ef4-4b69-93e0-cadbcc53e94c","ios":"levelo://app?vid=da199870-7ef4-4b69-93e0-cadbcc53e94c"},"vehicle_type_id":"4","last_reported":1747300290,"current_range_meters":17200,"station_id":"ce4bhs12rcd13ifvqhvg","pricing_plan_id":"cebpf4jnsgd1na2vs0mg"},{"bike_id":"dbd34c21-58aa-4a6b-9f71-a475cb3405ff","system_id":"levelo_inurba_marseille","lat":43.28427,"lon":5.34988,"is_reserved":false,"is_disabled":false,"rental_uris":{"android":"levelo://app?vid=dbd34c21-58aa-4a6b-9f71-a475cb3405ff","ios":"levelo://app?vid=dbd34c21-58aa-4a6b-9f71-a475cb3405ff"},"vehicle_type_id":"4","last_reported":1747300290,"current_range_meters":17200,"station_id":"ce4bhbh2rcd13ifvqepg","pricing_plan_id":"cebpf4jnsgd1na2vs0mg"},{"bike_id":"d04ed995-8a36-4144-9fcb-cd3000500f29","system_id":"levelo_inurba_marseille","lat":43.28265,"lon":5.35031,"is_reserved":false,"is_disabled":false,"rental_uris":{"android":"levelo://app?vid=d04ed995-8a36-4144-9fcb-cd3000500f29","ios":"levelo://app?vid=d04ed995-8a36-4144-9fcb-cd3000500f29"},"vehicle_type_id":"4","last_reported":1747300290,"current_range_meters":17200,"station_id":"ce4bhbp2rcd13ifvqerg","pricing_plan_id":"cebpf4jnsgd1na2vs0mg"},{"bike_id":"6414c6d0-c577-4b00-8541-05cb008ccfad","system_id":"levelo_inurba_marseille","lat":43.2842,"lon":5.3499,"is_reserved":false,"is_disabled":false,"rental_uris":{"android":"levelo://app?vid=6414c6d0-c577-4b00-8541-05cb008ccfad","ios":"levelo://app?vid=6414c6d0-c577-4b00-8541-05cb008ccfad"},"vehicle_type_id":"4","last_reported":1747300290,"current_range_meters":17600,"station_id":"ce4bhbh2rcd13ifvqepg","pricing_plan_id":"cebpf4jnsgd1na2vs0mg"},{"bike_id":"a2d6a384-311c-42f7-acd0-99b54160f604","system_id":"levelo_inurba_marseille","lat":43.30906,"lon":5.36853,"is_reserved":false,"is_disabled":false,"rental_uris":{"android":"levelo://app?vid=a2d6a384-311c-42f7-acd0-99b54160f604","ios":"levelo://app?vid=a2d6a384-311c-42f7-acd0-99b54160f604"},"vehicle_type_id":"4","last_reported":1747300290,"current_range_meters":17600,"station_id":"ce4bgn92rcd13ifvqbvg","pricing_plan_id":"cebpf4jnsgd1na2vs0mg"},{"bike_id":"9f1c2ee9-98dd-4df1-8342-aed9797c026a","system_id":"levelo_inurba_marseille","lat":43.27423,"lon":5.3942,"is_reserved":false,"is_disabled":false,"rental_uris":{"android":"levelo://app?vid=9f1c2ee9-98dd-4df1-8342-aed9797c026a","ios":"levelo://app?vid=9f1c2ee9-98dd-4df1-8342-aed9797c026a"},"vehicle_type_id":"4","last_reported":1747300290,"current_range_meters":17600,"station_id":"ce4bhdp2rcd13ifvqf20","pricing_plan_id":"cebpf4jnsgd1na2vs0mg"},{"bike_id":"0e642aa4-6b11-42d7-a2d5-23309c013ac1","system_id":"levelo_inurba_marseille","lat":43.30533,"lon":5.36706,"is_reserved":false,"is_disabled":false,"rental_uris":{"android":"levelo://app?vid=0e642aa4-6b11-42d7-a2d5-23309c013ac1","ios":"levelo://app?vid=0e642aa4-6b11-42d7-a2d5-23309c013ac1"},"vehicle_type_id":"4","last_reported":1747300290,"current_range_meters":17600,"station_id":"ce4bgrp2rcd13ifvqc9g","pricing_plan_id":"cebpf4jnsgd1na2vs0mg"},{"bike_id":"60af0a7f-4cfd-4f77-8f2f-31f09c58ccf0","system_id":"levelo_inurba_marseille","lat":43.21763,"lon":5.34594,"is_reserved":false,"is_disabled":false,"rental_uris":{"android":"levelo://app?vid=60af0a7f-4cfd-4f77-8f2f-31f09c58ccf0","ios":"levelo://app?vid=60af0a7f-4cfd-4f77-8f2f-31f09c58ccf0"},"vehicle_type_id":"4","last_reported":1747300290,"current_range_meters":18000,"station_id":"st_cvj6r9ubvosntc0bgbag","pricing_plan_id":"cebpf4jnsgd1na2vs0mg"},{"bike_id":"05647ffd-ffa9-4a9c-92e9-9a49dc821811","system_id":"levelo_inurba_marseille","lat":43.323594,"lon":5.367506,"is_reserved":false,"is_disabled":false,"rental_uris":{"android":"levelo://app?vid=05647ffd-ffa9-4a9c-92e9-9a49dc821811","ios":"levelo://app?vid=05647ffd-ffa9-4a9c-92e9-9a49dc821811"},"vehicle_type_id":"4","last_reported":1747300290,"current_range_meters":18000,"station_id":"ce4bhsh2rcd13ifvqi2g","pricing_plan_id":"cebpf4jnsgd1na2vs0mg"},{"bike_id":"d3ac89f6-e29a-454d-b9be-bb409dc4c71a","system_id":"levelo_inurba_marseille","lat":43.23153,"lon":5.43718,"is_reserved":false,"is_disabled":false,"rental_uris":{"android":"levelo://app?vid=d3ac89f6-e29a-454d-b9be-bb409dc4c71a","ios":"levelo://app?vid=d3ac89f6-e29a-454d-b9be-bb409dc4c71a"},"vehicle_type_id":"4","last_reported":1747300290,"current_range_meters":18800,"station_id":"ce4bhmp2rcd13ifvqgog","pricing_plan_id":"cebpf4jnsgd1na2vs0mg"},{"bike_id":"d10c9851-f41e-4d36-ba05-e2cdbfe2442f","system_id":"levelo_inurba_marseille","lat":43.31887,"lon":5.40736,"is_reserved":false,"is_disabled":false,"rental_uris":{"android":"levelo://app?vid=d10c9851-f41e-4d36-ba05-e2cdbfe2442f","ios":"levelo://app?vid=d10c9851-f41e-4d36-ba05-e2cdbfe2442f"},"vehicle_type_id":"4","last_reported":1747300290,"current_range_meters":18800,"station_id":"ce4bhq12rcd13ifvqhig","pricing_plan_id":"cebpf4jnsgd1na2vs0mg"},{"bike_id":"b73f5cf5-a240-43ee-b9ea-791176e2550e","system_id":"levelo_inurba_marseille","lat":43.32045,"lon":5.41554,"is_reserved":false,"is_disabled":false,"rental_uris":{"android":"levelo://app?vid=b73f5cf5-a240-43ee-b9ea-791176e2550e","ios":"levelo://app?vid=b73f5cf5-a240-43ee-b9ea-791176e2550e"},"vehicle_type_id":"4","last_reported":1747300290,"current_range_meters":18800,"station_id":"ce4bhq92rcd13ifvqhkg","pricing_plan_id":"cebpf4jnsgd1na2vs0mg"},{"bike_id":"54bb4a94-8c03-46f8-a98b-e1017dfaf0f6","system_id":"levelo_inurba_marseille","lat":43.30903,"lon":5.36848,"is_reserved":false,"is_disabled":false,"rental_uris":{"android":"levelo://app?vid=54bb4a94-8c03-46f8-a98b-e1017dfaf0f6","ios":"levelo://app?vid=54bb4a94-8c03-46f8-a98b-e1017dfaf0f6"},"vehicle_type_id":"4","last_reported":1747300290,"current_range_meters":18800,"station_id":"ce4bgn92rcd13ifvqbvg","pricing_plan_id":"cebpf4jnsgd1na2vs0mg"},{"bike_id":"51e4e34b-413f-472a-9d21-c2c414963e3e","system_id":"levelo_inurba_marseille","lat":43.23964,"lon":5.36629,"is_reserved":false,"is_disabled":false,"rental_uris":{"android":"levelo://app?vid=51e4e34b-413f-472a-9d21-c2c414963e3e","ios":"levelo://app?vid=51e4e34b-413f-472a-9d21-c2c414963e3e"},"vehicle_type_id":"4","last_reported":1747300290,"current_range_meters":18800,"station_id":"ce4bhi12rcd13ifvqfp0","pricing_plan_id":"cebpf4jnsgd1na2vs0mg"},{"bike_id":"aa53c5b9-c9b8-4906-989e-6e49a1f5abe6","system_id":"levelo_inurba_marseille","lat":43.22932,"lon":5.35377,"is_reserved":false,"is_disabled":false,"rental_uris":{"android":"levelo://app?vid=aa53c5b9-c9b8-4906-989e-6e49a1f5abe6","ios":"levelo://app?vid=aa53c5b9-c9b8-4906-989e-6e49a1f5abe6"},"vehicle_type_id":"4","last_reported":1747300290,"current_range_meters":18800,"station_id":"cpo3532slgdg3j2ikp40","pricing_plan_id":"cebpf4jnsgd1na2vs0mg"},{"bike_id":"49e06447-7ae3-4081-9889-d29a060b19ba","system_id":"levelo_inurba_marseille","lat":43.29852,"lon":5.36287,"is_reserved":false,"is_disabled":false,"rental_uris":{"android":"levelo://app?vid=49e06447-7ae3-4081-9889-d29a060b19ba","ios":"levelo://app?vid=49e06447-7ae3-4081-9889-d29a060b19ba"},"vehicle_type_id":"4","last_reported":1747300290,"current_range_meters":19200,"station_id":"ce4bgpp2rcd13ifvqc3g","pricing_plan_id":"cebpf4jnsgd1na2vs0mg"},{"bike_id":"7b8c29d2-9aa6-4e74-97af-cfc443bf2226","system_id":"levelo_inurba_marseille","lat":43.30554,"lon":5.36557,"is_reserved":false,"is_disabled":false,"rental_uris":{"android":"levelo://app?vid=7b8c29d2-9aa6-4e74-97af-cfc443bf2226","ios":"levelo://app?vid=7b8c29d2-9aa6-4e74-97af-cfc443bf2226"},"vehicle_type_id":"4","last_reported":1747300290,"current_range_meters":18800,"station_id":"ce4bgs12rcd13ifvqcag","pricing_plan_id":"cebpf4jnsgd1na2vs0mg"},{"bike_id":"6c28df84-bef2-4cb1-92e7-43ec89e259c7","system_id":"levelo_inurba_marseille","lat":43.24064,"lon":5.37762,"is_reserved":false,"is_disabled":false,"rental_uris":{"android":"levelo://app?vid=6c28df84-bef2-4cb1-92e7-43ec89e259c7","ios":"levelo://app?vid=6c28df84-bef2-4cb1-92e7-43ec89e259c7"},"vehicle_type_id":"4","last_reported":1747300290,"current_range_meters":18800,"station_id":"ce4bhnp2rcd13ifvqgvg","pricing_plan_id":"cebpf4jnsgd1na2vs0mg"},{"bike_id":"6f63f18d-0af0-4a06-a4c9-cfa07167ad2d","system_id":"levelo_inurba_marseille","lat":43.276783,"lon":5.38877,"is_reserved":false,"is_disabled":false,"rental_uris":{"android":"levelo://app?vid=6f63f18d-0af0-4a06-a4c9-cfa07167ad2d","ios":"levelo://app?vid=6f63f18d-0af0-4a06-a4c9-cfa07167ad2d"},"vehicle_type_id":"4","last_reported":1747300290,"current_range_meters":18800,"station_id":"ce4bhi12rcd13ifvqfo0","pricing_plan_id":"cebpf4jnsgd1na2vs0mg"},{"bike_id":"fc95f01f-b2d0-4206-93c2-4c9e24b0bb2e","system_id":"levelo_inurba_marseille","lat":43.25493,"lon":5.37647,"is_reserved":false,"is_disabled":false,"rental_uris":{"android":"levelo://app?vid=fc95f01f-b2d0-4206-93c2-4c9e24b0bb2e","ios":"levelo://app?vid=fc95f01f-b2d0-4206-93c2-4c9e24b0bb2e"},"vehicle_type_id":"4","last_reported":1747300290,"current_range_meters":18800,"station_id":"ce4bhh12rcd13ifvqff0","pricing_plan_id":"cebpf4jnsgd1na2vs0mg"},{"bike_id":"ad715953-7b2d-43be-afb0-f1d18127fa19","system_id":"levelo_inurba_marseille","lat":43.30546,"lon":5.36543,"is_reserved":false,"is_disabled":false,"rental_uris":{"android":"levelo://app?vid=ad715953-7b2d-43be-afb0-f1d18127fa19","ios":"levelo://app?vid=ad715953-7b2d-43be-afb0-f1d18127fa19"},"vehicle_type_id":"4","last_reported":1747300290,"current_range_meters":18800,"station_id":"ce4bgs12rcd13ifvqcag","pricing_plan_id":"cebpf4jnsgd1na2vs0mg"},{"bike_id":"24662577-69c7-4d84-a260-f2892b169180","system_id":"levelo_inurba_marseille","lat":43.21753,"lon":5.34607,"is_reserved":false,"is_disabled":false,"rental_uris":{"android":"levelo://app?vid=24662577-69c7-4d84-a260-f2892b169180","ios":"levelo://app?vid=24662577-69c7-4d84-a260-f2892b169180"},"vehicle_type_id":"4","last_reported":1747300290,"current_range_meters":19200,"station_id":"st_cvj6r9ubvosntc0bgbag","pricing_plan_id":"cebpf4jnsgd1na2vs0mg"},{"bike_id":"20b06a96-1794-4032-b651-bc092f36d70a","system_id":"levelo_inurba_marseille","lat":43.29003,"lon":5.35623,"is_reserved":false,"is_disabled":false,"rental_uris":{"android":"levelo://app?vid=20b06a96-1794-4032-b651-bc092f36d70a","ios":"levelo://app?vid=20b06a96-1794-4032-b651-bc092f36d70a"},"vehicle_type_id":"4","last_reported":1747300290,"current_range_meters":19200,"station_id":"ce4bhb92rcd13ifvqen0","pricing_plan_id":"cebpf4jnsgd1na2vs0mg"},{"bike_id":"1a2c7f7d-f102-40cb-aa94-71e80586b3aa","system_id":"levelo_inurba_marseille","lat":43.3094,"lon":5.4014,"is_reserved":false,"is_disabled":false,"rental_uris":{"android":"levelo://app?vid=1a2c7f7d-f102-40cb-aa94-71e80586b3aa","ios":"levelo://app?vid=1a2c7f7d-f102-40cb-aa94-71e80586b3aa"},"vehicle_type_id":"4","last_reported":1747300290,"current_range_meters":19200,"station_id":"ce4bgvp2rcd13ifvqct0","pricing_plan_id":"cebpf4jnsgd1na2vs0mg"},{"bike_id":"e3746a29-a0db-42b0-9a26-d2dc8f31ba51","system_id":"levelo_inurba_marseille","lat":43.33603,"lon":5.41005,"is_reserved":false,"is_disabled":false,"rental_uris":{"android":"levelo://app?vid=e3746a29-a0db-42b0-9a26-d2dc8f31ba51","ios":"levelo://app?vid=e3746a29-a0db-42b0-9a26-d2dc8f31ba51"},"vehicle_type_id":"4","last_reported":1747300290,"current_range_meters":19200,"station_id":"ce4bhqh2rcd13ifvqhmg","pricing_plan_id":"cebpf4jnsgd1na2vs0mg"},{"bike_id":"68bb491c-1d3e-4388-a7f8-cdc52f1b34f9","system_id":"levelo_inurba_marseille","lat":43.240664,"lon":5.377599,"is_reserved":false,"is_disabled":false,"rental_uris":{"android":"levelo://app?vid=68bb491c-1d3e-4388-a7f8-cdc52f1b34f9","ios":"levelo://app?vid=68bb491c-1d3e-4388-a7f8-cdc52f1b34f9"},"vehicle_type_id":"4","last_reported":1747300290,"current_range_meters":19200,"station_id":"ce4bhnp2rcd13ifvqgvg","pricing_plan_id":"cebpf4jnsgd1na2vs0mg"},{"bike_id":"81a2b9d2-e55e-4cbc-ad41-936b4009b82a","system_id":"levelo_inurba_marseille","lat":43.2986,"lon":5.36261,"is_reserved":false,"is_disabled":false,"rental_uris":{"android":"levelo://app?vid=81a2b9d2-e55e-4cbc-ad41-936b4009b82a","ios":"levelo://app?vid=81a2b9d2-e55e-4cbc-ad41-936b4009b82a"},"vehicle_type_id":"4","last_reported":1747300290,"current_range_meters":19200,"station_id":"ce4bgpp2rcd13ifvqc3g","pricing_plan_id":"cebpf4jnsgd1na2vs0mg"},{"bike_id":"8c801b9f-3818-4ceb-9573-4499ff41234b","system_id":"levelo_inurba_marseille","lat":43.28425,"lon":5.34996,"is_reserved":false,"is_disabled":false,"rental_uris":{"android":"levelo://app?vid=8c801b9f-3818-4ceb-9573-4499ff41234b","ios":"levelo://app?vid=8c801b9f-3818-4ceb-9573-4499ff41234b"},"vehicle_type_id":"4","last_reported":1747300290,"current_range_meters":19200,"station_id":"ce4bhbh2rcd13ifvqepg","pricing_plan_id":"cebpf4jnsgd1na2vs0mg"},{"bike_id":"b01ef8b7-f396-46ca-96b7-e98c863e4a47","system_id":"levelo_inurba_marseille","lat":43.25939,"lon":5.40901,"is_reserved":false,"is_disabled":false,"rental_uris":{"android":"levelo://app?vid=b01ef8b7-f396-46ca-96b7-e98c863e4a47","ios":"levelo://app?vid=b01ef8b7-f396-46ca-96b7-e98c863e4a47"},"vehicle_type_id":"4","last_reported":1747300290,"current_range_meters":19200,"station_id":"ce4bhm92rcd13ifvqglg","pricing_plan_id":"cebpf4jnsgd1na2vs0mg"},{"bike_id":"613ffd6f-3e58-49d4-bd25-15dff4b73bdd","system_id":"levelo_inurba_marseille","lat":43.26189,"lon":5.374485,"is_reserved":false,"is_disabled":false,"rental_uris":{"android":"levelo://app?vid=613ffd6f-3e58-49d4-bd25-15dff4b73bdd","ios":"levelo://app?vid=613ffd6f-3e58-49d4-bd25-15dff4b73bdd"},"vehicle_type_id":"4","last_reported":1747300290,"current_range_meters":19200,"station_id":"ce4bhgp2rcd13ifvqfc0","pricing_plan_id":"cebpf4jnsgd1na2vs0mg"},{"bike_id":"68d5fe89-66c9-420a-850d-3a1e601a1eac","system_id":"levelo_inurba_marseille","lat":43.26617,"lon":5.39072,"is_reserved":false,"is_disabled":false,"rental_uris":{"android":"levelo://app?vid=68d5fe89-66c9-420a-850d-3a1e601a1eac","ios":"levelo://app?vid=68d5fe89-66c9-420a-850d-3a1e601a1eac"},"vehicle_type_id":"4","last_reported":1747300290,"current_range_meters":19200,"station_id":"ce4bhe12rcd13ifvqf30","pricing_plan_id":"cebpf4jnsgd1na2vs0mg"},{"bike_id":"ff8c31a0-1c02-41af-992d-f5052b02aea3","system_id":"levelo_inurba_marseille","lat":43.30911,"lon":5.36845,"is_reserved":false,"is_disabled":false,"rental_uris":{"android":"levelo://app?vid=ff8c31a0-1c02-41af-992d-f5052b02aea3","ios":"levelo://app?vid=ff8c31a0-1c02-41af-992d-f5052b02aea3"},"vehicle_type_id":"4","last_reported":1747300290,"current_range_meters":19200,"station_id":"ce4bgn92rcd13ifvqbvg","pricing_plan_id":"cebpf4jnsgd1na2vs0mg"},{"bike_id":"9f1b56f9-c986-493d-8d8a-a63af8d1bc1b","system_id":"levelo_inurba_marseille","lat":43.30912,"lon":5.36849,"is_reserved":false,"is_disabled":false,"rental_uris":{"android":"levelo://app?vid=9f1b56f9-c986-493d-8d8a-a63af8d1bc1b","ios":"levelo://app?vid=9f1b56f9-c986-493d-8d8a-a63af8d1bc1b"},"vehicle_type_id":"4","last_reported":1747300290,"current_range_meters":19200,"station_id":"ce4bgn92rcd13ifvqbvg","pricing_plan_id":"cebpf4jnsgd1na2vs0mg"},{"bike_id":"c3000279-955b-456e-978b-b408d994653f","system_id":"levelo_inurba_marseille","lat":43.29629,"lon":5.40601,"is_reserved":false,"is_disabled":false,"rental_uris":{"android":"levelo://app?vid=c3000279-955b-456e-978b-b408d994653f","ios":"levelo://app?vid=c3000279-955b-456e-978b-b408d994653f"},"vehicle_type_id":"4","last_reported":1747300290,"current_range_meters":19600,"station_id":"ce4bh0h2rcd13ifvqd60","pricing_plan_id":"cebpf4jnsgd1na2vs0mg"},{"bike_id":"f8e0164e-343d-4762-8888-72d6dbc7c8a0","system_id":"levelo_inurba_marseille","lat":43.33597,"lon":5.41023,"is_reserved":false,"is_disabled":false,"rental_uris":{"android":"levelo://app?vid=f8e0164e-343d-4762-8888-72d6dbc7c8a0","ios":"levelo://app?vid=f8e0164e-343d-4762-8888-72d6dbc7c8a0"},"vehicle_type_id":"4","last_reported":1747300290,"current_range_meters":19600,"station_id":"ce4bhqh2rcd13ifvqhmg","pricing_plan_id":"cebpf4jnsgd1na2vs0mg"},{"bike_id":"c96b0615-fb16-4856-8e00-3f13b4d9e7b3","system_id":"levelo_inurba_marseille","lat":43.28611,"lon":5.3706,"is_reserved":false,"is_disabled":false,"rental_uris":{"android":"levelo://app?vid=c96b0615-fb16-4856-8e00-3f13b4d9e7b3","ios":"levelo://app?vid=c96b0615-fb16-4856-8e00-3f13b4d9e7b3"},"vehicle_type_id":"4","last_reported":1747300290,"current_range_meters":19600,"station_id":"ce4bht12rcd13ifvqi60","pricing_plan_id":"cebpf4jnsgd1na2vs0mg"},{"bike_id":"4e74ff3a-36dd-4027-9e9f-770fed424203","system_id":"levelo_inurba_marseille","lat":43.29009,"lon":5.35612,"is_reserved":false,"is_disabled":false,"rental_uris":{"android":"levelo://app?vid=4e74ff3a-36dd-4027-9e9f-770fed424203","ios":"levelo://app?vid=4e74ff3a-36dd-4027-9e9f-770fed424203"},"vehicle_type_id":"4","last_reported":1747300290,"current_range_meters":19600,"station_id":"ce4bhb92rcd13ifvqen0","pricing_plan_id":"cebpf4jnsgd1na2vs0mg"},{"bike_id":"c0e0fd84-4c7c-420a-b641-45b7066ef9a9","system_id":"levelo_inurba_marseille","lat":43.31327,"lon":5.36702,"is_reserved":false,"is_disabled":false,"rental_uris":{"android":"levelo://app?vid=c0e0fd84-4c7c-420a-b641-45b7066ef9a9","ios":"levelo://app?vid=c0e0fd84-4c7c-420a-b641-45b7066ef9a9"},"vehicle_type_id":"4","last_reported":1747300290,"current_range_meters":20000,"station_id":"ce4bgr92rcd13ifvqc6g","pricing_plan_id":"cebpf4jnsgd1na2vs0mg"},{"bike_id":"37f6db31-feff-4612-a16e-3388796ac51e","system_id":"levelo_inurba_marseille","lat":43.24178,"lon":5.39726,"is_reserved":false,"is_disabled":false,"rental_uris":{"android":"levelo://app?vid=37f6db31-feff-4612-a16e-3388796ac51e","ios":"levelo://app?vid=37f6db31-feff-4612-a16e-3388796ac51e"},"vehicle_type_id":"4","last_reported":1747300290,"current_range_meters":20000,"station_id":"ce4bhn12rcd13ifvqgpg","pricing_plan_id":"cebpf4jnsgd1na2vs0mg"},{"bike_id":"9f512cc2-01f7-4069-99f4-70f3877bab7b","system_id":"levelo_inurba_marseille","lat":43.30139,"lon":5.37411,"is_reserved":false,"is_disabled":false,"rental_uris":{"android":"levelo://app?vid=9f512cc2-01f7-4069-99f4-70f3877bab7b","ios":"levelo://app?vid=9f512cc2-01f7-4069-99f4-70f3877bab7b"},"vehicle_type_id":"4","last_reported":1747300290,"current_range_meters":20000,"station_id":"ce4bgs92rcd13ifvqcc0","pricing_plan_id":"cebpf4jnsgd1na2vs0mg"},{"bike_id":"8d197cec-4d4b-4094-aa9c-dc81867ca811","system_id":"levelo_inurba_marseille","lat":43.2917,"lon":5.37163,"is_reserved":false,"is_disabled":false,"rental_uris":{"android":"levelo://app?vid=8d197cec-4d4b-4094-aa9c-dc81867ca811","ios":"levelo://app?vid=8d197cec-4d4b-4094-aa9c-dc81867ca811"},"vehicle_type_id":"4","last_reported":1747300290,"current_range_meters":20000,"station_id":"ce4bha92rcd13ifvqeh0","pricing_plan_id":"cebpf4jnsgd1na2vs0mg"},{"bike_id":"54a1a73b-9f7a-414c-a48f-eeace73bd9b0","system_id":"levelo_inurba_marseille","lat":43.225065,"lon":5.347878,"is_reserved":false,"is_disabled":false,"rental_uris":{"android":"levelo://app?vid=54a1a73b-9f7a-414c-a48f-eeace73bd9b0","ios":"levelo://app?vid=54a1a73b-9f7a-414c-a48f-eeace73bd9b0"},"vehicle_type_id":"4","last_reported":1747300290,"current_range_meters":20000,"station_id":"st_cvj5dfep6f1abm77gieg","pricing_plan_id":"cebpf4jnsgd1na2vs0mg"},{"bike_id":"a87dac57-f9e3-4d5f-b04a-2760babe40c3","system_id":"levelo_inurba_marseille","lat":43.26194,"lon":5.37915,"is_reserved":false,"is_disabled":false,"rental_uris":{"android":"levelo://app?vid=a87dac57-f9e3-4d5f-b04a-2760babe40c3","ios":"levelo://app?vid=a87dac57-f9e3-4d5f-b04a-2760babe40c3"},"vehicle_type_id":"4","last_reported":1747300290,"current_range_meters":20000,"station_id":"ce4bhjp2rcd13ifvqg90","pricing_plan_id":"cebpf4jnsgd1na2vs0mg"},{"bike_id":"3a29a5b8-eac2-41f0-a962-080812a636f9","system_id":"levelo_inurba_marseille","lat":43.29563,"lon":5.37533,"is_reserved":false,"is_disabled":false,"rental_uris":{"android":"levelo://app?vid=3a29a5b8-eac2-41f0-a962-080812a636f9","ios":"levelo://app?vid=3a29a5b8-eac2-41f0-a962-080812a636f9"},"vehicle_type_id":"4","last_reported":1747300290,"current_range_meters":20000,"station_id":"ce4bgh92rcd13ifvqb50","pricing_plan_id":"cebpf4jnsgd1na2vs0mg"},{"bike_id":"3c0567a5-bb73-4f64-bd31-a545fcb2ebd0","system_id":"levelo_inurba_marseille","lat":43.30146,"lon":5.38081,"is_reserved":false,"is_disabled":false,"rental_uris":{"android":"levelo://app?vid=3c0567a5-bb73-4f64-bd31-a545fcb2ebd0","ios":"levelo://app?vid=3c0567a5-bb73-4f64-bd31-a545fcb2ebd0"},"vehicle_type_id":"4","last_reported":1747300290,"current_range_meters":20000,"station_id":"ce4bgjp2rcd13ifvqbh0","pricing_plan_id":"cebpf4jnsgd1na2vs0mg"},{"bike_id":"5e87a7ac-8e04-44a3-aa85-afbf7cf1b847","system_id":"levelo_inurba_marseille","lat":43.30897,"lon":5.36832,"is_reserved":false,"is_disabled":false,"rental_uris":{"android":"levelo://app?vid=5e87a7ac-8e04-44a3-aa85-afbf7cf1b847","ios":"levelo://app?vid=5e87a7ac-8e04-44a3-aa85-afbf7cf1b847"},"vehicle_type_id":"4","last_reported":1747300290,"current_range_meters":20000,"station_id":"ce4bgn92rcd13ifvqbvg","pricing_plan_id":"cebpf4jnsgd1na2vs0mg"},{"bike_id":"8e6d6451-a415-4b2f-bc73-95ffb29ead42","system_id":"levelo_inurba_marseille","lat":43.23197,"lon":5.35554,"is_reserved":false,"is_disabled":false,"rental_uris":{"android":"levelo://app?vid=8e6d6451-a415-4b2f-bc73-95ffb29ead42","ios":"levelo://app?vid=8e6d6451-a415-4b2f-bc73-95ffb29ead42"},"vehicle_type_id":"4","last_reported":1747300290,"current_range_meters":20400,"station_id":"ce4bhu92rcd13ifvqi70","pricing_plan_id":"cebpf4jnsgd1na2vs0mg"},{"bike_id":"54c80718-1468-47f9-9877-bc44f5940722","system_id":"levelo_inurba_marseille","lat":43.211866,"lon":5.350751,"is_reserved":false,"is_disabled":false,"rental_uris":{"android":"levelo://app?vid=54c80718-1468-47f9-9877-bc44f5940722","ios":"levelo://app?vid=54c80718-1468-47f9-9877-bc44f5940722"},"vehicle_type_id":"4","last_reported":1747300290,"current_range_meters":20400,"station_id":"st_cvj6sg6p6f1abm77japg","pricing_plan_id":"cebpf4jnsgd1na2vs0mg"},{"bike_id":"600ba6c1-7560-45cb-95ed-24074707e296","system_id":"levelo_inurba_marseille","lat":43.23954,"lon":5.36638,"is_reserved":false,"is_disabled":false,"rental_uris":{"android":"levelo://app?vid=600ba6c1-7560-45cb-95ed-24074707e296","ios":"levelo://app?vid=600ba6c1-7560-45cb-95ed-24074707e296"},"vehicle_type_id":"4","last_reported":1747300290,"current_range_meters":20400,"station_id":"ce4bhi12rcd13ifvqfp0","pricing_plan_id":"cebpf4jnsgd1na2vs0mg"},{"bike_id":"270a22cd-c1b9-43a1-9955-6f5aa1718c31","system_id":"levelo_inurba_marseille","lat":43.30533,"lon":5.36699,"is_reserved":false,"is_disabled":false,"rental_uris":{"android":"levelo://app?vid=270a22cd-c1b9-43a1-9955-6f5aa1718c31","ios":"levelo://app?vid=270a22cd-c1b9-43a1-9955-6f5aa1718c31"},"vehicle_type_id":"4","last_reported":1747300290,"current_range_meters":20400,"station_id":"ce4bgrp2rcd13ifvqc9g","pricing_plan_id":"cebpf4jnsgd1na2vs0mg"},{"bike_id":"69adc5b2-d802-49c4-a8ec-a7c6eeda7260","system_id":"levelo_inurba_marseille","lat":43.30532,"lon":5.36689,"is_reserved":false,"is_disabled":false,"rental_uris":{"android":"levelo://app?vid=69adc5b2-d802-49c4-a8ec-a7c6eeda7260","ios":"levelo://app?vid=69adc5b2-d802-49c4-a8ec-a7c6eeda7260"},"vehicle_type_id":"4","last_reported":1747300290,"current_range_meters":20800,"station_id":"ce4bgrp2rcd13ifvqc9g","pricing_plan_id":"cebpf4jnsgd1na2vs0mg"},{"bike_id":"3b1fdba3-3da5-46d6-b5c8-afa752c13b6c","system_id":"levelo_inurba_marseille","lat":43.309054,"lon":5.368581,"is_reserved":false,"is_disabled":false,"rental_uris":{"android":"levelo://app?vid=3b1fdba3-3da5-46d6-b5c8-afa752c13b6c","ios":"levelo://app?vid=3b1fdba3-3da5-46d6-b5c8-afa752c13b6c"},"vehicle_type_id":"4","last_reported":1747300290,"current_range_meters":20800,"station_id":"ce4bgn92rcd13ifvqbvg","pricing_plan_id":"cebpf4jnsgd1na2vs0mg"},{"bike_id":"180e10a7-ba2a-44a0-95b4-4567b94c2920","system_id":"levelo_inurba_marseille","lat":43.21748,"lon":5.34603,"is_reserved":false,"is_disabled":false,"rental_uris":{"android":"levelo://app?vid=180e10a7-ba2a-44a0-95b4-4567b94c2920","ios":"levelo://app?vid=180e10a7-ba2a-44a0-95b4-4567b94c2920"},"vehicle_type_id":"4","last_reported":1747300290,"current_range_meters":20800,"station_id":"st_cvj6r9ubvosntc0bgbag","pricing_plan_id":"cebpf4jnsgd1na2vs0mg"},{"bike_id":"3d46183d-e421-4498-8767-0e257c53394b","system_id":"levelo_inurba_marseille","lat":43.32527,"lon":5.41433,"is_reserved":false,"is_disabled":false,"rental_uris":{"android":"levelo://app?vid=3d46183d-e421-4498-8767-0e257c53394b","ios":"levelo://app?vid=3d46183d-e421-4498-8767-0e257c53394b"},"vehicle_type_id":"4","last_reported":1747300290,"current_range_meters":20800,"station_id":"ce4bhq12rcd13ifvqhhg","pricing_plan_id":"cebpf4jnsgd1na2vs0mg"},{"bike_id":"c8a99f1c-4bb4-405c-bd25-807e3a21ecf2","system_id":"levelo_inurba_marseille","lat":43.3031,"lon":5.36886,"is_reserved":false,"is_disabled":false,"rental_uris":{"android":"levelo://app?vid=c8a99f1c-4bb4-405c-bd25-807e3a21ecf2","ios":"levelo://app?vid=c8a99f1c-4bb4-405c-bd25-807e3a21ecf2"},"vehicle_type_id":"4","last_reported":1747300290,"current_range_meters":20800,"station_id":"ce4bgqh2rcd13ifvqc5g","pricing_plan_id":"cebpf4jnsgd1na2vs0mg"},{"bike_id":"6828efc4-a81e-4542-a0a1-9ed6d4b6c9a7","system_id":"levelo_inurba_marseille","lat":43.27205,"lon":5.39195,"is_reserved":false,"is_disabled":false,"rental_uris":{"android":"levelo://app?vid=6828efc4-a81e-4542-a0a1-9ed6d4b6c9a7","ios":"levelo://app?vid=6828efc4-a81e-4542-a0a1-9ed6d4b6c9a7"},"vehicle_type_id":"4","last_reported":1747300290,"current_range_meters":20800,"station_id":"ce4bhhp2rcd13ifvqfm0","pricing_plan_id":"cebpf4jnsgd1na2vs0mg"},{"bike_id":"dced9071-855b-49c6-87c1-bdf6670af6fd","system_id":"levelo_inurba_marseille","lat":43.241853,"lon":5.397314,"is_reserved":false,"is_disabled":false,"rental_uris":{"android":"levelo://app?vid=dced9071-855b-49c6-87c1-bdf6670af6fd","ios":"levelo://app?vid=dced9071-855b-49c6-87c1-bdf6670af6fd"},"vehicle_type_id":"4","last_reported":1747300290,"current_range_meters":20800,"station_id":"ce4bhn12rcd13ifvqgpg","pricing_plan_id":"cebpf4jnsgd1na2vs0mg"},{"bike_id":"13fb7c0c-f7ea-4d7b-bdcd-c94492777a0b","system_id":"levelo_inurba_marseille","lat":43.30539,"lon":5.36529,"is_reserved":false,"is_disabled":false,"rental_uris":{"android":"levelo://app?vid=13fb7c0c-f7ea-4d7b-bdcd-c94492777a0b","ios":"levelo://app?vid=13fb7c0c-f7ea-4d7b-bdcd-c94492777a0b"},"vehicle_type_id":"4","last_reported":1747300290,"current_range_meters":21600,"station_id":"ce4bgs12rcd13ifvqcag","pricing_plan_id":"cebpf4jnsgd1na2vs0mg"},{"bike_id":"bc997f5b-ce07-476e-841c-3f5b79bd98e0","system_id":"levelo_inurba_marseille","lat":43.23155,"lon":5.4372,"is_reserved":false,"is_disabled":false,"rental_uris":{"android":"levelo://app?vid=bc997f5b-ce07-476e-841c-3f5b79bd98e0","ios":"levelo://app?vid=bc997f5b-ce07-476e-841c-3f5b79bd98e0"},"vehicle_type_id":"4","last_reported":1747300290,"current_range_meters":21600,"station_id":"ce4bhmp2rcd13ifvqgog","pricing_plan_id":"cebpf4jnsgd1na2vs0mg"},{"bike_id":"cc7da888-9eb6-4980-bc77-b50fcc8ef5d7","system_id":"levelo_inurba_marseille","lat":43.25934,"lon":5.40908,"is_reserved":false,"is_disabled":false,"rental_uris":{"android":"levelo://app?vid=cc7da888-9eb6-4980-bc77-b50fcc8ef5d7","ios":"levelo://app?vid=cc7da888-9eb6-4980-bc77-b50fcc8ef5d7"},"vehicle_type_id":"4","last_reported":1747300290,"current_range_meters":21600,"station_id":"ce4bhm92rcd13ifvqglg","pricing_plan_id":"cebpf4jnsgd1na2vs0mg"},{"bike_id":"cd20c647-5411-41b8-9acd-7456c2341bac","system_id":"levelo_inurba_marseille","lat":43.26032,"lon":5.37552,"is_reserved":false,"is_disabled":false,"rental_uris":{"android":"levelo://app?vid=cd20c647-5411-41b8-9acd-7456c2341bac","ios":"levelo://app?vid=cd20c647-5411-41b8-9acd-7456c2341bac"},"vehicle_type_id":"4","last_reported":1747300290,"current_range_meters":21600,"station_id":"ce4bhgh2rcd13ifvqfa0","pricing_plan_id":"cebpf4jnsgd1na2vs0mg"},{"bike_id":"c41abff9-2506-47e6-9902-a67c3ce73da3","system_id":"levelo_inurba_marseille","lat":43.24182,"lon":5.39721,"is_reserved":false,"is_disabled":false,"rental_uris":{"android":"levelo://app?vid=c41abff9-2506-47e6-9902-a67c3ce73da3","ios":"levelo://app?vid=c41abff9-2506-47e6-9902-a67c3ce73da3"},"vehicle_type_id":"4","last_reported":1747300290,"current_range_meters":21600,"station_id":"ce4bhn12rcd13ifvqgpg","pricing_plan_id":"cebpf4jnsgd1na2vs0mg"},{"bike_id":"d36c43d6-fb4d-4c8e-b04c-47920efe44fa","system_id":"levelo_inurba_marseille","lat":43.27064,"lon":5.40252,"is_reserved":false,"is_disabled":false,"rental_uris":{"android":"levelo://app?vid=d36c43d6-fb4d-4c8e-b04c-47920efe44fa","ios":"levelo://app?vid=d36c43d6-fb4d-4c8e-b04c-47920efe44fa"},"vehicle_type_id":"4","last_reported":1747300290,"current_range_meters":21600,"station_id":"ce4bhk92rcd13ifvqgc0","pricing_plan_id":"cebpf4jnsgd1na2vs0mg"},{"bike_id":"d2b358fa-3af4-4c03-a2ca-467ddd00ddbc","system_id":"levelo_inurba_marseille","lat":43.324805,"lon":5.365705,"is_reserved":false,"is_disabled":false,"rental_uris":{"android":"levelo://app?vid=d2b358fa-3af4-4c03-a2ca-467ddd00ddbc","ios":"levelo://app?vid=d2b358fa-3af4-4c03-a2ca-467ddd00ddbc"},"vehicle_type_id":"4","last_reported":1747300290,"current_range_meters":21600,"station_id":"ce4bhs12rcd13ifvqhvg","pricing_plan_id":"cebpf4jnsgd1na2vs0mg"},{"bike_id":"8b0b5d86-e287-4bb2-b343-71de0af7d914","system_id":"levelo_inurba_marseille","lat":43.309031,"lon":5.368508,"is_reserved":false,"is_disabled":false,"rental_uris":{"android":"levelo://app?vid=8b0b5d86-e287-4bb2-b343-71de0af7d914","ios":"levelo://app?vid=8b0b5d86-e287-4bb2-b343-71de0af7d914"},"vehicle_type_id":"4","last_reported":1747300290,"current_range_meters":21600,"station_id":"ce4bhbp2rcd13ifvqerg","pricing_plan_id":"cebpf4jnsgd1na2vs0mg"},{"bike_id":"0934cb3f-1cb2-4e34-9efb-abd0c06d8272","system_id":"levelo_inurba_marseille","lat":43.30543,"lon":5.36681,"is_reserved":false,"is_disabled":false,"rental_uris":{"android":"levelo://app?vid=0934cb3f-1cb2-4e34-9efb-abd0c06d8272","ios":"levelo://app?vid=0934cb3f-1cb2-4e34-9efb-abd0c06d8272"},"vehicle_type_id":"4","last_reported":1747300290,"current_range_meters":22000,"station_id":"ce4bgrp2rcd13ifvqc9g","pricing_plan_id":"cebpf4jnsgd1na2vs0mg"},{"bike_id":"a97cefea-8211-44a3-be3e-0ad12194849c","system_id":"levelo_inurba_marseille","lat":43.33609,"lon":5.41008,"is_reserved":false,"is_disabled":false,"rental_uris":{"android":"levelo://app?vid=a97cefea-8211-44a3-be3e-0ad12194849c","ios":"levelo://app?vid=a97cefea-8211-44a3-be3e-0ad12194849c"},"vehicle_type_id":"4","last_reported":1747300290,"current_range_meters":22000,"station_id":"ce4bhqh2rcd13ifvqhmg","pricing_plan_id":"cebpf4jnsgd1na2vs0mg"},{"bike_id":"a95375f3-42e5-4808-b143-6f0ddd7b004e","system_id":"levelo_inurba_marseille","lat":43.30541,"lon":5.38429,"is_reserved":false,"is_disabled":false,"rental_uris":{"android":"levelo://app?vid=a95375f3-42e5-4808-b143-6f0ddd7b004e","ios":"levelo://app?vid=a95375f3-42e5-4808-b143-6f0ddd7b004e"},"vehicle_type_id":"4","last_reported":1747300290,"current_range_meters":21600,"station_id":"ce4bgg92rcd13ifvqb30","pricing_plan_id":"cebpf4jnsgd1na2vs0mg"},{"bike_id":"54dc8f7d-a581-4fb0-88b7-9e414e29044f","system_id":"levelo_inurba_marseille","lat":43.28266,"lon":5.35071,"is_reserved":false,"is_disabled":false,"rental_uris":{"android":"levelo://app?vid=54dc8f7d-a581-4fb0-88b7-9e414e29044f","ios":"levelo://app?vid=54dc8f7d-a581-4fb0-88b7-9e414e29044f"},"vehicle_type_id":"4","last_reported":1747300290,"current_range_meters":22000,"station_id":"ce4bhbp2rcd13ifvqerg","pricing_plan_id":"cebpf4jnsgd1na2vs0mg"},{"bike_id":"e13f1440-cf5c-4ed5-918d-b2cdb880a8f9","system_id":"levelo_inurba_marseille","lat":43.25821,"lon":5.39433,"is_reserved":false,"is_disabled":false,"rental_uris":{"android":"levelo://app?vid=e13f1440-cf5c-4ed5-918d-b2cdb880a8f9","ios":"levelo://app?vid=e13f1440-cf5c-4ed5-918d-b2cdb880a8f9"},"vehicle_type_id":"4","last_reported":1747300290,"current_range_meters":22000,"station_id":"ce4bhip2rcd13ifvqft0","pricing_plan_id":"cebpf4jnsgd1na2vs0mg"},{"bike_id":"6e91d17a-2ced-4b9d-ab66-67d5071de241","system_id":"levelo_inurba_marseille","lat":43.30922,"lon":5.36821,"is_reserved":false,"is_disabled":false,"rental_uris":{"android":"levelo://app?vid=6e91d17a-2ced-4b9d-ab66-67d5071de241","ios":"levelo://app?vid=6e91d17a-2ced-4b9d-ab66-67d5071de241"},"vehicle_type_id":"4","last_reported":1747300290,"current_range_meters":22400,"station_id":"ce4bgn92rcd13ifvqbvg","pricing_plan_id":"cebpf4jnsgd1na2vs0mg"},{"bike_id":"b68c6ff7-1f1c-4f7d-9041-9d51ea43e3d5","system_id":"levelo_inurba_marseille","lat":43.324842,"lon":5.365797,"is_reserved":false,"is_disabled":false,"rental_uris":{"android":"levelo://app?vid=b68c6ff7-1f1c-4f7d-9041-9d51ea43e3d5","ios":"levelo://app?vid=b68c6ff7-1f1c-4f7d-9041-9d51ea43e3d5"},"vehicle_type_id":"4","last_reported":1747300290,"current_range_meters":22400,"station_id":"ce4bhs12rcd13ifvqhvg","pricing_plan_id":"cebpf4jnsgd1na2vs0mg"},{"bike_id":"40a1772f-b4a2-474a-b875-d8df9be2c806","system_id":"levelo_inurba_marseille","lat":43.33608,"lon":5.41031,"is_reserved":false,"is_disabled":false,"rental_uris":{"android":"levelo://app?vid=40a1772f-b4a2-474a-b875-d8df9be2c806","ios":"levelo://app?vid=40a1772f-b4a2-474a-b875-d8df9be2c806"},"vehicle_type_id":"4","last_reported":1747300290,"current_range_meters":22400,"station_id":"ce4bhqh2rcd13ifvqhmg","pricing_plan_id":"cebpf4jnsgd1na2vs0mg"},{"bike_id":"6d46ab71-ee0d-445f-8501-9c9efc27704a","system_id":"levelo_inurba_marseille","lat":43.241693,"lon":5.397279,"is_reserved":false,"is_disabled":false,"rental_uris":{"android":"levelo://app?vid=6d46ab71-ee0d-445f-8501-9c9efc27704a","ios":"levelo://app?vid=6d46ab71-ee0d-445f-8501-9c9efc27704a"},"vehicle_type_id":"4","last_reported":1747300290,"current_range_meters":22400,"station_id":"ce4bhn12rcd13ifvqgpg","pricing_plan_id":"cebpf4jnsgd1na2vs0mg"},{"bike_id":"9a5cd817-6f5d-407b-bb70-7de79bc57d00","system_id":"levelo_inurba_marseille","lat":43.259293,"lon":5.409065,"is_reserved":false,"is_disabled":false,"rental_uris":{"android":"levelo://app?vid=9a5cd817-6f5d-407b-bb70-7de79bc57d00","ios":"levelo://app?vid=9a5cd817-6f5d-407b-bb70-7de79bc57d00"},"vehicle_type_id":"4","last_reported":1747300290,"current_range_meters":22400,"station_id":"ce4bhm92rcd13ifvqglg","pricing_plan_id":"cebpf4jnsgd1na2vs0mg"},{"bike_id":"bb44fbbe-4ecd-442b-951e-f9e7fa587d0b","system_id":"levelo_inurba_marseille","lat":43.24802,"lon":5.3746,"is_reserved":false,"is_disabled":false,"rental_uris":{"android":"levelo://app?vid=bb44fbbe-4ecd-442b-951e-f9e7fa587d0b","ios":"levelo://app?vid=bb44fbbe-4ecd-442b-951e-f9e7fa587d0b"},"vehicle_type_id":"4","last_reported":1747300290,"current_range_meters":22400,"station_id":"ce4bhgh2rcd13ifvqfb0","pricing_plan_id":"cebpf4jnsgd1na2vs0mg"},{"bike_id":"059cd2e4-bf78-4aec-a920-dd20ef74e065","system_id":"levelo_inurba_marseille","lat":43.23192,"lon":5.35551,"is_reserved":false,"is_disabled":false,"rental_uris":{"android":"levelo://app?vid=059cd2e4-bf78-4aec-a920-dd20ef74e065","ios":"levelo://app?vid=059cd2e4-bf78-4aec-a920-dd20ef74e065"},"vehicle_type_id":"4","last_reported":1747300290,"current_range_meters":22400,"station_id":"ce4bhu92rcd13ifvqi70","pricing_plan_id":"cebpf4jnsgd1na2vs0mg"},{"bike_id":"2cbeb422-157c-4626-bcdc-ed0d34b89ce0","system_id":"levelo_inurba_marseille","lat":43.28707,"lon":5.39972,"is_reserved":false,"is_disabled":false,"rental_uris":{"android":"levelo://app?vid=2cbeb422-157c-4626-bcdc-ed0d34b89ce0","ios":"levelo://app?vid=2cbeb422-157c-4626-bcdc-ed0d34b89ce0"},"vehicle_type_id":"4","last_reported":1747300290,"current_range_meters":22400,"station_id":"ce4bho92rcd13ifvqh3g","pricing_plan_id":"cebpf4jnsgd1na2vs0mg"},{"bike_id":"7d63f300-6324-4261-8cea-1a23bc0a99d1","system_id":"levelo_inurba_marseille","lat":43.240769,"lon":5.37756,"is_reserved":false,"is_disabled":false,"rental_uris":{"android":"levelo://app?vid=7d63f300-6324-4261-8cea-1a23bc0a99d1","ios":"levelo://app?vid=7d63f300-6324-4261-8cea-1a23bc0a99d1"},"vehicle_type_id":"4","last_reported":1747300290,"current_range_meters":22400,"station_id":"ce4bhnp2rcd13ifvqgvg","pricing_plan_id":"cebpf4jnsgd1na2vs0mg"},{"bike_id":"ec426502-d201-4e11-8f33-1ef2a0f89ae3","system_id":"levelo_inurba_marseille","lat":43.26193,"lon":5.37451,"is_reserved":false,"is_disabled":false,"rental_uris":{"android":"levelo://app?vid=ec426502-d201-4e11-8f33-1ef2a0f89ae3","ios":"levelo://app?vid=ec426502-d201-4e11-8f33-1ef2a0f89ae3"},"vehicle_type_id":"4","last_reported":1747300290,"current_range_meters":22400,"station_id":"ce4bhgp2rcd13ifvqfc0","pricing_plan_id":"cebpf4jnsgd1na2vs0mg"},{"bike_id":"222e640d-4309-4e36-a781-2dad2f594c15","system_id":"levelo_inurba_marseille","lat":43.22493,"lon":5.34788,"is_reserved":false,"is_disabled":false,"rental_uris":{"android":"levelo://app?vid=222e640d-4309-4e36-a781-2dad2f594c15","ios":"levelo://app?vid=222e640d-4309-4e36-a781-2dad2f594c15"},"vehicle_type_id":"4","last_reported":1747300290,"current_range_meters":22800,"station_id":"st_cvj5dfep6f1abm77gieg","pricing_plan_id":"cebpf4jnsgd1na2vs0mg"},{"bike_id":"cb36dca1-30c0-4a72-bead-2ad4f65ad08b","system_id":"levelo_inurba_marseille","lat":43.2407,"lon":5.3777,"is_reserved":false,"is_disabled":false,"rental_uris":{"android":"levelo://app?vid=cb36dca1-30c0-4a72-bead-2ad4f65ad08b","ios":"levelo://app?vid=cb36dca1-30c0-4a72-bead-2ad4f65ad08b"},"vehicle_type_id":"4","last_reported":1747300290,"current_range_meters":22800,"station_id":"ce4bhnp2rcd13ifvqgvg","pricing_plan_id":"cebpf4jnsgd1na2vs0mg"},{"bike_id":"30739857-c22e-4292-938e-e25f1ce44afb","system_id":"levelo_inurba_marseille","lat":43.30912,"lon":5.3685,"is_reserved":false,"is_disabled":false,"rental_uris":{"android":"levelo://app?vid=30739857-c22e-4292-938e-e25f1ce44afb","ios":"levelo://app?vid=30739857-c22e-4292-938e-e25f1ce44afb"},"vehicle_type_id":"4","last_reported":1747300290,"current_range_meters":22800,"station_id":"ce4bgn92rcd13ifvqbvg","pricing_plan_id":"cebpf4jnsgd1na2vs0mg"},{"bike_id":"9a0dcc0e-de4e-4276-bf18-f55c2d1cb25d","system_id":"levelo_inurba_marseille","lat":43.28939,"lon":5.36404,"is_reserved":false,"is_disabled":false,"rental_uris":{"android":"levelo://app?vid=9a0dcc0e-de4e-4276-bf18-f55c2d1cb25d","ios":"levelo://app?vid=9a0dcc0e-de4e-4276-bf18-f55c2d1cb25d"},"vehicle_type_id":"4","last_reported":1747300290,"current_range_meters":23200,"station_id":"ce4bhc92rcd13ifvqetg","pricing_plan_id":"cebpf4jnsgd1na2vs0mg"},{"bike_id":"dbdd2d93-f4c1-4122-91e6-fc709ea240b8","system_id":"levelo_inurba_marseille","lat":43.29007,"lon":5.35621,"is_reserved":false,"is_disabled":false,"rental_uris":{"android":"levelo://app?vid=dbdd2d93-f4c1-4122-91e6-fc709ea240b8","ios":"levelo://app?vid=dbdd2d93-f4c1-4122-91e6-fc709ea240b8"},"vehicle_type_id":"4","last_reported":1747300290,"current_range_meters":23200,"station_id":"ce4bhb92rcd13ifvqen0","pricing_plan_id":"cebpf4jnsgd1na2vs0mg"},{"bike_id":"4efcb1ef-d360-4600-94fa-7a320cd62374","system_id":"levelo_inurba_marseille","lat":43.321033,"lon":5.367644,"is_reserved":false,"is_disabled":false,"rental_uris":{"android":"levelo://app?vid=4efcb1ef-d360-4600-94fa-7a320cd62374","ios":"levelo://app?vid=4efcb1ef-d360-4600-94fa-7a320cd62374"},"vehicle_type_id":"4","last_reported":1747300290,"current_range_meters":23200,"station_id":"ce4bhrh2rcd13ifvqhug","pricing_plan_id":"cebpf4jnsgd1na2vs0mg"},{"bike_id":"f9d0f007-0dbb-46c4-8ba7-e44ef82e4090","system_id":"levelo_inurba_marseille","lat":43.27811,"lon":5.40711,"is_reserved":false,"is_disabled":false,"rental_uris":{"android":"levelo://app?vid=f9d0f007-0dbb-46c4-8ba7-e44ef82e4090","ios":"levelo://app?vid=f9d0f007-0dbb-46c4-8ba7-e44ef82e4090"},"vehicle_type_id":"4","last_reported":1747300290,"current_range_meters":23200,"station_id":"ce4bhnh2rcd13ifvqgtg","pricing_plan_id":"cebpf4jnsgd1na2vs0mg"},{"bike_id":"7bfe3070-8935-4c63-9e5f-e953d5dfb638","system_id":"levelo_inurba_marseille","lat":43.31207,"lon":5.36856,"is_reserved":false,"is_disabled":false,"rental_uris":{"android":"levelo://app?vid=7bfe3070-8935-4c63-9e5f-e953d5dfb638","ios":"levelo://app?vid=7bfe3070-8935-4c63-9e5f-e953d5dfb638"},"vehicle_type_id":"4","last_reported":1747300290,"current_range_meters":23200,"station_id":"ce4bgl92rcd13ifvqbq0","pricing_plan_id":"cebpf4jnsgd1na2vs0mg"},{"bike_id":"ee28c772-d18b-470d-b465-6f7795d56d71","system_id":"levelo_inurba_marseille","lat":43.29845,"lon":5.36263,"is_reserved":false,"is_disabled":false,"rental_uris":{"android":"levelo://app?vid=ee28c772-d18b-470d-b465-6f7795d56d71","ios":"levelo://app?vid=ee28c772-d18b-470d-b465-6f7795d56d71"},"vehicle_type_id":"4","last_reported":1747300290,"current_range_meters":23200,"station_id":"ce4bgpp2rcd13ifvqc3g","pricing_plan_id":"cebpf4jnsgd1na2vs0mg"},{"bike_id":"602851f4-bbed-435a-b60e-0d62ddc6dc54","system_id":"levelo_inurba_marseille","lat":43.305326,"lon":5.366896,"is_reserved":false,"is_disabled":false,"rental_uris":{"android":"levelo://app?vid=602851f4-bbed-435a-b60e-0d62ddc6dc54","ios":"levelo://app?vid=602851f4-bbed-435a-b60e-0d62ddc6dc54"},"vehicle_type_id":"4","last_reported":1747300290,"current_range_meters":23200,"station_id":"ce4bgrp2rcd13ifvqc9g","pricing_plan_id":"cebpf4jnsgd1na2vs0mg"},{"bike_id":"87d6ec5f-e1e3-415c-a4f9-4c488ee21003","system_id":"levelo_inurba_marseille","lat":43.308898,"lon":5.371932,"is_reserved":false,"is_disabled":false,"rental_uris":{"android":"levelo://app?vid=87d6ec5f-e1e3-415c-a4f9-4c488ee21003","ios":"levelo://app?vid=87d6ec5f-e1e3-415c-a4f9-4c488ee21003"},"vehicle_type_id":"4","last_reported":1747300290,"current_range_meters":24000,"station_id":"ce4bguh2rcd13ifvqckg","pricing_plan_id":"cebpf4jnsgd1na2vs0mg"},{"bike_id":"4404232a-9e2a-4863-ba65-7a8969d041b4","system_id":"levelo_inurba_marseille","lat":43.29913,"lon":5.38143,"is_reserved":false,"is_disabled":false,"rental_uris":{"android":"levelo://app?vid=4404232a-9e2a-4863-ba65-7a8969d041b4","ios":"levelo://app?vid=4404232a-9e2a-4863-ba65-7a8969d041b4"},"vehicle_type_id":"4","last_reported":1747300290,"current_range_meters":24000,"station_id":"ce4bgj12rcd13ifvqbc0","pricing_plan_id":"cebpf4jnsgd1na2vs0mg"},{"bike_id":"d4074802-7c83-42b1-95a9-a3124905a656","system_id":"levelo_inurba_marseille","lat":43.3378,"lon":5.3743,"is_reserved":false,"is_disabled":false,"rental_uris":{"android":"levelo://app?vid=d4074802-7c83-42b1-95a9-a3124905a656","ios":"levelo://app?vid=d4074802-7c83-42b1-95a9-a3124905a656"},"vehicle_type_id":"4","last_reported":1747300290,"current_range_meters":24000,"station_id":"","pricing_plan_id":"cebpf4jnsgd1na2vs0mg"},{"bike_id":"64bd598c-dd43-4a46-9d6c-5633d6873e63","system_id":"levelo_inurba_marseille","lat":43.30914,"lon":5.36862,"is_reserved":false,"is_disabled":false,"rental_uris":{"android":"levelo://app?vid=64bd598c-dd43-4a46-9d6c-5633d6873e63","ios":"levelo://app?vid=64bd598c-dd43-4a46-9d6c-5633d6873e63"},"vehicle_type_id":"4","last_reported":1747300290,"current_range_meters":24000,"station_id":"ce4bgn92rcd13ifvqbvg","pricing_plan_id":"cebpf4jnsgd1na2vs0mg"},{"bike_id":"a63297de-301b-4ae4-8775-3dd0654f0faa","system_id":"levelo_inurba_marseille","lat":43.29196,"lon":5.35805,"is_reserved":false,"is_disabled":false,"rental_uris":{"android":"levelo://app?vid=a63297de-301b-4ae4-8775-3dd0654f0faa","ios":"levelo://app?vid=a63297de-301b-4ae4-8775-3dd0654f0faa"},"vehicle_type_id":"4","last_reported":1747300290,"current_range_meters":24000,"station_id":"ce4bhb12rcd13ifvqel0","pricing_plan_id":"cebpf4jnsgd1na2vs0mg"},{"bike_id":"16c04f0e-1469-4484-a2bf-6839c25190d2","system_id":"levelo_inurba_marseille","lat":43.2315,"lon":5.43719,"is_reserved":false,"is_disabled":false,"rental_uris":{"android":"levelo://app?vid=16c04f0e-1469-4484-a2bf-6839c25190d2","ios":"levelo://app?vid=16c04f0e-1469-4484-a2bf-6839c25190d2"},"vehicle_type_id":"4","last_reported":1747300290,"current_range_meters":24000,"station_id":"ce4bhmp2rcd13ifvqgog","pricing_plan_id":"cebpf4jnsgd1na2vs0mg"},{"bike_id":"6f448576-cb7a-467b-9582-3c3c618da3ac","system_id":"levelo_inurba_marseille","lat":43.24166,"lon":5.36402,"is_reserved":false,"is_disabled":false,"rental_uris":{"android":"levelo://app?vid=6f448576-cb7a-467b-9582-3c3c618da3ac","ios":"levelo://app?vid=6f448576-cb7a-467b-9582-3c3c618da3ac"},"vehicle_type_id":"4","last_reported":1747300290,"current_range_meters":24400,"station_id":"cpo36qri1sfpv3e86is0","pricing_plan_id":"cebpf4jnsgd1na2vs0mg"},{"bike_id":"be6eb661-547a-42a6-bb76-c4d27192385c","system_id":"levelo_inurba_marseille","lat":43.309161,"lon":5.401326,"is_reserved":false,"is_disabled":false,"rental_uris":{"android":"levelo://app?vid=be6eb661-547a-42a6-bb76-c4d27192385c","ios":"levelo://app?vid=be6eb661-547a-42a6-bb76-c4d27192385c"},"vehicle_type_id":"4","last_reported":1747300290,"current_range_meters":24400,"station_id":"ce4bgvp2rcd13ifvqct0","pricing_plan_id":"cebpf4jnsgd1na2vs0mg"},{"bike_id":"0e52bacf-1c63-4958-8548-200deae134e7","system_id":"levelo_inurba_marseille","lat":43.26679,"lon":5.38269,"is_reserved":false,"is_disabled":false,"rental_uris":{"android":"levelo://app?vid=0e52bacf-1c63-4958-8548-200deae134e7","ios":"levelo://app?vid=0e52bacf-1c63-4958-8548-200deae134e7"},"vehicle_type_id":"4","last_reported":1747300290,"current_range_meters":24400,"station_id":"ce4bhg92rcd13ifvqf90","pricing_plan_id":"cebpf4jnsgd1na2vs0mg"},{"bike_id":"df6b5553-0b33-465c-a2e3-1751817014e6","system_id":"levelo_inurba_marseille","lat":43.30877,"lon":5.36819,"is_reserved":false,"is_disabled":false,"rental_uris":{"android":"levelo://app?vid=df6b5553-0b33-465c-a2e3-1751817014e6","ios":"levelo://app?vid=df6b5553-0b33-465c-a2e3-1751817014e6"},"vehicle_type_id":"4","last_reported":1747300290,"current_range_meters":24400,"station_id":"ce4bgn92rcd13ifvqbvg","pricing_plan_id":"cebpf4jnsgd1na2vs0mg"},{"bike_id":"cf3e2c50-ad4a-409a-b5d0-ccda8551c962","system_id":"levelo_inurba_marseille","lat":43.2905,"lon":5.35923,"is_reserved":false,"is_disabled":false,"rental_uris":{"android":"levelo://app?vid=cf3e2c50-ad4a-409a-b5d0-ccda8551c962","ios":"levelo://app?vid=cf3e2c50-ad4a-409a-b5d0-ccda8551c962"},"vehicle_type_id":"4","last_reported":1747300290,"current_range_meters":24400,"station_id":"ce4bha92rcd13ifvqeg0","pricing_plan_id":"cebpf4jnsgd1na2vs0mg"},{"bike_id":"0d961886-77a6-4a06-930e-4f62288ec1cc","system_id":"levelo_inurba_marseille","lat":43.27068,"lon":5.42279,"is_reserved":false,"is_disabled":false,"rental_uris":{"android":"levelo://app?vid=0d961886-77a6-4a06-930e-4f62288ec1cc","ios":"levelo://app?vid=0d961886-77a6-4a06-930e-4f62288ec1cc"},"vehicle_type_id":"4","last_reported":1747300290,"current_range_meters":24400,"station_id":"ce4bhk92rcd13ifvqgb0","pricing_plan_id":"cebpf4jnsgd1na2vs0mg"},{"bike_id":"86cf59c3-ef37-4695-9756-26f0f076955c","system_id":"levelo_inurba_marseille","lat":43.30676,"lon":5.368631,"is_reserved":false,"is_disabled":false,"rental_uris":{"android":"levelo://app?vid=86cf59c3-ef37-4695-9756-26f0f076955c","ios":"levelo://app?vid=86cf59c3-ef37-4695-9756-26f0f076955c"},"vehicle_type_id":"4","last_reported":1747300290,"current_range_meters":24400,"station_id":"","pricing_plan_id":"cebpf4jnsgd1na2vs0mg"},{"bike_id":"60f0b3a3-ea36-4971-97f2-859b4d8273d9","system_id":"levelo_inurba_marseille","lat":43.25495,"lon":5.37649,"is_reserved":false,"is_disabled":false,"rental_uris":{"android":"levelo://app?vid=60f0b3a3-ea36-4971-97f2-859b4d8273d9","ios":"levelo://app?vid=60f0b3a3-ea36-4971-97f2-859b4d8273d9"},"vehicle_type_id":"4","last_reported":1747300290,"current_range_meters":24400,"station_id":"ce4bhh12rcd13ifvqff0","pricing_plan_id":"cebpf4jnsgd1na2vs0mg"},{"bike_id":"ac729dfd-ec6d-49be-95ad-287b503b8a77","system_id":"levelo_inurba_marseille","lat":43.33601,"lon":5.41006,"is_reserved":false,"is_disabled":false,"rental_uris":{"android":"levelo://app?vid=ac729dfd-ec6d-49be-95ad-287b503b8a77","ios":"levelo://app?vid=ac729dfd-ec6d-49be-95ad-287b503b8a77"},"vehicle_type_id":"4","last_reported":1747300290,"current_range_meters":24400,"station_id":"ce4bhqh2rcd13ifvqhmg","pricing_plan_id":"cebpf4jnsgd1na2vs0mg"},{"bike_id":"e8104d9b-8522-4681-90e8-f93e731e5b01","system_id":"levelo_inurba_marseille","lat":43.24069,"lon":5.37776,"is_reserved":false,"is_disabled":false,"rental_uris":{"android":"levelo://app?vid=e8104d9b-8522-4681-90e8-f93e731e5b01","ios":"levelo://app?vid=e8104d9b-8522-4681-90e8-f93e731e5b01"},"vehicle_type_id":"4","last_reported":1747300290,"current_range_meters":24400,"station_id":"ce4bhnp2rcd13ifvqgvg","pricing_plan_id":"cebpf4jnsgd1na2vs0mg"},{"bike_id":"1d8ee952-3d0a-4ed4-8f64-15d2b8eca7e5","system_id":"levelo_inurba_marseille","lat":43.239575,"lon":5.366192,"is_reserved":false,"is_disabled":false,"rental_uris":{"android":"levelo://app?vid=1d8ee952-3d0a-4ed4-8f64-15d2b8eca7e5","ios":"levelo://app?vid=1d8ee952-3d0a-4ed4-8f64-15d2b8eca7e5"},"vehicle_type_id":"4","last_reported":1747300290,"current_range_meters":24400,"station_id":"ce4bhi12rcd13ifvqfp0","pricing_plan_id":"cebpf4jnsgd1na2vs0mg"},{"bike_id":"01f4bb24-b0c7-430e-8712-02c22eda0808","system_id":"levelo_inurba_marseille","lat":43.32523,"lon":5.41459,"is_reserved":false,"is_disabled":false,"rental_uris":{"android":"levelo://app?vid=01f4bb24-b0c7-430e-8712-02c22eda0808","ios":"levelo://app?vid=01f4bb24-b0c7-430e-8712-02c22eda0808"},"vehicle_type_id":"4","last_reported":1747300290,"current_range_meters":24800,"station_id":"ce4bhq12rcd13ifvqhhg","pricing_plan_id":"cebpf4jnsgd1na2vs0mg"},{"bike_id":"956d90ad-0a2d-439c-8f86-1df1fdca7b90","system_id":"levelo_inurba_marseille","lat":43.335946,"lon":5.410064,"is_reserved":false,"is_disabled":false,"rental_uris":{"android":"levelo://app?vid=956d90ad-0a2d-439c-8f86-1df1fdca7b90","ios":"levelo://app?vid=956d90ad-0a2d-439c-8f86-1df1fdca7b90"},"vehicle_type_id":"4","last_reported":1747300290,"current_range_meters":24800,"station_id":"ce4bhqh2rcd13ifvqhmg","pricing_plan_id":"cebpf4jnsgd1na2vs0mg"},{"bike_id":"033d1ba6-1477-486f-8888-45dde72e044d","system_id":"levelo_inurba_marseille","lat":43.29577,"lon":5.36745,"is_reserved":false,"is_disabled":false,"rental_uris":{"android":"levelo://app?vid=033d1ba6-1477-486f-8888-45dde72e044d","ios":"levelo://app?vid=033d1ba6-1477-486f-8888-45dde72e044d"},"vehicle_type_id":"4","last_reported":1747300290,"current_range_meters":24800,"station_id":"ce4bgph2rcd13ifvqc2g","pricing_plan_id":"cebpf4jnsgd1na2vs0mg"},{"bike_id":"ad05ddd9-3561-44fe-a488-3ccca032ec22","system_id":"levelo_inurba_marseille","lat":43.272,"lon":5.39175,"is_reserved":false,"is_disabled":false,"rental_uris":{"android":"levelo://app?vid=ad05ddd9-3561-44fe-a488-3ccca032ec22","ios":"levelo://app?vid=ad05ddd9-3561-44fe-a488-3ccca032ec22"},"vehicle_type_id":"4","last_reported":1747300290,"current_range_meters":24800,"station_id":"ce4bhhp2rcd13ifvqfm0","pricing_plan_id":"cebpf4jnsgd1na2vs0mg"},{"bike_id":"7f0accb2-4ed1-404e-a4ca-b2b5d6fdb020","system_id":"levelo_inurba_marseille","lat":43.30904,"lon":5.36802,"is_reserved":false,"is_disabled":false,"rental_uris":{"android":"levelo://app?vid=7f0accb2-4ed1-404e-a4ca-b2b5d6fdb020","ios":"levelo://app?vid=7f0accb2-4ed1-404e-a4ca-b2b5d6fdb020"},"vehicle_type_id":"4","last_reported":1747300290,"current_range_meters":24800,"station_id":"ce4bgn92rcd13ifvqbvg","pricing_plan_id":"cebpf4jnsgd1na2vs0mg"},