{"last_updated":1751659890,"ttl":60,"version":"2.2","data":{"bikes":[{"bike_id":"3da29fb8-fc97-44c6-b9ac-31dd456b2fd4","system_id":"levelo_inurba_marseille","lat":43.33771,"lon":5.37424,"is_reserved":false,"is_disabled":true,"rental_uris":{"android":"levelo://app?vid=3da29fb8-fc97-44c6-b9ac-31dd456b2fd4","ios":"levelo://app?vid=3da29fb8-fc97-44c6-b9ac-31dd456b2fd4"},"vehicle_type_id":"4","last_reported":1751659890,"current_range_meters":0,"station_id":"","pricing_plan_id":"cebpf4jnsgd1na2vs0mg"},{"bike_id":"01861ad8-a8d7-4be6-816e-651927c87584","system_id":"levelo_inurba_marseille","lat":43.33751,"lon":5.37456,"is_reserved":false,"is_disabled":true,"rental_uris":{"android":"levelo://app?vid=01861ad8-a8d7-4be6-816e-651927c87584","ios":"levelo://app?vid=01861ad8-a8d7-4be6-816e-651927c87584"},"vehicle_type_id":"4","last_reported":1751659890,"current_range_meters":0,"station_id":"","pricing_plan_id":"cebpf4jnsgd1na2vs0mg"},{"bike_id":"d016d5c1-02ca-4b1b-960b-b2ded45e88fb","system_id":"levelo_inurba_marseille","lat":43.26213,"lon":5.37501,"is_reserved":false,"is_disabled":true,"rental_uris":{"android":"levelo://app?vid=d016d5c1-02ca-4b1b-960b-b2ded45e88fb","ios":"levelo://app?vid=d016d5c1-02ca-4b1b-960b-b2ded45e88fb"},"vehicle_type_id":"4","last_reported":1751659890,"current_range_meters":0,"station_id":"","pricing_plan_id":"cebpf4jnsgd1na2vs0mg"},{"bike_id":"2db7de25-6c57-447b-bff5-ea01c3753780","system_id":"levelo_inurba_marseille","lat":43.21779,"lon":5.34573,"is_reserved":false,"is_disabled":true,"rental_uris":{"android":"levelo://app?vid=2db7de25-6c57-447b-bff5-ea01c3753780","ios":"levelo://app?vid=2db7de25-6c57-447b-bff5-ea01c3753780"},"vehicle_type_id":"4","last_reported":1751659890,"current_range_meters":0,"station_id":"","pricing_plan_id":"cebpf4jnsgd1na2vs0mg"},{"bike_id":"eb2a50ca-506b-4e80-b379-08adc8ae9a82","system_id":"levelo_inurba_marseille","lat":43.25396,"lon":5.37511,"is_reserved":false,"is_disabled":true,"rental_uris":{"android":"levelo://app?vid=eb2a50ca-506b-4e80-b379-08adc8ae9a82","ios":"levelo://app?vid=eb2a50ca-506b-4e80-b379-08adc8ae9a82"},"vehicle_type_id":"4","last_reported":1751659890,"current_range_meters":0,"station_id":"","pricing_plan_id":"cebpf4jnsgd1na2vs0mg"},{"bike_id":"d594088d-7cb9-4f95-8646-b495a2c02aa9","system_id":"levelo_inurba_marseille","lat":43.31729,"lon":5.40397,"is_reserved":false,"is_disabled":true,"rental_uris":{"android":"levelo://app?vid=d594088d-7cb9-4f95-8646-b495a2c02aa9","ios":"levelo://app?vid=d594088d-7cb9-4f95-8646-b495a2c02aa9"},"vehicle_type_id":"4","last_reported":1751659890,"current_range_meters":0,"station_id":"ce4bh012rcd13ifvqd00","pricing_plan_id":"cebpf4jnsgd1na2vs0mg"},{"bike_id":"e0273622-eef9-4296-ae2b-bb8c1e44d0cd","system_id":"levelo_inurba_marseille","lat":43.30631,"lon":5.40061,"is_reserved":false,"is_disabled":true,"rental_uris":{"android":"levelo://app?vid=e0273622-eef9-4296-ae2b-bb8c1e44d0cd","ios":"levelo://app?vid=e0273622-eef9-4296-ae2b-bb8c1e44d0cd"},"vehicle_type_id":"4","last_reported":1751659890,"current_range_meters":0,"station_id":"ce4bh112rcd13ifvqda0","pricing_plan_id":"cebpf4jnsgd1na2vs0mg"},{"bike_id":"6f3c319d-e880-41cb-9878-a425edcb52e6","system_id":"levelo_inurba_marseille","lat":43.27913,"lon":5.39591,"is_reserved":false,"is_disabled":true,"rental_uris":{"android":"levelo://app?vid=6f3c319d-e880-41cb-9878-a425edcb52e6","ios":"levelo://app?vid=6f3c319d-e880-41cb-9878-a425edcb52e6"},"vehicle_type_id":"4","last_reported":1751659890,"current_range_meters":0,"station_id":"ce4bhf92rcd13ifvqf40","pricing_plan_id":"cebpf4jnsgd1na2vs0mg"},{"bike_id":"f626e8f0-6274-4579-b6df-e825c0d4beec","system_id":"levelo_inurba_marseille","lat":43.24808,"lon":5.37452,"is_reserved":false,"is_disabled":true,"rental_uris":{"android":"levelo://app?vid=f626e8f0-6274-4579-b6df-e825c0d4beec","ios":"levelo://app?vid=f626e8f0-6274-4579-b6df-e825c0d4beec"},"vehicle_type_id":"4","last_reported":1751659890,"current_range_meters":0,"station_id":"ce4bhgh2rcd13ifvqfb0","pricing_plan_id":"cebpf4jnsgd1na2vs0mg"},{"bike_id":"8239b164-cdf5-494a-975c-126175094631","system_id":"levelo_inurba_marseille","lat":43.26196,"lon":5.37933,"is_reserved":false,"is_disabled":true,"rental_uris":{"android":"levelo://app?vid=8239b164-cdf5-494a-975c-126175094631","ios":"levelo://app?vid=8239b164-cdf5-494a-975c-126175094631"},"vehicle_type_id":"4","last_reported":1751659890,"current_range_meters":0,"station_id":"ce4bhjp2rcd13ifvqg90","pricing_plan_id":"cebpf4jnsgd1na2vs0mg"},{"bike_id":"b55f8d20-4ab0-4ac7-8196-6e6c2dfc5439","system_id":"levelo_inurba_marseille","lat":43.22924,"lon":5.35396,"is_reserved":false,"is_disabled":true,"rental_uris":{"android":"levelo://app?vid=b55f8d20-4ab0-4ac7-8196-6e6c2dfc5439","ios":"levelo://app?vid=b55f8d20-4ab0-4ac7-8196-6e6c2dfc5439"},"vehicle_type_id":"4","last_reported":1751659890,"current_range_meters":0,"station_id":"cpo3532slgdg3j2ikp40","pricing_plan_id":"cebpf4jnsgd1na2vs0mg"},{"bike_id":"fb7eaa34-3090-467a-bc3a-a4c2c7cd510d","system_id":"levelo_inurba_marseille","lat":43.21761,"lon":5.34603,"is_reserved":false,"is_disabled":true,"rental_uris":{"android":"levelo://app?vid=fb7eaa34-3090-467a-bc3a-a4c2c7cd510d","ios":"levelo://app?vid=fb7eaa34-3090-467a-bc3a-a4c2c7cd510d"},"vehicle_type_id":"4","last_reported":1751659890,"current_range_meters":0,"station_id":"st_cvj6r9ubvosntc0bgbag","pricing_plan_id":"cebpf4jnsgd1na2vs0mg"},{"bike_id":"5e8830ec-34e5-4f0f-b607-434b2954d153","system_id":"levelo_inurba_marseille","lat":43.21193,"lon":5.35078,"is_reserved":false,"is_disabled":true,"rental_uris":{"android":"levelo://app?vid=5e8830ec-34e5-4f0f-b607-434b2954d153","ios":"levelo://app?vid=5e8830ec-34e5-4f0f-b607-434b2954d153"},"vehicle_type_id":"4","last_reported":1751659890,"current_range_meters":0,"station_id":"st_cvj6sg6p6f1abm77japg","pricing_plan_id":"cebpf4jnsgd1na2vs0mg"},{"bike_id":"cd2a3af2-854b-4519-92e5-1eaf70ba8a37","system_id":"levelo_inurba_marseille","lat":43.21191,"lon":5.35069,"is_reserved":false,"is_disabled":true,"rental_uris":{"android":"levelo://app?vid=cd2a3af2-854b-4519-92e5-1eaf70ba8a37","ios":"levelo://app?vid=cd2a3af2-854b-4519-92e5-1eaf70ba8a37"},"vehicle_type_id":"4","last_reported":1751659890,"current_range_meters":0,"station_id":"st_cvj6sg6p6f1abm77japg","pricing_plan_id":"cebpf4jnsgd1na2vs0mg"},{"bike_id":"771e23b6-1568-40a1-bf38-929b8f73aec6","system_id":"levelo_inurba_marseille","lat":43.295776,"lon":5.375195,"is_reserved":false,"is_disabled":false,"rental_uris":{"android":"levelo://app?vid=771e23b6-1568-40a1-bf38-929b8f73aec6","ios":"levelo://app?vid=771e23b6-1568-40a1-bf38-929b8f73aec6"},"vehicle_type_id":"4","last_reported":1751659890,"current_range_meters":400,"station_id":"ce4bgh92rcd13ifvqb50","pricing_plan_id":"cebpf4jnsgd1na2vs0mg"},{"bike_id":"56a0bd6a-5a43-4eff-9db4-41baa3f191f8","system_id":"levelo_inurba_marseille","lat":43.30318,"lon":5.36903,"is_reserved":false,"is_disabled":true,"rental_uris":{"android":"levelo://app?vid=56a0bd6a-5a43-4eff-9db4-41baa3f191f8","ios":"levelo://app?vid=56a0bd6a-5a43-4eff-9db4-41baa3f191f8"},"vehicle_type_id":"4","last_reported":1751659890,"current_range_meters":400,"station_id":"ce4bgqh2rcd13ifvqc5g","pricing_plan_id":"cebpf4jnsgd1na2vs0mg"},{"bike_id":"c3ff1283-a629-4c9e-9a31-bce49930c9a9","system_id":"levelo_inurba_marseille","lat":43.31012,"lon":5.38362,"is_reserved":false,"is_disabled":true,"rental_uris":{"android":"levelo://app?vid=c3ff1283-a629-4c9e-9a31-bce49930c9a9","ios":"levelo://app?vid=c3ff1283-a629-4c9e-9a31-bce49930c9a9"},"vehicle_type_id":"4","last_reported":1751659890,"current_range_meters":400,"station_id":"ce4bgt12rcd13ifvqce0","pricing_plan_id":"cebpf4jnsgd1na2vs0mg"},{"bike_id":"35198f54-1639-4737-9272-cc59b9103724","system_id":"levelo_inurba_marseille","lat":43.2466,"lon":5.38166,"is_reserved":false,"is_disabled":true,"rental_uris":{"android":"levelo://app?vid=35198f54-1639-4737-9272-cc59b9103724","ios":"levelo://app?vid=35198f54-1639-4737-9272-cc59b9103724"},"vehicle_type_id":"4","last_reported":1751659890,"current_range_meters":400,"station_id":"ce4bhih2rcd13ifvqfr0","pricing_plan_id":"cebpf4jnsgd1na2vs0mg"},{"bike_id":"cee0b5b6-9b90-457a-85f4-540287a23b84","system_id":"levelo_inurba_marseille","lat":43.21191,"lon":5.35071,"is_reserved":false,"is_disabled":true,"rental_uris":{"android":"levelo://app?vid=cee0b5b6-9b90-457a-85f4-540287a23b84","ios":"levelo://app?vid=cee0b5b6-9b90-457a-85f4-540287a23b84"},"vehicle_type_id":"4","last_reported":1751659890,"current_range_meters":400,"station_id":"st_cvj6sg6p6f1abm77japg","pricing_plan_id":"cebpf4jnsgd1na2vs0mg"},{"bike_id":"df9a8fd4-2c2b-4cf8-a0de-931dbfb373d5","system_id":"levelo_inurba_marseille","lat":43.23178,"lon":5.39995,"is_reserved":false,"is_disabled":true,"rental_uris":{"android":"levelo://app?vid=df9a8fd4-2c2b-4cf8-a0de-931dbfb373d5","ios":"levelo://app?vid=df9a8fd4-2c2b-4cf8-a0de-931dbfb373d5"},"vehicle_type_id":"4","last_reported":1751659890,"current_range_meters":800,"station_id":"ce4bhn12rcd13ifvqgqg","pricing_plan_id":"cebpf4jnsgd1na2vs0mg"},{"bike_id":"34c6e3d0-b005-424f-a0a7-52f9f8bd654f","system_id":"levelo_inurba_marseille","lat":43.23622,"lon":5.36207,"is_reserved":false,"is_disabled":true,"rental_uris":{"android":"levelo://app?vid=34c6e3d0-b005-424f-a0a7-52f9f8bd654f","ios":"levelo://app?vid=34c6e3d0-b005-424f-a0a7-52f9f8bd654f"},"vehicle_type_id":"4","last_reported":1751659890,"current_range_meters":1200,"station_id":"","pricing_plan_id":"cebpf4jnsgd1na2vs0mg"},{"bike_id":"93f3dd1f-b008-447e-9e85-ab51f875813d","system_id":"levelo_inurba_marseille","lat":43.308822,"lon":5.396506,"is_reserved":false,"is_disabled":true,"rental_uris":{"android":"levelo://app?vid=93f3dd1f-b008-447e-9e85-ab51f875813d","ios":"levelo://app?vid=93f3dd1f-b008-447e-9e85-ab51f875813d"},"vehicle_type_id":"4","last_reported":1751659890,"current_range_meters":1200,"station_id":"ce4bh012rcd13ifvqcv0","pricing_plan_id":"cebpf4jnsgd1na2vs0mg"},{"bike_id":"324163b1-2378-4f73-b3b5-426550d2b6ab","system_id":"levelo_inurba_marseille","lat":43.286752,"lon":5.386647,"is_reserved":false,"is_disabled":true,"rental_uris":{"android":"levelo://app?vid=324163b1-2378-4f73-b3b5-426550d2b6ab","ios":"levelo://app?vid=324163b1-2378-4f73-b3b5-426550d2b6ab"},"vehicle_type_id":"4","last_reported":1751659890,"current_range_meters":1200,"station_id":"ce4bh492rcd13ifvqdug","pricing_plan_id":"cebpf4jnsgd1na2vs0mg"},{"bike_id":"22ed0dcd-e38d-4167-89cb-b81593e5e636","system_id":"levelo_inurba_marseille","lat":43.27055,"lon":5.40254,"is_reserved":false,"is_disabled":true,"rental_uris":{"android":"levelo://app?vid=22ed0dcd-e38d-4167-89cb-b81593e5e636","ios":"levelo://app?vid=22ed0dcd-e38d-4167-89cb-b81593e5e636"},"vehicle_type_id":"4","last_reported":1751659890,"current_range_meters":1200,"station_id":"ce4bhk92rcd13ifvqgc0","pricing_plan_id":"cebpf4jnsgd1na2vs0mg"},{"bike_id":"232c7599-afff-41a5-b0d2-0bcec5f48bb6","system_id":"levelo_inurba_marseille","lat":43.21749,"lon":5.34585,"is_reserved":false,"is_disabled":true,"rental_uris":{"android":"levelo://app?vid=232c7599-afff-41a5-b0d2-0bcec5f48bb6","ios":"levelo://app?vid=232c7599-afff-41a5-b0d2-0bcec5f48bb6"},"vehicle_type_id":"4","last_reported":1751659890,"current_range_meters":1200,"station_id":"st_cvj6r9ubvosntc0bgbag","pricing_plan_id":"cebpf4jnsgd1na2vs0mg"},{"bike_id":"0876bcb7-a371-4364-a7af-cdfe53393ce4","system_id":"levelo_inurba_marseille","lat":43.27047,"lon":5.42272,"is_reserved":false,"is_disabled":true,"rental_uris":{"android":"levelo://app?vid=0876bcb7-a371-4364-a7af-cdfe53393ce4","ios":"levelo://app?vid=0876bcb7-a371-4364-a7af-cdfe53393ce4"},"vehicle_type_id":"4","last_reported":1751659890,"current_range_meters":1600,"station_id":"ce4bhk92rcd13ifvqgb0","pricing_plan_id":"cebpf4jnsgd1na2vs0mg"},{"bike_id":"6c04d1aa-9753-4d9e-971c-c93c2c84519a","system_id":"levelo_inurba_marseille","lat":43.3136,"lon":5.3849,"is_reserved":false,"is_disabled":true,"rental_uris":{"android":"levelo://app?vid=6c04d1aa-9753-4d9e-971c-c93c2c84519a","ios":"levelo://app?vid=6c04d1aa-9753-4d9e-971c-c93c2c84519a"},"vehicle_type_id":"4","last_reported":1751659890,"current_range_meters":2000,"station_id":"ce4bgt92rcd13ifvqcf0","pricing_plan_id":"cebpf4jnsgd1na2vs0mg"},{"bike_id":"803f896f-1155-41e0-9b62-db6e6ab20819","system_id":"levelo_inurba_marseille","lat":43.289208,"lon":5.366512,"is_reserved":false,"is_disabled":true,"rental_uris":{"android":"levelo://app?vid=803f896f-1155-41e0-9b62-db6e6ab20819","ios":"levelo://app?vid=803f896f-1155-41e0-9b62-db6e6ab20819"},"vehicle_type_id":"4","last_reported":1751659890,"current_range_meters":2000,"station_id":"ce4bhap2rcd13ifvqek0","pricing_plan_id":"cebpf4jnsgd1na2vs0mg"},{"bike_id":"11e7b8be-6254-46c8-a705-c6941c346d56","system_id":"levelo_inurba_marseille","lat":43.30137,"lon":5.37727,"is_reserved":false,"is_disabled":false,"rental_uris":{"android":"levelo://app?vid=11e7b8be-6254-46c8-a705-c6941c346d56","ios":"levelo://app?vid=11e7b8be-6254-46c8-a705-c6941c346d56"},"vehicle_type_id":"4","last_reported":1751659890,"current_range_meters":2800,"station_id":"","pricing_plan_id":"cebpf4jnsgd1na2vs0mg"},{"bike_id":"acc387d6-c4ed-491d-8c98-67b4b3aee1d2","system_id":"levelo_inurba_marseille","lat":43.29812,"lon":5.38111,"is_reserved":false,"is_disabled":false,"rental_uris":{"android":"levelo://app?vid=acc387d6-c4ed-491d-8c98-67b4b3aee1d2","ios":"levelo://app?vid=acc387d6-c4ed-491d-8c98-67b4b3aee1d2"},"vehicle_type_id":"4","last_reported":1751659890,"current_range_meters":2800,"station_id":"ce4bgip2rcd13ifvqbb0","pricing_plan_id":"cebpf4jnsgd1na2vs0mg"},{"bike_id":"95fa835c-b809-4cb2-b5d0-5bc2811d7bb0","system_id":"levelo_inurba_marseille","lat":43.31216,"lon":5.36856,"is_reserved":false,"is_disabled":false,"rental_uris":{"android":"levelo://app?vid=95fa835c-b809-4cb2-b5d0-5bc2811d7bb0","ios":"levelo://app?vid=95fa835c-b809-4cb2-b5d0-5bc2811d7bb0"},"vehicle_type_id":"4","last_reported":1751659890,"current_range_meters":2800,"station_id":"ce4bgl92rcd13ifvqbq0","pricing_plan_id":"cebpf4jnsgd1na2vs0mg"},{"bike_id":"b537497f-0baa-4d4a-a9e1-cc8e25d8e50b","system_id":"levelo_inurba_marseille","lat":43.24565,"lon":5.39485,"is_reserved":false,"is_disabled":false,"rental_uris":{"android":"levelo://app?vid=b537497f-0baa-4d4a-a9e1-cc8e25d8e50b","ios":"levelo://app?vid=b537497f-0baa-4d4a-a9e1-cc8e25d8e50b"},"vehicle_type_id":"4","last_reported":1751659890,"current_range_meters":2800,"station_id":"ce4bhlp2rcd13ifvqgjg","pricing_plan_id":"cebpf4jnsgd1na2vs0mg"},{"bike_id":"6f12d115-aa1d-4cb0-8c43-8b922de8bc36","system_id":"levelo_inurba_marseille","lat":43.29529,"lon":5.38547,"is_reserved":false,"is_disabled":false,"rental_uris":{"android":"levelo://app?vid=6f12d115-aa1d-4cb0-8c43-8b922de8bc36","ios":"levelo://app?vid=6f12d115-aa1d-4cb0-8c43-8b922de8bc36"},"vehicle_type_id":"4","last_reported":1751659890,"current_range_meters":3200,"station_id":"ce4bgih2rcd13ifvqba0","pricing_plan_id":"cebpf4jnsgd1na2vs0mg"},{"bike_id":"60870d2b-1daf-4a76-bf6a-b1dc5616d56e","system_id":"levelo_inurba_marseille","lat":43.31273,"lon":5.40178,"is_reserved":false,"is_disabled":false,"rental_uris":{"android":"levelo://app?vid=60870d2b-1daf-4a76-bf6a-b1dc5616d56e","ios":"levelo://app?vid=60870d2b-1daf-4a76-bf6a-b1dc5616d56e"},"vehicle_type_id":"4","last_reported":1751659890,"current_range_meters":3200,"station_id":"ce4bh092rcd13ifvqd30","pricing_plan_id":"cebpf4jnsgd1na2vs0mg"},{"bike_id":"37dc6afd-bb3e-4b19-8530-974e04618274","system_id":"levelo_inurba_marseille","lat":43.30883,"lon":5.39659,"is_reserved":false,"is_disabled":false,"rental_uris":{"android":"levelo://app?vid=37dc6afd-bb3e-4b19-8530-974e04618274","ios":"levelo://app?vid=37dc6afd-bb3e-4b19-8530-974e04618274"},"vehicle_type_id":"4","last_reported":1751659890,"current_range_meters":3600,"station_id":"ce4bh012rcd13ifvqcv0","pricing_plan_id":"cebpf4jnsgd1na2vs0mg"},{"bike_id":"fd18b68f-9bc9-41b6-8d78-b0758836dc12","system_id":"levelo_inurba_marseille","lat":43.29628,"lon":5.406,"is_reserved":false,"is_disabled":false,"rental_uris":{"android":"levelo://app?vid=fd18b68f-9bc9-41b6-8d78-b0758836dc12","ios":"levelo://app?vid=fd18b68f-9bc9-41b6-8d78-b0758836dc12"},"vehicle_type_id":"4","last_reported":1751659890,"current_range_meters":4000,"station_id":"ce4bh0h2rcd13ifvqd60","pricing_plan_id":"cebpf4jnsgd1na2vs0mg"},{"bike_id":"6869fae5-48cf-455c-866a-134c92f7fe02","system_id":"levelo_inurba_marseille","lat":43.28417,"lon":5.34987,"is_reserved":false,"is_disabled":false,"rental_uris":{"android":"levelo://app?vid=6869fae5-48cf-455c-866a-134c92f7fe02","ios":"levelo://app?vid=6869fae5-48cf-455c-866a-134c92f7fe02"},"vehicle_type_id":"4","last_reported":1751659890,"current_range_meters":4000,"station_id":"ce4bhbh2rcd13ifvqepg","pricing_plan_id":"cebpf4jnsgd1na2vs0mg"},{"bike_id":"8b517eaa-07f5-4a95-a84d-f6a12dcb7460","system_id":"levelo_inurba_marseille","lat":43.26203,"lon":5.37447,"is_reserved":false,"is_disabled":false,"rental_uris":{"android":"levelo://app?vid=8b517eaa-07f5-4a95-a84d-f6a12dcb7460","ios":"levelo://app?vid=8b517eaa-07f5-4a95-a84d-f6a12dcb7460"},"vehicle_type_id":"4","last_reported":1751659890,"current_range_meters":4000,"station_id":"ce4bhgp2rcd13ifvqfc0","pricing_plan_id":"cebpf4jnsgd1na2vs0mg"},{"bike_id":"8afa7640-ebe8-4025-983a-c83f3912a2dd","system_id":"levelo_inurba_marseille","lat":43.211911,"lon":5.350703,"is_reserved":false,"is_disabled":false,"rental_uris":{"android":"levelo://app?vid=8afa7640-ebe8-4025-983a-c83f3912a2dd","ios":"levelo://app?vid=8afa7640-ebe8-4025-983a-c83f3912a2dd"},"vehicle_type_id":"4","last_reported":1751659890,"current_range_meters":4000,"station_id":"st_cvj6sg6p6f1abm77japg","pricing_plan_id":"cebpf4jnsgd1na2vs0mg"},{"bike_id":"e26ba497-efc7-4420-b8c5-9fa5e27f2ce4","system_id":"levelo_inurba_marseille","lat":43.31354,"lon":5.37076,"is_reserved":false,"is_disabled":false,"rental_uris":{"android":"levelo://app?vid=e26ba497-efc7-4420-b8c5-9fa5e27f2ce4","ios":"levelo://app?vid=e26ba497-efc7-4420-b8c5-9fa5e27f2ce4"},"vehicle_type_id":"4","last_reported":1751659890,"current_range_meters":4800,"station_id":"","pricing_plan_id":"cebpf4jnsgd1na2vs0mg"},{"bike_id":"41540ecc-5711-40e5-8c9d-7252c226efc8","system_id":"levelo_inurba_marseille","lat":43.28154,"lon":5.4264,"is_reserved":false,"is_disabled":false,"rental_uris":{"android":"levelo://app?vid=41540ecc-5711-40e5-8c9d-7252c226efc8","ios":"levelo://app?vid=41540ecc-5711-40e5-8c9d-7252c226efc8"},"vehicle_type_id":"4","last_reported":1751659890,"current_range_meters":4800,"station_id":"ce4bhnh2rcd13ifvqgug","pricing_plan_id":"cebpf4jnsgd1na2vs0mg"},{"bike_id":"041022f7-2252-4d7d-84f3-82c28e35679b","system_id":"levelo_inurba_marseille","lat":43.29929,"lon":5.36549,"is_reserved":false,"is_disabled":false,"rental_uris":{"android":"levelo://app?vid=041022f7-2252-4d7d-84f3-82c28e35679b","ios":"levelo://app?vid=041022f7-2252-4d7d-84f3-82c28e35679b"},"vehicle_type_id":"4","last_reported":1751659890,"current_range_meters":5600,"station_id":"ce4bgm92rcd13ifvqbr0","pricing_plan_id":"cebpf4jnsgd1na2vs0mg"},{"bike_id":"49db8b6e-ed69-4e14-9114-cd69b5ba7a4c","system_id":"levelo_inurba_marseille","lat":43.2511,"lon":5.4032,"is_reserved":false,"is_disabled":false,"rental_uris":{"android":"levelo://app?vid=49db8b6e-ed69-4e14-9114-cd69b5ba7a4c","ios":"levelo://app?vid=49db8b6e-ed69-4e14-9114-cd69b5ba7a4c"},"vehicle_type_id":"4","last_reported":1751659890,"current_range_meters":6000,"station_id":"ce4bhlh2rcd13ifvqgig","pricing_plan_id":"cebpf4jnsgd1na2vs0mg"},{"bike_id":"c3ae91a3-84a1-49e1-b302-b2dd0c68bce6","system_id":"levelo_inurba_marseille","lat":43.28316,"lon":5.43245,"is_reserved":false,"is_disabled":false,"rental_uris":{"android":"levelo://app?vid=c3ae91a3-84a1-49e1-b302-b2dd0c68bce6","ios":"levelo://app?vid=c3ae91a3-84a1-49e1-b302-b2dd0c68bce6"},"vehicle_type_id":"4","last_reported":1751659890,"current_range_meters":6400,"station_id":"","pricing_plan_id":"cebpf4jnsgd1na2vs0mg"},{"bike_id":"09454f46-e55e-4559-820c-cbc05b531847","system_id":"levelo_inurba_marseille","lat":43.32303,"lon":5.38995,"is_reserved":false,"is_disabled":false,"rental_uris":{"android":"levelo://app?vid=09454f46-e55e-4559-820c-cbc05b531847","ios":"levelo://app?vid=09454f46-e55e-4559-820c-cbc05b531847"},"vehicle_type_id":"4","last_reported":1751659890,"current_range_meters":6400,"station_id":"","pricing_plan_id":"cebpf4jnsgd1na2vs0mg"},{"bike_id":"3022d776-a84c-4966-84c7-bea3e3e5ccae","system_id":"levelo_inurba_marseille","lat":43.29305,"lon":5.37183,"is_reserved":false,"is_disabled":false,"rental_uris":{"android":"levelo://app?vid=3022d776-a84c-4966-84c7-bea3e3e5ccae","ios":"levelo://app?vid=3022d776-a84c-4966-84c7-bea3e3e5ccae"},"vehicle_type_id":"4","last_reported":1751659890,"current_range_meters":6400,"station_id":"ce4bgh92rcd13ifvqb40","pricing_plan_id":"cebpf4jnsgd1na2vs0mg"},{"bike_id":"72ae954c-7dbe-43c0-a334-ddd3067ee19e","system_id":"levelo_inurba_marseille","lat":43.3136,"lon":5.38488,"is_reserved":false,"is_disabled":false,"rental_uris":{"android":"levelo://app?vid=72ae954c-7dbe-43c0-a334-ddd3067ee19e","ios":"levelo://app?vid=72ae954c-7dbe-43c0-a334-ddd3067ee19e"},"vehicle_type_id":"4","last_reported":1751659890,"current_range_meters":6400,"station_id":"ce4bgt92rcd13ifvqcf0","pricing_plan_id":"cebpf4jnsgd1na2vs0mg"},{"bike_id":"bce1c90b-f467-471b-9e84-8109fbb6bad0","system_id":"levelo_inurba_marseille","lat":43.29527,"lon":5.38546,"is_reserved":false,"is_disabled":false,"rental_uris":{"android":"levelo://app?vid=bce1c90b-f467-471b-9e84-8109fbb6bad0","ios":"levelo://app?vid=bce1c90b-f467-471b-9e84-8109fbb6bad0"},"vehicle_type_id":"4","last_reported":1751659890,"current_range_meters":6800,"station_id":"ce4bgih2rcd13ifvqba0","pricing_plan_id":"cebpf4jnsgd1na2vs0mg"},{"bike_id":"af8b9ead-7c47-4946-b4b8-58014380a592","system_id":"levelo_inurba_marseille","lat":43.32331,"lon":5.40621,"is_reserved":false,"is_disabled":false,"rental_uris":{"android":"levelo://app?vid=af8b9ead-7c47-4946-b4b8-58014380a592","ios":"levelo://app?vid=af8b9ead-7c47-4946-b4b8-58014380a592"},"vehicle_type_id":"4","last_reported":1751659890,"current_range_meters":6800,"station_id":"ce4bhq92rcd13ifvqhjg","pricing_plan_id":"cebpf4jnsgd1na2vs0mg"},{"bike_id":"f6850c7e-defc-4978-a42c-12d5cf031dcb","system_id":"levelo_inurba_marseille","lat":43.31762,"lon":5.39001,"is_reserved":false,"is_disabled":false,"rental_uris":{"android":"levelo://app?vid=f6850c7e-defc-4978-a42c-12d5cf031dcb","ios":"levelo://app?vid=f6850c7e-defc-4978-a42c-12d5cf031dcb"},"vehicle_type_id":"4","last_reported":1751659890,"current_range_meters":6800,"station_id":"ce4bhqp2rcd13ifvqhng","pricing_plan_id":"cebpf4jnsgd1na2vs0mg"},{"bike_id":"be4e2ba2-f83c-4be6-923a-932d435bb5ce","system_id":"levelo_inurba_marseille","lat":43.28232,"lon":5.40433,"is_reserved":false,"is_disabled":false,"rental_uris":{"android":"levelo://app?vid=be4e2ba2-f83c-4be6-923a-932d435bb5ce","ios":"levelo://app?vid=be4e2ba2-f83c-4be6-923a-932d435bb5ce"},"vehicle_type_id":"4","last_reported":1751659890,"current_range_meters":7200,"station_id":"","pricing_plan_id":"cebpf4jnsgd1na2vs0mg"},{"bike_id":"2f538d7c-0199-4f15-8063-5b9cf3785943","system_id":"levelo_inurba_marseille","lat":43.28851,"lon":5.38791,"is_reserved":false,"is_disabled":false,"rental_uris":{"android":"levelo://app?vid=2f538d7c-0199-4f15-8063-5b9cf3785943","ios":"levelo://app?vid=2f538d7c-0199-4f15-8063-5b9cf3785943"},"vehicle_type_id":"4","last_reported":1751659890,"current_range_meters":7200,"station_id":"","pricing_plan_id":"cebpf4jnsgd1na2vs0mg"},{"bike_id":"783ebfae-7b50-4b2e-8244-e47c468514b5","system_id":"levelo_inurba_marseille","lat":43.28351,"lon":5.38101,"is_reserved":false,"is_disabled":false,"rental_uris":{"android":"levelo://app?vid=783ebfae-7b50-4b2e-8244-e47c468514b5","ios":"levelo://app?vid=783ebfae-7b50-4b2e-8244-e47c468514b5"},"vehicle_type_id":"4","last_reported":1751659890,"current_range_meters":7200,"station_id":"ce4bh412rcd13ifvqdr0","pricing_plan_id":"cebpf4jnsgd1na2vs0mg"},{"bike_id":"11159437-e37f-4129-a009-d9cb8be33f64","system_id":"levelo_inurba_marseille","lat":43.2319,"lon":5.35556,"is_reserved":false,"is_disabled":false,"rental_uris":{"android":"levelo://app?vid=11159437-e37f-4129-a009-d9cb8be33f64","ios":"levelo://app?vid=11159437-e37f-4129-a009-d9cb8be33f64"},"vehicle_type_id":"4","last_reported":1751659890,"current_range_meters":7200,"station_id":"ce4bhu92rcd13ifvqi70","pricing_plan_id":"cebpf4jnsgd1na2vs0mg"},{"bike_id":"9bfc7d3d-4e60-4f8a-9c32-ef3d0e77ec5b","system_id":"levelo_inurba_marseille","lat":43.21186,"lon":5.35037,"is_reserved":false,"is_disabled":false,"rental_uris":{"android":"levelo://app?vid=9bfc7d3d-4e60-4f8a-9c32-ef3d0e77ec5b","ios":"levelo://app?vid=9bfc7d3d-4e60-4f8a-9c32-ef3d0e77ec5b"},"vehicle_type_id":"4","last_reported":1751659890,"current_range_meters":7200,"station_id":"st_cvj6sg6p6f1abm77japg","pricing_plan_id":"cebpf4jnsgd1na2vs0mg"},{"bike_id":"f781d365-f094-4cc2-b8a3-cb6f658f2d75","system_id":"levelo_inurba_marseille","lat":43.2954,"lon":5.37501,"is_reserved":false,"is_disabled":false,"rental_uris":{"android":"levelo://app?vid=f781d365-f094-4cc2-b8a3-cb6f658f2d75","ios":"levelo://app?vid=f781d365-f094-4cc2-b8a3-cb6f658f2d75"},"vehicle_type_id":"4","last_reported":1751659890,"current_range_meters":8000,"station_id":"ce4bgkp2rcd13ifvqbmg","pricing_plan_id":"cebpf4jnsgd1na2vs0mg"},{"bike_id":"2a6f440c-f8aa-4293-b7ff-9b60fa22f9e8","system_id":"levelo_inurba_marseille","lat":43.26549,"lon":5.37291,"is_reserved":false,"is_disabled":false,"rental_uris":{"android":"levelo://app?vid=2a6f440c-f8aa-4293-b7ff-9b60fa22f9e8","ios":"levelo://app?vid=2a6f440c-f8aa-4293-b7ff-9b60fa22f9e8"},"vehicle_type_id":"4","last_reported":1751659890,"current_range_meters":8000,"station_id":"ce4bhg12rcd13ifvqf70","pricing_plan_id":"cebpf4jnsgd1na2vs0mg"},{"bike_id":"a303cfa1-8266-4d3c-9188-ba53454e34a1","system_id":"levelo_inurba_marseille","lat":43.28435,"lon":5.39204,"is_reserved":false,"is_disabled":false,"rental_uris":{"android":"levelo://app?vid=a303cfa1-8266-4d3c-9188-ba53454e34a1","ios":"levelo://app?vid=a303cfa1-8266-4d3c-9188-ba53454e34a1"},"vehicle_type_id":"4","last_reported":1751659890,"current_range_meters":8000,"station_id":"ce4bhoh2rcd13ifvqh5g","pricing_plan_id":"cebpf4jnsgd1na2vs0mg"},{"bike_id":"5e5baa61-919f-4e08-9203-5d63cc1994be","system_id":"levelo_inurba_marseille","lat":43.326617,"lon":5.409888,"is_reserved":false,"is_disabled":false,"rental_uris":{"android":"levelo://app?vid=5e5baa61-919f-4e08-9203-5d63cc1994be","ios":"levelo://app?vid=5e5baa61-919f-4e08-9203-5d63cc1994be"},"vehicle_type_id":"4","last_reported":1751659890,"current_range_meters":8000,"station_id":"ce4bhpp2rcd13ifvqhgg","pricing_plan_id":"cebpf4jnsgd1na2vs0mg"},{"bike_id":"980bf51a-4e38-4141-b6a5-bcf51641501f","system_id":"levelo_inurba_marseille","lat":43.26565,"lon":5.40325,"is_reserved":false,"is_disabled":false,"rental_uris":{"android":"levelo://app?vid=980bf51a-4e38-4141-b6a5-bcf51641501f","ios":"levelo://app?vid=980bf51a-4e38-4141-b6a5-bcf51641501f"},"vehicle_type_id":"4","last_reported":1751659890,"current_range_meters":8400,"station_id":"","pricing_plan_id":"cebpf4jnsgd1na2vs0mg"},{"bike_id":"d799b321-3a7d-4201-b46e-ffe2ad124f19","system_id":"levelo_inurba_marseille","lat":43.32906,"lon":5.38374,"is_reserved":false,"is_disabled":false,"rental_uris":{"android":"levelo://app?vid=d799b321-3a7d-4201-b46e-ffe2ad124f19","ios":"levelo://app?vid=d799b321-3a7d-4201-b46e-ffe2ad124f19"},"vehicle_type_id":"4","last_reported":1751659890,"current_range_meters":8400,"station_id":"","pricing_plan_id":"cebpf4jnsgd1na2vs0mg"},{"bike_id":"d559005e-62dc-4c25-b7e6-3643fe72a106","system_id":"levelo_inurba_marseille","lat":43.29677,"lon":5.37296,"is_reserved":false,"is_disabled":false,"rental_uris":{"android":"levelo://app?vid=d559005e-62dc-4c25-b7e6-3643fe72a106","ios":"levelo://app?vid=d559005e-62dc-4c25-b7e6-3643fe72a106"},"vehicle_type_id":"4","last_reported":1751659890,"current_range_meters":8400,"station_id":"ce4bgk12rcd13ifvqbj0","pricing_plan_id":"cebpf4jnsgd1na2vs0mg"},{"bike_id":"c1d09e74-b70f-4fda-bece-50c7a9ab5140","system_id":"levelo_inurba_marseille","lat":43.30886,"lon":5.39657,"is_reserved":false,"is_disabled":false,"rental_uris":{"android":"levelo://app?vid=c1d09e74-b70f-4fda-bece-50c7a9ab5140","ios":"levelo://app?vid=c1d09e74-b70f-4fda-bece-50c7a9ab5140"},"vehicle_type_id":"4","last_reported":1751659890,"current_range_meters":8400,"station_id":"ce4bh012rcd13ifvqcv0","pricing_plan_id":"cebpf4jnsgd1na2vs0mg"},{"bike_id":"4bac3f2b-eb39-405f-9e58-7764b5148051","system_id":"levelo_inurba_marseille","lat":43.32187,"lon":5.41804,"is_reserved":false,"is_disabled":false,"rental_uris":{"android":"levelo://app?vid=4bac3f2b-eb39-405f-9e58-7764b5148051","ios":"levelo://app?vid=4bac3f2b-eb39-405f-9e58-7764b5148051"},"vehicle_type_id":"4","last_reported":1751659890,"current_range_meters":8800,"station_id":"","pricing_plan_id":"cebpf4jnsgd1na2vs0mg"},{"bike_id":"35521e80-3ec9-4804-9d69-294de2de6ca3","system_id":"levelo_inurba_marseille","lat":43.31355,"lon":5.38487,"is_reserved":false,"is_disabled":false,"rental_uris":{"android":"levelo://app?vid=35521e80-3ec9-4804-9d69-294de2de6ca3","ios":"levelo://app?vid=35521e80-3ec9-4804-9d69-294de2de6ca3"},"vehicle_type_id":"4","last_reported":1751659890,"current_range_meters":8800,"station_id":"ce4bgt92rcd13ifvqcf0","pricing_plan_id":"cebpf4jnsgd1na2vs0mg"},{"bike_id":"dfa1c380-e619-4d58-9700-e366787f15f4","system_id":"levelo_inurba_marseille","lat":43.31082,"lon":5.38355,"is_reserved":false,"is_disabled":false,"rental_uris":{"android":"levelo://app?vid=dfa1c380-e619-4d58-9700-e366787f15f4","ios":"levelo://app?vid=dfa1c380-e619-4d58-9700-e366787f15f4"},"vehicle_type_id":"4","last_reported":1751659890,"current_range_meters":8800,"station_id":"ce4bgv92rcd13ifvqcr0","pricing_plan_id":"cebpf4jnsgd1na2vs0mg"},{"bike_id":"0bcf4c2e-2ecb-4c09-b6e9-542aac78dad5","system_id":"levelo_inurba_marseille","lat":43.29806,"lon":5.404,"is_reserved":false,"is_disabled":false,"rental_uris":{"android":"levelo://app?vid=0bcf4c2e-2ecb-4c09-b6e9-542aac78dad5","ios":"levelo://app?vid=0bcf4c2e-2ecb-4c09-b6e9-542aac78dad5"},"vehicle_type_id":"4","last_reported":1751659890,"current_range_meters":8800,"station_id":"ce4bh112rcd13ifvqd90","pricing_plan_id":"cebpf4jnsgd1na2vs0mg"},{"bike_id":"26b16ac5-f307-4f8b-b4a1-3eac4755ac1d","system_id":"levelo_inurba_marseille","lat":43.26203,"lon":5.37445,"is_reserved":false,"is_disabled":false,"rental_uris":{"android":"levelo://app?vid=26b16ac5-f307-4f8b-b4a1-3eac4755ac1d","ios":"levelo://app?vid=26b16ac5-f307-4f8b-b4a1-3eac4755ac1d"},"vehicle_type_id":"4","last_reported":1751659890,"current_range_meters":8800,"station_id":"ce4bhgp2rcd13ifvqfc0","pricing_plan_id":"cebpf4jnsgd1na2vs0mg"},{"bike_id":"c76381fd-b6b9-4d02-a8a4-fd4e6891e706","system_id":"levelo_inurba_marseille","lat":43.30247,"lon":5.39035,"is_reserved":false,"is_disabled":false,"rental_uris":{"android":"levelo://app?vid=c76381fd-b6b9-4d02-a8a4-fd4e6891e706","ios":"levelo://app?vid=c76381fd-b6b9-4d02-a8a4-fd4e6891e706"},"vehicle_type_id":"4","last_reported":1751659890,"current_range_meters":9200,"station_id":"","pricing_plan_id":"cebpf4jnsgd1na2vs0mg"},{"bike_id":"5c14ef87-c10a-4cdc-bb9b-aeb95489b785","system_id":"levelo_inurba_marseille","lat":43.29081,"lon":5.37182,"is_reserved":false,"is_disabled":false,"rental_uris":{"android":"levelo://app?vid=5c14ef87-c10a-4cdc-bb9b-aeb95489b785","ios":"levelo://app?vid=5c14ef87-c10a-4cdc-bb9b-aeb95489b785"},"vehicle_type_id":"4","last_reported":1751659890,"current_range_meters":9200,"station_id":"ce4bh5p2rcd13ifvqe4g","pricing_plan_id":"cebpf4jnsgd1na2vs0mg"},{"bike_id":"c52f215b-6b53-4dc2-9841-ff35732b2fd8","system_id":"levelo_inurba_marseille","lat":43.265898,"lon":5.390329,"is_reserved":false,"is_disabled":false,"rental_uris":{"android":"levelo://app?vid=c52f215b-6b53-4dc2-9841-ff35732b2fd8","ios":"levelo://app?vid=c52f215b-6b53-4dc2-9841-ff35732b2fd8"},"vehicle_type_id":"4","last_reported":1751659890,"current_range_meters":9200,"station_id":"ce4bhe12rcd13ifvqf30","pricing_plan_id":"cebpf4jnsgd1na2vs0mg"},{"bike_id":"f25b7abb-ac52-4c86-a4da-397167cc5194","system_id":"levelo_inurba_marseille","lat":43.264849,"lon":5.395475,"is_reserved":false,"is_disabled":false,"rental_uris":{"android":"levelo://app?vid=f25b7abb-ac52-4c86-a4da-397167cc5194","ios":"levelo://app?vid=f25b7abb-ac52-4c86-a4da-397167cc5194"},"vehicle_type_id":"4","last_reported":1751659890,"current_range_meters":9200,"station_id":"ce4bhi12rcd13ifvqfq0","pricing_plan_id":"cebpf4jnsgd1na2vs0mg"},{"bike_id":"d86d6cf1-50dc-4750-9949-e1e577bd9675","system_id":"levelo_inurba_marseille","lat":43.2511,"lon":5.40323,"is_reserved":false,"is_disabled":false,"rental_uris":{"android":"levelo://app?vid=d86d6cf1-50dc-4750-9949-e1e577bd9675","ios":"levelo://app?vid=d86d6cf1-50dc-4750-9949-e1e577bd9675"},"vehicle_type_id":"4","last_reported":1751659890,"current_range_meters":9200,"station_id":"ce4bhlh2rcd13ifvqgig","pricing_plan_id":"cebpf4jnsgd1na2vs0mg"},{"bike_id":"4dcc9202-92e6-4098-a22d-a9e1b9059a09","system_id":"levelo_inurba_marseille","lat":43.30351,"lon":5.41872,"is_reserved":false,"is_disabled":false,"rental_uris":{"android":"levelo://app?vid=4dcc9202-92e6-4098-a22d-a9e1b9059a09","ios":"levelo://app?vid=4dcc9202-92e6-4098-a22d-a9e1b9059a09"},"vehicle_type_id":"4","last_reported":1751659890,"current_range_meters":9200,"station_id":"ce4bhop2rcd13ifvqh7g","pricing_plan_id":"cebpf4jnsgd1na2vs0mg"},{"bike_id":"18e03d2b-69ba-4af2-bdb8-60416e0aab62","system_id":"levelo_inurba_marseille","lat":43.29895,"lon":5.43666,"is_reserved":false,"is_disabled":false,"rental_uris":{"android":"levelo://app?vid=18e03d2b-69ba-4af2-bdb8-60416e0aab62","ios":"levelo://app?vid=18e03d2b-69ba-4af2-bdb8-60416e0aab62"},"vehicle_type_id":"4","last_reported":1751659890,"current_range_meters":9200,"station_id":"ce4bhpp2rcd13ifvqhfg","pricing_plan_id":"cebpf4jnsgd1na2vs0mg"},{"bike_id":"ba154a12-11bd-42a5-958a-5992f5d043d1","system_id":"levelo_inurba_marseille","lat":43.3051,"lon":5.3707,"is_reserved":false,"is_disabled":false,"rental_uris":{"android":"levelo://app?vid=ba154a12-11bd-42a5-958a-5992f5d043d1","ios":"levelo://app?vid=ba154a12-11bd-42a5-958a-5992f5d043d1"},"vehicle_type_id":"4","last_reported":1751659890,"current_range_meters":9600,"station_id":"","pricing_plan_id":"cebpf4jnsgd1na2vs0mg"},{"bike_id":"9821c756-290f-467a-b77b-af9f7282ff6f","system_id":"levelo_inurba_marseille","lat":43.28424,"lon":5.34985,"is_reserved":false,"is_disabled":false,"rental_uris":{"android":"levelo://app?vid=9821c756-290f-467a-b77b-af9f7282ff6f","ios":"levelo://app?vid=9821c756-290f-467a-b77b-af9f7282ff6f"},"vehicle_type_id":"4","last_reported":1751659890,"current_range_meters":9600,"station_id":"","pricing_plan_id":"cebpf4jnsgd1na2vs0mg"},{"bike_id":"98530eff-e966-4568-a87d-f0ae8b4217b4","system_id":"levelo_inurba_marseille","lat":43.295347,"lon":5.37451,"is_reserved":false,"is_disabled":false,"rental_uris":{"android":"levelo://app?vid=98530eff-e966-4568-a87d-f0ae8b4217b4","ios":"levelo://app?vid=98530eff-e966-4568-a87d-f0ae8b4217b4"},"vehicle_type_id":"4","last_reported":1751659890,"current_range_meters":9600,"station_id":"ce4bgip2rcd13ifvqbb0","pricing_plan_id":"cebpf4jnsgd1na2vs0mg"},{"bike_id":"5aac6af4-509f-4c8d-80dd-c62c83ad9018","system_id":"levelo_inurba_marseille","lat":43.31272,"lon":5.4011,"is_reserved":false,"is_disabled":false,"rental_uris":{"android":"levelo://app?vid=5aac6af4-509f-4c8d-80dd-c62c83ad9018","ios":"levelo://app?vid=5aac6af4-509f-4c8d-80dd-c62c83ad9018"},"vehicle_type_id":"4","last_reported":1751659890,"current_range_meters":9600,"station_id":"ce4bh092rcd13ifvqd30","pricing_plan_id":"cebpf4jnsgd1na2vs0mg"},{"bike_id":"1a961800-5493-4d29-9645-7a7c34aac9ea","system_id":"levelo_inurba_marseille","lat":43.28668,"lon":5.36343,"is_reserved":false,"is_disabled":false,"rental_uris":{"android":"levelo://app?vid=1a961800-5493-4d29-9645-7a7c34aac9ea","ios":"levelo://app?vid=1a961800-5493-4d29-9645-7a7c34aac9ea"},"vehicle_type_id":"4","last_reported":1751659890,"current_range_meters":9600,"station_id":"ce4bhah2rcd13ifvqej0","pricing_plan_id":"cebpf4jnsgd1na2vs0mg"},{"bike_id":"9f1f6042-7e07-4b00-9dc1-8f0343d9174e","system_id":"levelo_inurba_marseille","lat":43.21198,"lon":5.35095,"is_reserved":false,"is_disabled":false,"rental_uris":{"android":"levelo://app?vid=9f1f6042-7e07-4b00-9dc1-8f0343d9174e","ios":"levelo://app?vid=9f1f6042-7e07-4b00-9dc1-8f0343d9174e"},"vehicle_type_id":"4","last_reported":1751659890,"current_range_meters":9600,"station_id":"st_cvj6sg6p6f1abm77japg","pricing_plan_id":"cebpf4jnsgd1na2vs0mg"},{"bike_id":"0c4b7fdb-b39e-49b3-a2b0-ae3d0f43e89d","system_id":"levelo_inurba_marseille","lat":43.32902,"lon":5.40564,"is_reserved":false,"is_disabled":false,"rental_uris":{"android":"levelo://app?vid=0c4b7fdb-b39e-49b3-a2b0-ae3d0f43e89d","ios":"levelo://app?vid=0c4b7fdb-b39e-49b3-a2b0-ae3d0f43e89d"},"vehicle_type_id":"4","last_reported":1751659890,"current_range_meters":10000,"station_id":"","pricing_plan_id":"cebpf4jnsgd1na2vs0mg"},{"bike_id":"cabe880a-5bf1-44d0-a1ae-609f938d72ed","system_id":"levelo_inurba_marseille","lat":43.31221,"lon":5.36858,"is_reserved":false,"is_disabled":false,"rental_uris":{"android":"levelo://app?vid=cabe880a-5bf1-44d0-a1ae-609f938d72ed","ios":"levelo://app?vid=cabe880a-5bf1-44d0-a1ae-609f938d72ed"},"vehicle_type_id":"4","last_reported":1751659890,"current_range_meters":10000,"station_id":"ce4bgl92rcd13ifvqbq0","pricing_plan_id":"cebpf4jnsgd1na2vs0mg"},{"bike_id":"7d9bdf82-5e57-48df-927a-e8971451fefd","system_id":"levelo_inurba_marseille","lat":43.31109,"lon":5.37773,"is_reserved":false,"is_disabled":false,"rental_uris":{"android":"levelo://app?vid=7d9bdf82-5e57-48df-927a-e8971451fefd","ios":"levelo://app?vid=7d9bdf82-5e57-48df-927a-e8971451fefd"},"vehicle_type_id":"4","last_reported":1751659890,"current_range_meters":10000,"station_id":"ce4bgt92rcd13ifvqcg0","pricing_plan_id":"cebpf4jnsgd1na2vs0mg"},{"bike_id":"b06b813c-3197-4b56-a1f9-377b707a558a","system_id":"levelo_inurba_marseille","lat":43.26028,"lon":5.37546,"is_reserved":false,"is_disabled":false,"rental_uris":{"android":"levelo://app?vid=b06b813c-3197-4b56-a1f9-377b707a558a","ios":"levelo://app?vid=b06b813c-3197-4b56-a1f9-377b707a558a"},"vehicle_type_id":"4","last_reported":1751659890,"current_range_meters":10000,"station_id":"ce4bhgh2rcd13ifvqfa0","pricing_plan_id":"cebpf4jnsgd1na2vs0mg"},{"bike_id":"7733a035-b90b-46ec-95b6-5817ffc56ecb","system_id":"levelo_inurba_marseille","lat":43.23186,"lon":5.39991,"is_reserved":false,"is_disabled":false,"rental_uris":{"android":"levelo://app?vid=7733a035-b90b-46ec-95b6-5817ffc56ecb","ios":"levelo://app?vid=7733a035-b90b-46ec-95b6-5817ffc56ecb"},"vehicle_type_id":"4","last_reported":1751659890,"current_range_meters":10000,"station_id":"ce4bhn12rcd13ifvqgqg","pricing_plan_id":"cebpf4jnsgd1na2vs0mg"},{"bike_id":"ff6e91ec-d001-4098-bf3d-3a8890cf5786","system_id":"levelo_inurba_marseille","lat":43.28145,"lon":5.42646,"is_reserved":false,"is_disabled":false,"rental_uris":{"android":"levelo://app?vid=ff6e91ec-d001-4098-bf3d-3a8890cf5786","ios":"levelo://app?vid=ff6e91ec-d001-4098-bf3d-3a8890cf5786"},"vehicle_type_id":"4","last_reported":1751659890,"current_range_meters":10000,"station_id":"ce4bhnh2rcd13ifvqgug","pricing_plan_id":"cebpf4jnsgd1na2vs0mg"},{"bike_id":"9d70abb2-c72f-462d-b9ef-215704565e68","system_id":"levelo_inurba_marseille","lat":43.30403,"lon":5.4129,"is_reserved":false,"is_disabled":false,"rental_uris":{"android":"levelo://app?vid=9d70abb2-c72f-462d-b9ef-215704565e68","ios":"levelo://app?vid=9d70abb2-c72f-462d-b9ef-215704565e68"},"vehicle_type_id":"4","last_reported":1751659890,"current_range_meters":10000,"station_id":"ce4bhop2rcd13ifvqh8g","pricing_plan_id":"cebpf4jnsgd1na2vs0mg"},{"bike_id":"175513bb-dce2-48e2-83c8-1e9f1cb23cd0","system_id":"levelo_inurba_marseille","lat":43.286255,"lon":5.412651,"is_reserved":false,"is_disabled":false,"rental_uris":{"android":"levelo://app?vid=175513bb-dce2-48e2-83c8-1e9f1cb23cd0","ios":"levelo://app?vid=175513bb-dce2-48e2-83c8-1e9f1cb23cd0"},"vehicle_type_id":"4","last_reported":1751659890,"current_range_meters":10800,"station_id":"","pricing_plan_id":"cebpf4jnsgd1na2vs0mg"},{"bike_id":"363753c8-8847-4739-8d19-0bb2f310f9d7","system_id":"levelo_inurba_marseille","lat":43.30946,"lon":5.39026,"is_reserved":false,"is_disabled":false,"rental_uris":{"android":"levelo://app?vid=363753c8-8847-4739-8d19-0bb2f310f9d7","ios":"levelo://app?vid=363753c8-8847-4739-8d19-0bb2f310f9d7"},"vehicle_type_id":"4","last_reported":1751659890,"current_range_meters":10800,"station_id":"ce4bgup2rcd13ifvqco0","pricing_plan_id":"cebpf4jnsgd1na2vs0mg"},{"bike_id":"fcafb3ab-d088-45fb-9d5b-cd635d3483b0","system_id":"levelo_inurba_marseille","lat":43.29259,"lon":5.38445,"is_reserved":false,"is_disabled":false,"rental_uris":{"android":"levelo://app?vid=fcafb3ab-d088-45fb-9d5b-cd635d3483b0","ios":"levelo://app?vid=fcafb3ab-d088-45fb-9d5b-cd635d3483b0"},"vehicle_type_id":"4","last_reported":1751659890,"current_range_meters":10800,"station_id":"ce4bh692rcd13ifvqea0","pricing_plan_id":"cebpf4jnsgd1na2vs0mg"},{"bike_id":"b9137d28-6adc-4de4-9333-2763177445bb","system_id":"levelo_inurba_marseille","lat":43.231794,"lon":5.399791,"is_reserved":false,"is_disabled":false,"rental_uris":{"android":"levelo://app?vid=b9137d28-6adc-4de4-9333-2763177445bb","ios":"levelo://app?vid=b9137d28-6adc-4de4-9333-2763177445bb"},"vehicle_type_id":"4","last_reported":1751659890,"current_range_meters":10800,"station_id":"ce4bhn12rcd13ifvqgqg","pricing_plan_id":"cebpf4jnsgd1na2vs0mg"},{"bike_id":"fe0d87bc-356f-4392-bd27-d2c9ae64a76b","system_id":"levelo_inurba_marseille","lat":43.33608,"lon":5.41033,"is_reserved":false,"is_disabled":false,"rental_uris":{"android":"levelo://app?vid=fe0d87bc-356f-4392-bd27-d2c9ae64a76b","ios":"levelo://app?vid=fe0d87bc-356f-4392-bd27-d2c9ae64a76b"},"vehicle_type_id":"4","last_reported":1751659890,"current_range_meters":10800,"station_id":"ce4bhqh2rcd13ifvqhmg","pricing_plan_id":"cebpf4jnsgd1na2vs0mg"},{"bike_id":"42239b10-70e0-4619-93e3-af0d32f886f4","system_id":"levelo_inurba_marseille","lat":43.31753,"lon":5.39016,"is_reserved":false,"is_disabled":false,"rental_uris":{"android":"levelo://app?vid=42239b10-70e0-4619-93e3-af0d32f886f4","ios":"levelo://app?vid=42239b10-70e0-4619-93e3-af0d32f886f4"},"vehicle_type_id":"4","last_reported":1751659890,"current_range_meters":10800,"station_id":"ce4bhqp2rcd13ifvqhng","pricing_plan_id":"cebpf4jnsgd1na2vs0mg"},{"bike_id":"97de0065-3604-43c2-8c35-f3c481cf0347","system_id":"levelo_inurba_marseille","lat":43.32367,"lon":5.38886,"is_reserved":false,"is_disabled":false,"rental_uris":{"android":"levelo://app?vid=97de0065-3604-43c2-8c35-f3c481cf0347","ios":"levelo://app?vid=97de0065-3604-43c2-8c35-f3c481cf0347"},"vehicle_type_id":"4","last_reported":1751659890,"current_range_meters":10800,"station_id":"ce4bhqp2rcd13ifvqhog","pricing_plan_id":"cebpf4jnsgd1na2vs0mg"},{"bike_id":"206db6d2-11cd-4da9-a770-d2b56013096b","system_id":"levelo_inurba_marseille","lat":43.3172,"lon":5.42398,"is_reserved":false,"is_disabled":false,"rental_uris":{"android":"levelo://app?vid=206db6d2-11cd-4da9-a770-d2b56013096b","ios":"levelo://app?vid=206db6d2-11cd-4da9-a770-d2b56013096b"},"vehicle_type_id":"4","last_reported":1751659890,"current_range_meters":11200,"station_id":"ce4bhp92rcd13ifvqhbg","pricing_plan_id":"cebpf4jnsgd1na2vs0mg"},{"bike_id":"54c3f298-761f-4339-a8e8-e2a5e3fb16a0","system_id":"levelo_inurba_marseille","lat":43.326614,"lon":5.40995,"is_reserved":false,"is_disabled":false,"rental_uris":{"android":"levelo://app?vid=54c3f298-761f-4339-a8e8-e2a5e3fb16a0","ios":"levelo://app?vid=54c3f298-761f-4339-a8e8-e2a5e3fb16a0"},"vehicle_type_id":"4","last_reported":1751659890,"current_range_meters":11200,"station_id":"ce4bhpp2rcd13ifvqhgg","pricing_plan_id":"cebpf4jnsgd1na2vs0mg"},{"bike_id":"5e197122-e8ec-4f01-b370-6bbfc10c6950","system_id":"levelo_inurba_marseille","lat":43.21211,"lon":5.35082,"is_reserved":false,"is_disabled":false,"rental_uris":{"android":"levelo://app?vid=5e197122-e8ec-4f01-b370-6bbfc10c6950","ios":"levelo://app?vid=5e197122-e8ec-4f01-b370-6bbfc10c6950"},"vehicle_type_id":"4","last_reported":1751659890,"current_range_meters":11200,"station_id":"st_cvj6sg6p6f1abm77japg","pricing_plan_id":"cebpf4jnsgd1na2vs0mg"},{"bike_id":"d4de4cb5-91e1-4299-843d-eb560f2d6ef8","system_id":"levelo_inurba_marseille","lat":43.337444,"lon":5.374475,"is_reserved":false,"is_disabled":false,"rental_uris":{"android":"levelo://app?vid=d4de4cb5-91e1-4299-843d-eb560f2d6ef8","ios":"levelo://app?vid=d4de4cb5-91e1-4299-843d-eb560f2d6ef8"},"vehicle_type_id":"4","last_reported":1751659890,"current_range_meters":11600,"station_id":"","pricing_plan_id":"cebpf4jnsgd1na2vs0mg"},{"bike_id":"6ada8120-e558-4c84-ba09-30162de4fc49","system_id":"levelo_inurba_marseille","lat":43.30942,"lon":5.39034,"is_reserved":false,"is_disabled":false,"rental_uris":{"android":"levelo://app?vid=6ada8120-e558-4c84-ba09-30162de4fc49","ios":"levelo://app?vid=6ada8120-e558-4c84-ba09-30162de4fc49"},"vehicle_type_id":"4","last_reported":1751659890,"current_range_meters":11600,"station_id":"ce4bgup2rcd13ifvqco0","pricing_plan_id":"cebpf4jnsgd1na2vs0mg"},{"bike_id":"81c01867-a78c-44d4-a6fe-9960f72348b0","system_id":"levelo_inurba_marseille","lat":43.29034,"lon":5.35913,"is_reserved":false,"is_disabled":false,"rental_uris":{"android":"levelo://app?vid=81c01867-a78c-44d4-a6fe-9960f72348b0","ios":"levelo://app?vid=81c01867-a78c-44d4-a6fe-9960f72348b0"},"vehicle_type_id":"4","last_reported":1751659890,"current_range_meters":11600,"station_id":"ce4bha92rcd13ifvqeg0","pricing_plan_id":"cebpf4jnsgd1na2vs0mg"},{"bike_id":"b67ba000-81bd-4bce-ad3a-00922d9eaf84","system_id":"levelo_inurba_marseille","lat":43.25724,"lon":5.41112,"is_reserved":false,"is_disabled":false,"rental_uris":{"android":"levelo://app?vid=b67ba000-81bd-4bce-ad3a-00922d9eaf84","ios":"levelo://app?vid=b67ba000-81bd-4bce-ad3a-00922d9eaf84"},"vehicle_type_id":"4","last_reported":1751659890,"current_range_meters":11600,"station_id":"ce4bhkp2rcd13ifvqgd0","pricing_plan_id":"cebpf4jnsgd1na2vs0mg"},{"bike_id":"43b8b648-960e-46ea-bfad-839bb09cb576","system_id":"levelo_inurba_marseille","lat":43.26214,"lon":5.37041,"is_reserved":false,"is_disabled":false,"rental_uris":{"android":"levelo://app?vid=43b8b648-960e-46ea-bfad-839bb09cb576","ios":"levelo://app?vid=43b8b648-960e-46ea-bfad-839bb09cb576"},"vehicle_type_id":"4","last_reported":1751659890,"current_range_meters":12000,"station_id":"","pricing_plan_id":"cebpf4jnsgd1na2vs0mg"},{"bike_id":"750fe987-38b7-4e4b-81eb-d7ee436e948a","system_id":"levelo_inurba_marseille","lat":43.29255,"lon":5.38447,"is_reserved":false,"is_disabled":false,"rental_uris":{"android":"levelo://app?vid=750fe987-38b7-4e4b-81eb-d7ee436e948a","ios":"levelo://app?vid=750fe987-38b7-4e4b-81eb-d7ee436e948a"},"vehicle_type_id":"4","last_reported":1751659890,"current_range_meters":12000,"station_id":"ce4bh692rcd13ifvqea0","pricing_plan_id":"cebpf4jnsgd1na2vs0mg"},{"bike_id":"89f7ce8f-6a9e-4449-b237-549e031b15eb","system_id":"levelo_inurba_marseille","lat":43.21189,"lon":5.35072,"is_reserved":false,"is_disabled":false,"rental_uris":{"android":"levelo://app?vid=89f7ce8f-6a9e-4449-b237-549e031b15eb","ios":"levelo://app?vid=89f7ce8f-6a9e-4449-b237-549e031b15eb"},"vehicle_type_id":"4","last_reported":1751659890,"current_range_meters":12000,"station_id":"st_cvj6sg6p6f1abm77japg","pricing_plan_id":"cebpf4jnsgd1na2vs0mg"},{"bike_id":"1c8ab180-05fd-405f-9922-b2b2c2d5142f","system_id":"levelo_inurba_marseille","lat":43.33804,"lon":5.37979,"is_reserved":false,"is_disabled":false,"rental_uris":{"android":"levelo://app?vid=1c8ab180-05fd-405f-9922-b2b2c2d5142f","ios":"levelo://app?vid=1c8ab180-05fd-405f-9922-b2b2c2d5142f"},"vehicle_type_id":"4","last_reported":1751659890,"current_range_meters":12400,"station_id":"","pricing_plan_id":"cebpf4jnsgd1na2vs0mg"},{"bike_id":"fa0b1a78-41df-4e5d-9f94-7bd716b32234","system_id":"levelo_inurba_marseille","lat":43.29304,"lon":5.37179,"is_reserved":false,"is_disabled":false,"rental_uris":{"android":"levelo://app?vid=fa0b1a78-41df-4e5d-9f94-7bd716b32234","ios":"levelo://app?vid=fa0b1a78-41df-4e5d-9f94-7bd716b32234"},"vehicle_type_id":"4","last_reported":1751659890,"current_range_meters":12400,"station_id":"ce4bgh92rcd13ifvqb40","pricing_plan_id":"cebpf4jnsgd1na2vs0mg"},{"bike_id":"7eadcc2c-5b1b-4a7e-84cf-a65ef95dc92d","system_id":"levelo_inurba_marseille","lat":43.29538,"lon":5.3855,"is_reserved":false,"is_disabled":false,"rental_uris":{"android":"levelo://app?vid=7eadcc2c-5b1b-4a7e-84cf-a65ef95dc92d","ios":"levelo://app?vid=7eadcc2c-5b1b-4a7e-84cf-a65ef95dc92d"},"vehicle_type_id":"4","last_reported":1751659890,"current_range_meters":12400,"station_id":"ce4bgih2rcd13ifvqba0","pricing_plan_id":"cebpf4jnsgd1na2vs0mg"},{"bike_id":"5292f2e9-875d-465a-bdd2-a49130d52498","system_id":"levelo_inurba_marseille","lat":43.30945,"lon":5.39037,"is_reserved":false,"is_disabled":false,"rental_uris":{"android":"levelo://app?vid=5292f2e9-875d-465a-bdd2-a49130d52498","ios":"levelo://app?vid=5292f2e9-875d-465a-bdd2-a49130d52498"},"vehicle_type_id":"4","last_reported":1751659890,"current_range_meters":12400,"station_id":"ce4bgup2rcd13ifvqco0","pricing_plan_id":"cebpf4jnsgd1na2vs0mg"},{"bike_id":"fdbca52a-0d1e-48bb-bae1-18dce5ce8efc","system_id":"levelo_inurba_marseille","lat":43.28418,"lon":5.34994,"is_reserved":false,"is_disabled":false,"rental_uris":{"android":"levelo://app?vid=fdbca52a-0d1e-48bb-bae1-18dce5ce8efc","ios":"levelo://app?vid=fdbca52a-0d1e-48bb-bae1-18dce5ce8efc"},"vehicle_type_id":"4","last_reported":1751659890,"current_range_meters":12400,"station_id":"ce4bhbh2rcd13ifvqepg","pricing_plan_id":"cebpf4jnsgd1na2vs0mg"},{"bike_id":"22888734-05db-4b2c-9ebf-e2f83575acc2","system_id":"levelo_inurba_marseille","lat":43.28408,"lon":5.3498,"is_reserved":false,"is_disabled":false,"rental_uris":{"android":"levelo://app?vid=22888734-05db-4b2c-9ebf-e2f83575acc2","ios":"levelo://app?vid=22888734-05db-4b2c-9ebf-e2f83575acc2"},"vehicle_type_id":"4","last_reported":1751659890,"current_range_meters":12400,"station_id":"ce4bhbh2rcd13ifvqepg","pricing_plan_id":"cebpf4jnsgd1na2vs0mg"},{"bike_id":"a06cd697-9b1d-4139-b391-7ac7a1c6a64f","system_id":"levelo_inurba_marseille","lat":43.29527,"lon":5.38538,"is_reserved":false,"is_disabled":false,"rental_uris":{"android":"levelo://app?vid=a06cd697-9b1d-4139-b391-7ac7a1c6a64f","ios":"levelo://app?vid=a06cd697-9b1d-4139-b391-7ac7a1c6a64f"},"vehicle_type_id":"4","last_reported":1751659890,"current_range_meters":12800,"station_id":"ce4bgih2rcd13ifvqba0","pricing_plan_id":"cebpf4jnsgd1na2vs0mg"},{"bike_id":"71efdcc5-f818-4918-9df2-d65a2f17a3f3","system_id":"levelo_inurba_marseille","lat":43.3167,"lon":5.40432,"is_reserved":false,"is_disabled":false,"rental_uris":{"android":"levelo://app?vid=71efdcc5-f818-4918-9df2-d65a2f17a3f3","ios":"levelo://app?vid=71efdcc5-f818-4918-9df2-d65a2f17a3f3"},"vehicle_type_id":"4","last_reported":1751659890,"current_range_meters":12800,"station_id":"ce4bh012rcd13ifvqd00","pricing_plan_id":"cebpf4jnsgd1na2vs0mg"},{"bike_id":"ae6db163-0b70-4f3a-aa50-25a363567a0b","system_id":"levelo_inurba_marseille","lat":43.27314,"lon":5.39078,"is_reserved":false,"is_disabled":false,"rental_uris":{"android":"levelo://app?vid=ae6db163-0b70-4f3a-aa50-25a363567a0b","ios":"levelo://app?vid=ae6db163-0b70-4f3a-aa50-25a363567a0b"},"vehicle_type_id":"4","last_reported":1751659890,"current_range_meters":12800,"station_id":"ce4bhgp2rcd13ifvqfe0","pricing_plan_id":"cebpf4jnsgd1na2vs0mg"},{"bike_id":"1a5c7150-6216-4358-b0c1-ac179a957770","system_id":"levelo_inurba_marseille","lat":43.24068,"lon":5.37766,"is_reserved":false,"is_disabled":false,"rental_uris":{"android":"levelo://app?vid=1a5c7150-6216-4358-b0c1-ac179a957770","ios":"levelo://app?vid=1a5c7150-6216-4358-b0c1-ac179a957770"},"vehicle_type_id":"4","last_reported":1751659890,"current_range_meters":12800,"station_id":"ce4bhnp2rcd13ifvqgvg","pricing_plan_id":"cebpf4jnsgd1na2vs0mg"},{"bike_id":"bf16840f-2e0f-47eb-8d30-3dc4199df254","system_id":"levelo_inurba_marseille","lat":43.31758,"lon":5.39007,"is_reserved":false,"is_disabled":false,"rental_uris":{"android":"levelo://app?vid=bf16840f-2e0f-47eb-8d30-3dc4199df254","ios":"levelo://app?vid=bf16840f-2e0f-47eb-8d30-3dc4199df254"},"vehicle_type_id":"4","last_reported":1751659890,"current_range_meters":12800,"station_id":"ce4bhqp2rcd13ifvqhng","pricing_plan_id":"cebpf4jnsgd1na2vs0mg"},{"bike_id":"b26fae72-751e-4090-a9c4-76ff5de1ad66","system_id":"levelo_inurba_marseille","lat":43.332587,"lon":5.380367,"is_reserved":false,"is_disabled":false,"rental_uris":{"android":"levelo://app?vid=b26fae72-751e-4090-a9c4-76ff5de1ad66","ios":"levelo://app?vid=b26fae72-751e-4090-a9c4-76ff5de1ad66"},"vehicle_type_id":"4","last_reported":1751659890,"current_range_meters":13600,"station_id":"","pricing_plan_id":"cebpf4jnsgd1na2vs0mg"},{"bike_id":"721b0915-cfd2-4d15-8f9b-ff46b04e7d88","system_id":"levelo_inurba_marseille","lat":43.305995,"lon":5.393641,"is_reserved":false,"is_disabled":false,"rental_uris":{"android":"levelo://app?vid=721b0915-cfd2-4d15-8f9b-ff46b04e7d88","ios":"levelo://app?vid=721b0915-cfd2-4d15-8f9b-ff46b04e7d88"},"vehicle_type_id":"4","last_reported":1751659890,"current_range_meters":13600,"station_id":"ce4bh0p2rcd13ifvqd80","pricing_plan_id":"cebpf4jnsgd1na2vs0mg"},{"bike_id":"8260080b-ef1e-47d7-8c1f-c3aa87009a3e","system_id":"levelo_inurba_marseille","lat":43.29195,"lon":5.39321,"is_reserved":false,"is_disabled":false,"rental_uris":{"android":"levelo://app?vid=8260080b-ef1e-47d7-8c1f-c3aa87009a3e","ios":"levelo://app?vid=8260080b-ef1e-47d7-8c1f-c3aa87009a3e"},"vehicle_type_id":"4","last_reported":1751659890,"current_range_meters":13600,"station_id":"ce4bh192rcd13ifvqdd0","pricing_plan_id":"cebpf4jnsgd1na2vs0mg"},{"bike_id":"117c2508-59ac-48db-9afd-68eb7fe34c24","system_id":"levelo_inurba_marseille","lat":43.2867,"lon":5.38657,"is_reserved":false,"is_disabled":false,"rental_uris":{"android":"levelo://app?vid=117c2508-59ac-48db-9afd-68eb7fe34c24","ios":"levelo://app?vid=117c2508-59ac-48db-9afd-68eb7fe34c24"},"vehicle_type_id":"4","last_reported":1751659890,"current_range_meters":13600,"station_id":"ce4bh492rcd13ifvqdug","pricing_plan_id":"cebpf4jnsgd1na2vs0mg"},{"bike_id":"f62ca18a-bcd1-4bc9-bd56-fe0d779eff1d","system_id":"levelo_inurba_marseille","lat":43.26206,"lon":5.37443,"is_reserved":false,"is_disabled":false,"rental_uris":{"android":"levelo://app?vid=f62ca18a-bcd1-4bc9-bd56-fe0d779eff1d","ios":"levelo://app?vid=f62ca18a-bcd1-4bc9-bd56-fe0d779eff1d"},"vehicle_type_id":"4","last_reported":1751659890,"current_range_meters":13600,"station_id":"ce4bhgp2rcd13ifvqfc0","pricing_plan_id":"cebpf4jnsgd1na2vs0mg"},{"bike_id":"69c2280d-9883-47db-99f2-c073a6babae6","system_id":"levelo_inurba_marseille","lat":43.30855,"lon":5.37051,"is_reserved":false,"is_disabled":false,"rental_uris":{"android":"levelo://app?vid=69c2280d-9883-47db-99f2-c073a6babae6","ios":"levelo://app?vid=69c2280d-9883-47db-99f2-c073a6babae6"},"vehicle_type_id":"4","last_reported":1751659890,"current_range_meters":14000,"station_id":"","pricing_plan_id":"cebpf4jnsgd1na2vs0mg"},{"bike_id":"76d127a6-3385-47a2-9e3a-490d1d976c59","system_id":"levelo_inurba_marseille","lat":43.3117,"lon":5.38237,"is_reserved":false,"is_disabled":false,"rental_uris":{"android":"levelo://app?vid=76d127a6-3385-47a2-9e3a-490d1d976c59","ios":"levelo://app?vid=76d127a6-3385-47a2-9e3a-490d1d976c59"},"vehicle_type_id":"4","last_reported":1751659890,"current_range_meters":14000,"station_id":"","pricing_plan_id":"cebpf4jnsgd1na2vs0mg"},{"bike_id":"da2867e3-37fc-4f25-99eb-68533f87a37d","system_id":"levelo_inurba_marseille","lat":43.26196,"lon":5.37441,"is_reserved":false,"is_disabled":false,"rental_uris":{"android":"levelo://app?vid=da2867e3-37fc-4f25-99eb-68533f87a37d","ios":"levelo://app?vid=da2867e3-37fc-4f25-99eb-68533f87a37d"},"vehicle_type_id":"4","last_reported":1751659890,"current_range_meters":14000,"station_id":"ce4bhgp2rcd13ifvqfc0","pricing_plan_id":"cebpf4jnsgd1na2vs0mg"},{"bike_id":"600bf555-6122-4184-b5de-a76315c2b0b1","system_id":"levelo_inurba_marseille","lat":43.23057,"lon":5.35492,"is_reserved":false,"is_disabled":false,"rental_uris":{"android":"levelo://app?vid=600bf555-6122-4184-b5de-a76315c2b0b1","ios":"levelo://app?vid=600bf555-6122-4184-b5de-a76315c2b0b1"},"vehicle_type_id":"4","last_reported":1751659890,"current_range_meters":14000,"station_id":"cpo3342slgdg3j2ifvpg","pricing_plan_id":"cebpf4jnsgd1na2vs0mg"},{"bike_id":"ae149ea9-abfe-4694-86b6-94b4926886df","system_id":"levelo_inurba_marseille","lat":43.3112,"lon":5.37759,"is_reserved":false,"is_disabled":false,"rental_uris":{"android":"levelo://app?vid=ae149ea9-abfe-4694-86b6-94b4926886df","ios":"levelo://app?vid=ae149ea9-abfe-4694-86b6-94b4926886df"},"vehicle_type_id":"4","last_reported":1751659890,"current_range_meters":14400,"station_id":"ce4bgt92rcd13ifvqcg0","pricing_plan_id":"cebpf4jnsgd1na2vs0mg"},{"bike_id":"3763ad22-8d57-420a-94c8-659ca71627f0","system_id":"levelo_inurba_marseille","lat":43.3094,"lon":5.39014,"is_reserved":false,"is_disabled":false,"rental_uris":{"android":"levelo://app?vid=3763ad22-8d57-420a-94c8-659ca71627f0","ios":"levelo://app?vid=3763ad22-8d57-420a-94c8-659ca71627f0"},"vehicle_type_id":"4","last_reported":1751659890,"current_range_meters":14400,"station_id":"ce4bgup2rcd13ifvqco0","pricing_plan_id":"cebpf4jnsgd1na2vs0mg"},{"bike_id":"8af91d7c-fbf6-41ea-a8eb-dd5d4abc7b40","system_id":"levelo_inurba_marseille","lat":43.31167,"lon":5.3872,"is_reserved":false,"is_disabled":false,"rental_uris":{"android":"levelo://app?vid=8af91d7c-fbf6-41ea-a8eb-dd5d4abc7b40","ios":"levelo://app?vid=8af91d7c-fbf6-41ea-a8eb-dd5d4abc7b40"},"vehicle_type_id":"4","last_reported":1751659890,"current_range_meters":14400,"station_id":"ce4bgv12rcd13ifvqcp0","pricing_plan_id":"cebpf4jnsgd1na2vs0mg"},{"bike_id":"fd9e11cf-6806-41ff-bce2-0dd66386883d","system_id":"levelo_inurba_marseille","lat":43.284237,"lon":5.349832,"is_reserved":false,"is_disabled":false,"rental_uris":{"android":"levelo://app?vid=fd9e11cf-6806-41ff-bce2-0dd66386883d","ios":"levelo://app?vid=fd9e11cf-6806-41ff-bce2-0dd66386883d"},"vehicle_type_id":"4","last_reported":1751659890,"current_range_meters":14400,"station_id":"ce4bhbh2rcd13ifvqepg","pricing_plan_id":"cebpf4jnsgd1na2vs0mg"},{"bike_id":"4b8da722-ee9e-48a4-a5e5-3a8a10364708","system_id":"levelo_inurba_marseille","lat":43.31225,"lon":5.3781,"is_reserved":false,"is_disabled":false,"rental_uris":{"android":"levelo://app?vid=4b8da722-ee9e-48a4-a5e5-3a8a10364708","ios":"levelo://app?vid=4b8da722-ee9e-48a4-a5e5-3a8a10364708"},"vehicle_type_id":"4","last_reported":1751659890,"current_range_meters":14800,"station_id":"","pricing_plan_id":"cebpf4jnsgd1na2vs0mg"},{"bike_id":"8816a705-171d-491e-ac67-4d9f7db1173b","system_id":"levelo_inurba_marseille","lat":43.29704,"lon":5.36605,"is_reserved":false,"is_disabled":false,"rental_uris":{"android":"levelo://app?vid=8816a705-171d-491e-ac67-4d9f7db1173b","ios":"levelo://app?vid=8816a705-171d-491e-ac67-4d9f7db1173b"},"vehicle_type_id":"4","last_reported":1751659890,"current_range_meters":14800,"station_id":"ce4bgn12rcd13ifvqbt0","pricing_plan_id":"cebpf4jnsgd1na2vs0mg"},{"bike_id":"3f22c2fa-3fb4-433f-bc98-0f83d287a49c","system_id":"levelo_inurba_marseille","lat":43.30944,"lon":5.39058,"is_reserved":false,"is_disabled":false,"rental_uris":{"android":"levelo://app?vid=3f22c2fa-3fb4-433f-bc98-0f83d287a49c","ios":"levelo://app?vid=3f22c2fa-3fb4-433f-bc98-0f83d287a49c"},"vehicle_type_id":"4","last_reported":1751659890,"current_range_meters":14800,"station_id":"ce4bgup2rcd13ifvqco0","pricing_plan_id":"cebpf4jnsgd1na2vs0mg"},{"bike_id":"d7f61130-06b3-4ae6-8bed-62880a5671b4","system_id":"levelo_inurba_marseille","lat":43.28849,"lon":5.39312,"is_reserved":false,"is_disabled":false,"rental_uris":{"android":"levelo://app?vid=d7f61130-06b3-4ae6-8bed-62880a5671b4","ios":"levelo://app?vid=d7f61130-06b3-4ae6-8bed-62880a5671b4"},"vehicle_type_id":"4","last_reported":1751659890,"current_range_meters":14800,"station_id":"ce4bh2p2rcd13ifvqdi0","pricing_plan_id":"cebpf4jnsgd1na2vs0mg"},{"bike_id":"9fefc881-cb44-4f8a-be0a-2f1b51b3fa55","system_id":"levelo_inurba_marseille","lat":43.28424,"lon":5.34987,"is_reserved":false,"is_disabled":false,"rental_uris":{"android":"levelo://app?vid=9fefc881-cb44-4f8a-be0a-2f1b51b3fa55","ios":"levelo://app?vid=9fefc881-cb44-4f8a-be0a-2f1b51b3fa55"},"vehicle_type_id":"4","last_reported":1751659890,"current_range_meters":14800,"station_id":"ce4bhbh2rcd13ifvqepg","pricing_plan_id":"cebpf4jnsgd1na2vs0mg"},{"bike_id":"cc691ccb-edf3-4792-a217-f69116462577","system_id":"levelo_inurba_marseille","lat":43.26036,"lon":5.37545,"is_reserved":false,"is_disabled":false,"rental_uris":{"android":"levelo://app?vid=cc691ccb-edf3-4792-a217-f69116462577","ios":"levelo://app?vid=cc691ccb-edf3-4792-a217-f69116462577"},"vehicle_type_id":"4","last_reported":1751659890,"current_range_meters":14800,"station_id":"ce4bhgh2rcd13ifvqfa0","pricing_plan_id":"cebpf4jnsgd1na2vs0mg"},{"bike_id":"538edfe9-6c1c-48ac-927d-e31f1b9e66ef","system_id":"levelo_inurba_marseille","lat":43.2621,"lon":5.37443,"is_reserved":false,"is_disabled":false,"rental_uris":{"android":"levelo://app?vid=538edfe9-6c1c-48ac-927d-e31f1b9e66ef","ios":"levelo://app?vid=538edfe9-6c1c-48ac-927d-e31f1b9e66ef"},"vehicle_type_id":"4","last_reported":1751659890,"current_range_meters":14800,"station_id":"ce4bhgp2rcd13ifvqfc0","pricing_plan_id":"cebpf4jnsgd1na2vs0mg"},{"bike_id":"4db45513-e520-4598-82fa-5809d80d4f3d","system_id":"levelo_inurba_marseille","lat":43.28099,"lon":5.35482,"is_reserved":false,"is_disabled":false,"rental_uris":{"android":"levelo://app?vid=4db45513-e520-4598-82fa-5809d80d4f3d","ios":"levelo://app?vid=4db45513-e520-4598-82fa-5809d80d4f3d"},"vehicle_type_id":"4","last_reported":1751659890,"current_range_meters":16000,"station_id":"","pricing_plan_id":"cebpf4jnsgd1na2vs0mg"},{"bike_id":"4bfb979f-5f1f-4d4f-9bc2-62863e748cdf","system_id":"levelo_inurba_marseille","lat":43.32378,"lon":5.36745,"is_reserved":false,"is_disabled":false,"rental_uris":{"android":"levelo://app?vid=4bfb979f-5f1f-4d4f-9bc2-62863e748cdf","ios":"levelo://app?vid=4bfb979f-5f1f-4d4f-9bc2-62863e748cdf"},"vehicle_type_id":"4","last_reported":1751659890,"current_range_meters":16000,"station_id":"","pricing_plan_id":"cebpf4jnsgd1na2vs0mg"},{"bike_id":"8c7b5457-b790-4ceb-8535-d321af702702","system_id":"levelo_inurba_marseille","lat":43.3128,"lon":5.40164,"is_reserved":false,"is_disabled":false,"rental_uris":{"android":"levelo://app?vid=8c7b5457-b790-4ceb-8535-d321af702702","ios":"levelo://app?vid=8c7b5457-b790-4ceb-8535-d321af702702"},"vehicle_type_id":"4","last_reported":1751659890,"current_range_meters":16000,"station_id":"ce4bh092rcd13ifvqd30","pricing_plan_id":"cebpf4jnsgd1na2vs0mg"},{"bike_id":"bfd442a7-2742-451e-9ad9-c8352560f603","system_id":"levelo_inurba_marseille","lat":43.2815,"lon":5.42646,"is_reserved":false,"is_disabled":false,"rental_uris":{"android":"levelo://app?vid=bfd442a7-2742-451e-9ad9-c8352560f603","ios":"levelo://app?vid=bfd442a7-2742-451e-9ad9-c8352560f603"},"vehicle_type_id":"4","last_reported":1751659890,"current_range_meters":16000,"station_id":"ce4bhnh2rcd13ifvqgug","pricing_plan_id":"cebpf4jnsgd1na2vs0mg"},{"bike_id":"fcb5ff57-b28e-48b2-ac8a-83ffda466013","system_id":"levelo_inurba_marseille","lat":43.28693,"lon":5.39982,"is_reserved":false,"is_disabled":false,"rental_uris":{"android":"levelo://app?vid=fcb5ff57-b28e-48b2-ac8a-83ffda466013","ios":"levelo://app?vid=fcb5ff57-b28e-48b2-ac8a-83ffda466013"},"vehicle_type_id":"4","last_reported":1751659890,"current_range_meters":16000,"station_id":"ce4bho92rcd13ifvqh3g","pricing_plan_id":"cebpf4jnsgd1na2vs0mg"},{"bike_id":"3847022a-5187-4521-af78-80f88fe96595","system_id":"levelo_inurba_marseille","lat":43.21187,"lon":5.35072,"is_reserved":false,"is_disabled":false,"rental_uris":{"android":"levelo://app?vid=3847022a-5187-4521-af78-80f88fe96595","ios":"levelo://app?vid=3847022a-5187-4521-af78-80f88fe96595"},"vehicle_type_id":"4","last_reported":1751659890,"current_range_meters":16000,"station_id":"st_cvj6sg6p6f1abm77japg","pricing_plan_id":"cebpf4jnsgd1na2vs0mg"},{"bike_id":"a463a034-02f2-4909-a374-3aba3128d555","system_id":"levelo_inurba_marseille","lat":43.27702,"lon":5.388,"is_reserved":false,"is_disabled":false,"rental_uris":{"android":"levelo://app?vid=a463a034-02f2-4909-a374-3aba3128d555","ios":"levelo://app?vid=a463a034-02f2-4909-a374-3aba3128d555"},"vehicle_type_id":"4","last_reported":1751659890,"current_range_meters":16400,"station_id":"","pricing_plan_id":"cebpf4jnsgd1na2vs0mg"},{"bike_id":"0e47fa0c-496f-4a95-b18e-e606cef18f4e","system_id":"levelo_inurba_marseille","lat":43.26552,"lon":5.37284,"is_reserved":false,"is_disabled":false,"rental_uris":{"android":"levelo://app?vid=0e47fa0c-496f-4a95-b18e-e606cef18f4e","ios":"levelo://app?vid=0e47fa0c-496f-4a95-b18e-e606cef18f4e"},"vehicle_type_id":"4","last_reported":1751659890,"current_range_meters":16400,"station_id":"ce4bhg12rcd13ifvqf70","pricing_plan_id":"cebpf4jnsgd1na2vs0mg"},{"bike_id":"f1753d26-8935-4f4b-9e83-1a8f6f412606","system_id":"levelo_inurba_marseille","lat":43.246609,"lon":5.381553,"is_reserved":false,"is_disabled":false,"rental_uris":{"android":"levelo://app?vid=f1753d26-8935-4f4b-9e83-1a8f6f412606","ios":"levelo://app?vid=f1753d26-8935-4f4b-9e83-1a8f6f412606"},"vehicle_type_id":"4","last_reported":1751659890,"current_range_meters":16400,"station_id":"ce4bhih2rcd13ifvqfr0","pricing_plan_id":"cebpf4jnsgd1na2vs0mg"},{"bike_id":"7d559c71-e23b-45c8-87ff-cda8a40043d9","system_id":"levelo_inurba_marseille","lat":43.27807,"lon":5.40713,"is_reserved":false,"is_disabled":false,"rental_uris":{"android":"levelo://app?vid=7d559c71-e23b-45c8-87ff-cda8a40043d9","ios":"levelo://app?vid=7d559c71-e23b-45c8-87ff-cda8a40043d9"},"vehicle_type_id":"4","last_reported":1751659890,"current_range_meters":16400,"station_id":"ce4bhnh2rcd13ifvqgtg","pricing_plan_id":"cebpf4jnsgd1na2vs0mg"},{"bike_id":"bc265203-5759-4d49-bd6f-6609314620bc","system_id":"levelo_inurba_marseille","lat":43.3171,"lon":5.43707,"is_reserved":false,"is_disabled":false,"rental_uris":{"android":"levelo://app?vid=bc265203-5759-4d49-bd6f-6609314620bc","ios":"levelo://app?vid=bc265203-5759-4d49-bd6f-6609314620bc"},"vehicle_type_id":"4","last_reported":1751659890,"current_range_meters":16400,"station_id":"ce4bhp92rcd13ifvqhcg","pricing_plan_id":"cebpf4jnsgd1na2vs0mg"},{"bike_id":"833dcaf2-4903-410f-af44-06dc9eae5be9","system_id":"levelo_inurba_marseille","lat":43.32044,"lon":5.41536,"is_reserved":false,"is_disabled":false,"rental_uris":{"android":"levelo://app?vid=833dcaf2-4903-410f-af44-06dc9eae5be9","ios":"levelo://app?vid=833dcaf2-4903-410f-af44-06dc9eae5be9"},"vehicle_type_id":"4","last_reported":1751659890,"current_range_meters":16400,"station_id":"ce4bhq92rcd13ifvqhkg","pricing_plan_id":"cebpf4jnsgd1na2vs0mg"},{"bike_id":"1e6a7dc6-636f-4e6d-b27f-ff1fb66d2dd7","system_id":"levelo_inurba_marseille","lat":43.323688,"lon":5.388787,"is_reserved":false,"is_disabled":false,"rental_uris":{"android":"levelo://app?vid=1e6a7dc6-636f-4e6d-b27f-ff1fb66d2dd7","ios":"levelo://app?vid=1e6a7dc6-636f-4e6d-b27f-ff1fb66d2dd7"},"vehicle_type_id":"4","last_reported":1751659890,"current_range_meters":16400,"station_id":"ce4bhqp2rcd13ifvqhog","pricing_plan_id":"cebpf4jnsgd1na2vs0mg"},{"bike_id":"f37760c6-ab8b-450e-9ddc-f3de596404e2","system_id":"levelo_inurba_marseille","lat":43.30313,"lon":5.37899,"is_reserved":false,"is_disabled":false,"rental_uris":{"android":"levelo://app?vid=f37760c6-ab8b-450e-9ddc-f3de596404e2","ios":"levelo://app?vid=f37760c6-ab8b-450e-9ddc-f3de596404e2"},"vehicle_type_id":"4","last_reported":1751659890,"current_range_meters":16800,"station_id":"","pricing_plan_id":"cebpf4jnsgd1na2vs0mg"},{"bike_id":"375ddf22-b064-4590-9eb8-fdbc2472cd2c","system_id":"levelo_inurba_marseille","lat":43.3094,"lon":5.39031,"is_reserved":false,"is_disabled":false,"rental_uris":{"android":"levelo://app?vid=375ddf22-b064-4590-9eb8-fdbc2472cd2c","ios":"levelo://app?vid=375ddf22-b064-4590-9eb8-fdbc2472cd2c"},"vehicle_type_id":"4","last_reported":1751659890,"current_range_meters":16800,"station_id":"ce4bgup2rcd13ifvqco0","pricing_plan_id":"cebpf4jnsgd1na2vs0mg"},{"bike_id":"33943d72-c8bb-4b0a-9003-910e3e6ea700","system_id":"levelo_inurba_marseille","lat":43.30943,"lon":5.39034,"is_reserved":false,"is_disabled":false,"rental_uris":{"android":"levelo://app?vid=33943d72-c8bb-4b0a-9003-910e3e6ea700","ios":"levelo://app?vid=33943d72-c8bb-4b0a-9003-910e3e6ea700"},"vehicle_type_id":"4","last_reported":1751659890,"current_range_meters":16800,"station_id":"ce4bgup2rcd13ifvqco0","pricing_plan_id":"cebpf4jnsgd1na2vs0mg"},{"bike_id":"b4bb65fd-78f5-4401-9261-96ae94a13a13","system_id":"levelo_inurba_marseille","lat":43.31167,"lon":5.38722,"is_reserved":false,"is_disabled":false,"rental_uris":{"android":"levelo://app?vid=b4bb65fd-78f5-4401-9261-96ae94a13a13","ios":"levelo://app?vid=b4bb65fd-78f5-4401-9261-96ae94a13a13"},"vehicle_type_id":"4","last_reported":1751659890,"current_range_meters":16800,"station_id":"ce4bgv12rcd13ifvqcp0","pricing_plan_id":"cebpf4jnsgd1na2vs0mg"},{"bike_id":"884fb5c2-13f0-4dc5-ad44-521759fa6a57","system_id":"levelo_inurba_marseille","lat":43.29264,"lon":5.38426,"is_reserved":false,"is_disabled":false,"rental_uris":{"android":"levelo://app?vid=884fb5c2-13f0-4dc5-ad44-521759fa6a57","ios":"levelo://app?vid=884fb5c2-13f0-4dc5-ad44-521759fa6a57"},"vehicle_type_id":"4","last_reported":1751659890,"current_range_meters":16800,"station_id":"ce4bh692rcd13ifvqea0","pricing_plan_id":"cebpf4jnsgd1na2vs0mg"},{"bike_id":"552bcf28-72f1-4f10-b8f6-f0512fe0cc4b","system_id":"levelo_inurba_marseille","lat":43.27371,"lon":5.36255,"is_reserved":false,"is_disabled":false,"rental_uris":{"android":"levelo://app?vid=552bcf28-72f1-4f10-b8f6-f0512fe0cc4b","ios":"levelo://app?vid=552bcf28-72f1-4f10-b8f6-f0512fe0cc4b"},"vehicle_type_id":"4","last_reported":1751659890,"current_range_meters":16800,"station_id":"ce4bhbh2rcd13ifvqeo0","pricing_plan_id":"cebpf4jnsgd1na2vs0mg"},{"bike_id":"dbf29f19-0261-473b-b948-8fda5ef0ba68","system_id":"levelo_inurba_marseille","lat":43.26057,"lon":5.394,"is_reserved":false,"is_disabled":false,"rental_uris":{"android":"levelo://app?vid=dbf29f19-0261-473b-b948-8fda5ef0ba68","ios":"levelo://app?vid=dbf29f19-0261-473b-b948-8fda5ef0ba68"},"vehicle_type_id":"4","last_reported":1751659890,"current_range_meters":16800,"station_id":"ce4bhh92rcd13ifvqfj0","pricing_plan_id":"cebpf4jnsgd1na2vs0mg"},{"bike_id":"fc15d0e2-3ad9-4fb7-8bd5-ba03d333db05","system_id":"levelo_inurba_marseille","lat":43.24657,"lon":5.38161,"is_reserved":false,"is_disabled":false,"rental_uris":{"android":"levelo://app?vid=fc15d0e2-3ad9-4fb7-8bd5-ba03d333db05","ios":"levelo://app?vid=fc15d0e2-3ad9-4fb7-8bd5-ba03d333db05"},"vehicle_type_id":"4","last_reported":1751659890,"current_range_meters":16800,"station_id":"ce4bhih2rcd13ifvqfr0","pricing_plan_id":"cebpf4jnsgd1na2vs0mg"},{"bike_id":"29b19e99-4845-4ee3-b1ee-35721cd36dc7","system_id":"levelo_inurba_marseille","lat":43.23204,"lon":5.35582,"is_reserved":false,"is_disabled":false,"rental_uris":{"android":"levelo://app?vid=29b19e99-4845-4ee3-b1ee-35721cd36dc7","ios":"levelo://app?vid=29b19e99-4845-4ee3-b1ee-35721cd36dc7"},"vehicle_type_id":"4","last_reported":1751659890,"current_range_meters":16800,"station_id":"ce4bhu92rcd13ifvqi70","pricing_plan_id":"cebpf4jnsgd1na2vs0mg"},{"bike_id":"5f470112-8139-4343-b082-08a74e0b7074","system_id":"levelo_inurba_marseille","lat":43.21168,"lon":5.35068,"is_reserved":false,"is_disabled":false,"rental_uris":{"android":"levelo://app?vid=5f470112-8139-4343-b082-08a74e0b7074","ios":"levelo://app?vid=5f470112-8139-4343-b082-08a74e0b7074"},"vehicle_type_id":"4","last_reported":1751659890,"current_range_meters":16800,"station_id":"st_cvj6sg6p6f1abm77japg","pricing_plan_id":"cebpf4jnsgd1na2vs0mg"},{"bike_id":"b1d40197-e49c-4962-8cd8-0babe05d31a6","system_id":"levelo_inurba_marseille","lat":43.21256,"lon":5.35282,"is_reserved":false,"is_disabled":false,"rental_uris":{"android":"levelo://app?vid=b1d40197-e49c-4962-8cd8-0babe05d31a6","ios":"levelo://app?vid=b1d40197-e49c-4962-8cd8-0babe05d31a6"},"vehicle_type_id":"4","last_reported":1751659890,"current_range_meters":17200,"station_id":"","pricing_plan_id":"cebpf4jnsgd1na2vs0mg"},{"bike_id":"5418a4cb-f249-4c06-b03e-db5e08f62851","system_id":"levelo_inurba_marseille","lat":43.29028,"lon":5.38645,"is_reserved":false,"is_disabled":false,"rental_uris":{"android":"levelo://app?vid=5418a4cb-f249-4c06-b03e-db5e08f62851","ios":"levelo://app?vid=5418a4cb-f249-4c06-b03e-db5e08f62851"},"vehicle_type_id":"4","last_reported":1751659890,"current_range_meters":17200,"station_id":"ce4bh4p2rcd13ifvqe0g","pricing_plan_id":"cebpf4jnsgd1na2vs0mg"},{"bike_id":"240ab64d-9a13-4e62-96ee-15e26c15ac08","system_id":"levelo_inurba_marseille","lat":43.23193,"lon":5.35549,"is_reserved":false,"is_disabled":false,"rental_uris":{"android":"levelo://app?vid=240ab64d-9a13-4e62-96ee-15e26c15ac08","ios":"levelo://app?vid=240ab64d-9a13-4e62-96ee-15e26c15ac08"},"vehicle_type_id":"4","last_reported":1751659890,"current_range_meters":17200,"station_id":"ce4bhu92rcd13ifvqi70","pricing_plan_id":"cebpf4jnsgd1na2vs0mg"},{"bike_id":"ef26d274-58a7-40bc-9cf0-6287718684d4","system_id":"levelo_inurba_marseille","lat":43.30731,"lon":5.4244,"is_reserved":false,"is_disabled":false,"rental_uris":{"android":"levelo://app?vid=ef26d274-58a7-40bc-9cf0-6287718684d4","ios":"levelo://app?vid=ef26d274-58a7-40bc-9cf0-6287718684d4"},"vehicle_type_id":"4","last_reported":1751659890,"current_range_meters":17200,"station_id":"st_cvj6ca6bvosntc0bfgr0","pricing_plan_id":"cebpf4jnsgd1na2vs0mg"},{"bike_id":"25d65b54-2483-49ad-9e8c-b4102ded682f","system_id":"levelo_inurba_marseille","lat":43.21204,"lon":5.35061,"is_reserved":false,"is_disabled":false,"rental_uris":{"android":"levelo://app?vid=25d65b54-2483-49ad-9e8c-b4102ded682f","ios":"levelo://app?vid=25d65b54-2483-49ad-9e8c-b4102ded682f"},"vehicle_type_id":"4","last_reported":1751659890,"current_range_meters":17200,"station_id":"st_cvj6sg6p6f1abm77japg","pricing_plan_id":"cebpf4jnsgd1na2vs0mg"},{"bike_id":"1debf7b4-a1eb-4556-aecf-a2644e2b30cb","system_id":"levelo_inurba_marseille","lat":43.30947,"lon":5.39021,"is_reserved":false,"is_disabled":false,"rental_uris":{"android":"levelo://app?vid=1debf7b4-a1eb-4556-aecf-a2644e2b30cb","ios":"levelo://app?vid=1debf7b4-a1eb-4556-aecf-a2644e2b30cb"},"vehicle_type_id":"4","last_reported":1751659890,"current_range_meters":17600,"station_id":"ce4bgup2rcd13ifvqco0","pricing_plan_id":"cebpf4jnsgd1na2vs0mg"},{"bike_id":"0aa91f77-b343-47a1-af02-f2f9382aa5a4","system_id":"levelo_inurba_marseille","lat":43.2861,"lon":5.35097,"is_reserved":false,"is_disabled":false,"rental_uris":{"android":"levelo://app?vid=0aa91f77-b343-47a1-af02-f2f9382aa5a4","ios":"levelo://app?vid=0aa91f77-b343-47a1-af02-f2f9382aa5a4"},"vehicle_type_id":"4","last_reported":1751659890,"current_range_meters":17600,"station_id":"ce4bhch2rcd13ifvqeug","pricing_plan_id":"cebpf4jnsgd1na2vs0mg"},{"bike_id":"61b9c18e-8166-40b5-89af-1a5ec9a45918","system_id":"levelo_inurba_marseille","lat":43.26675,"lon":5.38272,"is_reserved":false,"is_disabled":false,"rental_uris":{"android":"levelo://app?vid=61b9c18e-8166-40b5-89af-1a5ec9a45918","ios":"levelo://app?vid=61b9c18e-8166-40b5-89af-1a5ec9a45918"},"vehicle_type_id":"4","last_reported":1751659890,"current_range_meters":17600,"station_id":"ce4bhg92rcd13ifvqf90","pricing_plan_id":"cebpf4jnsgd1na2vs0mg"},{"bike_id":"9898e142-28b3-4650-b81a-822e59221a52","system_id":"levelo_inurba_marseille","lat":43.27069,"lon":5.42281,"is_reserved":false,"is_disabled":false,"rental_uris":{"android":"levelo://app?vid=9898e142-28b3-4650-b81a-822e59221a52","ios":"levelo://app?vid=9898e142-28b3-4650-b81a-822e59221a52"},"vehicle_type_id":"4","last_reported":1751659890,"current_range_meters":17600,"station_id":"ce4bhk92rcd13ifvqgb0","pricing_plan_id":"cebpf4jnsgd1na2vs0mg"},{"bike_id":"85e59ae2-b351-4789-8c40-11e04c4e6808","system_id":"levelo_inurba_marseille","lat":43.23186,"lon":5.35547,"is_reserved":false,"is_disabled":false,"rental_uris":{"android":"levelo://app?vid=85e59ae2-b351-4789-8c40-11e04c4e6808","ios":"levelo://app?vid=85e59ae2-b351-4789-8c40-11e04c4e6808"},"vehicle_type_id":"4","last_reported":1751659890,"current_range_meters":17600,"station_id":"ce4bhu92rcd13ifvqi70","pricing_plan_id":"cebpf4jnsgd1na2vs0mg"},{"bike_id":"8501c7f1-4540-433a-9226-9677bd87b71a","system_id":"levelo_inurba_marseille","lat":43.21193,"lon":5.3507,"is_reserved":false,"is_disabled":false,"rental_uris":{"android":"levelo://app?vid=8501c7f1-4540-433a-9226-9677bd87b71a","ios":"levelo://app?vid=8501c7f1-4540-433a-9226-9677bd87b71a"},"vehicle_type_id":"4","last_reported":1751659890,"current_range_meters":17600,"station_id":"st_cvj6sg6p6f1abm77japg","pricing_plan_id":"cebpf4jnsgd1na2vs0mg"},{"bike_id":"8a42812b-a6a1-406d-afe6-f3a1f04badd8","system_id":"levelo_inurba_marseille","lat":43.30858,"lon":5.3703,"is_reserved":false,"is_disabled":false,"rental_uris":{"android":"levelo://app?vid=8a42812b-a6a1-406d-afe6-f3a1f04badd8","ios":"levelo://app?vid=8a42812b-a6a1-406d-afe6-f3a1f04badd8"},"vehicle_type_id":"4","last_reported":1751659890,"current_range_meters":18000,"station_id":"","pricing_plan_id":"cebpf4jnsgd1na2vs0mg"},{"bike_id":"b67e3de7-3a98-48a8-ada1-6072073e6e54","system_id":"levelo_inurba_marseille","lat":43.24546,"lon":5.37355,"is_reserved":false,"is_disabled":false,"rental_uris":{"android":"levelo://app?vid=b67e3de7-3a98-48a8-ada1-6072073e6e54","ios":"levelo://app?vid=b67e3de7-3a98-48a8-ada1-6072073e6e54"},"vehicle_type_id":"4","last_reported":1751659890,"current_range_meters":18000,"station_id":"","pricing_plan_id":"cebpf4jnsgd1na2vs0mg"},{"bike_id":"adf1d38d-1f03-40cf-9b57-0a8f15f62b2d","system_id":"levelo_inurba_marseille","lat":43.32961,"lon":5.36375,"is_reserved":false,"is_disabled":false,"rental_uris":{"android":"levelo://app?vid=adf1d38d-1f03-40cf-9b57-0a8f15f62b2d","ios":"levelo://app?vid=adf1d38d-1f03-40cf-9b57-0a8f15f62b2d"},"vehicle_type_id":"4","last_reported":1751659890,"current_range_meters":18000,"station_id":"","pricing_plan_id":"cebpf4jnsgd1na2vs0mg"},{"bike_id":"aa60e0dc-2709-4511-91a9-9bb1ddcf9006","system_id":"levelo_inurba_marseille","lat":43.3094,"lon":5.39031,"is_reserved":false,"is_disabled":false,"rental_uris":{"android":"levelo://app?vid=aa60e0dc-2709-4511-91a9-9bb1ddcf9006","ios":"levelo://app?vid=aa60e0dc-2709-4511-91a9-9bb1ddcf9006"},"vehicle_type_id":"4","last_reported":1751659890,"current_range_meters":18000,"station_id":"ce4bgup2rcd13ifvqco0","pricing_plan_id":"cebpf4jnsgd1na2vs0mg"},{"bike_id":"59a6f59a-7087-4ff9-9862-c0b83ece393e","system_id":"levelo_inurba_marseille","lat":43.3094,"lon":5.3902,"is_reserved":false,"is_disabled":false,"rental_uris":{"android":"levelo://app?vid=59a6f59a-7087-4ff9-9862-c0b83ece393e","ios":"levelo://app?vid=59a6f59a-7087-4ff9-9862-c0b83ece393e"},"vehicle_type_id":"4","last_reported":1751659890,"current_range_meters":18000,"station_id":"ce4bgup2rcd13ifvqco0","pricing_plan_id":"cebpf4jnsgd1na2vs0mg"},{"bike_id":"3924b8ff-b582-4916-8def-157fa9841bf6","system_id":"levelo_inurba_marseille","lat":43.3087,"lon":5.3964,"is_reserved":false,"is_disabled":false,"rental_uris":{"android":"levelo://app?vid=3924b8ff-b582-4916-8def-157fa9841bf6","ios":"levelo://app?vid=3924b8ff-b582-4916-8def-157fa9841bf6"},"vehicle_type_id":"4","last_reported":1751659890,"current_range_meters":18000,"station_id":"ce4bh012rcd13ifvqcv0","pricing_plan_id":"cebpf4jnsgd1na2vs0mg"},{"bike_id":"f98ebefa-af26-4acc-92bd-1537132fb690","system_id":"levelo_inurba_marseille","lat":43.31683,"lon":5.40472,"is_reserved":false,"is_disabled":false,"rental_uris":{"android":"levelo://app?vid=f98ebefa-af26-4acc-92bd-1537132fb690","ios":"levelo://app?vid=f98ebefa-af26-4acc-92bd-1537132fb690"},"vehicle_type_id":"4","last_reported":1751659890,"current_range_meters":18000,"station_id":"ce4bh012rcd13ifvqd00","pricing_plan_id":"cebpf4jnsgd1na2vs0mg"},{"bike_id":"30942f8f-618a-4b97-b952-fc88de813fc2","system_id":"levelo_inurba_marseille","lat":43.2885,"lon":5.39329,"is_reserved":false,"is_disabled":false,"rental_uris":{"android":"levelo://app?vid=30942f8f-618a-4b97-b952-fc88de813fc2","ios":"levelo://app?vid=30942f8f-618a-4b97-b952-fc88de813fc2"},"vehicle_type_id":"4","last_reported":1751659890,"current_range_meters":18000,"station_id":"ce4bh2p2rcd13ifvqdi0","pricing_plan_id":"cebpf4jnsgd1na2vs0mg"},{"bike_id":"ff1b98f3-a8c4-4a32-bf59-a7b58b2cbf5d","system_id":"levelo_inurba_marseille","lat":43.28404,"lon":5.37511,"is_reserved":false,"is_disabled":false,"rental_uris":{"android":"levelo://app?vid=ff1b98f3-a8c4-4a32-bf59-a7b58b2cbf5d","ios":"levelo://app?vid=ff1b98f3-a8c4-4a32-bf59-a7b58b2cbf5d"},"vehicle_type_id":"4","last_reported":1751659890,"current_range_meters":18000,"station_id":"ce4bh412rcd13ifvqds0","pricing_plan_id":"cebpf4jnsgd1na2vs0mg"},{"bike_id":"038f04c6-6a25-4caf-96c3-89ff54742e3a","system_id":"levelo_inurba_marseille","lat":43.28421,"lon":5.37518,"is_reserved":false,"is_disabled":false,"rental_uris":{"android":"levelo://app?vid=038f04c6-6a25-4caf-96c3-89ff54742e3a","ios":"levelo://app?vid=038f04c6-6a25-4caf-96c3-89ff54742e3a"},"vehicle_type_id":"4","last_reported":1751659890,"current_range_meters":18000,"station_id":"ce4bh412rcd13ifvqds0","pricing_plan_id":"cebpf4jnsgd1na2vs0mg"},{"bike_id":"1f81d10d-d2ff-4523-aefb-7f897158527a","system_id":"levelo_inurba_marseille","lat":43.29547,"lon":5.42276,"is_reserved":false,"is_disabled":false,"rental_uris":{"android":"levelo://app?vid=1f81d10d-d2ff-4523-aefb-7f897158527a","ios":"levelo://app?vid=1f81d10d-d2ff-4523-aefb-7f897158527a"},"vehicle_type_id":"4","last_reported":1751659890,"current_range_meters":18000,"station_id":"ce4bhph2rcd13ifvqhdg","pricing_plan_id":"cebpf4jnsgd1na2vs0mg"},{"bike_id":"eee40584-a53a-46c2-94a4-491b77e8d9d1","system_id":"levelo_inurba_marseille","lat":43.21738,"lon":5.34607,"is_reserved":false,"is_disabled":false,"rental_uris":{"android":"levelo://app?vid=eee40584-a53a-46c2-94a4-491b77e8d9d1","ios":"levelo://app?vid=eee40584-a53a-46c2-94a4-491b77e8d9d1"},"vehicle_type_id":"4","last_reported":1751659890,"current_range_meters":18000,"station_id":"st_cvj6r9ubvosntc0bgbag","pricing_plan_id":"cebpf4jnsgd1na2vs0mg"},{"bike_id":"134a6fd1-cb8b-4ade-a0c2-0b22bf7dca76","system_id":"levelo_inurba_marseille","lat":43.21185,"lon":5.35075,"is_reserved":false,"is_disabled":false,"rental_uris":{"android":"levelo://app?vid=134a6fd1-cb8b-4ade-a0c2-0b22bf7dca76","ios":"levelo://app?vid=134a6fd1-cb8b-4ade-a0c2-0b22bf7dca76"},"vehicle_type_id":"4","last_reported":1751659890,"current_range_meters":18000,"station_id":"st_cvj6sg6p6f1abm77japg","pricing_plan_id":"cebpf4jnsgd1na2vs0mg"},{"bike_id":"3d271011-c8c2-40ee-a1de-715f576a4766","system_id":"levelo_inurba_marseille","lat":43.29524,"lon":5.37501,"is_reserved":false,"is_disabled":false,"rental_uris":{"android":"levelo://app?vid=3d271011-c8c2-40ee-a1de-715f576a4766","ios":"levelo://app?vid=3d271011-c8c2-40ee-a1de-715f576a4766"},"vehicle_type_id":"4","last_reported":1751659890,"current_range_meters":18800,"station_id":"ce4bgkp2rcd13ifvqbmg","pricing_plan_id":"cebpf4jnsgd1na2vs0mg"},{"bike_id":"083f69d9-6ba6-4895-a0aa-2fbaf6bdb4aa","system_id":"levelo_inurba_marseille","lat":43.29769,"lon":5.37112,"is_reserved":false,"is_disabled":false,"rental_uris":{"android":"levelo://app?vid=083f69d9-6ba6-4895-a0aa-2fbaf6bdb4aa","ios":"levelo://app?vid=083f69d9-6ba6-4895-a0aa-2fbaf6bdb4aa"},"vehicle_type_id":"4","last_reported":1751659890,"current_range_meters":18800,"station_id":"ce4bgop2rcd13ifvqc1g","pricing_plan_id":"cebpf4jnsgd1na2vs0mg"},{"bike_id":"f328417f-f2af-419a-a979-9cebfa73d3fe","system_id":"levelo_inurba_marseille","lat":43.31359,"lon":5.38497,"is_reserved":false,"is_disabled":false,"rental_uris":{"android":"levelo://app?vid=f328417f-f2af-419a-a979-9cebfa73d3fe","ios":"levelo://app?vid=f328417f-f2af-419a-a979-9cebfa73d3fe"},"vehicle_type_id":"4","last_reported":1751659890,"current_range_meters":18800,"station_id":"ce4bgt92rcd13ifvqcf0","pricing_plan_id":"cebpf4jnsgd1na2vs0mg"},{"bike_id":"ea4f7f7c-96be-4f64-9624-e82240e9dd28","system_id":"levelo_inurba_marseille","lat":43.30941,"lon":5.39038,"is_reserved":false,"is_disabled":false,"rental_uris":{"android":"levelo://app?vid=ea4f7f7c-96be-4f64-9624-e82240e9dd28","ios":"levelo://app?vid=ea4f7f7c-96be-4f64-9624-e82240e9dd28"},"vehicle_type_id":"4","last_reported":1751659890,"current_range_meters":18800,"station_id":"ce4bgup2rcd13ifvqco0","pricing_plan_id":"cebpf4jnsgd1na2vs0mg"},{"bike_id":"b38b549b-7e08-4150-bdf3-3f2e3e200db5","system_id":"levelo_inurba_marseille","lat":43.2841,"lon":5.37504,"is_reserved":false,"is_disabled":false,"rental_uris":{"android":"levelo://app?vid=b38b549b-7e08-4150-bdf3-3f2e3e200db5","ios":"levelo://app?vid=b38b549b-7e08-4150-bdf3-3f2e3e200db5"},"vehicle_type_id":"4","last_reported":1751659890,"current_range_meters":18800,"station_id":"ce4bh412rcd13ifvqds0","pricing_plan_id":"cebpf4jnsgd1na2vs0mg"},{"bike_id":"10e018ae-1e5c-4128-9ff4-cc3463577ed5","system_id":"levelo_inurba_marseille","lat":43.29258,"lon":5.38447,"is_reserved":false,"is_disabled":false,"rental_uris":{"android":"levelo://app?vid=10e018ae-1e5c-4128-9ff4-cc3463577ed5","ios":"levelo://app?vid=10e018ae-1e5c-4128-9ff4-cc3463577ed5"},"vehicle_type_id":"4","last_reported":1751659890,"current_range_meters":18800,"station_id":"ce4bh692rcd13ifvqea0","pricing_plan_id":"cebpf4jnsgd1na2vs0mg"},{"bike_id":"54756faf-cb40-4ef1-aa74-0a23070f1a67","system_id":"levelo_inurba_marseille","lat":43.26213,"lon":5.37449,"is_reserved":false,"is_disabled":false,"rental_uris":{"android":"levelo://app?vid=54756faf-cb40-4ef1-aa74-0a23070f1a67","ios":"levelo://app?vid=54756faf-cb40-4ef1-aa74-0a23070f1a67"},"vehicle_type_id":"4","last_reported":1751659890,"current_range_meters":18800,"station_id":"ce4bhgp2rcd13ifvqfc0","pricing_plan_id":"cebpf4jnsgd1na2vs0mg"},{"bike_id":"1ba3d49f-879f-495a-9eec-a5219f46051b","system_id":"levelo_inurba_marseille","lat":43.24657,"lon":5.38163,"is_reserved":false,"is_disabled":false,"rental_uris":{"android":"levelo://app?vid=1ba3d49f-879f-495a-9eec-a5219f46051b","ios":"levelo://app?vid=1ba3d49f-879f-495a-9eec-a5219f46051b"},"vehicle_type_id":"4","last_reported":1751659890,"current_range_meters":18800,"station_id":"ce4bhih2rcd13ifvqfr0","pricing_plan_id":"cebpf4jnsgd1na2vs0mg"},{"bike_id":"d5ef770d-9759-47e3-b3a5-7d2785ef76db","system_id":"levelo_inurba_marseille","lat":43.33014,"lon":5.39493,"is_reserved":false,"is_disabled":false,"rental_uris":{"android":"levelo://app?vid=d5ef770d-9759-47e3-b3a5-7d2785ef76db","ios":"levelo://app?vid=d5ef770d-9759-47e3-b3a5-7d2785ef76db"},"vehicle_type_id":"4","last_reported":1751659890,"current_range_meters":19200,"station_id":"","pricing_plan_id":"cebpf4jnsgd1na2vs0mg"},{"bike_id":"fe8ee84c-fdfc-40aa-a1c2-6e36409c0740","system_id":"levelo_inurba_marseille","lat":43.268111,"lon":5.390614,"is_reserved":false,"is_disabled":false,"rental_uris":{"android":"levelo://app?vid=fe8ee84c-fdfc-40aa-a1c2-6e36409c0740","ios":"levelo://app?vid=fe8ee84c-fdfc-40aa-a1c2-6e36409c0740"},"vehicle_type_id":"4","last_reported":1751659890,"current_range_meters":19200,"station_id":"","pricing_plan_id":"cebpf4jnsgd1na2vs0mg"},{"bike_id":"3fc62123-78f7-4bfd-9645-67a7412e0768","system_id":"levelo_inurba_marseille","lat":43.2573,"lon":5.41107,"is_reserved":false,"is_disabled":false,"rental_uris":{"android":"levelo://app?vid=3fc62123-78f7-4bfd-9645-67a7412e0768","ios":"levelo://app?vid=3fc62123-78f7-4bfd-9645-67a7412e0768"},"vehicle_type_id":"4","last_reported":1751659890,"current_range_meters":19200,"station_id":"","pricing_plan_id":"cebpf4jnsgd1na2vs0mg"},{"bike_id":"de82732e-0a39-4d40-b3cf-607f82f986f4","system_id":"levelo_inurba_marseille","lat":43.26882,"lon":5.36861,"is_reserved":false,"is_disabled":false,"rental_uris":{"android":"levelo://app?vid=de82732e-0a39-4d40-b3cf-607f82f986f4","ios":"levelo://app?vid=de82732e-0a39-4d40-b3cf-607f82f986f4"},"vehicle_type_id":"4","last_reported":1751659890,"current_range_meters":19200,"station_id":"","pricing_plan_id":"cebpf4jnsgd1na2vs0mg"},{"bike_id":"b727105f-ece6-4135-8a2b-f36d536243be","system_id":"levelo_inurba_marseille","lat":43.3054,"lon":5.36695,"is_reserved":false,"is_disabled":false,"rental_uris":{"android":"levelo://app?vid=b727105f-ece6-4135-8a2b-f36d536243be","ios":"levelo://app?vid=b727105f-ece6-4135-8a2b-f36d536243be"},"vehicle_type_id":"4","last_reported":1751659890,"current_range_meters":19200,"station_id":"ce4bgrp2rcd13ifvqc9g","pricing_plan_id":"cebpf4jnsgd1na2vs0mg"},{"bike_id":"b3278252-4bf9-4925-8044-cedf225f8ba1","system_id":"levelo_inurba_marseille","lat":43.3136,"lon":5.38489,"is_reserved":false,"is_disabled":false,"rental_uris":{"android":"levelo://app?vid=b3278252-4bf9-4925-8044-cedf225f8ba1","ios":"levelo://app?vid=b3278252-4bf9-4925-8044-cedf225f8ba1"},"vehicle_type_id":"4","last_reported":1751659890,"current_range_meters":19200,"station_id":"ce4bgt92rcd13ifvqcf0","pricing_plan_id":"cebpf4jnsgd1na2vs0mg"},{"bike_id":"67b6b58e-7e13-47f3-b7a8-d0fcfc3ea1f6","system_id":"levelo_inurba_marseille","lat":43.28847,"lon":5.39305,"is_reserved":false,"is_disabled":false,"rental_uris":{"android":"levelo://app?vid=67b6b58e-7e13-47f3-b7a8-d0fcfc3ea1f6","ios":"levelo://app?vid=67b6b58e-7e13-47f3-b7a8-d0fcfc3ea1f6"},"vehicle_type_id":"4","last_reported":1751659890,"current_range_meters":19200,"station_id":"ce4bh2p2rcd13ifvqdi0","pricing_plan_id":"cebpf4jnsgd1na2vs0mg"},{"bike_id":"7bba8a3e-5b56-4797-a43e-860cbf4b2360","system_id":"levelo_inurba_marseille","lat":43.27369,"lon":5.36256,"is_reserved":false,"is_disabled":false,"rental_uris":{"android":"levelo://app?vid=7bba8a3e-5b56-4797-a43e-860cbf4b2360","ios":"levelo://app?vid=7bba8a3e-5b56-4797-a43e-860cbf4b2360"},"vehicle_type_id":"4","last_reported":1751659890,"current_range_meters":19200,"station_id":"ce4bhbh2rcd13ifvqeo0","pricing_plan_id":"cebpf4jnsgd1na2vs0mg"},{"bike_id":"a599d48f-b21a-462e-ba87-44282577c500","system_id":"levelo_inurba_marseille","lat":43.28414,"lon":5.34987,"is_reserved":false,"is_disabled":false,"rental_uris":{"android":"levelo://app?vid=a599d48f-b21a-462e-ba87-44282577c500","ios":"levelo://app?vid=a599d48f-b21a-462e-ba87-44282577c500"},"vehicle_type_id":"4","last_reported":1751659890,"current_range_meters":19200,"station_id":"ce4bhbh2rcd13ifvqepg","pricing_plan_id":"cebpf4jnsgd1na2vs0mg"},{"bike_id":"76a2bef7-398e-4f1f-8e0a-99cd2bb38c2d","system_id":"levelo_inurba_marseille","lat":43.286262,"lon":5.350946,"is_reserved":false,"is_disabled":false,"rental_uris":{"android":"levelo://app?vid=76a2bef7-398e-4f1f-8e0a-99cd2bb38c2d","ios":"levelo://app?vid=76a2bef7-398e-4f1f-8e0a-99cd2bb38c2d"},"vehicle_type_id":"4","last_reported":1751659890,"current_range_meters":19200,"station_id":"ce4bhch2rcd13ifvqeug","pricing_plan_id":"cebpf4jnsgd1na2vs0mg"},{"bike_id":"87cc4f7b-b0e3-4488-b4d8-70f032e439ea","system_id":"levelo_inurba_marseille","lat":43.26562,"lon":5.37279,"is_reserved":false,"is_disabled":false,"rental_uris":{"android":"levelo://app?vid=87cc4f7b-b0e3-4488-b4d8-70f032e439ea","ios":"levelo://app?vid=87cc4f7b-b0e3-4488-b4d8-70f032e439ea"},"vehicle_type_id":"4","last_reported":1751659890,"current_range_meters":19200,"station_id":"ce4bhg12rcd13ifvqf70","pricing_plan_id":"cebpf4jnsgd1na2vs0mg"},{"bike_id":"bf24b26e-7f51-4120-9a48-54c87edaa2f7","system_id":"levelo_inurba_marseille","lat":43.2119,"lon":5.35073,"is_reserved":false,"is_disabled":false,"rental_uris":{"android":"levelo://app?vid=bf24b26e-7f51-4120-9a48-54c87edaa2f7","ios":"levelo://app?vid=bf24b26e-7f51-4120-9a48-54c87edaa2f7"},"vehicle_type_id":"4","last_reported":1751659890,"current_range_meters":19200,"station_id":"st_cvj6sg6p6f1abm77japg","pricing_plan_id":"cebpf4jnsgd1na2vs0mg"},{"bike_id":"5b5ca915-19f5-4c5c-ba88-71fe4a9869eb","system_id":"levelo_inurba_marseille","lat":43.31678,"lon":5.37768,"is_reserved":false,"is_disabled":false,"rental_uris":{"android":"levelo://app?vid=5b5ca915-19f5-4c5c-ba88-71fe4a9869eb","ios":"levelo://app?vid=5b5ca915-19f5-4c5c-ba88-71fe4a9869eb"},"vehicle_type_id":"4","last_reported":1751659890,"current_range_meters":19600,"station_id":"ce4bgth2rcd13ifvqch0","pricing_plan_id":"cebpf4jnsgd1na2vs0mg"},{"bike_id":"1e56371b-d377-4182-8646-1fa64a1d6aa6","system_id":"levelo_inurba_marseille","lat":43.298967,"lon":5.436727,"is_reserved":false,"is_disabled":false,"rental_uris":{"android":"levelo://app?vid=1e56371b-d377-4182-8646-1fa64a1d6aa6","ios":"levelo://app?vid=1e56371b-d377-4182-8646-1fa64a1d6aa6"},"vehicle_type_id":"4","last_reported":1751659890,"current_range_meters":19600,"station_id":"ce4bhpp2rcd13ifvqhfg","pricing_plan_id":"cebpf4jnsgd1na2vs0mg"},{"bike_id":"f0fb2dda-39d7-48fc-a779-9e4937929867","system_id":"levelo_inurba_marseille","lat":43.29563,"lon":5.37505,"is_reserved":false,"is_disabled":false,"rental_uris":{"android":"levelo://app?vid=f0fb2dda-39d7-48fc-a779-9e4937929867","ios":"levelo://app?vid=f0fb2dda-39d7-48fc-a779-9e4937929867"},"vehicle_type_id":"4","last_reported":1751659890,"current_range_meters":20000,"station_id":"","pricing_plan_id":"cebpf4jnsgd1na2vs0mg"},{"bike_id":"cce032c1-b491-4452-8791-30a806249bd9","system_id":"levelo_inurba_marseille","lat":43.30535,"lon":5.36719,"is_reserved":false,"is_disabled":false,"rental_uris":{"android":"levelo://app?vid=cce032c1-b491-4452-8791-30a806249bd9","ios":"levelo://app?vid=cce032c1-b491-4452-8791-30a806249bd9"},"vehicle_type_id":"4","last_reported":1751659890,"current_range_meters":20000,"station_id":"ce4bgrp2rcd13ifvqc9g","pricing_plan_id":"cebpf4jnsgd1na2vs0mg"},{"bike_id":"e449aa29-cae1-4432-9aec-dedc13360b20","system_id":"levelo_inurba_marseille","lat":43.21185,"lon":5.35083,"is_reserved":false,"is_disabled":false,"rental_uris":{"android":"levelo://app?vid=e449aa29-cae1-4432-9aec-dedc13360b20","ios":"levelo://app?vid=e449aa29-cae1-4432-9aec-dedc13360b20"},"vehicle_type_id":"4","last_reported":1751659890,"current_range_meters":20000,"station_id":"st_cvj6sg6p6f1abm77japg","pricing_plan_id":"cebpf4jnsgd1na2vs0mg"},{"bike_id":"9bc90652-28fb-49ca-a59a-32d4251a64a8","system_id":"levelo_inurba_marseille","lat":43.2953,"lon":5.38533,"is_reserved":false,"is_disabled":false,"rental_uris":{"android":"levelo://app?vid=9bc90652-28fb-49ca-a59a-32d4251a64a8","ios":"levelo://app?vid=9bc90652-28fb-49ca-a59a-32d4251a64a8"},"vehicle_type_id":"4","last_reported":1751659890,"current_range_meters":20400,"station_id":"ce4bgih2rcd13ifvqba0","pricing_plan_id":"cebpf4jnsgd1na2vs0mg"},{"bike_id":"18ad7692-1234-44df-910b-d43f838860de","system_id":"levelo_inurba_marseille","lat":43.303015,"lon":5.368984,"is_reserved":false,"is_disabled":false,"rental_uris":{"android":"levelo://app?vid=18ad7692-1234-44df-910b-d43f838860de","ios":"levelo://app?vid=18ad7692-1234-44df-910b-d43f838860de"},"vehicle_type_id":"4","last_reported":1751659890,"current_range_meters":20400,"station_id":"ce4bgqh2rcd13ifvqc5g","pricing_plan_id":"cebpf4jnsgd1na2vs0mg"},{"bike_id":"8c4aa9ff-7bdf-4a1d-8760-aa1f5a6e9de6","system_id":"levelo_inurba_marseille","lat":43.31118,"lon":5.37757,"is_reserved":false,"is_disabled":false,"rental_uris":{"android":"levelo://app?vid=8c4aa9ff-7bdf-4a1d-8760-aa1f5a6e9de6","ios":"levelo://app?vid=8c4aa9ff-7bdf-4a1d-8760-aa1f5a6e9de6"},"vehicle_type_id":"4","last_reported":1751659890,"current_range_meters":20400,"station_id":"ce4bgt92rcd13ifvqcg0","pricing_plan_id":"cebpf4jnsgd1na2vs0mg"},{"bike_id":"3648b657-440d-46f6-9dfa-60c74104e426","system_id":"levelo_inurba_marseille","lat":43.30938,"lon":5.39068,"is_reserved":false,"is_disabled":false,"rental_uris":{"android":"levelo://app?vid=3648b657-440d-46f6-9dfa-60c74104e426","ios":"levelo://app?vid=3648b657-440d-46f6-9dfa-60c74104e426"},"vehicle_type_id":"4","last_reported":1751659890,"current_range_meters":20400,"station_id":"ce4bgup2rcd13ifvqco0","pricing_plan_id":"cebpf4jnsgd1na2vs0mg"},{"bike_id":"3ab20216-a23a-4886-9c38-55ab3d7daf41","system_id":"levelo_inurba_marseille","lat":43.31327,"lon":5.3969,"is_reserved":false,"is_disabled":false,"rental_uris":{"android":"levelo://app?vid=3ab20216-a23a-4886-9c38-55ab3d7daf41","ios":"levelo://app?vid=3ab20216-a23a-4886-9c38-55ab3d7daf41"},"vehicle_type_id":"4","last_reported":1751659890,"current_range_meters":20400,"station_id":"ce4bgvp2rcd13ifvqcu0","pricing_plan_id":"cebpf4jnsgd1na2vs0mg"},{"bike_id":"738e4f12-e2cf-4f0b-86e0-11780f377df4","system_id":"levelo_inurba_marseille","lat":43.305949,"lon":5.393645,"is_reserved":false,"is_disabled":false,"rental_uris":{"android":"levelo://app?vid=738e4f12-e2cf-4f0b-86e0-11780f377df4","ios":"levelo://app?vid=738e4f12-e2cf-4f0b-86e0-11780f377df4"},"vehicle_type_id":"4","last_reported":1751659890,"current_range_meters":20400,"station_id":"ce4bh0p2rcd13ifvqd80","pricing_plan_id":"cebpf4jnsgd1na2vs0mg"},{"bike_id":"9bb4387c-d70a-42a7-a4a5-5b9d227e7746","system_id":"levelo_inurba_marseille","lat":43.27375,"lon":5.36242,"is_reserved":false,"is_disabled":false,"rental_uris":{"android":"levelo://app?vid=9bb4387c-d70a-42a7-a4a5-5b9d227e7746","ios":"levelo://app?vid=9bb4387c-d70a-42a7-a4a5-5b9d227e7746"},"vehicle_type_id":"4","last_reported":1751659890,"current_range_meters":20400,"station_id":"ce4bhbh2rcd13ifvqeo0","pricing_plan_id":"cebpf4jnsgd1na2vs0mg"},{"bike_id":"702a2ef1-0870-4fc2-baba-e6ee90340c91","system_id":"levelo_inurba_marseille","lat":43.28404,"lon":5.34984,"is_reserved":false,"is_disabled":false,"rental_uris":{"android":"levelo://app?vid=702a2ef1-0870-4fc2-baba-e6ee90340c91","ios":"levelo://app?vid=702a2ef1-0870-4fc2-baba-e6ee90340c91"},"vehicle_type_id":"4","last_reported":1751659890,"current_range_meters":20400,"station_id":"ce4bhbh2rcd13ifvqepg","pricing_plan_id":"cebpf4jnsgd1na2vs0mg"},{"bike_id":"10ba4242-81f5-4da2-872d-5d3d436bdf8d","system_id":"levelo_inurba_marseille","lat":43.2815,"lon":5.42639,"is_reserved":false,"is_disabled":false,"rental_uris":{"android":"levelo://app?vid=10ba4242-81f5-4da2-872d-5d3d436bdf8d","ios":"levelo://app?vid=10ba4242-81f5-4da2-872d-5d3d436bdf8d"},"vehicle_type_id":"4","last_reported":1751659890,"current_range_meters":20400,"station_id":"ce4bhnh2rcd13ifvqgug","pricing_plan_id":"cebpf4jnsgd1na2vs0mg"},{"bike_id":"355c4347-d492-4426-9595-eb2fa42f1c20","system_id":"levelo_inurba_marseille","lat":43.22489,"lon":5.34807,"is_reserved":false,"is_disabled":false,"rental_uris":{"android":"levelo://app?vid=355c4347-d492-4426-9595-eb2fa42f1c20","ios":"levelo://app?vid=355c4347-d492-4426-9595-eb2fa42f1c20"},"vehicle_type_id":"4","last_reported":1751659890,"current_range_meters":20400,"station_id":"st_cvj5dfep6f1abm77gieg","pricing_plan_id":"cebpf4jnsgd1na2vs0mg"},{"bike_id":"b62921df-9881-4b65-b43f-010febc7e776","system_id":"levelo_inurba_marseille","lat":43.29521,"lon":5.38555,"is_reserved":false,"is_disabled":false,"rental_uris":{"android":"levelo://app?vid=b62921df-9881-4b65-b43f-010febc7e776","ios":"levelo://app?vid=b62921df-9881-4b65-b43f-010febc7e776"},"vehicle_type_id":"4","last_reported":1751659890,"current_range_meters":20800,"station_id":"ce4bgih2rcd13ifvqba0","pricing_plan_id":"cebpf4jnsgd1na2vs0mg"},{"bike_id":"dd04773d-5d0a-42d2-8d5c-d21dee3a129f","system_id":"levelo_inurba_marseille","lat":43.24999,"lon":5.38923,"is_reserved":false,"is_disabled":false,"rental_uris":{"android":"levelo://app?vid=dd04773d-5d0a-42d2-8d5c-d21dee3a129f","ios":"levelo://app?vid=dd04773d-5d0a-42d2-8d5c-d21dee3a129f"},"vehicle_type_id":"4","last_reported":1751659890,"current_range_meters":20800,"station_id":"ce4bhgp2rcd13ifvqfd0","pricing_plan_id":"cebpf4jnsgd1na2vs0mg"},