{"last_updated":1708475629,"ttl":30,"version":"2.2","data":{"bikes":[{"bike_id":"b3d1d688-2b0d-4d72-aec5-1e9068f821e5","system_id":"levelo_inurba_marseille","lat":43.312239,"lon":5.368562,"is_reserved":false,"is_disabled":false,"rental_uris":{"android":"levelo://app?vid=b3d1d688-2b0d-4d72-aec5-1e9068f821e5","ios":"levelo://app?vid=b3d1d688-2b0d-4d72-aec5-1e9068f821e5"},"vehicle_type_id":"4","last_reported":1708475629,"current_range_meters":0,"station_id":"ce4bgl92rcd13ifvqbq0","pricing_plan_id":"cebpf4jnsgd1na2vs0mg"},{"bike_id":"47a44daa-b75d-4bde-931b-17d069e28e67","system_id":"levelo_inurba_marseille","lat":43.312239,"lon":5.368562,"is_reserved":false,"is_disabled":false,"rental_uris":{"android":"levelo://app?vid=47a44daa-b75d-4bde-931b-17d069e28e67","ios":"levelo://app?vid=47a44daa-b75d-4bde-931b-17d069e28e67"},"vehicle_type_id":"4","last_reported":1708475629,"current_range_meters":29200,"station_id":"ce4bgl92rcd13ifvqbq0","pricing_plan_id":"cebpf4jnsgd1na2vs0mg"},{"bike_id":"f5a0827b-a5de-4d4f-8737-9f395c8f359f","system_id":"levelo_inurba_marseille","lat":43.314811,"lon":5.373103,"is_reserved":false,"is_disabled":false,"rental_uris":{"android":"levelo://app?vid=f5a0827b-a5de-4d4f-8737-9f395c8f359f","ios":"levelo://app?vid=f5a0827b-a5de-4d4f-8737-9f395c8f359f"},"vehicle_type_id":"4","last_reported":1708475629,"current_range_meters":2400,"station_id":"ce4bgt12rcd13ifvqcd0","pricing_plan_id":"cebpf4jnsgd1na2vs0mg"},{"bike_id":"e3865f3d-0a99-4593-9dc1-185304e12c8f","system_id":"levelo_inurba_marseille","lat":43.314811,"lon":5.373103,"is_reserved":false,"is_disabled":false,"rental_uris":{"android":"levelo://app?vid=e3865f3d-0a99-4593-9dc1-185304e12c8f","ios":"levelo://app?vid=e3865f3d-0a99-4593-9dc1-185304e12c8f"},"vehicle_type_id":"4","last_reported":1708475629,"current_range_meters":8800,"station_id":"ce4bgt12rcd13ifvqcd0","pricing_plan_id":"cebpf4jnsgd1na2vs0mg"},{"bike_id":"d5a6a931-efe4-415d-9d51-aa01df1d9e86","system_id":"levelo_inurba_marseille","lat":43.309039,"lon":5.371797,"is_reserved":false,"is_disabled":false,"rental_uris":{"android":"levelo://app?vid=d5a6a931-efe4-415d-9d51-aa01df1d9e86","ios":"levelo://app?vid=d5a6a931-efe4-415d-9d51-aa01df1d9e86"},"vehicle_type_id":"4","last_reported":1708475629,"current_range_meters":24000,"station_id":"ce4bguh2rcd13ifvqckg","pricing_plan_id":"cebpf4jnsgd1na2vs0mg"},{"bike_id":"f105fb28-8731-4aa1-ae6a-7207f5e415d7","system_id":"levelo_inurba_marseille","lat":43.309039,"lon":5.371797,"is_reserved":false,"is_disabled":false,"rental_uris":{"android":"levelo://app?vid=f105fb28-8731-4aa1-ae6a-7207f5e415d7","ios":"levelo://app?vid=f105fb28-8731-4aa1-ae6a-7207f5e415d7"},"vehicle_type_id":"4","last_reported":1708475629,"current_range_meters":28800,"station_id":"ce4bguh2rcd13ifvqckg","pricing_plan_id":"cebpf4jnsgd1na2vs0mg"},{"bike_id":"190633c6-220b-429e-8d6d-2f84365f6e24","system_id":"levelo_inurba_marseille","lat":43.30884,"lon":5.37205,"is_reserved":false,"is_disabled":false,"rental_uris":{"android":"levelo://app?vid=190633c6-220b-429e-8d6d-2f84365f6e24","ios":"levelo://app?vid=190633c6-220b-429e-8d6d-2f84365f6e24"},"vehicle_type_id":"4","last_reported":1708475629,"current_range_meters":26800,"station_id":"ce4bguh2rcd13ifvqckg","pricing_plan_id":"cebpf4jnsgd1na2vs0mg"},{"bike_id":"2e0ba08b-9659-4d0b-8e6a-e277b29700c2","system_id":"levelo_inurba_marseille","lat":43.305368,"lon":5.367343,"is_reserved":false,"is_disabled":false,"rental_uris":{"android":"levelo://app?vid=2e0ba08b-9659-4d0b-8e6a-e277b29700c2","ios":"levelo://app?vid=2e0ba08b-9659-4d0b-8e6a-e277b29700c2"},"vehicle_type_id":"4","last_reported":1708475629,"current_range_meters":7600,"station_id":"ce4bgrp2rcd13ifvqc9g","pricing_plan_id":"cebpf4jnsgd1na2vs0mg"},{"bike_id":"4fbd4ee0-00b5-4703-8636-cc0af1af817f","system_id":"levelo_inurba_marseille","lat":43.305706,"lon":5.365654,"is_reserved":false,"is_disabled":false,"rental_uris":{"android":"levelo://app?vid=4fbd4ee0-00b5-4703-8636-cc0af1af817f","ios":"levelo://app?vid=4fbd4ee0-00b5-4703-8636-cc0af1af817f"},"vehicle_type_id":"4","last_reported":1708475629,"current_range_meters":17200,"station_id":"ce4bgs12rcd13ifvqcag","pricing_plan_id":"cebpf4jnsgd1na2vs0mg"},{"bike_id":"a6c70ce7-2d24-4ee8-aabf-72eb6a109086","system_id":"levelo_inurba_marseille","lat":43.306,"lon":5.37215,"is_reserved":false,"is_disabled":false,"rental_uris":{"android":"levelo://app?vid=a6c70ce7-2d24-4ee8-aabf-72eb6a109086","ios":"levelo://app?vid=a6c70ce7-2d24-4ee8-aabf-72eb6a109086"},"vehicle_type_id":"4","last_reported":1708475629,"current_range_meters":4400,"station_id":"ce4bgqh2rcd13ifvqc4g","pricing_plan_id":"cebpf4jnsgd1na2vs0mg"},{"bike_id":"c1b8792f-f799-45c2-80ae-2f9727fcec5b","system_id":"levelo_inurba_marseille","lat":43.306,"lon":5.37221,"is_reserved":false,"is_disabled":false,"rental_uris":{"android":"levelo://app?vid=c1b8792f-f799-45c2-80ae-2f9727fcec5b","ios":"levelo://app?vid=c1b8792f-f799-45c2-80ae-2f9727fcec5b"},"vehicle_type_id":"4","last_reported":1708475629,"current_range_meters":16800,"station_id":"ce4bgqh2rcd13ifvqc4g","pricing_plan_id":"cebpf4jnsgd1na2vs0mg"},{"bike_id":"c2d6ba26-df0c-4d93-b28b-a16523e43094","system_id":"levelo_inurba_marseille","lat":43.305989,"lon":5.37225,"is_reserved":false,"is_disabled":false,"rental_uris":{"android":"levelo://app?vid=c2d6ba26-df0c-4d93-b28b-a16523e43094","ios":"levelo://app?vid=c2d6ba26-df0c-4d93-b28b-a16523e43094"},"vehicle_type_id":"4","last_reported":1708475629,"current_range_meters":24000,"station_id":"ce4bgqh2rcd13ifvqc4g","pricing_plan_id":"cebpf4jnsgd1na2vs0mg"},{"bike_id":"f6aaf055-3d73-4941-8a1d-e5b2b3359857","system_id":"levelo_inurba_marseille","lat":43.311131,"lon":5.377651,"is_reserved":false,"is_disabled":false,"rental_uris":{"android":"levelo://app?vid=f6aaf055-3d73-4941-8a1d-e5b2b3359857","ios":"levelo://app?vid=f6aaf055-3d73-4941-8a1d-e5b2b3359857"},"vehicle_type_id":"4","last_reported":1708475629,"current_range_meters":31200,"station_id":"ce4bgt92rcd13ifvqcg0","pricing_plan_id":"cebpf4jnsgd1na2vs0mg"},{"bike_id":"596e02b9-5ac4-4cae-b7f9-aa585732dee9","system_id":"levelo_inurba_marseille","lat":43.311131,"lon":5.377651,"is_reserved":false,"is_disabled":false,"rental_uris":{"android":"levelo://app?vid=596e02b9-5ac4-4cae-b7f9-aa585732dee9","ios":"levelo://app?vid=596e02b9-5ac4-4cae-b7f9-aa585732dee9"},"vehicle_type_id":"4","last_reported":1708475629,"current_range_meters":18400,"station_id":"ce4bgt92rcd13ifvqcg0","pricing_plan_id":"cebpf4jnsgd1na2vs0mg"},{"bike_id":"f2f85a80-d5c5-4512-b23d-a1055af056d6","system_id":"levelo_inurba_marseille","lat":43.311147,"lon":5.37762,"is_reserved":false,"is_disabled":false,"rental_uris":{"android":"levelo://app?vid=f2f85a80-d5c5-4512-b23d-a1055af056d6","ios":"levelo://app?vid=f2f85a80-d5c5-4512-b23d-a1055af056d6"},"vehicle_type_id":"4","last_reported":1708475629,"current_range_meters":12800,"station_id":"ce4bgt92rcd13ifvqcg0","pricing_plan_id":"cebpf4jnsgd1na2vs0mg"},{"bike_id":"9e68b400-3a9c-44cf-b8bf-f1c2089a49df","system_id":"levelo_inurba_marseille","lat":43.311131,"lon":5.377651,"is_reserved":false,"is_disabled":false,"rental_uris":{"android":"levelo://app?vid=9e68b400-3a9c-44cf-b8bf-f1c2089a49df","ios":"levelo://app?vid=9e68b400-3a9c-44cf-b8bf-f1c2089a49df"},"vehicle_type_id":"4","last_reported":1708475629,"current_range_meters":6400,"station_id":"ce4bgt92rcd13ifvqcg0","pricing_plan_id":"cebpf4jnsgd1na2vs0mg"},{"bike_id":"d49c04a3-c889-40e2-a251-7a44a3f63634","system_id":"levelo_inurba_marseille","lat":43.311131,"lon":5.377651,"is_reserved":false,"is_disabled":false,"rental_uris":{"android":"levelo://app?vid=d49c04a3-c889-40e2-a251-7a44a3f63634","ios":"levelo://app?vid=d49c04a3-c889-40e2-a251-7a44a3f63634"},"vehicle_type_id":"4","last_reported":1708475629,"current_range_meters":14800,"station_id":"ce4bgt92rcd13ifvqcg0","pricing_plan_id":"cebpf4jnsgd1na2vs0mg"},{"bike_id":"ea61b4f7-b353-4c08-9f75-2df755db827d","system_id":"levelo_inurba_marseille","lat":43.31113,"lon":5.37782,"is_reserved":false,"is_disabled":false,"rental_uris":{"android":"levelo://app?vid=ea61b4f7-b353-4c08-9f75-2df755db827d","ios":"levelo://app?vid=ea61b4f7-b353-4c08-9f75-2df755db827d"},"vehicle_type_id":"4","last_reported":1708475629,"current_range_meters":0,"station_id":"ce4bgt92rcd13ifvqcg0","pricing_plan_id":"cebpf4jnsgd1na2vs0mg"},{"bike_id":"dc22c28f-522a-4fb4-b7ab-c6251b90de82","system_id":"levelo_inurba_marseille","lat":43.31654,"lon":5.37675,"is_reserved":false,"is_disabled":false,"rental_uris":{"android":"levelo://app?vid=dc22c28f-522a-4fb4-b7ab-c6251b90de82","ios":"levelo://app?vid=dc22c28f-522a-4fb4-b7ab-c6251b90de82"},"vehicle_type_id":"4","last_reported":1708475629,"current_range_meters":29600,"station_id":"","pricing_plan_id":"cebpf4jnsgd1na2vs0mg"},{"bike_id":"f89faff1-8a8a-4de7-996b-028b668d8098","system_id":"levelo_inurba_marseille","lat":43.307945,"lon":5.376487,"is_reserved":false,"is_disabled":false,"rental_uris":{"android":"levelo://app?vid=f89faff1-8a8a-4de7-996b-028b668d8098","ios":"levelo://app?vid=f89faff1-8a8a-4de7-996b-028b668d8098"},"vehicle_type_id":"4","last_reported":1708475629,"current_range_meters":29200,"station_id":"ce4bgv92rcd13ifvqcq0","pricing_plan_id":"cebpf4jnsgd1na2vs0mg"},{"bike_id":"2c55d2bf-6392-406a-9201-2b8b7456c3ba","system_id":"levelo_inurba_marseille","lat":43.307945,"lon":5.376487,"is_reserved":false,"is_disabled":false,"rental_uris":{"android":"levelo://app?vid=2c55d2bf-6392-406a-9201-2b8b7456c3ba","ios":"levelo://app?vid=2c55d2bf-6392-406a-9201-2b8b7456c3ba"},"vehicle_type_id":"4","last_reported":1708475629,"current_range_meters":26400,"station_id":"ce4bgv92rcd13ifvqcq0","pricing_plan_id":"cebpf4jnsgd1na2vs0mg"},{"bike_id":"3765168d-e47b-4b95-b34b-fb916cd04606","system_id":"levelo_inurba_marseille","lat":43.307945,"lon":5.376487,"is_reserved":false,"is_disabled":false,"rental_uris":{"android":"levelo://app?vid=3765168d-e47b-4b95-b34b-fb916cd04606","ios":"levelo://app?vid=3765168d-e47b-4b95-b34b-fb916cd04606"},"vehicle_type_id":"4","last_reported":1708475629,"current_range_meters":31200,"station_id":"ce4bgv92rcd13ifvqcq0","pricing_plan_id":"cebpf4jnsgd1na2vs0mg"},{"bike_id":"dfd05ef1-cd4c-41ab-9576-4dd338b22229","system_id":"levelo_inurba_marseille","lat":43.307945,"lon":5.376487,"is_reserved":false,"is_disabled":false,"rental_uris":{"android":"levelo://app?vid=dfd05ef1-cd4c-41ab-9576-4dd338b22229","ios":"levelo://app?vid=dfd05ef1-cd4c-41ab-9576-4dd338b22229"},"vehicle_type_id":"4","last_reported":1708475629,"current_range_meters":10400,"station_id":"ce4bgv92rcd13ifvqcq0","pricing_plan_id":"cebpf4jnsgd1na2vs0mg"},{"bike_id":"dd2b686a-f736-4829-957e-07897b032d5d","system_id":"levelo_inurba_marseille","lat":43.317075,"lon":5.377367,"is_reserved":false,"is_disabled":false,"rental_uris":{"android":"levelo://app?vid=dd2b686a-f736-4829-957e-07897b032d5d","ios":"levelo://app?vid=dd2b686a-f736-4829-957e-07897b032d5d"},"vehicle_type_id":"4","last_reported":1708475629,"current_range_meters":26400,"station_id":"ce4bgth2rcd13ifvqch0","pricing_plan_id":"cebpf4jnsgd1na2vs0mg"},{"bike_id":"f2dfa75f-eb4e-4f9c-9729-85a59db10d6c","system_id":"levelo_inurba_marseille","lat":43.317098,"lon":5.3775,"is_reserved":false,"is_disabled":false,"rental_uris":{"android":"levelo://app?vid=f2dfa75f-eb4e-4f9c-9729-85a59db10d6c","ios":"levelo://app?vid=f2dfa75f-eb4e-4f9c-9729-85a59db10d6c"},"vehicle_type_id":"4","last_reported":1708475629,"current_range_meters":20400,"station_id":"","pricing_plan_id":"cebpf4jnsgd1na2vs0mg"},{"bike_id":"a8da9c64-ff44-452d-a385-0c6903f4db99","system_id":"levelo_inurba_marseille","lat":43.315265,"lon":5.380387,"is_reserved":false,"is_disabled":false,"rental_uris":{"android":"levelo://app?vid=a8da9c64-ff44-452d-a385-0c6903f4db99","ios":"levelo://app?vid=a8da9c64-ff44-452d-a385-0c6903f4db99"},"vehicle_type_id":"4","last_reported":1708475629,"current_range_meters":10000,"station_id":"ce4bhsp2rcd13ifvqi50","pricing_plan_id":"cebpf4jnsgd1na2vs0mg"},{"bike_id":"78a39ed1-c80f-4b4f-a605-806effcf0666","system_id":"levelo_inurba_marseille","lat":43.3019,"lon":5.36623,"is_reserved":false,"is_disabled":false,"rental_uris":{"android":"levelo://app?vid=78a39ed1-c80f-4b4f-a605-806effcf0666","ios":"levelo://app?vid=78a39ed1-c80f-4b4f-a605-806effcf0666"},"vehicle_type_id":"4","last_reported":1708475629,"current_range_meters":3600,"station_id":"ce4bgrh2rcd13ifvqc8g","pricing_plan_id":"cebpf4jnsgd1na2vs0mg"},{"bike_id":"5e5df265-91d8-4539-8719-05478c0f53e5","system_id":"levelo_inurba_marseille","lat":43.301939,"lon":5.366286,"is_reserved":false,"is_disabled":false,"rental_uris":{"android":"levelo://app?vid=5e5df265-91d8-4539-8719-05478c0f53e5","ios":"levelo://app?vid=5e5df265-91d8-4539-8719-05478c0f53e5"},"vehicle_type_id":"4","last_reported":1708475629,"current_range_meters":16400,"station_id":"ce4bgrh2rcd13ifvqc8g","pricing_plan_id":"cebpf4jnsgd1na2vs0mg"},{"bike_id":"6db2103b-b6c6-489d-bb7c-54632ba4b5ab","system_id":"levelo_inurba_marseille","lat":43.301939,"lon":5.366286,"is_reserved":false,"is_disabled":false,"rental_uris":{"android":"levelo://app?vid=6db2103b-b6c6-489d-bb7c-54632ba4b5ab","ios":"levelo://app?vid=6db2103b-b6c6-489d-bb7c-54632ba4b5ab"},"vehicle_type_id":"4","last_reported":1708475629,"current_range_meters":23200,"station_id":"ce4bgrh2rcd13ifvqc8g","pricing_plan_id":"cebpf4jnsgd1na2vs0mg"},{"bike_id":"df2e8be1-a186-4acb-8794-3d09859ca296","system_id":"levelo_inurba_marseille","lat":43.308012,"lon":5.381511,"is_reserved":false,"is_disabled":false,"rental_uris":{"android":"levelo://app?vid=df2e8be1-a186-4acb-8794-3d09859ca296","ios":"levelo://app?vid=df2e8be1-a186-4acb-8794-3d09859ca296"},"vehicle_type_id":"4","last_reported":1708475629,"current_range_meters":29600,"station_id":"ce4bgt12rcd13ifvqce0","pricing_plan_id":"cebpf4jnsgd1na2vs0mg"},{"bike_id":"70bf0c1f-9a4b-451f-93df-c58e0efc1873","system_id":"levelo_inurba_marseille","lat":43.308012,"lon":5.381511,"is_reserved":false,"is_disabled":false,"rental_uris":{"android":"levelo://app?vid=70bf0c1f-9a4b-451f-93df-c58e0efc1873","ios":"levelo://app?vid=70bf0c1f-9a4b-451f-93df-c58e0efc1873"},"vehicle_type_id":"4","last_reported":1708475629,"current_range_meters":27600,"station_id":"ce4bgt12rcd13ifvqce0","pricing_plan_id":"cebpf4jnsgd1na2vs0mg"},{"bike_id":"8988ab5a-bee0-40a7-aabb-7ecdaaa3eb15","system_id":"levelo_inurba_marseille","lat":43.308012,"lon":5.381511,"is_reserved":false,"is_disabled":false,"rental_uris":{"android":"levelo://app?vid=8988ab5a-bee0-40a7-aabb-7ecdaaa3eb15","ios":"levelo://app?vid=8988ab5a-bee0-40a7-aabb-7ecdaaa3eb15"},"vehicle_type_id":"4","last_reported":1708475629,"current_range_meters":21600,"station_id":"ce4bgt12rcd13ifvqce0","pricing_plan_id":"cebpf4jnsgd1na2vs0mg"},{"bike_id":"a239bfdb-ca4b-4d40-a2a0-55537b1612cd","system_id":"levelo_inurba_marseille","lat":43.308012,"lon":5.381511,"is_reserved":false,"is_disabled":false,"rental_uris":{"android":"levelo://app?vid=a239bfdb-ca4b-4d40-a2a0-55537b1612cd","ios":"levelo://app?vid=a239bfdb-ca4b-4d40-a2a0-55537b1612cd"},"vehicle_type_id":"4","last_reported":1708475629,"current_range_meters":10800,"station_id":"ce4bgt12rcd13ifvqce0","pricing_plan_id":"cebpf4jnsgd1na2vs0mg"},{"bike_id":"90c09e7e-3504-42fe-9e6f-0cbbdaae6d7e","system_id":"levelo_inurba_marseille","lat":43.308012,"lon":5.381511,"is_reserved":false,"is_disabled":false,"rental_uris":{"android":"levelo://app?vid=90c09e7e-3504-42fe-9e6f-0cbbdaae6d7e","ios":"levelo://app?vid=90c09e7e-3504-42fe-9e6f-0cbbdaae6d7e"},"vehicle_type_id":"4","last_reported":1708475629,"current_range_meters":14800,"station_id":"ce4bgt12rcd13ifvqce0","pricing_plan_id":"cebpf4jnsgd1na2vs0mg"},{"bike_id":"8a7d0271-30bd-4efc-bc7e-8bd9d2550f4c","system_id":"levelo_inurba_marseille","lat":43.308012,"lon":5.381511,"is_reserved":false,"is_disabled":false,"rental_uris":{"android":"levelo://app?vid=8a7d0271-30bd-4efc-bc7e-8bd9d2550f4c","ios":"levelo://app?vid=8a7d0271-30bd-4efc-bc7e-8bd9d2550f4c"},"vehicle_type_id":"4","last_reported":1708475629,"current_range_meters":14000,"station_id":"ce4bgt12rcd13ifvqce0","pricing_plan_id":"cebpf4jnsgd1na2vs0mg"},{"bike_id":"595eb2bb-1f28-48fe-94cb-f22712e9d625","system_id":"levelo_inurba_marseille","lat":43.30815,"lon":5.38195,"is_reserved":false,"is_disabled":false,"rental_uris":{"android":"levelo://app?vid=595eb2bb-1f28-48fe-94cb-f22712e9d625","ios":"levelo://app?vid=595eb2bb-1f28-48fe-94cb-f22712e9d625"},"vehicle_type_id":"4","last_reported":1708475629,"current_range_meters":17600,"station_id":"","pricing_plan_id":"cebpf4jnsgd1na2vs0mg"},{"bike_id":"cda8eb5b-2134-4fe4-b0ac-1209e0bbc329","system_id":"levelo_inurba_marseille","lat":43.324771,"lon":5.36557,"is_reserved":false,"is_disabled":false,"rental_uris":{"android":"levelo://app?vid=cda8eb5b-2134-4fe4-b0ac-1209e0bbc329","ios":"levelo://app?vid=cda8eb5b-2134-4fe4-b0ac-1209e0bbc329"},"vehicle_type_id":"4","last_reported":1708475629,"current_range_meters":15600,"station_id":"ce4bhs12rcd13ifvqhvg","pricing_plan_id":"cebpf4jnsgd1na2vs0mg"},{"bike_id":"2a251856-e1b8-4c18-a0a0-94a2c0abc5e4","system_id":"levelo_inurba_marseille","lat":43.324771,"lon":5.36557,"is_reserved":false,"is_disabled":false,"rental_uris":{"android":"levelo://app?vid=2a251856-e1b8-4c18-a0a0-94a2c0abc5e4","ios":"levelo://app?vid=2a251856-e1b8-4c18-a0a0-94a2c0abc5e4"},"vehicle_type_id":"4","last_reported":1708475629,"current_range_meters":28000,"station_id":"ce4bhs12rcd13ifvqhvg","pricing_plan_id":"cebpf4jnsgd1na2vs0mg"},{"bike_id":"caaf26f8-fbed-445b-be7b-3ecf625cc521","system_id":"levelo_inurba_marseille","lat":43.324771,"lon":5.36557,"is_reserved":false,"is_disabled":false,"rental_uris":{"android":"levelo://app?vid=caaf26f8-fbed-445b-be7b-3ecf625cc521","ios":"levelo://app?vid=caaf26f8-fbed-445b-be7b-3ecf625cc521"},"vehicle_type_id":"4","last_reported":1708475629,"current_range_meters":29200,"station_id":"ce4bhs12rcd13ifvqhvg","pricing_plan_id":"cebpf4jnsgd1na2vs0mg"},{"bike_id":"4cd60cd3-101b-4a05-9703-76840434a255","system_id":"levelo_inurba_marseille","lat":43.324771,"lon":5.36557,"is_reserved":false,"is_disabled":false,"rental_uris":{"android":"levelo://app?vid=4cd60cd3-101b-4a05-9703-76840434a255","ios":"levelo://app?vid=4cd60cd3-101b-4a05-9703-76840434a255"},"vehicle_type_id":"4","last_reported":1708475629,"current_range_meters":23200,"station_id":"ce4bhs12rcd13ifvqhvg","pricing_plan_id":"cebpf4jnsgd1na2vs0mg"},{"bike_id":"3bbc04bb-dbdd-4536-a593-19fd850bed52","system_id":"levelo_inurba_marseille","lat":43.324771,"lon":5.36557,"is_reserved":false,"is_disabled":false,"rental_uris":{"android":"levelo://app?vid=3bbc04bb-dbdd-4536-a593-19fd850bed52","ios":"levelo://app?vid=3bbc04bb-dbdd-4536-a593-19fd850bed52"},"vehicle_type_id":"4","last_reported":1708475629,"current_range_meters":3200,"station_id":"ce4bhs12rcd13ifvqhvg","pricing_plan_id":"cebpf4jnsgd1na2vs0mg"},{"bike_id":"31aa5761-3c44-4914-aeda-afacf159677a","system_id":"levelo_inurba_marseille","lat":43.310804,"lon":5.38359,"is_reserved":false,"is_disabled":false,"rental_uris":{"android":"levelo://app?vid=31aa5761-3c44-4914-aeda-afacf159677a","ios":"levelo://app?vid=31aa5761-3c44-4914-aeda-afacf159677a"},"vehicle_type_id":"4","last_reported":1708475629,"current_range_meters":19200,"station_id":"ce4bgv92rcd13ifvqcr0","pricing_plan_id":"cebpf4jnsgd1na2vs0mg"},{"bike_id":"1b487b6d-34c4-4361-92b5-121164332e2c","system_id":"levelo_inurba_marseille","lat":43.310804,"lon":5.38359,"is_reserved":false,"is_disabled":false,"rental_uris":{"android":"levelo://app?vid=1b487b6d-34c4-4361-92b5-121164332e2c","ios":"levelo://app?vid=1b487b6d-34c4-4361-92b5-121164332e2c"},"vehicle_type_id":"4","last_reported":1708475629,"current_range_meters":26000,"station_id":"ce4bgv92rcd13ifvqcr0","pricing_plan_id":"cebpf4jnsgd1na2vs0mg"},{"bike_id":"b5968079-2ef0-4f12-a567-dc85c2cbd3d4","system_id":"levelo_inurba_marseille","lat":43.30137,"lon":5.37409,"is_reserved":false,"is_disabled":false,"rental_uris":{"android":"levelo://app?vid=b5968079-2ef0-4f12-a567-dc85c2cbd3d4","ios":"levelo://app?vid=b5968079-2ef0-4f12-a567-dc85c2cbd3d4"},"vehicle_type_id":"4","last_reported":1708475629,"current_range_meters":12400,"station_id":"ce4bgs92rcd13ifvqcc0","pricing_plan_id":"cebpf4jnsgd1na2vs0mg"},{"bike_id":"c47c7938-4926-4eb9-9927-34cf20db3fa0","system_id":"levelo_inurba_marseille","lat":43.301429,"lon":5.37413,"is_reserved":false,"is_disabled":false,"rental_uris":{"android":"levelo://app?vid=c47c7938-4926-4eb9-9927-34cf20db3fa0","ios":"levelo://app?vid=c47c7938-4926-4eb9-9927-34cf20db3fa0"},"vehicle_type_id":"4","last_reported":1708475629,"current_range_meters":21600,"station_id":"ce4bgs92rcd13ifvqcc0","pricing_plan_id":"cebpf4jnsgd1na2vs0mg"},{"bike_id":"63143a37-fb22-47f3-9b42-20c7dfb13dfc","system_id":"levelo_inurba_marseille","lat":43.319935,"lon":5.381699,"is_reserved":false,"is_disabled":false,"rental_uris":{"android":"levelo://app?vid=63143a37-fb22-47f3-9b42-20c7dfb13dfc","ios":"levelo://app?vid=63143a37-fb22-47f3-9b42-20c7dfb13dfc"},"vehicle_type_id":"4","last_reported":1708475629,"current_range_meters":14800,"station_id":"ce4bhr12rcd13ifvqhpg","pricing_plan_id":"cebpf4jnsgd1na2vs0mg"},{"bike_id":"4da0bc28-1f1b-4133-aeb1-e5fa264d8ee7","system_id":"levelo_inurba_marseille","lat":43.31546,"lon":5.38453,"is_reserved":false,"is_disabled":false,"rental_uris":{"android":"levelo://app?vid=4da0bc28-1f1b-4133-aeb1-e5fa264d8ee7","ios":"levelo://app?vid=4da0bc28-1f1b-4133-aeb1-e5fa264d8ee7"},"vehicle_type_id":"4","last_reported":1708475629,"current_range_meters":21200,"station_id":"","pricing_plan_id":"cebpf4jnsgd1na2vs0mg"},{"bike_id":"e658e32d-4803-4363-80bb-acd9039a75b6","system_id":"levelo_inurba_marseille","lat":43.313571,"lon":5.384829,"is_reserved":false,"is_disabled":false,"rental_uris":{"android":"levelo://app?vid=e658e32d-4803-4363-80bb-acd9039a75b6","ios":"levelo://app?vid=e658e32d-4803-4363-80bb-acd9039a75b6"},"vehicle_type_id":"4","last_reported":1708475629,"current_range_meters":26400,"station_id":"ce4bgt92rcd13ifvqcf0","pricing_plan_id":"cebpf4jnsgd1na2vs0mg"},{"bike_id":"e778ed09-c729-45a4-9bb3-2995f5f6b10d","system_id":"levelo_inurba_marseille","lat":43.313571,"lon":5.384829,"is_reserved":false,"is_disabled":false,"rental_uris":{"android":"levelo://app?vid=e778ed09-c729-45a4-9bb3-2995f5f6b10d","ios":"levelo://app?vid=e778ed09-c729-45a4-9bb3-2995f5f6b10d"},"vehicle_type_id":"4","last_reported":1708475629,"current_range_meters":25600,"station_id":"ce4bgt92rcd13ifvqcf0","pricing_plan_id":"cebpf4jnsgd1na2vs0mg"},{"bike_id":"81ac9dd6-a519-4062-a57b-28e3a1b96c67","system_id":"levelo_inurba_marseille","lat":43.313571,"lon":5.384829,"is_reserved":false,"is_disabled":false,"rental_uris":{"android":"levelo://app?vid=81ac9dd6-a519-4062-a57b-28e3a1b96c67","ios":"levelo://app?vid=81ac9dd6-a519-4062-a57b-28e3a1b96c67"},"vehicle_type_id":"4","last_reported":1708475629,"current_range_meters":22400,"station_id":"ce4bgt92rcd13ifvqcf0","pricing_plan_id":"cebpf4jnsgd1na2vs0mg"},{"bike_id":"6cb43481-661c-40c6-8d76-28ebf2bca466","system_id":"levelo_inurba_marseille","lat":43.313571,"lon":5.384829,"is_reserved":false,"is_disabled":false,"rental_uris":{"android":"levelo://app?vid=6cb43481-661c-40c6-8d76-28ebf2bca466","ios":"levelo://app?vid=6cb43481-661c-40c6-8d76-28ebf2bca466"},"vehicle_type_id":"4","last_reported":1708475629,"current_range_meters":24400,"station_id":"ce4bgt92rcd13ifvqcf0","pricing_plan_id":"cebpf4jnsgd1na2vs0mg"},{"bike_id":"821390cd-e35d-49a0-926b-5a55346ddfa9","system_id":"levelo_inurba_marseille","lat":43.299222,"lon":5.365554,"is_reserved":false,"is_disabled":false,"rental_uris":{"android":"levelo://app?vid=821390cd-e35d-49a0-926b-5a55346ddfa9","ios":"levelo://app?vid=821390cd-e35d-49a0-926b-5a55346ddfa9"},"vehicle_type_id":"4","last_reported":1708475629,"current_range_meters":11200,"station_id":"ce4bgm92rcd13ifvqbr0","pricing_plan_id":"cebpf4jnsgd1na2vs0mg"},{"bike_id":"06f92dfa-80f2-4ccd-8e28-8a691c8e3358","system_id":"levelo_inurba_marseille","lat":43.299724,"lon":5.371829,"is_reserved":false,"is_disabled":false,"rental_uris":{"android":"levelo://app?vid=06f92dfa-80f2-4ccd-8e28-8a691c8e3358","ios":"levelo://app?vid=06f92dfa-80f2-4ccd-8e28-8a691c8e3358"},"vehicle_type_id":"4","last_reported":1708475629,"current_range_meters":19200,"station_id":"ce4bgr92rcd13ifvqc7g","pricing_plan_id":"cebpf4jnsgd1na2vs0mg"},{"bike_id":"e378fe0e-72c6-4a95-8ac1-77d12c0249b5","system_id":"levelo_inurba_marseille","lat":43.299724,"lon":5.371829,"is_reserved":false,"is_disabled":false,"rental_uris":{"android":"levelo://app?vid=e378fe0e-72c6-4a95-8ac1-77d12c0249b5","ios":"levelo://app?vid=e378fe0e-72c6-4a95-8ac1-77d12c0249b5"},"vehicle_type_id":"4","last_reported":1708475629,"current_range_meters":13600,"station_id":"ce4bgr92rcd13ifvqc7g","pricing_plan_id":"cebpf4jnsgd1na2vs0mg"},{"bike_id":"304f4cb8-1c8b-4709-8f34-a8ecf986cc7d","system_id":"levelo_inurba_marseille","lat":43.299724,"lon":5.371829,"is_reserved":false,"is_disabled":false,"rental_uris":{"android":"levelo://app?vid=304f4cb8-1c8b-4709-8f34-a8ecf986cc7d","ios":"levelo://app?vid=304f4cb8-1c8b-4709-8f34-a8ecf986cc7d"},"vehicle_type_id":"4","last_reported":1708475629,"current_range_meters":4000,"station_id":"ce4bgr92rcd13ifvqc7g","pricing_plan_id":"cebpf4jnsgd1na2vs0mg"},{"bike_id":"8c41eccb-81c5-40f4-8008-3e8468fe8445","system_id":"levelo_inurba_marseille","lat":43.299724,"lon":5.371829,"is_reserved":false,"is_disabled":false,"rental_uris":{"android":"levelo://app?vid=8c41eccb-81c5-40f4-8008-3e8468fe8445","ios":"levelo://app?vid=8c41eccb-81c5-40f4-8008-3e8468fe8445"},"vehicle_type_id":"4","last_reported":1708475629,"current_range_meters":24000,"station_id":"ce4bgr92rcd13ifvqc7g","pricing_plan_id":"cebpf4jnsgd1na2vs0mg"},{"bike_id":"ccc6644e-ec80-42b8-8cc7-318e6dfe2dec","system_id":"levelo_inurba_marseille","lat":43.298433,"lon":5.362774,"is_reserved":false,"is_disabled":false,"rental_uris":{"android":"levelo://app?vid=ccc6644e-ec80-42b8-8cc7-318e6dfe2dec","ios":"levelo://app?vid=ccc6644e-ec80-42b8-8cc7-318e6dfe2dec"},"vehicle_type_id":"4","last_reported":1708475629,"current_range_meters":9600,"station_id":"ce4bgpp2rcd13ifvqc3g","pricing_plan_id":"cebpf4jnsgd1na2vs0mg"},{"bike_id":"c2b1046e-e8d3-43de-aecc-a2e89a57c5eb","system_id":"levelo_inurba_marseille","lat":43.305364,"lon":5.384119,"is_reserved":false,"is_disabled":false,"rental_uris":{"android":"levelo://app?vid=c2b1046e-e8d3-43de-aecc-a2e89a57c5eb","ios":"levelo://app?vid=c2b1046e-e8d3-43de-aecc-a2e89a57c5eb"},"vehicle_type_id":"4","last_reported":1708475629,"current_range_meters":3200,"station_id":"ce4bgg92rcd13ifvqb30","pricing_plan_id":"cebpf4jnsgd1na2vs0mg"},{"bike_id":"af859e61-a248-4219-844b-975daadbaafd","system_id":"levelo_inurba_marseille","lat":43.305364,"lon":5.384119,"is_reserved":false,"is_disabled":false,"rental_uris":{"android":"levelo://app?vid=af859e61-a248-4219-844b-975daadbaafd","ios":"levelo://app?vid=af859e61-a248-4219-844b-975daadbaafd"},"vehicle_type_id":"4","last_reported":1708475629,"current_range_meters":24800,"station_id":"ce4bgg92rcd13ifvqb30","pricing_plan_id":"cebpf4jnsgd1na2vs0mg"},{"bike_id":"8d89379c-19f0-4e74-a3de-11e7b25d39e3","system_id":"levelo_inurba_marseille","lat":43.305364,"lon":5.384119,"is_reserved":false,"is_disabled":false,"rental_uris":{"android":"levelo://app?vid=8d89379c-19f0-4e74-a3de-11e7b25d39e3","ios":"levelo://app?vid=8d89379c-19f0-4e74-a3de-11e7b25d39e3"},"vehicle_type_id":"4","last_reported":1708475629,"current_range_meters":28400,"station_id":"ce4bgg92rcd13ifvqb30","pricing_plan_id":"cebpf4jnsgd1na2vs0mg"},{"bike_id":"3e69f191-dd8d-44b8-873e-e06e40abeb15","system_id":"levelo_inurba_marseille","lat":43.299243,"lon":5.37481,"is_reserved":false,"is_disabled":false,"rental_uris":{"android":"levelo://app?vid=3e69f191-dd8d-44b8-873e-e06e40abeb15","ios":"levelo://app?vid=3e69f191-dd8d-44b8-873e-e06e40abeb15"},"vehicle_type_id":"4","last_reported":1708475629,"current_range_meters":6800,"station_id":"ce4bgjh2rcd13ifvqbg0","pricing_plan_id":"cebpf4jnsgd1na2vs0mg"},{"bike_id":"8a043726-9f47-449e-ac0a-e633b7ae1a0b","system_id":"levelo_inurba_marseille","lat":43.299243,"lon":5.374807,"is_reserved":false,"is_disabled":false,"rental_uris":{"android":"levelo://app?vid=8a043726-9f47-449e-ac0a-e633b7ae1a0b","ios":"levelo://app?vid=8a043726-9f47-449e-ac0a-e633b7ae1a0b"},"vehicle_type_id":"4","last_reported":1708475629,"current_range_meters":0,"station_id":"ce4bgjh2rcd13ifvqbg0","pricing_plan_id":"cebpf4jnsgd1na2vs0mg"},{"bike_id":"f1d9aa1f-d7bf-4a67-bed6-307ea08e9ecc","system_id":"levelo_inurba_marseille","lat":43.311722,"lon":5.387247,"is_reserved":false,"is_disabled":false,"rental_uris":{"android":"levelo://app?vid=f1d9aa1f-d7bf-4a67-bed6-307ea08e9ecc","ios":"levelo://app?vid=f1d9aa1f-d7bf-4a67-bed6-307ea08e9ecc"},"vehicle_type_id":"4","last_reported":1708475629,"current_range_meters":31200,"station_id":"ce4bgv12rcd13ifvqcp0","pricing_plan_id":"cebpf4jnsgd1na2vs0mg"},{"bike_id":"fcb1cf5f-e771-4363-b8dd-388da88c52e4","system_id":"levelo_inurba_marseille","lat":43.311722,"lon":5.387247,"is_reserved":false,"is_disabled":false,"rental_uris":{"android":"levelo://app?vid=fcb1cf5f-e771-4363-b8dd-388da88c52e4","ios":"levelo://app?vid=fcb1cf5f-e771-4363-b8dd-388da88c52e4"},"vehicle_type_id":"4","last_reported":1708475629,"current_range_meters":15600,"station_id":"ce4bgv12rcd13ifvqcp0","pricing_plan_id":"cebpf4jnsgd1na2vs0mg"},{"bike_id":"36d006cd-6ef3-4b9f-92f1-d4632f34929e","system_id":"levelo_inurba_marseille","lat":43.311722,"lon":5.387247,"is_reserved":false,"is_disabled":false,"rental_uris":{"android":"levelo://app?vid=36d006cd-6ef3-4b9f-92f1-d4632f34929e","ios":"levelo://app?vid=36d006cd-6ef3-4b9f-92f1-d4632f34929e"},"vehicle_type_id":"4","last_reported":1708475629,"current_range_meters":26400,"station_id":"ce4bgv12rcd13ifvqcp0","pricing_plan_id":"cebpf4jnsgd1na2vs0mg"},{"bike_id":"f6a86732-d769-4a07-8a0f-0c7f0b7570df","system_id":"levelo_inurba_marseille","lat":43.311722,"lon":5.387247,"is_reserved":false,"is_disabled":false,"rental_uris":{"android":"levelo://app?vid=f6a86732-d769-4a07-8a0f-0c7f0b7570df","ios":"levelo://app?vid=f6a86732-d769-4a07-8a0f-0c7f0b7570df"},"vehicle_type_id":"4","last_reported":1708475629,"current_range_meters":29600,"station_id":"ce4bgv12rcd13ifvqcp0","pricing_plan_id":"cebpf4jnsgd1na2vs0mg"},{"bike_id":"b8fded91-470c-440e-84dc-874ba2e0aad6","system_id":"levelo_inurba_marseille","lat":43.311722,"lon":5.387247,"is_reserved":false,"is_disabled":false,"rental_uris":{"android":"levelo://app?vid=b8fded91-470c-440e-84dc-874ba2e0aad6","ios":"levelo://app?vid=b8fded91-470c-440e-84dc-874ba2e0aad6"},"vehicle_type_id":"4","last_reported":1708475629,"current_range_meters":24800,"station_id":"ce4bgv12rcd13ifvqcp0","pricing_plan_id":"cebpf4jnsgd1na2vs0mg"},{"bike_id":"1176da8f-7365-4c1e-b5b7-36810e521dd2","system_id":"levelo_inurba_marseille","lat":43.311722,"lon":5.387247,"is_reserved":false,"is_disabled":false,"rental_uris":{"android":"levelo://app?vid=1176da8f-7365-4c1e-b5b7-36810e521dd2","ios":"levelo://app?vid=1176da8f-7365-4c1e-b5b7-36810e521dd2"},"vehicle_type_id":"4","last_reported":1708475629,"current_range_meters":23600,"station_id":"ce4bgv12rcd13ifvqcp0","pricing_plan_id":"cebpf4jnsgd1na2vs0mg"},{"bike_id":"52f676c6-5cf0-491a-8b15-62850e39bdba","system_id":"levelo_inurba_marseille","lat":43.311722,"lon":5.387247,"is_reserved":false,"is_disabled":false,"rental_uris":{"android":"levelo://app?vid=52f676c6-5cf0-491a-8b15-62850e39bdba","ios":"levelo://app?vid=52f676c6-5cf0-491a-8b15-62850e39bdba"},"vehicle_type_id":"4","last_reported":1708475629,"current_range_meters":10400,"station_id":"ce4bgv12rcd13ifvqcp0","pricing_plan_id":"cebpf4jnsgd1na2vs0mg"},{"bike_id":"85f63773-9199-4155-8c25-c045cec38a4f","system_id":"levelo_inurba_marseille","lat":43.299243,"lon":5.37481,"is_reserved":false,"is_disabled":false,"rental_uris":{"android":"levelo://app?vid=85f63773-9199-4155-8c25-c045cec38a4f","ios":"levelo://app?vid=85f63773-9199-4155-8c25-c045cec38a4f"},"vehicle_type_id":"4","last_reported":1708475629,"current_range_meters":29200,"station_id":"ce4bgjh2rcd13ifvqbg0","pricing_plan_id":"cebpf4jnsgd1na2vs0mg"},{"bike_id":"5b046f06-3205-494b-ba51-370fa8e1a8ad","system_id":"levelo_inurba_marseille","lat":43.311722,"lon":5.387247,"is_reserved":false,"is_disabled":false,"rental_uris":{"android":"levelo://app?vid=5b046f06-3205-494b-ba51-370fa8e1a8ad","ios":"levelo://app?vid=5b046f06-3205-494b-ba51-370fa8e1a8ad"},"vehicle_type_id":"4","last_reported":1708475629,"current_range_meters":6400,"station_id":"ce4bgv12rcd13ifvqcp0","pricing_plan_id":"cebpf4jnsgd1na2vs0mg"},{"bike_id":"9b1fb2ca-9878-4096-b64f-b31af39dfa93","system_id":"levelo_inurba_marseille","lat":43.311722,"lon":5.387247,"is_reserved":false,"is_disabled":false,"rental_uris":{"android":"levelo://app?vid=9b1fb2ca-9878-4096-b64f-b31af39dfa93","ios":"levelo://app?vid=9b1fb2ca-9878-4096-b64f-b31af39dfa93"},"vehicle_type_id":"4","last_reported":1708475629,"current_range_meters":27200,"station_id":"ce4bgv12rcd13ifvqcp0","pricing_plan_id":"cebpf4jnsgd1na2vs0mg"},{"bike_id":"f199a6da-708f-43bf-9738-6d2f4219f75f","system_id":"levelo_inurba_marseille","lat":43.311722,"lon":5.387247,"is_reserved":false,"is_disabled":false,"rental_uris":{"android":"levelo://app?vid=f199a6da-708f-43bf-9738-6d2f4219f75f","ios":"levelo://app?vid=f199a6da-708f-43bf-9738-6d2f4219f75f"},"vehicle_type_id":"4","last_reported":1708475629,"current_range_meters":25200,"station_id":"ce4bgv12rcd13ifvqcp0","pricing_plan_id":"cebpf4jnsgd1na2vs0mg"},{"bike_id":"800eb89b-4193-4014-8dfb-85d246b402f5","system_id":"levelo_inurba_marseille","lat":43.311722,"lon":5.387247,"is_reserved":false,"is_disabled":false,"rental_uris":{"android":"levelo://app?vid=800eb89b-4193-4014-8dfb-85d246b402f5","ios":"levelo://app?vid=800eb89b-4193-4014-8dfb-85d246b402f5"},"vehicle_type_id":"4","last_reported":1708475629,"current_range_meters":17200,"station_id":"ce4bgv12rcd13ifvqcp0","pricing_plan_id":"cebpf4jnsgd1na2vs0mg"},{"bike_id":"b2393842-8eb2-4ba0-899c-833293bde2a2","system_id":"levelo_inurba_marseille","lat":43.311722,"lon":5.387247,"is_reserved":false,"is_disabled":false,"rental_uris":{"android":"levelo://app?vid=b2393842-8eb2-4ba0-899c-833293bde2a2","ios":"levelo://app?vid=b2393842-8eb2-4ba0-899c-833293bde2a2"},"vehicle_type_id":"4","last_reported":1708475629,"current_range_meters":2400,"station_id":"ce4bgv12rcd13ifvqcp0","pricing_plan_id":"cebpf4jnsgd1na2vs0mg"},{"bike_id":"098eaae3-c91c-4c4e-9a14-70e940012909","system_id":"levelo_inurba_marseille","lat":43.29808,"lon":5.3623,"is_reserved":false,"is_disabled":false,"rental_uris":{"android":"levelo://app?vid=098eaae3-c91c-4c4e-9a14-70e940012909","ios":"levelo://app?vid=098eaae3-c91c-4c4e-9a14-70e940012909"},"vehicle_type_id":"4","last_reported":1708475629,"current_range_meters":20000,"station_id":"","pricing_plan_id":"cebpf4jnsgd1na2vs0mg"},{"bike_id":"a8f9f05f-b401-4391-a35e-57f8184136fe","system_id":"levelo_inurba_marseille","lat":43.297794,"lon":5.370888,"is_reserved":false,"is_disabled":false,"rental_uris":{"android":"levelo://app?vid=a8f9f05f-b401-4391-a35e-57f8184136fe","ios":"levelo://app?vid=a8f9f05f-b401-4391-a35e-57f8184136fe"},"vehicle_type_id":"4","last_reported":1708475629,"current_range_meters":26800,"station_id":"ce4bgop2rcd13ifvqc1g","pricing_plan_id":"cebpf4jnsgd1na2vs0mg"},{"bike_id":"79b54601-dd27-44fc-91ca-5befd5594d9b","system_id":"levelo_inurba_marseille","lat":43.322872,"lon":5.382756,"is_reserved":false,"is_disabled":false,"rental_uris":{"android":"levelo://app?vid=79b54601-dd27-44fc-91ca-5befd5594d9b","ios":"levelo://app?vid=79b54601-dd27-44fc-91ca-5befd5594d9b"},"vehicle_type_id":"4","last_reported":1708475629,"current_range_meters":30000,"station_id":"ce4bhr12rcd13ifvqhqg","pricing_plan_id":"cebpf4jnsgd1na2vs0mg"},{"bike_id":"25fc5026-6ec5-4002-b696-3e1c3a41c330","system_id":"levelo_inurba_marseille","lat":43.322872,"lon":5.382756,"is_reserved":false,"is_disabled":false,"rental_uris":{"android":"levelo://app?vid=25fc5026-6ec5-4002-b696-3e1c3a41c330","ios":"levelo://app?vid=25fc5026-6ec5-4002-b696-3e1c3a41c330"},"vehicle_type_id":"4","last_reported":1708475629,"current_range_meters":12800,"station_id":"ce4bhr12rcd13ifvqhqg","pricing_plan_id":"cebpf4jnsgd1na2vs0mg"},{"bike_id":"3ef6b703-e056-421a-9179-5e7d94b25453","system_id":"levelo_inurba_marseille","lat":43.322872,"lon":5.382756,"is_reserved":false,"is_disabled":false,"rental_uris":{"android":"levelo://app?vid=3ef6b703-e056-421a-9179-5e7d94b25453","ios":"levelo://app?vid=3ef6b703-e056-421a-9179-5e7d94b25453"},"vehicle_type_id":"4","last_reported":1708475629,"current_range_meters":22800,"station_id":"ce4bhr12rcd13ifvqhqg","pricing_plan_id":"cebpf4jnsgd1na2vs0mg"},{"bike_id":"42a5bc49-017c-4bed-ace8-b0cc016138bf","system_id":"levelo_inurba_marseille","lat":43.328496,"lon":5.366885,"is_reserved":false,"is_disabled":false,"rental_uris":{"android":"levelo://app?vid=42a5bc49-017c-4bed-ace8-b0cc016138bf","ios":"levelo://app?vid=42a5bc49-017c-4bed-ace8-b0cc016138bf"},"vehicle_type_id":"4","last_reported":1708475629,"current_range_meters":7200,"station_id":"","pricing_plan_id":"cebpf4jnsgd1na2vs0mg"},{"bike_id":"520c9f59-f864-4ddc-8993-4419cf8ff752","system_id":"levelo_inurba_marseille","lat":43.299028,"lon":5.381509,"is_reserved":false,"is_disabled":false,"rental_uris":{"android":"levelo://app?vid=520c9f59-f864-4ddc-8993-4419cf8ff752","ios":"levelo://app?vid=520c9f59-f864-4ddc-8993-4419cf8ff752"},"vehicle_type_id":"4","last_reported":1708475629,"current_range_meters":24800,"station_id":"ce4bgj12rcd13ifvqbc0","pricing_plan_id":"cebpf4jnsgd1na2vs0mg"},{"bike_id":"11cfd0b9-85f1-4c71-9a3c-a3ecbccbb770","system_id":"levelo_inurba_marseille","lat":43.30953,"lon":5.39027,"is_reserved":false,"is_disabled":false,"rental_uris":{"android":"levelo://app?vid=11cfd0b9-85f1-4c71-9a3c-a3ecbccbb770","ios":"levelo://app?vid=11cfd0b9-85f1-4c71-9a3c-a3ecbccbb770"},"vehicle_type_id":"4","last_reported":1708475629,"current_range_meters":0,"station_id":"ce4bgup2rcd13ifvqco0","pricing_plan_id":"cebpf4jnsgd1na2vs0mg"},{"bike_id":"d8e199a1-664b-4dd0-82eb-aea7c746ff0e","system_id":"levelo_inurba_marseille","lat":43.317557,"lon":5.390173,"is_reserved":false,"is_disabled":false,"rental_uris":{"android":"levelo://app?vid=d8e199a1-664b-4dd0-82eb-aea7c746ff0e","ios":"levelo://app?vid=d8e199a1-664b-4dd0-82eb-aea7c746ff0e"},"vehicle_type_id":"4","last_reported":1708475629,"current_range_meters":27600,"station_id":"ce4bhqp2rcd13ifvqhng","pricing_plan_id":"cebpf4jnsgd1na2vs0mg"},{"bike_id":"0798a4e7-f779-47e2-a558-207b5c0752cf","system_id":"levelo_inurba_marseille","lat":43.304335,"lon":5.38883,"is_reserved":false,"is_disabled":false,"rental_uris":{"android":"levelo://app?vid=0798a4e7-f779-47e2-a558-207b5c0752cf","ios":"levelo://app?vid=0798a4e7-f779-47e2-a558-207b5c0752cf"},"vehicle_type_id":"4","last_reported":1708475629,"current_range_meters":8000,"station_id":"ce4bgk12rcd13ifvqbi0","pricing_plan_id":"cebpf4jnsgd1na2vs0mg"},{"bike_id":"64669051-09de-4052-9661-061394002682","system_id":"levelo_inurba_marseille","lat":43.304278,"lon":5.388868,"is_reserved":false,"is_disabled":false,"rental_uris":{"android":"levelo://app?vid=64669051-09de-4052-9661-061394002682","ios":"levelo://app?vid=64669051-09de-4052-9661-061394002682"},"vehicle_type_id":"4","last_reported":1708475629,"current_range_meters":26400,"station_id":"ce4bgk12rcd13ifvqbi0","pricing_plan_id":"cebpf4jnsgd1na2vs0mg"},{"bike_id":"b44a9de4-fef5-4169-ab16-37574915487b","system_id":"levelo_inurba_marseille","lat":43.304278,"lon":5.388868,"is_reserved":false,"is_disabled":false,"rental_uris":{"android":"levelo://app?vid=b44a9de4-fef5-4169-ab16-37574915487b","ios":"levelo://app?vid=b44a9de4-fef5-4169-ab16-37574915487b"},"vehicle_type_id":"4","last_reported":1708475629,"current_range_meters":32000,"station_id":"ce4bgk12rcd13ifvqbi0","pricing_plan_id":"cebpf4jnsgd1na2vs0mg"},{"bike_id":"5101fcea-0770-4bdc-97de-be3eaf6a1d94","system_id":"levelo_inurba_marseille","lat":43.304278,"lon":5.388868,"is_reserved":false,"is_disabled":false,"rental_uris":{"android":"levelo://app?vid=5101fcea-0770-4bdc-97de-be3eaf6a1d94","ios":"levelo://app?vid=5101fcea-0770-4bdc-97de-be3eaf6a1d94"},"vehicle_type_id":"4","last_reported":1708475629,"current_range_meters":26400,"station_id":"ce4bgk12rcd13ifvqbi0","pricing_plan_id":"cebpf4jnsgd1na2vs0mg"},{"bike_id":"a7e97fff-207a-46e0-8a48-127d4c069144","system_id":"levelo_inurba_marseille","lat":43.304278,"lon":5.388868,"is_reserved":false,"is_disabled":false,"rental_uris":{"android":"levelo://app?vid=a7e97fff-207a-46e0-8a48-127d4c069144","ios":"levelo://app?vid=a7e97fff-207a-46e0-8a48-127d4c069144"},"vehicle_type_id":"4","last_reported":1708475629,"current_range_meters":26800,"station_id":"ce4bgk12rcd13ifvqbi0","pricing_plan_id":"cebpf4jnsgd1na2vs0mg"},{"bike_id":"65aaef56-2551-4212-94c3-a3e3ef296f55","system_id":"levelo_inurba_marseille","lat":43.299717,"lon":5.384845,"is_reserved":false,"is_disabled":false,"rental_uris":{"android":"levelo://app?vid=65aaef56-2551-4212-94c3-a3e3ef296f55","ios":"levelo://app?vid=65aaef56-2551-4212-94c3-a3e3ef296f55"},"vehicle_type_id":"4","last_reported":1708475629,"current_range_meters":5600,"station_id":"ce4bgj92rcd13ifvqbd0","pricing_plan_id":"cebpf4jnsgd1na2vs0mg"},{"bike_id":"ffa3a922-4c5d-4a9c-9e91-ae0166b49b2d","system_id":"levelo_inurba_marseille","lat":43.30125,"lon":5.38793,"is_reserved":false,"is_disabled":false,"rental_uris":{"android":"levelo://app?vid=ffa3a922-4c5d-4a9c-9e91-ae0166b49b2d","ios":"levelo://app?vid=ffa3a922-4c5d-4a9c-9e91-ae0166b49b2d"},"vehicle_type_id":"4","last_reported":1708475629,"current_range_meters":9200,"station_id":"","pricing_plan_id":"cebpf4jnsgd1na2vs0mg"},{"bike_id":"ac81b7ab-301c-41f2-a918-4bfbf1eff5ff","system_id":"levelo_inurba_marseille","lat":43.32367,"lon":5.388836,"is_reserved":false,"is_disabled":false,"rental_uris":{"android":"levelo://app?vid=ac81b7ab-301c-41f2-a918-4bfbf1eff5ff","ios":"levelo://app?vid=ac81b7ab-301c-41f2-a918-4bfbf1eff5ff"},"vehicle_type_id":"4","last_reported":1708475629,"current_range_meters":1600,"station_id":"ce4bhqp2rcd13ifvqhog","pricing_plan_id":"cebpf4jnsgd1na2vs0mg"},{"bike_id":"146e877e-91b7-4571-b34e-bca68e9e556b","system_id":"levelo_inurba_marseille","lat":43.32367,"lon":5.388836,"is_reserved":false,"is_disabled":false,"rental_uris":{"android":"levelo://app?vid=146e877e-91b7-4571-b34e-bca68e9e556b","ios":"levelo://app?vid=146e877e-91b7-4571-b34e-bca68e9e556b"},"vehicle_type_id":"4","last_reported":1708475629,"current_range_meters":24000,"station_id":"ce4bhqp2rcd13ifvqhog","pricing_plan_id":"cebpf4jnsgd1na2vs0mg"},{"bike_id":"43dc3f08-caf8-4bc2-94dc-bce4ff290aab","system_id":"levelo_inurba_marseille","lat":43.32367,"lon":5.388836,"is_reserved":false,"is_disabled":false,"rental_uris":{"android":"levelo://app?vid=43dc3f08-caf8-4bc2-94dc-bce4ff290aab","ios":"levelo://app?vid=43dc3f08-caf8-4bc2-94dc-bce4ff290aab"},"vehicle_type_id":"4","last_reported":1708475629,"current_range_meters":18800,"station_id":"ce4bhqp2rcd13ifvqhog","pricing_plan_id":"cebpf4jnsgd1na2vs0mg"},{"bike_id":"0605d24d-f576-4560-a092-4bccfadc3a33","system_id":"levelo_inurba_marseille","lat":43.32367,"lon":5.388836,"is_reserved":false,"is_disabled":false,"rental_uris":{"android":"levelo://app?vid=0605d24d-f576-4560-a092-4bccfadc3a33","ios":"levelo://app?vid=0605d24d-f576-4560-a092-4bccfadc3a33"},"vehicle_type_id":"4","last_reported":1708475629,"current_range_meters":8000,"station_id":"ce4bhqp2rcd13ifvqhog","pricing_plan_id":"cebpf4jnsgd1na2vs0mg"},{"bike_id":"7671d002-68d4-4024-8203-235f9470c257","system_id":"levelo_inurba_marseille","lat":43.32367,"lon":5.388836,"is_reserved":false,"is_disabled":false,"rental_uris":{"android":"levelo://app?vid=7671d002-68d4-4024-8203-235f9470c257","ios":"levelo://app?vid=7671d002-68d4-4024-8203-235f9470c257"},"vehicle_type_id":"4","last_reported":1708475629,"current_range_meters":17600,"station_id":"ce4bhqp2rcd13ifvqhog","pricing_plan_id":"cebpf4jnsgd1na2vs0mg"},{"bike_id":"f6d70e1a-28a8-4fd6-82cd-ab78aeaef9da","system_id":"levelo_inurba_marseille","lat":43.32367,"lon":5.388836,"is_reserved":false,"is_disabled":false,"rental_uris":{"android":"levelo://app?vid=f6d70e1a-28a8-4fd6-82cd-ab78aeaef9da","ios":"levelo://app?vid=f6d70e1a-28a8-4fd6-82cd-ab78aeaef9da"},"vehicle_type_id":"4","last_reported":1708475629,"current_range_meters":26400,"station_id":"ce4bhqp2rcd13ifvqhog","pricing_plan_id":"cebpf4jnsgd1na2vs0mg"},{"bike_id":"c7084a34-df4c-476a-a442-9e632d7f09f6","system_id":"levelo_inurba_marseille","lat":43.32367,"lon":5.388836,"is_reserved":false,"is_disabled":false,"rental_uris":{"android":"levelo://app?vid=c7084a34-df4c-476a-a442-9e632d7f09f6","ios":"levelo://app?vid=c7084a34-df4c-476a-a442-9e632d7f09f6"},"vehicle_type_id":"4","last_reported":1708475629,"current_range_meters":4800,"station_id":"ce4bhqp2rcd13ifvqhog","pricing_plan_id":"cebpf4jnsgd1na2vs0mg"},{"bike_id":"6f5f4145-83b3-4971-b0a7-2737bee18d46","system_id":"levelo_inurba_marseille","lat":43.29612,"lon":5.38145,"is_reserved":false,"is_disabled":false,"rental_uris":{"android":"levelo://app?vid=6f5f4145-83b3-4971-b0a7-2737bee18d46","ios":"levelo://app?vid=6f5f4145-83b3-4971-b0a7-2737bee18d46"},"vehicle_type_id":"4","last_reported":1708475629,"current_range_meters":17200,"station_id":"ce4bgl12rcd13ifvqbo0","pricing_plan_id":"cebpf4jnsgd1na2vs0mg"},{"bike_id":"e51ce82b-afec-4cf2-8ab1-7c478ebea954","system_id":"levelo_inurba_marseille","lat":43.293259,"lon":5.371586,"is_reserved":false,"is_disabled":false,"rental_uris":{"android":"levelo://app?vid=e51ce82b-afec-4cf2-8ab1-7c478ebea954","ios":"levelo://app?vid=e51ce82b-afec-4cf2-8ab1-7c478ebea954"},"vehicle_type_id":"4","last_reported":1708475629,"current_range_meters":22000,"station_id":"ce4bgh92rcd13ifvqb40","pricing_plan_id":"cebpf4jnsgd1na2vs0mg"},{"bike_id":"dc03eac8-5db2-4b0c-bc42-96f98dd81a8a","system_id":"levelo_inurba_marseille","lat":43.29274,"lon":5.36838,"is_reserved":false,"is_disabled":false,"rental_uris":{"android":"levelo://app?vid=dc03eac8-5db2-4b0c-bc42-96f98dd81a8a","ios":"levelo://app?vid=dc03eac8-5db2-4b0c-bc42-96f98dd81a8a"},"vehicle_type_id":"4","last_reported":1708475629,"current_range_meters":31200,"station_id":"ce4bhbp2rcd13ifvqesg","pricing_plan_id":"cebpf4jnsgd1na2vs0mg"},{"bike_id":"af3dabe6-b930-410a-b946-601474256b68","system_id":"levelo_inurba_marseille","lat":43.29266,"lon":5.36839,"is_reserved":false,"is_disabled":false,"rental_uris":{"android":"levelo://app?vid=af3dabe6-b930-410a-b946-601474256b68","ios":"levelo://app?vid=af3dabe6-b930-410a-b946-601474256b68"},"vehicle_type_id":"4","last_reported":1708475629,"current_range_meters":31200,"station_id":"ce4bhbp2rcd13ifvqesg","pricing_plan_id":"cebpf4jnsgd1na2vs0mg"},{"bike_id":"b6da47e7-1e0e-4e8d-9221-003606135767","system_id":"levelo_inurba_marseille","lat":43.305994,"lon":5.393687,"is_reserved":false,"is_disabled":false,"rental_uris":{"android":"levelo://app?vid=b6da47e7-1e0e-4e8d-9221-003606135767","ios":"levelo://app?vid=b6da47e7-1e0e-4e8d-9221-003606135767"},"vehicle_type_id":"4","last_reported":1708475629,"current_range_meters":16800,"station_id":"ce4bh0p2rcd13ifvqd80","pricing_plan_id":"cebpf4jnsgd1na2vs0mg"},{"bike_id":"3d1400e7-40bc-4b35-9131-78c7b78eb703","system_id":"levelo_inurba_marseille","lat":43.305994,"lon":5.393687,"is_reserved":false,"is_disabled":false,"rental_uris":{"android":"levelo://app?vid=3d1400e7-40bc-4b35-9131-78c7b78eb703","ios":"levelo://app?vid=3d1400e7-40bc-4b35-9131-78c7b78eb703"},"vehicle_type_id":"4","last_reported":1708475629,"current_range_meters":9200,"station_id":"ce4bh0p2rcd13ifvqd80","pricing_plan_id":"cebpf4jnsgd1na2vs0mg"},{"bike_id":"686584ea-ee30-4502-a13a-dee216da40ff","system_id":"levelo_inurba_marseille","lat":43.305994,"lon":5.393687,"is_reserved":false,"is_disabled":false,"rental_uris":{"android":"levelo://app?vid=686584ea-ee30-4502-a13a-dee216da40ff","ios":"levelo://app?vid=686584ea-ee30-4502-a13a-dee216da40ff"},"vehicle_type_id":"4","last_reported":1708475629,"current_range_meters":20800,"station_id":"ce4bh0p2rcd13ifvqd80","pricing_plan_id":"cebpf4jnsgd1na2vs0mg"},{"bike_id":"bc15a4d4-c8f4-467c-9ea9-19ce9afb5404","system_id":"levelo_inurba_marseille","lat":43.305994,"lon":5.393687,"is_reserved":false,"is_disabled":false,"rental_uris":{"android":"levelo://app?vid=bc15a4d4-c8f4-467c-9ea9-19ce9afb5404","ios":"levelo://app?vid=bc15a4d4-c8f4-467c-9ea9-19ce9afb5404"},"vehicle_type_id":"4","last_reported":1708475629,"current_range_meters":11200,"station_id":"ce4bh0p2rcd13ifvqd80","pricing_plan_id":"cebpf4jnsgd1na2vs0mg"},{"bike_id":"f8a0510e-ebce-40da-ab54-25c235b2ff96","system_id":"levelo_inurba_marseille","lat":43.303002,"lon":5.392142,"is_reserved":false,"is_disabled":false,"rental_uris":{"android":"levelo://app?vid=f8a0510e-ebce-40da-ab54-25c235b2ff96","ios":"levelo://app?vid=f8a0510e-ebce-40da-ab54-25c235b2ff96"},"vehicle_type_id":"4","last_reported":1708475629,"current_range_meters":24000,"station_id":"ce4bgkh2rcd13ifvqbk0","pricing_plan_id":"cebpf4jnsgd1na2vs0mg"},{"bike_id":"fc79754c-c25a-4857-b7ab-0766db31cbc1","system_id":"levelo_inurba_marseille","lat":43.302975,"lon":5.3921,"is_reserved":false,"is_disabled":false,"rental_uris":{"android":"levelo://app?vid=fc79754c-c25a-4857-b7ab-0766db31cbc1","ios":"levelo://app?vid=fc79754c-c25a-4857-b7ab-0766db31cbc1"},"vehicle_type_id":"4","last_reported":1708475629,"current_range_meters":12000,"station_id":"ce4bgkh2rcd13ifvqbk0","pricing_plan_id":"cebpf4jnsgd1na2vs0mg"},{"bike_id":"047b874e-f744-47e5-b3b9-c68d83ef6ece","system_id":"levelo_inurba_marseille","lat":43.302965,"lon":5.392094,"is_reserved":false,"is_disabled":false,"rental_uris":{"android":"levelo://app?vid=047b874e-f744-47e5-b3b9-c68d83ef6ece","ios":"levelo://app?vid=047b874e-f744-47e5-b3b9-c68d83ef6ece"},"vehicle_type_id":"4","last_reported":1708475629,"current_range_meters":30400,"station_id":"ce4bgkh2rcd13ifvqbk0","pricing_plan_id":"cebpf4jnsgd1na2vs0mg"},{"bike_id":"784995e5-62e1-41c4-ba92-695f32d22b3e","system_id":"levelo_inurba_marseille","lat":43.30298,"lon":5.39211,"is_reserved":false,"is_disabled":false,"rental_uris":{"android":"levelo://app?vid=784995e5-62e1-41c4-ba92-695f32d22b3e","ios":"levelo://app?vid=784995e5-62e1-41c4-ba92-695f32d22b3e"},"vehicle_type_id":"4","last_reported":1708475629,"current_range_meters":19200,"station_id":"ce4bgkh2rcd13ifvqbk0","pricing_plan_id":"cebpf4jnsgd1na2vs0mg"},{"bike_id":"3294824e-070a-46c6-8802-5f65c1ff606d","system_id":"levelo_inurba_marseille","lat":43.303,"lon":5.39213,"is_reserved":false,"is_disabled":false,"rental_uris":{"android":"levelo://app?vid=3294824e-070a-46c6-8802-5f65c1ff606d","ios":"levelo://app?vid=3294824e-070a-46c6-8802-5f65c1ff606d"},"vehicle_type_id":"4","last_reported":1708475629,"current_range_meters":14800,"station_id":"ce4bgkh2rcd13ifvqbk0","pricing_plan_id":"cebpf4jnsgd1na2vs0mg"},{"bike_id":"fc06e816-bd3b-4e98-8eda-1d6fb68d7fe3","system_id":"levelo_inurba_marseille","lat":43.302991,"lon":5.3922,"is_reserved":false,"is_disabled":false,"rental_uris":{"android":"levelo://app?vid=fc06e816-bd3b-4e98-8eda-1d6fb68d7fe3","ios":"levelo://app?vid=fc06e816-bd3b-4e98-8eda-1d6fb68d7fe3"},"vehicle_type_id":"4","last_reported":1708475629,"current_range_meters":27600,"station_id":"ce4bgkh2rcd13ifvqbk0","pricing_plan_id":"cebpf4jnsgd1na2vs0mg"},{"bike_id":"d65d4b4e-c784-4838-b32e-b58a5c934571","system_id":"levelo_inurba_marseille","lat":43.2936,"lon":5.37835,"is_reserved":false,"is_disabled":false,"rental_uris":{"android":"levelo://app?vid=d65d4b4e-c784-4838-b32e-b58a5c934571","ios":"levelo://app?vid=d65d4b4e-c784-4838-b32e-b58a5c934571"},"vehicle_type_id":"4","last_reported":1708475629,"current_range_meters":28000,"station_id":"ce4bgjh2rcd13ifvqbf0","pricing_plan_id":"cebpf4jnsgd1na2vs0mg"},{"bike_id":"f575c977-2f4d-4d2a-aaa4-9c77b8a7fbff","system_id":"levelo_inurba_marseille","lat":43.30297,"lon":5.39221,"is_reserved":false,"is_disabled":false,"rental_uris":{"android":"levelo://app?vid=f575c977-2f4d-4d2a-aaa4-9c77b8a7fbff","ios":"levelo://app?vid=f575c977-2f4d-4d2a-aaa4-9c77b8a7fbff"},"vehicle_type_id":"4","last_reported":1708475629,"current_range_meters":27200,"station_id":"ce4bgkh2rcd13ifvqbk0","pricing_plan_id":"cebpf4jnsgd1na2vs0mg"},{"bike_id":"5e774ffa-42b2-4f16-97d7-d54e88763a07","system_id":"levelo_inurba_marseille","lat":43.300852,"lon":5.390859,"is_reserved":false,"is_disabled":false,"rental_uris":{"android":"levelo://app?vid=5e774ffa-42b2-4f16-97d7-d54e88763a07","ios":"levelo://app?vid=5e774ffa-42b2-4f16-97d7-d54e88763a07"},"vehicle_type_id":"4","last_reported":1708475629,"current_range_meters":25200,"station_id":"ce4bh192rcd13ifvqdb0","pricing_plan_id":"cebpf4jnsgd1na2vs0mg"},{"bike_id":"90237fbb-8904-48a9-8842-c30f6c0bbf3c","system_id":"levelo_inurba_marseille","lat":43.300852,"lon":5.390859,"is_reserved":false,"is_disabled":false,"rental_uris":{"android":"levelo://app?vid=90237fbb-8904-48a9-8842-c30f6c0bbf3c","ios":"levelo://app?vid=90237fbb-8904-48a9-8842-c30f6c0bbf3c"},"vehicle_type_id":"4","last_reported":1708475629,"current_range_meters":12800,"station_id":"ce4bh192rcd13ifvqdb0","pricing_plan_id":"cebpf4jnsgd1na2vs0mg"},{"bike_id":"e207d437-bedb-4f1e-ae45-716ac43dbfe6","system_id":"levelo_inurba_marseille","lat":43.292311,"lon":5.360731,"is_reserved":false,"is_disabled":false,"rental_uris":{"android":"levelo://app?vid=e207d437-bedb-4f1e-ae45-716ac43dbfe6","ios":"levelo://app?vid=e207d437-bedb-4f1e-ae45-716ac43dbfe6"},"vehicle_type_id":"4","last_reported":1708475629,"current_range_meters":30000,"station_id":"ce4bhbh2rcd13ifvqeqg","pricing_plan_id":"cebpf4jnsgd1na2vs0mg"},{"bike_id":"3f424fe9-92c1-4bfb-b3d5-621c2b453d9f","system_id":"levelo_inurba_marseille","lat":43.300852,"lon":5.390859,"is_reserved":false,"is_disabled":false,"rental_uris":{"android":"levelo://app?vid=3f424fe9-92c1-4bfb-b3d5-621c2b453d9f","ios":"levelo://app?vid=3f424fe9-92c1-4bfb-b3d5-621c2b453d9f"},"vehicle_type_id":"4","last_reported":1708475629,"current_range_meters":6800,"station_id":"ce4bh192rcd13ifvqdb0","pricing_plan_id":"cebpf4jnsgd1na2vs0mg"},{"bike_id":"b8146bd2-0c9b-4652-9cd9-1af91fc7c18a","system_id":"levelo_inurba_marseille","lat":43.300852,"lon":5.390859,"is_reserved":false,"is_disabled":false,"rental_uris":{"android":"levelo://app?vid=b8146bd2-0c9b-4652-9cd9-1af91fc7c18a","ios":"levelo://app?vid=b8146bd2-0c9b-4652-9cd9-1af91fc7c18a"},"vehicle_type_id":"4","last_reported":1708475629,"current_range_meters":14400,"station_id":"ce4bh192rcd13ifvqdb0","pricing_plan_id":"cebpf4jnsgd1na2vs0mg"},{"bike_id":"f7e7eaa3-9bfb-4321-a7a4-1cdfcafd72d0","system_id":"levelo_inurba_marseille","lat":43.29214,"lon":5.36059,"is_reserved":false,"is_disabled":false,"rental_uris":{"android":"levelo://app?vid=f7e7eaa3-9bfb-4321-a7a4-1cdfcafd72d0","ios":"levelo://app?vid=f7e7eaa3-9bfb-4321-a7a4-1cdfcafd72d0"},"vehicle_type_id":"4","last_reported":1708475629,"current_range_meters":26400,"station_id":"ce4bhbh2rcd13ifvqeqg","pricing_plan_id":"cebpf4jnsgd1na2vs0mg"},{"bike_id":"8a09e454-05fe-43f8-90c8-f6a1967d8515","system_id":"levelo_inurba_marseille","lat":43.291675,"lon":5.371583,"is_reserved":false,"is_disabled":false,"rental_uris":{"android":"levelo://app?vid=8a09e454-05fe-43f8-90c8-f6a1967d8515","ios":"levelo://app?vid=8a09e454-05fe-43f8-90c8-f6a1967d8515"},"vehicle_type_id":"4","last_reported":1708475629,"current_range_meters":29600,"station_id":"ce4bha92rcd13ifvqeh0","pricing_plan_id":"cebpf4jnsgd1na2vs0mg"},{"bike_id":"234c8a7f-ebc6-4e13-9f12-fca28fd6640f","system_id":"levelo_inurba_marseille","lat":43.298764,"lon":5.388973,"is_reserved":false,"is_disabled":false,"rental_uris":{"android":"levelo://app?vid=234c8a7f-ebc6-4e13-9f12-fca28fd6640f","ios":"levelo://app?vid=234c8a7f-ebc6-4e13-9f12-fca28fd6640f"},"vehicle_type_id":"4","last_reported":1708475629,"current_range_meters":0,"station_id":"ce4bh392rcd13ifvqdl0","pricing_plan_id":"cebpf4jnsgd1na2vs0mg"},{"bike_id":"90bd4596-b9a2-4c42-8ec7-f0d4444269b9","system_id":"levelo_inurba_marseille","lat":43.291673,"lon":5.371409,"is_reserved":false,"is_disabled":false,"rental_uris":{"android":"levelo://app?vid=90bd4596-b9a2-4c42-8ec7-f0d4444269b9","ios":"levelo://app?vid=90bd4596-b9a2-4c42-8ec7-f0d4444269b9"},"vehicle_type_id":"4","last_reported":1708475629,"current_range_meters":0,"station_id":"ce4bha92rcd13ifvqeh0","pricing_plan_id":"cebpf4jnsgd1na2vs0mg"},{"bike_id":"855ac862-eadc-4106-994e-0826df01c293","system_id":"levelo_inurba_marseille","lat":43.298764,"lon":5.388973,"is_reserved":false,"is_disabled":false,"rental_uris":{"android":"levelo://app?vid=855ac862-eadc-4106-994e-0826df01c293","ios":"levelo://app?vid=855ac862-eadc-4106-994e-0826df01c293"},"vehicle_type_id":"4","last_reported":1708475629,"current_range_meters":28800,"station_id":"ce4bh392rcd13ifvqdl0","pricing_plan_id":"cebpf4jnsgd1na2vs0mg"},{"bike_id":"7169bb19-64e6-4a4b-bdfe-ef43be7d92f5","system_id":"levelo_inurba_marseille","lat":43.298771,"lon":5.389128,"is_reserved":false,"is_disabled":false,"rental_uris":{"android":"levelo://app?vid=7169bb19-64e6-4a4b-bdfe-ef43be7d92f5","ios":"levelo://app?vid=7169bb19-64e6-4a4b-bdfe-ef43be7d92f5"},"vehicle_type_id":"4","last_reported":1708475629,"current_range_meters":20800,"station_id":"ce4bh392rcd13ifvqdl0","pricing_plan_id":"cebpf4jnsgd1na2vs0mg"},{"bike_id":"c55bb9fa-251d-4027-8a30-91628bdd200e","system_id":"levelo_inurba_marseille","lat":43.298764,"lon":5.388973,"is_reserved":false,"is_disabled":false,"rental_uris":{"android":"levelo://app?vid=c55bb9fa-251d-4027-8a30-91628bdd200e","ios":"levelo://app?vid=c55bb9fa-251d-4027-8a30-91628bdd200e"},"vehicle_type_id":"4","last_reported":1708475629,"current_range_meters":26400,"station_id":"ce4bh392rcd13ifvqdl0","pricing_plan_id":"cebpf4jnsgd1na2vs0mg"},{"bike_id":"22c3d2c2-247c-46b8-9437-c6704a8ad207","system_id":"levelo_inurba_marseille","lat":43.309047,"lon":5.396551,"is_reserved":false,"is_disabled":false,"rental_uris":{"android":"levelo://app?vid=22c3d2c2-247c-46b8-9437-c6704a8ad207","ios":"levelo://app?vid=22c3d2c2-247c-46b8-9437-c6704a8ad207"},"vehicle_type_id":"4","last_reported":1708475629,"current_range_meters":5200,"station_id":"ce4bh012rcd13ifvqcv0","pricing_plan_id":"cebpf4jnsgd1na2vs0mg"},{"bike_id":"d4e3779b-1b17-4a38-acaa-7c25fbb25b9b","system_id":"levelo_inurba_marseille","lat":43.309038,"lon":5.396546,"is_reserved":false,"is_disabled":false,"rental_uris":{"android":"levelo://app?vid=d4e3779b-1b17-4a38-acaa-7c25fbb25b9b","ios":"levelo://app?vid=d4e3779b-1b17-4a38-acaa-7c25fbb25b9b"},"vehicle_type_id":"4","last_reported":1708475629,"current_range_meters":23600,"station_id":"ce4bh012rcd13ifvqcv0","pricing_plan_id":"cebpf4jnsgd1na2vs0mg"},{"bike_id":"fc27d094-8ceb-4415-be00-0af2219c5e01","system_id":"levelo_inurba_marseille","lat":43.29193,"lon":5.35813,"is_reserved":false,"is_disabled":false,"rental_uris":{"android":"levelo://app?vid=fc27d094-8ceb-4415-be00-0af2219c5e01","ios":"levelo://app?vid=fc27d094-8ceb-4415-be00-0af2219c5e01"},"vehicle_type_id":"4","last_reported":1708475629,"current_range_meters":2000,"station_id":"ce4bhb12rcd13ifvqel0","pricing_plan_id":"cebpf4jnsgd1na2vs0mg"},{"bike_id":"71ddca7a-a676-47a2-9199-da4c588b9601","system_id":"levelo_inurba_marseille","lat":43.30881,"lon":5.39637,"is_reserved":false,"is_disabled":false,"rental_uris":{"android":"levelo://app?vid=71ddca7a-a676-47a2-9199-da4c588b9601","ios":"levelo://app?vid=71ddca7a-a676-47a2-9199-da4c588b9601"},"vehicle_type_id":"4","last_reported":1708475629,"current_range_meters":0,"station_id":"ce4bh012rcd13ifvqcv0","pricing_plan_id":"cebpf4jnsgd1na2vs0mg"},{"bike_id":"eff3f471-65bb-48d3-9394-d54da10d6aea","system_id":"levelo_inurba_marseille","lat":43.309038,"lon":5.396546,"is_reserved":false,"is_disabled":false,"rental_uris":{"android":"levelo://app?vid=eff3f471-65bb-48d3-9394-d54da10d6aea","ios":"levelo://app?vid=eff3f471-65bb-48d3-9394-d54da10d6aea"},"vehicle_type_id":"4","last_reported":1708475629,"current_range_meters":29200,"station_id":"ce4bh012rcd13ifvqcv0","pricing_plan_id":"cebpf4jnsgd1na2vs0mg"},{"bike_id":"34a78d8f-16a7-48c2-9f83-7a325f0f9681","system_id":"levelo_inurba_marseille","lat":43.313291,"lon":5.396838,"is_reserved":false,"is_disabled":false,"rental_uris":{"android":"levelo://app?vid=34a78d8f-16a7-48c2-9f83-7a325f0f9681","ios":"levelo://app?vid=34a78d8f-16a7-48c2-9f83-7a325f0f9681"},"vehicle_type_id":"4","last_reported":1708475629,"current_range_meters":24800,"station_id":"ce4bgvp2rcd13ifvqcu0","pricing_plan_id":"cebpf4jnsgd1na2vs0mg"},{"bike_id":"a00d3993-5cc5-42fe-a346-7fb57b305871","system_id":"levelo_inurba_marseille","lat":43.309047,"lon":5.396551,"is_reserved":false,"is_disabled":false,"rental_uris":{"android":"levelo://app?vid=a00d3993-5cc5-42fe-a346-7fb57b305871","ios":"levelo://app?vid=a00d3993-5cc5-42fe-a346-7fb57b305871"},"vehicle_type_id":"4","last_reported":1708475629,"current_range_meters":17200,"station_id":"ce4bh012rcd13ifvqcv0","pricing_plan_id":"cebpf4jnsgd1na2vs0mg"},{"bike_id":"44ee7ac5-6398-4e31-bfea-488afc00b53f","system_id":"levelo_inurba_marseille","lat":43.309047,"lon":5.396551,"is_reserved":false,"is_disabled":false,"rental_uris":{"android":"levelo://app?vid=44ee7ac5-6398-4e31-bfea-488afc00b53f","ios":"levelo://app?vid=44ee7ac5-6398-4e31-bfea-488afc00b53f"},"vehicle_type_id":"4","last_reported":1708475629,"current_range_meters":28000,"station_id":"ce4bh012rcd13ifvqcv0","pricing_plan_id":"cebpf4jnsgd1na2vs0mg"},{"bike_id":"7c0ab7d6-0ab5-481b-8b6f-31edf10e5503","system_id":"levelo_inurba_marseille","lat":43.313291,"lon":5.396838,"is_reserved":false,"is_disabled":false,"rental_uris":{"android":"levelo://app?vid=7c0ab7d6-0ab5-481b-8b6f-31edf10e5503","ios":"levelo://app?vid=7c0ab7d6-0ab5-481b-8b6f-31edf10e5503"},"vehicle_type_id":"4","last_reported":1708475629,"current_range_meters":20000,"station_id":"ce4bgvp2rcd13ifvqcu0","pricing_plan_id":"cebpf4jnsgd1na2vs0mg"},{"bike_id":"4a311b97-3e9e-404f-bdaf-0c60464fd60a","system_id":"levelo_inurba_marseille","lat":43.309038,"lon":5.396546,"is_reserved":false,"is_disabled":false,"rental_uris":{"android":"levelo://app?vid=4a311b97-3e9e-404f-bdaf-0c60464fd60a","ios":"levelo://app?vid=4a311b97-3e9e-404f-bdaf-0c60464fd60a"},"vehicle_type_id":"4","last_reported":1708475629,"current_range_meters":12000,"station_id":"ce4bh012rcd13ifvqcv0","pricing_plan_id":"cebpf4jnsgd1na2vs0mg"},{"bike_id":"f3cbe1ef-e2f6-4c86-aace-2cd206ef4055","system_id":"levelo_inurba_marseille","lat":43.291994,"lon":5.357886,"is_reserved":false,"is_disabled":false,"rental_uris":{"android":"levelo://app?vid=f3cbe1ef-e2f6-4c86-aace-2cd206ef4055","ios":"levelo://app?vid=f3cbe1ef-e2f6-4c86-aace-2cd206ef4055"},"vehicle_type_id":"4","last_reported":1708475629,"current_range_meters":18000,"station_id":"ce4bhb12rcd13ifvqel0","pricing_plan_id":"cebpf4jnsgd1na2vs0mg"},{"bike_id":"89419094-992d-4c1d-a7f6-2c2ce9e82cfa","system_id":"levelo_inurba_marseille","lat":43.309038,"lon":5.396546,"is_reserved":false,"is_disabled":false,"rental_uris":{"android":"levelo://app?vid=89419094-992d-4c1d-a7f6-2c2ce9e82cfa","ios":"levelo://app?vid=89419094-992d-4c1d-a7f6-2c2ce9e82cfa"},"vehicle_type_id":"4","last_reported":1708475629,"current_range_meters":21600,"station_id":"ce4bh012rcd13ifvqcv0","pricing_plan_id":"cebpf4jnsgd1na2vs0mg"},{"bike_id":"25748938-68e0-4f5f-ae72-5b1344addf4e","system_id":"levelo_inurba_marseille","lat":43.309047,"lon":5.396551,"is_reserved":false,"is_disabled":false,"rental_uris":{"android":"levelo://app?vid=25748938-68e0-4f5f-ae72-5b1344addf4e","ios":"levelo://app?vid=25748938-68e0-4f5f-ae72-5b1344addf4e"},"vehicle_type_id":"4","last_reported":1708475629,"current_range_meters":23600,"station_id":"ce4bh012rcd13ifvqcv0","pricing_plan_id":"cebpf4jnsgd1na2vs0mg"},{"bike_id":"46b1b3d2-2e54-49fa-ae50-f9bdeca1a26d","system_id":"levelo_inurba_marseille","lat":43.291994,"lon":5.357886,"is_reserved":false,"is_disabled":false,"rental_uris":{"android":"levelo://app?vid=46b1b3d2-2e54-49fa-ae50-f9bdeca1a26d","ios":"levelo://app?vid=46b1b3d2-2e54-49fa-ae50-f9bdeca1a26d"},"vehicle_type_id":"4","last_reported":1708475629,"current_range_meters":30800,"station_id":"ce4bhb12rcd13ifvqel0","pricing_plan_id":"cebpf4jnsgd1na2vs0mg"},{"bike_id":"46664148-94b4-4d11-900b-75fe01328a6e","system_id":"levelo_inurba_marseille","lat":43.309038,"lon":5.396546,"is_reserved":false,"is_disabled":false,"rental_uris":{"android":"levelo://app?vid=46664148-94b4-4d11-900b-75fe01328a6e","ios":"levelo://app?vid=46664148-94b4-4d11-900b-75fe01328a6e"},"vehicle_type_id":"4","last_reported":1708475629,"current_range_meters":4000,"station_id":"ce4bh012rcd13ifvqcv0","pricing_plan_id":"cebpf4jnsgd1na2vs0mg"},{"bike_id":"eaf47777-c5e8-49e7-b1eb-f3af4912bdca","system_id":"levelo_inurba_marseille","lat":43.30886,"lon":5.39642,"is_reserved":false,"is_disabled":false,"rental_uris":{"android":"levelo://app?vid=eaf47777-c5e8-49e7-b1eb-f3af4912bdca","ios":"levelo://app?vid=eaf47777-c5e8-49e7-b1eb-f3af4912bdca"},"vehicle_type_id":"4","last_reported":1708475629,"current_range_meters":21200,"station_id":"ce4bh012rcd13ifvqcv0","pricing_plan_id":"cebpf4jnsgd1na2vs0mg"},{"bike_id":"12f54a50-5e78-41ed-87dc-4227bb52b883","system_id":"levelo_inurba_marseille","lat":43.313291,"lon":5.396838,"is_reserved":false,"is_disabled":false,"rental_uris":{"android":"levelo://app?vid=12f54a50-5e78-41ed-87dc-4227bb52b883","ios":"levelo://app?vid=12f54a50-5e78-41ed-87dc-4227bb52b883"},"vehicle_type_id":"4","last_reported":1708475629,"current_range_meters":15200,"station_id":"ce4bgvp2rcd13ifvqcu0","pricing_plan_id":"cebpf4jnsgd1na2vs0mg"},{"bike_id":"a18a8e53-a21d-4f1c-b971-a459b3adfcde","system_id":"levelo_inurba_marseille","lat":43.313291,"lon":5.396838,"is_reserved":false,"is_disabled":false,"rental_uris":{"android":"levelo://app?vid=a18a8e53-a21d-4f1c-b971-a459b3adfcde","ios":"levelo://app?vid=a18a8e53-a21d-4f1c-b971-a459b3adfcde"},"vehicle_type_id":"4","last_reported":1708475629,"current_range_meters":7200,"station_id":"ce4bgvp2rcd13ifvqcu0","pricing_plan_id":"cebpf4jnsgd1na2vs0mg"},{"bike_id":"7a0398e1-3895-40a6-9cc4-11ace95086c3","system_id":"levelo_inurba_marseille","lat":43.313291,"lon":5.396838,"is_reserved":false,"is_disabled":false,"rental_uris":{"android":"levelo://app?vid=7a0398e1-3895-40a6-9cc4-11ace95086c3","ios":"levelo://app?vid=7a0398e1-3895-40a6-9cc4-11ace95086c3"},"vehicle_type_id":"4","last_reported":1708475629,"current_range_meters":20800,"station_id":"ce4bgvp2rcd13ifvqcu0","pricing_plan_id":"cebpf4jnsgd1na2vs0mg"},{"bike_id":"5cd57c89-8e7f-4e94-a5d6-fd0f985142a0","system_id":"levelo_inurba_marseille","lat":43.309047,"lon":5.396551,"is_reserved":false,"is_disabled":false,"rental_uris":{"android":"levelo://app?vid=5cd57c89-8e7f-4e94-a5d6-fd0f985142a0","ios":"levelo://app?vid=5cd57c89-8e7f-4e94-a5d6-fd0f985142a0"},"vehicle_type_id":"4","last_reported":1708475629,"current_range_meters":800,"station_id":"ce4bh012rcd13ifvqcv0","pricing_plan_id":"cebpf4jnsgd1na2vs0mg"},{"bike_id":"5ea256f7-79fa-451a-8ab5-05cb3615da89","system_id":"levelo_inurba_marseille","lat":43.313291,"lon":5.396838,"is_reserved":false,"is_disabled":false,"rental_uris":{"android":"levelo://app?vid=5ea256f7-79fa-451a-8ab5-05cb3615da89","ios":"levelo://app?vid=5ea256f7-79fa-451a-8ab5-05cb3615da89"},"vehicle_type_id":"4","last_reported":1708475629,"current_range_meters":6400,"station_id":"ce4bgvp2rcd13ifvqcu0","pricing_plan_id":"cebpf4jnsgd1na2vs0mg"},{"bike_id":"b254b897-3e14-4b27-8ae8-379a3ddebe36","system_id":"levelo_inurba_marseille","lat":43.313291,"lon":5.396838,"is_reserved":false,"is_disabled":false,"rental_uris":{"android":"levelo://app?vid=b254b897-3e14-4b27-8ae8-379a3ddebe36","ios":"levelo://app?vid=b254b897-3e14-4b27-8ae8-379a3ddebe36"},"vehicle_type_id":"4","last_reported":1708475629,"current_range_meters":6000,"station_id":"ce4bgvp2rcd13ifvqcu0","pricing_plan_id":"cebpf4jnsgd1na2vs0mg"},{"bike_id":"4b30381d-e9a0-48b3-8761-698b06657900","system_id":"levelo_inurba_marseille","lat":43.313291,"lon":5.396838,"is_reserved":false,"is_disabled":false,"rental_uris":{"android":"levelo://app?vid=4b30381d-e9a0-48b3-8761-698b06657900","ios":"levelo://app?vid=4b30381d-e9a0-48b3-8761-698b06657900"},"vehicle_type_id":"4","last_reported":1708475629,"current_range_meters":17600,"station_id":"ce4bgvp2rcd13ifvqcu0","pricing_plan_id":"cebpf4jnsgd1na2vs0mg"},{"bike_id":"c0586733-982b-4613-ab2e-0748788c5d87","system_id":"levelo_inurba_marseille","lat":43.309038,"lon":5.396546,"is_reserved":false,"is_disabled":false,"rental_uris":{"android":"levelo://app?vid=c0586733-982b-4613-ab2e-0748788c5d87","ios":"levelo://app?vid=c0586733-982b-4613-ab2e-0748788c5d87"},"vehicle_type_id":"4","last_reported":1708475629,"current_range_meters":23600,"station_id":"ce4bh012rcd13ifvqcv0","pricing_plan_id":"cebpf4jnsgd1na2vs0mg"},{"bike_id":"180a3929-6535-4296-942f-19d37f04a27b","system_id":"levelo_inurba_marseille","lat":43.309047,"lon":5.396551,"is_reserved":false,"is_disabled":false,"rental_uris":{"android":"levelo://app?vid=180a3929-6535-4296-942f-19d37f04a27b","ios":"levelo://app?vid=180a3929-6535-4296-942f-19d37f04a27b"},"vehicle_type_id":"4","last_reported":1708475629,"current_range_meters":6000,"station_id":"ce4bh012rcd13ifvqcv0","pricing_plan_id":"cebpf4jnsgd1na2vs0mg"},{"bike_id":"df156dcd-e0f4-4ab8-808b-7ab8725b2fb5","system_id":"levelo_inurba_marseille","lat":43.309047,"lon":5.396551,"is_reserved":false,"is_disabled":false,"rental_uris":{"android":"levelo://app?vid=df156dcd-e0f4-4ab8-808b-7ab8725b2fb5","ios":"levelo://app?vid=df156dcd-e0f4-4ab8-808b-7ab8725b2fb5"},"vehicle_type_id":"4","last_reported":1708475629,"current_range_meters":0,"station_id":"ce4bh012rcd13ifvqcv0","pricing_plan_id":"cebpf4jnsgd1na2vs0mg"},{"bike_id":"c7675864-b47b-4d37-a757-396a5e51116a","system_id":"levelo_inurba_marseille","lat":43.313291,"lon":5.396838,"is_reserved":false,"is_disabled":false,"rental_uris":{"android":"levelo://app?vid=c7675864-b47b-4d37-a757-396a5e51116a","ios":"levelo://app?vid=c7675864-b47b-4d37-a757-396a5e51116a"},"vehicle_type_id":"4","last_reported":1708475629,"current_range_meters":30800,"station_id":"ce4bgvp2rcd13ifvqcu0","pricing_plan_id":"cebpf4jnsgd1na2vs0mg"},{"bike_id":"c8cb886d-4587-4442-9ee4-1743bbc610b2","system_id":"levelo_inurba_marseille","lat":43.309038,"lon":5.396546,"is_reserved":false,"is_disabled":false,"rental_uris":{"android":"levelo://app?vid=c8cb886d-4587-4442-9ee4-1743bbc610b2","ios":"levelo://app?vid=c8cb886d-4587-4442-9ee4-1743bbc610b2"},"vehicle_type_id":"4","last_reported":1708475629,"current_range_meters":24800,"station_id":"ce4bh012rcd13ifvqcv0","pricing_plan_id":"cebpf4jnsgd1na2vs0mg"},{"bike_id":"4a9c097b-c632-495b-ae2b-872a6ad0f83f","system_id":"levelo_inurba_marseille","lat":43.309038,"lon":5.396546,"is_reserved":false,"is_disabled":false,"rental_uris":{"android":"levelo://app?vid=4a9c097b-c632-495b-ae2b-872a6ad0f83f","ios":"levelo://app?vid=4a9c097b-c632-495b-ae2b-872a6ad0f83f"},"vehicle_type_id":"4","last_reported":1708475629,"current_range_meters":21200,"station_id":"ce4bh012rcd13ifvqcv0","pricing_plan_id":"cebpf4jnsgd1na2vs0mg"},{"bike_id":"6ce3387d-19cb-4f5b-924e-60a8a70b7304","system_id":"levelo_inurba_marseille","lat":43.309038,"lon":5.396546,"is_reserved":false,"is_disabled":false,"rental_uris":{"android":"levelo://app?vid=6ce3387d-19cb-4f5b-924e-60a8a70b7304","ios":"levelo://app?vid=6ce3387d-19cb-4f5b-924e-60a8a70b7304"},"vehicle_type_id":"4","last_reported":1708475629,"current_range_meters":20000,"station_id":"ce4bh012rcd13ifvqcv0","pricing_plan_id":"cebpf4jnsgd1na2vs0mg"},{"bike_id":"1c8e05e1-50a2-495d-b73e-83b1c65be716","system_id":"levelo_inurba_marseille","lat":43.313291,"lon":5.396838,"is_reserved":false,"is_disabled":false,"rental_uris":{"android":"levelo://app?vid=1c8e05e1-50a2-495d-b73e-83b1c65be716","ios":"levelo://app?vid=1c8e05e1-50a2-495d-b73e-83b1c65be716"},"vehicle_type_id":"4","last_reported":1708475629,"current_range_meters":6400,"station_id":"ce4bgvp2rcd13ifvqcu0","pricing_plan_id":"cebpf4jnsgd1na2vs0mg"},{"bike_id":"5f43bd54-58ab-4cb3-acb2-9eee9aaa0511","system_id":"levelo_inurba_marseille","lat":43.311722,"lon":5.387247,"is_reserved":false,"is_disabled":false,"rental_uris":{"android":"levelo://app?vid=5f43bd54-58ab-4cb3-acb2-9eee9aaa0511","ios":"levelo://app?vid=5f43bd54-58ab-4cb3-acb2-9eee9aaa0511"},"vehicle_type_id":"4","last_reported":1708475629,"current_range_meters":400,"station_id":"ce4bgv12rcd13ifvqcp0","pricing_plan_id":"cebpf4jnsgd1na2vs0mg"},{"bike_id":"20bc340f-40b8-42ba-ac8d-08dd3d7db221","system_id":"levelo_inurba_marseille","lat":43.302008,"lon":5.394694,"is_reserved":false,"is_disabled":false,"rental_uris":{"android":"levelo://app?vid=20bc340f-40b8-42ba-ac8d-08dd3d7db221","ios":"levelo://app?vid=20bc340f-40b8-42ba-ac8d-08dd3d7db221"},"vehicle_type_id":"4","last_reported":1708475629,"current_range_meters":28800,"station_id":"ce4bh0p2rcd13ifvqd70","pricing_plan_id":"cebpf4jnsgd1na2vs0mg"},{"bike_id":"aaea5f65-e9f1-4918-9212-62e0fc0faa2e","system_id":"levelo_inurba_marseille","lat":43.302008,"lon":5.394694,"is_reserved":false,"is_disabled":false,"rental_uris":{"android":"levelo://app?vid=aaea5f65-e9f1-4918-9212-62e0fc0faa2e","ios":"levelo://app?vid=aaea5f65-e9f1-4918-9212-62e0fc0faa2e"},"vehicle_type_id":"4","last_reported":1708475629,"current_range_meters":27600,"station_id":"ce4bh0p2rcd13ifvqd70","pricing_plan_id":"cebpf4jnsgd1na2vs0mg"},{"bike_id":"855a9d11-b4ac-4275-b570-7883b6b0a9f6","system_id":"levelo_inurba_marseille","lat":43.302008,"lon":5.394694,"is_reserved":false,"is_disabled":false,"rental_uris":{"android":"levelo://app?vid=855a9d11-b4ac-4275-b570-7883b6b0a9f6","ios":"levelo://app?vid=855a9d11-b4ac-4275-b570-7883b6b0a9f6"},"vehicle_type_id":"4","last_reported":1708475629,"current_range_meters":22400,"station_id":"ce4bh0p2rcd13ifvqd70","pricing_plan_id":"cebpf4jnsgd1na2vs0mg"},{"bike_id":"75e11fe1-08de-4823-981b-7bb8389a36fc","system_id":"levelo_inurba_marseille","lat":43.290624,"lon":5.359245,"is_reserved":false,"is_disabled":false,"rental_uris":{"android":"levelo://app?vid=75e11fe1-08de-4823-981b-7bb8389a36fc","ios":"levelo://app?vid=75e11fe1-08de-4823-981b-7bb8389a36fc"},"vehicle_type_id":"4","last_reported":1708475629,"current_range_meters":24800,"station_id":"ce4bha92rcd13ifvqeg0","pricing_plan_id":"cebpf4jnsgd1na2vs0mg"},{"bike_id":"7b82f3d4-4b3c-4c54-9784-2ffc4347110c","system_id":"levelo_inurba_marseille","lat":43.290624,"lon":5.359245,"is_reserved":false,"is_disabled":false,"rental_uris":{"android":"levelo://app?vid=7b82f3d4-4b3c-4c54-9784-2ffc4347110c","ios":"levelo://app?vid=7b82f3d4-4b3c-4c54-9784-2ffc4347110c"},"vehicle_type_id":"4","last_reported":1708475629,"current_range_meters":24000,"station_id":"ce4bha92rcd13ifvqeg0","pricing_plan_id":"cebpf4jnsgd1na2vs0mg"},{"bike_id":"5e270fb6-b7b3-449f-bb8e-5459bf519bb4","system_id":"levelo_inurba_marseille","lat":43.290624,"lon":5.359245,"is_reserved":false,"is_disabled":false,"rental_uris":{"android":"levelo://app?vid=5e270fb6-b7b3-449f-bb8e-5459bf519bb4","ios":"levelo://app?vid=5e270fb6-b7b3-449f-bb8e-5459bf519bb4"},"vehicle_type_id":"4","last_reported":1708475629,"current_range_meters":27600,"station_id":"ce4bha92rcd13ifvqeg0","pricing_plan_id":"cebpf4jnsgd1na2vs0mg"},{"bike_id":"0959b3c1-686d-4c14-a9e7-d1bb7eda1d4a","system_id":"levelo_inurba_marseille","lat":43.290631,"lon":5.359244,"is_reserved":false,"is_disabled":false,"rental_uris":{"android":"levelo://app?vid=0959b3c1-686d-4c14-a9e7-d1bb7eda1d4a","ios":"levelo://app?vid=0959b3c1-686d-4c14-a9e7-d1bb7eda1d4a"},"vehicle_type_id":"4","last_reported":1708475629,"current_range_meters":18800,"station_id":"ce4bha92rcd13ifvqeg0","pricing_plan_id":"cebpf4jnsgd1na2vs0mg"},{"bike_id":"abff4a3f-811f-4675-8d9c-d5fe6e6e18a3","system_id":"levelo_inurba_marseille","lat":43.290624,"lon":5.359245,"is_reserved":false,"is_disabled":false,"rental_uris":{"android":"levelo://app?vid=abff4a3f-811f-4675-8d9c-d5fe6e6e18a3","ios":"levelo://app?vid=abff4a3f-811f-4675-8d9c-d5fe6e6e18a3"},"vehicle_type_id":"4","last_reported":1708475629,"current_range_meters":0,"station_id":"ce4bha92rcd13ifvqeg0","pricing_plan_id":"cebpf4jnsgd1na2vs0mg"},{"bike_id":"ca8d8174-35c3-4d23-851e-0c5cd6cde000","system_id":"levelo_inurba_marseille","lat":43.29222,"lon":5.38122,"is_reserved":false,"is_disabled":false,"rental_uris":{"android":"levelo://app?vid=ca8d8174-35c3-4d23-851e-0c5cd6cde000","ios":"levelo://app?vid=ca8d8174-35c3-4d23-851e-0c5cd6cde000"},"vehicle_type_id":"4","last_reported":1708475629,"current_range_meters":30000,"station_id":"","pricing_plan_id":"cebpf4jnsgd1na2vs0mg"},{"bike_id":"8bedf8cb-27f1-4ee0-aa78-b2a9ad98f17e","system_id":"levelo_inurba_marseille","lat":43.290631,"lon":5.359244,"is_reserved":false,"is_disabled":false,"rental_uris":{"android":"levelo://app?vid=8bedf8cb-27f1-4ee0-aa78-b2a9ad98f17e","ios":"levelo://app?vid=8bedf8cb-27f1-4ee0-aa78-b2a9ad98f17e"},"vehicle_type_id":"4","last_reported":1708475629,"current_range_meters":18400,"station_id":"ce4bha92rcd13ifvqeg0","pricing_plan_id":"cebpf4jnsgd1na2vs0mg"},{"bike_id":"9625f7f3-7b8b-4c9e-a52a-1a4c1d2ac229","system_id":"levelo_inurba_marseille","lat":43.304274,"lon":5.397513,"is_reserved":false,"is_disabled":false,"rental_uris":{"android":"levelo://app?vid=9625f7f3-7b8b-4c9e-a52a-1a4c1d2ac229","ios":"levelo://app?vid=9625f7f3-7b8b-4c9e-a52a-1a4c1d2ac229"},"vehicle_type_id":"4","last_reported":1708475629,"current_range_meters":30400,"station_id":"ce4bh092rcd13ifvqd20","pricing_plan_id":"cebpf4jnsgd1na2vs0mg"},{"bike_id":"64c8a977-e817-4529-bbbf-d54830de4873","system_id":"levelo_inurba_marseille","lat":43.29103,"lon":5.38085,"is_reserved":false,"is_disabled":false,"rental_uris":{"android":"levelo://app?vid=64c8a977-e817-4529-bbbf-d54830de4873","ios":"levelo://app?vid=64c8a977-e817-4529-bbbf-d54830de4873"},"vehicle_type_id":"4","last_reported":1708475629,"current_range_meters":11200,"station_id":"","pricing_plan_id":"cebpf4jnsgd1na2vs0mg"},{"bike_id":"72df5c26-e96f-49b1-bc15-286e977812c7","system_id":"levelo_inurba_marseille","lat":43.290104,"lon":5.356111,"is_reserved":false,"is_disabled":false,"rental_uris":{"android":"levelo://app?vid=72df5c26-e96f-49b1-bc15-286e977812c7","ios":"levelo://app?vid=72df5c26-e96f-49b1-bc15-286e977812c7"},"vehicle_type_id":"4","last_reported":1708475629,"current_range_meters":14000,"station_id":"ce4bhb92rcd13ifvqen0","pricing_plan_id":"cebpf4jnsgd1na2vs0mg"},{"bike_id":"ef8d6413-1ea5-45e4-a1b2-ca0b043d95b3","system_id":"levelo_inurba_marseille","lat":43.304743,"lon":5.397997,"is_reserved":false,"is_disabled":false,"rental_uris":{"android":"levelo://app?vid=ef8d6413-1ea5-45e4-a1b2-ca0b043d95b3","ios":"levelo://app?vid=ef8d6413-1ea5-45e4-a1b2-ca0b043d95b3"},"vehicle_type_id":"4","last_reported":1708475629,"current_range_meters":17600,"station_id":"","pricing_plan_id":"cebpf4jnsgd1na2vs0mg"},{"bike_id":"159272c8-b64a-4c95-840b-189c572f9df7","system_id":"levelo_inurba_marseille","lat":43.290103,"lon":5.356114,"is_reserved":false,"is_disabled":false,"rental_uris":{"android":"levelo://app?vid=159272c8-b64a-4c95-840b-189c572f9df7","ios":"levelo://app?vid=159272c8-b64a-4c95-840b-189c572f9df7"},"vehicle_type_id":"4","last_reported":1708475629,"current_range_meters":31200,"station_id":"ce4bhb92rcd13ifvqen0","pricing_plan_id":"cebpf4jnsgd1na2vs0mg"},{"bike_id":"1fe5f5e8-1572-415a-8c5e-1f9a720e3db9","system_id":"levelo_inurba_marseille","lat":43.290104,"lon":5.356111,"is_reserved":false,"is_disabled":false,"rental_uris":{"android":"levelo://app?vid=1fe5f5e8-1572-415a-8c5e-1f9a720e3db9","ios":"levelo://app?vid=1fe5f5e8-1572-415a-8c5e-1f9a720e3db9"},"vehicle_type_id":"4","last_reported":1708475629,"current_range_meters":27200,"station_id":"ce4bhb92rcd13ifvqen0","pricing_plan_id":"cebpf4jnsgd1na2vs0mg"},{"bike_id":"f94afa02-f63c-4d7f-bc36-e6b448475032","system_id":"levelo_inurba_marseille","lat":43.290104,"lon":5.356111,"is_reserved":false,"is_disabled":false,"rental_uris":{"android":"levelo://app?vid=f94afa02-f63c-4d7f-bc36-e6b448475032","ios":"levelo://app?vid=f94afa02-f63c-4d7f-bc36-e6b448475032"},"vehicle_type_id":"4","last_reported":1708475629,"current_range_meters":26800,"station_id":"ce4bhb92rcd13ifvqen0","pricing_plan_id":"cebpf4jnsgd1na2vs0mg"},{"bike_id":"d3cd5f06-192f-4d80-8b39-3424afe92a01","system_id":"levelo_inurba_marseille","lat":43.290995,"lon":5.381361,"is_reserved":false,"is_disabled":false,"rental_uris":{"android":"levelo://app?vid=d3cd5f06-192f-4d80-8b39-3424afe92a01","ios":"levelo://app?vid=d3cd5f06-192f-4d80-8b39-3424afe92a01"},"vehicle_type_id":"4","last_reported":1708475629,"current_range_meters":12000,"station_id":"ce4bh512rcd13ifvqe2g","pricing_plan_id":"cebpf4jnsgd1na2vs0mg"},{"bike_id":"15b0b149-e5b3-44a5-8c6b-ce8b76de911f","system_id":"levelo_inurba_marseille","lat":43.297948,"lon":5.3934,"is_reserved":false,"is_disabled":false,"rental_uris":{"android":"levelo://app?vid=15b0b149-e5b3-44a5-8c6b-ce8b76de911f","ios":"levelo://app?vid=15b0b149-e5b3-44a5-8c6b-ce8b76de911f"},"vehicle_type_id":"4","last_reported":1708475629,"current_range_meters":9600,"station_id":"chh1huq6cuj3fo74tm60","pricing_plan_id":"cebpf4jnsgd1na2vs0mg"},{"bike_id":"3534ebce-407a-4ae7-9015-0a451b10dfb2","system_id":"levelo_inurba_marseille","lat":43.297815,"lon":5.393548,"is_reserved":false,"is_disabled":false,"rental_uris":{"android":"levelo://app?vid=3534ebce-407a-4ae7-9015-0a451b10dfb2","ios":"levelo://app?vid=3534ebce-407a-4ae7-9015-0a451b10dfb2"},"vehicle_type_id":"4","last_reported":1708475629,"current_range_meters":25200,"station_id":"chh1huq6cuj3fo74tm60","pricing_plan_id":"cebpf4jnsgd1na2vs0mg"},{"bike_id":"61995278-75bf-426c-87a8-af273b0b7276","system_id":"levelo_inurba_marseille","lat":43.297912,"lon":5.393392,"is_reserved":false,"is_disabled":false,"rental_uris":{"android":"levelo://app?vid=61995278-75bf-426c-87a8-af273b0b7276","ios":"levelo://app?vid=61995278-75bf-426c-87a8-af273b0b7276"},"vehicle_type_id":"4","last_reported":1708475629,"current_range_meters":26000,"station_id":"chh1huq6cuj3fo74tm60","pricing_plan_id":"cebpf4jnsgd1na2vs0mg"},{"bike_id":"6703f306-f7e7-41b6-afa9-43fa3ec4826c","system_id":"levelo_inurba_marseille","lat":43.29793,"lon":5.39342,"is_reserved":false,"is_disabled":false,"rental_uris":{"android":"levelo://app?vid=6703f306-f7e7-41b6-afa9-43fa3ec4826c","ios":"levelo://app?vid=6703f306-f7e7-41b6-afa9-43fa3ec4826c"},"vehicle_type_id":"4","last_reported":1708475629,"current_range_meters":4800,"station_id":"chh1huq6cuj3fo74tm60","pricing_plan_id":"cebpf4jnsgd1na2vs0mg"},{"bike_id":"73e9c814-3e10-4cff-b075-ab4ca91587cb","system_id":"levelo_inurba_marseille","lat":43.297909,"lon":5.393422,"is_reserved":false,"is_disabled":false,"rental_uris":{"android":"levelo://app?vid=73e9c814-3e10-4cff-b075-ab4ca91587cb","ios":"levelo://app?vid=73e9c814-3e10-4cff-b075-ab4ca91587cb"},"vehicle_type_id":"4","last_reported":1708475629,"current_range_meters":20400,"station_id":"chh1huq6cuj3fo74tm60","pricing_plan_id":"cebpf4jnsgd1na2vs0mg"},{"bike_id":"9c40386f-55ee-49cd-a8b3-29cba79c3b3d","system_id":"levelo_inurba_marseille","lat":43.297903,"lon":5.393423,"is_reserved":false,"is_disabled":false,"rental_uris":{"android":"levelo://app?vid=9c40386f-55ee-49cd-a8b3-29cba79c3b3d","ios":"levelo://app?vid=9c40386f-55ee-49cd-a8b3-29cba79c3b3d"},"vehicle_type_id":"4","last_reported":1708475629,"current_range_meters":14400,"station_id":"chh1huq6cuj3fo74tm60","pricing_plan_id":"cebpf4jnsgd1na2vs0mg"},{"bike_id":"11a93470-ba28-46ab-99c4-a0d2b137a56a","system_id":"levelo_inurba_marseille","lat":43.29792,"lon":5.39346,"is_reserved":false,"is_disabled":false,"rental_uris":{"android":"levelo://app?vid=11a93470-ba28-46ab-99c4-a0d2b137a56a","ios":"levelo://app?vid=11a93470-ba28-46ab-99c4-a0d2b137a56a"},"vehicle_type_id":"4","last_reported":1708475629,"current_range_meters":400,"station_id":"chh1huq6cuj3fo74tm60","pricing_plan_id":"cebpf4jnsgd1na2vs0mg"},{"bike_id":"b059e4fd-6483-42ad-a0db-6b51bab7b143","system_id":"levelo_inurba_marseille","lat":43.29791,"lon":5.39345,"is_reserved":false,"is_disabled":false,"rental_uris":{"android":"levelo://app?vid=b059e4fd-6483-42ad-a0db-6b51bab7b143","ios":"levelo://app?vid=b059e4fd-6483-42ad-a0db-6b51bab7b143"},"vehicle_type_id":"4","last_reported":1708475629,"current_range_meters":25200,"station_id":"chh1huq6cuj3fo74tm60","pricing_plan_id":"cebpf4jnsgd1na2vs0mg"},{"bike_id":"548bfde2-3722-4ede-8228-1fdfbe8a4414","system_id":"levelo_inurba_marseille","lat":43.297815,"lon":5.393548,"is_reserved":false,"is_disabled":false,"rental_uris":{"android":"levelo://app?vid=548bfde2-3722-4ede-8228-1fdfbe8a4414","ios":"levelo://app?vid=548bfde2-3722-4ede-8228-1fdfbe8a4414"},"vehicle_type_id":"4","last_reported":1708475629,"current_range_meters":2000,"station_id":"chh1huq6cuj3fo74tm60","pricing_plan_id":"cebpf4jnsgd1na2vs0mg"},{"bike_id":"35a6337e-f52d-45ff-a42a-40f08f2c5c79","system_id":"levelo_inurba_marseille","lat":43.297815,"lon":5.393548,"is_reserved":false,"is_disabled":false,"rental_uris":{"android":"levelo://app?vid=35a6337e-f52d-45ff-a42a-40f08f2c5c79","ios":"levelo://app?vid=35a6337e-f52d-45ff-a42a-40f08f2c5c79"},"vehicle_type_id":"4","last_reported":1708475629,"current_range_meters":27600,"station_id":"chh1huq6cuj3fo74tm60","pricing_plan_id":"cebpf4jnsgd1na2vs0mg"},{"bike_id":"3b593a2d-3831-4d86-a542-8b3e4bb17009","system_id":"levelo_inurba_marseille","lat":43.297815,"lon":5.393548,"is_reserved":false,"is_disabled":false,"rental_uris":{"android":"levelo://app?vid=3b593a2d-3831-4d86-a542-8b3e4bb17009","ios":"levelo://app?vid=3b593a2d-3831-4d86-a542-8b3e4bb17009"},"vehicle_type_id":"4","last_reported":1708475629,"current_range_meters":30400,"station_id":"chh1huq6cuj3fo74tm60","pricing_plan_id":"cebpf4jnsgd1na2vs0mg"},{"bike_id":"a4f2e61f-fb62-4278-b6f8-aa1032f104d0","system_id":"levelo_inurba_marseille","lat":43.330442,"lon":5.389148,"is_reserved":false,"is_disabled":false,"rental_uris":{"android":"levelo://app?vid=a4f2e61f-fb62-4278-b6f8-aa1032f104d0","ios":"levelo://app?vid=a4f2e61f-fb62-4278-b6f8-aa1032f104d0"},"vehicle_type_id":"4","last_reported":1708475629,"current_range_meters":29200,"station_id":"ce4bhr92rcd13ifvqhrg","pricing_plan_id":"cebpf4jnsgd1na2vs0mg"},{"bike_id":"b222e60b-1a0a-4238-8d75-ad779c97778f","system_id":"levelo_inurba_marseille","lat":43.330442,"lon":5.389148,"is_reserved":false,"is_disabled":false,"rental_uris":{"android":"levelo://app?vid=b222e60b-1a0a-4238-8d75-ad779c97778f","ios":"levelo://app?vid=b222e60b-1a0a-4238-8d75-ad779c97778f"},"vehicle_type_id":"4","last_reported":1708475629,"current_range_meters":15200,"station_id":"ce4bhr92rcd13ifvqhrg","pricing_plan_id":"cebpf4jnsgd1na2vs0mg"},{"bike_id":"a23bf987-ce70-4b6f-befe-ba809f1a1527","system_id":"levelo_inurba_marseille","lat":43.330442,"lon":5.389148,"is_reserved":false,"is_disabled":false,"rental_uris":{"android":"levelo://app?vid=a23bf987-ce70-4b6f-befe-ba809f1a1527","ios":"levelo://app?vid=a23bf987-ce70-4b6f-befe-ba809f1a1527"},"vehicle_type_id":"4","last_reported":1708475629,"current_range_meters":16400,"station_id":"ce4bhr92rcd13ifvqhrg","pricing_plan_id":"cebpf4jnsgd1na2vs0mg"},{"bike_id":"6eeabb33-b7da-4a2a-9379-a33d75a1d883","system_id":"levelo_inurba_marseille","lat":43.289743,"lon":5.378304,"is_reserved":false,"is_disabled":false,"rental_uris":{"android":"levelo://app?vid=6eeabb33-b7da-4a2a-9379-a33d75a1d883","ios":"levelo://app?vid=6eeabb33-b7da-4a2a-9379-a33d75a1d883"},"vehicle_type_id":"4","last_reported":1708475629,"current_range_meters":25200,"station_id":"ce4bh9p2rcd13ifvqed0","pricing_plan_id":"cebpf4jnsgd1na2vs0mg"},{"bike_id":"932330b3-562c-4b21-9f8a-bb2f40646d8f","system_id":"levelo_inurba_marseille","lat":43.29019,"lon":5.38143,"is_reserved":false,"is_disabled":false,"rental_uris":{"android":"levelo://app?vid=932330b3-562c-4b21-9f8a-bb2f40646d8f","ios":"levelo://app?vid=932330b3-562c-4b21-9f8a-bb2f40646d8f"},"vehicle_type_id":"4","last_reported":1708475629,"current_range_meters":30400,"station_id":"ce4bh4p2rcd13ifvqe1g","pricing_plan_id":"cebpf4jnsgd1na2vs0mg"},{"bike_id":"e5c63d34-b5f1-4645-9107-7db06c02b54e","system_id":"levelo_inurba_marseille","lat":43.28856,"lon":5.358371,"is_reserved":false,"is_disabled":false,"rental_uris":{"android":"levelo://app?vid=e5c63d34-b5f1-4645-9107-7db06c02b54e","ios":"levelo://app?vid=e5c63d34-b5f1-4645-9107-7db06c02b54e"},"vehicle_type_id":"4","last_reported":1708475629,"current_range_meters":20400,"station_id":"ce4bhb12rcd13ifvqem0","pricing_plan_id":"cebpf4jnsgd1na2vs0mg"},{"bike_id":"027551a6-4bd6-44a1-b996-3e2805d45022","system_id":"levelo_inurba_marseille","lat":43.30188,"lon":5.39778,"is_reserved":false,"is_disabled":false,"rental_uris":{"android":"levelo://app?vid=027551a6-4bd6-44a1-b996-3e2805d45022","ios":"levelo://app?vid=027551a6-4bd6-44a1-b996-3e2805d45022"},"vehicle_type_id":"4","last_reported":1708475629,"current_range_meters":14000,"station_id":"","pricing_plan_id":"cebpf4jnsgd1na2vs0mg"},{"bike_id":"578a0353-9712-4729-952c-585c16d29e60","system_id":"levelo_inurba_marseille","lat":43.28856,"lon":5.358371,"is_reserved":false,"is_disabled":false,"rental_uris":{"android":"levelo://app?vid=578a0353-9712-4729-952c-585c16d29e60","ios":"levelo://app?vid=578a0353-9712-4729-952c-585c16d29e60"},"vehicle_type_id":"4","last_reported":1708475629,"current_range_meters":32000,"station_id":"ce4bhb12rcd13ifvqem0","pricing_plan_id":"cebpf4jnsgd1na2vs0mg"},{"bike_id":"e5d82bd8-cc64-45b6-a104-0156c6ed11a6","system_id":"levelo_inurba_marseille","lat":43.28856,"lon":5.358371,"is_reserved":false,"is_disabled":false,"rental_uris":{"android":"levelo://app?vid=e5d82bd8-cc64-45b6-a104-0156c6ed11a6","ios":"levelo://app?vid=e5d82bd8-cc64-45b6-a104-0156c6ed11a6"},"vehicle_type_id":"4","last_reported":1708475629,"current_range_meters":9200,"station_id":"ce4bhb12rcd13ifvqem0","pricing_plan_id":"cebpf4jnsgd1na2vs0mg"},{"bike_id":"3b6cd65d-0116-4560-850e-21b573391be0","system_id":"levelo_inurba_marseille","lat":43.28856,"lon":5.358371,"is_reserved":false,"is_disabled":false,"rental_uris":{"android":"levelo://app?vid=3b6cd65d-0116-4560-850e-21b573391be0","ios":"levelo://app?vid=3b6cd65d-0116-4560-850e-21b573391be0"},"vehicle_type_id":"4","last_reported":1708475629,"current_range_meters":1600,"station_id":"ce4bhb12rcd13ifvqem0","pricing_plan_id":"cebpf4jnsgd1na2vs0mg"},{"bike_id":"c9884986-1cea-4439-8c97-cb2165044817","system_id":"levelo_inurba_marseille","lat":43.28856,"lon":5.358371,"is_reserved":false,"is_disabled":false,"rental_uris":{"android":"levelo://app?vid=c9884986-1cea-4439-8c97-cb2165044817","ios":"levelo://app?vid=c9884986-1cea-4439-8c97-cb2165044817"},"vehicle_type_id":"4","last_reported":1708475629,"current_range_meters":16000,"station_id":"ce4bhb12rcd13ifvqem0","pricing_plan_id":"cebpf4jnsgd1na2vs0mg"},{"bike_id":"7deb327a-8ec1-4ef5-bc5c-705ae6bbb03e","system_id":"levelo_inurba_marseille","lat":43.28856,"lon":5.358371,"is_reserved":false,"is_disabled":false,"rental_uris":{"android":"levelo://app?vid=7deb327a-8ec1-4ef5-bc5c-705ae6bbb03e","ios":"levelo://app?vid=7deb327a-8ec1-4ef5-bc5c-705ae6bbb03e"},"vehicle_type_id":"4","last_reported":1708475629,"current_range_meters":31600,"station_id":"ce4bhb12rcd13ifvqem0","pricing_plan_id":"cebpf4jnsgd1na2vs0mg"},{"bike_id":"11d8e85d-5c7b-40c5-b652-e4305b8df9c2","system_id":"levelo_inurba_marseille","lat":43.28856,"lon":5.358371,"is_reserved":false,"is_disabled":false,"rental_uris":{"android":"levelo://app?vid=11d8e85d-5c7b-40c5-b652-e4305b8df9c2","ios":"levelo://app?vid=11d8e85d-5c7b-40c5-b652-e4305b8df9c2"},"vehicle_type_id":"4","last_reported":1708475629,"current_range_meters":24000,"station_id":"ce4bhb12rcd13ifvqem0","pricing_plan_id":"cebpf4jnsgd1na2vs0mg"},{"bike_id":"4c1e26da-1daa-47cb-a1b0-68f224959241","system_id":"levelo_inurba_marseille","lat":43.28856,"lon":5.358371,"is_reserved":false,"is_disabled":false,"rental_uris":{"android":"levelo://app?vid=4c1e26da-1daa-47cb-a1b0-68f224959241","ios":"levelo://app?vid=4c1e26da-1daa-47cb-a1b0-68f224959241"},"vehicle_type_id":"4","last_reported":1708475629,"current_range_meters":30400,"station_id":"ce4bhb12rcd13ifvqem0","pricing_plan_id":"cebpf4jnsgd1na2vs0mg"},{"bike_id":"ffb0535d-7dbb-4a72-a854-1ec79435caa5","system_id":"levelo_inurba_marseille","lat":43.28856,"lon":5.358371,"is_reserved":false,"is_disabled":false,"rental_uris":{"android":"levelo://app?vid=ffb0535d-7dbb-4a72-a854-1ec79435caa5","ios":"levelo://app?vid=ffb0535d-7dbb-4a72-a854-1ec79435caa5"},"vehicle_type_id":"4","last_reported":1708475629,"current_range_meters":26400,"station_id":"ce4bhb12rcd13ifvqem0","pricing_plan_id":"cebpf4jnsgd1na2vs0mg"},{"bike_id":"c1468d7e-1f6b-4a4b-baf6-7dbfd34e7699","system_id":"levelo_inurba_marseille","lat":43.28856,"lon":5.358371,"is_reserved":false,"is_disabled":false,"rental_uris":{"android":"levelo://app?vid=c1468d7e-1f6b-4a4b-baf6-7dbfd34e7699","ios":"levelo://app?vid=c1468d7e-1f6b-4a4b-baf6-7dbfd34e7699"},"vehicle_type_id":"4","last_reported":1708475629,"current_range_meters":19600,"station_id":"ce4bhb12rcd13ifvqem0","pricing_plan_id":"cebpf4jnsgd1na2vs0mg"},{"bike_id":"55522c3c-5647-43cd-8c9a-b2bd90cc62c5","system_id":"levelo_inurba_marseille","lat":43.288499,"lon":5.358466,"is_reserved":false,"is_disabled":false,"rental_uris":{"android":"levelo://app?vid=55522c3c-5647-43cd-8c9a-b2bd90cc62c5","ios":"levelo://app?vid=55522c3c-5647-43cd-8c9a-b2bd90cc62c5"},"vehicle_type_id":"4","last_reported":1708475629,"current_range_meters":19200,"station_id":"","pricing_plan_id":"cebpf4jnsgd1na2vs0mg"},{"bike_id":"966e9201-20e9-475a-b772-91a9116193af","system_id":"levelo_inurba_marseille","lat":43.28856,"lon":5.358371,"is_reserved":false,"is_disabled":false,"rental_uris":{"android":"levelo://app?vid=966e9201-20e9-475a-b772-91a9116193af","ios":"levelo://app?vid=966e9201-20e9-475a-b772-91a9116193af"},"vehicle_type_id":"4","last_reported":1708475629,"current_range_meters":7600,"station_id":"ce4bhb12rcd13ifvqem0","pricing_plan_id":"cebpf4jnsgd1na2vs0mg"},{"bike_id":"905a4aaa-d9ec-447c-981b-62b411ed91a5","system_id":"levelo_inurba_marseille","lat":43.28856,"lon":5.358371,"is_reserved":false,"is_disabled":false,"rental_uris":{"android":"levelo://app?vid=905a4aaa-d9ec-447c-981b-62b411ed91a5","ios":"levelo://app?vid=905a4aaa-d9ec-447c-981b-62b411ed91a5"},"vehicle_type_id":"4","last_reported":1708475629,"current_range_meters":9600,"station_id":"ce4bhb12rcd13ifvqem0","pricing_plan_id":"cebpf4jnsgd1na2vs0mg"},{"bike_id":"4cdc7c66-a8e9-46bc-8b00-ade4932aeceb","system_id":"levelo_inurba_marseille","lat":43.28856,"lon":5.358371,"is_reserved":false,"is_disabled":false,"rental_uris":{"android":"levelo://app?vid=4cdc7c66-a8e9-46bc-8b00-ade4932aeceb","ios":"levelo://app?vid=4cdc7c66-a8e9-46bc-8b00-ade4932aeceb"},"vehicle_type_id":"4","last_reported":1708475629,"current_range_meters":28800,"station_id":"ce4bhb12rcd13ifvqem0","pricing_plan_id":"cebpf4jnsgd1na2vs0mg"},{"bike_id":"9d8e6e39-7b6d-476d-a681-3f4ab3709dc3","system_id":"levelo_inurba_marseille","lat":43.28856,"lon":5.358371,"is_reserved":false,"is_disabled":false,"rental_uris":{"android":"levelo://app?vid=9d8e6e39-7b6d-476d-a681-3f4ab3709dc3","ios":"levelo://app?vid=9d8e6e39-7b6d-476d-a681-3f4ab3709dc3"},"vehicle_type_id":"4","last_reported":1708475629,"current_range_meters":20000,"station_id":"ce4bhb12rcd13ifvqem0","pricing_plan_id":"cebpf4jnsgd1na2vs0mg"},{"bike_id":"d0d74ce0-8db1-44a1-8eac-f5e1c6bca7e1","system_id":"levelo_inurba_marseille","lat":43.28856,"lon":5.358371,"is_reserved":false,"is_disabled":false,"rental_uris":{"android":"levelo://app?vid=d0d74ce0-8db1-44a1-8eac-f5e1c6bca7e1","ios":"levelo://app?vid=d0d74ce0-8db1-44a1-8eac-f5e1c6bca7e1"},"vehicle_type_id":"4","last_reported":1708475629,"current_range_meters":29600,"station_id":"ce4bhb12rcd13ifvqem0","pricing_plan_id":"cebpf4jnsgd1na2vs0mg"},{"bike_id":"bee98f28-a687-44a1-a0fc-44985e86dc27","system_id":"levelo_inurba_marseille","lat":43.337403,"lon":5.374551,"is_reserved":false,"is_disabled":false,"rental_uris":{"android":"levelo://app?vid=bee98f28-a687-44a1-a0fc-44985e86dc27","ios":"levelo://app?vid=bee98f28-a687-44a1-a0fc-44985e86dc27"},"vehicle_type_id":"4","last_reported":1708475629,"current_range_meters":10000,"station_id":"","pricing_plan_id":"cebpf4jnsgd1na2vs0mg"},{"bike_id":"a7cdcf57-40b7-4c34-a1a1-be032556b2b8","system_id":"levelo_inurba_marseille","lat":43.312609,"lon":5.401662,"is_reserved":false,"is_disabled":false,"rental_uris":{"android":"levelo://app?vid=a7cdcf57-40b7-4c34-a1a1-be032556b2b8","ios":"levelo://app?vid=a7cdcf57-40b7-4c34-a1a1-be032556b2b8"},"vehicle_type_id":"4","last_reported":1708475629,"current_range_meters":25600,"station_id":"ce4bh092rcd13ifvqd30","pricing_plan_id":"cebpf4jnsgd1na2vs0mg"},{"bike_id":"a1498246-c0b1-4f0d-bd64-954d2199b2fc","system_id":"levelo_inurba_marseille","lat":43.312609,"lon":5.401662,"is_reserved":false,"is_disabled":false,"rental_uris":{"android":"levelo://app?vid=a1498246-c0b1-4f0d-bd64-954d2199b2fc","ios":"levelo://app?vid=a1498246-c0b1-4f0d-bd64-954d2199b2fc"},"vehicle_type_id":"4","last_reported":1708475629,"current_range_meters":26400,"station_id":"ce4bh092rcd13ifvqd30","pricing_plan_id":"cebpf4jnsgd1na2vs0mg"},{"bike_id":"41ba68a2-87d7-40be-89ef-a0c23b7bf4a4","system_id":"levelo_inurba_marseille","lat":43.309371,"lon":5.401449,"is_reserved":false,"is_disabled":false,"rental_uris":{"android":"levelo://app?vid=41ba68a2-87d7-40be-89ef-a0c23b7bf4a4","ios":"levelo://app?vid=41ba68a2-87d7-40be-89ef-a0c23b7bf4a4"},"vehicle_type_id":"4","last_reported":1708475629,"current_range_meters":6000,"station_id":"ce4bgvp2rcd13ifvqct0","pricing_plan_id":"cebpf4jnsgd1na2vs0mg"},{"bike_id":"89d65cf8-fb75-4b83-9668-72258beda1f2","system_id":"levelo_inurba_marseille","lat":43.309371,"lon":5.401449,"is_reserved":false,"is_disabled":false,"rental_uris":{"android":"levelo://app?vid=89d65cf8-fb75-4b83-9668-72258beda1f2","ios":"levelo://app?vid=89d65cf8-fb75-4b83-9668-72258beda1f2"},"vehicle_type_id":"4","last_reported":1708475629,"current_range_meters":22000,"station_id":"ce4bgvp2rcd13ifvqct0","pricing_plan_id":"cebpf4jnsgd1na2vs0mg"},{"bike_id":"6a2b7330-9a83-4705-bf85-f8b9cdd5dce9","system_id":"levelo_inurba_marseille","lat":43.309371,"lon":5.401449,"is_reserved":false,"is_disabled":false,"rental_uris":{"android":"levelo://app?vid=6a2b7330-9a83-4705-bf85-f8b9cdd5dce9","ios":"levelo://app?vid=6a2b7330-9a83-4705-bf85-f8b9cdd5dce9"},"vehicle_type_id":"4","last_reported":1708475629,"current_range_meters":0,"station_id":"ce4bgvp2rcd13ifvqct0","pricing_plan_id":"cebpf4jnsgd1na2vs0mg"},{"bike_id":"a9590e29-6430-4b45-9132-f1ddd259b564","system_id":"levelo_inurba_marseille","lat":43.309371,"lon":5.401449,"is_reserved":false,"is_disabled":false,"rental_uris":{"android":"levelo://app?vid=a9590e29-6430-4b45-9132-f1ddd259b564","ios":"levelo://app?vid=a9590e29-6430-4b45-9132-f1ddd259b564"},"vehicle_type_id":"4","last_reported":1708475629,"current_range_meters":18000,"station_id":"ce4bgvp2rcd13ifvqct0","pricing_plan_id":"cebpf4jnsgd1na2vs0mg"},{"bike_id":"e4a67b1e-28e1-4fc9-ab5b-11219812b7e1","system_id":"levelo_inurba_marseille","lat":43.309371,"lon":5.401449,"is_reserved":false,"is_disabled":false,"rental_uris":{"android":"levelo://app?vid=e4a67b1e-28e1-4fc9-ab5b-11219812b7e1","ios":"levelo://app?vid=e4a67b1e-28e1-4fc9-ab5b-11219812b7e1"},"vehicle_type_id":"4","last_reported":1708475629,"current_range_meters":8800,"station_id":"ce4bgvp2rcd13ifvqct0","pricing_plan_id":"cebpf4jnsgd1na2vs0mg"},{"bike_id":"8032f488-736d-4f91-b5b8-9c785931ead9","system_id":"levelo_inurba_marseille","lat":43.309371,"lon":5.401449,"is_reserved":false,"is_disabled":false,"rental_uris":{"android":"levelo://app?vid=8032f488-736d-4f91-b5b8-9c785931ead9","ios":"levelo://app?vid=8032f488-736d-4f91-b5b8-9c785931ead9"},"vehicle_type_id":"4","last_reported":1708475629,"current_range_meters":12800,"station_id":"ce4bgvp2rcd13ifvqct0","pricing_plan_id":"cebpf4jnsgd1na2vs0mg"},{"bike_id":"254db809-d603-4868-be95-eb61ba19bc37","system_id":"levelo_inurba_marseille","lat":43.33751,"lon":5.37446,"is_reserved":false,"is_disabled":false,"rental_uris":{"android":"levelo://app?vid=254db809-d603-4868-be95-eb61ba19bc37","ios":"levelo://app?vid=254db809-d603-4868-be95-eb61ba19bc37"},