{"last_updated":1740085669,"ttl":60,"version":"2.2","data":{"bikes":[{"bike_id":"01b7315d-5d0f-4dd1-a01e-2b36cddbe5c5","system_id":"levelo_inurba_marseille","lat":43.29806,"lon":5.39355,"is_reserved":false,"is_disabled":false,"rental_uris":{"android":"levelo://app?vid=01b7315d-5d0f-4dd1-a01e-2b36cddbe5c5","ios":"levelo://app?vid=01b7315d-5d0f-4dd1-a01e-2b36cddbe5c5"},"vehicle_type_id":"4","last_reported":1740085669,"current_range_meters":2800,"station_id":"chh1huq6cuj3fo74tm60","pricing_plan_id":"cebpf4jnsgd1na2vs0mg"},{"bike_id":"b4b77f69-4833-4b67-8082-c164ba3804cd","system_id":"levelo_inurba_marseille","lat":43.26194,"lon":5.37448,"is_reserved":false,"is_disabled":false,"rental_uris":{"android":"levelo://app?vid=b4b77f69-4833-4b67-8082-c164ba3804cd","ios":"levelo://app?vid=b4b77f69-4833-4b67-8082-c164ba3804cd"},"vehicle_type_id":"4","last_reported":1740085669,"current_range_meters":2800,"station_id":"ce4bhgp2rcd13ifvqfc0","pricing_plan_id":"cebpf4jnsgd1na2vs0mg"},{"bike_id":"92971d3b-6c9b-4056-bfe1-252bd26e3f4c","system_id":"levelo_inurba_marseille","lat":43.28634,"lon":5.3509,"is_reserved":false,"is_disabled":false,"rental_uris":{"android":"levelo://app?vid=92971d3b-6c9b-4056-bfe1-252bd26e3f4c","ios":"levelo://app?vid=92971d3b-6c9b-4056-bfe1-252bd26e3f4c"},"vehicle_type_id":"4","last_reported":1740085669,"current_range_meters":2800,"station_id":"ce4bhch2rcd13ifvqeug","pricing_plan_id":"cebpf4jnsgd1na2vs0mg"},{"bike_id":"adb3d6df-7149-4295-84c9-8f4cb47f9c0e","system_id":"levelo_inurba_marseille","lat":43.27281,"lon":5.40686,"is_reserved":false,"is_disabled":true,"rental_uris":{"android":"levelo://app?vid=adb3d6df-7149-4295-84c9-8f4cb47f9c0e","ios":"levelo://app?vid=adb3d6df-7149-4295-84c9-8f4cb47f9c0e"},"vehicle_type_id":"4","last_reported":1740085669,"current_range_meters":2800,"station_id":"","pricing_plan_id":"cebpf4jnsgd1na2vs0mg"},{"bike_id":"32dde587-5e49-41cb-be00-e1bca2c7fd52","system_id":"levelo_inurba_marseille","lat":43.28256,"lon":5.35166,"is_reserved":false,"is_disabled":false,"rental_uris":{"android":"levelo://app?vid=32dde587-5e49-41cb-be00-e1bca2c7fd52","ios":"levelo://app?vid=32dde587-5e49-41cb-be00-e1bca2c7fd52"},"vehicle_type_id":"4","last_reported":1740085669,"current_range_meters":2800,"station_id":"ce4bhbp2rcd13ifvqerg","pricing_plan_id":"cebpf4jnsgd1na2vs0mg"},{"bike_id":"8ac6e6db-5f10-4bc6-b0aa-a34354094a1b","system_id":"levelo_inurba_marseille","lat":43.287867,"lon":5.40047,"is_reserved":false,"is_disabled":false,"rental_uris":{"android":"levelo://app?vid=8ac6e6db-5f10-4bc6-b0aa-a34354094a1b","ios":"levelo://app?vid=8ac6e6db-5f10-4bc6-b0aa-a34354094a1b"},"vehicle_type_id":"4","last_reported":1740085669,"current_range_meters":4000,"station_id":"ce4bhq92rcd13ifvqhkg","pricing_plan_id":"cebpf4jnsgd1na2vs0mg"},{"bike_id":"801cb7cf-efaa-4baf-a54a-2d2ffbf6bb93","system_id":"levelo_inurba_marseille","lat":43.27179,"lon":5.41002,"is_reserved":false,"is_disabled":false,"rental_uris":{"android":"levelo://app?vid=801cb7cf-efaa-4baf-a54a-2d2ffbf6bb93","ios":"levelo://app?vid=801cb7cf-efaa-4baf-a54a-2d2ffbf6bb93"},"vehicle_type_id":"4","last_reported":1740085669,"current_range_meters":4000,"station_id":"ce4bhl12rcd13ifvqgf0","pricing_plan_id":"cebpf4jnsgd1na2vs0mg"},{"bike_id":"badc690f-c10b-46fb-87e6-9e9ab16ae651","system_id":"levelo_inurba_marseille","lat":43.30931,"lon":5.40145,"is_reserved":false,"is_disabled":false,"rental_uris":{"android":"levelo://app?vid=badc690f-c10b-46fb-87e6-9e9ab16ae651","ios":"levelo://app?vid=badc690f-c10b-46fb-87e6-9e9ab16ae651"},"vehicle_type_id":"4","last_reported":1740085669,"current_range_meters":4000,"station_id":"ce4bgvp2rcd13ifvqct0","pricing_plan_id":"cebpf4jnsgd1na2vs0mg"},{"bike_id":"c1681cbe-e912-4c16-af98-5f0e83fbc6b9","system_id":"levelo_inurba_marseille","lat":43.29625,"lon":5.40595,"is_reserved":false,"is_disabled":false,"rental_uris":{"android":"levelo://app?vid=c1681cbe-e912-4c16-af98-5f0e83fbc6b9","ios":"levelo://app?vid=c1681cbe-e912-4c16-af98-5f0e83fbc6b9"},"vehicle_type_id":"4","last_reported":1740085669,"current_range_meters":4400,"station_id":"ce4bh0h2rcd13ifvqd60","pricing_plan_id":"cebpf4jnsgd1na2vs0mg"},{"bike_id":"9198c6ef-bd5b-45d9-bd7b-e058d791d44b","system_id":"levelo_inurba_marseille","lat":43.24817,"lon":5.37461,"is_reserved":false,"is_disabled":true,"rental_uris":{"android":"levelo://app?vid=9198c6ef-bd5b-45d9-bd7b-e058d791d44b","ios":"levelo://app?vid=9198c6ef-bd5b-45d9-bd7b-e058d791d44b"},"vehicle_type_id":"4","last_reported":1740085669,"current_range_meters":4400,"station_id":"","pricing_plan_id":"cebpf4jnsgd1na2vs0mg"},{"bike_id":"85019284-01e9-438a-9aeb-77cc3e5e74d4","system_id":"levelo_inurba_marseille","lat":43.28159,"lon":5.42632,"is_reserved":false,"is_disabled":false,"rental_uris":{"android":"levelo://app?vid=85019284-01e9-438a-9aeb-77cc3e5e74d4","ios":"levelo://app?vid=85019284-01e9-438a-9aeb-77cc3e5e74d4"},"vehicle_type_id":"4","last_reported":1740085669,"current_range_meters":4800,"station_id":"ce4bhnh2rcd13ifvqgug","pricing_plan_id":"cebpf4jnsgd1na2vs0mg"},{"bike_id":"39644f4c-7452-4653-8df7-9c7cef84e13d","system_id":"levelo_inurba_marseille","lat":43.25655,"lon":5.39409,"is_reserved":false,"is_disabled":true,"rental_uris":{"android":"levelo://app?vid=39644f4c-7452-4653-8df7-9c7cef84e13d","ios":"levelo://app?vid=39644f4c-7452-4653-8df7-9c7cef84e13d"},"vehicle_type_id":"4","last_reported":1740085669,"current_range_meters":4800,"station_id":"ce4bhh92rcd13ifvqfj0","pricing_plan_id":"cebpf4jnsgd1na2vs0mg"},{"bike_id":"7e05100a-9b55-40be-b6b6-e592d4933e52","system_id":"levelo_inurba_marseille","lat":43.23959,"lon":5.36654,"is_reserved":false,"is_disabled":false,"rental_uris":{"android":"levelo://app?vid=7e05100a-9b55-40be-b6b6-e592d4933e52","ios":"levelo://app?vid=7e05100a-9b55-40be-b6b6-e592d4933e52"},"vehicle_type_id":"4","last_reported":1740085669,"current_range_meters":5600,"station_id":"","pricing_plan_id":"cebpf4jnsgd1na2vs0mg"},{"bike_id":"03ec2e9f-fe3b-44e4-9988-3c39b2ef386f","system_id":"levelo_inurba_marseille","lat":43.293187,"lon":5.371467,"is_reserved":false,"is_disabled":false,"rental_uris":{"android":"levelo://app?vid=03ec2e9f-fe3b-44e4-9988-3c39b2ef386f","ios":"levelo://app?vid=03ec2e9f-fe3b-44e4-9988-3c39b2ef386f"},"vehicle_type_id":"4","last_reported":1740085669,"current_range_meters":5600,"station_id":"ce4bh192rcd13ifvqdd0","pricing_plan_id":"cebpf4jnsgd1na2vs0mg"},{"bike_id":"00aa40ea-ace4-4502-b25e-7295a4a552e2","system_id":"levelo_inurba_marseille","lat":43.29313,"lon":5.37153,"is_reserved":false,"is_disabled":false,"rental_uris":{"android":"levelo://app?vid=00aa40ea-ace4-4502-b25e-7295a4a552e2","ios":"levelo://app?vid=00aa40ea-ace4-4502-b25e-7295a4a552e2"},"vehicle_type_id":"4","last_reported":1740085669,"current_range_meters":5600,"station_id":"","pricing_plan_id":"cebpf4jnsgd1na2vs0mg"},{"bike_id":"3db8d02f-0a81-464f-a2ad-8f4f30d7fc66","system_id":"levelo_inurba_marseille","lat":43.30813,"lon":5.38165,"is_reserved":false,"is_disabled":false,"rental_uris":{"android":"levelo://app?vid=3db8d02f-0a81-464f-a2ad-8f4f30d7fc66","ios":"levelo://app?vid=3db8d02f-0a81-464f-a2ad-8f4f30d7fc66"},"vehicle_type_id":"4","last_reported":1740085669,"current_range_meters":5600,"station_id":"ce4bgt92rcd13ifvqcf0","pricing_plan_id":"cebpf4jnsgd1na2vs0mg"},{"bike_id":"d45adf7e-5346-47c4-b4e6-399be22be4f9","system_id":"levelo_inurba_marseille","lat":43.28463,"lon":5.35903,"is_reserved":false,"is_disabled":false,"rental_uris":{"android":"levelo://app?vid=d45adf7e-5346-47c4-b4e6-399be22be4f9","ios":"levelo://app?vid=d45adf7e-5346-47c4-b4e6-399be22be4f9"},"vehicle_type_id":"4","last_reported":1740085669,"current_range_meters":5600,"station_id":"","pricing_plan_id":"cebpf4jnsgd1na2vs0mg"},{"bike_id":"5a939b26-5104-4256-b661-cf4ed21f354b","system_id":"levelo_inurba_marseille","lat":43.31884,"lon":5.40741,"is_reserved":false,"is_disabled":false,"rental_uris":{"android":"levelo://app?vid=5a939b26-5104-4256-b661-cf4ed21f354b","ios":"levelo://app?vid=5a939b26-5104-4256-b661-cf4ed21f354b"},"vehicle_type_id":"4","last_reported":1740085669,"current_range_meters":5600,"station_id":"ce4bhq12rcd13ifvqhig","pricing_plan_id":"cebpf4jnsgd1na2vs0mg"},{"bike_id":"70704bdf-6f20-4377-9e2d-9671c9a9ed28","system_id":"levelo_inurba_marseille","lat":43.28405,"lon":5.37519,"is_reserved":false,"is_disabled":false,"rental_uris":{"android":"levelo://app?vid=70704bdf-6f20-4377-9e2d-9671c9a9ed28","ios":"levelo://app?vid=70704bdf-6f20-4377-9e2d-9671c9a9ed28"},"vehicle_type_id":"4","last_reported":1740085669,"current_range_meters":5600,"station_id":"","pricing_plan_id":"cebpf4jnsgd1na2vs0mg"},{"bike_id":"6eb49ef1-8f05-48e9-ae97-81183fd5077b","system_id":"levelo_inurba_marseille","lat":43.30883,"lon":5.37195,"is_reserved":false,"is_disabled":false,"rental_uris":{"android":"levelo://app?vid=6eb49ef1-8f05-48e9-ae97-81183fd5077b","ios":"levelo://app?vid=6eb49ef1-8f05-48e9-ae97-81183fd5077b"},"vehicle_type_id":"4","last_reported":1740085669,"current_range_meters":6000,"station_id":"ce4bguh2rcd13ifvqckg","pricing_plan_id":"cebpf4jnsgd1na2vs0mg"},{"bike_id":"390f1509-cd76-4c06-a9c9-debce64d9cd5","system_id":"levelo_inurba_marseille","lat":43.28906,"lon":5.39554,"is_reserved":false,"is_disabled":false,"rental_uris":{"android":"levelo://app?vid=390f1509-cd76-4c06-a9c9-debce64d9cd5","ios":"levelo://app?vid=390f1509-cd76-4c06-a9c9-debce64d9cd5"},"vehicle_type_id":"4","last_reported":1740085669,"current_range_meters":6000,"station_id":"ce4bh3h2rcd13ifvqdn0","pricing_plan_id":"cebpf4jnsgd1na2vs0mg"},{"bike_id":"26402195-cc5c-44fb-9785-5f3ebabfb569","system_id":"levelo_inurba_marseille","lat":43.26497,"lon":5.39554,"is_reserved":false,"is_disabled":false,"rental_uris":{"android":"levelo://app?vid=26402195-cc5c-44fb-9785-5f3ebabfb569","ios":"levelo://app?vid=26402195-cc5c-44fb-9785-5f3ebabfb569"},"vehicle_type_id":"4","last_reported":1740085669,"current_range_meters":6400,"station_id":"ce4bhi12rcd13ifvqfq0","pricing_plan_id":"cebpf4jnsgd1na2vs0mg"},{"bike_id":"4b81ad09-8e5a-4edd-8cab-1cbc89bbb9a4","system_id":"levelo_inurba_marseille","lat":43.27987,"lon":5.41657,"is_reserved":false,"is_disabled":false,"rental_uris":{"android":"levelo://app?vid=4b81ad09-8e5a-4edd-8cab-1cbc89bbb9a4","ios":"levelo://app?vid=4b81ad09-8e5a-4edd-8cab-1cbc89bbb9a4"},"vehicle_type_id":"4","last_reported":1740085669,"current_range_meters":6400,"station_id":"ce4bho12rcd13ifvqh1g","pricing_plan_id":"cebpf4jnsgd1na2vs0mg"},{"bike_id":"ab84dbbf-6c53-481f-8523-7f2e10cec44b","system_id":"levelo_inurba_marseille","lat":43.2952,"lon":5.39041,"is_reserved":false,"is_disabled":false,"rental_uris":{"android":"levelo://app?vid=ab84dbbf-6c53-481f-8523-7f2e10cec44b","ios":"levelo://app?vid=ab84dbbf-6c53-481f-8523-7f2e10cec44b"},"vehicle_type_id":"4","last_reported":1740085669,"current_range_meters":6400,"station_id":"ce4bh3p2rcd13ifvqdp0","pricing_plan_id":"cebpf4jnsgd1na2vs0mg"},{"bike_id":"816e3e7b-b107-4001-b79f-e380ada67102","system_id":"levelo_inurba_marseille","lat":43.24152,"lon":5.36421,"is_reserved":false,"is_disabled":false,"rental_uris":{"android":"levelo://app?vid=816e3e7b-b107-4001-b79f-e380ada67102","ios":"levelo://app?vid=816e3e7b-b107-4001-b79f-e380ada67102"},"vehicle_type_id":"4","last_reported":1740085669,"current_range_meters":6400,"station_id":"cpo36qri1sfpv3e86is0","pricing_plan_id":"cebpf4jnsgd1na2vs0mg"},{"bike_id":"bb40ec55-3b1a-4315-85d8-586e1c292a4b","system_id":"levelo_inurba_marseille","lat":43.31322,"lon":5.39697,"is_reserved":false,"is_disabled":false,"rental_uris":{"android":"levelo://app?vid=bb40ec55-3b1a-4315-85d8-586e1c292a4b","ios":"levelo://app?vid=bb40ec55-3b1a-4315-85d8-586e1c292a4b"},"vehicle_type_id":"4","last_reported":1740085669,"current_range_meters":6400,"station_id":"ce4bgvp2rcd13ifvqcu0","pricing_plan_id":"cebpf4jnsgd1na2vs0mg"},{"bike_id":"071d380f-647a-44d0-bf40-dced64038ac2","system_id":"levelo_inurba_marseille","lat":43.29899,"lon":5.4367,"is_reserved":false,"is_disabled":false,"rental_uris":{"android":"levelo://app?vid=071d380f-647a-44d0-bf40-dced64038ac2","ios":"levelo://app?vid=071d380f-647a-44d0-bf40-dced64038ac2"},"vehicle_type_id":"4","last_reported":1740085669,"current_range_meters":6400,"station_id":"ce4bhpp2rcd13ifvqhfg","pricing_plan_id":"cebpf4jnsgd1na2vs0mg"},{"bike_id":"5c591040-c676-4e6a-989d-b4fcb5cb755a","system_id":"levelo_inurba_marseille","lat":43.25866,"lon":5.39894,"is_reserved":false,"is_disabled":false,"rental_uris":{"android":"levelo://app?vid=5c591040-c676-4e6a-989d-b4fcb5cb755a","ios":"levelo://app?vid=5c591040-c676-4e6a-989d-b4fcb5cb755a"},"vehicle_type_id":"4","last_reported":1740085669,"current_range_meters":6800,"station_id":"ce4bhl92rcd13ifvqghg","pricing_plan_id":"cebpf4jnsgd1na2vs0mg"},{"bike_id":"4a808a73-93a5-430e-af77-2d4dd396417c","system_id":"levelo_inurba_marseille","lat":43.29602,"lon":5.38103,"is_reserved":false,"is_disabled":false,"rental_uris":{"android":"levelo://app?vid=4a808a73-93a5-430e-af77-2d4dd396417c","ios":"levelo://app?vid=4a808a73-93a5-430e-af77-2d4dd396417c"},"vehicle_type_id":"4","last_reported":1740085669,"current_range_meters":6800,"station_id":"ce4bgl12rcd13ifvqbo0","pricing_plan_id":"cebpf4jnsgd1na2vs0mg"},{"bike_id":"746a09d6-0d52-4903-a026-bf55d3fb5d98","system_id":"levelo_inurba_marseille","lat":43.29903,"lon":5.43668,"is_reserved":false,"is_disabled":false,"rental_uris":{"android":"levelo://app?vid=746a09d6-0d52-4903-a026-bf55d3fb5d98","ios":"levelo://app?vid=746a09d6-0d52-4903-a026-bf55d3fb5d98"},"vehicle_type_id":"4","last_reported":1740085669,"current_range_meters":6800,"station_id":"ce4bhpp2rcd13ifvqhfg","pricing_plan_id":"cebpf4jnsgd1na2vs0mg"},{"bike_id":"3fa131c8-d3bf-4fb9-b400-1daf371dcaa7","system_id":"levelo_inurba_marseille","lat":43.27187,"lon":5.40981,"is_reserved":false,"is_disabled":false,"rental_uris":{"android":"levelo://app?vid=3fa131c8-d3bf-4fb9-b400-1daf371dcaa7","ios":"levelo://app?vid=3fa131c8-d3bf-4fb9-b400-1daf371dcaa7"},"vehicle_type_id":"4","last_reported":1740085669,"current_range_meters":6800,"station_id":"ce4bhl12rcd13ifvqgf0","pricing_plan_id":"cebpf4jnsgd1na2vs0mg"},{"bike_id":"6f4d39bb-c480-4cb5-9d7d-af2fbb75837b","system_id":"levelo_inurba_marseille","lat":43.29254,"lon":5.40904,"is_reserved":false,"is_disabled":false,"rental_uris":{"android":"levelo://app?vid=6f4d39bb-c480-4cb5-9d7d-af2fbb75837b","ios":"levelo://app?vid=6f4d39bb-c480-4cb5-9d7d-af2fbb75837b"},"vehicle_type_id":"4","last_reported":1740085669,"current_range_meters":6800,"station_id":"ce4bh192rcd13ifvqdc0","pricing_plan_id":"cebpf4jnsgd1na2vs0mg"},{"bike_id":"2aeb5dc6-11c3-4bf6-a30b-505c38aa85cb","system_id":"levelo_inurba_marseille","lat":43.28273,"lon":5.35046,"is_reserved":false,"is_disabled":false,"rental_uris":{"android":"levelo://app?vid=2aeb5dc6-11c3-4bf6-a30b-505c38aa85cb","ios":"levelo://app?vid=2aeb5dc6-11c3-4bf6-a30b-505c38aa85cb"},"vehicle_type_id":"4","last_reported":1740085669,"current_range_meters":6800,"station_id":"ce4bhbp2rcd13ifvqerg","pricing_plan_id":"cebpf4jnsgd1na2vs0mg"},{"bike_id":"f027fe38-3f5d-42fa-b16a-68ca60104c09","system_id":"levelo_inurba_marseille","lat":43.24164,"lon":5.36409,"is_reserved":false,"is_disabled":false,"rental_uris":{"android":"levelo://app?vid=f027fe38-3f5d-42fa-b16a-68ca60104c09","ios":"levelo://app?vid=f027fe38-3f5d-42fa-b16a-68ca60104c09"},"vehicle_type_id":"4","last_reported":1740085669,"current_range_meters":6800,"station_id":"","pricing_plan_id":"cebpf4jnsgd1na2vs0mg"},{"bike_id":"12bac352-3a8a-4ab5-9e73-91aa6dc05934","system_id":"levelo_inurba_marseille","lat":43.29323,"lon":5.37443,"is_reserved":false,"is_disabled":false,"rental_uris":{"android":"levelo://app?vid=12bac352-3a8a-4ab5-9e73-91aa6dc05934","ios":"levelo://app?vid=12bac352-3a8a-4ab5-9e73-91aa6dc05934"},"vehicle_type_id":"4","last_reported":1740085669,"current_range_meters":6800,"station_id":"","pricing_plan_id":"cebpf4jnsgd1na2vs0mg"},{"bike_id":"f8a1eefe-5190-4327-95c3-8138f343fe57","system_id":"levelo_inurba_marseille","lat":43.31157,"lon":5.39305,"is_reserved":false,"is_disabled":false,"rental_uris":{"android":"levelo://app?vid=f8a1eefe-5190-4327-95c3-8138f343fe57","ios":"levelo://app?vid=f8a1eefe-5190-4327-95c3-8138f343fe57"},"vehicle_type_id":"4","last_reported":1740085669,"current_range_meters":6800,"station_id":"ce4bgqh2rcd13ifvqc4g","pricing_plan_id":"cebpf4jnsgd1na2vs0mg"},{"bike_id":"72108fed-3215-41fb-b9c1-3e03b1835c07","system_id":"levelo_inurba_marseille","lat":43.299,"lon":5.43624,"is_reserved":false,"is_disabled":false,"rental_uris":{"android":"levelo://app?vid=72108fed-3215-41fb-b9c1-3e03b1835c07","ios":"levelo://app?vid=72108fed-3215-41fb-b9c1-3e03b1835c07"},"vehicle_type_id":"4","last_reported":1740085669,"current_range_meters":7200,"station_id":"ce4bhpp2rcd13ifvqhfg","pricing_plan_id":"cebpf4jnsgd1na2vs0mg"},{"bike_id":"d5173bbe-86f4-4afc-a8e0-76d62e3a8b83","system_id":"levelo_inurba_marseille","lat":43.23973,"lon":5.36641,"is_reserved":false,"is_disabled":false,"rental_uris":{"android":"levelo://app?vid=d5173bbe-86f4-4afc-a8e0-76d62e3a8b83","ios":"levelo://app?vid=d5173bbe-86f4-4afc-a8e0-76d62e3a8b83"},"vehicle_type_id":"4","last_reported":1740085669,"current_range_meters":7200,"station_id":"ce4bhi12rcd13ifvqfp0","pricing_plan_id":"cebpf4jnsgd1na2vs0mg"},{"bike_id":"34d14ec0-9a1d-4d07-8158-52ff5d0c0371","system_id":"levelo_inurba_marseille","lat":43.29437,"lon":5.38042,"is_reserved":false,"is_disabled":false,"rental_uris":{"android":"levelo://app?vid=34d14ec0-9a1d-4d07-8158-52ff5d0c0371","ios":"levelo://app?vid=34d14ec0-9a1d-4d07-8158-52ff5d0c0371"},"vehicle_type_id":"4","last_reported":1740085669,"current_range_meters":7200,"station_id":"","pricing_plan_id":"cebpf4jnsgd1na2vs0mg"},{"bike_id":"fc971b16-bef3-4b6d-813c-ffc8ffa48842","system_id":"levelo_inurba_marseille","lat":43.2841,"lon":5.34986,"is_reserved":false,"is_disabled":true,"rental_uris":{"android":"levelo://app?vid=fc971b16-bef3-4b6d-813c-ffc8ffa48842","ios":"levelo://app?vid=fc971b16-bef3-4b6d-813c-ffc8ffa48842"},"vehicle_type_id":"4","last_reported":1740085669,"current_range_meters":7200,"station_id":"","pricing_plan_id":"cebpf4jnsgd1na2vs0mg"},{"bike_id":"74c53472-0bbb-40e2-8bee-2d1c5651645e","system_id":"levelo_inurba_marseille","lat":43.29533,"lon":5.38539,"is_reserved":false,"is_disabled":false,"rental_uris":{"android":"levelo://app?vid=74c53472-0bbb-40e2-8bee-2d1c5651645e","ios":"levelo://app?vid=74c53472-0bbb-40e2-8bee-2d1c5651645e"},"vehicle_type_id":"4","last_reported":1740085669,"current_range_meters":7200,"station_id":"","pricing_plan_id":"cebpf4jnsgd1na2vs0mg"},{"bike_id":"ac59dd06-c9f1-44e5-8048-9253ebe8ac2b","system_id":"levelo_inurba_marseille","lat":43.29592,"lon":5.38095,"is_reserved":false,"is_disabled":false,"rental_uris":{"android":"levelo://app?vid=ac59dd06-c9f1-44e5-8048-9253ebe8ac2b","ios":"levelo://app?vid=ac59dd06-c9f1-44e5-8048-9253ebe8ac2b"},"vehicle_type_id":"4","last_reported":1740085669,"current_range_meters":7200,"station_id":"","pricing_plan_id":"cebpf4jnsgd1na2vs0mg"},{"bike_id":"b64778c2-2434-4409-b125-e965a1fd469a","system_id":"levelo_inurba_marseille","lat":43.30305,"lon":5.36688,"is_reserved":false,"is_disabled":false,"rental_uris":{"android":"levelo://app?vid=b64778c2-2434-4409-b125-e965a1fd469a","ios":"levelo://app?vid=b64778c2-2434-4409-b125-e965a1fd469a"},"vehicle_type_id":"4","last_reported":1740085669,"current_range_meters":7200,"station_id":"ce4bgs12rcd13ifvqcag","pricing_plan_id":"cebpf4jnsgd1na2vs0mg"},{"bike_id":"5180f318-4948-4085-aaf1-5f3160b57dbe","system_id":"levelo_inurba_marseille","lat":43.276179,"lon":5.361058,"is_reserved":false,"is_disabled":false,"rental_uris":{"android":"levelo://app?vid=5180f318-4948-4085-aaf1-5f3160b57dbe","ios":"levelo://app?vid=5180f318-4948-4085-aaf1-5f3160b57dbe"},"vehicle_type_id":"4","last_reported":1740085669,"current_range_meters":7200,"station_id":"","pricing_plan_id":"cebpf4jnsgd1na2vs0mg"},{"bike_id":"148ae9af-4dfa-492f-9004-94816519e4b0","system_id":"levelo_inurba_marseille","lat":43.26784,"lon":5.39413,"is_reserved":false,"is_disabled":false,"rental_uris":{"android":"levelo://app?vid=148ae9af-4dfa-492f-9004-94816519e4b0","ios":"levelo://app?vid=148ae9af-4dfa-492f-9004-94816519e4b0"},"vehicle_type_id":"4","last_reported":1740085669,"current_range_meters":7200,"station_id":"ce4bhh12rcd13ifvqfg0","pricing_plan_id":"cebpf4jnsgd1na2vs0mg"},{"bike_id":"63c4cf47-dbff-4d5e-a88a-080b99df99de","system_id":"levelo_inurba_marseille","lat":43.29521,"lon":5.38908,"is_reserved":false,"is_disabled":true,"rental_uris":{"android":"levelo://app?vid=63c4cf47-dbff-4d5e-a88a-080b99df99de","ios":"levelo://app?vid=63c4cf47-dbff-4d5e-a88a-080b99df99de"},"vehicle_type_id":"4","last_reported":1740085669,"current_range_meters":8000,"station_id":"","pricing_plan_id":"cebpf4jnsgd1na2vs0mg"},{"bike_id":"a00fb5cd-e0d2-4f96-befb-5275c0df0c87","system_id":"levelo_inurba_marseille","lat":43.27991,"lon":5.41667,"is_reserved":false,"is_disabled":false,"rental_uris":{"android":"levelo://app?vid=a00fb5cd-e0d2-4f96-befb-5275c0df0c87","ios":"levelo://app?vid=a00fb5cd-e0d2-4f96-befb-5275c0df0c87"},"vehicle_type_id":"4","last_reported":1740085669,"current_range_meters":8000,"station_id":"ce4bho12rcd13ifvqh1g","pricing_plan_id":"cebpf4jnsgd1na2vs0mg"},{"bike_id":"c17b7898-6573-47f3-bf46-316cc5c99a8a","system_id":"levelo_inurba_marseille","lat":43.27995,"lon":5.40017,"is_reserved":false,"is_disabled":false,"rental_uris":{"android":"levelo://app?vid=c17b7898-6573-47f3-bf46-316cc5c99a8a","ios":"levelo://app?vid=c17b7898-6573-47f3-bf46-316cc5c99a8a"},"vehicle_type_id":"4","last_reported":1740085669,"current_range_meters":8000,"station_id":"","pricing_plan_id":"cebpf4jnsgd1na2vs0mg"},{"bike_id":"684f5b02-6f34-4875-b8b8-5db0f93943d9","system_id":"levelo_inurba_marseille","lat":43.27816,"lon":5.40716,"is_reserved":false,"is_disabled":false,"rental_uris":{"android":"levelo://app?vid=684f5b02-6f34-4875-b8b8-5db0f93943d9","ios":"levelo://app?vid=684f5b02-6f34-4875-b8b8-5db0f93943d9"},"vehicle_type_id":"4","last_reported":1740085669,"current_range_meters":8000,"station_id":"","pricing_plan_id":"cebpf4jnsgd1na2vs0mg"},{"bike_id":"120a1038-be58-4361-80b4-0796eba705fb","system_id":"levelo_inurba_marseille","lat":43.2686,"lon":5.4032,"is_reserved":false,"is_disabled":false,"rental_uris":{"android":"levelo://app?vid=120a1038-be58-4361-80b4-0796eba705fb","ios":"levelo://app?vid=120a1038-be58-4361-80b4-0796eba705fb"},"vehicle_type_id":"4","last_reported":1740085669,"current_range_meters":8000,"station_id":"ce501612rcd8frsf0b60","pricing_plan_id":"cebpf4jnsgd1na2vs0mg"},{"bike_id":"104b15c6-bf74-407c-9a34-de8a1be58e4f","system_id":"levelo_inurba_marseille","lat":43.29242,"lon":5.37333,"is_reserved":false,"is_disabled":false,"rental_uris":{"android":"levelo://app?vid=104b15c6-bf74-407c-9a34-de8a1be58e4f","ios":"levelo://app?vid=104b15c6-bf74-407c-9a34-de8a1be58e4f"},"vehicle_type_id":"4","last_reported":1740085669,"current_range_meters":8000,"station_id":"","pricing_plan_id":"cebpf4jnsgd1na2vs0mg"},{"bike_id":"15f25508-0363-46a9-b0fc-c285bc18de20","system_id":"levelo_inurba_marseille","lat":43.26232,"lon":5.40436,"is_reserved":false,"is_disabled":false,"rental_uris":{"android":"levelo://app?vid=15f25508-0363-46a9-b0fc-c285bc18de20","ios":"levelo://app?vid=15f25508-0363-46a9-b0fc-c285bc18de20"},"vehicle_type_id":"4","last_reported":1740085669,"current_range_meters":8000,"station_id":"ce4bhmh2rcd13ifvqgmg","pricing_plan_id":"cebpf4jnsgd1na2vs0mg"},{"bike_id":"7bba333f-0ece-4786-b9b4-daaa20fde672","system_id":"levelo_inurba_marseille","lat":43.29256,"lon":5.38447,"is_reserved":false,"is_disabled":false,"rental_uris":{"android":"levelo://app?vid=7bba333f-0ece-4786-b9b4-daaa20fde672","ios":"levelo://app?vid=7bba333f-0ece-4786-b9b4-daaa20fde672"},"vehicle_type_id":"4","last_reported":1740085669,"current_range_meters":8000,"station_id":"","pricing_plan_id":"cebpf4jnsgd1na2vs0mg"},{"bike_id":"9f6a2693-1280-4649-88e6-509075bff685","system_id":"levelo_inurba_marseille","lat":43.26579,"lon":5.39015,"is_reserved":false,"is_disabled":false,"rental_uris":{"android":"levelo://app?vid=9f6a2693-1280-4649-88e6-509075bff685","ios":"levelo://app?vid=9f6a2693-1280-4649-88e6-509075bff685"},"vehicle_type_id":"4","last_reported":1740085669,"current_range_meters":8400,"station_id":"ce4bhe12rcd13ifvqf30","pricing_plan_id":"cebpf4jnsgd1na2vs0mg"},{"bike_id":"9a7e5434-4654-437d-b3b9-057193638074","system_id":"levelo_inurba_marseille","lat":43.2953,"lon":5.39037,"is_reserved":false,"is_disabled":false,"rental_uris":{"android":"levelo://app?vid=9a7e5434-4654-437d-b3b9-057193638074","ios":"levelo://app?vid=9a7e5434-4654-437d-b3b9-057193638074"},"vehicle_type_id":"4","last_reported":1740085669,"current_range_meters":8400,"station_id":"ce4bh3p2rcd13ifvqdp0","pricing_plan_id":"cebpf4jnsgd1na2vs0mg"},{"bike_id":"0159f1ae-6ef2-48d9-aa07-b34ffde8d712","system_id":"levelo_inurba_marseille","lat":43.2836,"lon":5.38112,"is_reserved":false,"is_disabled":false,"rental_uris":{"android":"levelo://app?vid=0159f1ae-6ef2-48d9-aa07-b34ffde8d712","ios":"levelo://app?vid=0159f1ae-6ef2-48d9-aa07-b34ffde8d712"},"vehicle_type_id":"4","last_reported":1740085669,"current_range_meters":8400,"station_id":"","pricing_plan_id":"cebpf4jnsgd1na2vs0mg"},{"bike_id":"b873de8c-81e8-47d6-b99b-52fcc696ad62","system_id":"levelo_inurba_marseille","lat":43.2842,"lon":5.3497,"is_reserved":false,"is_disabled":false,"rental_uris":{"android":"levelo://app?vid=b873de8c-81e8-47d6-b99b-52fcc696ad62","ios":"levelo://app?vid=b873de8c-81e8-47d6-b99b-52fcc696ad62"},"vehicle_type_id":"4","last_reported":1740085669,"current_range_meters":8400,"station_id":"ce4bhbh2rcd13ifvqepg","pricing_plan_id":"cebpf4jnsgd1na2vs0mg"},{"bike_id":"8cbf3cfb-7324-4014-94a6-4ce8dc497f9b","system_id":"levelo_inurba_marseille","lat":43.26214,"lon":5.374413,"is_reserved":false,"is_disabled":false,"rental_uris":{"android":"levelo://app?vid=8cbf3cfb-7324-4014-94a6-4ce8dc497f9b","ios":"levelo://app?vid=8cbf3cfb-7324-4014-94a6-4ce8dc497f9b"},"vehicle_type_id":"4","last_reported":1740085669,"current_range_meters":8400,"station_id":"","pricing_plan_id":"cebpf4jnsgd1na2vs0mg"},{"bike_id":"e31663f4-9ef5-4af6-bd9b-041b2229d65e","system_id":"levelo_inurba_marseille","lat":43.30297,"lon":5.36893,"is_reserved":false,"is_disabled":false,"rental_uris":{"android":"levelo://app?vid=e31663f4-9ef5-4af6-bd9b-041b2229d65e","ios":"levelo://app?vid=e31663f4-9ef5-4af6-bd9b-041b2229d65e"},"vehicle_type_id":"4","last_reported":1740085669,"current_range_meters":8400,"station_id":"ce4bgqh2rcd13ifvqc5g","pricing_plan_id":"cebpf4jnsgd1na2vs0mg"},{"bike_id":"6e52298d-e08e-4ec9-8028-e51093a43c1a","system_id":"levelo_inurba_marseille","lat":43.29307,"lon":5.37166,"is_reserved":false,"is_disabled":false,"rental_uris":{"android":"levelo://app?vid=6e52298d-e08e-4ec9-8028-e51093a43c1a","ios":"levelo://app?vid=6e52298d-e08e-4ec9-8028-e51093a43c1a"},"vehicle_type_id":"4","last_reported":1740085669,"current_range_meters":8400,"station_id":"ce4bgh92rcd13ifvqb40","pricing_plan_id":"cebpf4jnsgd1na2vs0mg"},{"bike_id":"5f9ede52-c720-4107-a864-980fb2608395","system_id":"levelo_inurba_marseille","lat":43.24092,"lon":5.38685,"is_reserved":false,"is_disabled":false,"rental_uris":{"android":"levelo://app?vid=5f9ede52-c720-4107-a864-980fb2608395","ios":"levelo://app?vid=5f9ede52-c720-4107-a864-980fb2608395"},"vehicle_type_id":"4","last_reported":1740085669,"current_range_meters":8800,"station_id":"","pricing_plan_id":"cebpf4jnsgd1na2vs0mg"},{"bike_id":"2ff9c241-f571-4d7b-b294-391e7b4adde1","system_id":"levelo_inurba_marseille","lat":43.28016,"lon":5.41626,"is_reserved":false,"is_disabled":false,"rental_uris":{"android":"levelo://app?vid=2ff9c241-f571-4d7b-b294-391e7b4adde1","ios":"levelo://app?vid=2ff9c241-f571-4d7b-b294-391e7b4adde1"},"vehicle_type_id":"4","last_reported":1740085669,"current_range_meters":8800,"station_id":"ce4bho12rcd13ifvqh1g","pricing_plan_id":"cebpf4jnsgd1na2vs0mg"},{"bike_id":"519499c1-02cb-4389-a009-32ff994757a6","system_id":"levelo_inurba_marseille","lat":43.29261,"lon":5.38449,"is_reserved":false,"is_disabled":false,"rental_uris":{"android":"levelo://app?vid=519499c1-02cb-4389-a009-32ff994757a6","ios":"levelo://app?vid=519499c1-02cb-4389-a009-32ff994757a6"},"vehicle_type_id":"4","last_reported":1740085669,"current_range_meters":8800,"station_id":"","pricing_plan_id":"cebpf4jnsgd1na2vs0mg"},{"bike_id":"4f1afaa9-d3bf-4519-a8be-60178da1a43b","system_id":"levelo_inurba_marseille","lat":43.29807,"lon":5.38086,"is_reserved":false,"is_disabled":false,"rental_uris":{"android":"levelo://app?vid=4f1afaa9-d3bf-4519-a8be-60178da1a43b","ios":"levelo://app?vid=4f1afaa9-d3bf-4519-a8be-60178da1a43b"},"vehicle_type_id":"4","last_reported":1740085669,"current_range_meters":8800,"station_id":"ce4bgip2rcd13ifvqbb0","pricing_plan_id":"cebpf4jnsgd1na2vs0mg"},{"bike_id":"fffa6545-5d24-4ac5-a202-f3a5df76fda6","system_id":"levelo_inurba_marseille","lat":43.281613,"lon":5.426444,"is_reserved":false,"is_disabled":false,"rental_uris":{"android":"levelo://app?vid=fffa6545-5d24-4ac5-a202-f3a5df76fda6","ios":"levelo://app?vid=fffa6545-5d24-4ac5-a202-f3a5df76fda6"},"vehicle_type_id":"4","last_reported":1740085669,"current_range_meters":8800,"station_id":"ce4bhnh2rcd13ifvqgug","pricing_plan_id":"cebpf4jnsgd1na2vs0mg"},{"bike_id":"26779595-c177-40e8-a988-d5570ab1009d","system_id":"levelo_inurba_marseille","lat":43.29212,"lon":5.39969,"is_reserved":false,"is_disabled":false,"rental_uris":{"android":"levelo://app?vid=26779595-c177-40e8-a988-d5570ab1009d","ios":"levelo://app?vid=26779595-c177-40e8-a988-d5570ab1009d"},"vehicle_type_id":"4","last_reported":1740085669,"current_range_meters":8800,"station_id":"","pricing_plan_id":"cebpf4jnsgd1na2vs0mg"},{"bike_id":"81a25179-133c-4400-b6b2-f6d0fd16cd75","system_id":"levelo_inurba_marseille","lat":43.30539,"lon":5.38425,"is_reserved":false,"is_disabled":false,"rental_uris":{"android":"levelo://app?vid=81a25179-133c-4400-b6b2-f6d0fd16cd75","ios":"levelo://app?vid=81a25179-133c-4400-b6b2-f6d0fd16cd75"},"vehicle_type_id":"4","last_reported":1740085669,"current_range_meters":8800,"station_id":"ce4bgg92rcd13ifvqb30","pricing_plan_id":"cebpf4jnsgd1na2vs0mg"},{"bike_id":"d9ed4ce9-95b4-4067-a245-f49daf56af4a","system_id":"levelo_inurba_marseille","lat":43.2681,"lon":5.4026,"is_reserved":false,"is_disabled":false,"rental_uris":{"android":"levelo://app?vid=d9ed4ce9-95b4-4067-a245-f49daf56af4a","ios":"levelo://app?vid=d9ed4ce9-95b4-4067-a245-f49daf56af4a"},"vehicle_type_id":"4","last_reported":1740085669,"current_range_meters":9200,"station_id":"ce501612rcd8frsf0b60","pricing_plan_id":"cebpf4jnsgd1na2vs0mg"},{"bike_id":"77ac049b-6848-4db1-94df-a16d6879e316","system_id":"levelo_inurba_marseille","lat":43.2319,"lon":5.35587,"is_reserved":false,"is_disabled":false,"rental_uris":{"android":"levelo://app?vid=77ac049b-6848-4db1-94df-a16d6879e316","ios":"levelo://app?vid=77ac049b-6848-4db1-94df-a16d6879e316"},"vehicle_type_id":"4","last_reported":1740085669,"current_range_meters":9200,"station_id":"","pricing_plan_id":"cebpf4jnsgd1na2vs0mg"},{"bike_id":"6d3a1bc9-0168-46a0-8d06-2b755db45b0a","system_id":"levelo_inurba_marseille","lat":43.23115,"lon":5.35527,"is_reserved":false,"is_disabled":false,"rental_uris":{"android":"levelo://app?vid=6d3a1bc9-0168-46a0-8d06-2b755db45b0a","ios":"levelo://app?vid=6d3a1bc9-0168-46a0-8d06-2b755db45b0a"},"vehicle_type_id":"4","last_reported":1740085669,"current_range_meters":9200,"station_id":"cpo3342slgdg3j2ifvpg","pricing_plan_id":"cebpf4jnsgd1na2vs0mg"},{"bike_id":"0d34eb8c-c749-410b-a515-4800435ee933","system_id":"levelo_inurba_marseille","lat":43.241663,"lon":5.363921,"is_reserved":false,"is_disabled":false,"rental_uris":{"android":"levelo://app?vid=0d34eb8c-c749-410b-a515-4800435ee933","ios":"levelo://app?vid=0d34eb8c-c749-410b-a515-4800435ee933"},"vehicle_type_id":"4","last_reported":1740085669,"current_range_meters":9200,"station_id":"cpo36qri1sfpv3e86is0","pricing_plan_id":"cebpf4jnsgd1na2vs0mg"},{"bike_id":"a924690f-5eaa-41b4-9d8f-51fce574fc50","system_id":"levelo_inurba_marseille","lat":43.27494,"lon":5.42453,"is_reserved":false,"is_disabled":false,"rental_uris":{"android":"levelo://app?vid=a924690f-5eaa-41b4-9d8f-51fce574fc50","ios":"levelo://app?vid=a924690f-5eaa-41b4-9d8f-51fce574fc50"},"vehicle_type_id":"4","last_reported":1740085669,"current_range_meters":9200,"station_id":"ce4bhn92rcd13ifvqgrg","pricing_plan_id":"cebpf4jnsgd1na2vs0mg"},{"bike_id":"bd0256a3-83dc-4e4a-b171-a33a8152957b","system_id":"levelo_inurba_marseille","lat":43.28659,"lon":5.36358,"is_reserved":false,"is_disabled":false,"rental_uris":{"android":"levelo://app?vid=bd0256a3-83dc-4e4a-b171-a33a8152957b","ios":"levelo://app?vid=bd0256a3-83dc-4e4a-b171-a33a8152957b"},"vehicle_type_id":"4","last_reported":1740085669,"current_range_meters":9200,"station_id":"ce4bhah2rcd13ifvqej0","pricing_plan_id":"cebpf4jnsgd1na2vs0mg"},{"bike_id":"f95a5649-643a-48c0-a1cd-8a1ae7759c5b","system_id":"levelo_inurba_marseille","lat":43.30648,"lon":5.40078,"is_reserved":false,"is_disabled":false,"rental_uris":{"android":"levelo://app?vid=f95a5649-643a-48c0-a1cd-8a1ae7759c5b","ios":"levelo://app?vid=f95a5649-643a-48c0-a1cd-8a1ae7759c5b"},"vehicle_type_id":"4","last_reported":1740085669,"current_range_meters":9200,"station_id":"ce4bh112rcd13ifvqda0","pricing_plan_id":"cebpf4jnsgd1na2vs0mg"},{"bike_id":"0aeaeda9-1d99-44e4-a66a-7eeb47079dea","system_id":"levelo_inurba_marseille","lat":43.27901,"lon":5.41219,"is_reserved":false,"is_disabled":false,"rental_uris":{"android":"levelo://app?vid=0aeaeda9-1d99-44e4-a66a-7eeb47079dea","ios":"levelo://app?vid=0aeaeda9-1d99-44e4-a66a-7eeb47079dea"},"vehicle_type_id":"4","last_reported":1740085669,"current_range_meters":9200,"station_id":"","pricing_plan_id":"cebpf4jnsgd1na2vs0mg"},{"bike_id":"188985ae-9cba-4f2e-aa81-f928630b246b","system_id":"levelo_inurba_marseille","lat":43.29416,"lon":5.38624,"is_reserved":false,"is_disabled":false,"rental_uris":{"android":"levelo://app?vid=188985ae-9cba-4f2e-aa81-f928630b246b","ios":"levelo://app?vid=188985ae-9cba-4f2e-aa81-f928630b246b"},"vehicle_type_id":"4","last_reported":1740085669,"current_range_meters":9200,"station_id":"ce4bh2h2rcd13ifvqdh0","pricing_plan_id":"cebpf4jnsgd1na2vs0mg"},{"bike_id":"ff083d96-1fe8-4388-b1fb-a058bee43b2d","system_id":"levelo_inurba_marseille","lat":43.27173,"lon":5.40998,"is_reserved":false,"is_disabled":false,"rental_uris":{"android":"levelo://app?vid=ff083d96-1fe8-4388-b1fb-a058bee43b2d","ios":"levelo://app?vid=ff083d96-1fe8-4388-b1fb-a058bee43b2d"},"vehicle_type_id":"4","last_reported":1740085669,"current_range_meters":9200,"station_id":"ce4bhl12rcd13ifvqgf0","pricing_plan_id":"cebpf4jnsgd1na2vs0mg"},{"bike_id":"5a585e6c-1693-4002-b367-7d38f9701c6f","system_id":"levelo_inurba_marseille","lat":43.29575,"lon":5.39977,"is_reserved":false,"is_disabled":false,"rental_uris":{"android":"levelo://app?vid=5a585e6c-1693-4002-b367-7d38f9701c6f","ios":"levelo://app?vid=5a585e6c-1693-4002-b367-7d38f9701c6f"},"vehicle_type_id":"4","last_reported":1740085669,"current_range_meters":9200,"station_id":"ce4bh312rcd13ifvqdj0","pricing_plan_id":"cebpf4jnsgd1na2vs0mg"},{"bike_id":"57fe6fca-4b32-46a9-ab09-ed33edc750c6","system_id":"levelo_inurba_marseille","lat":43.23961,"lon":5.36638,"is_reserved":false,"is_disabled":false,"rental_uris":{"android":"levelo://app?vid=57fe6fca-4b32-46a9-ab09-ed33edc750c6","ios":"levelo://app?vid=57fe6fca-4b32-46a9-ab09-ed33edc750c6"},"vehicle_type_id":"4","last_reported":1740085669,"current_range_meters":9200,"station_id":"","pricing_plan_id":"cebpf4jnsgd1na2vs0mg"},{"bike_id":"663d8a82-bf07-4220-8c45-2544d40f6a17","system_id":"levelo_inurba_marseille","lat":43.29272,"lon":5.38441,"is_reserved":false,"is_disabled":false,"rental_uris":{"android":"levelo://app?vid=663d8a82-bf07-4220-8c45-2544d40f6a17","ios":"levelo://app?vid=663d8a82-bf07-4220-8c45-2544d40f6a17"},"vehicle_type_id":"4","last_reported":1740085669,"current_range_meters":9600,"station_id":"","pricing_plan_id":"cebpf4jnsgd1na2vs0mg"},{"bike_id":"1faadbb0-63b2-4420-9a1e-cf04a1bb0034","system_id":"levelo_inurba_marseille","lat":43.29429,"lon":5.38635,"is_reserved":false,"is_disabled":false,"rental_uris":{"android":"levelo://app?vid=1faadbb0-63b2-4420-9a1e-cf04a1bb0034","ios":"levelo://app?vid=1faadbb0-63b2-4420-9a1e-cf04a1bb0034"},"vehicle_type_id":"4","last_reported":1740085669,"current_range_meters":9600,"station_id":"ce4bh2h2rcd13ifvqdh0","pricing_plan_id":"cebpf4jnsgd1na2vs0mg"},{"bike_id":"4ad80d49-8ed8-4d6b-9551-fdca2b59ae07","system_id":"levelo_inurba_marseille","lat":43.2946,"lon":5.38296,"is_reserved":false,"is_disabled":false,"rental_uris":{"android":"levelo://app?vid=4ad80d49-8ed8-4d6b-9551-fdca2b59ae07","ios":"levelo://app?vid=4ad80d49-8ed8-4d6b-9551-fdca2b59ae07"},"vehicle_type_id":"4","last_reported":1740085669,"current_range_meters":9600,"station_id":"","pricing_plan_id":"cebpf4jnsgd1na2vs0mg"},{"bike_id":"23c7f17d-4517-4dd4-a3a7-dfe044723d32","system_id":"levelo_inurba_marseille","lat":43.305408,"lon":5.384242,"is_reserved":false,"is_disabled":true,"rental_uris":{"android":"levelo://app?vid=23c7f17d-4517-4dd4-a3a7-dfe044723d32","ios":"levelo://app?vid=23c7f17d-4517-4dd4-a3a7-dfe044723d32"},"vehicle_type_id":"4","last_reported":1740085669,"current_range_meters":9600,"station_id":"ce4bgg92rcd13ifvqb30","pricing_plan_id":"cebpf4jnsgd1na2vs0mg"},{"bike_id":"341bae22-75f3-4766-8fd7-413e8c4a7fee","system_id":"levelo_inurba_marseille","lat":43.26822,"lon":5.40241,"is_reserved":false,"is_disabled":false,"rental_uris":{"android":"levelo://app?vid=341bae22-75f3-4766-8fd7-413e8c4a7fee","ios":"levelo://app?vid=341bae22-75f3-4766-8fd7-413e8c4a7fee"},"vehicle_type_id":"4","last_reported":1740085669,"current_range_meters":9600,"station_id":"ce501612rcd8frsf0b60","pricing_plan_id":"cebpf4jnsgd1na2vs0mg"},{"bike_id":"105952ec-50b4-49e0-8edb-7f35d98f823e","system_id":"levelo_inurba_marseille","lat":43.292707,"lon":5.384627,"is_reserved":false,"is_disabled":false,"rental_uris":{"android":"levelo://app?vid=105952ec-50b4-49e0-8edb-7f35d98f823e","ios":"levelo://app?vid=105952ec-50b4-49e0-8edb-7f35d98f823e"},"vehicle_type_id":"4","last_reported":1740085669,"current_range_meters":9600,"station_id":"ce4bgv12rcd13ifvqcp0","pricing_plan_id":"cebpf4jnsgd1na2vs0mg"},{"bike_id":"7b19744e-f24f-4b7d-94e9-2a8fd4a78d0d","system_id":"levelo_inurba_marseille","lat":43.23205,"lon":5.35559,"is_reserved":false,"is_disabled":false,"rental_uris":{"android":"levelo://app?vid=7b19744e-f24f-4b7d-94e9-2a8fd4a78d0d","ios":"levelo://app?vid=7b19744e-f24f-4b7d-94e9-2a8fd4a78d0d"},"vehicle_type_id":"4","last_reported":1740085669,"current_range_meters":9600,"station_id":"","pricing_plan_id":"cebpf4jnsgd1na2vs0mg"},{"bike_id":"d53e619b-6fc4-4f68-816e-bf827608289f","system_id":"levelo_inurba_marseille","lat":43.29599,"lon":5.38102,"is_reserved":false,"is_disabled":false,"rental_uris":{"android":"levelo://app?vid=d53e619b-6fc4-4f68-816e-bf827608289f","ios":"levelo://app?vid=d53e619b-6fc4-4f68-816e-bf827608289f"},"vehicle_type_id":"4","last_reported":1740085669,"current_range_meters":9600,"station_id":"","pricing_plan_id":"cebpf4jnsgd1na2vs0mg"},{"bike_id":"532687a0-e14a-4819-9541-67a8e47d2646","system_id":"levelo_inurba_marseille","lat":43.30892,"lon":5.37189,"is_reserved":false,"is_disabled":false,"rental_uris":{"android":"levelo://app?vid=532687a0-e14a-4819-9541-67a8e47d2646","ios":"levelo://app?vid=532687a0-e14a-4819-9541-67a8e47d2646"},"vehicle_type_id":"4","last_reported":1740085669,"current_range_meters":9600,"station_id":"ce4bguh2rcd13ifvqckg","pricing_plan_id":"cebpf4jnsgd1na2vs0mg"},{"bike_id":"f1df359e-f7f4-45b0-8c0b-be0b1654ce05","system_id":"levelo_inurba_marseille","lat":43.280855,"lon":5.396809,"is_reserved":false,"is_disabled":false,"rental_uris":{"android":"levelo://app?vid=f1df359e-f7f4-45b0-8c0b-be0b1654ce05","ios":"levelo://app?vid=f1df359e-f7f4-45b0-8c0b-be0b1654ce05"},"vehicle_type_id":"4","last_reported":1740085669,"current_range_meters":10000,"station_id":"cjm6bp8fraef2m0cb0m0","pricing_plan_id":"cebpf4jnsgd1na2vs0mg"},{"bike_id":"473b17b1-142d-4d27-b91c-3781d2e4f5c4","system_id":"levelo_inurba_marseille","lat":43.28569,"lon":5.39452,"is_reserved":false,"is_disabled":false,"rental_uris":{"android":"levelo://app?vid=473b17b1-142d-4d27-b91c-3781d2e4f5c4","ios":"levelo://app?vid=473b17b1-142d-4d27-b91c-3781d2e4f5c4"},"vehicle_type_id":"4","last_reported":1740085669,"current_range_meters":10000,"station_id":"ce4bh292rcd13ifvqdg0","pricing_plan_id":"cebpf4jnsgd1na2vs0mg"},{"bike_id":"a2517ea6-a40b-4901-979b-4128336954ae","system_id":"levelo_inurba_marseille","lat":43.28172,"lon":5.42651,"is_reserved":false,"is_disabled":false,"rental_uris":{"android":"levelo://app?vid=a2517ea6-a40b-4901-979b-4128336954ae","ios":"levelo://app?vid=a2517ea6-a40b-4901-979b-4128336954ae"},"vehicle_type_id":"4","last_reported":1740085669,"current_range_meters":10000,"station_id":"ce4bhnh2rcd13ifvqgug","pricing_plan_id":"cebpf4jnsgd1na2vs0mg"},{"bike_id":"41fd6442-fff1-4e1e-88c7-d11d26a8e1aa","system_id":"levelo_inurba_marseille","lat":43.29265,"lon":5.38429,"is_reserved":false,"is_disabled":false,"rental_uris":{"android":"levelo://app?vid=41fd6442-fff1-4e1e-88c7-d11d26a8e1aa","ios":"levelo://app?vid=41fd6442-fff1-4e1e-88c7-d11d26a8e1aa"},"vehicle_type_id":"4","last_reported":1740085669,"current_range_meters":10800,"station_id":"","pricing_plan_id":"cebpf4jnsgd1na2vs0mg"},{"bike_id":"00c7acf5-aae3-4b90-8131-8e19214d5f84","system_id":"levelo_inurba_marseille","lat":43.28416,"lon":5.37518,"is_reserved":false,"is_disabled":false,"rental_uris":{"android":"levelo://app?vid=00c7acf5-aae3-4b90-8131-8e19214d5f84","ios":"levelo://app?vid=00c7acf5-aae3-4b90-8131-8e19214d5f84"},"vehicle_type_id":"4","last_reported":1740085669,"current_range_meters":10800,"station_id":"","pricing_plan_id":"cebpf4jnsgd1na2vs0mg"},{"bike_id":"61cc7f52-15f4-4f64-ba39-a7e9709360ae","system_id":"levelo_inurba_marseille","lat":43.31332,"lon":5.39721,"is_reserved":false,"is_disabled":false,"rental_uris":{"android":"levelo://app?vid=61cc7f52-15f4-4f64-ba39-a7e9709360ae","ios":"levelo://app?vid=61cc7f52-15f4-4f64-ba39-a7e9709360ae"},"vehicle_type_id":"4","last_reported":1740085669,"current_range_meters":10800,"station_id":"ce4bgvp2rcd13ifvqcu0","pricing_plan_id":"cebpf4jnsgd1na2vs0mg"},{"bike_id":"6c1228de-abb3-4fdd-85db-7d9249f25b2d","system_id":"levelo_inurba_marseille","lat":43.295319,"lon":5.385796,"is_reserved":false,"is_disabled":false,"rental_uris":{"android":"levelo://app?vid=6c1228de-abb3-4fdd-85db-7d9249f25b2d","ios":"levelo://app?vid=6c1228de-abb3-4fdd-85db-7d9249f25b2d"},"vehicle_type_id":"4","last_reported":1740085669,"current_range_meters":10800,"station_id":"ce4bh192rcd13ifvqdd0","pricing_plan_id":"cebpf4jnsgd1na2vs0mg"},{"bike_id":"601afe4a-25bf-4b56-a5ec-02075de1ee82","system_id":"levelo_inurba_marseille","lat":43.23074,"lon":5.355,"is_reserved":false,"is_disabled":false,"rental_uris":{"android":"levelo://app?vid=601afe4a-25bf-4b56-a5ec-02075de1ee82","ios":"levelo://app?vid=601afe4a-25bf-4b56-a5ec-02075de1ee82"},"vehicle_type_id":"4","last_reported":1740085669,"current_range_meters":10800,"station_id":"cpo3342slgdg3j2ifvpg","pricing_plan_id":"cebpf4jnsgd1na2vs0mg"},{"bike_id":"eb3d6de2-43db-47ec-887f-f0f23f8e7694","system_id":"levelo_inurba_marseille","lat":43.27204,"lon":5.40966,"is_reserved":false,"is_disabled":false,"rental_uris":{"android":"levelo://app?vid=eb3d6de2-43db-47ec-887f-f0f23f8e7694","ios":"levelo://app?vid=eb3d6de2-43db-47ec-887f-f0f23f8e7694"},"vehicle_type_id":"4","last_reported":1740085669,"current_range_meters":10800,"station_id":"ce4bhl12rcd13ifvqgf0","pricing_plan_id":"cebpf4jnsgd1na2vs0mg"},{"bike_id":"635050f9-a2c9-4910-8267-ff5a32e2982d","system_id":"levelo_inurba_marseille","lat":43.2483,"lon":5.37452,"is_reserved":false,"is_disabled":true,"rental_uris":{"android":"levelo://app?vid=635050f9-a2c9-4910-8267-ff5a32e2982d","ios":"levelo://app?vid=635050f9-a2c9-4910-8267-ff5a32e2982d"},"vehicle_type_id":"4","last_reported":1740085669,"current_range_meters":10800,"station_id":"","pricing_plan_id":"cebpf4jnsgd1na2vs0mg"},{"bike_id":"ca901b68-9a91-4c4d-a945-d2156b0c65f1","system_id":"levelo_inurba_marseille","lat":43.28402,"lon":5.3755,"is_reserved":false,"is_disabled":false,"rental_uris":{"android":"levelo://app?vid=ca901b68-9a91-4c4d-a945-d2156b0c65f1","ios":"levelo://app?vid=ca901b68-9a91-4c4d-a945-d2156b0c65f1"},"vehicle_type_id":"4","last_reported":1740085669,"current_range_meters":11200,"station_id":"ce4bh412rcd13ifvqds0","pricing_plan_id":"cebpf4jnsgd1na2vs0mg"},{"bike_id":"978bb6d5-23c4-44bf-b0ea-6ebdb61a85a0","system_id":"levelo_inurba_marseille","lat":43.29412,"lon":5.38573,"is_reserved":false,"is_disabled":false,"rental_uris":{"android":"levelo://app?vid=978bb6d5-23c4-44bf-b0ea-6ebdb61a85a0","ios":"levelo://app?vid=978bb6d5-23c4-44bf-b0ea-6ebdb61a85a0"},"vehicle_type_id":"4","last_reported":1740085669,"current_range_meters":11200,"station_id":"ce4bh2h2rcd13ifvqdh0","pricing_plan_id":"cebpf4jnsgd1na2vs0mg"},{"bike_id":"e81876e2-f50a-43e3-b7f2-9019ccbde871","system_id":"levelo_inurba_marseille","lat":43.29029,"lon":5.3865,"is_reserved":false,"is_disabled":false,"rental_uris":{"android":"levelo://app?vid=e81876e2-f50a-43e3-b7f2-9019ccbde871","ios":"levelo://app?vid=e81876e2-f50a-43e3-b7f2-9019ccbde871"},"vehicle_type_id":"4","last_reported":1740085669,"current_range_meters":11200,"station_id":"ce4bh4p2rcd13ifvqe0g","pricing_plan_id":"cebpf4jnsgd1na2vs0mg"},{"bike_id":"76a127d3-77c2-483d-acf4-d4cd9dcde57d","system_id":"levelo_inurba_marseille","lat":43.27371,"lon":5.36239,"is_reserved":false,"is_disabled":false,"rental_uris":{"android":"levelo://app?vid=76a127d3-77c2-483d-acf4-d4cd9dcde57d","ios":"levelo://app?vid=76a127d3-77c2-483d-acf4-d4cd9dcde57d"},"vehicle_type_id":"4","last_reported":1740085669,"current_range_meters":11200,"station_id":"ce4bhbh2rcd13ifvqeo0","pricing_plan_id":"cebpf4jnsgd1na2vs0mg"},{"bike_id":"5a029c1e-01be-45b3-958e-313e4e7d4388","system_id":"levelo_inurba_marseille","lat":43.29423,"lon":5.38634,"is_reserved":false,"is_disabled":false,"rental_uris":{"android":"levelo://app?vid=5a029c1e-01be-45b3-958e-313e4e7d4388","ios":"levelo://app?vid=5a029c1e-01be-45b3-958e-313e4e7d4388"},"vehicle_type_id":"4","last_reported":1740085669,"current_range_meters":11200,"station_id":"ce4bh2h2rcd13ifvqdh0","pricing_plan_id":"cebpf4jnsgd1na2vs0mg"},{"bike_id":"e72439bb-8b6d-4bd3-a9c4-c984d973de2a","system_id":"levelo_inurba_marseille","lat":43.29895,"lon":5.38903,"is_reserved":false,"is_disabled":false,"rental_uris":{"android":"levelo://app?vid=e72439bb-8b6d-4bd3-a9c4-c984d973de2a","ios":"levelo://app?vid=e72439bb-8b6d-4bd3-a9c4-c984d973de2a"},"vehicle_type_id":"4","last_reported":1740085669,"current_range_meters":11200,"station_id":"ce4bh392rcd13ifvqdl0","pricing_plan_id":"cebpf4jnsgd1na2vs0mg"},{"bike_id":"cb439774-d95f-4e98-ba8e-b9972a02204e","system_id":"levelo_inurba_marseille","lat":43.29899,"lon":5.38895,"is_reserved":false,"is_disabled":false,"rental_uris":{"android":"levelo://app?vid=cb439774-d95f-4e98-ba8e-b9972a02204e","ios":"levelo://app?vid=cb439774-d95f-4e98-ba8e-b9972a02204e"},"vehicle_type_id":"4","last_reported":1740085669,"current_range_meters":11200,"station_id":"","pricing_plan_id":"cebpf4jnsgd1na2vs0mg"},{"bike_id":"ae48ce6a-cb3a-4ec2-9d3c-ec942733b445","system_id":"levelo_inurba_marseille","lat":43.23961,"lon":5.36646,"is_reserved":false,"is_disabled":false,"rental_uris":{"android":"levelo://app?vid=ae48ce6a-cb3a-4ec2-9d3c-ec942733b445","ios":"levelo://app?vid=ae48ce6a-cb3a-4ec2-9d3c-ec942733b445"},"vehicle_type_id":"4","last_reported":1740085669,"current_range_meters":11600,"station_id":"ce4bhi12rcd13ifvqfp0","pricing_plan_id":"cebpf4jnsgd1na2vs0mg"},{"bike_id":"d4e427a9-982d-4a41-b5ed-132012b7876f","system_id":"levelo_inurba_marseille","lat":43.30486,"lon":5.36714,"is_reserved":false,"is_disabled":false,"rental_uris":{"android":"levelo://app?vid=d4e427a9-982d-4a41-b5ed-132012b7876f","ios":"levelo://app?vid=d4e427a9-982d-4a41-b5ed-132012b7876f"},"vehicle_type_id":"4","last_reported":1740085669,"current_range_meters":11600,"station_id":"","pricing_plan_id":"cebpf4jnsgd1na2vs0mg"},{"bike_id":"04306cbe-57d6-4c2f-86d0-c0525799ae62","system_id":"levelo_inurba_marseille","lat":43.29267,"lon":5.40146,"is_reserved":false,"is_disabled":false,"rental_uris":{"android":"levelo://app?vid=04306cbe-57d6-4c2f-86d0-c0525799ae62","ios":"levelo://app?vid=04306cbe-57d6-4c2f-86d0-c0525799ae62"},"vehicle_type_id":"4","last_reported":1740085669,"current_range_meters":11600,"station_id":"ce4bh312rcd13ifvqdk0","pricing_plan_id":"cebpf4jnsgd1na2vs0mg"},{"bike_id":"bfa1afdd-6221-4a91-82bd-d18819a67e02","system_id":"levelo_inurba_marseille","lat":43.244238,"lon":5.370237,"is_reserved":false,"is_disabled":false,"rental_uris":{"android":"levelo://app?vid=bfa1afdd-6221-4a91-82bd-d18819a67e02","ios":"levelo://app?vid=bfa1afdd-6221-4a91-82bd-d18819a67e02"},"vehicle_type_id":"4","last_reported":1740085669,"current_range_meters":11600,"station_id":"ce4bhnp2rcd13ifvqgvg","pricing_plan_id":"cebpf4jnsgd1na2vs0mg"},{"bike_id":"9b0ee213-f890-4354-ae28-cdfc215b3277","system_id":"levelo_inurba_marseille","lat":43.26216,"lon":5.37443,"is_reserved":false,"is_disabled":false,"rental_uris":{"android":"levelo://app?vid=9b0ee213-f890-4354-ae28-cdfc215b3277","ios":"levelo://app?vid=9b0ee213-f890-4354-ae28-cdfc215b3277"},"vehicle_type_id":"4","last_reported":1740085669,"current_range_meters":11600,"station_id":"","pricing_plan_id":"cebpf4jnsgd1na2vs0mg"},{"bike_id":"a605b267-7cff-43d6-b09c-f90d86883265","system_id":"levelo_inurba_marseille","lat":43.30332,"lon":5.40437,"is_reserved":false,"is_disabled":false,"rental_uris":{"android":"levelo://app?vid=a605b267-7cff-43d6-b09c-f90d86883265","ios":"levelo://app?vid=a605b267-7cff-43d6-b09c-f90d86883265"},"vehicle_type_id":"4","last_reported":1740085669,"current_range_meters":11600,"station_id":"ce4bh012rcd13ifvqd10","pricing_plan_id":"cebpf4jnsgd1na2vs0mg"},{"bike_id":"40eca1cb-3b66-4c15-baea-f929bf387e72","system_id":"levelo_inurba_marseille","lat":43.29199,"lon":5.37217,"is_reserved":false,"is_disabled":false,"rental_uris":{"android":"levelo://app?vid=40eca1cb-3b66-4c15-baea-f929bf387e72","ios":"levelo://app?vid=40eca1cb-3b66-4c15-baea-f929bf387e72"},"vehicle_type_id":"4","last_reported":1740085669,"current_range_meters":11600,"station_id":"ce4bha92rcd13ifvqeh0","pricing_plan_id":"cebpf4jnsgd1na2vs0mg"},{"bike_id":"8becd64c-893d-4a08-8876-b1598e031c70","system_id":"levelo_inurba_marseille","lat":43.27963,"lon":5.38691,"is_reserved":false,"is_disabled":true,"rental_uris":{"android":"levelo://app?vid=8becd64c-893d-4a08-8876-b1598e031c70","ios":"levelo://app?vid=8becd64c-893d-4a08-8876-b1598e031c70"},"vehicle_type_id":"4","last_reported":1740085669,"current_range_meters":12000,"station_id":"","pricing_plan_id":"cebpf4jnsgd1na2vs0mg"},{"bike_id":"9c804270-8886-40d3-81b4-d60d5eed5fbf","system_id":"levelo_inurba_marseille","lat":43.28671,"lon":5.36359,"is_reserved":false,"is_disabled":false,"rental_uris":{"android":"levelo://app?vid=9c804270-8886-40d3-81b4-d60d5eed5fbf","ios":"levelo://app?vid=9c804270-8886-40d3-81b4-d60d5eed5fbf"},"vehicle_type_id":"4","last_reported":1740085669,"current_range_meters":12000,"station_id":"ce4bhah2rcd13ifvqej0","pricing_plan_id":"cebpf4jnsgd1na2vs0mg"},{"bike_id":"2248a686-da6b-4ef8-880e-8db6a1c23aab","system_id":"levelo_inurba_marseille","lat":43.27391,"lon":5.36266,"is_reserved":false,"is_disabled":false,"rental_uris":{"android":"levelo://app?vid=2248a686-da6b-4ef8-880e-8db6a1c23aab","ios":"levelo://app?vid=2248a686-da6b-4ef8-880e-8db6a1c23aab"},"vehicle_type_id":"4","last_reported":1740085669,"current_range_meters":12000,"station_id":"","pricing_plan_id":"cebpf4jnsgd1na2vs0mg"},{"bike_id":"12aa648a-94a4-45a2-b333-ca16b97b72e1","system_id":"levelo_inurba_marseille","lat":43.28954,"lon":5.36431,"is_reserved":false,"is_disabled":false,"rental_uris":{"android":"levelo://app?vid=12aa648a-94a4-45a2-b333-ca16b97b72e1","ios":"levelo://app?vid=12aa648a-94a4-45a2-b333-ca16b97b72e1"},"vehicle_type_id":"4","last_reported":1740085669,"current_range_meters":11600,"station_id":"ce4bhc92rcd13ifvqetg","pricing_plan_id":"cebpf4jnsgd1na2vs0mg"},{"bike_id":"da380c58-ce0d-4c0b-a44e-8fa1b5271b75","system_id":"levelo_inurba_marseille","lat":43.28917,"lon":5.38387,"is_reserved":false,"is_disabled":false,"rental_uris":{"android":"levelo://app?vid=da380c58-ce0d-4c0b-a44e-8fa1b5271b75","ios":"levelo://app?vid=da380c58-ce0d-4c0b-a44e-8fa1b5271b75"},"vehicle_type_id":"4","last_reported":1740085669,"current_range_meters":12000,"station_id":"ce4bh612rcd13ifvqe6g","pricing_plan_id":"cebpf4jnsgd1na2vs0mg"},{"bike_id":"b2e67dbc-fc09-4bb3-b2c4-66f6713846cb","system_id":"levelo_inurba_marseille","lat":43.29249,"lon":5.38444,"is_reserved":false,"is_disabled":false,"rental_uris":{"android":"levelo://app?vid=b2e67dbc-fc09-4bb3-b2c4-66f6713846cb","ios":"levelo://app?vid=b2e67dbc-fc09-4bb3-b2c4-66f6713846cb"},"vehicle_type_id":"4","last_reported":1740085669,"current_range_meters":12000,"station_id":"ce4bh692rcd13ifvqea0","pricing_plan_id":"cebpf4jnsgd1na2vs0mg"},{"bike_id":"d4ea16c8-511e-446d-9284-98ee045f9c1d","system_id":"levelo_inurba_marseille","lat":43.29892,"lon":5.38933,"is_reserved":false,"is_disabled":false,"rental_uris":{"android":"levelo://app?vid=d4ea16c8-511e-446d-9284-98ee045f9c1d","ios":"levelo://app?vid=d4ea16c8-511e-446d-9284-98ee045f9c1d"},"vehicle_type_id":"4","last_reported":1740085669,"current_range_meters":12000,"station_id":"ce4bh392rcd13ifvqdl0","pricing_plan_id":"cebpf4jnsgd1na2vs0mg"},{"bike_id":"2c05b014-d74b-41e9-adb0-e2896d0c635e","system_id":"levelo_inurba_marseille","lat":43.26215,"lon":5.374395,"is_reserved":false,"is_disabled":false,"rental_uris":{"android":"levelo://app?vid=2c05b014-d74b-41e9-adb0-e2896d0c635e","ios":"levelo://app?vid=2c05b014-d74b-41e9-adb0-e2896d0c635e"},"vehicle_type_id":"4","last_reported":1740085669,"current_range_meters":12000,"station_id":"","pricing_plan_id":"cebpf4jnsgd1na2vs0mg"},{"bike_id":"2df73027-38aa-4556-bf01-05696d9194ee","system_id":"levelo_inurba_marseille","lat":43.29259,"lon":5.38431,"is_reserved":false,"is_disabled":false,"rental_uris":{"android":"levelo://app?vid=2df73027-38aa-4556-bf01-05696d9194ee","ios":"levelo://app?vid=2df73027-38aa-4556-bf01-05696d9194ee"},"vehicle_type_id":"4","last_reported":1740085669,"current_range_meters":12400,"station_id":"","pricing_plan_id":"cebpf4jnsgd1na2vs0mg"},{"bike_id":"d8d78e86-b54d-425d-b48e-af574cd06cd0","system_id":"levelo_inurba_marseille","lat":43.30421,"lon":5.41282,"is_reserved":false,"is_disabled":false,"rental_uris":{"android":"levelo://app?vid=d8d78e86-b54d-425d-b48e-af574cd06cd0","ios":"levelo://app?vid=d8d78e86-b54d-425d-b48e-af574cd06cd0"},"vehicle_type_id":"4","last_reported":1740085669,"current_range_meters":12400,"station_id":"ce4bhop2rcd13ifvqh8g","pricing_plan_id":"cebpf4jnsgd1na2vs0mg"},{"bike_id":"e53b91c8-67fd-4f40-acea-7f7adf31cf25","system_id":"levelo_inurba_marseille","lat":43.29766,"lon":5.38104,"is_reserved":false,"is_disabled":false,"rental_uris":{"android":"levelo://app?vid=e53b91c8-67fd-4f40-acea-7f7adf31cf25","ios":"levelo://app?vid=e53b91c8-67fd-4f40-acea-7f7adf31cf25"},"vehicle_type_id":"4","last_reported":1740085669,"current_range_meters":12400,"station_id":"","pricing_plan_id":"cebpf4jnsgd1na2vs0mg"},{"bike_id":"8439e5ff-51a4-4276-91e2-2f9b865b64e3","system_id":"levelo_inurba_marseille","lat":43.29257,"lon":5.38443,"is_reserved":false,"is_disabled":false,"rental_uris":{"android":"levelo://app?vid=8439e5ff-51a4-4276-91e2-2f9b865b64e3","ios":"levelo://app?vid=8439e5ff-51a4-4276-91e2-2f9b865b64e3"},"vehicle_type_id":"4","last_reported":1740085669,"current_range_meters":12400,"station_id":"","pricing_plan_id":"cebpf4jnsgd1na2vs0mg"},{"bike_id":"cb12c915-7081-498c-91c3-a2448243cab0","system_id":"levelo_inurba_marseille","lat":43.2837,"lon":5.38121,"is_reserved":false,"is_disabled":false,"rental_uris":{"android":"levelo://app?vid=cb12c915-7081-498c-91c3-a2448243cab0","ios":"levelo://app?vid=cb12c915-7081-498c-91c3-a2448243cab0"},"vehicle_type_id":"4","last_reported":1740085669,"current_range_meters":12400,"station_id":"ce4bh412rcd13ifvqdr0","pricing_plan_id":"cebpf4jnsgd1na2vs0mg"},{"bike_id":"1c0fdf4e-14e6-4cfa-9895-6e516e41732f","system_id":"levelo_inurba_marseille","lat":43.29538,"lon":5.3854,"is_reserved":false,"is_disabled":false,"rental_uris":{"android":"levelo://app?vid=1c0fdf4e-14e6-4cfa-9895-6e516e41732f","ios":"levelo://app?vid=1c0fdf4e-14e6-4cfa-9895-6e516e41732f"},"vehicle_type_id":"4","last_reported":1740085669,"current_range_meters":12800,"station_id":"","pricing_plan_id":"cebpf4jnsgd1na2vs0mg"},{"bike_id":"49046599-4f4c-475a-9b9e-eeec31935a8f","system_id":"levelo_inurba_marseille","lat":43.29268,"lon":5.38441,"is_reserved":false,"is_disabled":false,"rental_uris":{"android":"levelo://app?vid=49046599-4f4c-475a-9b9e-eeec31935a8f","ios":"levelo://app?vid=49046599-4f4c-475a-9b9e-eeec31935a8f"},"vehicle_type_id":"4","last_reported":1740085669,"current_range_meters":12800,"station_id":"","pricing_plan_id":"cebpf4jnsgd1na2vs0mg"},{"bike_id":"37b68099-f18e-41c0-8067-49145e93fbcf","system_id":"levelo_inurba_marseille","lat":43.2903,"lon":5.38649,"is_reserved":false,"is_disabled":false,"rental_uris":{"android":"levelo://app?vid=37b68099-f18e-41c0-8067-49145e93fbcf","ios":"levelo://app?vid=37b68099-f18e-41c0-8067-49145e93fbcf"},"vehicle_type_id":"4","last_reported":1740085669,"current_range_meters":12800,"station_id":"","pricing_plan_id":"cebpf4jnsgd1na2vs0mg"},{"bike_id":"149d8985-eade-45fb-8852-dcf993418135","system_id":"levelo_inurba_marseille","lat":43.29558,"lon":5.42289,"is_reserved":false,"is_disabled":false,"rental_uris":{"android":"levelo://app?vid=149d8985-eade-45fb-8852-dcf993418135","ios":"levelo://app?vid=149d8985-eade-45fb-8852-dcf993418135"},"vehicle_type_id":"4","last_reported":1740085669,"current_range_meters":12800,"station_id":"","pricing_plan_id":"cebpf4jnsgd1na2vs0mg"},{"bike_id":"6e580245-c488-42f5-b1fa-3e514ea79db2","system_id":"levelo_inurba_marseille","lat":43.29514,"lon":5.39052,"is_reserved":false,"is_disabled":false,"rental_uris":{"android":"levelo://app?vid=6e580245-c488-42f5-b1fa-3e514ea79db2","ios":"levelo://app?vid=6e580245-c488-42f5-b1fa-3e514ea79db2"},"vehicle_type_id":"4","last_reported":1740085669,"current_range_meters":12800,"station_id":"ce4bh3p2rcd13ifvqdp0","pricing_plan_id":"cebpf4jnsgd1na2vs0mg"},{"bike_id":"62f6ff3d-8445-4eab-bf2f-2608611cc121","system_id":"levelo_inurba_marseille","lat":43.29568,"lon":5.39966,"is_reserved":false,"is_disabled":false,"rental_uris":{"android":"levelo://app?vid=62f6ff3d-8445-4eab-bf2f-2608611cc121","ios":"levelo://app?vid=62f6ff3d-8445-4eab-bf2f-2608611cc121"},"vehicle_type_id":"4","last_reported":1740085669,"current_range_meters":12800,"station_id":"ce4bh312rcd13ifvqdj0","pricing_plan_id":"cebpf4jnsgd1na2vs0mg"},{"bike_id":"3447e7b6-f8ed-4872-a45f-cf3cd80ed8ad","system_id":"levelo_inurba_marseille","lat":43.29765,"lon":5.37896,"is_reserved":false,"is_disabled":false,"rental_uris":{"android":"levelo://app?vid=3447e7b6-f8ed-4872-a45f-cf3cd80ed8ad","ios":"levelo://app?vid=3447e7b6-f8ed-4872-a45f-cf3cd80ed8ad"},"vehicle_type_id":"4","last_reported":1740085669,"current_range_meters":12800,"station_id":"ce4bguh2rcd13ifvqckg","pricing_plan_id":"cebpf4jnsgd1na2vs0mg"},{"bike_id":"52529730-16c6-4858-a1d5-5aae3062f704","system_id":"levelo_inurba_marseille","lat":43.29702,"lon":5.36606,"is_reserved":false,"is_disabled":false,"rental_uris":{"android":"levelo://app?vid=52529730-16c6-4858-a1d5-5aae3062f704","ios":"levelo://app?vid=52529730-16c6-4858-a1d5-5aae3062f704"},"vehicle_type_id":"4","last_reported":1740085669,"current_range_meters":12800,"station_id":"ce4bgn12rcd13ifvqbt0","pricing_plan_id":"cebpf4jnsgd1na2vs0mg"},{"bike_id":"3c34f9dc-cd70-4cc9-a7fc-77865af063e3","system_id":"levelo_inurba_marseille","lat":43.28486,"lon":5.38575,"is_reserved":false,"is_disabled":false,"rental_uris":{"android":"levelo://app?vid=3c34f9dc-cd70-4cc9-a7fc-77865af063e3","ios":"levelo://app?vid=3c34f9dc-cd70-4cc9-a7fc-77865af063e3"},"vehicle_type_id":"4","last_reported":1740085669,"current_range_meters":12800,"station_id":"ce4bh8p2rcd13ifvqeb0","pricing_plan_id":"cebpf4jnsgd1na2vs0mg"},{"bike_id":"1f88bb58-2e59-4fff-81b3-925538f61279","system_id":"levelo_inurba_marseille","lat":43.2925,"lon":5.38426,"is_reserved":false,"is_disabled":true,"rental_uris":{"android":"levelo://app?vid=1f88bb58-2e59-4fff-81b3-925538f61279","ios":"levelo://app?vid=1f88bb58-2e59-4fff-81b3-925538f61279"},"vehicle_type_id":"4","last_reported":1740085669,"current_range_meters":12800,"station_id":"ce4bh692rcd13ifvqea0","pricing_plan_id":"cebpf4jnsgd1na2vs0mg"},{"bike_id":"6947745c-09a1-4853-9447-033c03358229","system_id":"levelo_inurba_marseille","lat":43.29541,"lon":5.39049,"is_reserved":false,"is_disabled":false,"rental_uris":{"android":"levelo://app?vid=6947745c-09a1-4853-9447-033c03358229","ios":"levelo://app?vid=6947745c-09a1-4853-9447-033c03358229"},"vehicle_type_id":"4","last_reported":1740085669,"current_range_meters":13600,"station_id":"ce4bh3p2rcd13ifvqdp0","pricing_plan_id":"cebpf4jnsgd1na2vs0mg"},{"bike_id":"2502cdb5-b928-42f3-aadd-095d27478a4b","system_id":"levelo_inurba_marseille","lat":43.29417,"lon":5.38631,"is_reserved":false,"is_disabled":false,"rental_uris":{"android":"levelo://app?vid=2502cdb5-b928-42f3-aadd-095d27478a4b","ios":"levelo://app?vid=2502cdb5-b928-42f3-aadd-095d27478a4b"},"vehicle_type_id":"4","last_reported":1740085669,"current_range_meters":13600,"station_id":"","pricing_plan_id":"cebpf4jnsgd1na2vs0mg"},{"bike_id":"06c8e207-9802-4e72-801a-8bb4f268006c","system_id":"levelo_inurba_marseille","lat":43.314856,"lon":5.373116,"is_reserved":false,"is_disabled":false,"rental_uris":{"android":"levelo://app?vid=06c8e207-9802-4e72-801a-8bb4f268006c","ios":"levelo://app?vid=06c8e207-9802-4e72-801a-8bb4f268006c"},"vehicle_type_id":"4","last_reported":1740085669,"current_range_meters":13600,"station_id":"ce4bgvp2rcd13ifvqct0","pricing_plan_id":"cebpf4jnsgd1na2vs0mg"},{"bike_id":"eebd2fc8-3956-4429-8b53-9e2565d1861b","system_id":"levelo_inurba_marseille","lat":43.34478,"lon":5.38089,"is_reserved":false,"is_disabled":false,"rental_uris":{"android":"levelo://app?vid=eebd2fc8-3956-4429-8b53-9e2565d1861b","ios":"levelo://app?vid=eebd2fc8-3956-4429-8b53-9e2565d1861b"},"vehicle_type_id":"4","last_reported":1740085669,"current_range_meters":13600,"station_id":"ce4bhqp2rcd13ifvqhng","pricing_plan_id":"cebpf4jnsgd1na2vs0mg"},{"bike_id":"0a56f9d1-0a16-443d-8e0e-b767591ef2e6","system_id":"levelo_inurba_marseille","lat":43.26799,"lon":5.40265,"is_reserved":false,"is_disabled":false,"rental_uris":{"android":"levelo://app?vid=0a56f9d1-0a16-443d-8e0e-b767591ef2e6","ios":"levelo://app?vid=0a56f9d1-0a16-443d-8e0e-b767591ef2e6"},"vehicle_type_id":"4","last_reported":1740085669,"current_range_meters":14000,"station_id":"ce501612rcd8frsf0b60","pricing_plan_id":"cebpf4jnsgd1na2vs0mg"},{"bike_id":"9a28e5e0-170b-4170-937a-cd966726dbb7","system_id":"levelo_inurba_marseille","lat":43.29321,"lon":5.37166,"is_reserved":false,"is_disabled":false,"rental_uris":{"android":"levelo://app?vid=9a28e5e0-170b-4170-937a-cd966726dbb7","ios":"levelo://app?vid=9a28e5e0-170b-4170-937a-cd966726dbb7"},"vehicle_type_id":"4","last_reported":1740085669,"current_range_meters":14000,"station_id":"","pricing_plan_id":"cebpf4jnsgd1na2vs0mg"},{"bike_id":"20463398-593d-4e39-b885-1b761836b416","system_id":"levelo_inurba_marseille","lat":43.24079,"lon":5.37721,"is_reserved":false,"is_disabled":false,"rental_uris":{"android":"levelo://app?vid=20463398-593d-4e39-b885-1b761836b416","ios":"levelo://app?vid=20463398-593d-4e39-b885-1b761836b416"},"vehicle_type_id":"4","last_reported":1740085669,"current_range_meters":14000,"station_id":"ce4bhnp2rcd13ifvqgvg","pricing_plan_id":"cebpf4jnsgd1na2vs0mg"},{"bike_id":"bc775c78-c33c-44a6-a19a-adb533dddf2c","system_id":"levelo_inurba_marseille","lat":43.29035,"lon":5.39967,"is_reserved":false,"is_disabled":false,"rental_uris":{"android":"levelo://app?vid=bc775c78-c33c-44a6-a19a-adb533dddf2c","ios":"levelo://app?vid=bc775c78-c33c-44a6-a19a-adb533dddf2c"},"vehicle_type_id":"4","last_reported":1740085669,"current_range_meters":14000,"station_id":"ce4bh392rcd13ifvqdm0","pricing_plan_id":"cebpf4jnsgd1na2vs0mg"},{"bike_id":"ce0caea6-6d1c-48ef-b0eb-fae6199eb4e1","system_id":"levelo_inurba_marseille","lat":43.23066,"lon":5.35508,"is_reserved":false,"is_disabled":false,"rental_uris":{"android":"levelo://app?vid=ce0caea6-6d1c-48ef-b0eb-fae6199eb4e1","ios":"levelo://app?vid=ce0caea6-6d1c-48ef-b0eb-fae6199eb4e1"},"vehicle_type_id":"4","last_reported":1740085669,"current_range_meters":14400,"station_id":"cpo3342slgdg3j2ifvpg","pricing_plan_id":"cebpf4jnsgd1na2vs0mg"},{"bike_id":"6106393f-3645-48aa-b132-3d2def6b4674","system_id":"levelo_inurba_marseille","lat":43.30471,"lon":5.38128,"is_reserved":false,"is_disabled":false,"rental_uris":{"android":"levelo://app?vid=6106393f-3645-48aa-b132-3d2def6b4674","ios":"levelo://app?vid=6106393f-3645-48aa-b132-3d2def6b4674"},"vehicle_type_id":"4","last_reported":1740085669,"current_range_meters":14400,"station_id":"ce4bgv92rcd13ifvqcq0","pricing_plan_id":"cebpf4jnsgd1na2vs0mg"},{"bike_id":"76a1d742-84f2-439e-8b87-72eb73bf6cb6","system_id":"levelo_inurba_marseille","lat":43.26228,"lon":5.37492,"is_reserved":false,"is_disabled":false,"rental_uris":{"android":"levelo://app?vid=76a1d742-84f2-439e-8b87-72eb73bf6cb6","ios":"levelo://app?vid=76a1d742-84f2-439e-8b87-72eb73bf6cb6"},"vehicle_type_id":"4","last_reported":1740085669,"current_range_meters":14400,"station_id":"ce4bhgp2rcd13ifvqfc0","pricing_plan_id":"cebpf4jnsgd1na2vs0mg"},{"bike_id":"fafcef2f-44fb-48df-9e7e-c9640b8b0004","system_id":"levelo_inurba_marseille","lat":43.299692,"lon":5.384832,"is_reserved":false,"is_disabled":false,"rental_uris":{"android":"levelo://app?vid=fafcef2f-44fb-48df-9e7e-c9640b8b0004","ios":"levelo://app?vid=fafcef2f-44fb-48df-9e7e-c9640b8b0004"},"vehicle_type_id":"4","last_reported":1740085669,"current_range_meters":14400,"station_id":"ce4bhoh2rcd13ifvqh5g","pricing_plan_id":"cebpf4jnsgd1na2vs0mg"},{"bike_id":"72a76cae-a54b-457b-a4aa-cada737d48e4","system_id":"levelo_inurba_marseille","lat":43.28989,"lon":5.35607,"is_reserved":false,"is_disabled":false,"rental_uris":{"android":"levelo://app?vid=72a76cae-a54b-457b-a4aa-cada737d48e4","ios":"levelo://app?vid=72a76cae-a54b-457b-a4aa-cada737d48e4"},"vehicle_type_id":"4","last_reported":1740085669,"current_range_meters":14800,"station_id":"ce4bhb92rcd13ifvqen0","pricing_plan_id":"cebpf4jnsgd1na2vs0mg"},{"bike_id":"7fd6ae63-e7b3-4553-8ba2-57f135372ad7","system_id":"levelo_inurba_marseille","lat":43.25089,"lon":5.39512,"is_reserved":false,"is_disabled":false,"rental_uris":{"android":"levelo://app?vid=7fd6ae63-e7b3-4553-8ba2-57f135372ad7","ios":"levelo://app?vid=7fd6ae63-e7b3-4553-8ba2-57f135372ad7"},"vehicle_type_id":"4","last_reported":1740085669,"current_range_meters":14800,"station_id":"ce4bhm12rcd13ifvqgkg","pricing_plan_id":"cebpf4jnsgd1na2vs0mg"},{"bike_id":"fefd3b09-e6bc-4985-9a8a-e7c851301ba3","system_id":"levelo_inurba_marseille","lat":43.29434,"lon":5.38613,"is_reserved":false,"is_disabled":false,"rental_uris":{"android":"levelo://app?vid=fefd3b09-e6bc-4985-9a8a-e7c851301ba3","ios":"levelo://app?vid=fefd3b09-e6bc-4985-9a8a-e7c851301ba3"},"vehicle_type_id":"4","last_reported":1740085669,"current_range_meters":14800,"station_id":"","pricing_plan_id":"cebpf4jnsgd1na2vs0mg"},{"bike_id":"c0a92e6d-6dde-4819-9c02-b41b26210d01","system_id":"levelo_inurba_marseille","lat":43.29606,"lon":5.38102,"is_reserved":false,"is_disabled":false,"rental_uris":{"android":"levelo://app?vid=c0a92e6d-6dde-4819-9c02-b41b26210d01","ios":"levelo://app?vid=c0a92e6d-6dde-4819-9c02-b41b26210d01"},"vehicle_type_id":"4","last_reported":1740085669,"current_range_meters":14800,"station_id":"","pricing_plan_id":"cebpf4jnsgd1na2vs0mg"},{"bike_id":"e385752e-a969-4716-bfcb-8e46f58b5798","system_id":"levelo_inurba_marseille","lat":43.30211,"lon":5.39467,"is_reserved":false,"is_disabled":false,"rental_uris":{"android":"levelo://app?vid=e385752e-a969-4716-bfcb-8e46f58b5798","ios":"levelo://app?vid=e385752e-a969-4716-bfcb-8e46f58b5798"},"vehicle_type_id":"4","last_reported":1740085669,"current_range_meters":14800,"station_id":"ce4bh0p2rcd13ifvqd70","pricing_plan_id":"cebpf4jnsgd1na2vs0mg"},{"bike_id":"952a5472-72e9-44c8-830c-a022bd8c743b","system_id":"levelo_inurba_marseille","lat":43.29273,"lon":5.38451,"is_reserved":false,"is_disabled":false,"rental_uris":{"android":"levelo://app?vid=952a5472-72e9-44c8-830c-a022bd8c743b","ios":"levelo://app?vid=952a5472-72e9-44c8-830c-a022bd8c743b"},"vehicle_type_id":"4","last_reported":1740085669,"current_range_meters":14800,"station_id":"","pricing_plan_id":"cebpf4jnsgd1na2vs0mg"},{"bike_id":"b253065d-1074-4a51-bc2b-4e15dba86004","system_id":"levelo_inurba_marseille","lat":43.23114,"lon":5.35497,"is_reserved":false,"is_disabled":false,"rental_uris":{"android":"levelo://app?vid=b253065d-1074-4a51-bc2b-4e15dba86004","ios":"levelo://app?vid=b253065d-1074-4a51-bc2b-4e15dba86004"},"vehicle_type_id":"4","last_reported":1740085669,"current_range_meters":14800,"station_id":"cpo3342slgdg3j2ifvpg","pricing_plan_id":"cebpf4jnsgd1na2vs0mg"},{"bike_id":"81994106-0571-4dbe-a97f-1add72653c71","system_id":"levelo_inurba_marseille","lat":43.30925,"lon":5.40141,"is_reserved":false,"is_disabled":false,"rental_uris":{"android":"levelo://app?vid=81994106-0571-4dbe-a97f-1add72653c71","ios":"levelo://app?vid=81994106-0571-4dbe-a97f-1add72653c71"},"vehicle_type_id":"4","last_reported":1740085669,"current_range_meters":15200,"station_id":"","pricing_plan_id":"cebpf4jnsgd1na2vs0mg"},{"bike_id":"fc40106c-18ac-4b76-946d-ae16ee6c7616","system_id":"levelo_inurba_marseille","lat":43.27212,"lon":5.39102,"is_reserved":false,"is_disabled":false,"rental_uris":{"android":"levelo://app?vid=fc40106c-18ac-4b76-946d-ae16ee6c7616","ios":"levelo://app?vid=fc40106c-18ac-4b76-946d-ae16ee6c7616"},"vehicle_type_id":"4","last_reported":1740085669,"current_range_meters":15200,"station_id":"","pricing_plan_id":"cebpf4jnsgd1na2vs0mg"},{"bike_id":"12ef8137-2fe9-49ab-b515-2d8a19e68049","system_id":"levelo_inurba_marseille","lat":43.28896,"lon":5.35858,"is_reserved":false,"is_disabled":false,"rental_uris":{"android":"levelo://app?vid=12ef8137-2fe9-49ab-b515-2d8a19e68049","ios":"levelo://app?vid=12ef8137-2fe9-49ab-b515-2d8a19e68049"},"vehicle_type_id":"4","last_reported":1740085669,"current_range_meters":15200,"station_id":"ce4bhb12rcd13ifvqem0","pricing_plan_id":"cebpf4jnsgd1na2vs0mg"},{"bike_id":"bb9d0057-c2b2-464e-a89f-0127f9099ea4","system_id":"levelo_inurba_marseille","lat":43.24663,"lon":5.3816,"is_reserved":false,"is_disabled":false,"rental_uris":{"android":"levelo://app?vid=bb9d0057-c2b2-464e-a89f-0127f9099ea4","ios":"levelo://app?vid=bb9d0057-c2b2-464e-a89f-0127f9099ea4"},"vehicle_type_id":"4","last_reported":1740085669,"current_range_meters":15200,"station_id":"ce4bhih2rcd13ifvqfr0","pricing_plan_id":"cebpf4jnsgd1na2vs0mg"},{"bike_id":"f97ab055-5a7b-4743-be6e-ffca45005bd1","system_id":"levelo_inurba_marseille","lat":43.27054,"lon":5.40263,"is_reserved":false,"is_disabled":false,"rental_uris":{"android":"levelo://app?vid=f97ab055-5a7b-4743-be6e-ffca45005bd1","ios":"levelo://app?vid=f97ab055-5a7b-4743-be6e-ffca45005bd1"},"vehicle_type_id":"4","last_reported":1740085669,"current_range_meters":15200,"station_id":"ce4bhk92rcd13ifvqgc0","pricing_plan_id":"cebpf4jnsgd1na2vs0mg"},{"bike_id":"1736bdf7-065e-458a-8be8-137efe82e48a","system_id":"levelo_inurba_marseille","lat":43.33097,"lon":5.39055,"is_reserved":false,"is_disabled":false,"rental_uris":{"android":"levelo://app?vid=1736bdf7-065e-458a-8be8-137efe82e48a","ios":"levelo://app?vid=1736bdf7-065e-458a-8be8-137efe82e48a"},"vehicle_type_id":"4","last_reported":1740085669,"current_range_meters":15200,"station_id":"ce4bhqp2rcd13ifvqhog","pricing_plan_id":"cebpf4jnsgd1na2vs0mg"},{"bike_id":"8ce81133-dad7-4119-b1f6-cb74252bb453","system_id":"levelo_inurba_marseille","lat":43.28118,"lon":5.44596,"is_reserved":false,"is_disabled":false,"rental_uris":{"android":"levelo://app?vid=8ce81133-dad7-4119-b1f6-cb74252bb453","ios":"levelo://app?vid=8ce81133-dad7-4119-b1f6-cb74252bb453"},"vehicle_type_id":"4","last_reported":1740085669,"current_range_meters":16000,"station_id":"","pricing_plan_id":"cebpf4jnsgd1na2vs0mg"},{"bike_id":"d9bc1603-2c66-4f31-bd23-8dec481e0c09","system_id":"levelo_inurba_marseille","lat":43.28541,"lon":5.37381,"is_reserved":false,"is_disabled":false,"rental_uris":{"android":"levelo://app?vid=d9bc1603-2c66-4f31-bd23-8dec481e0c09","ios":"levelo://app?vid=d9bc1603-2c66-4f31-bd23-8dec481e0c09"},"vehicle_type_id":"4","last_reported":1740085669,"current_range_meters":16000,"station_id":"ce4bhb92rcd13ifvqen0","pricing_plan_id":"cebpf4jnsgd1na2vs0mg"},{"bike_id":"87891dce-3352-4418-9015-a26c990ecd6e","system_id":"levelo_inurba_marseille","lat":43.23076,"lon":5.3549,"is_reserved":false,"is_disabled":false,"rental_uris":{"android":"levelo://app?vid=87891dce-3352-4418-9015-a26c990ecd6e","ios":"levelo://app?vid=87891dce-3352-4418-9015-a26c990ecd6e"},"vehicle_type_id":"4","last_reported":1740085669,"current_range_meters":16000,"station_id":"cpo3342slgdg3j2ifvpg","pricing_plan_id":"cebpf4jnsgd1na2vs0mg"},{"bike_id":"790b0ff7-55c5-4c35-9f2a-78c4076d7d17","system_id":"levelo_inurba_marseille","lat":43.27957,"lon":5.38502,"is_reserved":false,"is_disabled":false,"rental_uris":{"android":"levelo://app?vid=790b0ff7-55c5-4c35-9f2a-78c4076d7d17","ios":"levelo://app?vid=790b0ff7-55c5-4c35-9f2a-78c4076d7d17"},"vehicle_type_id":"4","last_reported":1740085669,"current_range_meters":16000,"station_id":"","pricing_plan_id":"cebpf4jnsgd1na2vs0mg"},{"bike_id":"df5ae48a-c324-4b45-93b7-11b77bf7c6f8","system_id":"levelo_inurba_marseille","lat":43.24396,"lon":5.37046,"is_reserved":false,"is_disabled":false,"rental_uris":{"android":"levelo://app?vid=df5ae48a-c324-4b45-93b7-11b77bf7c6f8","ios":"levelo://app?vid=df5ae48a-c324-4b45-93b7-11b77bf7c6f8"},"vehicle_type_id":"4","last_reported":1740085669,"current_range_meters":16000,"station_id":"ce4bhhh2rcd13ifvqfk0","pricing_plan_id":"cebpf4jnsgd1na2vs0mg"},{"bike_id":"08ac09c4-6f5c-4102-9080-551603ba8f2c","system_id":"levelo_inurba_marseille","lat":43.29816,"lon":5.38073,"is_reserved":false,"is_disabled":false,"rental_uris":{"android":"levelo://app?vid=08ac09c4-6f5c-4102-9080-551603ba8f2c","ios":"levelo://app?vid=08ac09c4-6f5c-4102-9080-551603ba8f2c"},"vehicle_type_id":"4","last_reported":1740085669,"current_range_meters":16000,"station_id":"ce4bgip2rcd13ifvqbb0","pricing_plan_id":"cebpf4jnsgd1na2vs0mg"},{"bike_id":"19b817e1-b268-47e2-953e-34b4241c6f49","system_id":"levelo_inurba_marseille","lat":43.29268,"lon":5.38428,"is_reserved":false,"is_disabled":false,"rental_uris":{"android":"levelo://app?vid=19b817e1-b268-47e2-953e-34b4241c6f49","ios":"levelo://app?vid=19b817e1-b268-47e2-953e-34b4241c6f49"},"vehicle_type_id":"4","last_reported":1740085669,"current_range_meters":16000,"station_id":"ce4bh692rcd13ifvqea0","pricing_plan_id":"cebpf4jnsgd1na2vs0mg"},{"bike_id":"0b75d770-1c09-478e-9886-6583f4b2f8a7","system_id":"levelo_inurba_marseille","lat":43.29516,"lon":5.39064,"is_reserved":false,"is_disabled":false,"rental_uris":{"android":"levelo://app?vid=0b75d770-1c09-478e-9886-6583f4b2f8a7","ios":"levelo://app?vid=0b75d770-1c09-478e-9886-6583f4b2f8a7"},"vehicle_type_id":"4","last_reported":1740085669,"current_range_meters":16000,"station_id":"ce4bh3p2rcd13ifvqdp0","pricing_plan_id":"cebpf4jnsgd1na2vs0mg"},{"bike_id":"4347ac42-d6bd-4898-bb54-db9da5fa21c6","system_id":"levelo_inurba_marseille","lat":43.26813,"lon":5.40248,"is_reserved":false,"is_disabled":false,"rental_uris":{"android":"levelo://app?vid=4347ac42-d6bd-4898-bb54-db9da5fa21c6","ios":"levelo://app?vid=4347ac42-d6bd-4898-bb54-db9da5fa21c6"},"vehicle_type_id":"4","last_reported":1740085669,"current_range_meters":16000,"station_id":"ce501612rcd8frsf0b60","pricing_plan_id":"cebpf4jnsgd1na2vs0mg"},{"bike_id":"bfe7aae5-9c0b-4cf1-af56-51edc8194bd4","system_id":"levelo_inurba_marseille","lat":43.28728,"lon":5.37392,"is_reserved":false,"is_disabled":false,"rental_uris":{"android":"levelo://app?vid=bfe7aae5-9c0b-4cf1-af56-51edc8194bd4","ios":"levelo://app?vid=bfe7aae5-9c0b-4cf1-af56-51edc8194bd4"},"vehicle_type_id":"4","last_reported":1740085669,"current_range_meters":16000,"station_id":"","pricing_plan_id":"cebpf4jnsgd1na2vs0mg"},{"bike_id":"4e11b30d-0226-4b04-813f-4404772688cd","system_id":"levelo_inurba_marseille","lat":43.29019,"lon":5.37117,"is_reserved":false,"is_disabled":false,"rental_uris":{"android":"levelo://app?vid=4e11b30d-0226-4b04-813f-4404772688cd","ios":"levelo://app?vid=4e11b30d-0226-4b04-813f-4404772688cd"},"vehicle_type_id":"4","last_reported":1740085669,"current_range_meters":16000,"station_id":"","pricing_plan_id":"cebpf4jnsgd1na2vs0mg"},{"bike_id":"ad484dc4-a807-4549-846d-2aa55284d983","system_id":"levelo_inurba_marseille","lat":43.27785,"lon":5.40762,"is_reserved":false,"is_disabled":false,"rental_uris":{"android":"levelo://app?vid=ad484dc4-a807-4549-846d-2aa55284d983","ios":"levelo://app?vid=ad484dc4-a807-4549-846d-2aa55284d983"},"vehicle_type_id":"4","last_reported":1740085669,"current_range_meters":16000,"station_id":"","pricing_plan_id":"cebpf4jnsgd1na2vs0mg"},{"bike_id":"e2486147-a2a4-4a5f-91d0-44a136b0956a","system_id":"levelo_inurba_marseille","lat":43.27505,"lon":5.4343,"is_reserved":false,"is_disabled":false,"rental_uris":{"android":"levelo://app?vid=e2486147-a2a4-4a5f-91d0-44a136b0956a","ios":"levelo://app?vid=e2486147-a2a4-4a5f-91d0-44a136b0956a"},"vehicle_type_id":"4","last_reported":1740085669,"current_range_meters":16400,"station_id":"","pricing_plan_id":"cebpf4jnsgd1na2vs0mg"},{"bike_id":"723a82f7-4fc3-4df2-ae70-fe3261bfc3b6","system_id":"levelo_inurba_marseille","lat":43.30475,"lon":5.37286,"is_reserved":false,"is_disabled":false,"rental_uris":{"android":"levelo://app?vid=723a82f7-4fc3-4df2-ae70-fe3261bfc3b6","ios":"levelo://app?vid=723a82f7-4fc3-4df2-ae70-fe3261bfc3b6"},"vehicle_type_id":"4","last_reported":1740085669,"current_range_meters":16400,"station_id":"","pricing_plan_id":"cebpf4jnsgd1na2vs0mg"},{"bike_id":"ebfdce7d-43e9-43c8-b1eb-8da04fdaf8b8","system_id":"levelo_inurba_marseille","lat":43.29802,"lon":5.38081,"is_reserved":false,"is_disabled":false,"rental_uris":{"android":"levelo://app?vid=ebfdce7d-43e9-43c8-b1eb-8da04fdaf8b8","ios":"levelo://app?vid=ebfdce7d-43e9-43c8-b1eb-8da04fdaf8b8"},"vehicle_type_id":"4","last_reported":1740085669,"current_range_meters":16400,"station_id":"ce4bgip2rcd13ifvqbb0","pricing_plan_id":"cebpf4jnsgd1na2vs0mg"},{"bike_id":"7e0da6c8-7bc9-400b-a11b-694d2fdd997b","system_id":"levelo_inurba_marseille","lat":43.25089,"lon":5.39535,"is_reserved":false,"is_disabled":false,"rental_uris":{"android":"levelo://app?vid=7e0da6c8-7bc9-400b-a11b-694d2fdd997b","ios":"levelo://app?vid=7e0da6c8-7bc9-400b-a11b-694d2fdd997b"},"vehicle_type_id":"4","last_reported":1740085669,"current_range_meters":16400,"station_id":"ce4bhm12rcd13ifvqgkg","pricing_plan_id":"cebpf4jnsgd1na2vs0mg"},{"bike_id":"60f41bfc-a747-4eb8-a834-02c9cab088c5","system_id":"levelo_inurba_marseille","lat":43.28102,"lon":5.37832,"is_reserved":false,"is_disabled":false,"rental_uris":{"android":"levelo://app?vid=60f41bfc-a747-4eb8-a834-02c9cab088c5","ios":"levelo://app?vid=60f41bfc-a747-4eb8-a834-02c9cab088c5"},"vehicle_type_id":"4","last_reported":1740085669,"current_range_meters":16400,"station_id":"ce4bha12rcd13ifvqee0","pricing_plan_id":"cebpf4jnsgd1na2vs0mg"},{"bike_id":"6d50bba8-97e4-48ea-a98d-d6d8256e98f6","system_id":"levelo_inurba_marseille","lat":43.3189,"lon":5.40734,"is_reserved":false,"is_disabled":false,"rental_uris":{"android":"levelo://app?vid=6d50bba8-97e4-48ea-a98d-d6d8256e98f6","ios":"levelo://app?vid=6d50bba8-97e4-48ea-a98d-d6d8256e98f6"},"vehicle_type_id":"4","last_reported":1740085669,"current_range_meters":16400,"station_id":"ce4bhq12rcd13ifvqhig","pricing_plan_id":"cebpf4jnsgd1na2vs0mg"},{"bike_id":"3a18a060-43b3-487c-bb23-8493264d5ba4","system_id":"levelo_inurba_marseille","lat":43.2418,"lon":5.36407,"is_reserved":false,"is_disabled":true,"rental_uris":{"android":"levelo://app?vid=3a18a060-43b3-487c-bb23-8493264d5ba4","ios":"levelo://app?vid=3a18a060-43b3-487c-bb23-8493264d5ba4"},"vehicle_type_id":"4","last_reported":1740085669,"current_range_meters":16400,"station_id":"","pricing_plan_id":"cebpf4jnsgd1na2vs0mg"},{"bike_id":"4aefe304-65aa-44a0-a904-b764903e36bd","system_id":"levelo_inurba_marseille","lat":43.30124,"lon":5.38792,"is_reserved":false,"is_disabled":true,"rental_uris":{"android":"levelo://app?vid=4aefe304-65aa-44a0-a904-b764903e36bd","ios":"levelo://app?vid=4aefe304-65aa-44a0-a904-b764903e36bd"},"vehicle_type_id":"4","last_reported":1740085669,"current_range_meters":16400,"station_id":"ce4bghh2rcd13ifvqb60","pricing_plan_id":"cebpf4jnsgd1na2vs0mg"},{"bike_id":"e7df1c48-a2b4-4d6c-b47e-fa2d1f523e0b","system_id":"levelo_inurba_marseille","lat":43.32292,"lon":5.38255,"is_reserved":false,"is_disabled":false,"rental_uris":{"android":"levelo://app?vid=e7df1c48-a2b4-4d6c-b47e-fa2d1f523e0b","ios":"levelo://app?vid=e7df1c48-a2b4-4d6c-b47e-fa2d1f523e0b"},"vehicle_type_id":"4","last_reported":1740085669,"current_range_meters":16400,"station_id":"ce4bhr12rcd13ifvqhqg","pricing_plan_id":"cebpf4jnsgd1na2vs0mg"},{"bike_id":"acdaca2f-b532-42d1-b20f-9c7a91e5c5a8","system_id":"levelo_inurba_marseille","lat":43.31881,"lon":5.40747,"is_reserved":false,"is_disabled":false,"rental_uris":{"android":"levelo://app?vid=acdaca2f-b532-42d1-b20f-9c7a91e5c5a8","ios":"levelo://app?vid=acdaca2f-b532-42d1-b20f-9c7a91e5c5a8"},"vehicle_type_id":"4","last_reported":1740085669,"current_range_meters":16400,"station_id":"ce4bhq12rcd13ifvqhig","pricing_plan_id":"cebpf4jnsgd1na2vs0mg"},{"bike_id":"48bd32f5-5372-4c45-b865-3dbde016939c","system_id":"levelo_inurba_marseille","lat":43.26568,"lon":5.39003,"is_reserved":false,"is_disabled":false,"rental_uris":{"android":"levelo://app?vid=48bd32f5-5372-4c45-b865-3dbde016939c","ios":"levelo://app?vid=48bd32f5-5372-4c45-b865-3dbde016939c"},"vehicle_type_id":"4","last_reported":1740085669,"current_range_meters":16800,"station_id":"ce4bhe12rcd13ifvqf30","pricing_plan_id":"cebpf4jnsgd1na2vs0mg"},{"bike_id":"6e7bc9e4-4f1a-4318-93da-1bc3ecd960b8","system_id":"levelo_inurba_marseille","lat":43.27022,"lon":5.40167,"is_reserved":false,"is_disabled":false,"rental_uris":{"android":"levelo://app?vid=6e7bc9e4-4f1a-4318-93da-1bc3ecd960b8","ios":"levelo://app?vid=6e7bc9e4-4f1a-4318-93da-1bc3ecd960b8"},"vehicle_type_id":"4","last_reported":1740085669,"current_range_meters":16800,"station_id":"cjm6bp8fraef2m0cb0m0","pricing_plan_id":"cebpf4jnsgd1na2vs0mg"},{"bike_id":"7406e0aa-b9aa-42ab-b12c-11f252648da3","system_id":"levelo_inurba_marseille","lat":43.30129,"lon":5.38069,"is_reserved":false,"is_disabled":false,"rental_uris":{"android":"levelo://app?vid=7406e0aa-b9aa-42ab-b12c-11f252648da3","ios":"levelo://app?vid=7406e0aa-b9aa-42ab-b12c-11f252648da3"},"vehicle_type_id":"4","last_reported":1740085669,"current_range_meters":16400,"station_id":"ce4bgjp2rcd13ifvqbh0","pricing_plan_id":"cebpf4jnsgd1na2vs0mg"},{"bike_id":"00ab42ce-e183-48e4-b298-d1c3399236a7","system_id":"levelo_inurba_marseille","lat":43.26802,"lon":5.40267,"is_reserved":false,"is_disabled":false,"rental_uris":{"android":"levelo://app?vid=00ab42ce-e183-48e4-b298-d1c3399236a7","ios":"levelo://app?vid=00ab42ce-e183-48e4-b298-d1c3399236a7"},"vehicle_type_id":"4","last_reported":1740085669,"current_range_meters":16800,"station_id":"","pricing_plan_id":"cebpf4jnsgd1na2vs0mg"},{"bike_id":"15e3c05d-ef77-48c3-a35c-6ca7d4636328","system_id":"levelo_inurba_marseille","lat":43.31113,"lon":5.3777,"is_reserved":false,"is_disabled":false,"rental_uris":{"android":"levelo://app?vid=15e3c05d-ef77-48c3-a35c-6ca7d4636328","ios":"levelo://app?vid=15e3c05d-ef77-48c3-a35c-6ca7d4636328"},"vehicle_type_id":"4","last_reported":1740085669,"current_range_meters":16800,"station_id":"ce4bgt92rcd13ifvqcg0","pricing_plan_id":"cebpf4jnsgd1na2vs0mg"},{"bike_id":"f800bf4a-a88e-43ea-b4b8-11875d2f53c7","system_id":"levelo_inurba_marseille","lat":43.24852,"lon":5.3743,"is_reserved":false,"is_disabled":true,"rental_uris":{"android":"levelo://app?vid=f800bf4a-a88e-43ea-b4b8-11875d2f53c7","ios":"levelo://app?vid=f800bf4a-a88e-43ea-b4b8-11875d2f53c7"},"vehicle_type_id":"4","last_reported":1740085669,"current_range_meters":16800,"station_id":"","pricing_plan_id":"cebpf4jnsgd1na2vs0mg"},{"bike_id":"700ba57b-266c-43e6-b9df-dd7077f527b0","system_id":"levelo_inurba_marseille","lat":43.29419,"lon":5.38621,"is_reserved":false,"is_disabled":false,"rental_uris":{"android":"levelo://app?vid=700ba57b-266c-43e6-b9df-dd7077f527b0","ios":"levelo://app?vid=700ba57b-266c-43e6-b9df-dd7077f527b0"},"vehicle_type_id":"4","last_reported":1740085669,"current_range_meters":16800,"station_id":"ce4bh2h2rcd13ifvqdh0","pricing_plan_id":"cebpf4jnsgd1na2vs0mg"},{"bike_id":"44e45a0d-80e4-4777-b789-c9ff84761c0c","system_id":"levelo_inurba_marseille","lat":43.29289,"lon":5.39434,"is_reserved":false,"is_disabled":false,"rental_uris":{"android":"levelo://app?vid=44e45a0d-80e4-4777-b789-c9ff84761c0c","ios":"levelo://app?vid=44e45a0d-80e4-4777-b789-c9ff84761c0c"},"vehicle_type_id":"4","last_reported":1740085669,"current_range_meters":16800,"station_id":"","pricing_plan_id":"cebpf4jnsgd1na2vs0mg"},{"bike_id":"4c3e476c-1774-424a-ac84-b02d1d6b5ba9","system_id":"levelo_inurba_marseille","lat":43.26762,"lon":5.39435,"is_reserved":false,"is_disabled":false,"rental_uris":{"android":"levelo://app?vid=4c3e476c-1774-424a-ac84-b02d1d6b5ba9","ios":"levelo://app?vid=4c3e476c-1774-424a-ac84-b02d1d6b5ba9"},"vehicle_type_id":"4","last_reported":1740085669,"current_range_meters":16800,"station_id":"ce4bhh12rcd13ifvqfg0","pricing_plan_id":"cebpf4jnsgd1na2vs0mg"},{"bike_id":"6a41d4d5-6ce6-4940-8b60-f1b1f72587c0","system_id":"levelo_inurba_marseille","lat":43.2306,"lon":5.35507,"is_reserved":false,"is_disabled":false,"rental_uris":{"android":"levelo://app?vid=6a41d4d5-6ce6-4940-8b60-f1b1f72587c0","ios":"levelo://app?vid=6a41d4d5-6ce6-4940-8b60-f1b1f72587c0"},"vehicle_type_id":"4","last_reported":1740085669,"current_range_meters":16800,"station_id":"cpo3342slgdg3j2ifvpg","pricing_plan_id":"cebpf4jnsgd1na2vs0mg"},{"bike_id":"39911775-b352-437f-a831-cbaa657f922a","system_id":"levelo_inurba_marseille","lat":43.28695,"lon":5.37401,"is_reserved":false,"is_disabled":false,"rental_uris":{"android":"levelo://app?vid=39911775-b352-437f-a831-cbaa657f922a","ios":"levelo://app?vid=39911775-b352-437f-a831-cbaa657f922a"},"vehicle_type_id":"4","last_reported":1740085669,"current_range_meters":16800,"station_id":"ce4bh3p2rcd13ifvqdq0","pricing_plan_id":"cebpf4jnsgd1na2vs0mg"},{"bike_id":"40aaaa96-9b05-40cc-bcd2-afd2b3c6bec7","system_id":"levelo_inurba_marseille","lat":43.29419,"lon":5.38619,"is_reserved":false,"is_disabled":false,"rental_uris":{"android":"levelo://app?vid=40aaaa96-9b05-40cc-bcd2-afd2b3c6bec7","ios":"levelo://app?vid=40aaaa96-9b05-40cc-bcd2-afd2b3c6bec7"},"vehicle_type_id":"4","last_reported":1740085669,"current_range_meters":16800,"station_id":"ce4bh2h2rcd13ifvqdh0","pricing_plan_id":"cebpf4jnsgd1na2vs0mg"},{"bike_id":"406b4489-1b93-4a45-8cd2-f8858f770c97","system_id":"levelo_inurba_marseille","lat":43.25502,"lon":5.37652,"is_reserved":false,"is_disabled":false,"rental_uris":{"android":"levelo://app?vid=406b4489-1b93-4a45-8cd2-f8858f770c97","ios":"levelo://app?vid=406b4489-1b93-4a45-8cd2-f8858f770c97"},"vehicle_type_id":"4","last_reported":1740085669,"current_range_meters":17200,"station_id":"ce4bhh12rcd13ifvqff0","pricing_plan_id":"cebpf4jnsgd1na2vs0mg"},{"bike_id":"05c803e1-6bd9-421a-90e0-182fda04ecc7","system_id":"levelo_inurba_marseille","lat":43.27177,"lon":5.409932,"is_reserved":false,"is_disabled":false,"rental_uris":{"android":"levelo://app?vid=05c803e1-6bd9-421a-90e0-182fda04ecc7","ios":"levelo://app?vid=05c803e1-6bd9-421a-90e0-182fda04ecc7"},"vehicle_type_id":"4","last_reported":1740085669,"current_range_meters":17200,"station_id":"ce4bhl12rcd13ifvqgf0","pricing_plan_id":"cebpf4jnsgd1na2vs0mg"},{"bike_id":"426b9ecc-ba5f-4d00-a300-d8a037622108","system_id":"levelo_inurba_marseille","lat":43.29241,"lon":5.38449,"is_reserved":false,"is_disabled":false,"rental_uris":{"android":"levelo://app?vid=426b9ecc-ba5f-4d00-a300-d8a037622108","ios":"levelo://app?vid=426b9ecc-ba5f-4d00-a300-d8a037622108"},"vehicle_type_id":"4","last_reported":1740085669,"current_range_meters":17200,"station_id":"ce4bh692rcd13ifvqea0","pricing_plan_id":"cebpf4jnsgd1na2vs0mg"},{"bike_id":"99e8db59-f48c-4d67-9859-2d75762818c4","system_id":"levelo_inurba_marseille","lat":43.29597,"lon":5.38046,"is_reserved":false,"is_disabled":false,"rental_uris":{"android":"levelo://app?vid=99e8db59-f48c-4d67-9859-2d75762818c4","ios":"levelo://app?vid=99e8db59-f48c-4d67-9859-2d75762818c4"},"vehicle_type_id":"4","last_reported":1740085669,"current_range_meters":17200,"station_id":"ce4bgl12rcd13ifvqbo0","pricing_plan_id":"cebpf4jnsgd1na2vs0mg"},{"bike_id":"8bff6f85-9416-47d1-bf94-1e0433896cb8","system_id":"levelo_inurba_marseille","lat":43.30141,"lon":5.38094,"is_reserved":false,"is_disabled":false,"rental_uris":{"android":"levelo://app?vid=8bff6f85-9416-47d1-bf94-1e0433896cb8","ios":"levelo://app?vid=8bff6f85-9416-47d1-bf94-1e0433896cb8"},"vehicle_type_id":"4","last_reported":1740085669,"current_range_meters":17200,"station_id":"ce4bgjp2rcd13ifvqbh0","pricing_plan_id":"cebpf4jnsgd1na2vs0mg"},{"bike_id":"89fb68ec-1aa9-4c97-8b89-632e005ea687","system_id":"levelo_inurba_marseille","lat":43.337444,"lon":5.374475,"is_reserved":false,"is_disabled":true,"rental_uris":{"android":"levelo://app?vid=89fb68ec-1aa9-4c97-8b89-632e005ea687","ios":"levelo://app?vid=89fb68ec-1aa9-4c97-8b89-632e005ea687"},"vehicle_type_id":"4","last_reported":1740085669,"current_range_meters":17200,"station_id":"","pricing_plan_id":"cebpf4jnsgd1na2vs0mg"},{"bike_id":"fee267cb-45ba-451c-996e-675931142f3d","system_id":"levelo_inurba_marseille","lat":43.29029,"lon":5.38671,"is_reserved":false,"is_disabled":false,"rental_uris":{"android":"levelo://app?vid=fee267cb-45ba-451c-996e-675931142f3d","ios":"levelo://app?vid=fee267cb-45ba-451c-996e-675931142f3d"},"vehicle_type_id":"4","last_reported":1740085669,"current_range_meters":17600,"station_id":"","pricing_plan_id":"cebpf4jnsgd1na2vs0mg"},{"bike_id":"8758dbc3-17ca-421e-aeaf-8acf5cee482f","system_id":"levelo_inurba_marseille","lat":43.28698,"lon":5.40072,"is_reserved":false,"is_disabled":false,"rental_uris":{"android":"levelo://app?vid=8758dbc3-17ca-421e-aeaf-8acf5cee482f","ios":"levelo://app?vid=8758dbc3-17ca-421e-aeaf-8acf5cee482f"},"vehicle_type_id":"4","last_reported":1740085669,"current_range_meters":17600,"station_id":"","pricing_plan_id":"cebpf4jnsgd1na2vs0mg"},{"bike_id":"e5c0c42f-0e4e-4dfb-b1c5-ca88b90b92c8","system_id":"levelo_inurba_marseille","lat":43.28154,"lon":5.42644,"is_reserved":false,"is_disabled":false,"rental_uris":{"android":"levelo://app?vid=e5c0c42f-0e4e-4dfb-b1c5-ca88b90b92c8","ios":"levelo://app?vid=e5c0c42f-0e4e-4dfb-b1c5-ca88b90b92c8"},"vehicle_type_id":"4","last_reported":1740085669,"current_range_meters":17600,"station_id":"","pricing_plan_id":"cebpf4jnsgd1na2vs0mg"},{"bike_id":"2adc5cea-c5b1-4244-93fa-680922a7766b","system_id":"levelo_inurba_marseille","lat":43.291992,"lon":5.393255,"is_reserved":false,"is_disabled":false,"rental_uris":{"android":"levelo://app?vid=2adc5cea-c5b1-4244-93fa-680922a7766b","ios":"levelo://app?vid=2adc5cea-c5b1-4244-93fa-680922a7766b"},"vehicle_type_id":"4","last_reported":1740085669,"current_range_meters":17600,"station_id":"ce4bh192rcd13ifvqdd0","pricing_plan_id":"cebpf4jnsgd1na2vs0mg"},{"bike_id":"d2946875-b6d4-4adb-9410-141d4693a99e","system_id":"levelo_inurba_marseille","lat":43.30307,"lon":5.36901,"is_reserved":false,"is_disabled":false,"rental_uris":{"android":"levelo://app?vid=d2946875-b6d4-4adb-9410-141d4693a99e","ios":"levelo://app?vid=d2946875-b6d4-4adb-9410-141d4693a99e"},"vehicle_type_id":"4","last_reported":1740085669,"current_range_meters":17600,"station_id":"ce4bgqh2rcd13ifvqc5g","pricing_plan_id":"cebpf4jnsgd1na2vs0mg"},{"bike_id":"3ec36903-4270-44f7-9f5b-786af4524519","system_id":"levelo_inurba_marseille","lat":43.2816,"lon":5.4268,"is_reserved":false,"is_disabled":false,"rental_uris":{"android":"levelo://app?vid=3ec36903-4270-44f7-9f5b-786af4524519","ios":"levelo://app?vid=3ec36903-4270-44f7-9f5b-786af4524519"},"vehicle_type_id":"4","last_reported":1740085669,"current_range_meters":18000,"station_id":"ce4bhnh2rcd13ifvqgug","pricing_plan_id":"cebpf4jnsgd1na2vs0mg"},{"bike_id":"632a6ecc-4539-4556-9345-27dbaa18546a","system_id":"levelo_inurba_marseille","lat":43.29687,"lon":5.36597,"is_reserved":false,"is_disabled":false,"rental_uris":{"android":"levelo://app?vid=632a6ecc-4539-4556-9345-27dbaa18546a","ios":"levelo://app?vid=632a6ecc-4539-4556-9345-27dbaa18546a"},"vehicle_type_id":"4","last_reported":1740085669,"current_range_meters":17600,"station_id":"ce4bgn12rcd13ifvqbt0","pricing_plan_id":"cebpf4jnsgd1na2vs0mg"},{"bike_id":"1773ae1e-c63b-4de8-97f8-67d298e19fcc","system_id":"levelo_inurba_marseille","lat":43.28838,"lon":5.35851,"is_reserved":false,"is_disabled":false,"rental_uris":{"android":"levelo://app?vid=1773ae1e-c63b-4de8-97f8-67d298e19fcc","ios":"levelo://app?vid=1773ae1e-c63b-4de8-97f8-67d298e19fcc"},"vehicle_type_id":"4","last_reported":1740085669,"current_range_meters":18000,"station_id":"ce4bhb12rcd13ifvqem0","pricing_plan_id":"cebpf4jnsgd1na2vs0mg"},{"bike_id":"f30983c8-a477-4151-8928-f31c7cb3d3fc","system_id":"levelo_inurba_marseille","lat":43.29419,"lon":5.38637,"is_reserved":false,"is_disabled":false,"rental_uris":{"android":"levelo://app?vid=f30983c8-a477-4151-8928-f31c7cb3d3fc","ios":"levelo://app?vid=f30983c8-a477-4151-8928-f31c7cb3d3fc"},"vehicle_type_id":"4","last_reported":1740085669,"current_range_meters":18000,"station_id":"ce4bh2h2rcd13ifvqdh0","pricing_plan_id":"cebpf4jnsgd1na2vs0mg"},{"bike_id":"3ed6b5bd-0bee-4875-a661-9e615eb215ee","system_id":"levelo_inurba_marseille","lat":43.28106,"lon":5.37844,"is_reserved":false,"is_disabled":false,"rental_uris":{"android":"levelo://app?vid=3ed6b5bd-0bee-4875-a661-9e615eb215ee","ios":"levelo://app?vid=3ed6b5bd-0bee-4875-a661-9e615eb215ee"},"vehicle_type_id":"4","last_reported":1740085669,"current_range_meters":18000,"station_id":"ce4bha12rcd13ifvqee0","pricing_plan_id":"cebpf4jnsgd1na2vs0mg"},{"bike_id":"ebe8f273-5739-4753-ba61-e13e57e5e3ea","system_id":"levelo_inurba_marseille","lat":43.265747,"lon":5.390208,"is_reserved":false,"is_disabled":true,"rental_uris":{"android":"levelo://app?vid=ebe8f273-5739-4753-ba61-e13e57e5e3ea","ios":"levelo://app?vid=ebe8f273-5739-4753-ba61-e13e57e5e3ea"},"vehicle_type_id":"4","last_reported":1740085669,"current_range_meters":18000,"station_id":"","pricing_plan_id":"cebpf4jnsgd1na2vs0mg"},{"bike_id":"463ccdfd-6016-4857-8eed-21b338cb3b66","system_id":"levelo_inurba_marseille","lat":43.28952,"lon":5.36604,"is_reserved":false,"is_disabled":false,"rental_uris":{"android":"levelo://app?vid=463ccdfd-6016-4857-8eed-21b338cb3b66","ios":"levelo://app?vid=463ccdfd-6016-4857-8eed-21b338cb3b66"},"vehicle_type_id":"4","last_reported":1740085669,"current_range_meters":18000,"station_id":"","pricing_plan_id":"cebpf4jnsgd1na2vs0mg"},{"bike_id":"8af2d6c9-eb2a-4c0f-8b17-b8e7e34705bc","system_id":"levelo_inurba_marseille","lat":43.29881,"lon":5.38916,"is_reserved":false,"is_disabled":false,"rental_uris":{"android":"levelo://app?vid=8af2d6c9-eb2a-4c0f-8b17-b8e7e34705bc","ios":"levelo://app?vid=8af2d6c9-eb2a-4c0f-8b17-b8e7e34705bc"},"vehicle_type_id":"4","last_reported":1740085669,"current_range_meters":18000,"station_id":"ce4bh392rcd13ifvqdl0","pricing_plan_id":"cebpf4jnsgd1na2vs0mg"},{"bike_id":"e7abbdd7-814c-4d95-b2fc-b046b9b3ff56","system_id":"levelo_inurba_marseille","lat":43.27811,"lon":5.40709,"is_reserved":false,"is_disabled":false,"rental_uris":{"android":"levelo://app?vid=e7abbdd7-814c-4d95-b2fc-b046b9b3ff56","ios":"levelo://app?vid=e7abbdd7-814c-4d95-b2fc-b046b9b3ff56"},"vehicle_type_id":"4","last_reported":1740085669,"current_range_meters":18000,"station_id":"","pricing_plan_id":"cebpf4jnsgd1na2vs0mg"},{"bike_id":"e03ad9cc-5c3b-450a-bd39-24e1c4644b14","system_id":"levelo_inurba_marseille","lat":43.29606,"lon":5.38113,"is_reserved":false,"is_disabled":false,"rental_uris":{"android":"levelo://app?vid=e03ad9cc-5c3b-450a-bd39-24e1c4644b14","ios":"levelo://app?vid=e03ad9cc-5c3b-450a-bd39-24e1c4644b14"},"vehicle_type_id":"4","last_reported":1740085669,"current_range_meters":18000,"station_id":"","pricing_plan_id":"cebpf4jnsgd1na2vs0mg"},{"bike_id":"f19ae394-0419-40e9-af63-4635c4a491c4","system_id":"levelo_inurba_marseille","lat":43.3046,"lon":5.39752,"is_reserved":false,"is_disabled":false,"rental_uris":{"android":"levelo://app?vid=f19ae394-0419-40e9-af63-4635c4a491c4","ios":"levelo://app?vid=f19ae394-0419-40e9-af63-4635c4a491c4"},"vehicle_type_id":"4","last_reported":1740085669,"current_range_meters":18000,"station_id":"ce4bh092rcd13ifvqd20","pricing_plan_id":"cebpf4jnsgd1na2vs0mg"},{"bike_id":"99919943-c2da-48eb-a478-8ec3fcc06209","system_id":"levelo_inurba_marseille","lat":43.309349,"lon":5.401398,"is_reserved":false,"is_disabled":false,"rental_uris":{"android":"levelo://app?vid=99919943-c2da-48eb-a478-8ec3fcc06209","ios":"levelo://app?vid=99919943-c2da-48eb-a478-8ec3fcc06209"},"vehicle_type_id":"4","last_reported":1740085669,"current_range_meters":18000,"station_id":"ce4bho92rcd13ifvqh3g","pricing_plan_id":"cebpf4jnsgd1na2vs0mg"},{"bike_id":"75b5f4fb-0c49-422f-9831-059225f51683","system_id":"levelo_inurba_marseille","lat":43.29601,"lon":5.3769,"is_reserved":false,"is_disabled":false,"rental_uris":{"android":"levelo://app?vid=75b5f4fb-0c49-422f-9831-059225f51683","ios":"levelo://app?vid=75b5f4fb-0c49-422f-9831-059225f51683"},"vehicle_type_id":"4","last_reported":1740085669,"current_range_meters":18000,"station_id":"","pricing_plan_id":"cebpf4jnsgd1na2vs0mg"},{"bike_id":"fb9e1599-662d-4758-ac15-5674799661dd","system_id":"levelo_inurba_marseille","lat":43.28484,"lon":5.38411,"is_reserved":false,"is_disabled":false,"rental_uris":{"android":"levelo://app?vid=fb9e1599-662d-4758-ac15-5674799661dd","ios":"levelo://app?vid=fb9e1599-662d-4758-ac15-5674799661dd"},"vehicle_type_id":"4","last_reported":1740085669,"current_range_meters":18000,"station_id":"ce4bh512rcd13ifvqe3g","pricing_plan_id":"cebpf4jnsgd1na2vs0mg"},{"bike_id":"87a55807-f2fb-4fff-8578-eaa4b8c19e0e","system_id":"levelo_inurba_marseille","lat":43.29628,"lon":5.38114,"is_reserved":false,"is_disabled":false,"rental_uris":{"android":"levelo://app?vid=87a55807-f2fb-4fff-8578-eaa4b8c19e0e","ios":"levelo://app?vid=87a55807-f2fb-4fff-8578-eaa4b8c19e0e"},"vehicle_type_id":"4","last_reported":1740085669,"current_range_meters":18000,"station_id":"","pricing_plan_id":"cebpf4jnsgd1na2vs0mg"},{"bike_id":"7630c788-e51a-4cf1-9494-1333d66ea398","system_id":"levelo_inurba_marseille","lat":43.287109,"lon":5.399859,"is_reserved":false,"is_disabled":false,"rental_uris":{"android":"levelo://app?vid=7630c788-e51a-4cf1-9494-1333d66ea398","ios":"levelo://app?vid=7630c788-e51a-4cf1-9494-1333d66ea398"},"vehicle_type_id":"4","last_reported":1740085669,"current_range_meters":18800,"station_id":"ce4bhq92rcd13ifvqhkg","pricing_plan_id":"cebpf4jnsgd1na2vs0mg"},{"bike_id":"15645e3d-5dd6-4bfa-9b38-2475ddfc1093","system_id":"levelo_inurba_marseille","lat":43.27818,"lon":5.40708,"is_reserved":false,"is_disabled":false,"rental_uris":{"android":"levelo://app?vid=15645e3d-5dd6-4bfa-9b38-2475ddfc1093","ios":"levelo://app?vid=15645e3d-5dd6-4bfa-9b38-2475ddfc1093"},"vehicle_type_id":"4","last_reported":1740085669,"current_range_meters":18800,"station_id":"ce4bhnh2rcd13ifvqgtg","pricing_plan_id":"cebpf4jnsgd1na2vs0mg"},