{"last_updated":1730056079,"ttl":60,"version":"2.2","data":{"bikes":[{"bike_id":"46ca7a5a-b63f-4a23-af18-d368d3c3861e","system_id":"levelo_inurba_marseille","lat":43.27315,"lon":5.39093,"is_reserved":false,"is_disabled":false,"rental_uris":{"android":"levelo://app?vid=46ca7a5a-b63f-4a23-af18-d368d3c3861e","ios":"levelo://app?vid=46ca7a5a-b63f-4a23-af18-d368d3c3861e"},"vehicle_type_id":"4","last_reported":1730056079,"current_range_meters":31200,"station_id":"ce4bhgp2rcd13ifvqfe0","pricing_plan_id":"cebpf4jnsgd1na2vs0mg"},{"bike_id":"69f4165a-13a2-4bd8-b4d6-abfa25614867","system_id":"levelo_inurba_marseille","lat":43.26805,"lon":5.40265,"is_reserved":false,"is_disabled":false,"rental_uris":{"android":"levelo://app?vid=69f4165a-13a2-4bd8-b4d6-abfa25614867","ios":"levelo://app?vid=69f4165a-13a2-4bd8-b4d6-abfa25614867"},"vehicle_type_id":"4","last_reported":1730056079,"current_range_meters":38800,"station_id":"ce501612rcd8frsf0b60","pricing_plan_id":"cebpf4jnsgd1na2vs0mg"},{"bike_id":"bb7ec344-875d-438a-a745-af710abea8c7","system_id":"levelo_inurba_marseille","lat":43.2803,"lon":5.36948,"is_reserved":false,"is_disabled":false,"rental_uris":{"android":"levelo://app?vid=bb7ec344-875d-438a-a745-af710abea8c7","ios":"levelo://app?vid=bb7ec344-875d-438a-a745-af710abea8c7"},"vehicle_type_id":"4","last_reported":1730056079,"current_range_meters":22400,"station_id":"ce4bha12rcd13ifvqef0","pricing_plan_id":"cebpf4jnsgd1na2vs0mg"},{"bike_id":"48660d12-eacc-4f93-a06c-04c2aa9e37e4","system_id":"levelo_inurba_marseille","lat":43.268,"lon":5.40276,"is_reserved":false,"is_disabled":false,"rental_uris":{"android":"levelo://app?vid=48660d12-eacc-4f93-a06c-04c2aa9e37e4","ios":"levelo://app?vid=48660d12-eacc-4f93-a06c-04c2aa9e37e4"},"vehicle_type_id":"4","last_reported":1730056079,"current_range_meters":17200,"station_id":"ce501612rcd8frsf0b60","pricing_plan_id":"cebpf4jnsgd1na2vs0mg"},{"bike_id":"1398a9dd-e195-4224-b88a-a320ef9b2825","system_id":"levelo_inurba_marseille","lat":43.26939,"lon":5.4026,"is_reserved":false,"is_disabled":false,"rental_uris":{"android":"levelo://app?vid=1398a9dd-e195-4224-b88a-a320ef9b2825","ios":"levelo://app?vid=1398a9dd-e195-4224-b88a-a320ef9b2825"},"vehicle_type_id":"4","last_reported":1730056079,"current_range_meters":21600,"station_id":"cjm6bp8fraef2m0cb0m0","pricing_plan_id":"cebpf4jnsgd1na2vs0mg"},{"bike_id":"f3d5c86c-ab11-4ca3-aa72-c97ea732ed17","system_id":"levelo_inurba_marseille","lat":43.27317,"lon":5.39094,"is_reserved":false,"is_disabled":false,"rental_uris":{"android":"levelo://app?vid=f3d5c86c-ab11-4ca3-aa72-c97ea732ed17","ios":"levelo://app?vid=f3d5c86c-ab11-4ca3-aa72-c97ea732ed17"},"vehicle_type_id":"4","last_reported":1730056079,"current_range_meters":28400,"station_id":"ce4bhgp2rcd13ifvqfe0","pricing_plan_id":"cebpf4jnsgd1na2vs0mg"},{"bike_id":"9fb636e5-62cf-4512-aed6-0c2da0e74711","system_id":"levelo_inurba_marseille","lat":43.29419,"lon":5.38611,"is_reserved":false,"is_disabled":false,"rental_uris":{"android":"levelo://app?vid=9fb636e5-62cf-4512-aed6-0c2da0e74711","ios":"levelo://app?vid=9fb636e5-62cf-4512-aed6-0c2da0e74711"},"vehicle_type_id":"4","last_reported":1730056079,"current_range_meters":38800,"station_id":"ce4bh2h2rcd13ifvqdh0","pricing_plan_id":"cebpf4jnsgd1na2vs0mg"},{"bike_id":"74e2946f-82a0-4e61-92fc-68ab139c0106","system_id":"levelo_inurba_marseille","lat":43.29709,"lon":5.36612,"is_reserved":false,"is_disabled":false,"rental_uris":{"android":"levelo://app?vid=74e2946f-82a0-4e61-92fc-68ab139c0106","ios":"levelo://app?vid=74e2946f-82a0-4e61-92fc-68ab139c0106"},"vehicle_type_id":"4","last_reported":1730056079,"current_range_meters":7200,"station_id":"ce4bgn12rcd13ifvqbt0","pricing_plan_id":"cebpf4jnsgd1na2vs0mg"},{"bike_id":"e2971513-5509-43da-a4bb-a3d89812546c","system_id":"levelo_inurba_marseille","lat":43.25007,"lon":5.38915,"is_reserved":false,"is_disabled":false,"rental_uris":{"android":"levelo://app?vid=e2971513-5509-43da-a4bb-a3d89812546c","ios":"levelo://app?vid=e2971513-5509-43da-a4bb-a3d89812546c"},"vehicle_type_id":"4","last_reported":1730056079,"current_range_meters":8800,"station_id":"ce4bhgp2rcd13ifvqfd0","pricing_plan_id":"cebpf4jnsgd1na2vs0mg"},{"bike_id":"7c34c063-d68c-4488-8d3a-c6e39d4916e7","system_id":"levelo_inurba_marseille","lat":43.26495,"lon":5.39541,"is_reserved":false,"is_disabled":false,"rental_uris":{"android":"levelo://app?vid=7c34c063-d68c-4488-8d3a-c6e39d4916e7","ios":"levelo://app?vid=7c34c063-d68c-4488-8d3a-c6e39d4916e7"},"vehicle_type_id":"4","last_reported":1730056079,"current_range_meters":32000,"station_id":"ce4bhi12rcd13ifvqfq0","pricing_plan_id":"cebpf4jnsgd1na2vs0mg"},{"bike_id":"02e48240-5e3f-43b9-85ae-568aa17005a2","system_id":"levelo_inurba_marseille","lat":43.26946,"lon":5.40248,"is_reserved":false,"is_disabled":false,"rental_uris":{"android":"levelo://app?vid=02e48240-5e3f-43b9-85ae-568aa17005a2","ios":"levelo://app?vid=02e48240-5e3f-43b9-85ae-568aa17005a2"},"vehicle_type_id":"4","last_reported":1730056079,"current_range_meters":2800,"station_id":"cjm6bp8fraef2m0cb0m0","pricing_plan_id":"cebpf4jnsgd1na2vs0mg"},{"bike_id":"17fccfaf-a985-4a54-a7fb-ea4471bad24a","system_id":"levelo_inurba_marseille","lat":43.26785,"lon":5.39415,"is_reserved":false,"is_disabled":false,"rental_uris":{"android":"levelo://app?vid=17fccfaf-a985-4a54-a7fb-ea4471bad24a","ios":"levelo://app?vid=17fccfaf-a985-4a54-a7fb-ea4471bad24a"},"vehicle_type_id":"4","last_reported":1730056079,"current_range_meters":9600,"station_id":"ce4bhh12rcd13ifvqfg0","pricing_plan_id":"cebpf4jnsgd1na2vs0mg"},{"bike_id":"bf4ccacf-ad5f-4128-967e-c7a2685f476b","system_id":"levelo_inurba_marseille","lat":43.26948,"lon":5.40256,"is_reserved":false,"is_disabled":false,"rental_uris":{"android":"levelo://app?vid=bf4ccacf-ad5f-4128-967e-c7a2685f476b","ios":"levelo://app?vid=bf4ccacf-ad5f-4128-967e-c7a2685f476b"},"vehicle_type_id":"4","last_reported":1730056079,"current_range_meters":20000,"station_id":"cjm6bp8fraef2m0cb0m0","pricing_plan_id":"cebpf4jnsgd1na2vs0mg"},{"bike_id":"6a06b41e-a9ef-4c91-9d06-d6ddd8fcb545","system_id":"levelo_inurba_marseille","lat":43.26934,"lon":5.4026,"is_reserved":false,"is_disabled":false,"rental_uris":{"android":"levelo://app?vid=6a06b41e-a9ef-4c91-9d06-d6ddd8fcb545","ios":"levelo://app?vid=6a06b41e-a9ef-4c91-9d06-d6ddd8fcb545"},"vehicle_type_id":"4","last_reported":1730056079,"current_range_meters":12800,"station_id":"cjm6bp8fraef2m0cb0m0","pricing_plan_id":"cebpf4jnsgd1na2vs0mg"},{"bike_id":"269ba49b-8c6b-4cd6-8c73-787931fe8494","system_id":"levelo_inurba_marseille","lat":43.27422,"lon":5.394155,"is_reserved":false,"is_disabled":false,"rental_uris":{"android":"levelo://app?vid=269ba49b-8c6b-4cd6-8c73-787931fe8494","ios":"levelo://app?vid=269ba49b-8c6b-4cd6-8c73-787931fe8494"},"vehicle_type_id":"4","last_reported":1730056079,"current_range_meters":34800,"station_id":"ce4bhdp2rcd13ifvqf20","pricing_plan_id":"cebpf4jnsgd1na2vs0mg"},{"bike_id":"3898cd5e-4e9e-4074-bb3b-0cfa58842e64","system_id":"levelo_inurba_marseille","lat":43.3064,"lon":5.40087,"is_reserved":false,"is_disabled":false,"rental_uris":{"android":"levelo://app?vid=3898cd5e-4e9e-4074-bb3b-0cfa58842e64","ios":"levelo://app?vid=3898cd5e-4e9e-4074-bb3b-0cfa58842e64"},"vehicle_type_id":"4","last_reported":1730056079,"current_range_meters":33200,"station_id":"ce4bh112rcd13ifvqda0","pricing_plan_id":"cebpf4jnsgd1na2vs0mg"},{"bike_id":"eb74aa32-c49d-4202-bac3-91a96c4d4783","system_id":"levelo_inurba_marseille","lat":43.30799,"lon":5.36994,"is_reserved":false,"is_disabled":false,"rental_uris":{"android":"levelo://app?vid=eb74aa32-c49d-4202-bac3-91a96c4d4783","ios":"levelo://app?vid=eb74aa32-c49d-4202-bac3-91a96c4d4783"},"vehicle_type_id":"4","last_reported":1730056079,"current_range_meters":20400,"station_id":"ce4bguh2rcd13ifvqckg","pricing_plan_id":"cebpf4jnsgd1na2vs0mg"},{"bike_id":"b69b04c9-98d0-4d34-b51e-bb855fb5eef3","system_id":"levelo_inurba_marseille","lat":43.30934,"lon":5.40145,"is_reserved":false,"is_disabled":false,"rental_uris":{"android":"levelo://app?vid=b69b04c9-98d0-4d34-b51e-bb855fb5eef3","ios":"levelo://app?vid=b69b04c9-98d0-4d34-b51e-bb855fb5eef3"},"vehicle_type_id":"4","last_reported":1730056079,"current_range_meters":24800,"station_id":"ce4bgvp2rcd13ifvqct0","pricing_plan_id":"cebpf4jnsgd1na2vs0mg"},{"bike_id":"d342ab4d-c47e-4bf5-99cd-ed5545ab9569","system_id":"levelo_inurba_marseille","lat":43.26802,"lon":5.4027,"is_reserved":false,"is_disabled":false,"rental_uris":{"android":"levelo://app?vid=d342ab4d-c47e-4bf5-99cd-ed5545ab9569","ios":"levelo://app?vid=d342ab4d-c47e-4bf5-99cd-ed5545ab9569"},"vehicle_type_id":"4","last_reported":1730056079,"current_range_meters":10800,"station_id":"ce501612rcd8frsf0b60","pricing_plan_id":"cebpf4jnsgd1na2vs0mg"},{"bike_id":"3eb0a277-869b-4e5b-8aab-f48c7332f739","system_id":"levelo_inurba_marseille","lat":43.29302,"lon":5.37178,"is_reserved":false,"is_disabled":false,"rental_uris":{"android":"levelo://app?vid=3eb0a277-869b-4e5b-8aab-f48c7332f739","ios":"levelo://app?vid=3eb0a277-869b-4e5b-8aab-f48c7332f739"},"vehicle_type_id":"4","last_reported":1730056079,"current_range_meters":22800,"station_id":"ce4bgh92rcd13ifvqb40","pricing_plan_id":"cebpf4jnsgd1na2vs0mg"},{"bike_id":"071d8249-bff0-4616-8a74-068aef25b1d3","system_id":"levelo_inurba_marseille","lat":43.294098,"lon":5.385961,"is_reserved":false,"is_disabled":false,"rental_uris":{"android":"levelo://app?vid=071d8249-bff0-4616-8a74-068aef25b1d3","ios":"levelo://app?vid=071d8249-bff0-4616-8a74-068aef25b1d3"},"vehicle_type_id":"4","last_reported":1730056079,"current_range_meters":6400,"station_id":"ce4bh2h2rcd13ifvqdh0","pricing_plan_id":"cebpf4jnsgd1na2vs0mg"},{"bike_id":"55db0263-1e76-4207-8f66-5386b08af8f2","system_id":"levelo_inurba_marseille","lat":43.29264,"lon":5.38438,"is_reserved":false,"is_disabled":false,"rental_uris":{"android":"levelo://app?vid=55db0263-1e76-4207-8f66-5386b08af8f2","ios":"levelo://app?vid=55db0263-1e76-4207-8f66-5386b08af8f2"},"vehicle_type_id":"4","last_reported":1730056079,"current_range_meters":24000,"station_id":"ce4bh692rcd13ifvqea0","pricing_plan_id":"cebpf4jnsgd1na2vs0mg"},{"bike_id":"8ed0e600-52f7-4841-aa09-f2be0f0fd557","system_id":"levelo_inurba_marseille","lat":43.26814,"lon":5.40235,"is_reserved":false,"is_disabled":false,"rental_uris":{"android":"levelo://app?vid=8ed0e600-52f7-4841-aa09-f2be0f0fd557","ios":"levelo://app?vid=8ed0e600-52f7-4841-aa09-f2be0f0fd557"},"vehicle_type_id":"4","last_reported":1730056079,"current_range_meters":38800,"station_id":"ce501612rcd8frsf0b60","pricing_plan_id":"cebpf4jnsgd1na2vs0mg"},{"bike_id":"293934c0-c346-4b1a-ae17-4b77954e0f69","system_id":"levelo_inurba_marseille","lat":43.288474,"lon":5.393014,"is_reserved":false,"is_disabled":false,"rental_uris":{"android":"levelo://app?vid=293934c0-c346-4b1a-ae17-4b77954e0f69","ios":"levelo://app?vid=293934c0-c346-4b1a-ae17-4b77954e0f69"},"vehicle_type_id":"4","last_reported":1730056079,"current_range_meters":20800,"station_id":"ce4bh2p2rcd13ifvqdi0","pricing_plan_id":"cebpf4jnsgd1na2vs0mg"},{"bike_id":"2ab6a876-b383-42be-8174-3b09d00c2764","system_id":"levelo_inurba_marseille","lat":43.22927,"lon":5.35374,"is_reserved":false,"is_disabled":false,"rental_uris":{"android":"levelo://app?vid=2ab6a876-b383-42be-8174-3b09d00c2764","ios":"levelo://app?vid=2ab6a876-b383-42be-8174-3b09d00c2764"},"vehicle_type_id":"4","last_reported":1730056079,"current_range_meters":38800,"station_id":"cpo3532slgdg3j2ikp40","pricing_plan_id":"cebpf4jnsgd1na2vs0mg"},{"bike_id":"5b844605-7340-459a-b9a5-322a50a6d07d","system_id":"levelo_inurba_marseille","lat":43.23961,"lon":5.36627,"is_reserved":false,"is_disabled":false,"rental_uris":{"android":"levelo://app?vid=5b844605-7340-459a-b9a5-322a50a6d07d","ios":"levelo://app?vid=5b844605-7340-459a-b9a5-322a50a6d07d"},"vehicle_type_id":"4","last_reported":1730056079,"current_range_meters":19200,"station_id":"ce4bhi12rcd13ifvqfp0","pricing_plan_id":"cebpf4jnsgd1na2vs0mg"},{"bike_id":"711ea989-9bbd-4a86-a947-8e287449186f","system_id":"levelo_inurba_marseille","lat":43.229258,"lon":5.353689,"is_reserved":false,"is_disabled":false,"rental_uris":{"android":"levelo://app?vid=711ea989-9bbd-4a86-a947-8e287449186f","ios":"levelo://app?vid=711ea989-9bbd-4a86-a947-8e287449186f"},"vehicle_type_id":"4","last_reported":1730056079,"current_range_meters":38800,"station_id":"cpo3532slgdg3j2ikp40","pricing_plan_id":"cebpf4jnsgd1na2vs0mg"},{"bike_id":"27f39214-437b-402f-ba70-e8fd46f4e41b","system_id":"levelo_inurba_marseille","lat":43.28498,"lon":5.36921,"is_reserved":false,"is_disabled":false,"rental_uris":{"android":"levelo://app?vid=27f39214-437b-402f-ba70-e8fd46f4e41b","ios":"levelo://app?vid=27f39214-437b-402f-ba70-e8fd46f4e41b"},"vehicle_type_id":"4","last_reported":1730056079,"current_range_meters":17600,"station_id":"","pricing_plan_id":"cebpf4jnsgd1na2vs0mg"},{"bike_id":"5ed72901-e44e-460e-9669-5f1f8a6d2f53","system_id":"levelo_inurba_marseille","lat":43.28664,"lon":5.44476,"is_reserved":false,"is_disabled":false,"rental_uris":{"android":"levelo://app?vid=5ed72901-e44e-460e-9669-5f1f8a6d2f53","ios":"levelo://app?vid=5ed72901-e44e-460e-9669-5f1f8a6d2f53"},"vehicle_type_id":"4","last_reported":1730056079,"current_range_meters":8400,"station_id":"","pricing_plan_id":"cebpf4jnsgd1na2vs0mg"},{"bike_id":"5a8f1663-f056-4f45-9757-512c3710d03d","system_id":"levelo_inurba_marseille","lat":43.30249,"lon":5.40072,"is_reserved":false,"is_disabled":false,"rental_uris":{"android":"levelo://app?vid=5a8f1663-f056-4f45-9757-512c3710d03d","ios":"levelo://app?vid=5a8f1663-f056-4f45-9757-512c3710d03d"},"vehicle_type_id":"4","last_reported":1730056079,"current_range_meters":38800,"station_id":"ce4bgvh2rcd13ifvqcs0","pricing_plan_id":"cebpf4jnsgd1na2vs0mg"},{"bike_id":"d1dacee6-8f47-4ca5-823b-a2ea6c3413e8","system_id":"levelo_inurba_marseille","lat":43.23193,"lon":5.35555,"is_reserved":false,"is_disabled":false,"rental_uris":{"android":"levelo://app?vid=d1dacee6-8f47-4ca5-823b-a2ea6c3413e8","ios":"levelo://app?vid=d1dacee6-8f47-4ca5-823b-a2ea6c3413e8"},"vehicle_type_id":"4","last_reported":1730056079,"current_range_meters":34800,"station_id":"ce4bhu92rcd13ifvqi70","pricing_plan_id":"cebpf4jnsgd1na2vs0mg"},{"bike_id":"540b1268-662b-483a-a88b-c79092eddc85","system_id":"levelo_inurba_marseille","lat":43.26806,"lon":5.40268,"is_reserved":false,"is_disabled":false,"rental_uris":{"android":"levelo://app?vid=540b1268-662b-483a-a88b-c79092eddc85","ios":"levelo://app?vid=540b1268-662b-483a-a88b-c79092eddc85"},"vehicle_type_id":"4","last_reported":1730056079,"current_range_meters":32000,"station_id":"ce501612rcd8frsf0b60","pricing_plan_id":"cebpf4jnsgd1na2vs0mg"},{"bike_id":"1420596e-9006-4b1e-abb8-89eb7361d32b","system_id":"levelo_inurba_marseille","lat":43.29423,"lon":5.38628,"is_reserved":false,"is_disabled":false,"rental_uris":{"android":"levelo://app?vid=1420596e-9006-4b1e-abb8-89eb7361d32b","ios":"levelo://app?vid=1420596e-9006-4b1e-abb8-89eb7361d32b"},"vehicle_type_id":"4","last_reported":1730056079,"current_range_meters":38800,"station_id":"ce4bh2h2rcd13ifvqdh0","pricing_plan_id":"cebpf4jnsgd1na2vs0mg"},{"bike_id":"e4a5d63e-70ce-4eb7-a34a-b3b2d0d5aa97","system_id":"levelo_inurba_marseille","lat":43.29389,"lon":5.37984,"is_reserved":false,"is_disabled":false,"rental_uris":{"android":"levelo://app?vid=e4a5d63e-70ce-4eb7-a34a-b3b2d0d5aa97","ios":"levelo://app?vid=e4a5d63e-70ce-4eb7-a34a-b3b2d0d5aa97"},"vehicle_type_id":"4","last_reported":1730056079,"current_range_meters":28400,"station_id":"ce4bh2h2rcd13ifvqdh0","pricing_plan_id":"cebpf4jnsgd1na2vs0mg"},{"bike_id":"afb2bf35-8b5e-4247-805a-fe0c1b6fb966","system_id":"levelo_inurba_marseille","lat":43.269425,"lon":5.40248,"is_reserved":false,"is_disabled":false,"rental_uris":{"android":"levelo://app?vid=afb2bf35-8b5e-4247-805a-fe0c1b6fb966","ios":"levelo://app?vid=afb2bf35-8b5e-4247-805a-fe0c1b6fb966"},"vehicle_type_id":"4","last_reported":1730056079,"current_range_meters":8400,"station_id":"cjm6bp8fraef2m0cb0m0","pricing_plan_id":"cebpf4jnsgd1na2vs0mg"},{"bike_id":"2fcf143f-0eb7-4458-a735-1f3eb791ca17","system_id":"levelo_inurba_marseille","lat":43.25112,"lon":5.40322,"is_reserved":false,"is_disabled":false,"rental_uris":{"android":"levelo://app?vid=2fcf143f-0eb7-4458-a735-1f3eb791ca17","ios":"levelo://app?vid=2fcf143f-0eb7-4458-a735-1f3eb791ca17"},"vehicle_type_id":"4","last_reported":1730056079,"current_range_meters":34800,"station_id":"ce4bhlh2rcd13ifvqgig","pricing_plan_id":"cebpf4jnsgd1na2vs0mg"},{"bike_id":"6008f706-793e-4a46-99f9-a4cd0b5b1ae3","system_id":"levelo_inurba_marseille","lat":43.29532,"lon":5.38546,"is_reserved":false,"is_disabled":false,"rental_uris":{"android":"levelo://app?vid=6008f706-793e-4a46-99f9-a4cd0b5b1ae3","ios":"levelo://app?vid=6008f706-793e-4a46-99f9-a4cd0b5b1ae3"},"vehicle_type_id":"4","last_reported":1730056079,"current_range_meters":17200,"station_id":"ce4bgih2rcd13ifvqba0","pricing_plan_id":"cebpf4jnsgd1na2vs0mg"},{"bike_id":"b2b59d68-310c-4f6e-8e1e-96072e0c722e","system_id":"levelo_inurba_marseille","lat":43.28931,"lon":5.36637,"is_reserved":false,"is_disabled":false,"rental_uris":{"android":"levelo://app?vid=b2b59d68-310c-4f6e-8e1e-96072e0c722e","ios":"levelo://app?vid=b2b59d68-310c-4f6e-8e1e-96072e0c722e"},"vehicle_type_id":"4","last_reported":1730056079,"current_range_meters":35600,"station_id":"ce4bhap2rcd13ifvqek0","pricing_plan_id":"cebpf4jnsgd1na2vs0mg"},{"bike_id":"e16ba0fb-c8f9-4074-a1c8-ad626ad5602f","system_id":"levelo_inurba_marseille","lat":43.26942,"lon":5.40251,"is_reserved":false,"is_disabled":false,"rental_uris":{"android":"levelo://app?vid=e16ba0fb-c8f9-4074-a1c8-ad626ad5602f","ios":"levelo://app?vid=e16ba0fb-c8f9-4074-a1c8-ad626ad5602f"},"vehicle_type_id":"4","last_reported":1730056079,"current_range_meters":38000,"station_id":"cjm6bp8fraef2m0cb0m0","pricing_plan_id":"cebpf4jnsgd1na2vs0mg"},{"bike_id":"8dd2655e-c698-41b1-a17b-03c069b499c3","system_id":"levelo_inurba_marseille","lat":43.292511,"lon":5.38441,"is_reserved":false,"is_disabled":false,"rental_uris":{"android":"levelo://app?vid=8dd2655e-c698-41b1-a17b-03c069b499c3","ios":"levelo://app?vid=8dd2655e-c698-41b1-a17b-03c069b499c3"},"vehicle_type_id":"4","last_reported":1730056079,"current_range_meters":38800,"station_id":"ce4bh412rcd13ifvqdr0","pricing_plan_id":"cebpf4jnsgd1na2vs0mg"},{"bike_id":"49d48a20-ca55-4e3a-abd2-6bef373d1253","system_id":"levelo_inurba_marseille","lat":43.23065,"lon":5.35496,"is_reserved":false,"is_disabled":false,"rental_uris":{"android":"levelo://app?vid=49d48a20-ca55-4e3a-abd2-6bef373d1253","ios":"levelo://app?vid=49d48a20-ca55-4e3a-abd2-6bef373d1253"},"vehicle_type_id":"4","last_reported":1730056079,"current_range_meters":39200,"station_id":"cpo3342slgdg3j2ifvpg","pricing_plan_id":"cebpf4jnsgd1na2vs0mg"},{"bike_id":"188fe55e-6013-47f2-99b6-4cbe994de9e6","system_id":"levelo_inurba_marseille","lat":43.24806,"lon":5.37452,"is_reserved":false,"is_disabled":false,"rental_uris":{"android":"levelo://app?vid=188fe55e-6013-47f2-99b6-4cbe994de9e6","ios":"levelo://app?vid=188fe55e-6013-47f2-99b6-4cbe994de9e6"},"vehicle_type_id":"4","last_reported":1730056079,"current_range_meters":27200,"station_id":"ce4bhgh2rcd13ifvqfb0","pricing_plan_id":"cebpf4jnsgd1na2vs0mg"},{"bike_id":"6875a1a6-32b9-4783-93f5-84a3a0c85f67","system_id":"levelo_inurba_marseille","lat":43.23069,"lon":5.35489,"is_reserved":false,"is_disabled":false,"rental_uris":{"android":"levelo://app?vid=6875a1a6-32b9-4783-93f5-84a3a0c85f67","ios":"levelo://app?vid=6875a1a6-32b9-4783-93f5-84a3a0c85f67"},"vehicle_type_id":"4","last_reported":1730056079,"current_range_meters":24400,"station_id":"cpo3342slgdg3j2ifvpg","pricing_plan_id":"cebpf4jnsgd1na2vs0mg"},{"bike_id":"701bf903-567b-484f-b089-587de25a0c22","system_id":"levelo_inurba_marseille","lat":43.30798,"lon":5.43522,"is_reserved":false,"is_disabled":false,"rental_uris":{"android":"levelo://app?vid=701bf903-567b-484f-b089-587de25a0c22","ios":"levelo://app?vid=701bf903-567b-484f-b089-587de25a0c22"},"vehicle_type_id":"4","last_reported":1730056079,"current_range_meters":18000,"station_id":"ce4bhph2rcd13ifvqheg","pricing_plan_id":"cebpf4jnsgd1na2vs0mg"},{"bike_id":"f0f01ecf-ed36-4eb0-911b-5f5e67aad841","system_id":"levelo_inurba_marseille","lat":43.25501,"lon":5.37654,"is_reserved":false,"is_disabled":false,"rental_uris":{"android":"levelo://app?vid=f0f01ecf-ed36-4eb0-911b-5f5e67aad841","ios":"levelo://app?vid=f0f01ecf-ed36-4eb0-911b-5f5e67aad841"},"vehicle_type_id":"4","last_reported":1730056079,"current_range_meters":8000,"station_id":"ce4bhh12rcd13ifvqff0","pricing_plan_id":"cebpf4jnsgd1na2vs0mg"},{"bike_id":"e89036ab-06cb-459b-91f1-830ff3435de6","system_id":"levelo_inurba_marseille","lat":43.23192,"lon":5.35549,"is_reserved":false,"is_disabled":false,"rental_uris":{"android":"levelo://app?vid=e89036ab-06cb-459b-91f1-830ff3435de6","ios":"levelo://app?vid=e89036ab-06cb-459b-91f1-830ff3435de6"},"vehicle_type_id":"4","last_reported":1730056079,"current_range_meters":38800,"station_id":"ce4bhu92rcd13ifvqi70","pricing_plan_id":"cebpf4jnsgd1na2vs0mg"},{"bike_id":"7f53e262-77bb-41db-839c-3999b66c67d2","system_id":"levelo_inurba_marseille","lat":43.32294,"lon":5.40634,"is_reserved":false,"is_disabled":false,"rental_uris":{"android":"levelo://app?vid=7f53e262-77bb-41db-839c-3999b66c67d2","ios":"levelo://app?vid=7f53e262-77bb-41db-839c-3999b66c67d2"},"vehicle_type_id":"4","last_reported":1730056079,"current_range_meters":29600,"station_id":"ce4bhq92rcd13ifvqhjg","pricing_plan_id":"cebpf4jnsgd1na2vs0mg"},{"bike_id":"66fb00a7-295c-492a-b5c9-538d3dea086f","system_id":"levelo_inurba_marseille","lat":43.23184,"lon":5.4372,"is_reserved":false,"is_disabled":false,"rental_uris":{"android":"levelo://app?vid=66fb00a7-295c-492a-b5c9-538d3dea086f","ios":"levelo://app?vid=66fb00a7-295c-492a-b5c9-538d3dea086f"},"vehicle_type_id":"4","last_reported":1730056079,"current_range_meters":24800,"station_id":"","pricing_plan_id":"cebpf4jnsgd1na2vs0mg"},{"bike_id":"ef10bdc0-e469-4b09-8674-0436d74c5c8e","system_id":"levelo_inurba_marseille","lat":43.291,"lon":5.38148,"is_reserved":false,"is_disabled":false,"rental_uris":{"android":"levelo://app?vid=ef10bdc0-e469-4b09-8674-0436d74c5c8e","ios":"levelo://app?vid=ef10bdc0-e469-4b09-8674-0436d74c5c8e"},"vehicle_type_id":"4","last_reported":1730056079,"current_range_meters":38800,"station_id":"ce4bh512rcd13ifvqe2g","pricing_plan_id":"cebpf4jnsgd1na2vs0mg"},{"bike_id":"37e1f818-39bd-426d-996c-7e8dc6637cba","system_id":"levelo_inurba_marseille","lat":43.29535,"lon":5.38538,"is_reserved":false,"is_disabled":false,"rental_uris":{"android":"levelo://app?vid=37e1f818-39bd-426d-996c-7e8dc6637cba","ios":"levelo://app?vid=37e1f818-39bd-426d-996c-7e8dc6637cba"},"vehicle_type_id":"4","last_reported":1730056079,"current_range_meters":33200,"station_id":"ce4bgih2rcd13ifvqba0","pricing_plan_id":"cebpf4jnsgd1na2vs0mg"},{"bike_id":"cdf90ca8-aa86-4fd0-8ff0-c92905f04ba9","system_id":"levelo_inurba_marseille","lat":43.30929,"lon":5.40149,"is_reserved":false,"is_disabled":false,"rental_uris":{"android":"levelo://app?vid=cdf90ca8-aa86-4fd0-8ff0-c92905f04ba9","ios":"levelo://app?vid=cdf90ca8-aa86-4fd0-8ff0-c92905f04ba9"},"vehicle_type_id":"4","last_reported":1730056079,"current_range_meters":39200,"station_id":"ce4bgvp2rcd13ifvqct0","pricing_plan_id":"cebpf4jnsgd1na2vs0mg"},{"bike_id":"d464c49d-bc40-4fe1-bdbe-eb5c2433c7e8","system_id":"levelo_inurba_marseille","lat":43.2732,"lon":5.39081,"is_reserved":false,"is_disabled":false,"rental_uris":{"android":"levelo://app?vid=d464c49d-bc40-4fe1-bdbe-eb5c2433c7e8","ios":"levelo://app?vid=d464c49d-bc40-4fe1-bdbe-eb5c2433c7e8"},"vehicle_type_id":"4","last_reported":1730056079,"current_range_meters":39200,"station_id":"ce4bhgp2rcd13ifvqfe0","pricing_plan_id":"cebpf4jnsgd1na2vs0mg"},{"bike_id":"42ec80de-3fc2-4c52-b3dd-9aac5241df87","system_id":"levelo_inurba_marseille","lat":43.30899,"lon":5.371989,"is_reserved":false,"is_disabled":false,"rental_uris":{"android":"levelo://app?vid=42ec80de-3fc2-4c52-b3dd-9aac5241df87","ios":"levelo://app?vid=42ec80de-3fc2-4c52-b3dd-9aac5241df87"},"vehicle_type_id":"4","last_reported":1730056079,"current_range_meters":38800,"station_id":"ce4bgk12rcd13ifvqbj0","pricing_plan_id":"cebpf4jnsgd1na2vs0mg"},{"bike_id":"bdc81e4a-90db-4d88-9699-203dbfef39db","system_id":"levelo_inurba_marseille","lat":43.2931,"lon":5.37167,"is_reserved":false,"is_disabled":false,"rental_uris":{"android":"levelo://app?vid=bdc81e4a-90db-4d88-9699-203dbfef39db","ios":"levelo://app?vid=bdc81e4a-90db-4d88-9699-203dbfef39db"},"vehicle_type_id":"4","last_reported":1730056079,"current_range_meters":9200,"station_id":"ce4bgh92rcd13ifvqb40","pricing_plan_id":"cebpf4jnsgd1na2vs0mg"},{"bike_id":"4466dbe3-5dc9-4652-9e98-6b52867d955e","system_id":"levelo_inurba_marseille","lat":43.3019,"lon":5.36611,"is_reserved":false,"is_disabled":false,"rental_uris":{"android":"levelo://app?vid=4466dbe3-5dc9-4652-9e98-6b52867d955e","ios":"levelo://app?vid=4466dbe3-5dc9-4652-9e98-6b52867d955e"},"vehicle_type_id":"4","last_reported":1730056079,"current_range_meters":8400,"station_id":"ce4bgrh2rcd13ifvqc8g","pricing_plan_id":"cebpf4jnsgd1na2vs0mg"},{"bike_id":"4833b096-466e-4efb-878f-8f36ec440a2c","system_id":"levelo_inurba_marseille","lat":43.30146,"lon":5.3808,"is_reserved":false,"is_disabled":false,"rental_uris":{"android":"levelo://app?vid=4833b096-466e-4efb-878f-8f36ec440a2c","ios":"levelo://app?vid=4833b096-466e-4efb-878f-8f36ec440a2c"},"vehicle_type_id":"4","last_reported":1730056079,"current_range_meters":5600,"station_id":"ce4bgjp2rcd13ifvqbh0","pricing_plan_id":"cebpf4jnsgd1na2vs0mg"},{"bike_id":"aff15b89-3d55-4512-ac59-79b8390e5060","system_id":"levelo_inurba_marseille","lat":43.26945,"lon":5.40249,"is_reserved":false,"is_disabled":false,"rental_uris":{"android":"levelo://app?vid=aff15b89-3d55-4512-ac59-79b8390e5060","ios":"levelo://app?vid=aff15b89-3d55-4512-ac59-79b8390e5060"},"vehicle_type_id":"4","last_reported":1730056079,"current_range_meters":25600,"station_id":"cjm6bp8fraef2m0cb0m0","pricing_plan_id":"cebpf4jnsgd1na2vs0mg"},{"bike_id":"46ca8589-74b9-4f49-9cb7-095e9fa98b31","system_id":"levelo_inurba_marseille","lat":43.29248,"lon":5.3842,"is_reserved":false,"is_disabled":false,"rental_uris":{"android":"levelo://app?vid=46ca8589-74b9-4f49-9cb7-095e9fa98b31","ios":"levelo://app?vid=46ca8589-74b9-4f49-9cb7-095e9fa98b31"},"vehicle_type_id":"4","last_reported":1730056079,"current_range_meters":38800,"station_id":"ce4bh692rcd13ifvqea0","pricing_plan_id":"cebpf4jnsgd1na2vs0mg"},{"bike_id":"d8f8d62c-901d-484e-b1ed-6e9f86fc3aaa","system_id":"levelo_inurba_marseille","lat":43.26948,"lon":5.40243,"is_reserved":false,"is_disabled":false,"rental_uris":{"android":"levelo://app?vid=d8f8d62c-901d-484e-b1ed-6e9f86fc3aaa","ios":"levelo://app?vid=d8f8d62c-901d-484e-b1ed-6e9f86fc3aaa"},"vehicle_type_id":"4","last_reported":1730056079,"current_range_meters":15200,"station_id":"cjm6bp8fraef2m0cb0m0","pricing_plan_id":"cebpf4jnsgd1na2vs0mg"},{"bike_id":"eaf3a236-172a-47c8-9157-742cb4314a8d","system_id":"levelo_inurba_marseille","lat":43.29852,"lon":5.36291,"is_reserved":false,"is_disabled":false,"rental_uris":{"android":"levelo://app?vid=eaf3a236-172a-47c8-9157-742cb4314a8d","ios":"levelo://app?vid=eaf3a236-172a-47c8-9157-742cb4314a8d"},"vehicle_type_id":"4","last_reported":1730056079,"current_range_meters":38800,"station_id":"ce4bgpp2rcd13ifvqc3g","pricing_plan_id":"cebpf4jnsgd1na2vs0mg"},{"bike_id":"0bea5ef3-b7c5-41d1-8066-b7eb876b3d2e","system_id":"levelo_inurba_marseille","lat":43.29259,"lon":5.38442,"is_reserved":false,"is_disabled":false,"rental_uris":{"android":"levelo://app?vid=0bea5ef3-b7c5-41d1-8066-b7eb876b3d2e","ios":"levelo://app?vid=0bea5ef3-b7c5-41d1-8066-b7eb876b3d2e"},"vehicle_type_id":"4","last_reported":1730056079,"current_range_meters":38800,"station_id":"ce4bh692rcd13ifvqea0","pricing_plan_id":"cebpf4jnsgd1na2vs0mg"},{"bike_id":"cd8988cf-34e0-4cd8-92c1-67d3cd8c964e","system_id":"levelo_inurba_marseille","lat":43.23959,"lon":5.3663,"is_reserved":false,"is_disabled":false,"rental_uris":{"android":"levelo://app?vid=cd8988cf-34e0-4cd8-92c1-67d3cd8c964e","ios":"levelo://app?vid=cd8988cf-34e0-4cd8-92c1-67d3cd8c964e"},"vehicle_type_id":"4","last_reported":1730056079,"current_range_meters":14800,"station_id":"ce4bhi12rcd13ifvqfp0","pricing_plan_id":"cebpf4jnsgd1na2vs0mg"},{"bike_id":"3990bf75-a959-4b0c-9cad-1fa0b6fbbdbb","system_id":"levelo_inurba_marseille","lat":43.31708,"lon":5.43709,"is_reserved":false,"is_disabled":false,"rental_uris":{"android":"levelo://app?vid=3990bf75-a959-4b0c-9cad-1fa0b6fbbdbb","ios":"levelo://app?vid=3990bf75-a959-4b0c-9cad-1fa0b6fbbdbb"},"vehicle_type_id":"4","last_reported":1730056079,"current_range_meters":11600,"station_id":"ce4bhp92rcd13ifvqhcg","pricing_plan_id":"cebpf4jnsgd1na2vs0mg"},{"bike_id":"c028569c-fdbc-4b8a-ae28-058050895a43","system_id":"levelo_inurba_marseille","lat":43.26499,"lon":5.39538,"is_reserved":false,"is_disabled":false,"rental_uris":{"android":"levelo://app?vid=c028569c-fdbc-4b8a-ae28-058050895a43","ios":"levelo://app?vid=c028569c-fdbc-4b8a-ae28-058050895a43"},"vehicle_type_id":"4","last_reported":1730056079,"current_range_meters":32000,"station_id":"","pricing_plan_id":"cebpf4jnsgd1na2vs0mg"},{"bike_id":"20eadee6-767e-431a-9de8-698bab49338e","system_id":"levelo_inurba_marseille","lat":43.295783,"lon":5.367398,"is_reserved":false,"is_disabled":false,"rental_uris":{"android":"levelo://app?vid=20eadee6-767e-431a-9de8-698bab49338e","ios":"levelo://app?vid=20eadee6-767e-431a-9de8-698bab49338e"},"vehicle_type_id":"4","last_reported":1730056079,"current_range_meters":38400,"station_id":"ce4bgph2rcd13ifvqc2g","pricing_plan_id":"cebpf4jnsgd1na2vs0mg"},{"bike_id":"2588a2dd-1e5c-4f46-b699-5d9860ea718f","system_id":"levelo_inurba_marseille","lat":43.33021,"lon":5.39049,"is_reserved":false,"is_disabled":false,"rental_uris":{"android":"levelo://app?vid=2588a2dd-1e5c-4f46-b699-5d9860ea718f","ios":"levelo://app?vid=2588a2dd-1e5c-4f46-b699-5d9860ea718f"},"vehicle_type_id":"4","last_reported":1730056079,"current_range_meters":28400,"station_id":"ce4bhr92rcd13ifvqhrg","pricing_plan_id":"cebpf4jnsgd1na2vs0mg"},{"bike_id":"e41f0bc2-7080-4968-92f9-35f729fa9be4","system_id":"levelo_inurba_marseille","lat":43.23158,"lon":5.43703,"is_reserved":false,"is_disabled":false,"rental_uris":{"android":"levelo://app?vid=e41f0bc2-7080-4968-92f9-35f729fa9be4","ios":"levelo://app?vid=e41f0bc2-7080-4968-92f9-35f729fa9be4"},"vehicle_type_id":"4","last_reported":1730056079,"current_range_meters":2000,"station_id":"ce4bhmp2rcd13ifvqgog","pricing_plan_id":"cebpf4jnsgd1na2vs0mg"},{"bike_id":"3f8f3d50-15b0-44c3-a152-e86f7b67aaa2","system_id":"levelo_inurba_marseille","lat":43.29795,"lon":5.39122,"is_reserved":false,"is_disabled":false,"rental_uris":{"android":"levelo://app?vid=3f8f3d50-15b0-44c3-a152-e86f7b67aaa2","ios":"levelo://app?vid=3f8f3d50-15b0-44c3-a152-e86f7b67aaa2"},"vehicle_type_id":"4","last_reported":1730056079,"current_range_meters":28000,"station_id":"","pricing_plan_id":"cebpf4jnsgd1na2vs0mg"},{"bike_id":"4fb0acb4-ca5f-4c77-b161-7454632dabad","system_id":"levelo_inurba_marseille","lat":43.27428,"lon":5.39408,"is_reserved":false,"is_disabled":false,"rental_uris":{"android":"levelo://app?vid=4fb0acb4-ca5f-4c77-b161-7454632dabad","ios":"levelo://app?vid=4fb0acb4-ca5f-4c77-b161-7454632dabad"},"vehicle_type_id":"4","last_reported":1730056079,"current_range_meters":32400,"station_id":"ce4bhdp2rcd13ifvqf20","pricing_plan_id":"cebpf4jnsgd1na2vs0mg"},{"bike_id":"1fafbe93-2ba4-4077-bfcf-7b3992b30a25","system_id":"levelo_inurba_marseille","lat":43.29552,"lon":5.42283,"is_reserved":false,"is_disabled":false,"rental_uris":{"android":"levelo://app?vid=1fafbe93-2ba4-4077-bfcf-7b3992b30a25","ios":"levelo://app?vid=1fafbe93-2ba4-4077-bfcf-7b3992b30a25"},"vehicle_type_id":"4","last_reported":1730056079,"current_range_meters":39200,"station_id":"ce4bhph2rcd13ifvqhdg","pricing_plan_id":"cebpf4jnsgd1na2vs0mg"},{"bike_id":"0727f7fa-8959-4af5-8998-b27de5da9a6d","system_id":"levelo_inurba_marseille","lat":43.31366,"lon":5.385,"is_reserved":false,"is_disabled":false,"rental_uris":{"android":"levelo://app?vid=0727f7fa-8959-4af5-8998-b27de5da9a6d","ios":"levelo://app?vid=0727f7fa-8959-4af5-8998-b27de5da9a6d"},"vehicle_type_id":"4","last_reported":1730056079,"current_range_meters":36000,"station_id":"ce4bgt92rcd13ifvqcf0","pricing_plan_id":"cebpf4jnsgd1na2vs0mg"},{"bike_id":"07135ccb-2074-45b8-8b1c-f1cd072c4d27","system_id":"levelo_inurba_marseille","lat":43.2742,"lon":5.39414,"is_reserved":false,"is_disabled":false,"rental_uris":{"android":"levelo://app?vid=07135ccb-2074-45b8-8b1c-f1cd072c4d27","ios":"levelo://app?vid=07135ccb-2074-45b8-8b1c-f1cd072c4d27"},"vehicle_type_id":"4","last_reported":1730056079,"current_range_meters":19600,"station_id":"ce4bhdp2rcd13ifvqf20","pricing_plan_id":"cebpf4jnsgd1na2vs0mg"},{"bike_id":"307876e2-16a4-45cf-922c-cb6202dec795","system_id":"levelo_inurba_marseille","lat":43.28073,"lon":5.39657,"is_reserved":false,"is_disabled":false,"rental_uris":{"android":"levelo://app?vid=307876e2-16a4-45cf-922c-cb6202dec795","ios":"levelo://app?vid=307876e2-16a4-45cf-922c-cb6202dec795"},"vehicle_type_id":"4","last_reported":1730056079,"current_range_meters":22000,"station_id":"ce4bho12rcd13ifvqh2g","pricing_plan_id":"cebpf4jnsgd1na2vs0mg"},{"bike_id":"70eebdf1-e0b4-467b-8031-398302338b87","system_id":"levelo_inurba_marseille","lat":43.30028,"lon":5.38545,"is_reserved":false,"is_disabled":false,"rental_uris":{"android":"levelo://app?vid=70eebdf1-e0b4-467b-8031-398302338b87","ios":"levelo://app?vid=70eebdf1-e0b4-467b-8031-398302338b87"},"vehicle_type_id":"4","last_reported":1730056079,"current_range_meters":26800,"station_id":"","pricing_plan_id":"cebpf4jnsgd1na2vs0mg"},{"bike_id":"9d0e8b25-5412-42fa-93da-f9140abef710","system_id":"levelo_inurba_marseille","lat":43.29423,"lon":5.38631,"is_reserved":false,"is_disabled":false,"rental_uris":{"android":"levelo://app?vid=9d0e8b25-5412-42fa-93da-f9140abef710","ios":"levelo://app?vid=9d0e8b25-5412-42fa-93da-f9140abef710"},"vehicle_type_id":"4","last_reported":1730056079,"current_range_meters":38800,"station_id":"ce4bh2h2rcd13ifvqdh0","pricing_plan_id":"cebpf4jnsgd1na2vs0mg"},{"bike_id":"e113f747-4daa-44f7-a218-9e030daa2565","system_id":"levelo_inurba_marseille","lat":43.32105,"lon":5.36773,"is_reserved":false,"is_disabled":false,"rental_uris":{"android":"levelo://app?vid=e113f747-4daa-44f7-a218-9e030daa2565","ios":"levelo://app?vid=e113f747-4daa-44f7-a218-9e030daa2565"},"vehicle_type_id":"4","last_reported":1730056079,"current_range_meters":25200,"station_id":"ce4bhrh2rcd13ifvqhug","pricing_plan_id":"cebpf4jnsgd1na2vs0mg"},{"bike_id":"c83bf92a-895e-4031-90cc-0a4806604b3f","system_id":"levelo_inurba_marseille","lat":43.23053,"lon":5.35497,"is_reserved":false,"is_disabled":false,"rental_uris":{"android":"levelo://app?vid=c83bf92a-895e-4031-90cc-0a4806604b3f","ios":"levelo://app?vid=c83bf92a-895e-4031-90cc-0a4806604b3f"},"vehicle_type_id":"4","last_reported":1730056079,"current_range_meters":38800,"station_id":"cpo3342slgdg3j2ifvpg","pricing_plan_id":"cebpf4jnsgd1na2vs0mg"},{"bike_id":"c408e084-91a2-46db-81f8-5c1932a90771","system_id":"levelo_inurba_marseille","lat":43.27943,"lon":5.41045,"is_reserved":false,"is_disabled":false,"rental_uris":{"android":"levelo://app?vid=c408e084-91a2-46db-81f8-5c1932a90771","ios":"levelo://app?vid=c408e084-91a2-46db-81f8-5c1932a90771"},"vehicle_type_id":"4","last_reported":1730056079,"current_range_meters":26000,"station_id":"ce4bhnp2rcd13ifvqh0g","pricing_plan_id":"cebpf4jnsgd1na2vs0mg"},{"bike_id":"9fd56fad-5f3d-42b4-b491-7b57b76bc0cf","system_id":"levelo_inurba_marseille","lat":43.27814,"lon":5.40719,"is_reserved":false,"is_disabled":false,"rental_uris":{"android":"levelo://app?vid=9fd56fad-5f3d-42b4-b491-7b57b76bc0cf","ios":"levelo://app?vid=9fd56fad-5f3d-42b4-b491-7b57b76bc0cf"},"vehicle_type_id":"4","last_reported":1730056079,"current_range_meters":22000,"station_id":"ce4bhnh2rcd13ifvqgtg","pricing_plan_id":"cebpf4jnsgd1na2vs0mg"},{"bike_id":"67239e3e-59b1-45ae-ba43-a51f048c9c05","system_id":"levelo_inurba_marseille","lat":43.29196,"lon":5.39325,"is_reserved":false,"is_disabled":false,"rental_uris":{"android":"levelo://app?vid=67239e3e-59b1-45ae-ba43-a51f048c9c05","ios":"levelo://app?vid=67239e3e-59b1-45ae-ba43-a51f048c9c05"},"vehicle_type_id":"4","last_reported":1730056079,"current_range_meters":14800,"station_id":"ce4bh192rcd13ifvqdd0","pricing_plan_id":"cebpf4jnsgd1na2vs0mg"},{"bike_id":"11527d50-3abe-413d-8315-f503a8d2e9f6","system_id":"levelo_inurba_marseille","lat":43.3176,"lon":5.39012,"is_reserved":false,"is_disabled":false,"rental_uris":{"android":"levelo://app?vid=11527d50-3abe-413d-8315-f503a8d2e9f6","ios":"levelo://app?vid=11527d50-3abe-413d-8315-f503a8d2e9f6"},"vehicle_type_id":"4","last_reported":1730056079,"current_range_meters":18800,"station_id":"ce4bhqp2rcd13ifvqhng","pricing_plan_id":"cebpf4jnsgd1na2vs0mg"},{"bike_id":"b502ad4f-4825-42a7-9380-4b1fe6eb7c94","system_id":"levelo_inurba_marseille","lat":43.29956,"lon":5.41323,"is_reserved":false,"is_disabled":false,"rental_uris":{"android":"levelo://app?vid=b502ad4f-4825-42a7-9380-4b1fe6eb7c94","ios":"levelo://app?vid=b502ad4f-4825-42a7-9380-4b1fe6eb7c94"},"vehicle_type_id":"4","last_reported":1730056079,"current_range_meters":37600,"station_id":"ce4bhp12rcd13ifvqh9g","pricing_plan_id":"cebpf4jnsgd1na2vs0mg"},{"bike_id":"8915ea8a-535c-40ab-b1cc-423818978796","system_id":"levelo_inurba_marseille","lat":43.27435,"lon":5.3941,"is_reserved":false,"is_disabled":false,"rental_uris":{"android":"levelo://app?vid=8915ea8a-535c-40ab-b1cc-423818978796","ios":"levelo://app?vid=8915ea8a-535c-40ab-b1cc-423818978796"},"vehicle_type_id":"4","last_reported":1730056079,"current_range_meters":11200,"station_id":"ce4bhdp2rcd13ifvqf20","pricing_plan_id":"cebpf4jnsgd1na2vs0mg"},{"bike_id":"1d0d92b7-f6c1-4ccd-8c1f-6182976eb675","system_id":"levelo_inurba_marseille","lat":43.26209,"lon":5.37928,"is_reserved":false,"is_disabled":false,"rental_uris":{"android":"levelo://app?vid=1d0d92b7-f6c1-4ccd-8c1f-6182976eb675","ios":"levelo://app?vid=1d0d92b7-f6c1-4ccd-8c1f-6182976eb675"},"vehicle_type_id":"4","last_reported":1730056079,"current_range_meters":37600,"station_id":"ce4bhjp2rcd13ifvqg90","pricing_plan_id":"cebpf4jnsgd1na2vs0mg"},{"bike_id":"e4f06062-2428-42a7-825b-e08a917cee87","system_id":"levelo_inurba_marseille","lat":43.2826,"lon":5.35071,"is_reserved":false,"is_disabled":false,"rental_uris":{"android":"levelo://app?vid=e4f06062-2428-42a7-825b-e08a917cee87","ios":"levelo://app?vid=e4f06062-2428-42a7-825b-e08a917cee87"},"vehicle_type_id":"4","last_reported":1730056079,"current_range_meters":29600,"station_id":"ce4bhbp2rcd13ifvqerg","pricing_plan_id":"cebpf4jnsgd1na2vs0mg"},{"bike_id":"297a83be-6a51-4878-b809-ca523c4517a7","system_id":"levelo_inurba_marseille","lat":43.24388,"lon":5.37054,"is_reserved":false,"is_disabled":false,"rental_uris":{"android":"levelo://app?vid=297a83be-6a51-4878-b809-ca523c4517a7","ios":"levelo://app?vid=297a83be-6a51-4878-b809-ca523c4517a7"},"vehicle_type_id":"4","last_reported":1730056079,"current_range_meters":33600,"station_id":"ce4bhhh2rcd13ifvqfk0","pricing_plan_id":"cebpf4jnsgd1na2vs0mg"},{"bike_id":"0529f3c7-f8cd-46e2-b424-4c806f6294ac","system_id":"levelo_inurba_marseille","lat":43.27995,"lon":5.40014,"is_reserved":false,"is_disabled":false,"rental_uris":{"android":"levelo://app?vid=0529f3c7-f8cd-46e2-b424-4c806f6294ac","ios":"levelo://app?vid=0529f3c7-f8cd-46e2-b424-4c806f6294ac"},"vehicle_type_id":"4","last_reported":1730056079,"current_range_meters":20000,"station_id":"ce4bho92rcd13ifvqh4g","pricing_plan_id":"cebpf4jnsgd1na2vs0mg"},{"bike_id":"b8199a3a-a79b-449e-9a5f-c4f97c829179","system_id":"levelo_inurba_marseille","lat":43.29265,"lon":5.38436,"is_reserved":false,"is_disabled":false,"rental_uris":{"android":"levelo://app?vid=b8199a3a-a79b-449e-9a5f-c4f97c829179","ios":"levelo://app?vid=b8199a3a-a79b-449e-9a5f-c4f97c829179"},"vehicle_type_id":"4","last_reported":1730056079,"current_range_meters":28000,"station_id":"ce4bh692rcd13ifvqea0","pricing_plan_id":"cebpf4jnsgd1na2vs0mg"},{"bike_id":"04bea5fa-6c54-46bc-b7fd-75068383b614","system_id":"levelo_inurba_marseille","lat":43.27437,"lon":5.39406,"is_reserved":false,"is_disabled":false,"rental_uris":{"android":"levelo://app?vid=04bea5fa-6c54-46bc-b7fd-75068383b614","ios":"levelo://app?vid=04bea5fa-6c54-46bc-b7fd-75068383b614"},"vehicle_type_id":"4","last_reported":1730056079,"current_range_meters":30000,"station_id":"ce4bhdp2rcd13ifvqf20","pricing_plan_id":"cebpf4jnsgd1na2vs0mg"},{"bike_id":"2a708606-67d7-4c35-8956-289aea2e97f3","system_id":"levelo_inurba_marseille","lat":43.30921,"lon":5.40135,"is_reserved":false,"is_disabled":false,"rental_uris":{"android":"levelo://app?vid=2a708606-67d7-4c35-8956-289aea2e97f3","ios":"levelo://app?vid=2a708606-67d7-4c35-8956-289aea2e97f3"},"vehicle_type_id":"4","last_reported":1730056079,"current_range_meters":8800,"station_id":"ce4bgvp2rcd13ifvqct0","pricing_plan_id":"cebpf4jnsgd1na2vs0mg"},{"bike_id":"ba7ff12b-4fb3-47ea-b304-85ab8fca1364","system_id":"levelo_inurba_marseille","lat":43.32289,"lon":5.38271,"is_reserved":false,"is_disabled":false,"rental_uris":{"android":"levelo://app?vid=ba7ff12b-4fb3-47ea-b304-85ab8fca1364","ios":"levelo://app?vid=ba7ff12b-4fb3-47ea-b304-85ab8fca1364"},"vehicle_type_id":"4","last_reported":1730056079,"current_range_meters":38000,"station_id":"ce4bhr12rcd13ifvqhqg","pricing_plan_id":"cebpf4jnsgd1na2vs0mg"},{"bike_id":"27ed3973-0386-4c7d-8e8d-3d88f850ce4a","system_id":"levelo_inurba_marseille","lat":43.28718,"lon":5.36096,"is_reserved":false,"is_disabled":false,"rental_uris":{"android":"levelo://app?vid=27ed3973-0386-4c7d-8e8d-3d88f850ce4a","ios":"levelo://app?vid=27ed3973-0386-4c7d-8e8d-3d88f850ce4a"},"vehicle_type_id":"4","last_reported":1730056079,"current_range_meters":6800,"station_id":"cki0cbj6b192h4jlfktg","pricing_plan_id":"cebpf4jnsgd1na2vs0mg"},{"bike_id":"95ccd292-e54f-4a73-9cbf-851edae955db","system_id":"levelo_inurba_marseille","lat":43.29296,"lon":5.37169,"is_reserved":false,"is_disabled":false,"rental_uris":{"android":"levelo://app?vid=95ccd292-e54f-4a73-9cbf-851edae955db","ios":"levelo://app?vid=95ccd292-e54f-4a73-9cbf-851edae955db"},"vehicle_type_id":"4","last_reported":1730056079,"current_range_meters":28400,"station_id":"ce4bgh92rcd13ifvqb40","pricing_plan_id":"cebpf4jnsgd1na2vs0mg"},{"bike_id":"2ef23ac5-0b5a-4637-bc6a-ed520d32cf55","system_id":"levelo_inurba_marseille","lat":43.25581,"lon":5.3823,"is_reserved":false,"is_disabled":false,"rental_uris":{"android":"levelo://app?vid=2ef23ac5-0b5a-4637-bc6a-ed520d32cf55","ios":"levelo://app?vid=2ef23ac5-0b5a-4637-bc6a-ed520d32cf55"},"vehicle_type_id":"4","last_reported":1730056079,"current_range_meters":21600,"station_id":"ce4bhih2rcd13ifvqfs0","pricing_plan_id":"cebpf4jnsgd1na2vs0mg"},{"bike_id":"69c1b06c-db93-45de-8fde-834afd9ce5ef","system_id":"levelo_inurba_marseille","lat":43.28474,"lon":5.38418,"is_reserved":false,"is_disabled":false,"rental_uris":{"android":"levelo://app?vid=69c1b06c-db93-45de-8fde-834afd9ce5ef","ios":"levelo://app?vid=69c1b06c-db93-45de-8fde-834afd9ce5ef"},"vehicle_type_id":"4","last_reported":1730056079,"current_range_meters":29600,"station_id":"ce4bh512rcd13ifvqe3g","pricing_plan_id":"cebpf4jnsgd1na2vs0mg"},{"bike_id":"f7a50275-88a4-4be4-ac33-5cce1242cfaa","system_id":"levelo_inurba_marseille","lat":43.31714,"lon":5.37753,"is_reserved":false,"is_disabled":false,"rental_uris":{"android":"levelo://app?vid=f7a50275-88a4-4be4-ac33-5cce1242cfaa","ios":"levelo://app?vid=f7a50275-88a4-4be4-ac33-5cce1242cfaa"},"vehicle_type_id":"4","last_reported":1730056079,"current_range_meters":32400,"station_id":"ce4bgth2rcd13ifvqch0","pricing_plan_id":"cebpf4jnsgd1na2vs0mg"},{"bike_id":"4c5fc7e2-6b21-495f-b37c-d418b80f3549","system_id":"levelo_inurba_marseille","lat":43.2942,"lon":5.38625,"is_reserved":false,"is_disabled":false,"rental_uris":{"android":"levelo://app?vid=4c5fc7e2-6b21-495f-b37c-d418b80f3549","ios":"levelo://app?vid=4c5fc7e2-6b21-495f-b37c-d418b80f3549"},"vehicle_type_id":"4","last_reported":1730056079,"current_range_meters":6800,"station_id":"ce4bh2h2rcd13ifvqdh0","pricing_plan_id":"cebpf4jnsgd1na2vs0mg"},{"bike_id":"59e82a4e-1841-4082-84ae-50a5176e85f8","system_id":"levelo_inurba_marseille","lat":43.296785,"lon":5.372851,"is_reserved":false,"is_disabled":false,"rental_uris":{"android":"levelo://app?vid=59e82a4e-1841-4082-84ae-50a5176e85f8","ios":"levelo://app?vid=59e82a4e-1841-4082-84ae-50a5176e85f8"},"vehicle_type_id":"4","last_reported":1730056079,"current_range_meters":38800,"station_id":"ce4bgk12rcd13ifvqbj0","pricing_plan_id":"cebpf4jnsgd1na2vs0mg"},{"bike_id":"186eb52f-399d-4f46-9854-51f3abac7c2c","system_id":"levelo_inurba_marseille","lat":43.30417,"lon":5.39754,"is_reserved":false,"is_disabled":false,"rental_uris":{"android":"levelo://app?vid=186eb52f-399d-4f46-9854-51f3abac7c2c","ios":"levelo://app?vid=186eb52f-399d-4f46-9854-51f3abac7c2c"},"vehicle_type_id":"4","last_reported":1730056079,"current_range_meters":26000,"station_id":"ce4bh092rcd13ifvqd20","pricing_plan_id":"cebpf4jnsgd1na2vs0mg"},{"bike_id":"5fa704f7-8bc8-43df-9b67-deb7fe6cc63d","system_id":"levelo_inurba_marseille","lat":43.250344,"lon":5.39624,"is_reserved":false,"is_disabled":false,"rental_uris":{"android":"levelo://app?vid=5fa704f7-8bc8-43df-9b67-deb7fe6cc63d","ios":"levelo://app?vid=5fa704f7-8bc8-43df-9b67-deb7fe6cc63d"},"vehicle_type_id":"4","last_reported":1730056079,"current_range_meters":33200,"station_id":"ce4bhm12rcd13ifvqgkg","pricing_plan_id":"cebpf4jnsgd1na2vs0mg"},{"bike_id":"2af0357b-0b54-4de4-84ca-424bad4ad85a","system_id":"levelo_inurba_marseille","lat":43.29259,"lon":5.38446,"is_reserved":false,"is_disabled":false,"rental_uris":{"android":"levelo://app?vid=2af0357b-0b54-4de4-84ca-424bad4ad85a","ios":"levelo://app?vid=2af0357b-0b54-4de4-84ca-424bad4ad85a"},"vehicle_type_id":"4","last_reported":1730056079,"current_range_meters":38800,"station_id":"ce4bh692rcd13ifvqea0","pricing_plan_id":"cebpf4jnsgd1na2vs0mg"},{"bike_id":"4cf016cf-222a-4af0-b71c-5001d7c7e17d","system_id":"levelo_inurba_marseille","lat":43.25094,"lon":5.39524,"is_reserved":false,"is_disabled":false,"rental_uris":{"android":"levelo://app?vid=4cf016cf-222a-4af0-b71c-5001d7c7e17d","ios":"levelo://app?vid=4cf016cf-222a-4af0-b71c-5001d7c7e17d"},"vehicle_type_id":"4","last_reported":1730056079,"current_range_meters":36000,"station_id":"ce4bhm12rcd13ifvqgkg","pricing_plan_id":"cebpf4jnsgd1na2vs0mg"},{"bike_id":"71885e99-dff7-4155-8dd7-9e0e8a76a9c6","system_id":"levelo_inurba_marseille","lat":43.26552,"lon":5.37283,"is_reserved":false,"is_disabled":false,"rental_uris":{"android":"levelo://app?vid=71885e99-dff7-4155-8dd7-9e0e8a76a9c6","ios":"levelo://app?vid=71885e99-dff7-4155-8dd7-9e0e8a76a9c6"},"vehicle_type_id":"4","last_reported":1730056079,"current_range_meters":25200,"station_id":"ce4bhg12rcd13ifvqf70","pricing_plan_id":"cebpf4jnsgd1na2vs0mg"},{"bike_id":"b7593b9f-bec6-480e-834f-c0321bab379e","system_id":"levelo_inurba_marseille","lat":43.27313,"lon":5.39092,"is_reserved":false,"is_disabled":false,"rental_uris":{"android":"levelo://app?vid=b7593b9f-bec6-480e-834f-c0321bab379e","ios":"levelo://app?vid=b7593b9f-bec6-480e-834f-c0321bab379e"},"vehicle_type_id":"4","last_reported":1730056079,"current_range_meters":21600,"station_id":"ce4bhgp2rcd13ifvqfe0","pricing_plan_id":"cebpf4jnsgd1na2vs0mg"},{"bike_id":"58f2b4e8-066e-4eed-833f-85335dd1b928","system_id":"levelo_inurba_marseille","lat":43.27951,"lon":5.41042,"is_reserved":false,"is_disabled":false,"rental_uris":{"android":"levelo://app?vid=58f2b4e8-066e-4eed-833f-85335dd1b928","ios":"levelo://app?vid=58f2b4e8-066e-4eed-833f-85335dd1b928"},"vehicle_type_id":"4","last_reported":1730056079,"current_range_meters":28000,"station_id":"ce4bhnp2rcd13ifvqh0g","pricing_plan_id":"cebpf4jnsgd1na2vs0mg"},{"bike_id":"8d1224ea-8c67-414f-8e8e-8dff85dd0343","system_id":"levelo_inurba_marseille","lat":43.25002,"lon":5.38925,"is_reserved":false,"is_disabled":false,"rental_uris":{"android":"levelo://app?vid=8d1224ea-8c67-414f-8e8e-8dff85dd0343","ios":"levelo://app?vid=8d1224ea-8c67-414f-8e8e-8dff85dd0343"},"vehicle_type_id":"4","last_reported":1730056079,"current_range_meters":36000,"station_id":"ce4bhgp2rcd13ifvqfd0","pricing_plan_id":"cebpf4jnsgd1na2vs0mg"},{"bike_id":"9befed88-9f8c-464c-b07b-093bd97066bb","system_id":"levelo_inurba_marseille","lat":43.29805,"lon":5.37136,"is_reserved":false,"is_disabled":false,"rental_uris":{"android":"levelo://app?vid=9befed88-9f8c-464c-b07b-093bd97066bb","ios":"levelo://app?vid=9befed88-9f8c-464c-b07b-093bd97066bb"},"vehicle_type_id":"4","last_reported":1730056079,"current_range_meters":18800,"station_id":"","pricing_plan_id":"cebpf4jnsgd1na2vs0mg"},{"bike_id":"f37e3b02-a49c-4c4e-b112-f9c8c24edf90","system_id":"levelo_inurba_marseille","lat":43.2319,"lon":5.35552,"is_reserved":false,"is_disabled":false,"rental_uris":{"android":"levelo://app?vid=f37e3b02-a49c-4c4e-b112-f9c8c24edf90","ios":"levelo://app?vid=f37e3b02-a49c-4c4e-b112-f9c8c24edf90"},"vehicle_type_id":"4","last_reported":1730056079,"current_range_meters":14800,"station_id":"ce4bhu92rcd13ifvqi70","pricing_plan_id":"cebpf4jnsgd1na2vs0mg"},{"bike_id":"4652e07f-6120-439c-b1de-6fdd8652dbf2","system_id":"levelo_inurba_marseille","lat":43.29269,"lon":5.38436,"is_reserved":false,"is_disabled":false,"rental_uris":{"android":"levelo://app?vid=4652e07f-6120-439c-b1de-6fdd8652dbf2","ios":"levelo://app?vid=4652e07f-6120-439c-b1de-6fdd8652dbf2"},"vehicle_type_id":"4","last_reported":1730056079,"current_range_meters":37600,"station_id":"ce4bh692rcd13ifvqea0","pricing_plan_id":"cebpf4jnsgd1na2vs0mg"},{"bike_id":"41680f9e-c6f8-43f3-aae8-d0f6fd39636e","system_id":"levelo_inurba_marseille","lat":43.28435,"lon":5.39179,"is_reserved":false,"is_disabled":false,"rental_uris":{"android":"levelo://app?vid=41680f9e-c6f8-43f3-aae8-d0f6fd39636e","ios":"levelo://app?vid=41680f9e-c6f8-43f3-aae8-d0f6fd39636e"},"vehicle_type_id":"4","last_reported":1730056079,"current_range_meters":37600,"station_id":"ce4bhoh2rcd13ifvqh5g","pricing_plan_id":"cebpf4jnsgd1na2vs0mg"},{"bike_id":"20efb863-ccf2-439c-8ea0-087c4eeca7e0","system_id":"levelo_inurba_marseille","lat":43.30304,"lon":5.39192,"is_reserved":false,"is_disabled":false,"rental_uris":{"android":"levelo://app?vid=20efb863-ccf2-439c-8ea0-087c4eeca7e0","ios":"levelo://app?vid=20efb863-ccf2-439c-8ea0-087c4eeca7e0"},"vehicle_type_id":"4","last_reported":1730056079,"current_range_meters":9600,"station_id":"ce4bgkh2rcd13ifvqbk0","pricing_plan_id":"cebpf4jnsgd1na2vs0mg"},{"bike_id":"6bdd71eb-d192-4b5e-9513-2eb1e3ef50ab","system_id":"levelo_inurba_marseille","lat":43.28415,"lon":5.37515,"is_reserved":false,"is_disabled":false,"rental_uris":{"android":"levelo://app?vid=6bdd71eb-d192-4b5e-9513-2eb1e3ef50ab","ios":"levelo://app?vid=6bdd71eb-d192-4b5e-9513-2eb1e3ef50ab"},"vehicle_type_id":"4","last_reported":1730056079,"current_range_meters":38800,"station_id":"ce4bh412rcd13ifvqds0","pricing_plan_id":"cebpf4jnsgd1na2vs0mg"},{"bike_id":"3308f169-eb05-408e-ad36-90ce2e6f8ace","system_id":"levelo_inurba_marseille","lat":43.26936,"lon":5.40258,"is_reserved":false,"is_disabled":false,"rental_uris":{"android":"levelo://app?vid=3308f169-eb05-408e-ad36-90ce2e6f8ace","ios":"levelo://app?vid=3308f169-eb05-408e-ad36-90ce2e6f8ace"},"vehicle_type_id":"4","last_reported":1730056079,"current_range_meters":8000,"station_id":"cjm6bp8fraef2m0cb0m0","pricing_plan_id":"cebpf4jnsgd1na2vs0mg"},{"bike_id":"a476afdf-a001-461f-9234-8699e3a6deb2","system_id":"levelo_inurba_marseille","lat":43.29291,"lon":5.37468,"is_reserved":false,"is_disabled":false,"rental_uris":{"android":"levelo://app?vid=a476afdf-a001-461f-9234-8699e3a6deb2","ios":"levelo://app?vid=a476afdf-a001-461f-9234-8699e3a6deb2"},"vehicle_type_id":"4","last_reported":1730056079,"current_range_meters":22000,"station_id":"ce4bgi12rcd13ifvqb70","pricing_plan_id":"cebpf4jnsgd1na2vs0mg"},{"bike_id":"19804416-aaac-4caf-b6be-6a92b17ca2e1","system_id":"levelo_inurba_marseille","lat":43.27205,"lon":5.39188,"is_reserved":false,"is_disabled":false,"rental_uris":{"android":"levelo://app?vid=19804416-aaac-4caf-b6be-6a92b17ca2e1","ios":"levelo://app?vid=19804416-aaac-4caf-b6be-6a92b17ca2e1"},"vehicle_type_id":"4","last_reported":1730056079,"current_range_meters":38800,"station_id":"ce4bhhp2rcd13ifvqfm0","pricing_plan_id":"cebpf4jnsgd1na2vs0mg"},{"bike_id":"e39645c5-87ac-4e87-90ca-e4c6f3ff67ce","system_id":"levelo_inurba_marseille","lat":43.29934,"lon":5.36542,"is_reserved":false,"is_disabled":false,"rental_uris":{"android":"levelo://app?vid=e39645c5-87ac-4e87-90ca-e4c6f3ff67ce","ios":"levelo://app?vid=e39645c5-87ac-4e87-90ca-e4c6f3ff67ce"},"vehicle_type_id":"4","last_reported":1730056079,"current_range_meters":34800,"station_id":"ce4bgm92rcd13ifvqbr0","pricing_plan_id":"cebpf4jnsgd1na2vs0mg"},{"bike_id":"76062caa-077f-43f3-99bb-d065d1b403a8","system_id":"levelo_inurba_marseille","lat":43.24805,"lon":5.37458,"is_reserved":false,"is_disabled":false,"rental_uris":{"android":"levelo://app?vid=76062caa-077f-43f3-99bb-d065d1b403a8","ios":"levelo://app?vid=76062caa-077f-43f3-99bb-d065d1b403a8"},"vehicle_type_id":"4","last_reported":1730056079,"current_range_meters":24400,"station_id":"ce4bhgh2rcd13ifvqfb0","pricing_plan_id":"cebpf4jnsgd1na2vs0mg"},{"bike_id":"4fd37928-cce1-41fc-97ac-5e1f1068c8cd","system_id":"levelo_inurba_marseille","lat":43.29415,"lon":5.38626,"is_reserved":false,"is_disabled":false,"rental_uris":{"android":"levelo://app?vid=4fd37928-cce1-41fc-97ac-5e1f1068c8cd","ios":"levelo://app?vid=4fd37928-cce1-41fc-97ac-5e1f1068c8cd"},"vehicle_type_id":"4","last_reported":1730056079,"current_range_meters":38800,"station_id":"ce4bh2h2rcd13ifvqdh0","pricing_plan_id":"cebpf4jnsgd1na2vs0mg"},{"bike_id":"6f85b73d-f401-4611-a45c-024bc4701b09","system_id":"levelo_inurba_marseille","lat":43.29025,"lon":5.38131,"is_reserved":false,"is_disabled":false,"rental_uris":{"android":"levelo://app?vid=6f85b73d-f401-4611-a45c-024bc4701b09","ios":"levelo://app?vid=6f85b73d-f401-4611-a45c-024bc4701b09"},"vehicle_type_id":"4","last_reported":1730056079,"current_range_meters":37600,"station_id":"ce4bh4p2rcd13ifvqe1g","pricing_plan_id":"cebpf4jnsgd1na2vs0mg"},{"bike_id":"65eb9f76-1be8-4bfe-a299-ac6c2f91a291","system_id":"levelo_inurba_marseille","lat":43.29256,"lon":5.38446,"is_reserved":false,"is_disabled":false,"rental_uris":{"android":"levelo://app?vid=65eb9f76-1be8-4bfe-a299-ac6c2f91a291","ios":"levelo://app?vid=65eb9f76-1be8-4bfe-a299-ac6c2f91a291"},"vehicle_type_id":"4","last_reported":1730056079,"current_range_meters":25600,"station_id":"ce4bh692rcd13ifvqea0","pricing_plan_id":"cebpf4jnsgd1na2vs0mg"},{"bike_id":"3d729504-3198-4bd2-a0c7-ff4fc02f56e0","system_id":"levelo_inurba_marseille","lat":43.317,"lon":5.37668,"is_reserved":false,"is_disabled":false,"rental_uris":{"android":"levelo://app?vid=3d729504-3198-4bd2-a0c7-ff4fc02f56e0","ios":"levelo://app?vid=3d729504-3198-4bd2-a0c7-ff4fc02f56e0"},"vehicle_type_id":"4","last_reported":1730056079,"current_range_meters":16400,"station_id":"ce4bgt12rcd13ifvqcd0","pricing_plan_id":"cebpf4jnsgd1na2vs0mg"},{"bike_id":"4b53140f-4e16-4a6c-8434-d2341cbea115","system_id":"levelo_inurba_marseille","lat":43.26789,"lon":5.39421,"is_reserved":false,"is_disabled":false,"rental_uris":{"android":"levelo://app?vid=4b53140f-4e16-4a6c-8434-d2341cbea115","ios":"levelo://app?vid=4b53140f-4e16-4a6c-8434-d2341cbea115"},"vehicle_type_id":"4","last_reported":1730056079,"current_range_meters":13600,"station_id":"ce4bhh12rcd13ifvqfg0","pricing_plan_id":"cebpf4jnsgd1na2vs0mg"},{"bike_id":"a08296db-b3f4-4d7c-b368-674ac3a21b1e","system_id":"levelo_inurba_marseille","lat":43.23061,"lon":5.35491,"is_reserved":false,"is_disabled":false,"rental_uris":{"android":"levelo://app?vid=a08296db-b3f4-4d7c-b368-674ac3a21b1e","ios":"levelo://app?vid=a08296db-b3f4-4d7c-b368-674ac3a21b1e"},"vehicle_type_id":"4","last_reported":1730056079,"current_range_meters":38800,"station_id":"cpo3342slgdg3j2ifvpg","pricing_plan_id":"cebpf4jnsgd1na2vs0mg"},{"bike_id":"94791cda-ba83-4191-91f3-201975ab409f","system_id":"levelo_inurba_marseille","lat":43.31348,"lon":5.38496,"is_reserved":false,"is_disabled":false,"rental_uris":{"android":"levelo://app?vid=94791cda-ba83-4191-91f3-201975ab409f","ios":"levelo://app?vid=94791cda-ba83-4191-91f3-201975ab409f"},"vehicle_type_id":"4","last_reported":1730056079,"current_range_meters":20400,"station_id":"ce4bgt92rcd13ifvqcf0","pricing_plan_id":"cebpf4jnsgd1na2vs0mg"},{"bike_id":"36e6ecbc-d1ca-4d59-bba3-e038c3d12808","system_id":"levelo_inurba_marseille","lat":43.26488,"lon":5.39551,"is_reserved":false,"is_disabled":false,"rental_uris":{"android":"levelo://app?vid=36e6ecbc-d1ca-4d59-bba3-e038c3d12808","ios":"levelo://app?vid=36e6ecbc-d1ca-4d59-bba3-e038c3d12808"},"vehicle_type_id":"4","last_reported":1730056079,"current_range_meters":19200,"station_id":"ce4bhi12rcd13ifvqfq0","pricing_plan_id":"cebpf4jnsgd1na2vs0mg"},{"bike_id":"477cd90a-8a9d-4f2c-8ef4-702382168c43","system_id":"levelo_inurba_marseille","lat":43.276,"lon":5.41255,"is_reserved":false,"is_disabled":false,"rental_uris":{"android":"levelo://app?vid=477cd90a-8a9d-4f2c-8ef4-702382168c43","ios":"levelo://app?vid=477cd90a-8a9d-4f2c-8ef4-702382168c43"},"vehicle_type_id":"4","last_reported":1730056079,"current_range_meters":16400,"station_id":"","pricing_plan_id":"cebpf4jnsgd1na2vs0mg"},{"bike_id":"10adca58-6056-44f6-8d2b-7ad95d7d70f8","system_id":"levelo_inurba_marseille","lat":43.27205,"lon":5.39194,"is_reserved":false,"is_disabled":false,"rental_uris":{"android":"levelo://app?vid=10adca58-6056-44f6-8d2b-7ad95d7d70f8","ios":"levelo://app?vid=10adca58-6056-44f6-8d2b-7ad95d7d70f8"},"vehicle_type_id":"4","last_reported":1730056079,"current_range_meters":36800,"station_id":"ce4bhhp2rcd13ifvqfm0","pricing_plan_id":"cebpf4jnsgd1na2vs0mg"},{"bike_id":"73b2e096-bc42-4a5b-abae-105e49dcdd27","system_id":"levelo_inurba_marseille","lat":43.29421,"lon":5.38629,"is_reserved":false,"is_disabled":false,"rental_uris":{"android":"levelo://app?vid=73b2e096-bc42-4a5b-abae-105e49dcdd27","ios":"levelo://app?vid=73b2e096-bc42-4a5b-abae-105e49dcdd27"},"vehicle_type_id":"4","last_reported":1730056079,"current_range_meters":38400,"station_id":"ce4bh2h2rcd13ifvqdh0","pricing_plan_id":"cebpf4jnsgd1na2vs0mg"},{"bike_id":"fc54002c-c5a8-498b-8033-305979afe3a2","system_id":"levelo_inurba_marseille","lat":43.26944,"lon":5.40251,"is_reserved":false,"is_disabled":false,"rental_uris":{"android":"levelo://app?vid=fc54002c-c5a8-498b-8033-305979afe3a2","ios":"levelo://app?vid=fc54002c-c5a8-498b-8033-305979afe3a2"},"vehicle_type_id":"4","last_reported":1730056079,"current_range_meters":7200,"station_id":"cjm6bp8fraef2m0cb0m0","pricing_plan_id":"cebpf4jnsgd1na2vs0mg"},{"bike_id":"1fc35002-c47a-4b5e-a48c-78ff92fcbfa8","system_id":"levelo_inurba_marseille","lat":43.30652,"lon":5.40087,"is_reserved":false,"is_disabled":false,"rental_uris":{"android":"levelo://app?vid=1fc35002-c47a-4b5e-a48c-78ff92fcbfa8","ios":"levelo://app?vid=1fc35002-c47a-4b5e-a48c-78ff92fcbfa8"},"vehicle_type_id":"4","last_reported":1730056079,"current_range_meters":35200,"station_id":"ce4bh112rcd13ifvqda0","pricing_plan_id":"cebpf4jnsgd1na2vs0mg"},{"bike_id":"c8356623-a561-4a4d-a711-29a103d5c3de","system_id":"levelo_inurba_marseille","lat":43.29711,"lon":5.37692,"is_reserved":false,"is_disabled":false,"rental_uris":{"android":"levelo://app?vid=c8356623-a561-4a4d-a711-29a103d5c3de","ios":"levelo://app?vid=c8356623-a561-4a4d-a711-29a103d5c3de"},"vehicle_type_id":"4","last_reported":1730056079,"current_range_meters":12800,"station_id":"ce4bgkh2rcd13ifvqbl0","pricing_plan_id":"cebpf4jnsgd1na2vs0mg"},{"bike_id":"9165fff1-34c0-43a9-b3a3-7c14ebdb7cbd","system_id":"levelo_inurba_marseille","lat":43.29261,"lon":5.38436,"is_reserved":false,"is_disabled":false,"rental_uris":{"android":"levelo://app?vid=9165fff1-34c0-43a9-b3a3-7c14ebdb7cbd","ios":"levelo://app?vid=9165fff1-34c0-43a9-b3a3-7c14ebdb7cbd"},"vehicle_type_id":"4","last_reported":1730056079,"current_range_meters":30800,"station_id":"ce4bh692rcd13ifvqea0","pricing_plan_id":"cebpf4jnsgd1na2vs0mg"},{"bike_id":"f47bb13c-2385-45fd-8eaa-05956597a0eb","system_id":"levelo_inurba_marseille","lat":43.25579,"lon":5.38228,"is_reserved":false,"is_disabled":false,"rental_uris":{"android":"levelo://app?vid=f47bb13c-2385-45fd-8eaa-05956597a0eb","ios":"levelo://app?vid=f47bb13c-2385-45fd-8eaa-05956597a0eb"},"vehicle_type_id":"4","last_reported":1730056079,"current_range_meters":36000,"station_id":"ce4bhih2rcd13ifvqfs0","pricing_plan_id":"cebpf4jnsgd1na2vs0mg"},{"bike_id":"76588601-f0de-444c-8708-6d6ae74a37db","system_id":"levelo_inurba_marseille","lat":43.23969,"lon":5.36637,"is_reserved":false,"is_disabled":false,"rental_uris":{"android":"levelo://app?vid=76588601-f0de-444c-8708-6d6ae74a37db","ios":"levelo://app?vid=76588601-f0de-444c-8708-6d6ae74a37db"},"vehicle_type_id":"4","last_reported":1730056079,"current_range_meters":37600,"station_id":"ce4bhi12rcd13ifvqfp0","pricing_plan_id":"cebpf4jnsgd1na2vs0mg"},{"bike_id":"7cdd88d2-5824-40fa-8faf-90ef733261c2","system_id":"levelo_inurba_marseille","lat":43.23961,"lon":5.36644,"is_reserved":false,"is_disabled":false,"rental_uris":{"android":"levelo://app?vid=7cdd88d2-5824-40fa-8faf-90ef733261c2","ios":"levelo://app?vid=7cdd88d2-5824-40fa-8faf-90ef733261c2"},"vehicle_type_id":"4","last_reported":1730056079,"current_range_meters":14800,"station_id":"ce4bhi12rcd13ifvqfp0","pricing_plan_id":"cebpf4jnsgd1na2vs0mg"},{"bike_id":"4d5d1a61-2d95-46a5-90d7-17d152732de7","system_id":"levelo_inurba_marseille","lat":43.23955,"lon":5.36633,"is_reserved":false,"is_disabled":false,"rental_uris":{"android":"levelo://app?vid=4d5d1a61-2d95-46a5-90d7-17d152732de7","ios":"levelo://app?vid=4d5d1a61-2d95-46a5-90d7-17d152732de7"},"vehicle_type_id":"4","last_reported":1730056079,"current_range_meters":6800,"station_id":"ce4bhi12rcd13ifvqfp0","pricing_plan_id":"cebpf4jnsgd1na2vs0mg"},{"bike_id":"97e9d111-5a6e-49a2-99c4-bd5b7bedd6c3","system_id":"levelo_inurba_marseille","lat":43.28099,"lon":5.37844,"is_reserved":false,"is_disabled":false,"rental_uris":{"android":"levelo://app?vid=97e9d111-5a6e-49a2-99c4-bd5b7bedd6c3","ios":"levelo://app?vid=97e9d111-5a6e-49a2-99c4-bd5b7bedd6c3"},"vehicle_type_id":"4","last_reported":1730056079,"current_range_meters":11200,"station_id":"ce4bha12rcd13ifvqee0","pricing_plan_id":"cebpf4jnsgd1na2vs0mg"},{"bike_id":"d1973073-7f1a-49cf-880f-ba1d89ababd3","system_id":"levelo_inurba_marseille","lat":43.280757,"lon":5.38583,"is_reserved":false,"is_disabled":false,"rental_uris":{"android":"levelo://app?vid=d1973073-7f1a-49cf-880f-ba1d89ababd3","ios":"levelo://app?vid=d1973073-7f1a-49cf-880f-ba1d89ababd3"},"vehicle_type_id":"4","last_reported":1730056079,"current_range_meters":14400,"station_id":"ce4bhgp2rcd13ifvqfe0","pricing_plan_id":"cebpf4jnsgd1na2vs0mg"},{"bike_id":"bd998f17-00bd-495a-b9fb-e99a3793875c","system_id":"levelo_inurba_marseille","lat":43.29417,"lon":5.3863,"is_reserved":false,"is_disabled":false,"rental_uris":{"android":"levelo://app?vid=bd998f17-00bd-495a-b9fb-e99a3793875c","ios":"levelo://app?vid=bd998f17-00bd-495a-b9fb-e99a3793875c"},"vehicle_type_id":"4","last_reported":1730056079,"current_range_meters":34800,"station_id":"ce4bh2h2rcd13ifvqdh0","pricing_plan_id":"cebpf4jnsgd1na2vs0mg"},{"bike_id":"cd68f1dc-3134-4c22-9fa5-8490da02f071","system_id":"levelo_inurba_marseille","lat":43.2315,"lon":5.43717,"is_reserved":false,"is_disabled":false,"rental_uris":{"android":"levelo://app?vid=cd68f1dc-3134-4c22-9fa5-8490da02f071","ios":"levelo://app?vid=cd68f1dc-3134-4c22-9fa5-8490da02f071"},"vehicle_type_id":"4","last_reported":1730056079,"current_range_meters":10800,"station_id":"ce4bhmp2rcd13ifvqgog","pricing_plan_id":"cebpf4jnsgd1na2vs0mg"},{"bike_id":"90326538-3425-40ee-b0fb-cf6c32f15af4","system_id":"levelo_inurba_marseille","lat":43.27307,"lon":5.39074,"is_reserved":false,"is_disabled":false,"rental_uris":{"android":"levelo://app?vid=90326538-3425-40ee-b0fb-cf6c32f15af4","ios":"levelo://app?vid=90326538-3425-40ee-b0fb-cf6c32f15af4"},"vehicle_type_id":"4","last_reported":1730056079,"current_range_meters":27600,"station_id":"ce4bhgp2rcd13ifvqfe0","pricing_plan_id":"cebpf4jnsgd1na2vs0mg"},{"bike_id":"7b6ac3c7-d281-479d-83d7-93a78d83c19a","system_id":"levelo_inurba_marseille","lat":43.29016,"lon":5.38135,"is_reserved":false,"is_disabled":false,"rental_uris":{"android":"levelo://app?vid=7b6ac3c7-d281-479d-83d7-93a78d83c19a","ios":"levelo://app?vid=7b6ac3c7-d281-479d-83d7-93a78d83c19a"},"vehicle_type_id":"4","last_reported":1730056079,"current_range_meters":34800,"station_id":"ce4bh4p2rcd13ifvqe1g","pricing_plan_id":"cebpf4jnsgd1na2vs0mg"},{"bike_id":"0b0ab204-4e48-4913-a10f-8524ff5115c5","system_id":"levelo_inurba_marseille","lat":43.26851,"lon":5.39353,"is_reserved":false,"is_disabled":false,"rental_uris":{"android":"levelo://app?vid=0b0ab204-4e48-4913-a10f-8524ff5115c5","ios":"levelo://app?vid=0b0ab204-4e48-4913-a10f-8524ff5115c5"},"vehicle_type_id":"4","last_reported":1730056079,"current_range_meters":23200,"station_id":"","pricing_plan_id":"cebpf4jnsgd1na2vs0mg"},{"bike_id":"9fdd618c-9d4c-4d0c-83e5-693c5e6c8942","system_id":"levelo_inurba_marseille","lat":43.28036,"lon":5.3694,"is_reserved":false,"is_disabled":false,"rental_uris":{"android":"levelo://app?vid=9fdd618c-9d4c-4d0c-83e5-693c5e6c8942","ios":"levelo://app?vid=9fdd618c-9d4c-4d0c-83e5-693c5e6c8942"},"vehicle_type_id":"4","last_reported":1730056079,"current_range_meters":6000,"station_id":"ce4bha12rcd13ifvqef0","pricing_plan_id":"cebpf4jnsgd1na2vs0mg"},{"bike_id":"4a9a4c82-1cff-4384-bfc5-2b50d6587cfb","system_id":"levelo_inurba_marseille","lat":43.27809,"lon":5.40717,"is_reserved":false,"is_disabled":false,"rental_uris":{"android":"levelo://app?vid=4a9a4c82-1cff-4384-bfc5-2b50d6587cfb","ios":"levelo://app?vid=4a9a4c82-1cff-4384-bfc5-2b50d6587cfb"},"vehicle_type_id":"4","last_reported":1730056079,"current_range_meters":25200,"station_id":"ce4bhnh2rcd13ifvqgtg","pricing_plan_id":"cebpf4jnsgd1na2vs0mg"},{"bike_id":"a7c6eb8e-227c-4432-958d-8969596fd179","system_id":"levelo_inurba_marseille","lat":43.25727,"lon":5.41109,"is_reserved":false,"is_disabled":false,"rental_uris":{"android":"levelo://app?vid=a7c6eb8e-227c-4432-958d-8969596fd179","ios":"levelo://app?vid=a7c6eb8e-227c-4432-958d-8969596fd179"},"vehicle_type_id":"4","last_reported":1730056079,"current_range_meters":31200,"station_id":"ce4bhkp2rcd13ifvqgd0","pricing_plan_id":"cebpf4jnsgd1na2vs0mg"},{"bike_id":"e89316dc-a19a-469f-a9cd-dc00b495757e","system_id":"levelo_inurba_marseille","lat":43.27436,"lon":5.40646,"is_reserved":false,"is_disabled":false,"rental_uris":{"android":"levelo://app?vid=e89316dc-a19a-469f-a9cd-dc00b495757e","ios":"levelo://app?vid=e89316dc-a19a-469f-a9cd-dc00b495757e"},"vehicle_type_id":"4","last_reported":1730056079,"current_range_meters":8800,"station_id":"","pricing_plan_id":"cebpf4jnsgd1na2vs0mg"},{"bike_id":"f319ad7b-0b25-40b9-98dd-c1ffed97367b","system_id":"levelo_inurba_marseille","lat":43.251129,"lon":5.40324,"is_reserved":false,"is_disabled":false,"rental_uris":{"android":"levelo://app?vid=f319ad7b-0b25-40b9-98dd-c1ffed97367b","ios":"levelo://app?vid=f319ad7b-0b25-40b9-98dd-c1ffed97367b"},"vehicle_type_id":"4","last_reported":1730056079,"current_range_meters":32000,"station_id":"ce4bgi92rcd13ifvqb90","pricing_plan_id":"cebpf4jnsgd1na2vs0mg"},{"bike_id":"44ecac53-e2d5-4730-96e0-ba76290d5a54","system_id":"levelo_inurba_marseille","lat":43.2694,"lon":5.40261,"is_reserved":false,"is_disabled":false,"rental_uris":{"android":"levelo://app?vid=44ecac53-e2d5-4730-96e0-ba76290d5a54","ios":"levelo://app?vid=44ecac53-e2d5-4730-96e0-ba76290d5a54"},"vehicle_type_id":"4","last_reported":1730056079,"current_range_meters":26000,"station_id":"cjm6bp8fraef2m0cb0m0","pricing_plan_id":"cebpf4jnsgd1na2vs0mg"},{"bike_id":"04dd23bb-f238-4eba-90d1-d80bc6673779","system_id":"levelo_inurba_marseille","lat":43.31165,"lon":5.38721,"is_reserved":false,"is_disabled":false,"rental_uris":{"android":"levelo://app?vid=04dd23bb-f238-4eba-90d1-d80bc6673779","ios":"levelo://app?vid=04dd23bb-f238-4eba-90d1-d80bc6673779"},"vehicle_type_id":"4","last_reported":1730056079,"current_range_meters":30400,"station_id":"ce4bgv12rcd13ifvqcp0","pricing_plan_id":"cebpf4jnsgd1na2vs0mg"},{"bike_id":"81e500be-3ff6-45b1-af40-237783c8efb0","system_id":"levelo_inurba_marseille","lat":43.27815,"lon":5.40714,"is_reserved":false,"is_disabled":false,"rental_uris":{"android":"levelo://app?vid=81e500be-3ff6-45b1-af40-237783c8efb0","ios":"levelo://app?vid=81e500be-3ff6-45b1-af40-237783c8efb0"},"vehicle_type_id":"4","last_reported":1730056079,"current_range_meters":12400,"station_id":"ce4bhnh2rcd13ifvqgtg","pricing_plan_id":"cebpf4jnsgd1na2vs0mg"},{"bike_id":"f1523813-6688-443a-b1fa-2502b7fef39b","system_id":"levelo_inurba_marseille","lat":43.29296,"lon":5.3718,"is_reserved":false,"is_disabled":false,"rental_uris":{"android":"levelo://app?vid=f1523813-6688-443a-b1fa-2502b7fef39b","ios":"levelo://app?vid=f1523813-6688-443a-b1fa-2502b7fef39b"},"vehicle_type_id":"4","last_reported":1730056079,"current_range_meters":38800,"station_id":"ce4bgh92rcd13ifvqb40","pricing_plan_id":"cebpf4jnsgd1na2vs0mg"},{"bike_id":"70b3fefc-f98d-4522-8dff-e641bffaa94d","system_id":"levelo_inurba_marseille","lat":43.29038,"lon":5.39963,"is_reserved":false,"is_disabled":false,"rental_uris":{"android":"levelo://app?vid=70b3fefc-f98d-4522-8dff-e641bffaa94d","ios":"levelo://app?vid=70b3fefc-f98d-4522-8dff-e641bffaa94d"},"vehicle_type_id":"4","last_reported":1730056079,"current_range_meters":25200,"station_id":"ce4bh392rcd13ifvqdm0","pricing_plan_id":"cebpf4jnsgd1na2vs0mg"},{"bike_id":"dce38ac8-705e-41ba-9732-66c66ca1b28e","system_id":"levelo_inurba_marseille","lat":43.28084,"lon":5.39663,"is_reserved":false,"is_disabled":false,"rental_uris":{"android":"levelo://app?vid=dce38ac8-705e-41ba-9732-66c66ca1b28e","ios":"levelo://app?vid=dce38ac8-705e-41ba-9732-66c66ca1b28e"},"vehicle_type_id":"4","last_reported":1730056079,"current_range_meters":32000,"station_id":"ce4bho12rcd13ifvqh2g","pricing_plan_id":"cebpf4jnsgd1na2vs0mg"},{"bike_id":"eee66e51-5680-4b43-8b22-a6dbf737c96b","system_id":"levelo_inurba_marseille","lat":43.29579,"lon":5.37514,"is_reserved":false,"is_disabled":false,"rental_uris":{"android":"levelo://app?vid=eee66e51-5680-4b43-8b22-a6dbf737c96b","ios":"levelo://app?vid=eee66e51-5680-4b43-8b22-a6dbf737c96b"},"vehicle_type_id":"4","last_reported":1730056079,"current_range_meters":35200,"station_id":"ce4bgh92rcd13ifvqb50","pricing_plan_id":"cebpf4jnsgd1na2vs0mg"},{"bike_id":"1e688e5b-8816-4f4c-9865-f7d670302519","system_id":"levelo_inurba_marseille","lat":43.27204,"lon":5.39194,"is_reserved":false,"is_disabled":false,"rental_uris":{"android":"levelo://app?vid=1e688e5b-8816-4f4c-9865-f7d670302519","ios":"levelo://app?vid=1e688e5b-8816-4f4c-9865-f7d670302519"},"vehicle_type_id":"4","last_reported":1730056079,"current_range_meters":15200,"station_id":"ce4bhhp2rcd13ifvqfm0","pricing_plan_id":"cebpf4jnsgd1na2vs0mg"},{"bike_id":"37260c40-28c0-4a0c-b6ff-6b467ba216bb","system_id":"levelo_inurba_marseille","lat":43.29276,"lon":5.38441,"is_reserved":false,"is_disabled":false,"rental_uris":{"android":"levelo://app?vid=37260c40-28c0-4a0c-b6ff-6b467ba216bb","ios":"levelo://app?vid=37260c40-28c0-4a0c-b6ff-6b467ba216bb"},"vehicle_type_id":"4","last_reported":1730056079,"current_range_meters":28800,"station_id":"ce4bh692rcd13ifvqea0","pricing_plan_id":"cebpf4jnsgd1na2vs0mg"},{"bike_id":"84bf52b0-eb07-4080-97e9-28be885a4718","system_id":"levelo_inurba_marseille","lat":43.2757,"lon":5.38398,"is_reserved":false,"is_disabled":false,"rental_uris":{"android":"levelo://app?vid=84bf52b0-eb07-4080-97e9-28be885a4718","ios":"levelo://app?vid=84bf52b0-eb07-4080-97e9-28be885a4718"},"vehicle_type_id":"4","last_reported":1730056079,"current_range_meters":21600,"station_id":"ce4bhh92rcd13ifvqfi0","pricing_plan_id":"cebpf4jnsgd1na2vs0mg"},{"bike_id":"f57b35df-8b2b-448e-8757-7e05aa11ecb9","system_id":"levelo_inurba_marseille","lat":43.26201,"lon":5.37928,"is_reserved":false,"is_disabled":false,"rental_uris":{"android":"levelo://app?vid=f57b35df-8b2b-448e-8757-7e05aa11ecb9","ios":"levelo://app?vid=f57b35df-8b2b-448e-8757-7e05aa11ecb9"},"vehicle_type_id":"4","last_reported":1730056079,"current_range_meters":38800,"station_id":"ce4bhjp2rcd13ifvqg90","pricing_plan_id":"cebpf4jnsgd1na2vs0mg"},{"bike_id":"4f40e012-ea5b-4575-9527-1f943967bef1","system_id":"levelo_inurba_marseille","lat":43.23967,"lon":5.36629,"is_reserved":false,"is_disabled":false,"rental_uris":{"android":"levelo://app?vid=4f40e012-ea5b-4575-9527-1f943967bef1","ios":"levelo://app?vid=4f40e012-ea5b-4575-9527-1f943967bef1"},"vehicle_type_id":"4","last_reported":1730056079,"current_range_meters":9200,"station_id":"ce4bhi12rcd13ifvqfp0","pricing_plan_id":"cebpf4jnsgd1na2vs0mg"},{"bike_id":"e7d10e46-db22-405f-aa54-83379ef50215","system_id":"levelo_inurba_marseille","lat":43.32474,"lon":5.36561,"is_reserved":false,"is_disabled":false,"rental_uris":{"android":"levelo://app?vid=e7d10e46-db22-405f-aa54-83379ef50215","ios":"levelo://app?vid=e7d10e46-db22-405f-aa54-83379ef50215"},"vehicle_type_id":"4","last_reported":1730056079,"current_range_meters":20400,"station_id":"ce4bhs12rcd13ifvqhvg","pricing_plan_id":"cebpf4jnsgd1na2vs0mg"},{"bike_id":"0aa2a547-71c1-4db7-b114-e727df55ee4b","system_id":"levelo_inurba_marseille","lat":43.30129,"lon":5.39876,"is_reserved":false,"is_disabled":false,"rental_uris":{"android":"levelo://app?vid=0aa2a547-71c1-4db7-b114-e727df55ee4b","ios":"levelo://app?vid=0aa2a547-71c1-4db7-b114-e727df55ee4b"},"vehicle_type_id":"4","last_reported":1730056079,"current_range_meters":6400,"station_id":"ce4bh0h2rcd13ifvqd40","pricing_plan_id":"cebpf4jnsgd1na2vs0mg"},{"bike_id":"137cadb4-d671-4029-8729-5f827b1dde94","system_id":"levelo_inurba_marseille","lat":43.29423,"lon":5.38627,"is_reserved":false,"is_disabled":false,"rental_uris":{"android":"levelo://app?vid=137cadb4-d671-4029-8729-5f827b1dde94","ios":"levelo://app?vid=137cadb4-d671-4029-8729-5f827b1dde94"},"vehicle_type_id":"4","last_reported":1730056079,"current_range_meters":29600,"station_id":"ce4bh2h2rcd13ifvqdh0","pricing_plan_id":"cebpf4jnsgd1na2vs0mg"},{"bike_id":"baf38bfb-15e8-4e56-97dc-609d1d24641a","system_id":"levelo_inurba_marseille","lat":43.24545,"lon":5.39526,"is_reserved":false,"is_disabled":false,"rental_uris":{"android":"levelo://app?vid=baf38bfb-15e8-4e56-97dc-609d1d24641a","ios":"levelo://app?vid=baf38bfb-15e8-4e56-97dc-609d1d24641a"},"vehicle_type_id":"4","last_reported":1730056079,"current_range_meters":35600,"station_id":"ce4bhlp2rcd13ifvqgjg","pricing_plan_id":"cebpf4jnsgd1na2vs0mg"},{"bike_id":"397e19e1-70d1-4c1a-82ef-1ec9a560a69f","system_id":"levelo_inurba_marseille","lat":43.28612,"lon":5.35102,"is_reserved":false,"is_disabled":false,"rental_uris":{"android":"levelo://app?vid=397e19e1-70d1-4c1a-82ef-1ec9a560a69f","ios":"levelo://app?vid=397e19e1-70d1-4c1a-82ef-1ec9a560a69f"},"vehicle_type_id":"4","last_reported":1730056079,"current_range_meters":38800,"station_id":"ce4bhch2rcd13ifvqeug","pricing_plan_id":"cebpf4jnsgd1na2vs0mg"},{"bike_id":"7c70502e-33d9-4265-9f1a-4f6b4ffde2f2","system_id":"levelo_inurba_marseille","lat":43.279956,"lon":5.416579,"is_reserved":false,"is_disabled":false,"rental_uris":{"android":"levelo://app?vid=7c70502e-33d9-4265-9f1a-4f6b4ffde2f2","ios":"levelo://app?vid=7c70502e-33d9-4265-9f1a-4f6b4ffde2f2"},"vehicle_type_id":"4","last_reported":1730056079,"current_range_meters":6000,"station_id":"ce4bho12rcd13ifvqh1g","pricing_plan_id":"cebpf4jnsgd1na2vs0mg"},{"bike_id":"a792347a-d158-4403-9c48-1b4e0c6fc790","system_id":"levelo_inurba_marseille","lat":43.27069,"lon":5.42281,"is_reserved":false,"is_disabled":false,"rental_uris":{"android":"levelo://app?vid=a792347a-d158-4403-9c48-1b4e0c6fc790","ios":"levelo://app?vid=a792347a-d158-4403-9c48-1b4e0c6fc790"},"vehicle_type_id":"4","last_reported":1730056079,"current_range_meters":32000,"station_id":"ce4bhk92rcd13ifvqgb0","pricing_plan_id":"cebpf4jnsgd1na2vs0mg"},{"bike_id":"b265e504-5c9d-41d3-bf75-774e6e901f66","system_id":"levelo_inurba_marseille","lat":43.26992,"lon":5.40143,"is_reserved":false,"is_disabled":false,"rental_uris":{"android":"levelo://app?vid=b265e504-5c9d-41d3-bf75-774e6e901f66","ios":"levelo://app?vid=b265e504-5c9d-41d3-bf75-774e6e901f66"},"vehicle_type_id":"4","last_reported":1730056079,"current_range_meters":30400,"station_id":"","pricing_plan_id":"cebpf4jnsgd1na2vs0mg"},{"bike_id":"10c55e90-0b21-4f9d-8d96-b34b760ef364","system_id":"levelo_inurba_marseille","lat":43.30152,"lon":5.3984,"is_reserved":false,"is_disabled":false,"rental_uris":{"android":"levelo://app?vid=10c55e90-0b21-4f9d-8d96-b34b760ef364","ios":"levelo://app?vid=10c55e90-0b21-4f9d-8d96-b34b760ef364"},"vehicle_type_id":"4","last_reported":1730056079,"current_range_meters":20800,"station_id":"ce4bh0h2rcd13ifvqd40","pricing_plan_id":"cebpf4jnsgd1na2vs0mg"},{"bike_id":"9c6c0987-c4e9-44be-b12b-25a86ac0b1f7","system_id":"levelo_inurba_marseille","lat":43.28178,"lon":5.378856,"is_reserved":false,"is_disabled":false,"rental_uris":{"android":"levelo://app?vid=9c6c0987-c4e9-44be-b12b-25a86ac0b1f7","ios":"levelo://app?vid=9c6c0987-c4e9-44be-b12b-25a86ac0b1f7"},"vehicle_type_id":"4","last_reported":1730056079,"current_range_meters":8000,"station_id":"ce4bha12rcd13ifvqee0","pricing_plan_id":"cebpf4jnsgd1na2vs0mg"},{"bike_id":"e0bf05b6-3eb6-4872-8e8d-82b38f035f72","system_id":"levelo_inurba_marseille","lat":43.248114,"lon":5.374617,"is_reserved":false,"is_disabled":false,"rental_uris":{"android":"levelo://app?vid=e0bf05b6-3eb6-4872-8e8d-82b38f035f72","ios":"levelo://app?vid=e0bf05b6-3eb6-4872-8e8d-82b38f035f72"},"vehicle_type_id":"4","last_reported":1730056079,"current_range_meters":12800,"station_id":"ce4bhn12rcd13ifvqgqg","pricing_plan_id":"cebpf4jnsgd1na2vs0mg"},{"bike_id":"a597067e-5a02-4cd3-a49e-9ab7663d0b2a","system_id":"levelo_inurba_marseille","lat":43.30413,"lon":5.37859,"is_reserved":false,"is_disabled":false,"rental_uris":{"android":"levelo://app?vid=a597067e-5a02-4cd3-a49e-9ab7663d0b2a","ios":"levelo://app?vid=a597067e-5a02-4cd3-a49e-9ab7663d0b2a"},"vehicle_type_id":"4","last_reported":1730056079,"current_range_meters":5600,"station_id":"","pricing_plan_id":"cebpf4jnsgd1na2vs0mg"},{"bike_id":"fd0ea868-03b8-4ae9-b2e6-5aafbca43a7d","system_id":"levelo_inurba_marseille","lat":43.29529,"lon":5.38551,"is_reserved":false,"is_disabled":false,"rental_uris":{"android":"levelo://app?vid=fd0ea868-03b8-4ae9-b2e6-5aafbca43a7d","ios":"levelo://app?vid=fd0ea868-03b8-4ae9-b2e6-5aafbca43a7d"},"vehicle_type_id":"4","last_reported":1730056079,"current_range_meters":17600,"station_id":"ce4bgih2rcd13ifvqba0","pricing_plan_id":"cebpf4jnsgd1na2vs0mg"},{"bike_id":"03ffeab1-71a3-48a9-9c51-d04215d91470","system_id":"levelo_inurba_marseille","lat":43.28148,"lon":5.42651,"is_reserved":false,"is_disabled":false,"rental_uris":{"android":"levelo://app?vid=03ffeab1-71a3-48a9-9c51-d04215d91470","ios":"levelo://app?vid=03ffeab1-71a3-48a9-9c51-d04215d91470"},"vehicle_type_id":"4","last_reported":1730056079,"current_range_meters":27200,"station_id":"ce4bhnh2rcd13ifvqgug","pricing_plan_id":"cebpf4jnsgd1na2vs0mg"},{"bike_id":"e2732363-8e1b-45e7-a618-8dda5d1a4482","system_id":"levelo_inurba_marseille","lat":43.23971,"lon":5.36632,"is_reserved":false,"is_disabled":false,"rental_uris":{"android":"levelo://app?vid=e2732363-8e1b-45e7-a618-8dda5d1a4482","ios":"levelo://app?vid=e2732363-8e1b-45e7-a618-8dda5d1a4482"},"vehicle_type_id":"4","last_reported":1730056079,"current_range_meters":9200,"station_id":"ce4bhi12rcd13ifvqfp0","pricing_plan_id":"cebpf4jnsgd1na2vs0mg"},{"bike_id":"3860d049-13b1-483d-a220-29fa30e5a320","system_id":"levelo_inurba_marseille","lat":43.27949,"lon":5.41055,"is_reserved":false,"is_disabled":false,"rental_uris":{"android":"levelo://app?vid=3860d049-13b1-483d-a220-29fa30e5a320","ios":"levelo://app?vid=3860d049-13b1-483d-a220-29fa30e5a320"},"vehicle_type_id":"4","last_reported":1730056079,"current_range_meters":29600,"station_id":"ce4bhnp2rcd13ifvqh0g","pricing_plan_id":"cebpf4jnsgd1na2vs0mg"},{"bike_id":"0c0bdbd4-962a-4608-a595-94e7794fe001","system_id":"levelo_inurba_marseille","lat":43.30938,"lon":5.40144,"is_reserved":false,"is_disabled":false,"rental_uris":{"android":"levelo://app?vid=0c0bdbd4-962a-4608-a595-94e7794fe001","ios":"levelo://app?vid=0c0bdbd4-962a-4608-a595-94e7794fe001"},"vehicle_type_id":"4","last_reported":1730056079,"current_range_meters":28000,"station_id":"ce4bgvp2rcd13ifvqct0","pricing_plan_id":"cebpf4jnsgd1na2vs0mg"},{"bike_id":"31097900-bf5c-4911-bc90-6b746fd74e40","system_id":"levelo_inurba_marseille","lat":43.29418,"lon":5.38619,"is_reserved":false,"is_disabled":false,"rental_uris":{"android":"levelo://app?vid=31097900-bf5c-4911-bc90-6b746fd74e40","ios":"levelo://app?vid=31097900-bf5c-4911-bc90-6b746fd74e40"},"vehicle_type_id":"4","last_reported":1730056079,"current_range_meters":6800,"station_id":"ce4bh2h2rcd13ifvqdh0","pricing_plan_id":"cebpf4jnsgd1na2vs0mg"},{"bike_id":"26be0b3f-01be-4b09-b2eb-10da1d419afa","system_id":"levelo_inurba_marseille","lat":43.27316,"lon":5.39107,"is_reserved":false,"is_disabled":false,"rental_uris":{"android":"levelo://app?vid=26be0b3f-01be-4b09-b2eb-10da1d419afa","ios":"levelo://app?vid=26be0b3f-01be-4b09-b2eb-10da1d419afa"},"vehicle_type_id":"4","last_reported":1730056079,"current_range_meters":8800,"station_id":"ce4bhgp2rcd13ifvqfe0","pricing_plan_id":"cebpf4jnsgd1na2vs0mg"},{"bike_id":"0c7ca2a3-6f2c-4ec6-8bfc-f23f80115b03","system_id":"levelo_inurba_marseille","lat":43.26502,"lon":5.3953,"is_reserved":false,"is_disabled":false,"rental_uris":{"android":"levelo://app?vid=0c7ca2a3-6f2c-4ec6-8bfc-f23f80115b03","ios":"levelo://app?vid=0c7ca2a3-6f2c-4ec6-8bfc-f23f80115b03"},"vehicle_type_id":"4","last_reported":1730056079,"current_range_meters":31200,"station_id":"ce4bhi12rcd13ifvqfq0","pricing_plan_id":"cebpf4jnsgd1na2vs0mg"},{"bike_id":"7d0d6da2-ea58-46a9-b143-ef11153901da","system_id":"levelo_inurba_marseille","lat":43.28152,"lon":5.42645,"is_reserved":false,"is_disabled":false,"rental_uris":{"android":"levelo://app?vid=7d0d6da2-ea58-46a9-b143-ef11153901da","ios":"levelo://app?vid=7d0d6da2-ea58-46a9-b143-ef11153901da"},"vehicle_type_id":"4","last_reported":1730056079,"current_range_meters":32400,"station_id":"ce4bhnh2rcd13ifvqgug","pricing_plan_id":"cebpf4jnsgd1na2vs0mg"},{"bike_id":"48db3a37-a8a1-442a-877a-bb8ad16603a2","system_id":"levelo_inurba_marseille","lat":43.30354,"lon":5.41881,"is_reserved":false,"is_disabled":false,"rental_uris":{"android":"levelo://app?vid=48db3a37-a8a1-442a-877a-bb8ad16603a2","ios":"levelo://app?vid=48db3a37-a8a1-442a-877a-bb8ad16603a2"},"vehicle_type_id":"4","last_reported":1730056079,"current_range_meters":38800,"station_id":"ce4bhop2rcd13ifvqh7g","pricing_plan_id":"cebpf4jnsgd1na2vs0mg"},{"bike_id":"d73f2c65-fb5c-44d5-807b-50e17f33e81e","system_id":"levelo_inurba_marseille","lat":43.24165,"lon":5.36394,"is_reserved":false,"is_disabled":false,"rental_uris":{"android":"levelo://app?vid=d73f2c65-fb5c-44d5-807b-50e17f33e81e","ios":"levelo://app?vid=d73f2c65-fb5c-44d5-807b-50e17f33e81e"},"vehicle_type_id":"4","last_reported":1730056079,"current_range_meters":8800,"station_id":"cpo36qri1sfpv3e86is0","pricing_plan_id":"cebpf4jnsgd1na2vs0mg"},{"bike_id":"86664bef-5df4-40bc-8eb3-6482b1481d1e","system_id":"levelo_inurba_marseille","lat":43.28658,"lon":5.36344,"is_reserved":false,"is_disabled":false,"rental_uris":{"android":"levelo://app?vid=86664bef-5df4-40bc-8eb3-6482b1481d1e","ios":"levelo://app?vid=86664bef-5df4-40bc-8eb3-6482b1481d1e"},"vehicle_type_id":"4","last_reported":1730056079,"current_range_meters":29600,"station_id":"ce4bhah2rcd13ifvqej0","pricing_plan_id":"cebpf4jnsgd1na2vs0mg"},{"bike_id":"e49103e6-4dc1-498f-8c5c-9341215d0efa","system_id":"levelo_inurba_marseille","lat":43.26936,"lon":5.38922,"is_reserved":false,"is_disabled":false,"rental_uris":{"android":"levelo://app?vid=e49103e6-4dc1-498f-8c5c-9341215d0efa","ios":"levelo://app?vid=e49103e6-4dc1-498f-8c5c-9341215d0efa"},"vehicle_type_id":"4","last_reported":1730056079,"current_range_meters":18800,"station_id":"ce4bhhh2rcd13ifvqfl0","pricing_plan_id":"cebpf4jnsgd1na2vs0mg"},{"bike_id":"c9eb749b-627f-4321-b6c5-4885d0ce6d28","system_id":"levelo_inurba_marseille","lat":43.27321,"lon":5.39093,"is_reserved":false,"is_disabled":false,"rental_uris":{"android":"levelo://app?vid=c9eb749b-627f-4321-b6c5-4885d0ce6d28","ios":"levelo://app?vid=c9eb749b-627f-4321-b6c5-4885d0ce6d28"},"vehicle_type_id":"4","last_reported":1730056079,"current_range_meters":6800,"station_id":"ce4bhgp2rcd13ifvqfe0","pricing_plan_id":"cebpf4jnsgd1na2vs0mg"},{"bike_id":"2c4c43e6-78af-4d26-9879-ba7e2194161e","system_id":"levelo_inurba_marseille","lat":43.29888,"lon":5.38898,"is_reserved":false,"is_disabled":false,"rental_uris":{"android":"levelo://app?vid=2c4c43e6-78af-4d26-9879-ba7e2194161e","ios":"levelo://app?vid=2c4c43e6-78af-4d26-9879-ba7e2194161e"},"vehicle_type_id":"4","last_reported":1730056079,"current_range_meters":22000,"station_id":"ce4bh392rcd13ifvqdl0","pricing_plan_id":"cebpf4jnsgd1na2vs0mg"},{"bike_id":"aea18959-def8-4c0c-bca6-5d2d92845fa4","system_id":"levelo_inurba_marseille","lat":43.26947,"lon":5.40253,"is_reserved":false,"is_disabled":false,"rental_uris":{"android":"levelo://app?vid=aea18959-def8-4c0c-bca6-5d2d92845fa4","ios":"levelo://app?vid=aea18959-def8-4c0c-bca6-5d2d92845fa4"},"vehicle_type_id":"4","last_reported":1730056079,"current_range_meters":8400,"station_id":"cjm6bp8fraef2m0cb0m0","pricing_plan_id":"cebpf4jnsgd1na2vs0mg"},{"bike_id":"d0fa5c93-bf34-4830-b8f1-106df6a258c8","system_id":"levelo_inurba_marseille","lat":43.29036,"lon":5.38634,"is_reserved":false,"is_disabled":false,"rental_uris":{"android":"levelo://app?vid=d0fa5c93-bf34-4830-b8f1-106df6a258c8","ios":"levelo://app?vid=d0fa5c93-bf34-4830-b8f1-106df6a258c8"},"vehicle_type_id":"4","last_reported":1730056079,"current_range_meters":18000,"station_id":"ce4bh4p2rcd13ifvqe0g","pricing_plan_id":"cebpf4jnsgd1na2vs0mg"},{"bike_id":"a10c3ce2-5522-4ae1-ba9e-4725d3f64a4b","system_id":"levelo_inurba_marseille","lat":43.29266,"lon":5.38448,"is_reserved":false,"is_disabled":false,"rental_uris":{"android":"levelo://app?vid=a10c3ce2-5522-4ae1-ba9e-4725d3f64a4b","ios":"levelo://app?vid=a10c3ce2-5522-4ae1-ba9e-4725d3f64a4b"},"vehicle_type_id":"4","last_reported":1730056079,"current_range_meters":27200,"station_id":"ce4bh692rcd13ifvqea0","pricing_plan_id":"cebpf4jnsgd1na2vs0mg"},{"bike_id":"643d362a-7c1f-407f-8d53-5bfd4f0cd8f1","system_id":"levelo_inurba_marseille","lat":43.2731,"lon":5.39089,"is_reserved":false,"is_disabled":false,"rental_uris":{"android":"levelo://app?vid=643d362a-7c1f-407f-8d53-5bfd4f0cd8f1","ios":"levelo://app?vid=643d362a-7c1f-407f-8d53-5bfd4f0cd8f1"},"vehicle_type_id":"4","last_reported":1730056079,"current_range_meters":19200,"station_id":"ce4bhgp2rcd13ifvqfe0","pricing_plan_id":"cebpf4jnsgd1na2vs0mg"},{"bike_id":"fb982107-1b0c-4648-9af1-fd20a992fa3f","system_id":"levelo_inurba_marseille","lat":43.3302,"lon":5.39036,"is_reserved":false,"is_disabled":false,"rental_uris":{"android":"levelo://app?vid=fb982107-1b0c-4648-9af1-fd20a992fa3f","ios":"levelo://app?vid=fb982107-1b0c-4648-9af1-fd20a992fa3f"},"vehicle_type_id":"4","last_reported":1730056079,"current_range_meters":33200,"station_id":"ce4bhr92rcd13ifvqhrg","pricing_plan_id":"cebpf4jnsgd1na2vs0mg"},{"bike_id":"98ab8048-b082-4269-98ba-e8072dfc5d37","system_id":"levelo_inurba_marseille","lat":43.2815,"lon":5.42649,"is_reserved":false,"is_disabled":false,"rental_uris":{"android":"levelo://app?vid=98ab8048-b082-4269-98ba-e8072dfc5d37","ios":"levelo://app?vid=98ab8048-b082-4269-98ba-e8072dfc5d37"},"vehicle_type_id":"4","last_reported":1730056079,"current_range_meters":35600,"station_id":"ce4bhnh2rcd13ifvqgug","pricing_plan_id":"cebpf4jnsgd1na2vs0mg"},{"bike_id":"e9161169-bf96-4d0e-aa7b-58a20bb22718","system_id":"levelo_inurba_marseille","lat":43.2942,"lon":5.38615,"is_reserved":false,"is_disabled":false,"rental_uris":{"android":"levelo://app?vid=e9161169-bf96-4d0e-aa7b-58a20bb22718","ios":"levelo://app?vid=e9161169-bf96-4d0e-aa7b-58a20bb22718"},"vehicle_type_id":"4","last_reported":1730056079,"current_range_meters":38800,"station_id":"ce4bh2h2rcd13ifvqdh0","pricing_plan_id":"cebpf4jnsgd1na2vs0mg"},{"bike_id":"1038e9a3-c91c-4116-bb97-2e59525110fc","system_id":"levelo_inurba_marseille","lat":43.24802,"lon":5.37456,"is_reserved":false,"is_disabled":false,"rental_uris":{"android":"levelo://app?vid=1038e9a3-c91c-4116-bb97-2e59525110fc","ios":"levelo://app?vid=1038e9a3-c91c-4116-bb97-2e59525110fc"},"vehicle_type_id":"4","last_reported":1730056079,"current_range_meters":38800,"station_id":"ce4bhgh2rcd13ifvqfb0","pricing_plan_id":"cebpf4jnsgd1na2vs0mg"},{"bike_id":"b9b26fb0-e1f3-44de-bde6-fbb37011a350","system_id":"levelo_inurba_marseille","lat":43.26945,"lon":5.40253,"is_reserved":false,"is_disabled":false,"rental_uris":{"android":"levelo://app?vid=b9b26fb0-e1f3-44de-bde6-fbb37011a350","ios":"levelo://app?vid=b9b26fb0-e1f3-44de-bde6-fbb37011a350"},"vehicle_type_id":"4","last_reported":1730056079,"current_range_meters":38800,"station_id":"cjm6bp8fraef2m0cb0m0","pricing_plan_id":"cebpf4jnsgd1na2vs0mg"},{"bike_id":"a1f7cedf-7b05-4a84-95a5-14a40357bf64","system_id":"levelo_inurba_marseille","lat":43.300876,"lon":5.390824,"is_reserved":false,"is_disabled":false,"rental_uris":{"android":"levelo://app?vid=a1f7cedf-7b05-4a84-95a5-14a40357bf64","ios":"levelo://app?vid=a1f7cedf-7b05-4a84-95a5-14a40357bf64"},"vehicle_type_id":"4","last_reported":1730056079,"current_range_meters":34000,"station_id":"ce4bh192rcd13ifvqdb0","pricing_plan_id":"cebpf4jnsgd1na2vs0mg"},{"bike_id":"e6769154-19e7-4ddc-b5a8-2fe686d6b3f3","system_id":"levelo_inurba_marseille","lat":43.31687,"lon":5.40475,"is_reserved":false,"is_disabled":false,"rental_uris":{"android":"levelo://app?vid=e6769154-19e7-4ddc-b5a8-2fe686d6b3f3","ios":"levelo://app?vid=e6769154-19e7-4ddc-b5a8-2fe686d6b3f3"},"vehicle_type_id":"4","last_reported":1730056079,"current_range_meters":17600,"station_id":"ce4bh012rcd13ifvqd00","pricing_plan_id":"cebpf4jnsgd1na2vs0mg"},{"bike_id":"9051d7a0-c4a4-4320-98f4-3b149fb6e3be","system_id":"levelo_inurba_marseille","lat":43.27309,"lon":5.39089,"is_reserved":false,"is_disabled":false,"rental_uris":{"android":"levelo://app?vid=9051d7a0-c4a4-4320-98f4-3b149fb6e3be","ios":"levelo://app?vid=9051d7a0-c4a4-4320-98f4-3b149fb6e3be"},"vehicle_type_id":"4","last_reported":1730056079,"current_range_meters":14800,"station_id":"ce4bhgp2rcd13ifvqfe0","pricing_plan_id":"cebpf4jnsgd1na2vs0mg"},{"bike_id":"8579c85e-efec-41c1-97f7-903462a8ac81","system_id":"levelo_inurba_marseille","lat":43.29044,"lon":5.39967,"is_reserved":false,"is_disabled":false,"rental_uris":{"android":"levelo://app?vid=8579c85e-efec-41c1-97f7-903462a8ac81","ios":"levelo://app?vid=8579c85e-efec-41c1-97f7-903462a8ac81"},"vehicle_type_id":"4","last_reported":1730056079,"current_range_meters":38000,"station_id":"ce4bh392rcd13ifvqdm0","pricing_plan_id":"cebpf4jnsgd1na2vs0mg"},{"bike_id":"0cdaf416-5be9-4283-8f7c-59bf700b05f2","system_id":"levelo_inurba_marseille","lat":43.27829,"lon":5.39216,"is_reserved":false,"is_disabled":false,"rental_uris":{"android":"levelo://app?vid=0cdaf416-5be9-4283-8f7c-59bf700b05f2","ios":"levelo://app?vid=0cdaf416-5be9-4283-8f7c-59bf700b05f2"},"vehicle_type_id":"4","last_reported":1730056079,"current_range_meters":36000,"station_id":"ce4bhjp2rcd13ifvqga0","pricing_plan_id":"cebpf4jnsgd1na2vs0mg"},{"bike_id":"4077784f-372a-49fa-b8bd-b7d23d11cffd","system_id":"levelo_inurba_marseille","lat":43.31348,"lon":5.36715,"is_reserved":false,"is_disabled":false,"rental_uris":{"android":"levelo://app?vid=4077784f-372a-49fa-b8bd-b7d23d11cffd","ios":"levelo://app?vid=4077784f-372a-49fa-b8bd-b7d23d11cffd"},"vehicle_type_id":"4","last_reported":1730056079,"current_range_meters":38400,"station_id":"ce4bgr92rcd13ifvqc6g","pricing_plan_id":"cebpf4jnsgd1na2vs0mg"},{"bike_id":"8f45e056-5d5e-49d0-b203-075732211fe4","system_id":"levelo_inurba_marseille","lat":43.24542,"lon":5.39517,"is_reserved":false,"is_disabled":false,"rental_uris":{"android":"levelo://app?vid=8f45e056-5d5e-49d0-b203-075732211fe4","ios":"levelo://app?vid=8f45e056-5d5e-49d0-b203-075732211fe4"},"vehicle_type_id":"4","last_reported":1730056079,"current_range_meters":38800,"station_id":"ce4bhlp2rcd13ifvqgjg","pricing_plan_id":"cebpf4jnsgd1na2vs0mg"},{"bike_id":"3c447e9e-f665-4c94-b4f7-b1a1adbf746d","system_id":"levelo_inurba_marseille","lat":43.2474,"lon":5.38019,"is_reserved":false,"is_disabled":false,"rental_uris":{"android":"levelo://app?vid=3c447e9e-f665-4c94-b4f7-b1a1adbf746d","ios":"levelo://app?vid=3c447e9e-f665-4c94-b4f7-b1a1adbf746d"},"vehicle_type_id":"4","last_reported":1730056079,"current_range_meters":6800,"station_id":"","pricing_plan_id":"cebpf4jnsgd1na2vs0mg"},{"bike_id":"53166c19-c384-4b85-b94d-ca6708dfd8f3","system_id":"levelo_inurba_marseille","lat":43.29413,"lon":5.38622,"is_reserved":false,"is_disabled":false,"rental_uris":{"android":"levelo://app?vid=53166c19-c384-4b85-b94d-ca6708dfd8f3","ios":"levelo://app?vid=53166c19-c384-4b85-b94d-ca6708dfd8f3"},"vehicle_type_id":"4","last_reported":1730056079,"current_range_meters":27200,"station_id":"ce4bh2h2rcd13ifvqdh0","pricing_plan_id":"cebpf4jnsgd1na2vs0mg"},{"bike_id":"9ea70cd8-36ff-4eda-afe7-a81ff4919c5d","system_id":"levelo_inurba_marseille","lat":43.2926,"lon":5.38445,"is_reserved":false,"is_disabled":false,"rental_uris":{"android":"levelo://app?vid=9ea70cd8-36ff-4eda-afe7-a81ff4919c5d","ios":"levelo://app?vid=9ea70cd8-36ff-4eda-afe7-a81ff4919c5d"},"vehicle_type_id":"4","last_reported":1730056079,"current_range_meters":37600,"station_id":"ce4bh692rcd13ifvqea0","pricing_plan_id":"cebpf4jnsgd1na2vs0mg"},{"bike_id":"571b3a90-e9eb-44e1-addf-8b3b45abf578","system_id":"levelo_inurba_marseille","lat":43.28613,"lon":5.35101,"is_reserved":false,"is_disabled":false,"rental_uris":{"android":"levelo://app?vid=571b3a90-e9eb-44e1-addf-8b3b45abf578","ios":"levelo://app?vid=571b3a90-e9eb-44e1-addf-8b3b45abf578"},"vehicle_type_id":"4","last_reported":1730056079,"current_range_meters":38800,"station_id":"ce4bhch2rcd13ifvqeug","pricing_plan_id":"cebpf4jnsgd1na2vs0mg"},{"bike_id":"4a73117a-2bb2-4b42-bc6a-939167926ce7","system_id":"levelo_inurba_marseille","lat":43.27318,"lon":5.39087,"is_reserved":false,"is_disabled":false,"rental_uris":{"android":"levelo://app?vid=4a73117a-2bb2-4b42-bc6a-939167926ce7","ios":"levelo://app?vid=4a73117a-2bb2-4b42-bc6a-939167926ce7"},"vehicle_type_id":"4","last_reported":1730056079,"current_range_meters":7200,"station_id":"ce4bhgp2rcd13ifvqfe0","pricing_plan_id":"cebpf4jnsgd1na2vs0mg"},{"bike_id":"0671e0e4-bef8-4f9d-bbeb-d3ae5302dad5","system_id":"levelo_inurba_marseille","lat":43.28609,"lon":5.37061,"is_reserved":false,"is_disabled":false,"rental_uris":{"android":"levelo://app?vid=0671e0e4-bef8-4f9d-bbeb-d3ae5302dad5","ios":"levelo://app?vid=0671e0e4-bef8-4f9d-bbeb-d3ae5302dad5"},"vehicle_type_id":"4","last_reported":1730056079,"current_range_meters":6800,"station_id":"ce4bht12rcd13ifvqi60","pricing_plan_id":"cebpf4jnsgd1na2vs0mg"},{"bike_id":"4b0f9ffc-effd-41e4-aea9-9d6cd4732824","system_id":"levelo_inurba_marseille","lat":43.27438,"lon":5.39412,"is_reserved":false,"is_disabled":false,"rental_uris":{"android":"levelo://app?vid=4b0f9ffc-effd-41e4-aea9-9d6cd4732824","ios":"levelo://app?vid=4b0f9ffc-effd-41e4-aea9-9d6cd4732824"},"vehicle_type_id":"4","last_reported":1730056079,"current_range_meters":39200,"station_id":"ce4bhdp2rcd13ifvqf20","pricing_plan_id":"cebpf4jnsgd1na2vs0mg"},{"bike_id":"84a4e669-70af-4308-bcdf-aee8700e0b5f","system_id":"levelo_inurba_marseille","lat":43.24801,"lon":5.37456,"is_reserved":false,"is_disabled":false,"rental_uris":{"android":"levelo://app?vid=84a4e669-70af-4308-bcdf-aee8700e0b5f","ios":"levelo://app?vid=84a4e669-70af-4308-bcdf-aee8700e0b5f"},"vehicle_type_id":"4","last_reported":1730056079,"current_range_meters":25200,"station_id":"ce4bhgh2rcd13ifvqfb0","pricing_plan_id":"cebpf4jnsgd1na2vs0mg"},{"bike_id":"1223fa32-0ba9-41ab-b9f6-808ea3395c61","system_id":"levelo_inurba_marseille","lat":43.29259,"lon":5.38441,"is_reserved":false,"is_disabled":false,"rental_uris":{"android":"levelo://app?vid=1223fa32-0ba9-41ab-b9f6-808ea3395c61","ios":"levelo://app?vid=1223fa32-0ba9-41ab-b9f6-808ea3395c61"},"vehicle_type_id":"4","last_reported":1730056079,"current_range_meters":37600,"station_id":"ce4bh692rcd13ifvqea0","pricing_plan_id":"cebpf4jnsgd1na2vs0mg"},{"bike_id":"bffe628d-d270-46c6-a070-1cc4d249c393","system_id":"levelo_inurba_marseille","lat":43.30602,"lon":5.37224,"is_reserved":false,"is_disabled":false,"rental_uris":{"android":"levelo://app?vid=bffe628d-d270-46c6-a070-1cc4d249c393","ios":"levelo://app?vid=bffe628d-d270-46c6-a070-1cc4d249c393"},"vehicle_type_id":"4","last_reported":1730056079,"current_range_meters":28800,"station_id":"ce4bgqh2rcd13ifvqc4g","pricing_plan_id":"cebpf4jnsgd1na2vs0mg"},{"bike_id":"9110a3bb-1a3f-4209-bbaf-b5471f246ae2","system_id":"levelo_inurba_marseille","lat":43.24715,"lon":5.39654,"is_reserved":false,"is_disabled":false,"rental_uris":{"android":"levelo://app?vid=9110a3bb-1a3f-4209-bbaf-b5471f246ae2","ios":"levelo://app?vid=9110a3bb-1a3f-4209-bbaf-b5471f246ae2"},"vehicle_type_id":"4","last_reported":1730056079,"current_range_meters":16000,"station_id":"","pricing_plan_id":"cebpf4jnsgd1na2vs0mg"},{"bike_id":"2df00569-e7ca-405b-a6a9-fbfc18d645c5","system_id":"levelo_inurba_marseille","lat":43.28439,"lon":5.392,"is_reserved":false,"is_disabled":false,"rental_uris":{"android":"levelo://app?vid=2df00569-e7ca-405b-a6a9-fbfc18d645c5","ios":"levelo://app?vid=2df00569-e7ca-405b-a6a9-fbfc18d645c5"},"vehicle_type_id":"4","last_reported":1730056079,"current_range_meters":8800,"station_id":"ce4bhoh2rcd13ifvqh5g","pricing_plan_id":"cebpf4jnsgd1na2vs0mg"},{"bike_id":"493bff58-eede-4dfd-af87-ad5061d1972d","system_id":"levelo_inurba_marseille","lat":43.25113,"lon":5.40323,"is_reserved":false,"is_disabled":false,"rental_uris":{"android":"levelo://app?vid=493bff58-eede-4dfd-af87-ad5061d1972d","ios":"levelo://app?vid=493bff58-eede-4dfd-af87-ad5061d1972d"},"vehicle_type_id":"4","last_reported":1730056079,"current_range_meters":30400,"station_id":"ce4bhlh2rcd13ifvqgig","pricing_plan_id":"cebpf4jnsgd1na2vs0mg"},{"bike_id":"ddc73c40-5fda-4166-9894-2c12bc47834c","system_id":"levelo_inurba_marseille","lat":43.32351,"lon":5.38964,"is_reserved":false,"is_disabled":false,"rental_uris":{"android":"levelo://app?vid=ddc73c40-5fda-4166-9894-2c12bc47834c","ios":"levelo://app?vid=ddc73c40-5fda-4166-9894-2c12bc47834c"},"vehicle_type_id":"4","last_reported":1730056079,"current_range_meters":25600,"station_id":"","pricing_plan_id":"cebpf4jnsgd1na2vs0mg"},{"bike_id":"c66335ad-1bb9-419c-bf0a-128889460df1","system_id":"levelo_inurba_marseille","lat":43.29188,"lon":5.35806,"is_reserved":false,"is_disabled":false,"rental_uris":{"android":"levelo://app?vid=c66335ad-1bb9-419c-bf0a-128889460df1","ios":"levelo://app?vid=c66335ad-1bb9-419c-bf0a-128889460df1"},"vehicle_type_id":"4","last_reported":1730056079,"current_range_meters":30000,"station_id":"ce4bhb12rcd13ifvqel0","pricing_plan_id":"cebpf4jnsgd1na2vs0mg"},{"bike_id":"f1a7e4f7-1bb2-473c-9228-bdd139fd1cae","system_id":"levelo_inurba_marseille","lat":43.3171,"lon":5.37761,"is_reserved":false,"is_disabled":false,"rental_uris":{"android":"levelo://app?vid=f1a7e4f7-1bb2-473c-9228-bdd139fd1cae","ios":"levelo://app?vid=f1a7e4f7-1bb2-473c-9228-bdd139fd1cae"},"vehicle_type_id":"4","last_reported":1730056079,"current_range_meters":38800,"station_id":"ce4bgth2rcd13ifvqch0","pricing_plan_id":"cebpf4jnsgd1na2vs0mg"},