{"last_updated":1750518545,"ttl":60,"version":"2.2","data":{"bikes":[{"bike_id":"3da29fb8-fc97-44c6-b9ac-31dd456b2fd4","system_id":"levelo_inurba_marseille","lat":43.33771,"lon":5.37424,"is_reserved":false,"is_disabled":true,"rental_uris":{"android":"levelo://app?vid=3da29fb8-fc97-44c6-b9ac-31dd456b2fd4","ios":"levelo://app?vid=3da29fb8-fc97-44c6-b9ac-31dd456b2fd4"},"vehicle_type_id":"4","last_reported":1750518545,"current_range_meters":0,"station_id":"","pricing_plan_id":"cebpf4jnsgd1na2vs0mg"},{"bike_id":"01861ad8-a8d7-4be6-816e-651927c87584","system_id":"levelo_inurba_marseille","lat":43.33751,"lon":5.37456,"is_reserved":false,"is_disabled":true,"rental_uris":{"android":"levelo://app?vid=01861ad8-a8d7-4be6-816e-651927c87584","ios":"levelo://app?vid=01861ad8-a8d7-4be6-816e-651927c87584"},"vehicle_type_id":"4","last_reported":1750518545,"current_range_meters":0,"station_id":"","pricing_plan_id":"cebpf4jnsgd1na2vs0mg"},{"bike_id":"62a493c7-4534-4419-ad43-0582de34a72a","system_id":"levelo_inurba_marseille","lat":43.21366,"lon":5.355183,"is_reserved":false,"is_disabled":true,"rental_uris":{"android":"levelo://app?vid=62a493c7-4534-4419-ad43-0582de34a72a","ios":"levelo://app?vid=62a493c7-4534-4419-ad43-0582de34a72a"},"vehicle_type_id":"4","last_reported":1750518545,"current_range_meters":0,"station_id":"","pricing_plan_id":"cebpf4jnsgd1na2vs0mg"},{"bike_id":"ab9ebe50-6c2e-44ca-bb3c-0c48ea184be5","system_id":"levelo_inurba_marseille","lat":43.22508,"lon":5.34774,"is_reserved":false,"is_disabled":true,"rental_uris":{"android":"levelo://app?vid=ab9ebe50-6c2e-44ca-bb3c-0c48ea184be5","ios":"levelo://app?vid=ab9ebe50-6c2e-44ca-bb3c-0c48ea184be5"},"vehicle_type_id":"4","last_reported":1750518545,"current_range_meters":0,"station_id":"","pricing_plan_id":"cebpf4jnsgd1na2vs0mg"},{"bike_id":"d7f85473-05f5-4990-91de-9cf4b5dfb4ba","system_id":"levelo_inurba_marseille","lat":43.26227,"lon":5.37428,"is_reserved":false,"is_disabled":true,"rental_uris":{"android":"levelo://app?vid=d7f85473-05f5-4990-91de-9cf4b5dfb4ba","ios":"levelo://app?vid=d7f85473-05f5-4990-91de-9cf4b5dfb4ba"},"vehicle_type_id":"4","last_reported":1750518545,"current_range_meters":0,"station_id":"","pricing_plan_id":"cebpf4jnsgd1na2vs0mg"},{"bike_id":"d6609b4f-333b-43c1-9ebe-8726f5e76e88","system_id":"levelo_inurba_marseille","lat":43.337444,"lon":5.374475,"is_reserved":false,"is_disabled":true,"rental_uris":{"android":"levelo://app?vid=d6609b4f-333b-43c1-9ebe-8726f5e76e88","ios":"levelo://app?vid=d6609b4f-333b-43c1-9ebe-8726f5e76e88"},"vehicle_type_id":"4","last_reported":1750518545,"current_range_meters":0,"station_id":"","pricing_plan_id":"cebpf4jnsgd1na2vs0mg"},{"bike_id":"4cede4cf-7ca9-4e47-9559-f20c44cea124","system_id":"levelo_inurba_marseille","lat":43.24552,"lon":5.37294,"is_reserved":false,"is_disabled":true,"rental_uris":{"android":"levelo://app?vid=4cede4cf-7ca9-4e47-9559-f20c44cea124","ios":"levelo://app?vid=4cede4cf-7ca9-4e47-9559-f20c44cea124"},"vehicle_type_id":"4","last_reported":1750518545,"current_range_meters":0,"station_id":"","pricing_plan_id":"cebpf4jnsgd1na2vs0mg"},{"bike_id":"45bbf0a9-fb71-4554-b265-a4213254df71","system_id":"levelo_inurba_marseille","lat":43.291958,"lon":5.357966,"is_reserved":false,"is_disabled":true,"rental_uris":{"android":"levelo://app?vid=45bbf0a9-fb71-4554-b265-a4213254df71","ios":"levelo://app?vid=45bbf0a9-fb71-4554-b265-a4213254df71"},"vehicle_type_id":"4","last_reported":1750518545,"current_range_meters":0,"station_id":"ce4bgip2rcd13ifvqbb0","pricing_plan_id":"cebpf4jnsgd1na2vs0mg"},{"bike_id":"afc403b0-1f2e-4607-906a-8de86c4b54b4","system_id":"levelo_inurba_marseille","lat":43.27623,"lon":5.36105,"is_reserved":false,"is_disabled":true,"rental_uris":{"android":"levelo://app?vid=afc403b0-1f2e-4607-906a-8de86c4b54b4","ios":"levelo://app?vid=afc403b0-1f2e-4607-906a-8de86c4b54b4"},"vehicle_type_id":"4","last_reported":1750518545,"current_range_meters":0,"station_id":"ce4bgj92rcd13ifvqbe0","pricing_plan_id":"cebpf4jnsgd1na2vs0mg"},{"bike_id":"a8315c18-574e-4aa9-b81b-8a92eadf75d6","system_id":"levelo_inurba_marseille","lat":43.301453,"lon":5.381026,"is_reserved":false,"is_disabled":true,"rental_uris":{"android":"levelo://app?vid=a8315c18-574e-4aa9-b81b-8a92eadf75d6","ios":"levelo://app?vid=a8315c18-574e-4aa9-b81b-8a92eadf75d6"},"vehicle_type_id":"4","last_reported":1750518545,"current_range_meters":0,"station_id":"ce4bgjp2rcd13ifvqbh0","pricing_plan_id":"cebpf4jnsgd1na2vs0mg"},{"bike_id":"8d186e3b-318e-4033-bc81-9e2a0a8b9782","system_id":"levelo_inurba_marseille","lat":43.30536,"lon":5.36557,"is_reserved":false,"is_disabled":true,"rental_uris":{"android":"levelo://app?vid=8d186e3b-318e-4033-bc81-9e2a0a8b9782","ios":"levelo://app?vid=8d186e3b-318e-4033-bc81-9e2a0a8b9782"},"vehicle_type_id":"4","last_reported":1750518545,"current_range_meters":0,"station_id":"ce4bgs12rcd13ifvqcag","pricing_plan_id":"cebpf4jnsgd1na2vs0mg"},{"bike_id":"74c74c17-f34f-4e9d-8982-34fd06389c5b","system_id":"levelo_inurba_marseille","lat":43.31484,"lon":5.37307,"is_reserved":false,"is_disabled":true,"rental_uris":{"android":"levelo://app?vid=74c74c17-f34f-4e9d-8982-34fd06389c5b","ios":"levelo://app?vid=74c74c17-f34f-4e9d-8982-34fd06389c5b"},"vehicle_type_id":"4","last_reported":1750518545,"current_range_meters":0,"station_id":"ce4bgt12rcd13ifvqcd0","pricing_plan_id":"cebpf4jnsgd1na2vs0mg"},{"bike_id":"d1bd4974-2b1b-4b6f-9899-0610b24fbd9f","system_id":"levelo_inurba_marseille","lat":43.30291,"lon":5.37702,"is_reserved":false,"is_disabled":true,"rental_uris":{"android":"levelo://app?vid=d1bd4974-2b1b-4b6f-9899-0610b24fbd9f","ios":"levelo://app?vid=d1bd4974-2b1b-4b6f-9899-0610b24fbd9f"},"vehicle_type_id":"4","last_reported":1750518545,"current_range_meters":0,"station_id":"ce4bguh2rcd13ifvqcj0","pricing_plan_id":"cebpf4jnsgd1na2vs0mg"},{"bike_id":"156717d9-5d82-4226-a389-e52555e7069b","system_id":"levelo_inurba_marseille","lat":43.30293,"lon":5.37701,"is_reserved":false,"is_disabled":true,"rental_uris":{"android":"levelo://app?vid=156717d9-5d82-4226-a389-e52555e7069b","ios":"levelo://app?vid=156717d9-5d82-4226-a389-e52555e7069b"},"vehicle_type_id":"4","last_reported":1750518545,"current_range_meters":0,"station_id":"ce4bguh2rcd13ifvqcj0","pricing_plan_id":"cebpf4jnsgd1na2vs0mg"},{"bike_id":"5bbf12fa-75a8-44a4-881d-29b2ee598bac","system_id":"levelo_inurba_marseille","lat":43.29033,"lon":5.39962,"is_reserved":false,"is_disabled":true,"rental_uris":{"android":"levelo://app?vid=5bbf12fa-75a8-44a4-881d-29b2ee598bac","ios":"levelo://app?vid=5bbf12fa-75a8-44a4-881d-29b2ee598bac"},"vehicle_type_id":"4","last_reported":1750518545,"current_range_meters":0,"station_id":"ce4bh392rcd13ifvqdm0","pricing_plan_id":"cebpf4jnsgd1na2vs0mg"},{"bike_id":"8d855c9e-caab-4528-a8c6-5f670403eed9","system_id":"levelo_inurba_marseille","lat":43.284713,"lon":5.38408,"is_reserved":false,"is_disabled":true,"rental_uris":{"android":"levelo://app?vid=8d855c9e-caab-4528-a8c6-5f670403eed9","ios":"levelo://app?vid=8d855c9e-caab-4528-a8c6-5f670403eed9"},"vehicle_type_id":"4","last_reported":1750518545,"current_range_meters":0,"station_id":"ce4bh512rcd13ifvqe3g","pricing_plan_id":"cebpf4jnsgd1na2vs0mg"},{"bike_id":"b7b0d0d4-f23f-4965-a6f6-2e1baf7ed410","system_id":"levelo_inurba_marseille","lat":43.29067,"lon":5.37155,"is_reserved":false,"is_disabled":true,"rental_uris":{"android":"levelo://app?vid=b7b0d0d4-f23f-4965-a6f6-2e1baf7ed410","ios":"levelo://app?vid=b7b0d0d4-f23f-4965-a6f6-2e1baf7ed410"},"vehicle_type_id":"4","last_reported":1750518545,"current_range_meters":0,"station_id":"ce4bh5p2rcd13ifvqe4g","pricing_plan_id":"cebpf4jnsgd1na2vs0mg"},{"bike_id":"f63076e5-6c0f-4b40-ac61-28b4959dcb54","system_id":"levelo_inurba_marseille","lat":43.29046,"lon":5.35918,"is_reserved":false,"is_disabled":true,"rental_uris":{"android":"levelo://app?vid=f63076e5-6c0f-4b40-ac61-28b4959dcb54","ios":"levelo://app?vid=f63076e5-6c0f-4b40-ac61-28b4959dcb54"},"vehicle_type_id":"4","last_reported":1750518545,"current_range_meters":0,"station_id":"ce4bha92rcd13ifvqeg0","pricing_plan_id":"cebpf4jnsgd1na2vs0mg"},{"bike_id":"5d9e5b0a-18af-4763-a568-b771c2a900ad","system_id":"levelo_inurba_marseille","lat":43.27349,"lon":5.36263,"is_reserved":false,"is_disabled":true,"rental_uris":{"android":"levelo://app?vid=5d9e5b0a-18af-4763-a568-b771c2a900ad","ios":"levelo://app?vid=5d9e5b0a-18af-4763-a568-b771c2a900ad"},"vehicle_type_id":"4","last_reported":1750518545,"current_range_meters":0,"station_id":"ce4bhbh2rcd13ifvqeo0","pricing_plan_id":"cebpf4jnsgd1na2vs0mg"},{"bike_id":"4628996c-e86b-49d6-b5ae-735a2a54a3b5","system_id":"levelo_inurba_marseille","lat":43.27373,"lon":5.36259,"is_reserved":false,"is_disabled":true,"rental_uris":{"android":"levelo://app?vid=4628996c-e86b-49d6-b5ae-735a2a54a3b5","ios":"levelo://app?vid=4628996c-e86b-49d6-b5ae-735a2a54a3b5"},"vehicle_type_id":"4","last_reported":1750518545,"current_range_meters":0,"station_id":"ce4bhbh2rcd13ifvqeo0","pricing_plan_id":"cebpf4jnsgd1na2vs0mg"},{"bike_id":"af123182-5949-4af4-b4b6-9bb162c8814c","system_id":"levelo_inurba_marseille","lat":43.2738,"lon":5.36249,"is_reserved":false,"is_disabled":true,"rental_uris":{"android":"levelo://app?vid=af123182-5949-4af4-b4b6-9bb162c8814c","ios":"levelo://app?vid=af123182-5949-4af4-b4b6-9bb162c8814c"},"vehicle_type_id":"4","last_reported":1750518545,"current_range_meters":0,"station_id":"ce4bhbh2rcd13ifvqeo0","pricing_plan_id":"cebpf4jnsgd1na2vs0mg"},{"bike_id":"479511df-26a0-4785-8d40-a1e7daa1f755","system_id":"levelo_inurba_marseille","lat":43.29228,"lon":5.359059,"is_reserved":false,"is_disabled":true,"rental_uris":{"android":"levelo://app?vid=479511df-26a0-4785-8d40-a1e7daa1f755","ios":"levelo://app?vid=479511df-26a0-4785-8d40-a1e7daa1f755"},"vehicle_type_id":"4","last_reported":1750518545,"current_range_meters":0,"station_id":"ce4bhbp2rcd13ifvqerg","pricing_plan_id":"cebpf4jnsgd1na2vs0mg"},{"bike_id":"30a49f1c-0618-4466-9e22-71c258a195f2","system_id":"levelo_inurba_marseille","lat":43.26553,"lon":5.37287,"is_reserved":false,"is_disabled":true,"rental_uris":{"android":"levelo://app?vid=30a49f1c-0618-4466-9e22-71c258a195f2","ios":"levelo://app?vid=30a49f1c-0618-4466-9e22-71c258a195f2"},"vehicle_type_id":"4","last_reported":1750518545,"current_range_meters":0,"station_id":"ce4bhg12rcd13ifvqf70","pricing_plan_id":"cebpf4jnsgd1na2vs0mg"},{"bike_id":"7d1b1e7f-77c9-4155-a5c1-a020e967e197","system_id":"levelo_inurba_marseille","lat":43.24391,"lon":5.37069,"is_reserved":false,"is_disabled":true,"rental_uris":{"android":"levelo://app?vid=7d1b1e7f-77c9-4155-a5c1-a020e967e197","ios":"levelo://app?vid=7d1b1e7f-77c9-4155-a5c1-a020e967e197"},"vehicle_type_id":"4","last_reported":1750518545,"current_range_meters":0,"station_id":"ce4bhhh2rcd13ifvqfk0","pricing_plan_id":"cebpf4jnsgd1na2vs0mg"},{"bike_id":"0033a261-12c1-4b32-ad81-64f3c319e270","system_id":"levelo_inurba_marseille","lat":43.24389,"lon":5.37056,"is_reserved":false,"is_disabled":true,"rental_uris":{"android":"levelo://app?vid=0033a261-12c1-4b32-ad81-64f3c319e270","ios":"levelo://app?vid=0033a261-12c1-4b32-ad81-64f3c319e270"},"vehicle_type_id":"4","last_reported":1750518545,"current_range_meters":0,"station_id":"ce4bhhh2rcd13ifvqfk0","pricing_plan_id":"cebpf4jnsgd1na2vs0mg"},{"bike_id":"6ef07142-fb50-4716-ae2f-983da9dbe8b5","system_id":"levelo_inurba_marseille","lat":43.2512,"lon":5.40315,"is_reserved":false,"is_disabled":true,"rental_uris":{"android":"levelo://app?vid=6ef07142-fb50-4716-ae2f-983da9dbe8b5","ios":"levelo://app?vid=6ef07142-fb50-4716-ae2f-983da9dbe8b5"},"vehicle_type_id":"4","last_reported":1750518545,"current_range_meters":0,"station_id":"ce4bhlh2rcd13ifvqgig","pricing_plan_id":"cebpf4jnsgd1na2vs0mg"},{"bike_id":"a7c552d6-47ab-4572-8f4f-973eb90aa906","system_id":"levelo_inurba_marseille","lat":43.23154,"lon":5.43705,"is_reserved":false,"is_disabled":true,"rental_uris":{"android":"levelo://app?vid=a7c552d6-47ab-4572-8f4f-973eb90aa906","ios":"levelo://app?vid=a7c552d6-47ab-4572-8f4f-973eb90aa906"},"vehicle_type_id":"4","last_reported":1750518545,"current_range_meters":0,"station_id":"ce4bhmp2rcd13ifvqgog","pricing_plan_id":"cebpf4jnsgd1na2vs0mg"},{"bike_id":"bb3cd202-6182-45cd-bebd-08969d47cf1c","system_id":"levelo_inurba_marseille","lat":43.27949,"lon":5.41047,"is_reserved":false,"is_disabled":true,"rental_uris":{"android":"levelo://app?vid=bb3cd202-6182-45cd-bebd-08969d47cf1c","ios":"levelo://app?vid=bb3cd202-6182-45cd-bebd-08969d47cf1c"},"vehicle_type_id":"4","last_reported":1750518545,"current_range_meters":0,"station_id":"ce4bhnp2rcd13ifvqh0g","pricing_plan_id":"cebpf4jnsgd1na2vs0mg"},{"bike_id":"476d58ea-d400-4eac-9635-12af082c4521","system_id":"levelo_inurba_marseille","lat":43.30428,"lon":5.41281,"is_reserved":false,"is_disabled":true,"rental_uris":{"android":"levelo://app?vid=476d58ea-d400-4eac-9635-12af082c4521","ios":"levelo://app?vid=476d58ea-d400-4eac-9635-12af082c4521"},"vehicle_type_id":"4","last_reported":1750518545,"current_range_meters":0,"station_id":"ce4bhop2rcd13ifvqh8g","pricing_plan_id":"cebpf4jnsgd1na2vs0mg"},{"bike_id":"7313c8c7-9229-460b-bece-b81b75da75b0","system_id":"levelo_inurba_marseille","lat":43.286675,"lon":5.386722,"is_reserved":false,"is_disabled":true,"rental_uris":{"android":"levelo://app?vid=7313c8c7-9229-460b-bece-b81b75da75b0","ios":"levelo://app?vid=7313c8c7-9229-460b-bece-b81b75da75b0"},"vehicle_type_id":"4","last_reported":1750518545,"current_range_meters":400,"station_id":"ce4bh492rcd13ifvqdug","pricing_plan_id":"cebpf4jnsgd1na2vs0mg"},{"bike_id":"bb5f6eed-8e12-402d-ba6a-b9c1b19e2e0d","system_id":"levelo_inurba_marseille","lat":43.289247,"lon":5.384016,"is_reserved":false,"is_disabled":true,"rental_uris":{"android":"levelo://app?vid=bb5f6eed-8e12-402d-ba6a-b9c1b19e2e0d","ios":"levelo://app?vid=bb5f6eed-8e12-402d-ba6a-b9c1b19e2e0d"},"vehicle_type_id":"4","last_reported":1750518545,"current_range_meters":400,"station_id":"ce4bh612rcd13ifvqe6g","pricing_plan_id":"cebpf4jnsgd1na2vs0mg"},{"bike_id":"2ff6a68c-227b-4f50-b400-d5064dcb4572","system_id":"levelo_inurba_marseille","lat":43.28276,"lon":5.35065,"is_reserved":false,"is_disabled":true,"rental_uris":{"android":"levelo://app?vid=2ff6a68c-227b-4f50-b400-d5064dcb4572","ios":"levelo://app?vid=2ff6a68c-227b-4f50-b400-d5064dcb4572"},"vehicle_type_id":"4","last_reported":1750518545,"current_range_meters":400,"station_id":"ce4bhbp2rcd13ifvqerg","pricing_plan_id":"cebpf4jnsgd1na2vs0mg"},{"bike_id":"36646745-66df-4bc0-ba85-cd37321da72e","system_id":"levelo_inurba_marseille","lat":43.25867,"lon":5.39896,"is_reserved":false,"is_disabled":true,"rental_uris":{"android":"levelo://app?vid=36646745-66df-4bc0-ba85-cd37321da72e","ios":"levelo://app?vid=36646745-66df-4bc0-ba85-cd37321da72e"},"vehicle_type_id":"4","last_reported":1750518545,"current_range_meters":400,"station_id":"ce4bhl92rcd13ifvqghg","pricing_plan_id":"cebpf4jnsgd1na2vs0mg"},{"bike_id":"c82b4bd0-66b8-43ee-88a4-bc341aae99f8","system_id":"levelo_inurba_marseille","lat":43.25106,"lon":5.40336,"is_reserved":false,"is_disabled":true,"rental_uris":{"android":"levelo://app?vid=c82b4bd0-66b8-43ee-88a4-bc341aae99f8","ios":"levelo://app?vid=c82b4bd0-66b8-43ee-88a4-bc341aae99f8"},"vehicle_type_id":"4","last_reported":1750518545,"current_range_meters":800,"station_id":"ce4bhlh2rcd13ifvqgig","pricing_plan_id":"cebpf4jnsgd1na2vs0mg"},{"bike_id":"05e51855-0442-479b-98e5-ba9c6499bab0","system_id":"levelo_inurba_marseille","lat":43.23145,"lon":5.43715,"is_reserved":false,"is_disabled":true,"rental_uris":{"android":"levelo://app?vid=05e51855-0442-479b-98e5-ba9c6499bab0","ios":"levelo://app?vid=05e51855-0442-479b-98e5-ba9c6499bab0"},"vehicle_type_id":"4","last_reported":1750518545,"current_range_meters":800,"station_id":"ce4bhmp2rcd13ifvqgog","pricing_plan_id":"cebpf4jnsgd1na2vs0mg"},{"bike_id":"43f3207d-2a05-4f3a-81fd-4b72a345e0b7","system_id":"levelo_inurba_marseille","lat":43.28069,"lon":5.36656,"is_reserved":false,"is_disabled":true,"rental_uris":{"android":"levelo://app?vid=43f3207d-2a05-4f3a-81fd-4b72a345e0b7","ios":"levelo://app?vid=43f3207d-2a05-4f3a-81fd-4b72a345e0b7"},"vehicle_type_id":"4","last_reported":1750518545,"current_range_meters":1200,"station_id":"","pricing_plan_id":"cebpf4jnsgd1na2vs0mg"},{"bike_id":"35169c52-d0a7-419e-90a8-b96db2e496e5","system_id":"levelo_inurba_marseille","lat":43.30544,"lon":5.36561,"is_reserved":false,"is_disabled":true,"rental_uris":{"android":"levelo://app?vid=35169c52-d0a7-419e-90a8-b96db2e496e5","ios":"levelo://app?vid=35169c52-d0a7-419e-90a8-b96db2e496e5"},"vehicle_type_id":"4","last_reported":1750518545,"current_range_meters":1200,"station_id":"ce4bgs12rcd13ifvqcag","pricing_plan_id":"cebpf4jnsgd1na2vs0mg"},{"bike_id":"f8895b3a-d939-4862-a71e-ea036e6b80e7","system_id":"levelo_inurba_marseille","lat":43.290372,"lon":5.399641,"is_reserved":false,"is_disabled":true,"rental_uris":{"android":"levelo://app?vid=f8895b3a-d939-4862-a71e-ea036e6b80e7","ios":"levelo://app?vid=f8895b3a-d939-4862-a71e-ea036e6b80e7"},"vehicle_type_id":"4","last_reported":1750518545,"current_range_meters":1200,"station_id":"ce4bh392rcd13ifvqdm0","pricing_plan_id":"cebpf4jnsgd1na2vs0mg"},{"bike_id":"2b39c9a3-e266-4e44-bd7f-f2ab2bd5a211","system_id":"levelo_inurba_marseille","lat":43.28485,"lon":5.38415,"is_reserved":false,"is_disabled":true,"rental_uris":{"android":"levelo://app?vid=2b39c9a3-e266-4e44-bd7f-f2ab2bd5a211","ios":"levelo://app?vid=2b39c9a3-e266-4e44-bd7f-f2ab2bd5a211"},"vehicle_type_id":"4","last_reported":1750518545,"current_range_meters":1200,"station_id":"ce4bh512rcd13ifvqe3g","pricing_plan_id":"cebpf4jnsgd1na2vs0mg"},{"bike_id":"197cb7d5-0e73-4c67-bf33-b501fade47fd","system_id":"levelo_inurba_marseille","lat":43.28479,"lon":5.38427,"is_reserved":false,"is_disabled":true,"rental_uris":{"android":"levelo://app?vid=197cb7d5-0e73-4c67-bf33-b501fade47fd","ios":"levelo://app?vid=197cb7d5-0e73-4c67-bf33-b501fade47fd"},"vehicle_type_id":"4","last_reported":1750518545,"current_range_meters":1200,"station_id":"ce4bh512rcd13ifvqe3g","pricing_plan_id":"cebpf4jnsgd1na2vs0mg"},{"bike_id":"af825033-02cd-4a76-aad9-557193aaa86a","system_id":"levelo_inurba_marseille","lat":43.28268,"lon":5.35065,"is_reserved":false,"is_disabled":true,"rental_uris":{"android":"levelo://app?vid=af825033-02cd-4a76-aad9-557193aaa86a","ios":"levelo://app?vid=af825033-02cd-4a76-aad9-557193aaa86a"},"vehicle_type_id":"4","last_reported":1750518545,"current_range_meters":1200,"station_id":"ce4bhbp2rcd13ifvqerg","pricing_plan_id":"cebpf4jnsgd1na2vs0mg"},{"bike_id":"92c2bdf1-2fbc-4923-988c-f5bd8a547c0b","system_id":"levelo_inurba_marseille","lat":43.2694,"lon":5.40245,"is_reserved":false,"is_disabled":true,"rental_uris":{"android":"levelo://app?vid=92c2bdf1-2fbc-4923-988c-f5bd8a547c0b","ios":"levelo://app?vid=92c2bdf1-2fbc-4923-988c-f5bd8a547c0b"},"vehicle_type_id":"4","last_reported":1750518545,"current_range_meters":1200,"station_id":"cjm6bp8fraef2m0cb0m0","pricing_plan_id":"cebpf4jnsgd1na2vs0mg"},{"bike_id":"fcc0d248-6487-4fae-8ee7-f277a38f3302","system_id":"levelo_inurba_marseille","lat":43.21194,"lon":5.35063,"is_reserved":false,"is_disabled":true,"rental_uris":{"android":"levelo://app?vid=fcc0d248-6487-4fae-8ee7-f277a38f3302","ios":"levelo://app?vid=fcc0d248-6487-4fae-8ee7-f277a38f3302"},"vehicle_type_id":"4","last_reported":1750518545,"current_range_meters":1200,"station_id":"st_cvj6sg6p6f1abm77japg","pricing_plan_id":"cebpf4jnsgd1na2vs0mg"},{"bike_id":"353fd970-93f9-4734-9e82-7735651a6d25","system_id":"levelo_inurba_marseille","lat":43.295243,"lon":5.385388,"is_reserved":false,"is_disabled":true,"rental_uris":{"android":"levelo://app?vid=353fd970-93f9-4734-9e82-7735651a6d25","ios":"levelo://app?vid=353fd970-93f9-4734-9e82-7735651a6d25"},"vehicle_type_id":"4","last_reported":1750518545,"current_range_meters":1600,"station_id":"ce4bgih2rcd13ifvqba0","pricing_plan_id":"cebpf4jnsgd1na2vs0mg"},{"bike_id":"6c0deee2-3e55-4ce7-8f99-4e8439e27cee","system_id":"levelo_inurba_marseille","lat":43.29196,"lon":5.3932,"is_reserved":false,"is_disabled":true,"rental_uris":{"android":"levelo://app?vid=6c0deee2-3e55-4ce7-8f99-4e8439e27cee","ios":"levelo://app?vid=6c0deee2-3e55-4ce7-8f99-4e8439e27cee"},"vehicle_type_id":"4","last_reported":1750518545,"current_range_meters":1600,"station_id":"ce4bh192rcd13ifvqdd0","pricing_plan_id":"cebpf4jnsgd1na2vs0mg"},{"bike_id":"058626c9-ff66-4f8a-87d2-1eb55b15b0d8","system_id":"levelo_inurba_marseille","lat":43.26559,"lon":5.37285,"is_reserved":false,"is_disabled":true,"rental_uris":{"android":"levelo://app?vid=058626c9-ff66-4f8a-87d2-1eb55b15b0d8","ios":"levelo://app?vid=058626c9-ff66-4f8a-87d2-1eb55b15b0d8"},"vehicle_type_id":"4","last_reported":1750518545,"current_range_meters":1600,"station_id":"ce4bhg12rcd13ifvqf70","pricing_plan_id":"cebpf4jnsgd1na2vs0mg"},{"bike_id":"2f05ad58-cb48-43c4-b808-e03628bfcc9c","system_id":"levelo_inurba_marseille","lat":43.276723,"lon":5.388579,"is_reserved":false,"is_disabled":true,"rental_uris":{"android":"levelo://app?vid=2f05ad58-cb48-43c4-b808-e03628bfcc9c","ios":"levelo://app?vid=2f05ad58-cb48-43c4-b808-e03628bfcc9c"},"vehicle_type_id":"4","last_reported":1750518545,"current_range_meters":1600,"station_id":"ce4bhh92rcd13ifvqfi0","pricing_plan_id":"cebpf4jnsgd1na2vs0mg"},{"bike_id":"b8037ea3-a9ef-4c66-8648-13ad5606c7f4","system_id":"levelo_inurba_marseille","lat":43.31986,"lon":5.38139,"is_reserved":false,"is_disabled":true,"rental_uris":{"android":"levelo://app?vid=b8037ea3-a9ef-4c66-8648-13ad5606c7f4","ios":"levelo://app?vid=b8037ea3-a9ef-4c66-8648-13ad5606c7f4"},"vehicle_type_id":"4","last_reported":1750518545,"current_range_meters":1600,"station_id":"ce4bhr12rcd13ifvqhpg","pricing_plan_id":"cebpf4jnsgd1na2vs0mg"},{"bike_id":"e8b2899a-4211-4f31-b803-6ec5b4d26202","system_id":"levelo_inurba_marseille","lat":43.27562,"lon":5.39681,"is_reserved":false,"is_disabled":true,"rental_uris":{"android":"levelo://app?vid=e8b2899a-4211-4f31-b803-6ec5b4d26202","ios":"levelo://app?vid=e8b2899a-4211-4f31-b803-6ec5b4d26202"},"vehicle_type_id":"4","last_reported":1750518545,"current_range_meters":2000,"station_id":"","pricing_plan_id":"cebpf4jnsgd1na2vs0mg"},{"bike_id":"ad73598d-b5a6-4359-9eb7-25e0fecfe622","system_id":"levelo_inurba_marseille","lat":43.2931,"lon":5.37172,"is_reserved":false,"is_disabled":true,"rental_uris":{"android":"levelo://app?vid=ad73598d-b5a6-4359-9eb7-25e0fecfe622","ios":"levelo://app?vid=ad73598d-b5a6-4359-9eb7-25e0fecfe622"},"vehicle_type_id":"4","last_reported":1750518545,"current_range_meters":2000,"station_id":"ce4bgh92rcd13ifvqb40","pricing_plan_id":"cebpf4jnsgd1na2vs0mg"},{"bike_id":"15a0bc79-ab92-4095-a039-3414d8278d65","system_id":"levelo_inurba_marseille","lat":43.298055,"lon":5.380934,"is_reserved":false,"is_disabled":false,"rental_uris":{"android":"levelo://app?vid=15a0bc79-ab92-4095-a039-3414d8278d65","ios":"levelo://app?vid=15a0bc79-ab92-4095-a039-3414d8278d65"},"vehicle_type_id":"4","last_reported":1750518545,"current_range_meters":2000,"station_id":"ce4bgip2rcd13ifvqbb0","pricing_plan_id":"cebpf4jnsgd1na2vs0mg"},{"bike_id":"e17a5ca0-088a-462b-bbba-0bdbdd1c047d","system_id":"levelo_inurba_marseille","lat":43.30538,"lon":5.36714,"is_reserved":false,"is_disabled":false,"rental_uris":{"android":"levelo://app?vid=e17a5ca0-088a-462b-bbba-0bdbdd1c047d","ios":"levelo://app?vid=e17a5ca0-088a-462b-bbba-0bdbdd1c047d"},"vehicle_type_id":"4","last_reported":1750518545,"current_range_meters":2000,"station_id":"ce4bgrp2rcd13ifvqc9g","pricing_plan_id":"cebpf4jnsgd1na2vs0mg"},{"bike_id":"34eec8b4-a19b-428a-8192-762435f19a4f","system_id":"levelo_inurba_marseille","lat":43.31114,"lon":5.37773,"is_reserved":false,"is_disabled":true,"rental_uris":{"android":"levelo://app?vid=34eec8b4-a19b-428a-8192-762435f19a4f","ios":"levelo://app?vid=34eec8b4-a19b-428a-8192-762435f19a4f"},"vehicle_type_id":"4","last_reported":1750518545,"current_range_meters":2000,"station_id":"ce4bgt92rcd13ifvqcg0","pricing_plan_id":"cebpf4jnsgd1na2vs0mg"},{"bike_id":"7eee80c5-647e-453d-a4d9-661540a81d40","system_id":"levelo_inurba_marseille","lat":43.29275,"lon":5.36845,"is_reserved":false,"is_disabled":true,"rental_uris":{"android":"levelo://app?vid=7eee80c5-647e-453d-a4d9-661540a81d40","ios":"levelo://app?vid=7eee80c5-647e-453d-a4d9-661540a81d40"},"vehicle_type_id":"4","last_reported":1750518545,"current_range_meters":2000,"station_id":"ce4bhbp2rcd13ifvqesg","pricing_plan_id":"cebpf4jnsgd1na2vs0mg"},{"bike_id":"23682b1b-60a3-4160-a7d7-0373da48eacc","system_id":"levelo_inurba_marseille","lat":43.23197,"lon":5.35553,"is_reserved":false,"is_disabled":true,"rental_uris":{"android":"levelo://app?vid=23682b1b-60a3-4160-a7d7-0373da48eacc","ios":"levelo://app?vid=23682b1b-60a3-4160-a7d7-0373da48eacc"},"vehicle_type_id":"4","last_reported":1750518545,"current_range_meters":2000,"station_id":"ce4bhu92rcd13ifvqi70","pricing_plan_id":"cebpf4jnsgd1na2vs0mg"},{"bike_id":"dd45b830-666c-4c76-b06e-9938bffa2cad","system_id":"levelo_inurba_marseille","lat":43.31953,"lon":5.37538,"is_reserved":false,"is_disabled":false,"rental_uris":{"android":"levelo://app?vid=dd45b830-666c-4c76-b06e-9938bffa2cad","ios":"levelo://app?vid=dd45b830-666c-4c76-b06e-9938bffa2cad"},"vehicle_type_id":"4","last_reported":1750518545,"current_range_meters":2800,"station_id":"","pricing_plan_id":"cebpf4jnsgd1na2vs0mg"},{"bike_id":"5fc18bad-e2d9-48fa-9c8e-205611cc6aa1","system_id":"levelo_inurba_marseille","lat":43.30593,"lon":5.39363,"is_reserved":false,"is_disabled":false,"rental_uris":{"android":"levelo://app?vid=5fc18bad-e2d9-48fa-9c8e-205611cc6aa1","ios":"levelo://app?vid=5fc18bad-e2d9-48fa-9c8e-205611cc6aa1"},"vehicle_type_id":"4","last_reported":1750518545,"current_range_meters":2800,"station_id":"ce4bh0p2rcd13ifvqd80","pricing_plan_id":"cebpf4jnsgd1na2vs0mg"},{"bike_id":"dfc95747-906b-4839-aed9-6182ee5bbcee","system_id":"levelo_inurba_marseille","lat":43.279197,"lon":5.3958,"is_reserved":false,"is_disabled":false,"rental_uris":{"android":"levelo://app?vid=dfc95747-906b-4839-aed9-6182ee5bbcee","ios":"levelo://app?vid=dfc95747-906b-4839-aed9-6182ee5bbcee"},"vehicle_type_id":"4","last_reported":1750518545,"current_range_meters":2800,"station_id":"ce4bhf92rcd13ifvqf40","pricing_plan_id":"cebpf4jnsgd1na2vs0mg"},{"bike_id":"4973d800-7bae-4e8a-9f82-8df13b8e6e30","system_id":"levelo_inurba_marseille","lat":43.23152,"lon":5.43719,"is_reserved":false,"is_disabled":false,"rental_uris":{"android":"levelo://app?vid=4973d800-7bae-4e8a-9f82-8df13b8e6e30","ios":"levelo://app?vid=4973d800-7bae-4e8a-9f82-8df13b8e6e30"},"vehicle_type_id":"4","last_reported":1750518545,"current_range_meters":2800,"station_id":"ce4bhmp2rcd13ifvqgog","pricing_plan_id":"cebpf4jnsgd1na2vs0mg"},{"bike_id":"759050cc-0db1-44e1-a508-9a4594599b49","system_id":"levelo_inurba_marseille","lat":43.27813,"lon":5.40719,"is_reserved":false,"is_disabled":false,"rental_uris":{"android":"levelo://app?vid=759050cc-0db1-44e1-a508-9a4594599b49","ios":"levelo://app?vid=759050cc-0db1-44e1-a508-9a4594599b49"},"vehicle_type_id":"4","last_reported":1750518545,"current_range_meters":2800,"station_id":"ce4bhnh2rcd13ifvqgtg","pricing_plan_id":"cebpf4jnsgd1na2vs0mg"},{"bike_id":"b89de80f-127e-4446-a39a-f6a8d63b4ea2","system_id":"levelo_inurba_marseille","lat":43.29368,"lon":5.37288,"is_reserved":false,"is_disabled":false,"rental_uris":{"android":"levelo://app?vid=b89de80f-127e-4446-a39a-f6a8d63b4ea2","ios":"levelo://app?vid=b89de80f-127e-4446-a39a-f6a8d63b4ea2"},"vehicle_type_id":"4","last_reported":1750518545,"current_range_meters":3200,"station_id":"","pricing_plan_id":"cebpf4jnsgd1na2vs0mg"},{"bike_id":"35cb0325-70f2-4890-bc7f-a374885a6065","system_id":"levelo_inurba_marseille","lat":43.24552,"lon":5.37274,"is_reserved":false,"is_disabled":false,"rental_uris":{"android":"levelo://app?vid=35cb0325-70f2-4890-bc7f-a374885a6065","ios":"levelo://app?vid=35cb0325-70f2-4890-bc7f-a374885a6065"},"vehicle_type_id":"4","last_reported":1750518545,"current_range_meters":3200,"station_id":"","pricing_plan_id":"cebpf4jnsgd1na2vs0mg"},{"bike_id":"2f96e3ab-ffc5-485b-9014-fec424847e8c","system_id":"levelo_inurba_marseille","lat":43.24408,"lon":5.37036,"is_reserved":false,"is_disabled":false,"rental_uris":{"android":"levelo://app?vid=2f96e3ab-ffc5-485b-9014-fec424847e8c","ios":"levelo://app?vid=2f96e3ab-ffc5-485b-9014-fec424847e8c"},"vehicle_type_id":"4","last_reported":1750518545,"current_range_meters":3200,"station_id":"ce4bhhh2rcd13ifvqfk0","pricing_plan_id":"cebpf4jnsgd1na2vs0mg"},{"bike_id":"7fdc03af-08d1-47b4-ab9e-7a31d6102232","system_id":"levelo_inurba_marseille","lat":43.302983,"lon":5.392195,"is_reserved":false,"is_disabled":false,"rental_uris":{"android":"levelo://app?vid=7fdc03af-08d1-47b4-ab9e-7a31d6102232","ios":"levelo://app?vid=7fdc03af-08d1-47b4-ab9e-7a31d6102232"},"vehicle_type_id":"4","last_reported":1750518545,"current_range_meters":3600,"station_id":"ce4bgkh2rcd13ifvqbk0","pricing_plan_id":"cebpf4jnsgd1na2vs0mg"},{"bike_id":"bd9f0074-e70f-4e20-bde5-4112dcc5c5fa","system_id":"levelo_inurba_marseille","lat":43.31075,"lon":5.38354,"is_reserved":false,"is_disabled":false,"rental_uris":{"android":"levelo://app?vid=bd9f0074-e70f-4e20-bde5-4112dcc5c5fa","ios":"levelo://app?vid=bd9f0074-e70f-4e20-bde5-4112dcc5c5fa"},"vehicle_type_id":"4","last_reported":1750518545,"current_range_meters":3600,"station_id":"ce4bgv92rcd13ifvqcr0","pricing_plan_id":"cebpf4jnsgd1na2vs0mg"},{"bike_id":"7a66cb9b-6f79-43e0-9070-0b20a2391a35","system_id":"levelo_inurba_marseille","lat":43.290778,"lon":5.371578,"is_reserved":false,"is_disabled":false,"rental_uris":{"android":"levelo://app?vid=7a66cb9b-6f79-43e0-9070-0b20a2391a35","ios":"levelo://app?vid=7a66cb9b-6f79-43e0-9070-0b20a2391a35"},"vehicle_type_id":"4","last_reported":1750518545,"current_range_meters":3600,"station_id":"ce4bh5p2rcd13ifvqe4g","pricing_plan_id":"cebpf4jnsgd1na2vs0mg"},{"bike_id":"06d12f31-7e75-4d55-b6a3-2a402def1554","system_id":"levelo_inurba_marseille","lat":43.26201,"lon":5.37933,"is_reserved":false,"is_disabled":false,"rental_uris":{"android":"levelo://app?vid=06d12f31-7e75-4d55-b6a3-2a402def1554","ios":"levelo://app?vid=06d12f31-7e75-4d55-b6a3-2a402def1554"},"vehicle_type_id":"4","last_reported":1750518545,"current_range_meters":3600,"station_id":"ce4bhjp2rcd13ifvqg90","pricing_plan_id":"cebpf4jnsgd1na2vs0mg"},{"bike_id":"0ae0a5e2-4172-42fc-b67e-dcb70ad4d289","system_id":"levelo_inurba_marseille","lat":43.267446,"lon":5.422047,"is_reserved":false,"is_disabled":false,"rental_uris":{"android":"levelo://app?vid=0ae0a5e2-4172-42fc-b67e-dcb70ad4d289","ios":"levelo://app?vid=0ae0a5e2-4172-42fc-b67e-dcb70ad4d289"},"vehicle_type_id":"4","last_reported":1750518545,"current_range_meters":4000,"station_id":"","pricing_plan_id":"cebpf4jnsgd1na2vs0mg"},{"bike_id":"ce50b279-349c-4e9c-a068-c1d9b0dec4dc","system_id":"levelo_inurba_marseille","lat":43.29576,"lon":5.37513,"is_reserved":false,"is_disabled":false,"rental_uris":{"android":"levelo://app?vid=ce50b279-349c-4e9c-a068-c1d9b0dec4dc","ios":"levelo://app?vid=ce50b279-349c-4e9c-a068-c1d9b0dec4dc"},"vehicle_type_id":"4","last_reported":1750518545,"current_range_meters":4000,"station_id":"ce4bgh92rcd13ifvqb50","pricing_plan_id":"cebpf4jnsgd1na2vs0mg"},{"bike_id":"92b11a91-7bc7-4890-afd3-639a2317a59a","system_id":"levelo_inurba_marseille","lat":43.29231,"lon":5.36074,"is_reserved":false,"is_disabled":false,"rental_uris":{"android":"levelo://app?vid=92b11a91-7bc7-4890-afd3-639a2317a59a","ios":"levelo://app?vid=92b11a91-7bc7-4890-afd3-639a2317a59a"},"vehicle_type_id":"4","last_reported":1750518545,"current_range_meters":4400,"station_id":"ce4bhbh2rcd13ifvqeqg","pricing_plan_id":"cebpf4jnsgd1na2vs0mg"},{"bike_id":"b388e53b-de48-427b-8e9b-348b36b57f00","system_id":"levelo_inurba_marseille","lat":43.231995,"lon":5.355513,"is_reserved":false,"is_disabled":false,"rental_uris":{"android":"levelo://app?vid=b388e53b-de48-427b-8e9b-348b36b57f00","ios":"levelo://app?vid=b388e53b-de48-427b-8e9b-348b36b57f00"},"vehicle_type_id":"4","last_reported":1750518545,"current_range_meters":4400,"station_id":"ce4bhu92rcd13ifvqi70","pricing_plan_id":"cebpf4jnsgd1na2vs0mg"},{"bike_id":"428fcb0b-c3aa-4119-aa12-cd281cc585d2","system_id":"levelo_inurba_marseille","lat":43.27916,"lon":5.42259,"is_reserved":false,"is_disabled":false,"rental_uris":{"android":"levelo://app?vid=428fcb0b-c3aa-4119-aa12-cd281cc585d2","ios":"levelo://app?vid=428fcb0b-c3aa-4119-aa12-cd281cc585d2"},"vehicle_type_id":"4","last_reported":1750518545,"current_range_meters":4800,"station_id":"","pricing_plan_id":"cebpf4jnsgd1na2vs0mg"},{"bike_id":"e83be72e-fc67-4041-969d-b165f2749d30","system_id":"levelo_inurba_marseille","lat":43.28416,"lon":5.34983,"is_reserved":false,"is_disabled":false,"rental_uris":{"android":"levelo://app?vid=e83be72e-fc67-4041-969d-b165f2749d30","ios":"levelo://app?vid=e83be72e-fc67-4041-969d-b165f2749d30"},"vehicle_type_id":"4","last_reported":1750518545,"current_range_meters":4800,"station_id":"ce4bhbh2rcd13ifvqepg","pricing_plan_id":"cebpf4jnsgd1na2vs0mg"},{"bike_id":"5f56fb5e-555a-40be-aed6-110d885cb1fe","system_id":"levelo_inurba_marseille","lat":43.262119,"lon":5.374394,"is_reserved":false,"is_disabled":false,"rental_uris":{"android":"levelo://app?vid=5f56fb5e-555a-40be-aed6-110d885cb1fe","ios":"levelo://app?vid=5f56fb5e-555a-40be-aed6-110d885cb1fe"},"vehicle_type_id":"4","last_reported":1750518545,"current_range_meters":4800,"station_id":"ce4bhgp2rcd13ifvqfc0","pricing_plan_id":"cebpf4jnsgd1na2vs0mg"},{"bike_id":"4ecadb10-cccd-4178-a7d8-dd9fe7b6d391","system_id":"levelo_inurba_marseille","lat":43.29379,"lon":5.40151,"is_reserved":false,"is_disabled":false,"rental_uris":{"android":"levelo://app?vid=4ecadb10-cccd-4178-a7d8-dd9fe7b6d391","ios":"levelo://app?vid=4ecadb10-cccd-4178-a7d8-dd9fe7b6d391"},"vehicle_type_id":"4","last_reported":1750518545,"current_range_meters":5600,"station_id":"","pricing_plan_id":"cebpf4jnsgd1na2vs0mg"},{"bike_id":"fbe532e7-2f52-46dc-822c-1466686be8c5","system_id":"levelo_inurba_marseille","lat":43.300921,"lon":5.405418,"is_reserved":false,"is_disabled":false,"rental_uris":{"android":"levelo://app?vid=fbe532e7-2f52-46dc-822c-1466686be8c5","ios":"levelo://app?vid=fbe532e7-2f52-46dc-822c-1466686be8c5"},"vehicle_type_id":"4","last_reported":1750518545,"current_range_meters":5600,"station_id":"","pricing_plan_id":"cebpf4jnsgd1na2vs0mg"},{"bike_id":"d85c3b13-be3c-4200-bfe0-5db08f6dbcdf","system_id":"levelo_inurba_marseille","lat":43.26956,"lon":5.38632,"is_reserved":false,"is_disabled":false,"rental_uris":{"android":"levelo://app?vid=d85c3b13-be3c-4200-bfe0-5db08f6dbcdf","ios":"levelo://app?vid=d85c3b13-be3c-4200-bfe0-5db08f6dbcdf"},"vehicle_type_id":"4","last_reported":1750518545,"current_range_meters":5600,"station_id":"ce4bhh92rcd13ifvqfh0","pricing_plan_id":"cebpf4jnsgd1na2vs0mg"},{"bike_id":"5c36a3c8-5ae8-4eea-ab45-f9a865a01ceb","system_id":"levelo_inurba_marseille","lat":43.25089,"lon":5.39523,"is_reserved":false,"is_disabled":false,"rental_uris":{"android":"levelo://app?vid=5c36a3c8-5ae8-4eea-ab45-f9a865a01ceb","ios":"levelo://app?vid=5c36a3c8-5ae8-4eea-ab45-f9a865a01ceb"},"vehicle_type_id":"4","last_reported":1750518545,"current_range_meters":5600,"station_id":"ce4bhm12rcd13ifvqgkg","pricing_plan_id":"cebpf4jnsgd1na2vs0mg"},{"bike_id":"91b5ce20-2f30-4177-9328-12683a7e3d65","system_id":"levelo_inurba_marseille","lat":43.29531,"lon":5.38544,"is_reserved":false,"is_disabled":false,"rental_uris":{"android":"levelo://app?vid=91b5ce20-2f30-4177-9328-12683a7e3d65","ios":"levelo://app?vid=91b5ce20-2f30-4177-9328-12683a7e3d65"},"vehicle_type_id":"4","last_reported":1750518545,"current_range_meters":6400,"station_id":"ce4bgih2rcd13ifvqba0","pricing_plan_id":"cebpf4jnsgd1na2vs0mg"},{"bike_id":"e4d6d68f-883f-494b-a531-b38a8a05c4c3","system_id":"levelo_inurba_marseille","lat":43.28616,"lon":5.35108,"is_reserved":false,"is_disabled":false,"rental_uris":{"android":"levelo://app?vid=e4d6d68f-883f-494b-a531-b38a8a05c4c3","ios":"levelo://app?vid=e4d6d68f-883f-494b-a531-b38a8a05c4c3"},"vehicle_type_id":"4","last_reported":1750518545,"current_range_meters":6400,"station_id":"ce4bhch2rcd13ifvqeug","pricing_plan_id":"cebpf4jnsgd1na2vs0mg"},{"bike_id":"2b15cd5e-1208-4f7e-975f-d61ae6e4feb2","system_id":"levelo_inurba_marseille","lat":43.24993,"lon":5.38934,"is_reserved":false,"is_disabled":false,"rental_uris":{"android":"levelo://app?vid=2b15cd5e-1208-4f7e-975f-d61ae6e4feb2","ios":"levelo://app?vid=2b15cd5e-1208-4f7e-975f-d61ae6e4feb2"},"vehicle_type_id":"4","last_reported":1750518545,"current_range_meters":6800,"station_id":"ce4bhgp2rcd13ifvqfd0","pricing_plan_id":"cebpf4jnsgd1na2vs0mg"},{"bike_id":"040977a8-13c0-45f8-878b-41dbebdc1a7e","system_id":"levelo_inurba_marseille","lat":43.299015,"lon":5.436577,"is_reserved":false,"is_disabled":false,"rental_uris":{"android":"levelo://app?vid=040977a8-13c0-45f8-878b-41dbebdc1a7e","ios":"levelo://app?vid=040977a8-13c0-45f8-878b-41dbebdc1a7e"},"vehicle_type_id":"4","last_reported":1750518545,"current_range_meters":6800,"station_id":"ce4bhpp2rcd13ifvqhfg","pricing_plan_id":"cebpf4jnsgd1na2vs0mg"},{"bike_id":"68b0a320-aa97-4c77-a84d-bdcdfc4e0ab5","system_id":"levelo_inurba_marseille","lat":43.24152,"lon":5.36451,"is_reserved":false,"is_disabled":false,"rental_uris":{"android":"levelo://app?vid=68b0a320-aa97-4c77-a84d-bdcdfc4e0ab5","ios":"levelo://app?vid=68b0a320-aa97-4c77-a84d-bdcdfc4e0ab5"},"vehicle_type_id":"4","last_reported":1750518545,"current_range_meters":6800,"station_id":"cpo36qri1sfpv3e86is0","pricing_plan_id":"cebpf4jnsgd1na2vs0mg"},{"bike_id":"c4aaca1e-5be8-40fb-9d9f-d05a82b8903f","system_id":"levelo_inurba_marseille","lat":43.28611,"lon":5.35105,"is_reserved":false,"is_disabled":false,"rental_uris":{"android":"levelo://app?vid=c4aaca1e-5be8-40fb-9d9f-d05a82b8903f","ios":"levelo://app?vid=c4aaca1e-5be8-40fb-9d9f-d05a82b8903f"},"vehicle_type_id":"4","last_reported":1750518545,"current_range_meters":7200,"station_id":"ce4bhch2rcd13ifvqeug","pricing_plan_id":"cebpf4jnsgd1na2vs0mg"},{"bike_id":"dd97fe01-ec71-41d6-9ad9-ab6139bb7f1c","system_id":"levelo_inurba_marseille","lat":43.27665,"lon":5.3888,"is_reserved":false,"is_disabled":false,"rental_uris":{"android":"levelo://app?vid=dd97fe01-ec71-41d6-9ad9-ab6139bb7f1c","ios":"levelo://app?vid=dd97fe01-ec71-41d6-9ad9-ab6139bb7f1c"},"vehicle_type_id":"4","last_reported":1750518545,"current_range_meters":7200,"station_id":"ce4bhi12rcd13ifvqfo0","pricing_plan_id":"cebpf4jnsgd1na2vs0mg"},{"bike_id":"eb708a20-d1b9-4d97-9e32-c1ba7d416bea","system_id":"levelo_inurba_marseille","lat":43.230676,"lon":5.354946,"is_reserved":false,"is_disabled":false,"rental_uris":{"android":"levelo://app?vid=eb708a20-d1b9-4d97-9e32-c1ba7d416bea","ios":"levelo://app?vid=eb708a20-d1b9-4d97-9e32-c1ba7d416bea"},"vehicle_type_id":"4","last_reported":1750518545,"current_range_meters":7200,"station_id":"cpo3342slgdg3j2ifvpg","pricing_plan_id":"cebpf4jnsgd1na2vs0mg"},{"bike_id":"5a50ea54-b463-4b0f-842d-6474f00b95ff","system_id":"levelo_inurba_marseille","lat":43.28484,"lon":5.38411,"is_reserved":false,"is_disabled":false,"rental_uris":{"android":"levelo://app?vid=5a50ea54-b463-4b0f-842d-6474f00b95ff","ios":"levelo://app?vid=5a50ea54-b463-4b0f-842d-6474f00b95ff"},"vehicle_type_id":"4","last_reported":1750518545,"current_range_meters":8000,"station_id":"ce4bh512rcd13ifvqe3g","pricing_plan_id":"cebpf4jnsgd1na2vs0mg"},{"bike_id":"7e22e340-af55-463e-9320-05371a44f63a","system_id":"levelo_inurba_marseille","lat":43.28267,"lon":5.3506,"is_reserved":false,"is_disabled":false,"rental_uris":{"android":"levelo://app?vid=7e22e340-af55-463e-9320-05371a44f63a","ios":"levelo://app?vid=7e22e340-af55-463e-9320-05371a44f63a"},"vehicle_type_id":"4","last_reported":1750518545,"current_range_meters":8000,"station_id":"ce4bhbp2rcd13ifvqerg","pricing_plan_id":"cebpf4jnsgd1na2vs0mg"},{"bike_id":"46740f78-cafa-41c4-932a-e59289832922","system_id":"levelo_inurba_marseille","lat":43.231781,"lon":5.399847,"is_reserved":false,"is_disabled":false,"rental_uris":{"android":"levelo://app?vid=46740f78-cafa-41c4-932a-e59289832922","ios":"levelo://app?vid=46740f78-cafa-41c4-932a-e59289832922"},"vehicle_type_id":"4","last_reported":1750518545,"current_range_meters":8000,"station_id":"ce4bhn12rcd13ifvqgqg","pricing_plan_id":"cebpf4jnsgd1na2vs0mg"},{"bike_id":"cc554f2f-8737-4971-881e-eff8120e96eb","system_id":"levelo_inurba_marseille","lat":43.32381,"lon":5.36772,"is_reserved":false,"is_disabled":false,"rental_uris":{"android":"levelo://app?vid=cc554f2f-8737-4971-881e-eff8120e96eb","ios":"levelo://app?vid=cc554f2f-8737-4971-881e-eff8120e96eb"},"vehicle_type_id":"4","last_reported":1750518545,"current_range_meters":8000,"station_id":"ce4bhsh2rcd13ifvqi2g","pricing_plan_id":"cebpf4jnsgd1na2vs0mg"},{"bike_id":"8860dcee-e3d8-4b89-982d-9eae459857ac","system_id":"levelo_inurba_marseille","lat":43.24161,"lon":5.36394,"is_reserved":false,"is_disabled":false,"rental_uris":{"android":"levelo://app?vid=8860dcee-e3d8-4b89-982d-9eae459857ac","ios":"levelo://app?vid=8860dcee-e3d8-4b89-982d-9eae459857ac"},"vehicle_type_id":"4","last_reported":1750518545,"current_range_meters":8000,"station_id":"cpo36qri1sfpv3e86is0","pricing_plan_id":"cebpf4jnsgd1na2vs0mg"},{"bike_id":"b50ed994-fd88-4dd1-8846-dc2bf2666662","system_id":"levelo_inurba_marseille","lat":43.30565,"lon":5.400965,"is_reserved":false,"is_disabled":false,"rental_uris":{"android":"levelo://app?vid=b50ed994-fd88-4dd1-8846-dc2bf2666662","ios":"levelo://app?vid=b50ed994-fd88-4dd1-8846-dc2bf2666662"},"vehicle_type_id":"4","last_reported":1750518545,"current_range_meters":8400,"station_id":"","pricing_plan_id":"cebpf4jnsgd1na2vs0mg"},{"bike_id":"c595d0e1-c778-4abe-9c79-a9dd74f54e27","system_id":"levelo_inurba_marseille","lat":43.245,"lon":5.37204,"is_reserved":false,"is_disabled":false,"rental_uris":{"android":"levelo://app?vid=c595d0e1-c778-4abe-9c79-a9dd74f54e27","ios":"levelo://app?vid=c595d0e1-c778-4abe-9c79-a9dd74f54e27"},"vehicle_type_id":"4","last_reported":1750518545,"current_range_meters":8400,"station_id":"","pricing_plan_id":"cebpf4jnsgd1na2vs0mg"},{"bike_id":"3f77d5a5-9692-4aed-8d34-6d9078a15a40","system_id":"levelo_inurba_marseille","lat":43.29164,"lon":5.37165,"is_reserved":false,"is_disabled":false,"rental_uris":{"android":"levelo://app?vid=3f77d5a5-9692-4aed-8d34-6d9078a15a40","ios":"levelo://app?vid=3f77d5a5-9692-4aed-8d34-6d9078a15a40"},"vehicle_type_id":"4","last_reported":1750518545,"current_range_meters":8400,"station_id":"ce4bha92rcd13ifvqeh0","pricing_plan_id":"cebpf4jnsgd1na2vs0mg"},{"bike_id":"d3dd21b4-659b-4e0e-8fb5-8d1822ff91f4","system_id":"levelo_inurba_marseille","lat":43.28464,"lon":5.35888,"is_reserved":false,"is_disabled":false,"rental_uris":{"android":"levelo://app?vid=d3dd21b4-659b-4e0e-8fb5-8d1822ff91f4","ios":"levelo://app?vid=d3dd21b4-659b-4e0e-8fb5-8d1822ff91f4"},"vehicle_type_id":"4","last_reported":1750518545,"current_range_meters":8400,"station_id":"ce4bhah2rcd13ifvqei0","pricing_plan_id":"cebpf4jnsgd1na2vs0mg"},{"bike_id":"a2ada43a-06ca-4420-b396-7bfa1def8b14","system_id":"levelo_inurba_marseille","lat":43.29194,"lon":5.35798,"is_reserved":false,"is_disabled":false,"rental_uris":{"android":"levelo://app?vid=a2ada43a-06ca-4420-b396-7bfa1def8b14","ios":"levelo://app?vid=a2ada43a-06ca-4420-b396-7bfa1def8b14"},"vehicle_type_id":"4","last_reported":1750518545,"current_range_meters":8400,"station_id":"ce4bhb12rcd13ifvqel0","pricing_plan_id":"cebpf4jnsgd1na2vs0mg"},{"bike_id":"bfb5813c-f2a6-4c90-8fc7-5ca0e4b24ddc","system_id":"levelo_inurba_marseille","lat":43.23168,"lon":5.43713,"is_reserved":false,"is_disabled":false,"rental_uris":{"android":"levelo://app?vid=bfb5813c-f2a6-4c90-8fc7-5ca0e4b24ddc","ios":"levelo://app?vid=bfb5813c-f2a6-4c90-8fc7-5ca0e4b24ddc"},"vehicle_type_id":"4","last_reported":1750518545,"current_range_meters":8400,"station_id":"ce4bhmp2rcd13ifvqgog","pricing_plan_id":"cebpf4jnsgd1na2vs0mg"},{"bike_id":"4996842c-f205-477f-bd0b-21e6e5fef852","system_id":"levelo_inurba_marseille","lat":43.30896,"lon":5.39638,"is_reserved":false,"is_disabled":false,"rental_uris":{"android":"levelo://app?vid=4996842c-f205-477f-bd0b-21e6e5fef852","ios":"levelo://app?vid=4996842c-f205-477f-bd0b-21e6e5fef852"},"vehicle_type_id":"4","last_reported":1750518545,"current_range_meters":8800,"station_id":"ce4bh012rcd13ifvqcv0","pricing_plan_id":"cebpf4jnsgd1na2vs0mg"},{"bike_id":"9d1732bd-cd5c-49dc-a753-9b1f08ef90e0","system_id":"levelo_inurba_marseille","lat":43.26194,"lon":5.37476,"is_reserved":false,"is_disabled":false,"rental_uris":{"android":"levelo://app?vid=9d1732bd-cd5c-49dc-a753-9b1f08ef90e0","ios":"levelo://app?vid=9d1732bd-cd5c-49dc-a753-9b1f08ef90e0"},"vehicle_type_id":"4","last_reported":1750518545,"current_range_meters":8800,"station_id":"ce4bhgp2rcd13ifvqfc0","pricing_plan_id":"cebpf4jnsgd1na2vs0mg"},{"bike_id":"89ac06b5-f022-49b7-90f5-aa29dd87b063","system_id":"levelo_inurba_marseille","lat":43.25803,"lon":5.39439,"is_reserved":false,"is_disabled":false,"rental_uris":{"android":"levelo://app?vid=89ac06b5-f022-49b7-90f5-aa29dd87b063","ios":"levelo://app?vid=89ac06b5-f022-49b7-90f5-aa29dd87b063"},"vehicle_type_id":"4","last_reported":1750518545,"current_range_meters":8800,"station_id":"ce4bhip2rcd13ifvqft0","pricing_plan_id":"cebpf4jnsgd1na2vs0mg"},{"bike_id":"a6b928f0-c1eb-416a-81d6-735f04dabd98","system_id":"levelo_inurba_marseille","lat":43.28442,"lon":5.391993,"is_reserved":false,"is_disabled":false,"rental_uris":{"android":"levelo://app?vid=a6b928f0-c1eb-416a-81d6-735f04dabd98","ios":"levelo://app?vid=a6b928f0-c1eb-416a-81d6-735f04dabd98"},"vehicle_type_id":"4","last_reported":1750518545,"current_range_meters":8800,"station_id":"ce4bhoh2rcd13ifvqh5g","pricing_plan_id":"cebpf4jnsgd1na2vs0mg"},{"bike_id":"45fc6665-dbe6-400b-83e0-c71a67f4ddec","system_id":"levelo_inurba_marseille","lat":43.23194,"lon":5.35556,"is_reserved":false,"is_disabled":false,"rental_uris":{"android":"levelo://app?vid=45fc6665-dbe6-400b-83e0-c71a67f4ddec","ios":"levelo://app?vid=45fc6665-dbe6-400b-83e0-c71a67f4ddec"},"vehicle_type_id":"4","last_reported":1750518545,"current_range_meters":8800,"station_id":"ce4bhu92rcd13ifvqi70","pricing_plan_id":"cebpf4jnsgd1na2vs0mg"},{"bike_id":"c646b072-2ebf-48ef-938d-86d8785b74ec","system_id":"levelo_inurba_marseille","lat":43.24164,"lon":5.36394,"is_reserved":false,"is_disabled":false,"rental_uris":{"android":"levelo://app?vid=c646b072-2ebf-48ef-938d-86d8785b74ec","ios":"levelo://app?vid=c646b072-2ebf-48ef-938d-86d8785b74ec"},"vehicle_type_id":"4","last_reported":1750518545,"current_range_meters":8800,"station_id":"cpo36qri1sfpv3e86is0","pricing_plan_id":"cebpf4jnsgd1na2vs0mg"},{"bike_id":"c679fd72-06b6-4f0e-a502-2e9bea523cd9","system_id":"levelo_inurba_marseille","lat":43.24167,"lon":5.36391,"is_reserved":false,"is_disabled":false,"rental_uris":{"android":"levelo://app?vid=c679fd72-06b6-4f0e-a502-2e9bea523cd9","ios":"levelo://app?vid=c679fd72-06b6-4f0e-a502-2e9bea523cd9"},"vehicle_type_id":"4","last_reported":1750518545,"current_range_meters":8800,"station_id":"cpo36qri1sfpv3e86is0","pricing_plan_id":"cebpf4jnsgd1na2vs0mg"},{"bike_id":"199c2831-e081-4bc0-9b94-19503817091d","system_id":"levelo_inurba_marseille","lat":43.24913,"lon":5.40668,"is_reserved":false,"is_disabled":false,"rental_uris":{"android":"levelo://app?vid=199c2831-e081-4bc0-9b94-19503817091d","ios":"levelo://app?vid=199c2831-e081-4bc0-9b94-19503817091d"},"vehicle_type_id":"4","last_reported":1750518545,"current_range_meters":9200,"station_id":"","pricing_plan_id":"cebpf4jnsgd1na2vs0mg"},{"bike_id":"e20c2f29-7c4e-4408-843a-6028668c14f5","system_id":"levelo_inurba_marseille","lat":43.31701,"lon":5.37736,"is_reserved":false,"is_disabled":false,"rental_uris":{"android":"levelo://app?vid=e20c2f29-7c4e-4408-843a-6028668c14f5","ios":"levelo://app?vid=e20c2f29-7c4e-4408-843a-6028668c14f5"},"vehicle_type_id":"4","last_reported":1750518545,"current_range_meters":9200,"station_id":"ce4bgth2rcd13ifvqch0","pricing_plan_id":"cebpf4jnsgd1na2vs0mg"},{"bike_id":"cf5528ae-746d-410c-bd70-cf4d4037d872","system_id":"levelo_inurba_marseille","lat":43.30329,"lon":5.40438,"is_reserved":false,"is_disabled":false,"rental_uris":{"android":"levelo://app?vid=cf5528ae-746d-410c-bd70-cf4d4037d872","ios":"levelo://app?vid=cf5528ae-746d-410c-bd70-cf4d4037d872"},"vehicle_type_id":"4","last_reported":1750518545,"current_range_meters":9200,"station_id":"ce4bh012rcd13ifvqd10","pricing_plan_id":"cebpf4jnsgd1na2vs0mg"},{"bike_id":"83e0933c-f1d4-42c9-8da5-8ac14b7076b7","system_id":"levelo_inurba_marseille","lat":43.255761,"lon":5.382373,"is_reserved":false,"is_disabled":false,"rental_uris":{"android":"levelo://app?vid=83e0933c-f1d4-42c9-8da5-8ac14b7076b7","ios":"levelo://app?vid=83e0933c-f1d4-42c9-8da5-8ac14b7076b7"},"vehicle_type_id":"4","last_reported":1750518545,"current_range_meters":9200,"station_id":"ce4bhih2rcd13ifvqfs0","pricing_plan_id":"cebpf4jnsgd1na2vs0mg"},{"bike_id":"d4dbf191-855e-45bd-9530-9bec30d1654f","system_id":"levelo_inurba_marseille","lat":43.27076,"lon":5.40241,"is_reserved":false,"is_disabled":false,"rental_uris":{"android":"levelo://app?vid=d4dbf191-855e-45bd-9530-9bec30d1654f","ios":"levelo://app?vid=d4dbf191-855e-45bd-9530-9bec30d1654f"},"vehicle_type_id":"4","last_reported":1750518545,"current_range_meters":9200,"station_id":"ce4bhk92rcd13ifvqgc0","pricing_plan_id":"cebpf4jnsgd1na2vs0mg"},{"bike_id":"250078a3-98f0-4946-8fc6-5d0c039efeb1","system_id":"levelo_inurba_marseille","lat":43.2417,"lon":5.36394,"is_reserved":false,"is_disabled":false,"rental_uris":{"android":"levelo://app?vid=250078a3-98f0-4946-8fc6-5d0c039efeb1","ios":"levelo://app?vid=250078a3-98f0-4946-8fc6-5d0c039efeb1"},"vehicle_type_id":"4","last_reported":1750518545,"current_range_meters":9200,"station_id":"cpo36qri1sfpv3e86is0","pricing_plan_id":"cebpf4jnsgd1na2vs0mg"},{"bike_id":"8300812b-c3f4-4460-a462-0c10590e5460","system_id":"levelo_inurba_marseille","lat":43.32978,"lon":5.40555,"is_reserved":false,"is_disabled":false,"rental_uris":{"android":"levelo://app?vid=8300812b-c3f4-4460-a462-0c10590e5460","ios":"levelo://app?vid=8300812b-c3f4-4460-a462-0c10590e5460"},"vehicle_type_id":"4","last_reported":1750518545,"current_range_meters":9600,"station_id":"","pricing_plan_id":"cebpf4jnsgd1na2vs0mg"},{"bike_id":"3d49e157-94fb-44ba-9620-18c78c5a4273","system_id":"levelo_inurba_marseille","lat":43.289948,"lon":5.378337,"is_reserved":false,"is_disabled":false,"rental_uris":{"android":"levelo://app?vid=3d49e157-94fb-44ba-9620-18c78c5a4273","ios":"levelo://app?vid=3d49e157-94fb-44ba-9620-18c78c5a4273"},"vehicle_type_id":"4","last_reported":1750518545,"current_range_meters":9600,"station_id":"ce4bh9p2rcd13ifvqed0","pricing_plan_id":"cebpf4jnsgd1na2vs0mg"},{"bike_id":"80446519-e877-4809-9114-1064a19d50ec","system_id":"levelo_inurba_marseille","lat":43.28043,"lon":5.36939,"is_reserved":false,"is_disabled":false,"rental_uris":{"android":"levelo://app?vid=80446519-e877-4809-9114-1064a19d50ec","ios":"levelo://app?vid=80446519-e877-4809-9114-1064a19d50ec"},"vehicle_type_id":"4","last_reported":1750518545,"current_range_meters":9600,"station_id":"ce4bha12rcd13ifvqef0","pricing_plan_id":"cebpf4jnsgd1na2vs0mg"},{"bike_id":"c2e46c04-002e-45fc-83af-7ff712c0b7a1","system_id":"levelo_inurba_marseille","lat":43.284283,"lon":5.349379,"is_reserved":false,"is_disabled":false,"rental_uris":{"android":"levelo://app?vid=c2e46c04-002e-45fc-83af-7ff712c0b7a1","ios":"levelo://app?vid=c2e46c04-002e-45fc-83af-7ff712c0b7a1"},"vehicle_type_id":"4","last_reported":1750518545,"current_range_meters":9600,"station_id":"ce4bhbh2rcd13ifvqepg","pricing_plan_id":"cebpf4jnsgd1na2vs0mg"},{"bike_id":"40e5f2ca-9927-4d15-8c6b-5f8e18ad35f8","system_id":"levelo_inurba_marseille","lat":43.27575,"lon":5.3842,"is_reserved":false,"is_disabled":false,"rental_uris":{"android":"levelo://app?vid=40e5f2ca-9927-4d15-8c6b-5f8e18ad35f8","ios":"levelo://app?vid=40e5f2ca-9927-4d15-8c6b-5f8e18ad35f8"},"vehicle_type_id":"4","last_reported":1750518545,"current_range_meters":9600,"station_id":"ce4bhh92rcd13ifvqfi0","pricing_plan_id":"cebpf4jnsgd1na2vs0mg"},{"bike_id":"e2cd2570-74c5-4fc1-9ed6-2320cdfcdbce","system_id":"levelo_inurba_marseille","lat":43.29521,"lon":5.37506,"is_reserved":false,"is_disabled":false,"rental_uris":{"android":"levelo://app?vid=e2cd2570-74c5-4fc1-9ed6-2320cdfcdbce","ios":"levelo://app?vid=e2cd2570-74c5-4fc1-9ed6-2320cdfcdbce"},"vehicle_type_id":"4","last_reported":1750518545,"current_range_meters":10000,"station_id":"ce4bgkp2rcd13ifvqbmg","pricing_plan_id":"cebpf4jnsgd1na2vs0mg"},{"bike_id":"b43dd87e-b296-4299-8374-eb747fb46bf2","system_id":"levelo_inurba_marseille","lat":43.2621,"lon":5.37443,"is_reserved":false,"is_disabled":false,"rental_uris":{"android":"levelo://app?vid=b43dd87e-b296-4299-8374-eb747fb46bf2","ios":"levelo://app?vid=b43dd87e-b296-4299-8374-eb747fb46bf2"},"vehicle_type_id":"4","last_reported":1750518545,"current_range_meters":10000,"station_id":"ce4bhgp2rcd13ifvqfc0","pricing_plan_id":"cebpf4jnsgd1na2vs0mg"},{"bike_id":"b3b2555d-758f-4a3a-8b0d-89829b2ecba6","system_id":"levelo_inurba_marseille","lat":43.273155,"lon":5.39077,"is_reserved":false,"is_disabled":false,"rental_uris":{"android":"levelo://app?vid=b3b2555d-758f-4a3a-8b0d-89829b2ecba6","ios":"levelo://app?vid=b3b2555d-758f-4a3a-8b0d-89829b2ecba6"},"vehicle_type_id":"4","last_reported":1750518545,"current_range_meters":10000,"station_id":"ce4bhgp2rcd13ifvqfe0","pricing_plan_id":"cebpf4jnsgd1na2vs0mg"},{"bike_id":"da51fc4b-b4cc-446d-b357-877b7735a866","system_id":"levelo_inurba_marseille","lat":43.254988,"lon":5.376464,"is_reserved":false,"is_disabled":false,"rental_uris":{"android":"levelo://app?vid=da51fc4b-b4cc-446d-b357-877b7735a866","ios":"levelo://app?vid=da51fc4b-b4cc-446d-b357-877b7735a866"},"vehicle_type_id":"4","last_reported":1750518545,"current_range_meters":10000,"station_id":"ce4bhh12rcd13ifvqff0","pricing_plan_id":"cebpf4jnsgd1na2vs0mg"},{"bike_id":"bd27fe72-6fbc-453f-8b77-bee10ab3b13c","system_id":"levelo_inurba_marseille","lat":43.29546,"lon":5.42324,"is_reserved":false,"is_disabled":false,"rental_uris":{"android":"levelo://app?vid=bd27fe72-6fbc-453f-8b77-bee10ab3b13c","ios":"levelo://app?vid=bd27fe72-6fbc-453f-8b77-bee10ab3b13c"},"vehicle_type_id":"4","last_reported":1750518545,"current_range_meters":10000,"station_id":"ce4bhph2rcd13ifvqhdg","pricing_plan_id":"cebpf4jnsgd1na2vs0mg"},{"bike_id":"dc540ba2-fb63-45eb-b83a-1826fb3d30b7","system_id":"levelo_inurba_marseille","lat":43.24588,"lon":5.39252,"is_reserved":false,"is_disabled":false,"rental_uris":{"android":"levelo://app?vid=dc540ba2-fb63-45eb-b83a-1826fb3d30b7","ios":"levelo://app?vid=dc540ba2-fb63-45eb-b83a-1826fb3d30b7"},"vehicle_type_id":"4","last_reported":1750518545,"current_range_meters":10800,"station_id":"","pricing_plan_id":"cebpf4jnsgd1na2vs0mg"},{"bike_id":"0f0a0563-6854-4e5f-ad01-8aa380e54ccb","system_id":"levelo_inurba_marseille","lat":43.30795,"lon":5.38162,"is_reserved":false,"is_disabled":false,"rental_uris":{"android":"levelo://app?vid=0f0a0563-6854-4e5f-ad01-8aa380e54ccb","ios":"levelo://app?vid=0f0a0563-6854-4e5f-ad01-8aa380e54ccb"},"vehicle_type_id":"4","last_reported":1750518545,"current_range_meters":10800,"station_id":"ce4bgt12rcd13ifvqce0","pricing_plan_id":"cebpf4jnsgd1na2vs0mg"},{"bike_id":"81263dc9-afde-4998-9f59-a1f9504e3dee","system_id":"levelo_inurba_marseille","lat":43.28488,"lon":5.38418,"is_reserved":false,"is_disabled":false,"rental_uris":{"android":"levelo://app?vid=81263dc9-afde-4998-9f59-a1f9504e3dee","ios":"levelo://app?vid=81263dc9-afde-4998-9f59-a1f9504e3dee"},"vehicle_type_id":"4","last_reported":1750518545,"current_range_meters":10800,"station_id":"ce4bh512rcd13ifvqe3g","pricing_plan_id":"cebpf4jnsgd1na2vs0mg"},{"bike_id":"bae794a4-d206-4eaa-9888-7ffb89287003","system_id":"levelo_inurba_marseille","lat":43.24389,"lon":5.37041,"is_reserved":false,"is_disabled":false,"rental_uris":{"android":"levelo://app?vid=bae794a4-d206-4eaa-9888-7ffb89287003","ios":"levelo://app?vid=bae794a4-d206-4eaa-9888-7ffb89287003"},"vehicle_type_id":"4","last_reported":1750518545,"current_range_meters":10800,"station_id":"ce4bhhh2rcd13ifvqfk0","pricing_plan_id":"cebpf4jnsgd1na2vs0mg"},{"bike_id":"5a239db7-6593-495b-9915-f6e28bf76fc6","system_id":"levelo_inurba_marseille","lat":43.24663,"lon":5.38151,"is_reserved":false,"is_disabled":false,"rental_uris":{"android":"levelo://app?vid=5a239db7-6593-495b-9915-f6e28bf76fc6","ios":"levelo://app?vid=5a239db7-6593-495b-9915-f6e28bf76fc6"},"vehicle_type_id":"4","last_reported":1750518545,"current_range_meters":10800,"station_id":"ce4bhih2rcd13ifvqfr0","pricing_plan_id":"cebpf4jnsgd1na2vs0mg"},{"bike_id":"8fd94bfe-b0a3-4509-a3c9-0f6e3f8eed78","system_id":"levelo_inurba_marseille","lat":43.24155,"lon":5.36425,"is_reserved":false,"is_disabled":false,"rental_uris":{"android":"levelo://app?vid=8fd94bfe-b0a3-4509-a3c9-0f6e3f8eed78","ios":"levelo://app?vid=8fd94bfe-b0a3-4509-a3c9-0f6e3f8eed78"},"vehicle_type_id":"4","last_reported":1750518545,"current_range_meters":10800,"station_id":"cpo36qri1sfpv3e86is0","pricing_plan_id":"cebpf4jnsgd1na2vs0mg"},{"bike_id":"8d5eeb77-60a3-4d69-9687-b8e6b551b11c","system_id":"levelo_inurba_marseille","lat":43.27829,"lon":5.414487,"is_reserved":false,"is_disabled":false,"rental_uris":{"android":"levelo://app?vid=8d5eeb77-60a3-4d69-9687-b8e6b551b11c","ios":"levelo://app?vid=8d5eeb77-60a3-4d69-9687-b8e6b551b11c"},"vehicle_type_id":"4","last_reported":1750518545,"current_range_meters":11200,"station_id":"","pricing_plan_id":"cebpf4jnsgd1na2vs0mg"},{"bike_id":"8ef11a45-504d-45b0-a2b5-97fef9594218","system_id":"levelo_inurba_marseille","lat":43.295488,"lon":5.381458,"is_reserved":false,"is_disabled":false,"rental_uris":{"android":"levelo://app?vid=8ef11a45-504d-45b0-a2b5-97fef9594218","ios":"levelo://app?vid=8ef11a45-504d-45b0-a2b5-97fef9594218"},"vehicle_type_id":"4","last_reported":1750518545,"current_range_meters":11200,"station_id":"","pricing_plan_id":"cebpf4jnsgd1na2vs0mg"},{"bike_id":"00d0a8e0-a2f1-4548-af48-3196cdb10d61","system_id":"levelo_inurba_marseille","lat":43.29035,"lon":5.38658,"is_reserved":false,"is_disabled":false,"rental_uris":{"android":"levelo://app?vid=00d0a8e0-a2f1-4548-af48-3196cdb10d61","ios":"levelo://app?vid=00d0a8e0-a2f1-4548-af48-3196cdb10d61"},"vehicle_type_id":"4","last_reported":1750518545,"current_range_meters":11200,"station_id":"ce4bh4p2rcd13ifvqe0g","pricing_plan_id":"cebpf4jnsgd1na2vs0mg"},{"bike_id":"b135cdcd-e995-4800-ab4e-b9241575ffc4","system_id":"levelo_inurba_marseille","lat":43.26682,"lon":5.38269,"is_reserved":false,"is_disabled":false,"rental_uris":{"android":"levelo://app?vid=b135cdcd-e995-4800-ab4e-b9241575ffc4","ios":"levelo://app?vid=b135cdcd-e995-4800-ab4e-b9241575ffc4"},"vehicle_type_id":"4","last_reported":1750518545,"current_range_meters":11200,"station_id":"ce4bhg92rcd13ifvqf90","pricing_plan_id":"cebpf4jnsgd1na2vs0mg"},{"bike_id":"9364c100-2ad0-4ee7-8f5d-dc878c4b33e6","system_id":"levelo_inurba_marseille","lat":43.30409,"lon":5.41287,"is_reserved":false,"is_disabled":false,"rental_uris":{"android":"levelo://app?vid=9364c100-2ad0-4ee7-8f5d-dc878c4b33e6","ios":"levelo://app?vid=9364c100-2ad0-4ee7-8f5d-dc878c4b33e6"},"vehicle_type_id":"4","last_reported":1750518545,"current_range_meters":11200,"station_id":"ce4bhop2rcd13ifvqh8g","pricing_plan_id":"cebpf4jnsgd1na2vs0mg"},{"bike_id":"4b7445e3-4bce-4256-b187-a2187699b3a1","system_id":"levelo_inurba_marseille","lat":43.23195,"lon":5.35554,"is_reserved":false,"is_disabled":false,"rental_uris":{"android":"levelo://app?vid=4b7445e3-4bce-4256-b187-a2187699b3a1","ios":"levelo://app?vid=4b7445e3-4bce-4256-b187-a2187699b3a1"},"vehicle_type_id":"4","last_reported":1750518545,"current_range_meters":11200,"station_id":"ce4bhu92rcd13ifvqi70","pricing_plan_id":"cebpf4jnsgd1na2vs0mg"},{"bike_id":"3130b6ee-4de9-429b-a91d-834780972d44","system_id":"levelo_inurba_marseille","lat":43.30426,"lon":5.39743,"is_reserved":false,"is_disabled":false,"rental_uris":{"android":"levelo://app?vid=3130b6ee-4de9-429b-a91d-834780972d44","ios":"levelo://app?vid=3130b6ee-4de9-429b-a91d-834780972d44"},"vehicle_type_id":"4","last_reported":1750518545,"current_range_meters":11600,"station_id":"ce4bh092rcd13ifvqd20","pricing_plan_id":"cebpf4jnsgd1na2vs0mg"},{"bike_id":"3e58649e-5c00-425c-8b29-6224f6474a33","system_id":"levelo_inurba_marseille","lat":43.24398,"lon":5.37061,"is_reserved":false,"is_disabled":false,"rental_uris":{"android":"levelo://app?vid=3e58649e-5c00-425c-8b29-6224f6474a33","ios":"levelo://app?vid=3e58649e-5c00-425c-8b29-6224f6474a33"},"vehicle_type_id":"4","last_reported":1750518545,"current_range_meters":11600,"station_id":"ce4bhhh2rcd13ifvqfk0","pricing_plan_id":"cebpf4jnsgd1na2vs0mg"},{"bike_id":"a4a210b7-0995-4db8-8f6a-3163dc5bfc8f","system_id":"levelo_inurba_marseille","lat":43.23193,"lon":5.3555,"is_reserved":false,"is_disabled":false,"rental_uris":{"android":"levelo://app?vid=a4a210b7-0995-4db8-8f6a-3163dc5bfc8f","ios":"levelo://app?vid=a4a210b7-0995-4db8-8f6a-3163dc5bfc8f"},"vehicle_type_id":"4","last_reported":1750518545,"current_range_meters":11600,"station_id":"ce4bhu92rcd13ifvqi70","pricing_plan_id":"cebpf4jnsgd1na2vs0mg"},{"bike_id":"4643bc90-1bac-4c4b-98b1-e2d500830573","system_id":"levelo_inurba_marseille","lat":43.31357,"lon":5.37653,"is_reserved":false,"is_disabled":false,"rental_uris":{"android":"levelo://app?vid=4643bc90-1bac-4c4b-98b1-e2d500830573","ios":"levelo://app?vid=4643bc90-1bac-4c4b-98b1-e2d500830573"},"vehicle_type_id":"4","last_reported":1750518545,"current_range_meters":12000,"station_id":"","pricing_plan_id":"cebpf4jnsgd1na2vs0mg"},{"bike_id":"119a023f-42ec-4111-8112-532288e80ef3","system_id":"levelo_inurba_marseille","lat":43.26225,"lon":5.37425,"is_reserved":false,"is_disabled":false,"rental_uris":{"android":"levelo://app?vid=119a023f-42ec-4111-8112-532288e80ef3","ios":"levelo://app?vid=119a023f-42ec-4111-8112-532288e80ef3"},"vehicle_type_id":"4","last_reported":1750518545,"current_range_meters":12000,"station_id":"","pricing_plan_id":"cebpf4jnsgd1na2vs0mg"},{"bike_id":"d40af265-11b5-43a6-9bb6-f910f57901ba","system_id":"levelo_inurba_marseille","lat":43.33033,"lon":5.38002,"is_reserved":false,"is_disabled":false,"rental_uris":{"android":"levelo://app?vid=d40af265-11b5-43a6-9bb6-f910f57901ba","ios":"levelo://app?vid=d40af265-11b5-43a6-9bb6-f910f57901ba"},"vehicle_type_id":"4","last_reported":1750518545,"current_range_meters":12000,"station_id":"","pricing_plan_id":"cebpf4jnsgd1na2vs0mg"},{"bike_id":"c1473cc0-1ed5-4eed-b725-cc924f27b417","system_id":"levelo_inurba_marseille","lat":43.29269,"lon":5.38432,"is_reserved":false,"is_disabled":false,"rental_uris":{"android":"levelo://app?vid=c1473cc0-1ed5-4eed-b725-cc924f27b417","ios":"levelo://app?vid=c1473cc0-1ed5-4eed-b725-cc924f27b417"},"vehicle_type_id":"4","last_reported":1750518545,"current_range_meters":12000,"station_id":"ce4bh692rcd13ifvqea0","pricing_plan_id":"cebpf4jnsgd1na2vs0mg"},{"bike_id":"707865ed-dc12-417f-89f3-c46ea2eb348a","system_id":"levelo_inurba_marseille","lat":43.26195,"lon":5.37456,"is_reserved":false,"is_disabled":false,"rental_uris":{"android":"levelo://app?vid=707865ed-dc12-417f-89f3-c46ea2eb348a","ios":"levelo://app?vid=707865ed-dc12-417f-89f3-c46ea2eb348a"},"vehicle_type_id":"4","last_reported":1750518545,"current_range_meters":12000,"station_id":"ce4bhgp2rcd13ifvqfc0","pricing_plan_id":"cebpf4jnsgd1na2vs0mg"},{"bike_id":"a22aa312-0025-4f42-88e2-b1e95e79340f","system_id":"levelo_inurba_marseille","lat":43.31621,"lon":5.38348,"is_reserved":false,"is_disabled":false,"rental_uris":{"android":"levelo://app?vid=a22aa312-0025-4f42-88e2-b1e95e79340f","ios":"levelo://app?vid=a22aa312-0025-4f42-88e2-b1e95e79340f"},"vehicle_type_id":"4","last_reported":1750518545,"current_range_meters":12400,"station_id":"","pricing_plan_id":"cebpf4jnsgd1na2vs0mg"},{"bike_id":"9758551c-817c-4a1d-896d-1942f8b689b3","system_id":"levelo_inurba_marseille","lat":43.30529,"lon":5.36565,"is_reserved":false,"is_disabled":false,"rental_uris":{"android":"levelo://app?vid=9758551c-817c-4a1d-896d-1942f8b689b3","ios":"levelo://app?vid=9758551c-817c-4a1d-896d-1942f8b689b3"},"vehicle_type_id":"4","last_reported":1750518545,"current_range_meters":12400,"station_id":"ce4bgs12rcd13ifvqcag","pricing_plan_id":"cebpf4jnsgd1na2vs0mg"},{"bike_id":"1d3f4a8c-e7ae-43d9-bde7-a8b9b2e230a1","system_id":"levelo_inurba_marseille","lat":43.31495,"lon":5.3728,"is_reserved":false,"is_disabled":false,"rental_uris":{"android":"levelo://app?vid=1d3f4a8c-e7ae-43d9-bde7-a8b9b2e230a1","ios":"levelo://app?vid=1d3f4a8c-e7ae-43d9-bde7-a8b9b2e230a1"},"vehicle_type_id":"4","last_reported":1750518545,"current_range_meters":12400,"station_id":"ce4bgt12rcd13ifvqcd0","pricing_plan_id":"cebpf4jnsgd1na2vs0mg"},{"bike_id":"247b80b7-10fe-40f5-848b-d8ff192ca5b8","system_id":"levelo_inurba_marseille","lat":43.28038,"lon":5.36945,"is_reserved":false,"is_disabled":false,"rental_uris":{"android":"levelo://app?vid=247b80b7-10fe-40f5-848b-d8ff192ca5b8","ios":"levelo://app?vid=247b80b7-10fe-40f5-848b-d8ff192ca5b8"},"vehicle_type_id":"4","last_reported":1750518545,"current_range_meters":12400,"station_id":"ce4bha12rcd13ifvqef0","pricing_plan_id":"cebpf4jnsgd1na2vs0mg"},{"bike_id":"504f1f2f-2576-4747-af98-1a220e76ce19","system_id":"levelo_inurba_marseille","lat":43.273773,"lon":5.362567,"is_reserved":false,"is_disabled":false,"rental_uris":{"android":"levelo://app?vid=504f1f2f-2576-4747-af98-1a220e76ce19","ios":"levelo://app?vid=504f1f2f-2576-4747-af98-1a220e76ce19"},"vehicle_type_id":"4","last_reported":1750518545,"current_range_meters":12400,"station_id":"ce4bhbh2rcd13ifvqeo0","pricing_plan_id":"cebpf4jnsgd1na2vs0mg"},{"bike_id":"a439cfc5-e6d4-4f53-b4ec-e9f01d38f98d","system_id":"levelo_inurba_marseille","lat":43.29971,"lon":5.38488,"is_reserved":false,"is_disabled":false,"rental_uris":{"android":"levelo://app?vid=a439cfc5-e6d4-4f53-b4ec-e9f01d38f98d","ios":"levelo://app?vid=a439cfc5-e6d4-4f53-b4ec-e9f01d38f98d"},"vehicle_type_id":"4","last_reported":1750518545,"current_range_meters":12800,"station_id":"ce4bgj92rcd13ifvqbd0","pricing_plan_id":"cebpf4jnsgd1na2vs0mg"},{"bike_id":"c01077ea-d034-479e-8860-033b577ad0c8","system_id":"levelo_inurba_marseille","lat":43.21193,"lon":5.35075,"is_reserved":false,"is_disabled":false,"rental_uris":{"android":"levelo://app?vid=c01077ea-d034-479e-8860-033b577ad0c8","ios":"levelo://app?vid=c01077ea-d034-479e-8860-033b577ad0c8"},"vehicle_type_id":"4","last_reported":1750518545,"current_range_meters":12800,"station_id":"st_cvj6sg6p6f1abm77japg","pricing_plan_id":"cebpf4jnsgd1na2vs0mg"},{"bike_id":"ebf2b0f2-73a9-4b39-b5b1-d0bf6e18e671","system_id":"levelo_inurba_marseille","lat":43.28725,"lon":5.36085,"is_reserved":false,"is_disabled":false,"rental_uris":{"android":"levelo://app?vid=ebf2b0f2-73a9-4b39-b5b1-d0bf6e18e671","ios":"levelo://app?vid=ebf2b0f2-73a9-4b39-b5b1-d0bf6e18e671"},"vehicle_type_id":"4","last_reported":1750518545,"current_range_meters":13600,"station_id":"","pricing_plan_id":"cebpf4jnsgd1na2vs0mg"},{"bike_id":"33545f01-b33f-47f0-86fc-ed8ac7aca4b9","system_id":"levelo_inurba_marseille","lat":43.30146,"lon":5.3985,"is_reserved":false,"is_disabled":false,"rental_uris":{"android":"levelo://app?vid=33545f01-b33f-47f0-86fc-ed8ac7aca4b9","ios":"levelo://app?vid=33545f01-b33f-47f0-86fc-ed8ac7aca4b9"},"vehicle_type_id":"4","last_reported":1750518545,"current_range_meters":13600,"station_id":"ce4bh0h2rcd13ifvqd40","pricing_plan_id":"cebpf4jnsgd1na2vs0mg"},{"bike_id":"2da05b47-6a2c-4aef-9636-353f6ebedcbc","system_id":"levelo_inurba_marseille","lat":43.26201,"lon":5.40431,"is_reserved":false,"is_disabled":false,"rental_uris":{"android":"levelo://app?vid=2da05b47-6a2c-4aef-9636-353f6ebedcbc","ios":"levelo://app?vid=2da05b47-6a2c-4aef-9636-353f6ebedcbc"},"vehicle_type_id":"4","last_reported":1750518545,"current_range_meters":13600,"station_id":"ce4bhmh2rcd13ifvqgmg","pricing_plan_id":"cebpf4jnsgd1na2vs0mg"},{"bike_id":"88bf09e4-3a7d-4ae6-9054-21701bd604b0","system_id":"levelo_inurba_marseille","lat":43.26945,"lon":5.40248,"is_reserved":false,"is_disabled":false,"rental_uris":{"android":"levelo://app?vid=88bf09e4-3a7d-4ae6-9054-21701bd604b0","ios":"levelo://app?vid=88bf09e4-3a7d-4ae6-9054-21701bd604b0"},"vehicle_type_id":"4","last_reported":1750518545,"current_range_meters":13600,"station_id":"cjm6bp8fraef2m0cb0m0","pricing_plan_id":"cebpf4jnsgd1na2vs0mg"},{"bike_id":"7f9a80b0-f862-4a2c-b3bb-a368817c93a8","system_id":"levelo_inurba_marseille","lat":43.31321,"lon":5.39712,"is_reserved":false,"is_disabled":false,"rental_uris":{"android":"levelo://app?vid=7f9a80b0-f862-4a2c-b3bb-a368817c93a8","ios":"levelo://app?vid=7f9a80b0-f862-4a2c-b3bb-a368817c93a8"},"vehicle_type_id":"4","last_reported":1750518545,"current_range_meters":14000,"station_id":"ce4bgvp2rcd13ifvqcu0","pricing_plan_id":"cebpf4jnsgd1na2vs0mg"},{"bike_id":"47b0e8ed-1505-41e8-9bb6-271f11e0cd62","system_id":"levelo_inurba_marseille","lat":43.28055,"lon":5.36931,"is_reserved":false,"is_disabled":false,"rental_uris":{"android":"levelo://app?vid=47b0e8ed-1505-41e8-9bb6-271f11e0cd62","ios":"levelo://app?vid=47b0e8ed-1505-41e8-9bb6-271f11e0cd62"},"vehicle_type_id":"4","last_reported":1750518545,"current_range_meters":14000,"station_id":"ce4bha12rcd13ifvqef0","pricing_plan_id":"cebpf4jnsgd1na2vs0mg"},{"bike_id":"3b0948b3-e404-4fcc-bfe9-7bfb9bcb1c10","system_id":"levelo_inurba_marseille","lat":43.28422,"lon":5.34981,"is_reserved":false,"is_disabled":false,"rental_uris":{"android":"levelo://app?vid=3b0948b3-e404-4fcc-bfe9-7bfb9bcb1c10","ios":"levelo://app?vid=3b0948b3-e404-4fcc-bfe9-7bfb9bcb1c10"},"vehicle_type_id":"4","last_reported":1750518545,"current_range_meters":14000,"station_id":"ce4bhbh2rcd13ifvqepg","pricing_plan_id":"cebpf4jnsgd1na2vs0mg"},{"bike_id":"f7141d99-b473-42d2-af29-62e4f3665d66","system_id":"levelo_inurba_marseille","lat":43.2668,"lon":5.38266,"is_reserved":false,"is_disabled":false,"rental_uris":{"android":"levelo://app?vid=f7141d99-b473-42d2-af29-62e4f3665d66","ios":"levelo://app?vid=f7141d99-b473-42d2-af29-62e4f3665d66"},"vehicle_type_id":"4","last_reported":1750518545,"current_range_meters":14000,"station_id":"ce4bhg92rcd13ifvqf90","pricing_plan_id":"cebpf4jnsgd1na2vs0mg"},{"bike_id":"9d8cea9e-5dc3-4979-89db-1e9a7449f475","system_id":"levelo_inurba_marseille","lat":43.23116,"lon":5.4376,"is_reserved":false,"is_disabled":false,"rental_uris":{"android":"levelo://app?vid=9d8cea9e-5dc3-4979-89db-1e9a7449f475","ios":"levelo://app?vid=9d8cea9e-5dc3-4979-89db-1e9a7449f475"},"vehicle_type_id":"4","last_reported":1750518545,"current_range_meters":14000,"station_id":"ce4bhmp2rcd13ifvqgog","pricing_plan_id":"cebpf4jnsgd1na2vs0mg"},{"bike_id":"ef119b9f-74f5-4323-bd7b-10725bc86e56","system_id":"levelo_inurba_marseille","lat":43.24172,"lon":5.36401,"is_reserved":false,"is_disabled":false,"rental_uris":{"android":"levelo://app?vid=ef119b9f-74f5-4323-bd7b-10725bc86e56","ios":"levelo://app?vid=ef119b9f-74f5-4323-bd7b-10725bc86e56"},"vehicle_type_id":"4","last_reported":1750518545,"current_range_meters":14000,"station_id":"cpo36qri1sfpv3e86is0","pricing_plan_id":"cebpf4jnsgd1na2vs0mg"},{"bike_id":"c3876aa1-dd68-43d0-b9db-a282101c86bb","system_id":"levelo_inurba_marseille","lat":43.24169,"lon":5.36395,"is_reserved":false,"is_disabled":false,"rental_uris":{"android":"levelo://app?vid=c3876aa1-dd68-43d0-b9db-a282101c86bb","ios":"levelo://app?vid=c3876aa1-dd68-43d0-b9db-a282101c86bb"},"vehicle_type_id":"4","last_reported":1750518545,"current_range_meters":14000,"station_id":"cpo36qri1sfpv3e86is0","pricing_plan_id":"cebpf4jnsgd1na2vs0mg"},{"bike_id":"9228f8b4-f2d9-4a7d-9314-3d414dff2db8","system_id":"levelo_inurba_marseille","lat":43.29008,"lon":5.35622,"is_reserved":false,"is_disabled":false,"rental_uris":{"android":"levelo://app?vid=9228f8b4-f2d9-4a7d-9314-3d414dff2db8","ios":"levelo://app?vid=9228f8b4-f2d9-4a7d-9314-3d414dff2db8"},"vehicle_type_id":"4","last_reported":1750518545,"current_range_meters":14400,"station_id":"ce4bhb92rcd13ifvqen0","pricing_plan_id":"cebpf4jnsgd1na2vs0mg"},{"bike_id":"97375870-d454-48f8-b3d9-993018e311d0","system_id":"levelo_inurba_marseille","lat":43.27365,"lon":5.36244,"is_reserved":false,"is_disabled":false,"rental_uris":{"android":"levelo://app?vid=97375870-d454-48f8-b3d9-993018e311d0","ios":"levelo://app?vid=97375870-d454-48f8-b3d9-993018e311d0"},"vehicle_type_id":"4","last_reported":1750518545,"current_range_meters":14400,"station_id":"ce4bhbh2rcd13ifvqeo0","pricing_plan_id":"cebpf4jnsgd1na2vs0mg"},{"bike_id":"77786128-ddd2-4b7f-93e0-a37100fbfd5f","system_id":"levelo_inurba_marseille","lat":43.24809,"lon":5.37459,"is_reserved":false,"is_disabled":false,"rental_uris":{"android":"levelo://app?vid=77786128-ddd2-4b7f-93e0-a37100fbfd5f","ios":"levelo://app?vid=77786128-ddd2-4b7f-93e0-a37100fbfd5f"},"vehicle_type_id":"4","last_reported":1750518545,"current_range_meters":14400,"station_id":"ce4bhgh2rcd13ifvqfb0","pricing_plan_id":"cebpf4jnsgd1na2vs0mg"},{"bike_id":"442b870b-26c2-45ed-8757-2a114115e8ca","system_id":"levelo_inurba_marseille","lat":43.25089,"lon":5.39517,"is_reserved":false,"is_disabled":false,"rental_uris":{"android":"levelo://app?vid=442b870b-26c2-45ed-8757-2a114115e8ca","ios":"levelo://app?vid=442b870b-26c2-45ed-8757-2a114115e8ca"},"vehicle_type_id":"4","last_reported":1750518545,"current_range_meters":14400,"station_id":"ce4bhm12rcd13ifvqgkg","pricing_plan_id":"cebpf4jnsgd1na2vs0mg"},{"bike_id":"14e5a118-9329-49b0-9f0b-29d4986d8e88","system_id":"levelo_inurba_marseille","lat":43.32364,"lon":5.36758,"is_reserved":false,"is_disabled":false,"rental_uris":{"android":"levelo://app?vid=14e5a118-9329-49b0-9f0b-29d4986d8e88","ios":"levelo://app?vid=14e5a118-9329-49b0-9f0b-29d4986d8e88"},"vehicle_type_id":"4","last_reported":1750518545,"current_range_meters":14400,"station_id":"ce4bhsh2rcd13ifvqi2g","pricing_plan_id":"cebpf4jnsgd1na2vs0mg"},{"bike_id":"b935579a-e9d3-4ccf-a111-a22b8dbf997d","system_id":"levelo_inurba_marseille","lat":43.211943,"lon":5.350736,"is_reserved":false,"is_disabled":false,"rental_uris":{"android":"levelo://app?vid=b935579a-e9d3-4ccf-a111-a22b8dbf997d","ios":"levelo://app?vid=b935579a-e9d3-4ccf-a111-a22b8dbf997d"},"vehicle_type_id":"4","last_reported":1750518545,"current_range_meters":14800,"station_id":"","pricing_plan_id":"cebpf4jnsgd1na2vs0mg"},{"bike_id":"c7315724-2dc2-4557-b0d4-bbc9a0cad49a","system_id":"levelo_inurba_marseille","lat":43.29891,"lon":5.39738,"is_reserved":false,"is_disabled":false,"rental_uris":{"android":"levelo://app?vid=c7315724-2dc2-4557-b0d4-bbc9a0cad49a","ios":"levelo://app?vid=c7315724-2dc2-4557-b0d4-bbc9a0cad49a"},"vehicle_type_id":"4","last_reported":1750518545,"current_range_meters":14800,"station_id":"ce4bh0h2rcd13ifvqd50","pricing_plan_id":"cebpf4jnsgd1na2vs0mg"},{"bike_id":"8b499c04-8dde-4c05-8dcf-01ce074f9af5","system_id":"levelo_inurba_marseille","lat":43.26196,"lon":5.37462,"is_reserved":false,"is_disabled":false,"rental_uris":{"android":"levelo://app?vid=8b499c04-8dde-4c05-8dcf-01ce074f9af5","ios":"levelo://app?vid=8b499c04-8dde-4c05-8dcf-01ce074f9af5"},"vehicle_type_id":"4","last_reported":1750518545,"current_range_meters":14800,"station_id":"ce4bhgp2rcd13ifvqfc0","pricing_plan_id":"cebpf4jnsgd1na2vs0mg"},{"bike_id":"2189521c-b176-4863-9002-bd1b8b8974f8","system_id":"levelo_inurba_marseille","lat":43.25499,"lon":5.37657,"is_reserved":false,"is_disabled":false,"rental_uris":{"android":"levelo://app?vid=2189521c-b176-4863-9002-bd1b8b8974f8","ios":"levelo://app?vid=2189521c-b176-4863-9002-bd1b8b8974f8"},"vehicle_type_id":"4","last_reported":1750518545,"current_range_meters":14800,"station_id":"ce4bhh12rcd13ifvqff0","pricing_plan_id":"cebpf4jnsgd1na2vs0mg"},{"bike_id":"f5f2182a-8780-4a68-9ad3-89ed8cab6d13","system_id":"levelo_inurba_marseille","lat":43.24389,"lon":5.37056,"is_reserved":false,"is_disabled":false,"rental_uris":{"android":"levelo://app?vid=f5f2182a-8780-4a68-9ad3-89ed8cab6d13","ios":"levelo://app?vid=f5f2182a-8780-4a68-9ad3-89ed8cab6d13"},"vehicle_type_id":"4","last_reported":1750518545,"current_range_meters":14800,"station_id":"ce4bhhh2rcd13ifvqfk0","pricing_plan_id":"cebpf4jnsgd1na2vs0mg"},{"bike_id":"c83d847e-d4d1-4dc2-b9d4-0cb0b089ce49","system_id":"levelo_inurba_marseille","lat":43.28157,"lon":5.4264,"is_reserved":false,"is_disabled":false,"rental_uris":{"android":"levelo://app?vid=c83d847e-d4d1-4dc2-b9d4-0cb0b089ce49","ios":"levelo://app?vid=c83d847e-d4d1-4dc2-b9d4-0cb0b089ce49"},"vehicle_type_id":"4","last_reported":1750518545,"current_range_meters":14800,"station_id":"ce4bhnh2rcd13ifvqgug","pricing_plan_id":"cebpf4jnsgd1na2vs0mg"},{"bike_id":"d99dfe73-052a-413e-8305-fdd779c3806e","system_id":"levelo_inurba_marseille","lat":43.25085,"lon":5.40388,"is_reserved":false,"is_disabled":false,"rental_uris":{"android":"levelo://app?vid=d99dfe73-052a-413e-8305-fdd779c3806e","ios":"levelo://app?vid=d99dfe73-052a-413e-8305-fdd779c3806e"},"vehicle_type_id":"4","last_reported":1750518545,"current_range_meters":15200,"station_id":"","pricing_plan_id":"cebpf4jnsgd1na2vs0mg"},{"bike_id":"e14b58f0-232a-4ce0-8eab-2ae42de935ff","system_id":"levelo_inurba_marseille","lat":43.26191,"lon":5.37451,"is_reserved":false,"is_disabled":false,"rental_uris":{"android":"levelo://app?vid=e14b58f0-232a-4ce0-8eab-2ae42de935ff","ios":"levelo://app?vid=e14b58f0-232a-4ce0-8eab-2ae42de935ff"},"vehicle_type_id":"4","last_reported":1750518545,"current_range_meters":15200,"station_id":"ce4bhgp2rcd13ifvqfc0","pricing_plan_id":"cebpf4jnsgd1na2vs0mg"},{"bike_id":"f88f66c2-a73e-4c0b-90f9-8ebddb3e3b73","system_id":"levelo_inurba_marseille","lat":43.26174,"lon":5.37512,"is_reserved":false,"is_disabled":false,"rental_uris":{"android":"levelo://app?vid=f88f66c2-a73e-4c0b-90f9-8ebddb3e3b73","ios":"levelo://app?vid=f88f66c2-a73e-4c0b-90f9-8ebddb3e3b73"},"vehicle_type_id":"4","last_reported":1750518545,"current_range_meters":15200,"station_id":"ce4bhgp2rcd13ifvqfc0","pricing_plan_id":"cebpf4jnsgd1na2vs0mg"},{"bike_id":"7d231a62-aa7a-4d87-a0bf-75303a9f91e6","system_id":"levelo_inurba_marseille","lat":43.26504,"lon":5.39538,"is_reserved":false,"is_disabled":false,"rental_uris":{"android":"levelo://app?vid=7d231a62-aa7a-4d87-a0bf-75303a9f91e6","ios":"levelo://app?vid=7d231a62-aa7a-4d87-a0bf-75303a9f91e6"},"vehicle_type_id":"4","last_reported":1750518545,"current_range_meters":15200,"station_id":"ce4bhi12rcd13ifvqfq0","pricing_plan_id":"cebpf4jnsgd1na2vs0mg"},{"bike_id":"b4b9f165-9b30-462c-875b-bb8dde06fcb2","system_id":"levelo_inurba_marseille","lat":43.217489,"lon":5.346105,"is_reserved":false,"is_disabled":false,"rental_uris":{"android":"levelo://app?vid=b4b9f165-9b30-462c-875b-bb8dde06fcb2","ios":"levelo://app?vid=b4b9f165-9b30-462c-875b-bb8dde06fcb2"},"vehicle_type_id":"4","last_reported":1750518545,"current_range_meters":15200,"station_id":"st_cvj6r9ubvosntc0bgbag","pricing_plan_id":"cebpf4jnsgd1na2vs0mg"},{"bike_id":"5a444312-ea58-41ad-8601-9a326005dcb0","system_id":"levelo_inurba_marseille","lat":43.21751,"lon":5.34614,"is_reserved":false,"is_disabled":false,"rental_uris":{"android":"levelo://app?vid=5a444312-ea58-41ad-8601-9a326005dcb0","ios":"levelo://app?vid=5a444312-ea58-41ad-8601-9a326005dcb0"},"vehicle_type_id":"4","last_reported":1750518545,"current_range_meters":15200,"station_id":"st_cvj6r9ubvosntc0bgbag","pricing_plan_id":"cebpf4jnsgd1na2vs0mg"},{"bike_id":"38b4578b-d322-4ae7-86ef-2a7e9839b4fd","system_id":"levelo_inurba_marseille","lat":43.21182,"lon":5.35075,"is_reserved":false,"is_disabled":false,"rental_uris":{"android":"levelo://app?vid=38b4578b-d322-4ae7-86ef-2a7e9839b4fd","ios":"levelo://app?vid=38b4578b-d322-4ae7-86ef-2a7e9839b4fd"},"vehicle_type_id":"4","last_reported":1750518545,"current_range_meters":15200,"station_id":"st_cvj6sg6p6f1abm77japg","pricing_plan_id":"cebpf4jnsgd1na2vs0mg"},{"bike_id":"6a4b59b0-64b7-4950-ae73-2324ba55dcce","system_id":"levelo_inurba_marseille","lat":43.330191,"lon":5.381535,"is_reserved":false,"is_disabled":false,"rental_uris":{"android":"levelo://app?vid=6a4b59b0-64b7-4950-ae73-2324ba55dcce","ios":"levelo://app?vid=6a4b59b0-64b7-4950-ae73-2324ba55dcce"},"vehicle_type_id":"4","last_reported":1750518545,"current_range_meters":16000,"station_id":"","pricing_plan_id":"cebpf4jnsgd1na2vs0mg"},{"bike_id":"a9e5e555-fdaf-49c0-b286-f0f2659b17d0","system_id":"levelo_inurba_marseille","lat":43.28318,"lon":5.43244,"is_reserved":false,"is_disabled":false,"rental_uris":{"android":"levelo://app?vid=a9e5e555-fdaf-49c0-b286-f0f2659b17d0","ios":"levelo://app?vid=a9e5e555-fdaf-49c0-b286-f0f2659b17d0"},"vehicle_type_id":"4","last_reported":1750518545,"current_range_meters":16000,"station_id":"","pricing_plan_id":"cebpf4jnsgd1na2vs0mg"},{"bike_id":"d580f51c-9c0b-4360-af03-44d51cbc1727","system_id":"levelo_inurba_marseille","lat":43.24437,"lon":5.37034,"is_reserved":false,"is_disabled":false,"rental_uris":{"android":"levelo://app?vid=d580f51c-9c0b-4360-af03-44d51cbc1727","ios":"levelo://app?vid=d580f51c-9c0b-4360-af03-44d51cbc1727"},"vehicle_type_id":"4","last_reported":1750518545,"current_range_meters":16000,"station_id":"","pricing_plan_id":"cebpf4jnsgd1na2vs0mg"},{"bike_id":"0e5379fc-4fcc-40bd-b66c-8423272fe729","system_id":"levelo_inurba_marseille","lat":43.30532,"lon":5.38424,"is_reserved":false,"is_disabled":false,"rental_uris":{"android":"levelo://app?vid=0e5379fc-4fcc-40bd-b66c-8423272fe729","ios":"levelo://app?vid=0e5379fc-4fcc-40bd-b66c-8423272fe729"},"vehicle_type_id":"4","last_reported":1750518545,"current_range_meters":16000,"station_id":"ce4bgg92rcd13ifvqb30","pricing_plan_id":"cebpf4jnsgd1na2vs0mg"},{"bike_id":"abeef298-4406-4f54-ab5b-4c2d52650c0d","system_id":"levelo_inurba_marseille","lat":43.30954,"lon":5.40151,"is_reserved":false,"is_disabled":false,"rental_uris":{"android":"levelo://app?vid=abeef298-4406-4f54-ab5b-4c2d52650c0d","ios":"levelo://app?vid=abeef298-4406-4f54-ab5b-4c2d52650c0d"},"vehicle_type_id":"4","last_reported":1750518545,"current_range_meters":16000,"station_id":"ce4bgvp2rcd13ifvqct0","pricing_plan_id":"cebpf4jnsgd1na2vs0mg"},{"bike_id":"1695d5a6-37aa-455b-bda2-223f6fb0192b","system_id":"levelo_inurba_marseille","lat":43.29873,"lon":5.39741,"is_reserved":false,"is_disabled":false,"rental_uris":{"android":"levelo://app?vid=1695d5a6-37aa-455b-bda2-223f6fb0192b","ios":"levelo://app?vid=1695d5a6-37aa-455b-bda2-223f6fb0192b"},"vehicle_type_id":"4","last_reported":1750518545,"current_range_meters":16000,"station_id":"ce4bh0h2rcd13ifvqd50","pricing_plan_id":"cebpf4jnsgd1na2vs0mg"},{"bike_id":"e1107fbd-fa62-4cc2-86fa-edf15b80f9db","system_id":"levelo_inurba_marseille","lat":43.28844,"lon":5.39306,"is_reserved":false,"is_disabled":false,"rental_uris":{"android":"levelo://app?vid=e1107fbd-fa62-4cc2-86fa-edf15b80f9db","ios":"levelo://app?vid=e1107fbd-fa62-4cc2-86fa-edf15b80f9db"},"vehicle_type_id":"4","last_reported":1750518545,"current_range_meters":16000,"station_id":"ce4bh2p2rcd13ifvqdi0","pricing_plan_id":"cebpf4jnsgd1na2vs0mg"},{"bike_id":"f9427a0d-2d47-427f-ae04-f3ce1790b822","system_id":"levelo_inurba_marseille","lat":43.25492,"lon":5.37648,"is_reserved":false,"is_disabled":false,"rental_uris":{"android":"levelo://app?vid=f9427a0d-2d47-427f-ae04-f3ce1790b822","ios":"levelo://app?vid=f9427a0d-2d47-427f-ae04-f3ce1790b822"},"vehicle_type_id":"4","last_reported":1750518545,"current_range_meters":16000,"station_id":"ce4bhh12rcd13ifvqff0","pricing_plan_id":"cebpf4jnsgd1na2vs0mg"},{"bike_id":"ba9439c0-c9a9-4c35-9bc3-b74240fbe686","system_id":"levelo_inurba_marseille","lat":43.26956,"lon":5.38628,"is_reserved":false,"is_disabled":false,"rental_uris":{"android":"levelo://app?vid=ba9439c0-c9a9-4c35-9bc3-b74240fbe686","ios":"levelo://app?vid=ba9439c0-c9a9-4c35-9bc3-b74240fbe686"},"vehicle_type_id":"4","last_reported":1750518545,"current_range_meters":16000,"station_id":"ce4bhh92rcd13ifvqfh0","pricing_plan_id":"cebpf4jnsgd1na2vs0mg"},{"bike_id":"901622af-9708-4e02-9cdb-0790ca41bedb","system_id":"levelo_inurba_marseille","lat":43.26065,"lon":5.39402,"is_reserved":false,"is_disabled":false,"rental_uris":{"android":"levelo://app?vid=901622af-9708-4e02-9cdb-0790ca41bedb","ios":"levelo://app?vid=901622af-9708-4e02-9cdb-0790ca41bedb"},"vehicle_type_id":"4","last_reported":1750518545,"current_range_meters":16000,"station_id":"ce4bhh92rcd13ifvqfj0","pricing_plan_id":"cebpf4jnsgd1na2vs0mg"},{"bike_id":"74deefeb-fb82-4755-896b-edadb608b3ab","system_id":"levelo_inurba_marseille","lat":43.25724,"lon":5.41114,"is_reserved":false,"is_disabled":false,"rental_uris":{"android":"levelo://app?vid=74deefeb-fb82-4755-896b-edadb608b3ab","ios":"levelo://app?vid=74deefeb-fb82-4755-896b-edadb608b3ab"},"vehicle_type_id":"4","last_reported":1750518545,"current_range_meters":16000,"station_id":"ce4bhkp2rcd13ifvqgd0","pricing_plan_id":"cebpf4jnsgd1na2vs0mg"},{"bike_id":"2276109f-a058-40cd-aa6e-eb1a4c04c2aa","system_id":"levelo_inurba_marseille","lat":43.25116,"lon":5.40298,"is_reserved":false,"is_disabled":false,"rental_uris":{"android":"levelo://app?vid=2276109f-a058-40cd-aa6e-eb1a4c04c2aa","ios":"levelo://app?vid=2276109f-a058-40cd-aa6e-eb1a4c04c2aa"},"vehicle_type_id":"4","last_reported":1750518545,"current_range_meters":16000,"station_id":"ce4bhlh2rcd13ifvqgig","pricing_plan_id":"cebpf4jnsgd1na2vs0mg"},{"bike_id":"a5a387ef-82d3-4953-b1bb-cf86aafffc28","system_id":"levelo_inurba_marseille","lat":43.28614,"lon":5.35105,"is_reserved":false,"is_disabled":false,"rental_uris":{"android":"levelo://app?vid=a5a387ef-82d3-4953-b1bb-cf86aafffc28","ios":"levelo://app?vid=a5a387ef-82d3-4953-b1bb-cf86aafffc28"},"vehicle_type_id":"4","last_reported":1750518545,"current_range_meters":16400,"station_id":"ce4bhch2rcd13ifvqeug","pricing_plan_id":"cebpf4jnsgd1na2vs0mg"},{"bike_id":"af2514ba-6622-4d2e-9967-dcbd64d8f28b","system_id":"levelo_inurba_marseille","lat":43.28618,"lon":5.35101,"is_reserved":false,"is_disabled":false,"rental_uris":{"android":"levelo://app?vid=af2514ba-6622-4d2e-9967-dcbd64d8f28b","ios":"levelo://app?vid=af2514ba-6622-4d2e-9967-dcbd64d8f28b"},"vehicle_type_id":"4","last_reported":1750518545,"current_range_meters":16400,"station_id":"ce4bhch2rcd13ifvqeug","pricing_plan_id":"cebpf4jnsgd1na2vs0mg"},{"bike_id":"32ce7720-880c-469d-8048-027c8631c176","system_id":"levelo_inurba_marseille","lat":43.25482,"lon":5.37678,"is_reserved":false,"is_disabled":false,"rental_uris":{"android":"levelo://app?vid=32ce7720-880c-469d-8048-027c8631c176","ios":"levelo://app?vid=32ce7720-880c-469d-8048-027c8631c176"},"vehicle_type_id":"4","last_reported":1750518545,"current_range_meters":16400,"station_id":"ce4bhh12rcd13ifvqff0","pricing_plan_id":"cebpf4jnsgd1na2vs0mg"},{"bike_id":"720a548a-81a2-4e2e-8f23-36e0d4232cf3","system_id":"levelo_inurba_marseille","lat":43.23961,"lon":5.36645,"is_reserved":false,"is_disabled":false,"rental_uris":{"android":"levelo://app?vid=720a548a-81a2-4e2e-8f23-36e0d4232cf3","ios":"levelo://app?vid=720a548a-81a2-4e2e-8f23-36e0d4232cf3"},"vehicle_type_id":"4","last_reported":1750518545,"current_range_meters":16400,"station_id":"ce4bhi12rcd13ifvqfp0","pricing_plan_id":"cebpf4jnsgd1na2vs0mg"},{"bike_id":"0c483017-d5e6-45c6-b121-108a4955fcc0","system_id":"levelo_inurba_marseille","lat":43.23169,"lon":5.40001,"is_reserved":false,"is_disabled":false,"rental_uris":{"android":"levelo://app?vid=0c483017-d5e6-45c6-b121-108a4955fcc0","ios":"levelo://app?vid=0c483017-d5e6-45c6-b121-108a4955fcc0"},"vehicle_type_id":"4","last_reported":1750518545,"current_range_meters":16400,"station_id":"ce4bhn12rcd13ifvqgqg","pricing_plan_id":"cebpf4jnsgd1na2vs0mg"},{"bike_id":"db76ccd8-7907-4d3d-8ebd-ea0cdadbca52","system_id":"levelo_inurba_marseille","lat":43.27169,"lon":5.39096,"is_reserved":false,"is_disabled":false,"rental_uris":{"android":"levelo://app?vid=db76ccd8-7907-4d3d-8ebd-ea0cdadbca52","ios":"levelo://app?vid=db76ccd8-7907-4d3d-8ebd-ea0cdadbca52"},"vehicle_type_id":"4","last_reported":1750518545,"current_range_meters":16800,"station_id":"","pricing_plan_id":"cebpf4jnsgd1na2vs0mg"},{"bike_id":"8b878130-8255-4f3a-afed-2701f3c4f473","system_id":"levelo_inurba_marseille","lat":43.21739,"lon":5.3464,"is_reserved":false,"is_disabled":false,"rental_uris":{"android":"levelo://app?vid=8b878130-8255-4f3a-afed-2701f3c4f473","ios":"levelo://app?vid=8b878130-8255-4f3a-afed-2701f3c4f473"},"vehicle_type_id":"4","last_reported":1750518545,"current_range_meters":16800,"station_id":"","pricing_plan_id":"cebpf4jnsgd1na2vs0mg"},{"bike_id":"5296806a-ba18-41c0-9e1f-21920c59df21","system_id":"levelo_inurba_marseille","lat":43.29272,"lon":5.38434,"is_reserved":false,"is_disabled":false,"rental_uris":{"android":"levelo://app?vid=5296806a-ba18-41c0-9e1f-21920c59df21","ios":"levelo://app?vid=5296806a-ba18-41c0-9e1f-21920c59df21"},"vehicle_type_id":"4","last_reported":1750518545,"current_range_meters":16800,"station_id":"ce4bh692rcd13ifvqea0","pricing_plan_id":"cebpf4jnsgd1na2vs0mg"},{"bike_id":"41b8da94-4253-4876-9c48-4e6835d4d50f","system_id":"levelo_inurba_marseille","lat":43.26556,"lon":5.37301,"is_reserved":false,"is_disabled":false,"rental_uris":{"android":"levelo://app?vid=41b8da94-4253-4876-9c48-4e6835d4d50f","ios":"levelo://app?vid=41b8da94-4253-4876-9c48-4e6835d4d50f"},"vehicle_type_id":"4","last_reported":1750518545,"current_range_meters":16800,"station_id":"ce4bhg12rcd13ifvqf70","pricing_plan_id":"cebpf4jnsgd1na2vs0mg"},{"bike_id":"9c1a509a-07fd-4db4-a432-a49c5321e572","system_id":"levelo_inurba_marseille","lat":43.2656,"lon":5.372953,"is_reserved":false,"is_disabled":false,"rental_uris":{"android":"levelo://app?vid=9c1a509a-07fd-4db4-a432-a49c5321e572","ios":"levelo://app?vid=9c1a509a-07fd-4db4-a432-a49c5321e572"},"vehicle_type_id":"4","last_reported":1750518545,"current_range_meters":16800,"station_id":"ce4bhg12rcd13ifvqf70","pricing_plan_id":"cebpf4jnsgd1na2vs0mg"},{"bike_id":"d78d9dbd-b2a9-4684-ba4c-766abfa9a5d4","system_id":"levelo_inurba_marseille","lat":43.28157,"lon":5.42637,"is_reserved":false,"is_disabled":false,"rental_uris":{"android":"levelo://app?vid=d78d9dbd-b2a9-4684-ba4c-766abfa9a5d4","ios":"levelo://app?vid=d78d9dbd-b2a9-4684-ba4c-766abfa9a5d4"},"vehicle_type_id":"4","last_reported":1750518545,"current_range_meters":16800,"station_id":"ce4bhnh2rcd13ifvqgug","pricing_plan_id":"cebpf4jnsgd1na2vs0mg"},{"bike_id":"93f789f2-921a-4f1c-857b-2ea4ae07c349","system_id":"levelo_inurba_marseille","lat":43.28001,"lon":5.40006,"is_reserved":false,"is_disabled":false,"rental_uris":{"android":"levelo://app?vid=93f789f2-921a-4f1c-857b-2ea4ae07c349","ios":"levelo://app?vid=93f789f2-921a-4f1c-857b-2ea4ae07c349"},"vehicle_type_id":"4","last_reported":1750518545,"current_range_meters":16800,"station_id":"ce4bho92rcd13ifvqh4g","pricing_plan_id":"cebpf4jnsgd1na2vs0mg"},{"bike_id":"1c6eee43-889f-4cff-bc8c-307447a31830","system_id":"levelo_inurba_marseille","lat":43.30805,"lon":5.43535,"is_reserved":false,"is_disabled":false,"rental_uris":{"android":"levelo://app?vid=1c6eee43-889f-4cff-bc8c-307447a31830","ios":"levelo://app?vid=1c6eee43-889f-4cff-bc8c-307447a31830"},"vehicle_type_id":"4","last_reported":1750518545,"current_range_meters":16800,"station_id":"ce4bhph2rcd13ifvqheg","pricing_plan_id":"cebpf4jnsgd1na2vs0mg"},{"bike_id":"7943c725-cc5f-4e63-9abd-def0470a4ba5","system_id":"levelo_inurba_marseille","lat":43.23063,"lon":5.35496,"is_reserved":false,"is_disabled":false,"rental_uris":{"android":"levelo://app?vid=7943c725-cc5f-4e63-9abd-def0470a4ba5","ios":"levelo://app?vid=7943c725-cc5f-4e63-9abd-def0470a4ba5"},"vehicle_type_id":"4","last_reported":1750518545,"current_range_meters":16800,"station_id":"cpo3342slgdg3j2ifvpg","pricing_plan_id":"cebpf4jnsgd1na2vs0mg"},{"bike_id":"7c3434e7-ecd7-4565-9a0f-952b018128a9","system_id":"levelo_inurba_marseille","lat":43.21201,"lon":5.35083,"is_reserved":false,"is_disabled":false,"rental_uris":{"android":"levelo://app?vid=7c3434e7-ecd7-4565-9a0f-952b018128a9","ios":"levelo://app?vid=7c3434e7-ecd7-4565-9a0f-952b018128a9"},"vehicle_type_id":"4","last_reported":1750518545,"current_range_meters":16800,"station_id":"st_cvj6sg6p6f1abm77japg","pricing_plan_id":"cebpf4jnsgd1na2vs0mg"},{"bike_id":"4d80d21e-3dc9-4004-a3c0-eb7b371a8ccf","system_id":"levelo_inurba_marseille","lat":43.33037,"lon":5.393758,"is_reserved":false,"is_disabled":false,"rental_uris":{"android":"levelo://app?vid=4d80d21e-3dc9-4004-a3c0-eb7b371a8ccf","ios":"levelo://app?vid=4d80d21e-3dc9-4004-a3c0-eb7b371a8ccf"},"vehicle_type_id":"4","last_reported":1750518545,"current_range_meters":17200,"station_id":"","pricing_plan_id":"cebpf4jnsgd1na2vs0mg"},{"bike_id":"ffbb0c22-3f4e-4cdb-a0e5-79e3b9f3e1a2","system_id":"levelo_inurba_marseille","lat":43.33769,"lon":5.37469,"is_reserved":false,"is_disabled":false,"rental_uris":{"android":"levelo://app?vid=ffbb0c22-3f4e-4cdb-a0e5-79e3b9f3e1a2","ios":"levelo://app?vid=ffbb0c22-3f4e-4cdb-a0e5-79e3b9f3e1a2"},"vehicle_type_id":"4","last_reported":1750518545,"current_range_meters":17200,"station_id":"","pricing_plan_id":"cebpf4jnsgd1na2vs0mg"},{"bike_id":"aeef4c88-b360-4d07-b8c0-e8db40c5f253","system_id":"levelo_inurba_marseille","lat":43.2848,"lon":5.38555,"is_reserved":false,"is_disabled":false,"rental_uris":{"android":"levelo://app?vid=aeef4c88-b360-4d07-b8c0-e8db40c5f253","ios":"levelo://app?vid=aeef4c88-b360-4d07-b8c0-e8db40c5f253"},"vehicle_type_id":"4","last_reported":1750518545,"current_range_meters":17200,"station_id":"ce4bh8p2rcd13ifvqeb0","pricing_plan_id":"cebpf4jnsgd1na2vs0mg"},{"bike_id":"2d6778e3-f623-4c54-91c5-bd18912b2882","system_id":"levelo_inurba_marseille","lat":43.32337,"lon":5.40621,"is_reserved":false,"is_disabled":false,"rental_uris":{"android":"levelo://app?vid=2d6778e3-f623-4c54-91c5-bd18912b2882","ios":"levelo://app?vid=2d6778e3-f623-4c54-91c5-bd18912b2882"},"vehicle_type_id":"4","last_reported":1750518545,"current_range_meters":17200,"station_id":"ce4bhq92rcd13ifvqhjg","pricing_plan_id":"cebpf4jnsgd1na2vs0mg"},{"bike_id":"3d0d2314-50ce-4ba4-96bc-3092f680ff03","system_id":"levelo_inurba_marseille","lat":43.30546,"lon":5.3843,"is_reserved":false,"is_disabled":false,"rental_uris":{"android":"levelo://app?vid=3d0d2314-50ce-4ba4-96bc-3092f680ff03","ios":"levelo://app?vid=3d0d2314-50ce-4ba4-96bc-3092f680ff03"},"vehicle_type_id":"4","last_reported":1750518545,"current_range_meters":17600,"station_id":"ce4bgg92rcd13ifvqb30","pricing_plan_id":"cebpf4jnsgd1na2vs0mg"},{"bike_id":"3483dabf-cfd0-441c-aa42-691ee5a35ae7","system_id":"levelo_inurba_marseille","lat":43.30546,"lon":5.36563,"is_reserved":false,"is_disabled":false,"rental_uris":{"android":"levelo://app?vid=3483dabf-cfd0-441c-aa42-691ee5a35ae7","ios":"levelo://app?vid=3483dabf-cfd0-441c-aa42-691ee5a35ae7"},"vehicle_type_id":"4","last_reported":1750518545,"current_range_meters":17600,"station_id":"ce4bgs12rcd13ifvqcag","pricing_plan_id":"cebpf4jnsgd1na2vs0mg"},{"bike_id":"44a353ec-32c3-4035-8616-99e3983674bc","system_id":"levelo_inurba_marseille","lat":43.27918,"lon":5.39579,"is_reserved":false,"is_disabled":false,"rental_uris":{"android":"levelo://app?vid=44a353ec-32c3-4035-8616-99e3983674bc","ios":"levelo://app?vid=44a353ec-32c3-4035-8616-99e3983674bc"},"vehicle_type_id":"4","last_reported":1750518545,"current_range_meters":17600,"station_id":"ce4bhf92rcd13ifvqf40","pricing_plan_id":"cebpf4jnsgd1na2vs0mg"},{"bike_id":"b2991e30-3a4d-48e4-a58f-10b277fd9732","system_id":"levelo_inurba_marseille","lat":43.26684,"lon":5.3827,"is_reserved":false,"is_disabled":false,"rental_uris":{"android":"levelo://app?vid=b2991e30-3a4d-48e4-a58f-10b277fd9732","ios":"levelo://app?vid=b2991e30-3a4d-48e4-a58f-10b277fd9732"},"vehicle_type_id":"4","last_reported":1750518545,"current_range_meters":17600,"station_id":"ce4bhg92rcd13ifvqf90","pricing_plan_id":"cebpf4jnsgd1na2vs0mg"},{"bike_id":"da4e6891-dc15-45f1-b2dc-07f82743c65f","system_id":"levelo_inurba_marseille","lat":43.26214,"lon":5.37444,"is_reserved":false,"is_disabled":false,"rental_uris":{"android":"levelo://app?vid=da4e6891-dc15-45f1-b2dc-07f82743c65f","ios":"levelo://app?vid=da4e6891-dc15-45f1-b2dc-07f82743c65f"},"vehicle_type_id":"4","last_reported":1750518545,"current_range_meters":17600,"station_id":"ce4bhgp2rcd13ifvqfc0","pricing_plan_id":"cebpf4jnsgd1na2vs0mg"},{"bike_id":"22174934-12b8-4eb3-8d3a-c6adcc86bacf","system_id":"levelo_inurba_marseille","lat":43.26186,"lon":5.3745,"is_reserved":false,"is_disabled":false,"rental_uris":{"android":"levelo://app?vid=22174934-12b8-4eb3-8d3a-c6adcc86bacf","ios":"levelo://app?vid=22174934-12b8-4eb3-8d3a-c6adcc86bacf"},"vehicle_type_id":"4","last_reported":1750518545,"current_range_meters":17600,"station_id":"ce4bhgp2rcd13ifvqfc0","pricing_plan_id":"cebpf4jnsgd1na2vs0mg"},{"bike_id":"863bb5a1-e705-4249-a48e-3c6ff01a54be","system_id":"levelo_inurba_marseille","lat":43.27487,"lon":5.42455,"is_reserved":false,"is_disabled":false,"rental_uris":{"android":"levelo://app?vid=863bb5a1-e705-4249-a48e-3c6ff01a54be","ios":"levelo://app?vid=863bb5a1-e705-4249-a48e-3c6ff01a54be"},"vehicle_type_id":"4","last_reported":1750518545,"current_range_meters":17600,"station_id":"ce4bhn92rcd13ifvqgrg","pricing_plan_id":"cebpf4jnsgd1na2vs0mg"},{"bike_id":"4d4df371-4a07-4078-b66c-0646e04ad4bf","system_id":"levelo_inurba_marseille","lat":43.29896,"lon":5.43658,"is_reserved":false,"is_disabled":false,"rental_uris":{"android":"levelo://app?vid=4d4df371-4a07-4078-b66c-0646e04ad4bf","ios":"levelo://app?vid=4d4df371-4a07-4078-b66c-0646e04ad4bf"},"vehicle_type_id":"4","last_reported":1750518545,"current_range_meters":17600,"station_id":"ce4bhpp2rcd13ifvqhfg","pricing_plan_id":"cebpf4jnsgd1na2vs0mg"},{"bike_id":"b0425f83-34a3-4050-ae51-e13174605ac9","system_id":"levelo_inurba_marseille","lat":43.23193,"lon":5.35553,"is_reserved":false,"is_disabled":false,"rental_uris":{"android":"levelo://app?vid=b0425f83-34a3-4050-ae51-e13174605ac9","ios":"levelo://app?vid=b0425f83-34a3-4050-ae51-e13174605ac9"},"vehicle_type_id":"4","last_reported":1750518545,"current_range_meters":17600,"station_id":"ce4bhu92rcd13ifvqi70","pricing_plan_id":"cebpf4jnsgd1na2vs0mg"},{"bike_id":"ee6fddf9-6863-4a13-a31b-2f3228223d7e","system_id":"levelo_inurba_marseille","lat":43.21208,"lon":5.35061,"is_reserved":false,"is_disabled":false,"rental_uris":{"android":"levelo://app?vid=ee6fddf9-6863-4a13-a31b-2f3228223d7e","ios":"levelo://app?vid=ee6fddf9-6863-4a13-a31b-2f3228223d7e"},"vehicle_type_id":"4","last_reported":1750518545,"current_range_meters":17600,"station_id":"st_cvj6sg6p6f1abm77japg","pricing_plan_id":"cebpf4jnsgd1na2vs0mg"},{"bike_id":"4a183ea1-3984-4b5d-821c-9719819836a2","system_id":"levelo_inurba_marseille","lat":43.284315,"lon":5.374933,"is_reserved":false,"is_disabled":false,"rental_uris":{"android":"levelo://app?vid=4a183ea1-3984-4b5d-821c-9719819836a2","ios":"levelo://app?vid=4a183ea1-3984-4b5d-821c-9719819836a2"},"vehicle_type_id":"4","last_reported":1750518545,"current_range_meters":18000,"station_id":"","pricing_plan_id":"cebpf4jnsgd1na2vs0mg"},{"bike_id":"0a332bb2-d8cd-4721-9172-11b134b6553b","system_id":"levelo_inurba_marseille","lat":43.29542,"lon":5.37507,"is_reserved":false,"is_disabled":false,"rental_uris":{"android":"levelo://app?vid=0a332bb2-d8cd-4721-9172-11b134b6553b","ios":"levelo://app?vid=0a332bb2-d8cd-4721-9172-11b134b6553b"},"vehicle_type_id":"4","last_reported":1750518545,"current_range_meters":18000,"station_id":"ce4bgkp2rcd13ifvqbmg","pricing_plan_id":"cebpf4jnsgd1na2vs0mg"},{"bike_id":"30d48425-1713-47e7-8684-f48e7ffa0222","system_id":"levelo_inurba_marseille","lat":43.29097,"lon":5.38122,"is_reserved":false,"is_disabled":false,"rental_uris":{"android":"levelo://app?vid=30d48425-1713-47e7-8684-f48e7ffa0222","ios":"levelo://app?vid=30d48425-1713-47e7-8684-f48e7ffa0222"},"vehicle_type_id":"4","last_reported":1750518545,"current_range_meters":18000,"station_id":"ce4bh512rcd13ifvqe2g","pricing_plan_id":"cebpf4jnsgd1na2vs0mg"},{"bike_id":"a1d9b9e4-7a89-458b-aba2-bb83ee93d746","system_id":"levelo_inurba_marseille","lat":43.26964,"lon":5.40253,"is_reserved":false,"is_disabled":false,"rental_uris":{"android":"levelo://app?vid=a1d9b9e4-7a89-458b-aba2-bb83ee93d746","ios":"levelo://app?vid=a1d9b9e4-7a89-458b-aba2-bb83ee93d746"},