{"last_updated":1687277288,"ttl":30,"version":"2.2","data":{"bikes":[{"bike_id":"250cc0ef-c0ab-4809-b1bc-27414cf483bd","system_id":"levelo_inurba_marseille","lat":43.31361,"lon":5.36718,"is_reserved":false,"is_disabled":false,"rental_uris":{"android":"levelo://app?vid=250cc0ef-c0ab-4809-b1bc-27414cf483bd","ios":"levelo://app?vid=250cc0ef-c0ab-4809-b1bc-27414cf483bd"},"vehicle_type_id":"4","last_reported":1687277288,"current_range_meters":20000,"station_id":"ce4bgr92rcd13ifvqc6g","pricing_plan_id":"free"},{"bike_id":"264c8342-2b94-4398-be94-562763d86776","system_id":"levelo_inurba_marseille","lat":43.31363,"lon":5.36725,"is_reserved":false,"is_disabled":false,"rental_uris":{"android":"levelo://app?vid=264c8342-2b94-4398-be94-562763d86776","ios":"levelo://app?vid=264c8342-2b94-4398-be94-562763d86776"},"vehicle_type_id":"4","last_reported":1687277288,"current_range_meters":16800,"station_id":"ce4bgr92rcd13ifvqc6g","pricing_plan_id":"free"},{"bike_id":"6e4fd040-1866-4783-872c-dd21a7ae18af","system_id":"levelo_inurba_marseille","lat":43.31355,"lon":5.37051,"is_reserved":false,"is_disabled":false,"rental_uris":{"android":"levelo://app?vid=6e4fd040-1866-4783-872c-dd21a7ae18af","ios":"levelo://app?vid=6e4fd040-1866-4783-872c-dd21a7ae18af"},"vehicle_type_id":"4","last_reported":1687277288,"current_range_meters":14400,"station_id":"","pricing_plan_id":"free"},{"bike_id":"e8e50549-4f14-4a79-8e01-73f4b2c3ac89","system_id":"levelo_inurba_marseille","lat":43.314811,"lon":5.373103,"is_reserved":false,"is_disabled":false,"rental_uris":{"android":"levelo://app?vid=e8e50549-4f14-4a79-8e01-73f4b2c3ac89","ios":"levelo://app?vid=e8e50549-4f14-4a79-8e01-73f4b2c3ac89"},"vehicle_type_id":"4","last_reported":1687277288,"current_range_meters":15200,"station_id":"ce4bgt12rcd13ifvqcd0","pricing_plan_id":"free"},{"bike_id":"2c4714bf-8847-4951-adce-82bd37ebb59a","system_id":"levelo_inurba_marseille","lat":43.314811,"lon":5.373103,"is_reserved":false,"is_disabled":false,"rental_uris":{"android":"levelo://app?vid=2c4714bf-8847-4951-adce-82bd37ebb59a","ios":"levelo://app?vid=2c4714bf-8847-4951-adce-82bd37ebb59a"},"vehicle_type_id":"4","last_reported":1687277288,"current_range_meters":30400,"station_id":"ce4bgt12rcd13ifvqcd0","pricing_plan_id":"free"},{"bike_id":"3da540aa-5929-4d4a-8397-46574265df24","system_id":"levelo_inurba_marseille","lat":43.30776,"lon":5.36743,"is_reserved":false,"is_disabled":false,"rental_uris":{"android":"levelo://app?vid=3da540aa-5929-4d4a-8397-46574265df24","ios":"levelo://app?vid=3da540aa-5929-4d4a-8397-46574265df24"},"vehicle_type_id":"4","last_reported":1687277288,"current_range_meters":17200,"station_id":"","pricing_plan_id":"free"},{"bike_id":"a6e070c8-d5a7-4a2c-853a-cac1b9e6cd71","system_id":"levelo_inurba_marseille","lat":43.31494,"lon":5.37312,"is_reserved":false,"is_disabled":false,"rental_uris":{"android":"levelo://app?vid=a6e070c8-d5a7-4a2c-853a-cac1b9e6cd71","ios":"levelo://app?vid=a6e070c8-d5a7-4a2c-853a-cac1b9e6cd71"},"vehicle_type_id":"4","last_reported":1687277288,"current_range_meters":16000,"station_id":"ce4bgt12rcd13ifvqcd0","pricing_plan_id":"free"},{"bike_id":"390f6538-75dd-4645-8db1-3e654c15e185","system_id":"levelo_inurba_marseille","lat":43.314811,"lon":5.373103,"is_reserved":false,"is_disabled":false,"rental_uris":{"android":"levelo://app?vid=390f6538-75dd-4645-8db1-3e654c15e185","ios":"levelo://app?vid=390f6538-75dd-4645-8db1-3e654c15e185"},"vehicle_type_id":"4","last_reported":1687277288,"current_range_meters":12800,"station_id":"ce4bgt12rcd13ifvqcd0","pricing_plan_id":"free"},{"bike_id":"e4222cc3-9d87-4f82-a771-afbe3adff934","system_id":"levelo_inurba_marseille","lat":43.314811,"lon":5.373103,"is_reserved":false,"is_disabled":false,"rental_uris":{"android":"levelo://app?vid=e4222cc3-9d87-4f82-a771-afbe3adff934","ios":"levelo://app?vid=e4222cc3-9d87-4f82-a771-afbe3adff934"},"vehicle_type_id":"4","last_reported":1687277288,"current_range_meters":28800,"station_id":"ce4bgt12rcd13ifvqcd0","pricing_plan_id":"free"},{"bike_id":"e51d1bfc-8899-49fd-8f58-8d92ee537c37","system_id":"levelo_inurba_marseille","lat":43.30891,"lon":5.37196,"is_reserved":false,"is_disabled":false,"rental_uris":{"android":"levelo://app?vid=e51d1bfc-8899-49fd-8f58-8d92ee537c37","ios":"levelo://app?vid=e51d1bfc-8899-49fd-8f58-8d92ee537c37"},"vehicle_type_id":"4","last_reported":1687277288,"current_range_meters":26400,"station_id":"","pricing_plan_id":"free"},{"bike_id":"31e6285d-fbd7-42a1-94cc-7c467af44902","system_id":"levelo_inurba_marseille","lat":43.305989,"lon":5.37225,"is_reserved":false,"is_disabled":false,"rental_uris":{"android":"levelo://app?vid=31e6285d-fbd7-42a1-94cc-7c467af44902","ios":"levelo://app?vid=31e6285d-fbd7-42a1-94cc-7c467af44902"},"vehicle_type_id":"4","last_reported":1687277288,"current_range_meters":1600,"station_id":"ce4bgqh2rcd13ifvqc4g","pricing_plan_id":"free"},{"bike_id":"e2d316ea-b501-48fa-95fd-f104f0fa5547","system_id":"levelo_inurba_marseille","lat":43.311131,"lon":5.377651,"is_reserved":false,"is_disabled":false,"rental_uris":{"android":"levelo://app?vid=e2d316ea-b501-48fa-95fd-f104f0fa5547","ios":"levelo://app?vid=e2d316ea-b501-48fa-95fd-f104f0fa5547"},"vehicle_type_id":"4","last_reported":1687277288,"current_range_meters":29200,"station_id":"ce4bgt92rcd13ifvqcg0","pricing_plan_id":"free"},{"bike_id":"6c074178-7647-493c-8209-e9add47c4be1","system_id":"levelo_inurba_marseille","lat":43.301939,"lon":5.366286,"is_reserved":false,"is_disabled":false,"rental_uris":{"android":"levelo://app?vid=6c074178-7647-493c-8209-e9add47c4be1","ios":"levelo://app?vid=6c074178-7647-493c-8209-e9add47c4be1"},"vehicle_type_id":"4","last_reported":1687277288,"current_range_meters":0,"station_id":"ce4bgrh2rcd13ifvqc8g","pricing_plan_id":"free"},{"bike_id":"0653a417-4cad-4bb7-b30f-de20181868d3","system_id":"levelo_inurba_marseille","lat":43.301939,"lon":5.366286,"is_reserved":false,"is_disabled":false,"rental_uris":{"android":"levelo://app?vid=0653a417-4cad-4bb7-b30f-de20181868d3","ios":"levelo://app?vid=0653a417-4cad-4bb7-b30f-de20181868d3"},"vehicle_type_id":"4","last_reported":1687277288,"current_range_meters":0,"station_id":"ce4bgrh2rcd13ifvqc8g","pricing_plan_id":"free"},{"bike_id":"ae33307b-fcd5-479b-9ae1-9002ed226c6e","system_id":"levelo_inurba_marseille","lat":43.308012,"lon":5.381511,"is_reserved":false,"is_disabled":false,"rental_uris":{"android":"levelo://app?vid=ae33307b-fcd5-479b-9ae1-9002ed226c6e","ios":"levelo://app?vid=ae33307b-fcd5-479b-9ae1-9002ed226c6e"},"vehicle_type_id":"4","last_reported":1687277288,"current_range_meters":20000,"station_id":"ce4bgt12rcd13ifvqce0","pricing_plan_id":"free"},{"bike_id":"43fc693e-f2a9-4aec-8fd9-d094bb02cb70","system_id":"levelo_inurba_marseille","lat":43.304606,"lon":5.379026,"is_reserved":false,"is_disabled":false,"rental_uris":{"android":"levelo://app?vid=43fc693e-f2a9-4aec-8fd9-d094bb02cb70","ios":"levelo://app?vid=43fc693e-f2a9-4aec-8fd9-d094bb02cb70"},"vehicle_type_id":"4","last_reported":1687277288,"current_range_meters":9200,"station_id":"ce4bgup2rcd13ifvqcn0","pricing_plan_id":"free"},{"bike_id":"13903f3e-13d5-499b-8d8f-f1f4ae629dcd","system_id":"levelo_inurba_marseille","lat":43.302784,"lon":5.377158,"is_reserved":false,"is_disabled":false,"rental_uris":{"android":"levelo://app?vid=13903f3e-13d5-499b-8d8f-f1f4ae629dcd","ios":"levelo://app?vid=13903f3e-13d5-499b-8d8f-f1f4ae629dcd"},"vehicle_type_id":"4","last_reported":1687277288,"current_range_meters":0,"station_id":"ce4bguh2rcd13ifvqcj0","pricing_plan_id":"free"},{"bike_id":"131aed7c-b967-45a6-871f-e007ad118e9b","system_id":"levelo_inurba_marseille","lat":43.298433,"lon":5.362774,"is_reserved":false,"is_disabled":false,"rental_uris":{"android":"levelo://app?vid=131aed7c-b967-45a6-871f-e007ad118e9b","ios":"levelo://app?vid=131aed7c-b967-45a6-871f-e007ad118e9b"},"vehicle_type_id":"4","last_reported":1687277288,"current_range_meters":13200,"station_id":"ce4bgpp2rcd13ifvqc3g","pricing_plan_id":"free"},{"bike_id":"6eca5591-369e-4057-96f2-81a0e3f45892","system_id":"levelo_inurba_marseille","lat":43.311722,"lon":5.387247,"is_reserved":false,"is_disabled":false,"rental_uris":{"android":"levelo://app?vid=6eca5591-369e-4057-96f2-81a0e3f45892","ios":"levelo://app?vid=6eca5591-369e-4057-96f2-81a0e3f45892"},"vehicle_type_id":"4","last_reported":1687277288,"current_range_meters":24400,"station_id":"ce4bgv12rcd13ifvqcp0","pricing_plan_id":"free"},{"bike_id":"cf711208-de3f-42ad-9cf0-a880a26b74e6","system_id":"levelo_inurba_marseille","lat":43.32637,"lon":5.37514,"is_reserved":false,"is_disabled":false,"rental_uris":{"android":"levelo://app?vid=cf711208-de3f-42ad-9cf0-a880a26b74e6","ios":"levelo://app?vid=cf711208-de3f-42ad-9cf0-a880a26b74e6"},"vehicle_type_id":"4","last_reported":1687277288,"current_range_meters":0,"station_id":"","pricing_plan_id":"free"},{"bike_id":"408cdbd3-920b-45b4-ab4e-0217d7cee4ab","system_id":"levelo_inurba_marseille","lat":43.32824,"lon":5.36694,"is_reserved":false,"is_disabled":false,"rental_uris":{"android":"levelo://app?vid=408cdbd3-920b-45b4-ab4e-0217d7cee4ab","ios":"levelo://app?vid=408cdbd3-920b-45b4-ab4e-0217d7cee4ab"},"vehicle_type_id":"4","last_reported":1687277288,"current_range_meters":11200,"station_id":"ce4bhs92rcd13ifvqi0g","pricing_plan_id":"free"},{"bike_id":"b4ea75e9-eca7-4ccc-91f9-d0cb06a4a0a6","system_id":"levelo_inurba_marseille","lat":43.328371,"lon":5.366912,"is_reserved":false,"is_disabled":false,"rental_uris":{"android":"levelo://app?vid=b4ea75e9-eca7-4ccc-91f9-d0cb06a4a0a6","ios":"levelo://app?vid=b4ea75e9-eca7-4ccc-91f9-d0cb06a4a0a6"},"vehicle_type_id":"4","last_reported":1687277288,"current_range_meters":30000,"station_id":"ce4bhs92rcd13ifvqi0g","pricing_plan_id":"free"},{"bike_id":"b7074c3e-4ff6-4221-97e7-199682884fdf","system_id":"levelo_inurba_marseille","lat":43.32835,"lon":5.36688,"is_reserved":false,"is_disabled":false,"rental_uris":{"android":"levelo://app?vid=b7074c3e-4ff6-4221-97e7-199682884fdf","ios":"levelo://app?vid=b7074c3e-4ff6-4221-97e7-199682884fdf"},"vehicle_type_id":"4","last_reported":1687277288,"current_range_meters":13200,"station_id":"ce4bhs92rcd13ifvqi0g","pricing_plan_id":"free"},{"bike_id":"832e1273-fa14-42aa-b411-4f520f45589b","system_id":"levelo_inurba_marseille","lat":43.328371,"lon":5.366912,"is_reserved":false,"is_disabled":false,"rental_uris":{"android":"levelo://app?vid=832e1273-fa14-42aa-b411-4f520f45589b","ios":"levelo://app?vid=832e1273-fa14-42aa-b411-4f520f45589b"},"vehicle_type_id":"4","last_reported":1687277288,"current_range_meters":31200,"station_id":"ce4bhs92rcd13ifvqi0g","pricing_plan_id":"free"},{"bike_id":"db4e72b2-ad08-4787-8cc1-d917696a4d8b","system_id":"levelo_inurba_marseille","lat":43.328371,"lon":5.366909,"is_reserved":false,"is_disabled":false,"rental_uris":{"android":"levelo://app?vid=db4e72b2-ad08-4787-8cc1-d917696a4d8b","ios":"levelo://app?vid=db4e72b2-ad08-4787-8cc1-d917696a4d8b"},"vehicle_type_id":"4","last_reported":1687277288,"current_range_meters":30400,"station_id":"ce4bhs92rcd13ifvqi0g","pricing_plan_id":"free"},{"bike_id":"176f4894-d7fc-460e-aa5d-7c8c1e206dc3","system_id":"levelo_inurba_marseille","lat":43.29705,"lon":5.36612,"is_reserved":false,"is_disabled":false,"rental_uris":{"android":"levelo://app?vid=176f4894-d7fc-460e-aa5d-7c8c1e206dc3","ios":"levelo://app?vid=176f4894-d7fc-460e-aa5d-7c8c1e206dc3"},"vehicle_type_id":"4","last_reported":1687277288,"current_range_meters":24000,"station_id":"ce4bgn12rcd13ifvqbt0","pricing_plan_id":"free"},{"bike_id":"96e08368-b9c4-4421-b7eb-f2995e5149b4","system_id":"levelo_inurba_marseille","lat":43.296131,"lon":5.370773,"is_reserved":false,"is_disabled":false,"rental_uris":{"android":"levelo://app?vid=96e08368-b9c4-4421-b7eb-f2995e5149b4","ios":"levelo://app?vid=96e08368-b9c4-4421-b7eb-f2995e5149b4"},"vehicle_type_id":"4","last_reported":1687277288,"current_range_meters":400,"station_id":"ce4bgnh2rcd13ifvqc0g","pricing_plan_id":"free"},{"bike_id":"48d6f787-1506-4930-8766-7deaf35dbbb0","system_id":"levelo_inurba_marseille","lat":43.29573,"lon":5.367355,"is_reserved":false,"is_disabled":false,"rental_uris":{"android":"levelo://app?vid=48d6f787-1506-4930-8766-7deaf35dbbb0","ios":"levelo://app?vid=48d6f787-1506-4930-8766-7deaf35dbbb0"},"vehicle_type_id":"4","last_reported":1687277288,"current_range_meters":800,"station_id":"ce4bgph2rcd13ifvqc2g","pricing_plan_id":"free"},{"bike_id":"24f41ca5-b432-4feb-a0c8-a15026b97306","system_id":"levelo_inurba_marseille","lat":43.296131,"lon":5.370773,"is_reserved":false,"is_disabled":false,"rental_uris":{"android":"levelo://app?vid=24f41ca5-b432-4feb-a0c8-a15026b97306","ios":"levelo://app?vid=24f41ca5-b432-4feb-a0c8-a15026b97306"},"vehicle_type_id":"4","last_reported":1687277288,"current_range_meters":4000,"station_id":"ce4bgnh2rcd13ifvqc0g","pricing_plan_id":"free"},{"bike_id":"aefd230b-abb9-48a2-b37f-7ddd1aa6c7c3","system_id":"levelo_inurba_marseille","lat":43.309589,"lon":5.390258,"is_reserved":false,"is_disabled":false,"rental_uris":{"android":"levelo://app?vid=aefd230b-abb9-48a2-b37f-7ddd1aa6c7c3","ios":"levelo://app?vid=aefd230b-abb9-48a2-b37f-7ddd1aa6c7c3"},"vehicle_type_id":"4","last_reported":1687277288,"current_range_meters":2000,"station_id":"ce4bgup2rcd13ifvqco0","pricing_plan_id":"free"},{"bike_id":"041bc147-ef2f-419b-bb81-deca3bdf89e2","system_id":"levelo_inurba_marseille","lat":43.29611,"lon":5.36046,"is_reserved":false,"is_disabled":false,"rental_uris":{"android":"levelo://app?vid=041bc147-ef2f-419b-bb81-deca3bdf89e2","ios":"levelo://app?vid=041bc147-ef2f-419b-bb81-deca3bdf89e2"},"vehicle_type_id":"4","last_reported":1687277288,"current_range_meters":21600,"station_id":"","pricing_plan_id":"free"},{"bike_id":"071f6fe5-299e-437b-8c64-bcd3362434a7","system_id":"levelo_inurba_marseille","lat":43.309589,"lon":5.390258,"is_reserved":false,"is_disabled":false,"rental_uris":{"android":"levelo://app?vid=071f6fe5-299e-437b-8c64-bcd3362434a7","ios":"levelo://app?vid=071f6fe5-299e-437b-8c64-bcd3362434a7"},"vehicle_type_id":"4","last_reported":1687277288,"current_range_meters":8000,"station_id":"ce4bgup2rcd13ifvqco0","pricing_plan_id":"free"},{"bike_id":"00a6669a-26bc-4ca5-b05b-f0c6d4069cd6","system_id":"levelo_inurba_marseille","lat":43.317557,"lon":5.390173,"is_reserved":false,"is_disabled":false,"rental_uris":{"android":"levelo://app?vid=00a6669a-26bc-4ca5-b05b-f0c6d4069cd6","ios":"levelo://app?vid=00a6669a-26bc-4ca5-b05b-f0c6d4069cd6"},"vehicle_type_id":"4","last_reported":1687277288,"current_range_meters":7600,"station_id":"ce4bhqp2rcd13ifvqhng","pricing_plan_id":"free"},{"bike_id":"ad24bcba-3d84-4b4f-b98c-61ad10be4496","system_id":"levelo_inurba_marseille","lat":43.317557,"lon":5.390173,"is_reserved":false,"is_disabled":false,"rental_uris":{"android":"levelo://app?vid=ad24bcba-3d84-4b4f-b98c-61ad10be4496","ios":"levelo://app?vid=ad24bcba-3d84-4b4f-b98c-61ad10be4496"},"vehicle_type_id":"4","last_reported":1687277288,"current_range_meters":14800,"station_id":"ce4bhqp2rcd13ifvqhng","pricing_plan_id":"free"},{"bike_id":"5b0c7a3b-1264-4743-8594-f80990b36f86","system_id":"levelo_inurba_marseille","lat":43.317557,"lon":5.390173,"is_reserved":false,"is_disabled":false,"rental_uris":{"android":"levelo://app?vid=5b0c7a3b-1264-4743-8594-f80990b36f86","ios":"levelo://app?vid=5b0c7a3b-1264-4743-8594-f80990b36f86"},"vehicle_type_id":"4","last_reported":1687277288,"current_range_meters":27600,"station_id":"ce4bhqp2rcd13ifvqhng","pricing_plan_id":"free"},{"bike_id":"c2969723-99a8-48af-97d8-06d28f971c28","system_id":"levelo_inurba_marseille","lat":43.2958,"lon":5.37518,"is_reserved":false,"is_disabled":false,"rental_uris":{"android":"levelo://app?vid=c2969723-99a8-48af-97d8-06d28f971c28","ios":"levelo://app?vid=c2969723-99a8-48af-97d8-06d28f971c28"},"vehicle_type_id":"4","last_reported":1687277288,"current_range_meters":0,"station_id":"ce4bgh92rcd13ifvqb50","pricing_plan_id":"free"},{"bike_id":"55667153-9b96-41c9-93b8-8c08aa926cca","system_id":"levelo_inurba_marseille","lat":43.304278,"lon":5.388868,"is_reserved":false,"is_disabled":false,"rental_uris":{"android":"levelo://app?vid=55667153-9b96-41c9-93b8-8c08aa926cca","ios":"levelo://app?vid=55667153-9b96-41c9-93b8-8c08aa926cca"},"vehicle_type_id":"4","last_reported":1687277288,"current_range_meters":16800,"station_id":"ce4bgk12rcd13ifvqbi0","pricing_plan_id":"free"},{"bike_id":"250c8a96-8498-4211-b8f3-1b00a8d1fbaf","system_id":"levelo_inurba_marseille","lat":43.296477,"lon":5.37768,"is_reserved":false,"is_disabled":false,"rental_uris":{"android":"levelo://app?vid=250c8a96-8498-4211-b8f3-1b00a8d1fbaf","ios":"levelo://app?vid=250c8a96-8498-4211-b8f3-1b00a8d1fbaf"},"vehicle_type_id":"4","last_reported":1687277288,"current_range_meters":4400,"station_id":"","pricing_plan_id":"free"},{"bike_id":"ca29c93f-b196-425d-806d-8874242127f1","system_id":"levelo_inurba_marseille","lat":43.295748,"lon":5.37522,"is_reserved":false,"is_disabled":false,"rental_uris":{"android":"levelo://app?vid=ca29c93f-b196-425d-806d-8874242127f1","ios":"levelo://app?vid=ca29c93f-b196-425d-806d-8874242127f1"},"vehicle_type_id":"4","last_reported":1687277288,"current_range_meters":20400,"station_id":"ce4bgh92rcd13ifvqb50","pricing_plan_id":"free"},{"bike_id":"f2cdd9f8-549d-498e-ba9c-a8dbef383a8f","system_id":"levelo_inurba_marseille","lat":43.304278,"lon":5.388868,"is_reserved":false,"is_disabled":false,"rental_uris":{"android":"levelo://app?vid=f2cdd9f8-549d-498e-ba9c-a8dbef383a8f","ios":"levelo://app?vid=f2cdd9f8-549d-498e-ba9c-a8dbef383a8f"},"vehicle_type_id":"4","last_reported":1687277288,"current_range_meters":10400,"station_id":"ce4bgk12rcd13ifvqbi0","pricing_plan_id":"free"},{"bike_id":"138a6f00-1ca1-427b-b942-bf769a25e766","system_id":"levelo_inurba_marseille","lat":43.304278,"lon":5.388868,"is_reserved":false,"is_disabled":false,"rental_uris":{"android":"levelo://app?vid=138a6f00-1ca1-427b-b942-bf769a25e766","ios":"levelo://app?vid=138a6f00-1ca1-427b-b942-bf769a25e766"},"vehicle_type_id":"4","last_reported":1687277288,"current_range_meters":15600,"station_id":"ce4bgk12rcd13ifvqbi0","pricing_plan_id":"free"},{"bike_id":"c8873b80-72ad-4d40-9393-0a64343d70e8","system_id":"levelo_inurba_marseille","lat":43.30432,"lon":5.38892,"is_reserved":false,"is_disabled":false,"rental_uris":{"android":"levelo://app?vid=c8873b80-72ad-4d40-9393-0a64343d70e8","ios":"levelo://app?vid=c8873b80-72ad-4d40-9393-0a64343d70e8"},"vehicle_type_id":"4","last_reported":1687277288,"current_range_meters":21200,"station_id":"ce4bgk12rcd13ifvqbi0","pricing_plan_id":"free"},{"bike_id":"eb56f040-d7e3-440c-9d05-82afe187dd21","system_id":"levelo_inurba_marseille","lat":43.299724,"lon":5.384848,"is_reserved":false,"is_disabled":false,"rental_uris":{"android":"levelo://app?vid=eb56f040-d7e3-440c-9d05-82afe187dd21","ios":"levelo://app?vid=eb56f040-d7e3-440c-9d05-82afe187dd21"},"vehicle_type_id":"4","last_reported":1687277288,"current_range_meters":30400,"station_id":"ce4bgj92rcd13ifvqbd0","pricing_plan_id":"free"},{"bike_id":"ea136379-11db-43b4-ab6d-47b1090abe3a","system_id":"levelo_inurba_marseille","lat":43.299717,"lon":5.384845,"is_reserved":false,"is_disabled":false,"rental_uris":{"android":"levelo://app?vid=ea136379-11db-43b4-ab6d-47b1090abe3a","ios":"levelo://app?vid=ea136379-11db-43b4-ab6d-47b1090abe3a"},"vehicle_type_id":"4","last_reported":1687277288,"current_range_meters":14400,"station_id":"ce4bgj92rcd13ifvqbd0","pricing_plan_id":"free"},{"bike_id":"d8b9b813-4e89-4a0f-b3b2-31121fe916c5","system_id":"levelo_inurba_marseille","lat":43.30804,"lon":5.39212,"is_reserved":false,"is_disabled":false,"rental_uris":{"android":"levelo://app?vid=d8b9b813-4e89-4a0f-b3b2-31121fe916c5","ios":"levelo://app?vid=d8b9b813-4e89-4a0f-b3b2-31121fe916c5"},"vehicle_type_id":"4","last_reported":1687277288,"current_range_meters":18400,"station_id":"ce4bgup2rcd13ifvqco0","pricing_plan_id":"free"},{"bike_id":"94def0d3-007e-4df0-acd7-bc42b286d895","system_id":"levelo_inurba_marseille","lat":43.29719,"lon":5.38245,"is_reserved":false,"is_disabled":false,"rental_uris":{"android":"levelo://app?vid=94def0d3-007e-4df0-acd7-bc42b286d895","ios":"levelo://app?vid=94def0d3-007e-4df0-acd7-bc42b286d895"},"vehicle_type_id":"4","last_reported":1687277288,"current_range_meters":9600,"station_id":"","pricing_plan_id":"free"},{"bike_id":"b771d77e-39b5-4d09-8962-8a008f4f92d8","system_id":"levelo_inurba_marseille","lat":43.32363,"lon":5.38875,"is_reserved":false,"is_disabled":false,"rental_uris":{"android":"levelo://app?vid=b771d77e-39b5-4d09-8962-8a008f4f92d8","ios":"levelo://app?vid=b771d77e-39b5-4d09-8962-8a008f4f92d8"},"vehicle_type_id":"4","last_reported":1687277288,"current_range_meters":19200,"station_id":"ce4bhqp2rcd13ifvqhog","pricing_plan_id":"free"},{"bike_id":"6d56b163-e08a-4036-84e8-5c2258191940","system_id":"levelo_inurba_marseille","lat":43.32367,"lon":5.388836,"is_reserved":false,"is_disabled":false,"rental_uris":{"android":"levelo://app?vid=6d56b163-e08a-4036-84e8-5c2258191940","ios":"levelo://app?vid=6d56b163-e08a-4036-84e8-5c2258191940"},"vehicle_type_id":"4","last_reported":1687277288,"current_range_meters":31200,"station_id":"ce4bhqp2rcd13ifvqhog","pricing_plan_id":"free"},{"bike_id":"4c1704a9-9899-4633-b3fb-0bc9a03e8c2a","system_id":"levelo_inurba_marseille","lat":43.32367,"lon":5.388836,"is_reserved":false,"is_disabled":false,"rental_uris":{"android":"levelo://app?vid=4c1704a9-9899-4633-b3fb-0bc9a03e8c2a","ios":"levelo://app?vid=4c1704a9-9899-4633-b3fb-0bc9a03e8c2a"},"vehicle_type_id":"4","last_reported":1687277288,"current_range_meters":16400,"station_id":"ce4bhqp2rcd13ifvqhog","pricing_plan_id":"free"},{"bike_id":"924f5e2c-3798-48c5-a26b-4aa840da3bf3","system_id":"levelo_inurba_marseille","lat":43.323729,"lon":5.388839,"is_reserved":false,"is_disabled":false,"rental_uris":{"android":"levelo://app?vid=924f5e2c-3798-48c5-a26b-4aa840da3bf3","ios":"levelo://app?vid=924f5e2c-3798-48c5-a26b-4aa840da3bf3"},"vehicle_type_id":"4","last_reported":1687277288,"current_range_meters":25200,"station_id":"","pricing_plan_id":"free"},{"bike_id":"141a2c8c-2da8-4532-b349-18c1e893fe4d","system_id":"levelo_inurba_marseille","lat":43.29602,"lon":5.381084,"is_reserved":false,"is_disabled":false,"rental_uris":{"android":"levelo://app?vid=141a2c8c-2da8-4532-b349-18c1e893fe4d","ios":"levelo://app?vid=141a2c8c-2da8-4532-b349-18c1e893fe4d"},"vehicle_type_id":"4","last_reported":1687277288,"current_range_meters":0,"station_id":"ce4bgl12rcd13ifvqbo0","pricing_plan_id":"free"},{"bike_id":"66b480a6-9947-4496-98e2-93e61a3244b4","system_id":"levelo_inurba_marseille","lat":43.305994,"lon":5.393687,"is_reserved":false,"is_disabled":false,"rental_uris":{"android":"levelo://app?vid=66b480a6-9947-4496-98e2-93e61a3244b4","ios":"levelo://app?vid=66b480a6-9947-4496-98e2-93e61a3244b4"},"vehicle_type_id":"4","last_reported":1687277288,"current_range_meters":31200,"station_id":"ce4bh0p2rcd13ifvqd80","pricing_plan_id":"free"},{"bike_id":"f96bc5ef-773a-4c29-b818-b40707fecfaa","system_id":"levelo_inurba_marseille","lat":43.30586,"lon":5.39356,"is_reserved":false,"is_disabled":false,"rental_uris":{"android":"levelo://app?vid=f96bc5ef-773a-4c29-b818-b40707fecfaa","ios":"levelo://app?vid=f96bc5ef-773a-4c29-b818-b40707fecfaa"},"vehicle_type_id":"4","last_reported":1687277288,"current_range_meters":31200,"station_id":"ce4bh0p2rcd13ifvqd80","pricing_plan_id":"free"},{"bike_id":"82acc57c-8a05-47a0-a1f7-c57433756144","system_id":"levelo_inurba_marseille","lat":43.303002,"lon":5.392142,"is_reserved":false,"is_disabled":false,"rental_uris":{"android":"levelo://app?vid=82acc57c-8a05-47a0-a1f7-c57433756144","ios":"levelo://app?vid=82acc57c-8a05-47a0-a1f7-c57433756144"},"vehicle_type_id":"4","last_reported":1687277288,"current_range_meters":23200,"station_id":"ce4bgkh2rcd13ifvqbk0","pricing_plan_id":"free"},{"bike_id":"b3bbe582-6a8e-419e-8f84-a90b03842d12","system_id":"levelo_inurba_marseille","lat":43.302992,"lon":5.392136,"is_reserved":false,"is_disabled":false,"rental_uris":{"android":"levelo://app?vid=b3bbe582-6a8e-419e-8f84-a90b03842d12","ios":"levelo://app?vid=b3bbe582-6a8e-419e-8f84-a90b03842d12"},"vehicle_type_id":"4","last_reported":1687277288,"current_range_meters":0,"station_id":"ce4bgkh2rcd13ifvqbk0","pricing_plan_id":"free"},{"bike_id":"7ee8e857-e58f-4d0f-9ec8-cf55d6494b29","system_id":"levelo_inurba_marseille","lat":43.2926,"lon":5.35958,"is_reserved":false,"is_disabled":false,"rental_uris":{"android":"levelo://app?vid=7ee8e857-e58f-4d0f-9ec8-cf55d6494b29","ios":"levelo://app?vid=7ee8e857-e58f-4d0f-9ec8-cf55d6494b29"},"vehicle_type_id":"4","last_reported":1687277288,"current_range_meters":2000,"station_id":"","pricing_plan_id":"free"},{"bike_id":"3f1405cc-0dc3-464d-ba5d-917347d5f374","system_id":"levelo_inurba_marseille","lat":43.2936,"lon":5.37835,"is_reserved":false,"is_disabled":false,"rental_uris":{"android":"levelo://app?vid=3f1405cc-0dc3-464d-ba5d-917347d5f374","ios":"levelo://app?vid=3f1405cc-0dc3-464d-ba5d-917347d5f374"},"vehicle_type_id":"4","last_reported":1687277288,"current_range_meters":6800,"station_id":"ce4bgjh2rcd13ifvqbf0","pricing_plan_id":"free"},{"bike_id":"269d600e-1766-4064-a8c3-ee961f46e747","system_id":"levelo_inurba_marseille","lat":43.292311,"lon":5.360731,"is_reserved":false,"is_disabled":false,"rental_uris":{"android":"levelo://app?vid=269d600e-1766-4064-a8c3-ee961f46e747","ios":"levelo://app?vid=269d600e-1766-4064-a8c3-ee961f46e747"},"vehicle_type_id":"4","last_reported":1687277288,"current_range_meters":4800,"station_id":"ce4bhbh2rcd13ifvqeqg","pricing_plan_id":"free"},{"bike_id":"69dc37a5-4749-461b-8ec1-621192cfee75","system_id":"levelo_inurba_marseille","lat":43.292311,"lon":5.360731,"is_reserved":false,"is_disabled":false,"rental_uris":{"android":"levelo://app?vid=69dc37a5-4749-461b-8ec1-621192cfee75","ios":"levelo://app?vid=69dc37a5-4749-461b-8ec1-621192cfee75"},"vehicle_type_id":"4","last_reported":1687277288,"current_range_meters":24000,"station_id":"ce4bhbh2rcd13ifvqeqg","pricing_plan_id":"free"},{"bike_id":"c9a22073-effe-4b5e-89c7-08edae01e7f9","system_id":"levelo_inurba_marseille","lat":43.298764,"lon":5.388973,"is_reserved":false,"is_disabled":false,"rental_uris":{"android":"levelo://app?vid=c9a22073-effe-4b5e-89c7-08edae01e7f9","ios":"levelo://app?vid=c9a22073-effe-4b5e-89c7-08edae01e7f9"},"vehicle_type_id":"4","last_reported":1687277288,"current_range_meters":15600,"station_id":"ce4bh392rcd13ifvqdl0","pricing_plan_id":"free"},{"bike_id":"6a439f33-c7a0-4dfa-afd7-439e05c27b5c","system_id":"levelo_inurba_marseille","lat":43.291675,"lon":5.371583,"is_reserved":false,"is_disabled":false,"rental_uris":{"android":"levelo://app?vid=6a439f33-c7a0-4dfa-afd7-439e05c27b5c","ios":"levelo://app?vid=6a439f33-c7a0-4dfa-afd7-439e05c27b5c"},"vehicle_type_id":"4","last_reported":1687277288,"current_range_meters":23600,"station_id":"ce4bha92rcd13ifvqeh0","pricing_plan_id":"free"},{"bike_id":"d38c5de4-1b75-44fb-88b5-eb30bcdcd7d0","system_id":"levelo_inurba_marseille","lat":43.313243,"lon":5.396843,"is_reserved":false,"is_disabled":false,"rental_uris":{"android":"levelo://app?vid=d38c5de4-1b75-44fb-88b5-eb30bcdcd7d0","ios":"levelo://app?vid=d38c5de4-1b75-44fb-88b5-eb30bcdcd7d0"},"vehicle_type_id":"4","last_reported":1687277288,"current_range_meters":22000,"station_id":"","pricing_plan_id":"free"},{"bike_id":"c23003bd-2489-4615-b8ac-a095690ce4ef","system_id":"levelo_inurba_marseille","lat":43.3089,"lon":5.39648,"is_reserved":false,"is_disabled":false,"rental_uris":{"android":"levelo://app?vid=c23003bd-2489-4615-b8ac-a095690ce4ef","ios":"levelo://app?vid=c23003bd-2489-4615-b8ac-a095690ce4ef"},"vehicle_type_id":"4","last_reported":1687277288,"current_range_meters":31200,"station_id":"ce4bh012rcd13ifvqcv0","pricing_plan_id":"free"},{"bike_id":"8ef6f45b-8247-4a3f-b620-b4206c023fff","system_id":"levelo_inurba_marseille","lat":43.309038,"lon":5.396546,"is_reserved":false,"is_disabled":false,"rental_uris":{"android":"levelo://app?vid=8ef6f45b-8247-4a3f-b620-b4206c023fff","ios":"levelo://app?vid=8ef6f45b-8247-4a3f-b620-b4206c023fff"},"vehicle_type_id":"4","last_reported":1687277288,"current_range_meters":0,"station_id":"ce4bh012rcd13ifvqcv0","pricing_plan_id":"free"},{"bike_id":"88e7d6d2-7fd3-4ef2-b61b-50524a8e6a4f","system_id":"levelo_inurba_marseille","lat":43.29529,"lon":5.385581,"is_reserved":false,"is_disabled":false,"rental_uris":{"android":"levelo://app?vid=88e7d6d2-7fd3-4ef2-b61b-50524a8e6a4f","ios":"levelo://app?vid=88e7d6d2-7fd3-4ef2-b61b-50524a8e6a4f"},"vehicle_type_id":"4","last_reported":1687277288,"current_range_meters":16800,"station_id":"ce4bgih2rcd13ifvqba0","pricing_plan_id":"free"},{"bike_id":"ecd25a77-cf61-4118-8271-8bf340b130d0","system_id":"levelo_inurba_marseille","lat":43.292005,"lon":5.357875,"is_reserved":false,"is_disabled":false,"rental_uris":{"android":"levelo://app?vid=ecd25a77-cf61-4118-8271-8bf340b130d0","ios":"levelo://app?vid=ecd25a77-cf61-4118-8271-8bf340b130d0"},"vehicle_type_id":"4","last_reported":1687277288,"current_range_meters":5200,"station_id":"ce4bhb12rcd13ifvqel0","pricing_plan_id":"free"},{"bike_id":"d3382b16-b591-42f6-9b93-0b13f4a9d1c4","system_id":"levelo_inurba_marseille","lat":43.29529,"lon":5.385581,"is_reserved":false,"is_disabled":false,"rental_uris":{"android":"levelo://app?vid=d3382b16-b591-42f6-9b93-0b13f4a9d1c4","ios":"levelo://app?vid=d3382b16-b591-42f6-9b93-0b13f4a9d1c4"},"vehicle_type_id":"4","last_reported":1687277288,"current_range_meters":5600,"station_id":"ce4bgih2rcd13ifvqba0","pricing_plan_id":"free"},{"bike_id":"74926c60-ed1d-4381-b4f5-b094196818b2","system_id":"levelo_inurba_marseille","lat":43.29529,"lon":5.385581,"is_reserved":false,"is_disabled":false,"rental_uris":{"android":"levelo://app?vid=74926c60-ed1d-4381-b4f5-b094196818b2","ios":"levelo://app?vid=74926c60-ed1d-4381-b4f5-b094196818b2"},"vehicle_type_id":"4","last_reported":1687277288,"current_range_meters":26000,"station_id":"ce4bgih2rcd13ifvqba0","pricing_plan_id":"free"},{"bike_id":"c9999f5f-1d9a-4096-bae2-be1b736f34d7","system_id":"levelo_inurba_marseille","lat":43.290327,"lon":5.375711,"is_reserved":false,"is_disabled":false,"rental_uris":{"android":"levelo://app?vid=c9999f5f-1d9a-4096-bae2-be1b736f34d7","ios":"levelo://app?vid=c9999f5f-1d9a-4096-bae2-be1b736f34d7"},"vehicle_type_id":"4","last_reported":1687277288,"current_range_meters":20400,"station_id":"ce4bh692rcd13ifvqe90","pricing_plan_id":"free"},{"bike_id":"0609f09b-61e5-40d1-a057-3a5b9409ddd1","system_id":"levelo_inurba_marseille","lat":43.294153,"lon":5.386305,"is_reserved":false,"is_disabled":false,"rental_uris":{"android":"levelo://app?vid=0609f09b-61e5-40d1-a057-3a5b9409ddd1","ios":"levelo://app?vid=0609f09b-61e5-40d1-a057-3a5b9409ddd1"},"vehicle_type_id":"4","last_reported":1687277288,"current_range_meters":24400,"station_id":"ce4bh2h2rcd13ifvqdh0","pricing_plan_id":"free"},{"bike_id":"3f8a925a-6a54-4259-a38f-9cf091aab246","system_id":"levelo_inurba_marseille","lat":43.294162,"lon":5.386292,"is_reserved":false,"is_disabled":false,"rental_uris":{"android":"levelo://app?vid=3f8a925a-6a54-4259-a38f-9cf091aab246","ios":"levelo://app?vid=3f8a925a-6a54-4259-a38f-9cf091aab246"},"vehicle_type_id":"4","last_reported":1687277288,"current_range_meters":31200,"station_id":"ce4bh2h2rcd13ifvqdh0","pricing_plan_id":"free"},{"bike_id":"d0092917-e516-410c-bed8-a98b83c609fe","system_id":"levelo_inurba_marseille","lat":43.290327,"lon":5.375711,"is_reserved":false,"is_disabled":false,"rental_uris":{"android":"levelo://app?vid=d0092917-e516-410c-bed8-a98b83c609fe","ios":"levelo://app?vid=d0092917-e516-410c-bed8-a98b83c609fe"},"vehicle_type_id":"4","last_reported":1687277288,"current_range_meters":10800,"station_id":"ce4bh692rcd13ifvqe90","pricing_plan_id":"free"},{"bike_id":"e0ad4a31-55a7-4a5f-bddf-4d334c28dbd8","system_id":"levelo_inurba_marseille","lat":43.289184,"lon":5.366408,"is_reserved":false,"is_disabled":false,"rental_uris":{"android":"levelo://app?vid=e0ad4a31-55a7-4a5f-bddf-4d334c28dbd8","ios":"levelo://app?vid=e0ad4a31-55a7-4a5f-bddf-4d334c28dbd8"},"vehicle_type_id":"4","last_reported":1687277288,"current_range_meters":0,"station_id":"ce4bhap2rcd13ifvqek0","pricing_plan_id":"free"},{"bike_id":"15875713-d2ac-4133-985f-b76071e44ac0","system_id":"levelo_inurba_marseille","lat":43.289468,"lon":5.363719,"is_reserved":false,"is_disabled":false,"rental_uris":{"android":"levelo://app?vid=15875713-d2ac-4133-985f-b76071e44ac0","ios":"levelo://app?vid=15875713-d2ac-4133-985f-b76071e44ac0"},"vehicle_type_id":"4","last_reported":1687277288,"current_range_meters":12400,"station_id":"ce4bhc92rcd13ifvqetg","pricing_plan_id":"free"},{"bike_id":"5199f3ba-01fd-4a47-a3cf-7903d2ea4445","system_id":"levelo_inurba_marseille","lat":43.289468,"lon":5.363719,"is_reserved":false,"is_disabled":false,"rental_uris":{"android":"levelo://app?vid=5199f3ba-01fd-4a47-a3cf-7903d2ea4445","ios":"levelo://app?vid=5199f3ba-01fd-4a47-a3cf-7903d2ea4445"},"vehicle_type_id":"4","last_reported":1687277288,"current_range_meters":30400,"station_id":"ce4bhc92rcd13ifvqetg","pricing_plan_id":"free"},{"bike_id":"414514e4-af9c-4c3d-9db8-7062c409cf53","system_id":"levelo_inurba_marseille","lat":43.289468,"lon":5.363719,"is_reserved":false,"is_disabled":false,"rental_uris":{"android":"levelo://app?vid=414514e4-af9c-4c3d-9db8-7062c409cf53","ios":"levelo://app?vid=414514e4-af9c-4c3d-9db8-7062c409cf53"},"vehicle_type_id":"4","last_reported":1687277288,"current_range_meters":10800,"station_id":"ce4bhc92rcd13ifvqetg","pricing_plan_id":"free"},{"bike_id":"5a199cf9-32df-4099-b3dd-c70f0fa966f9","system_id":"levelo_inurba_marseille","lat":43.290261,"lon":5.376134,"is_reserved":false,"is_disabled":false,"rental_uris":{"android":"levelo://app?vid=5a199cf9-32df-4099-b3dd-c70f0fa966f9","ios":"levelo://app?vid=5a199cf9-32df-4099-b3dd-c70f0fa966f9"},"vehicle_type_id":"4","last_reported":1687277288,"current_range_meters":0,"station_id":"ce4bh9p2rcd13ifvqed0","pricing_plan_id":"free"},{"bike_id":"f4c21536-30bd-49e6-a6fe-24d73100cd0e","system_id":"levelo_inurba_marseille","lat":43.29017,"lon":5.37649,"is_reserved":false,"is_disabled":false,"rental_uris":{"android":"levelo://app?vid=f4c21536-30bd-49e6-a6fe-24d73100cd0e","ios":"levelo://app?vid=f4c21536-30bd-49e6-a6fe-24d73100cd0e"},"vehicle_type_id":"4","last_reported":1687277288,"current_range_meters":28400,"station_id":"ce4bhah2rcd13ifvqej0","pricing_plan_id":"free"},{"bike_id":"d9403dde-9b87-4af6-adc1-b926d819a353","system_id":"levelo_inurba_marseille","lat":43.289184,"lon":5.366408,"is_reserved":false,"is_disabled":false,"rental_uris":{"android":"levelo://app?vid=d9403dde-9b87-4af6-adc1-b926d819a353","ios":"levelo://app?vid=d9403dde-9b87-4af6-adc1-b926d819a353"},"vehicle_type_id":"4","last_reported":1687277288,"current_range_meters":5600,"station_id":"ce4bhap2rcd13ifvqek0","pricing_plan_id":"free"},{"bike_id":"38eb09af-7166-42b9-865e-84246929498f","system_id":"levelo_inurba_marseille","lat":43.292642,"lon":5.384254,"is_reserved":false,"is_disabled":false,"rental_uris":{"android":"levelo://app?vid=38eb09af-7166-42b9-865e-84246929498f","ios":"levelo://app?vid=38eb09af-7166-42b9-865e-84246929498f"},"vehicle_type_id":"4","last_reported":1687277288,"current_range_meters":31200,"station_id":"ce4bh692rcd13ifvqea0","pricing_plan_id":"free"},{"bike_id":"e957808f-7752-4a10-b7d9-73f045222219","system_id":"levelo_inurba_marseille","lat":43.304274,"lon":5.397513,"is_reserved":false,"is_disabled":false,"rental_uris":{"android":"levelo://app?vid=e957808f-7752-4a10-b7d9-73f045222219","ios":"levelo://app?vid=e957808f-7752-4a10-b7d9-73f045222219"},"vehicle_type_id":"4","last_reported":1687277288,"current_range_meters":19600,"station_id":"ce4bh092rcd13ifvqd20","pricing_plan_id":"free"},{"bike_id":"157c85c2-581f-4e4a-b306-245b1d2ca8d4","system_id":"levelo_inurba_marseille","lat":43.295169,"lon":5.390426,"is_reserved":false,"is_disabled":false,"rental_uris":{"android":"levelo://app?vid=157c85c2-581f-4e4a-b306-245b1d2ca8d4","ios":"levelo://app?vid=157c85c2-581f-4e4a-b306-245b1d2ca8d4"},"vehicle_type_id":"4","last_reported":1687277288,"current_range_meters":21600,"station_id":"ce4bh3p2rcd13ifvqdp0","pricing_plan_id":"free"},{"bike_id":"bd2d32b9-182c-4c5b-857b-55b385f43b6b","system_id":"levelo_inurba_marseille","lat":43.290103,"lon":5.356114,"is_reserved":false,"is_disabled":false,"rental_uris":{"android":"levelo://app?vid=bd2d32b9-182c-4c5b-857b-55b385f43b6b","ios":"levelo://app?vid=bd2d32b9-182c-4c5b-857b-55b385f43b6b"},"vehicle_type_id":"4","last_reported":1687277288,"current_range_meters":27200,"station_id":"ce4bhb92rcd13ifvqen0","pricing_plan_id":"free"},{"bike_id":"0708e00a-5daf-453f-bb99-d692cb185f51","system_id":"levelo_inurba_marseille","lat":43.290104,"lon":5.356111,"is_reserved":false,"is_disabled":false,"rental_uris":{"android":"levelo://app?vid=0708e00a-5daf-453f-bb99-d692cb185f51","ios":"levelo://app?vid=0708e00a-5daf-453f-bb99-d692cb185f51"},"vehicle_type_id":"4","last_reported":1687277288,"current_range_meters":0,"station_id":"ce4bhb92rcd13ifvqen0","pricing_plan_id":"free"},{"bike_id":"9e1bf799-8c55-4232-89d4-9fc225b44898","system_id":"levelo_inurba_marseille","lat":43.33041,"lon":5.3893,"is_reserved":false,"is_disabled":false,"rental_uris":{"android":"levelo://app?vid=9e1bf799-8c55-4232-89d4-9fc225b44898","ios":"levelo://app?vid=9e1bf799-8c55-4232-89d4-9fc225b44898"},"vehicle_type_id":"4","last_reported":1687277288,"current_range_meters":28400,"station_id":"ce4bhr92rcd13ifvqhrg","pricing_plan_id":"free"},{"bike_id":"4b684425-8b58-474e-91cc-063e6035c7c1","system_id":"levelo_inurba_marseille","lat":43.290104,"lon":5.356111,"is_reserved":false,"is_disabled":false,"rental_uris":{"android":"levelo://app?vid=4b684425-8b58-474e-91cc-063e6035c7c1","ios":"levelo://app?vid=4b684425-8b58-474e-91cc-063e6035c7c1"},"vehicle_type_id":"4","last_reported":1687277288,"current_range_meters":0,"station_id":"ce4bhb92rcd13ifvqen0","pricing_plan_id":"free"},{"bike_id":"fe054285-a801-4466-8e36-e68cdff4600b","system_id":"levelo_inurba_marseille","lat":43.29778,"lon":5.39343,"is_reserved":false,"is_disabled":false,"rental_uris":{"android":"levelo://app?vid=fe054285-a801-4466-8e36-e68cdff4600b","ios":"levelo://app?vid=fe054285-a801-4466-8e36-e68cdff4600b"},"vehicle_type_id":"4","last_reported":1687277288,"current_range_meters":25200,"station_id":"chh1huq6cuj3fo74tm60","pricing_plan_id":"free"},{"bike_id":"f6e36fa6-5dd8-42cb-b3be-b9dbf9ddcbe8","system_id":"levelo_inurba_marseille","lat":43.297815,"lon":5.393548,"is_reserved":false,"is_disabled":false,"rental_uris":{"android":"levelo://app?vid=f6e36fa6-5dd8-42cb-b3be-b9dbf9ddcbe8","ios":"levelo://app?vid=f6e36fa6-5dd8-42cb-b3be-b9dbf9ddcbe8"},"vehicle_type_id":"4","last_reported":1687277288,"current_range_meters":8800,"station_id":"chh1huq6cuj3fo74tm60","pricing_plan_id":"free"},{"bike_id":"62129f57-6fc5-4b9a-b29f-2f61fbc028f3","system_id":"levelo_inurba_marseille","lat":43.29777,"lon":5.39346,"is_reserved":false,"is_disabled":false,"rental_uris":{"android":"levelo://app?vid=62129f57-6fc5-4b9a-b29f-2f61fbc028f3","ios":"levelo://app?vid=62129f57-6fc5-4b9a-b29f-2f61fbc028f3"},"vehicle_type_id":"4","last_reported":1687277288,"current_range_meters":23600,"station_id":"chh1huq6cuj3fo74tm60","pricing_plan_id":"free"},{"bike_id":"131b9c46-e5c9-4f02-aac7-3109bb71b48e","system_id":"levelo_inurba_marseille","lat":43.29788,"lon":5.39359,"is_reserved":false,"is_disabled":false,"rental_uris":{"android":"levelo://app?vid=131b9c46-e5c9-4f02-aac7-3109bb71b48e","ios":"levelo://app?vid=131b9c46-e5c9-4f02-aac7-3109bb71b48e"},"vehicle_type_id":"4","last_reported":1687277288,"current_range_meters":28400,"station_id":"chh1huq6cuj3fo74tm60","pricing_plan_id":"free"},{"bike_id":"3284170f-9507-4a53-beed-73c4c1a64da1","system_id":"levelo_inurba_marseille","lat":43.295169,"lon":5.390426,"is_reserved":false,"is_disabled":false,"rental_uris":{"android":"levelo://app?vid=3284170f-9507-4a53-beed-73c4c1a64da1","ios":"levelo://app?vid=3284170f-9507-4a53-beed-73c4c1a64da1"},"vehicle_type_id":"4","last_reported":1687277288,"current_range_meters":31200,"station_id":"ce4bh3p2rcd13ifvqdp0","pricing_plan_id":"free"},{"bike_id":"5845e4a5-355b-4a7b-b79b-a3e190618865","system_id":"levelo_inurba_marseille","lat":43.28846,"lon":5.35869,"is_reserved":false,"is_disabled":false,"rental_uris":{"android":"levelo://app?vid=5845e4a5-355b-4a7b-b79b-a3e190618865","ios":"levelo://app?vid=5845e4a5-355b-4a7b-b79b-a3e190618865"},"vehicle_type_id":"4","last_reported":1687277288,"current_range_meters":31200,"station_id":"ce4bhb12rcd13ifvqem0","pricing_plan_id":"free"},{"bike_id":"5b3a1978-a3e1-4f5a-bb79-9fdce5e9c6ee","system_id":"levelo_inurba_marseille","lat":43.28845,"lon":5.35864,"is_reserved":false,"is_disabled":false,"rental_uris":{"android":"levelo://app?vid=5b3a1978-a3e1-4f5a-bb79-9fdce5e9c6ee","ios":"levelo://app?vid=5b3a1978-a3e1-4f5a-bb79-9fdce5e9c6ee"},"vehicle_type_id":"4","last_reported":1687277288,"current_range_meters":25200,"station_id":"ce4bhb12rcd13ifvqem0","pricing_plan_id":"free"},{"bike_id":"0661fcce-237a-4556-ac86-8c3341e3aee7","system_id":"levelo_inurba_marseille","lat":43.28841,"lon":5.35851,"is_reserved":false,"is_disabled":false,"rental_uris":{"android":"levelo://app?vid=0661fcce-237a-4556-ac86-8c3341e3aee7","ios":"levelo://app?vid=0661fcce-237a-4556-ac86-8c3341e3aee7"},"vehicle_type_id":"4","last_reported":1687277288,"current_range_meters":29600,"station_id":"ce4bhb12rcd13ifvqem0","pricing_plan_id":"free"},{"bike_id":"0068c34a-91b7-47cc-b60e-2453ef1927ac","system_id":"levelo_inurba_marseille","lat":43.309371,"lon":5.401449,"is_reserved":false,"is_disabled":false,"rental_uris":{"android":"levelo://app?vid=0068c34a-91b7-47cc-b60e-2453ef1927ac","ios":"levelo://app?vid=0068c34a-91b7-47cc-b60e-2453ef1927ac"},"vehicle_type_id":"4","last_reported":1687277288,"current_range_meters":22000,"station_id":"ce4bgvp2rcd13ifvqct0","pricing_plan_id":"free"},{"bike_id":"426aa7e9-5079-4c54-9474-9fd9ff22ba70","system_id":"levelo_inurba_marseille","lat":43.301117,"lon":5.398795,"is_reserved":false,"is_disabled":false,"rental_uris":{"android":"levelo://app?vid=426aa7e9-5079-4c54-9474-9fd9ff22ba70","ios":"levelo://app?vid=426aa7e9-5079-4c54-9474-9fd9ff22ba70"},"vehicle_type_id":"4","last_reported":1687277288,"current_range_meters":4400,"station_id":"ce4bh0h2rcd13ifvqd40","pricing_plan_id":"free"},{"bike_id":"8e9c6318-fcc0-4275-9ab6-bf0b97af8017","system_id":"levelo_inurba_marseille","lat":43.301117,"lon":5.398795,"is_reserved":false,"is_disabled":false,"rental_uris":{"android":"levelo://app?vid=8e9c6318-fcc0-4275-9ab6-bf0b97af8017","ios":"levelo://app?vid=8e9c6318-fcc0-4275-9ab6-bf0b97af8017"},"vehicle_type_id":"4","last_reported":1687277288,"current_range_meters":28000,"station_id":"ce4bh0h2rcd13ifvqd40","pricing_plan_id":"free"},{"bike_id":"2814c0d2-325b-4f32-a451-f06c9970a2c1","system_id":"levelo_inurba_marseille","lat":43.29883,"lon":5.39727,"is_reserved":false,"is_disabled":false,"rental_uris":{"android":"levelo://app?vid=2814c0d2-325b-4f32-a451-f06c9970a2c1","ios":"levelo://app?vid=2814c0d2-325b-4f32-a451-f06c9970a2c1"},"vehicle_type_id":"4","last_reported":1687277288,"current_range_meters":11600,"station_id":"ce4bh0h2rcd13ifvqd50","pricing_plan_id":"free"},{"bike_id":"c53add01-90e2-4120-b2ca-089aea72a2a5","system_id":"levelo_inurba_marseille","lat":43.295196,"lon":5.39397,"is_reserved":false,"is_disabled":false,"rental_uris":{"android":"levelo://app?vid=c53add01-90e2-4120-b2ca-089aea72a2a5","ios":"levelo://app?vid=c53add01-90e2-4120-b2ca-089aea72a2a5"},"vehicle_type_id":"4","last_reported":1687277288,"current_range_meters":29200,"station_id":"ce4bh292rcd13ifvqdf0","pricing_plan_id":"free"},{"bike_id":"33719a75-2d60-4338-b96f-434435717b0c","system_id":"levelo_inurba_marseille","lat":43.29879,"lon":5.39739,"is_reserved":false,"is_disabled":false,"rental_uris":{"android":"levelo://app?vid=33719a75-2d60-4338-b96f-434435717b0c","ios":"levelo://app?vid=33719a75-2d60-4338-b96f-434435717b0c"},"vehicle_type_id":"4","last_reported":1687277288,"current_range_meters":6000,"station_id":"ce4bh0h2rcd13ifvqd50","pricing_plan_id":"free"},{"bike_id":"e70cfe99-1bbb-467b-b889-a6dab5633104","system_id":"levelo_inurba_marseille","lat":43.286591,"lon":5.363346,"is_reserved":false,"is_disabled":false,"rental_uris":{"android":"levelo://app?vid=e70cfe99-1bbb-467b-b889-a6dab5633104","ios":"levelo://app?vid=e70cfe99-1bbb-467b-b889-a6dab5633104"},"vehicle_type_id":"4","last_reported":1687277288,"current_range_meters":0,"station_id":"ce4bhah2rcd13ifvqej0","pricing_plan_id":"free"},{"bike_id":"3b885b79-946e-4c52-931e-e638d0ad63d9","system_id":"levelo_inurba_marseille","lat":43.298681,"lon":5.397225,"is_reserved":false,"is_disabled":false,"rental_uris":{"android":"levelo://app?vid=3b885b79-946e-4c52-931e-e638d0ad63d9","ios":"levelo://app?vid=3b885b79-946e-4c52-931e-e638d0ad63d9"},"vehicle_type_id":"4","last_reported":1687277288,"current_range_meters":27200,"station_id":"ce4bh0h2rcd13ifvqd50","pricing_plan_id":"free"},{"bike_id":"cd763bd1-c367-4a7b-bc7a-f240b3193f9f","system_id":"levelo_inurba_marseille","lat":43.295196,"lon":5.39397,"is_reserved":false,"is_disabled":false,"rental_uris":{"android":"levelo://app?vid=cd763bd1-c367-4a7b-bc7a-f240b3193f9f","ios":"levelo://app?vid=cd763bd1-c367-4a7b-bc7a-f240b3193f9f"},"vehicle_type_id":"4","last_reported":1687277288,"current_range_meters":6000,"station_id":"ce4bh292rcd13ifvqdf0","pricing_plan_id":"free"},{"bike_id":"cd44df17-e907-40d2-bc18-f4e8995a8765","system_id":"levelo_inurba_marseille","lat":43.30585,"lon":5.401981,"is_reserved":false,"is_disabled":false,"rental_uris":{"android":"levelo://app?vid=cd44df17-e907-40d2-bc18-f4e8995a8765","ios":"levelo://app?vid=cd44df17-e907-40d2-bc18-f4e8995a8765"},"vehicle_type_id":"4","last_reported":1687277288,"current_range_meters":20000,"station_id":"","pricing_plan_id":"free"},{"bike_id":"baf837f0-c849-4a91-8c21-66ec597be607","system_id":"levelo_inurba_marseille","lat":43.302759,"lon":5.400793,"is_reserved":false,"is_disabled":false,"rental_uris":{"android":"levelo://app?vid=baf837f0-c849-4a91-8c21-66ec597be607","ios":"levelo://app?vid=baf837f0-c849-4a91-8c21-66ec597be607"},"vehicle_type_id":"4","last_reported":1687277288,"current_range_meters":21200,"station_id":"ce4bgvh2rcd13ifvqcs0","pricing_plan_id":"free"},{"bike_id":"1b3e3f17-3532-42f7-9b84-b5cadb37a8d3","system_id":"levelo_inurba_marseille","lat":43.302759,"lon":5.400793,"is_reserved":false,"is_disabled":false,"rental_uris":{"android":"levelo://app?vid=1b3e3f17-3532-42f7-9b84-b5cadb37a8d3","ios":"levelo://app?vid=1b3e3f17-3532-42f7-9b84-b5cadb37a8d3"},"vehicle_type_id":"4","last_reported":1687277288,"current_range_meters":5200,"station_id":"ce4bgvh2rcd13ifvqcs0","pricing_plan_id":"free"},{"bike_id":"5626af29-9ded-4339-8a4f-ae5eb09432c3","system_id":"levelo_inurba_marseille","lat":43.28613,"lon":5.37062,"is_reserved":false,"is_disabled":false,"rental_uris":{"android":"levelo://app?vid=5626af29-9ded-4339-8a4f-ae5eb09432c3","ios":"levelo://app?vid=5626af29-9ded-4339-8a4f-ae5eb09432c3"},"vehicle_type_id":"4","last_reported":1687277288,"current_range_meters":19600,"station_id":"","pricing_plan_id":"free"},{"bike_id":"a6e77aca-50ee-42c0-9a11-5c9a582d4385","system_id":"levelo_inurba_marseille","lat":43.286039,"lon":5.370679,"is_reserved":false,"is_disabled":false,"rental_uris":{"android":"levelo://app?vid=a6e77aca-50ee-42c0-9a11-5c9a582d4385","ios":"levelo://app?vid=a6e77aca-50ee-42c0-9a11-5c9a582d4385"},"vehicle_type_id":"4","last_reported":1687277288,"current_range_meters":26800,"station_id":"ce4bht12rcd13ifvqi60","pricing_plan_id":"free"},{"bike_id":"98df5d2b-9ecb-4da7-8318-3f230213ffc9","system_id":"levelo_inurba_marseille","lat":43.286039,"lon":5.370679,"is_reserved":false,"is_disabled":false,"rental_uris":{"android":"levelo://app?vid=98df5d2b-9ecb-4da7-8318-3f230213ffc9","ios":"levelo://app?vid=98df5d2b-9ecb-4da7-8318-3f230213ffc9"},"vehicle_type_id":"4","last_reported":1687277288,"current_range_meters":22400,"station_id":"ce4bht12rcd13ifvqi60","pricing_plan_id":"free"},{"bike_id":"db8763e6-0cc5-4382-8e0d-7b5de8a1f055","system_id":"levelo_inurba_marseille","lat":43.316517,"lon":5.404375,"is_reserved":false,"is_disabled":false,"rental_uris":{"android":"levelo://app?vid=db8763e6-0cc5-4382-8e0d-7b5de8a1f055","ios":"levelo://app?vid=db8763e6-0cc5-4382-8e0d-7b5de8a1f055"},"vehicle_type_id":"4","last_reported":1687277288,"current_range_meters":3600,"station_id":"ce4bh012rcd13ifvqd00","pricing_plan_id":"free"},{"bike_id":"cf560557-1631-4bca-a910-8992912814b8","system_id":"levelo_inurba_marseille","lat":43.316517,"lon":5.404375,"is_reserved":false,"is_disabled":false,"rental_uris":{"android":"levelo://app?vid=cf560557-1631-4bca-a910-8992912814b8","ios":"levelo://app?vid=cf560557-1631-4bca-a910-8992912814b8"},"vehicle_type_id":"4","last_reported":1687277288,"current_range_meters":10000,"station_id":"ce4bh012rcd13ifvqd00","pricing_plan_id":"free"},{"bike_id":"2732e199-7b32-40e9-b40f-492447cdcfe4","system_id":"levelo_inurba_marseille","lat":43.29195,"lon":5.39315,"is_reserved":false,"is_disabled":false,"rental_uris":{"android":"levelo://app?vid=2732e199-7b32-40e9-b40f-492447cdcfe4","ios":"levelo://app?vid=2732e199-7b32-40e9-b40f-492447cdcfe4"},"vehicle_type_id":"4","last_reported":1687277288,"current_range_meters":24800,"station_id":"ce4bh192rcd13ifvqdd0","pricing_plan_id":"free"},{"bike_id":"fec3a101-4e3b-41d3-a257-171d3e201c52","system_id":"levelo_inurba_marseille","lat":43.29198,"lon":5.3932,"is_reserved":false,"is_disabled":false,"rental_uris":{"android":"levelo://app?vid=fec3a101-4e3b-41d3-a257-171d3e201c52","ios":"levelo://app?vid=fec3a101-4e3b-41d3-a257-171d3e201c52"},"vehicle_type_id":"4","last_reported":1687277288,"current_range_meters":12800,"station_id":"ce4bh192rcd13ifvqdd0","pricing_plan_id":"free"},{"bike_id":"6be4dfa8-d9bd-4f9e-98db-591c88b57ccd","system_id":"levelo_inurba_marseille","lat":43.29195,"lon":5.39322,"is_reserved":false,"is_disabled":false,"rental_uris":{"android":"levelo://app?vid=6be4dfa8-d9bd-4f9e-98db-591c88b57ccd","ios":"levelo://app?vid=6be4dfa8-d9bd-4f9e-98db-591c88b57ccd"},"vehicle_type_id":"4","last_reported":1687277288,"current_range_meters":28400,"station_id":"ce4bh192rcd13ifvqdd0","pricing_plan_id":"free"},{"bike_id":"a937c1fa-8649-45b5-b804-77fde2dceb78","system_id":"levelo_inurba_marseille","lat":43.29188,"lon":5.39313,"is_reserved":false,"is_disabled":false,"rental_uris":{"android":"levelo://app?vid=a937c1fa-8649-45b5-b804-77fde2dceb78","ios":"levelo://app?vid=a937c1fa-8649-45b5-b804-77fde2dceb78"},"vehicle_type_id":"4","last_reported":1687277288,"current_range_meters":2400,"station_id":"ce4bh192rcd13ifvqdd0","pricing_plan_id":"free"},{"bike_id":"23e84042-7b2c-4b1c-ae78-8738691a05a5","system_id":"levelo_inurba_marseille","lat":43.291994,"lon":5.392907,"is_reserved":false,"is_disabled":false,"rental_uris":{"android":"levelo://app?vid=23e84042-7b2c-4b1c-ae78-8738691a05a5","ios":"levelo://app?vid=23e84042-7b2c-4b1c-ae78-8738691a05a5"},"vehicle_type_id":"4","last_reported":1687277288,"current_range_meters":18400,"station_id":"ce4bh192rcd13ifvqdd0","pricing_plan_id":"free"},{"bike_id":"54161ec1-4650-4678-ae56-1204f3c8cab6","system_id":"levelo_inurba_marseille","lat":43.2919,"lon":5.39336,"is_reserved":false,"is_disabled":false,"rental_uris":{"android":"levelo://app?vid=54161ec1-4650-4678-ae56-1204f3c8cab6","ios":"levelo://app?vid=54161ec1-4650-4678-ae56-1204f3c8cab6"},"vehicle_type_id":"4","last_reported":1687277288,"current_range_meters":16400,"station_id":"","pricing_plan_id":"free"},{"bike_id":"a7fc1897-79df-49f5-b5a0-3a86b7ed938b","system_id":"levelo_inurba_marseille","lat":43.3336,"lon":5.39386,"is_reserved":false,"is_disabled":false,"rental_uris":{"android":"levelo://app?vid=a7fc1897-79df-49f5-b5a0-3a86b7ed938b","ios":"levelo://app?vid=a7fc1897-79df-49f5-b5a0-3a86b7ed938b"},"vehicle_type_id":"4","last_reported":1687277288,"current_range_meters":0,"station_id":"","pricing_plan_id":"free"},{"bike_id":"583cc2ec-6d74-4d3f-89f0-2e2771d2cc7e","system_id":"levelo_inurba_marseille","lat":43.284538,"lon":5.358657,"is_reserved":false,"is_disabled":false,"rental_uris":{"android":"levelo://app?vid=583cc2ec-6d74-4d3f-89f0-2e2771d2cc7e","ios":"levelo://app?vid=583cc2ec-6d74-4d3f-89f0-2e2771d2cc7e"},"vehicle_type_id":"4","last_reported":1687277288,"current_range_meters":4800,"station_id":"ce4bhah2rcd13ifvqei0","pricing_plan_id":"free"},{"bike_id":"85fc127e-50de-4bb9-9c58-24e16e5fbb29","system_id":"levelo_inurba_marseille","lat":43.284538,"lon":5.358657,"is_reserved":false,"is_disabled":false,"rental_uris":{"android":"levelo://app?vid=85fc127e-50de-4bb9-9c58-24e16e5fbb29","ios":"levelo://app?vid=85fc127e-50de-4bb9-9c58-24e16e5fbb29"},"vehicle_type_id":"4","last_reported":1687277288,"current_range_meters":31200,"station_id":"ce4bhah2rcd13ifvqei0","pricing_plan_id":"free"},{"bike_id":"31fbe4ac-2699-490b-92a6-68d1e559d797","system_id":"levelo_inurba_marseille","lat":43.284538,"lon":5.358657,"is_reserved":false,"is_disabled":false,"rental_uris":{"android":"levelo://app?vid=31fbe4ac-2699-490b-92a6-68d1e559d797","ios":"levelo://app?vid=31fbe4ac-2699-490b-92a6-68d1e559d797"},"vehicle_type_id":"4","last_reported":1687277288,"current_range_meters":12400,"station_id":"ce4bhah2rcd13ifvqei0","pricing_plan_id":"free"},{"bike_id":"dc7b4167-0c4a-42d2-9bd6-ba1daed544b0","system_id":"levelo_inurba_marseille","lat":43.284538,"lon":5.358657,"is_reserved":false,"is_disabled":false,"rental_uris":{"android":"levelo://app?vid=dc7b4167-0c4a-42d2-9bd6-ba1daed544b0","ios":"levelo://app?vid=dc7b4167-0c4a-42d2-9bd6-ba1daed544b0"},"vehicle_type_id":"4","last_reported":1687277288,"current_range_meters":3200,"station_id":"ce4bhah2rcd13ifvqei0","pricing_plan_id":"free"},{"bike_id":"10a594cf-e9de-49a3-a005-ca277e9c14ac","system_id":"levelo_inurba_marseille","lat":43.285856,"lon":5.350771,"is_reserved":false,"is_disabled":false,"rental_uris":{"android":"levelo://app?vid=10a594cf-e9de-49a3-a005-ca277e9c14ac","ios":"levelo://app?vid=10a594cf-e9de-49a3-a005-ca277e9c14ac"},"vehicle_type_id":"4","last_reported":1687277288,"current_range_meters":31600,"station_id":"ce4bhch2rcd13ifvqeug","pricing_plan_id":"free"},{"bike_id":"ad369073-28fb-4843-b397-5171c2acf2ca","system_id":"levelo_inurba_marseille","lat":43.285856,"lon":5.350771,"is_reserved":false,"is_disabled":false,"rental_uris":{"android":"levelo://app?vid=ad369073-28fb-4843-b397-5171c2acf2ca","ios":"levelo://app?vid=ad369073-28fb-4843-b397-5171c2acf2ca"},"vehicle_type_id":"4","last_reported":1687277288,"current_range_meters":17200,"station_id":"ce4bhch2rcd13ifvqeug","pricing_plan_id":"free"},{"bike_id":"7d5342a7-9cfd-4fe4-af7d-10b72572457e","system_id":"levelo_inurba_marseille","lat":43.285856,"lon":5.350771,"is_reserved":false,"is_disabled":false,"rental_uris":{"android":"levelo://app?vid=7d5342a7-9cfd-4fe4-af7d-10b72572457e","ios":"levelo://app?vid=7d5342a7-9cfd-4fe4-af7d-10b72572457e"},"vehicle_type_id":"4","last_reported":1687277288,"current_range_meters":24800,"station_id":"ce4bhch2rcd13ifvqeug","pricing_plan_id":"free"},{"bike_id":"26a7fc0c-7471-48d2-811d-23746be63b06","system_id":"levelo_inurba_marseille","lat":43.285856,"lon":5.350771,"is_reserved":false,"is_disabled":false,"rental_uris":{"android":"levelo://app?vid=26a7fc0c-7471-48d2-811d-23746be63b06","ios":"levelo://app?vid=26a7fc0c-7471-48d2-811d-23746be63b06"},"vehicle_type_id":"4","last_reported":1687277288,"current_range_meters":18000,"station_id":"ce4bhch2rcd13ifvqeug","pricing_plan_id":"free"},{"bike_id":"5d33473e-a64d-4e7c-8947-b68bb9592a2e","system_id":"levelo_inurba_marseille","lat":43.285856,"lon":5.350771,"is_reserved":false,"is_disabled":false,"rental_uris":{"android":"levelo://app?vid=5d33473e-a64d-4e7c-8947-b68bb9592a2e","ios":"levelo://app?vid=5d33473e-a64d-4e7c-8947-b68bb9592a2e"},"vehicle_type_id":"4","last_reported":1687277288,"current_range_meters":18800,"station_id":"ce4bhch2rcd13ifvqeug","pricing_plan_id":"free"},{"bike_id":"9e72b8ae-ff16-4108-877a-0665b03cb85f","system_id":"levelo_inurba_marseille","lat":43.28617,"lon":5.35099,"is_reserved":false,"is_disabled":false,"rental_uris":{"android":"levelo://app?vid=9e72b8ae-ff16-4108-877a-0665b03cb85f","ios":"levelo://app?vid=9e72b8ae-ff16-4108-877a-0665b03cb85f"},"vehicle_type_id":"4","last_reported":1687277288,"current_range_meters":400,"station_id":"ce4bhch2rcd13ifvqeug","pricing_plan_id":"free"},{"bike_id":"20a6bf88-5364-4491-9d1f-e655a4859826","system_id":"levelo_inurba_marseille","lat":43.285856,"lon":5.350771,"is_reserved":false,"is_disabled":false,"rental_uris":{"android":"levelo://app?vid=20a6bf88-5364-4491-9d1f-e655a4859826","ios":"levelo://app?vid=20a6bf88-5364-4491-9d1f-e655a4859826"},"vehicle_type_id":"4","last_reported":1687277288,"current_range_meters":26400,"station_id":"ce4bhch2rcd13ifvqeug","pricing_plan_id":"free"},{"bike_id":"c6ee6779-57c3-410f-a0ff-27776d75230c","system_id":"levelo_inurba_marseille","lat":43.285856,"lon":5.350771,"is_reserved":false,"is_disabled":false,"rental_uris":{"android":"levelo://app?vid=c6ee6779-57c3-410f-a0ff-27776d75230c","ios":"levelo://app?vid=c6ee6779-57c3-410f-a0ff-27776d75230c"},"vehicle_type_id":"4","last_reported":1687277288,"current_range_meters":0,"station_id":"ce4bhch2rcd13ifvqeug","pricing_plan_id":"free"},{"bike_id":"9821ee43-e608-475f-8a0d-ac6c1f36dafb","system_id":"levelo_inurba_marseille","lat":43.286073,"lon":5.351102,"is_reserved":false,"is_disabled":false,"rental_uris":{"android":"levelo://app?vid=9821ee43-e608-475f-8a0d-ac6c1f36dafb","ios":"levelo://app?vid=9821ee43-e608-475f-8a0d-ac6c1f36dafb"},"vehicle_type_id":"4","last_reported":1687277288,"current_range_meters":31200,"station_id":"ce4bhch2rcd13ifvqeug","pricing_plan_id":"free"},{"bike_id":"f6fda2f2-04f1-4377-bae3-2fc212d95c47","system_id":"levelo_inurba_marseille","lat":43.34234,"lon":5.36198,"is_reserved":false,"is_disabled":false,"rental_uris":{"android":"levelo://app?vid=f6fda2f2-04f1-4377-bae3-2fc212d95c47","ios":"levelo://app?vid=f6fda2f2-04f1-4377-bae3-2fc212d95c47"},"vehicle_type_id":"4","last_reported":1687277288,"current_range_meters":10400,"station_id":"","pricing_plan_id":"free"},{"bike_id":"a0294cbe-ddff-445e-81c2-60a75d245509","system_id":"levelo_inurba_marseille","lat":43.32201,"lon":5.40595,"is_reserved":false,"is_disabled":false,"rental_uris":{"android":"levelo://app?vid=a0294cbe-ddff-445e-81c2-60a75d245509","ios":"levelo://app?vid=a0294cbe-ddff-445e-81c2-60a75d245509"},"vehicle_type_id":"4","last_reported":1687277288,"current_range_meters":18000,"station_id":"","pricing_plan_id":"free"},{"bike_id":"64766038-4d37-4bbb-8324-fdd09852a999","system_id":"levelo_inurba_marseille","lat":43.33729,"lon":5.39184,"is_reserved":false,"is_disabled":false,"rental_uris":{"android":"levelo://app?vid=64766038-4d37-4bbb-8324-fdd09852a999","ios":"levelo://app?vid=64766038-4d37-4bbb-8324-fdd09852a999"},"vehicle_type_id":"4","last_reported":1687277288,"current_range_meters":17600,"station_id":"","pricing_plan_id":"free"},{"bike_id":"d7b29256-fc07-4272-a85c-ecffd4d1832a","system_id":"levelo_inurba_marseille","lat":43.33724,"lon":5.39194,"is_reserved":false,"is_disabled":false,"rental_uris":{"android":"levelo://app?vid=d7b29256-fc07-4272-a85c-ecffd4d1832a","ios":"levelo://app?vid=d7b29256-fc07-4272-a85c-ecffd4d1832a"},"vehicle_type_id":"4","last_reported":1687277288,"current_range_meters":11200,"station_id":"","pricing_plan_id":"free"},{"bike_id":"1b5cab66-590b-460a-9914-864900fba592","system_id":"levelo_inurba_marseille","lat":43.33729,"lon":5.39186,"is_reserved":false,"is_disabled":false,"rental_uris":{"android":"levelo://app?vid=1b5cab66-590b-460a-9914-864900fba592","ios":"levelo://app?vid=1b5cab66-590b-460a-9914-864900fba592"},"vehicle_type_id":"4","last_reported":1687277288,"current_range_meters":8400,"station_id":"","pricing_plan_id":"free"},{"bike_id":"3c93e75d-1921-431d-8673-92d6689faf88","system_id":"levelo_inurba_marseille","lat":43.33723,"lon":5.39201,"is_reserved":false,"is_disabled":false,"rental_uris":{"android":"levelo://app?vid=3c93e75d-1921-431d-8673-92d6689faf88","ios":"levelo://app?vid=3c93e75d-1921-431d-8673-92d6689faf88"},"vehicle_type_id":"4","last_reported":1687277288,"current_range_meters":18800,"station_id":"","pricing_plan_id":"free"},{"bike_id":"d4ce0f5a-b274-4261-8a3c-0ca690c4e407","system_id":"levelo_inurba_marseille","lat":43.288497,"lon":5.393089,"is_reserved":false,"is_disabled":false,"rental_uris":{"android":"levelo://app?vid=d4ce0f5a-b274-4261-8a3c-0ca690c4e407","ios":"levelo://app?vid=d4ce0f5a-b274-4261-8a3c-0ca690c4e407"},"vehicle_type_id":"4","last_reported":1687277288,"current_range_meters":10400,"station_id":"ce4bh2p2rcd13ifvqdi0","pricing_plan_id":"free"},{"bike_id":"00b4d942-d645-4a17-a320-9c02b5ecca68","system_id":"levelo_inurba_marseille","lat":43.288501,"lon":5.393087,"is_reserved":false,"is_disabled":false,"rental_uris":{"android":"levelo://app?vid=00b4d942-d645-4a17-a320-9c02b5ecca68","ios":"levelo://app?vid=00b4d942-d645-4a17-a320-9c02b5ecca68"},"vehicle_type_id":"4","last_reported":1687277288,"current_range_meters":13600,"station_id":"ce4bh2p2rcd13ifvqdi0","pricing_plan_id":"free"},{"bike_id":"4fe1d8c9-01d9-4ab8-9e5f-abaf05bfe6ba","system_id":"levelo_inurba_marseille","lat":43.284219,"lon":5.3497,"is_reserved":false,"is_disabled":false,"rental_uris":{"android":"levelo://app?vid=4fe1d8c9-01d9-4ab8-9e5f-abaf05bfe6ba","ios":"levelo://app?vid=4fe1d8c9-01d9-4ab8-9e5f-abaf05bfe6ba"},"vehicle_type_id":"4","last_reported":1687277288,"current_range_meters":11200,"station_id":"ce4bhbh2rcd13ifvqepg","pricing_plan_id":"free"},{"bike_id":"b35fb538-a01b-42b3-ac72-84c3ae0e1e5a","system_id":"levelo_inurba_marseille","lat":43.284219,"lon":5.3497,"is_reserved":false,"is_disabled":false,"rental_uris":{"android":"levelo://app?vid=b35fb538-a01b-42b3-ac72-84c3ae0e1e5a","ios":"levelo://app?vid=b35fb538-a01b-42b3-ac72-84c3ae0e1e5a"},"vehicle_type_id":"4","last_reported":1687277288,"current_range_meters":8800,"station_id":"ce4bhbh2rcd13ifvqepg","pricing_plan_id":"free"},{"bike_id":"5e7e4e28-9b4b-4a41-b03e-da75047e43b0","system_id":"levelo_inurba_marseille","lat":43.28424,"lon":5.35001,"is_reserved":false,"is_disabled":false,"rental_uris":{"android":"levelo://app?vid=5e7e4e28-9b4b-4a41-b03e-da75047e43b0","ios":"levelo://app?vid=5e7e4e28-9b4b-4a41-b03e-da75047e43b0"},"vehicle_type_id":"4","last_reported":1687277288,"current_range_meters":0,"station_id":"ce4bhbh2rcd13ifvqepg","pricing_plan_id":"free"},{"bike_id":"b4e57a9e-13ca-412e-810c-36534d611ab6","system_id":"levelo_inurba_marseille","lat":43.284219,"lon":5.3497,"is_reserved":false,"is_disabled":false,"rental_uris":{"android":"levelo://app?vid=b4e57a9e-13ca-412e-810c-36534d611ab6","ios":"levelo://app?vid=b4e57a9e-13ca-412e-810c-36534d611ab6"},"vehicle_type_id":"4","last_reported":1687277288,"current_range_meters":14000,"station_id":"ce4bhbh2rcd13ifvqepg","pricing_plan_id":"free"},{"bike_id":"d7249b11-6e11-4361-bd82-5e8a6c3590b6","system_id":"levelo_inurba_marseille","lat":43.28425,"lon":5.34995,"is_reserved":false,"is_disabled":false,"rental_uris":{"android":"levelo://app?vid=d7249b11-6e11-4361-bd82-5e8a6c3590b6","ios":"levelo://app?vid=d7249b11-6e11-4361-bd82-5e8a6c3590b6"},"vehicle_type_id":"4","last_reported":1687277288,"current_range_meters":18800,"station_id":"ce4bhbh2rcd13ifvqepg","pricing_plan_id":"free"},{"bike_id":"b4c2e5e0-e1c5-420b-b432-5c7afe810d07","system_id":"levelo_inurba_marseille","lat":43.28422,"lon":5.34992,"is_reserved":false,"is_disabled":false,"rental_uris":{"android":"levelo://app?vid=b4c2e5e0-e1c5-420b-b432-5c7afe810d07","ios":"levelo://app?vid=b4c2e5e0-e1c5-420b-b432-5c7afe810d07"},"vehicle_type_id":"4","last_reported":1687277288,"current_range_meters":18400,"station_id":"ce4bhbh2rcd13ifvqepg","pricing_plan_id":"free"},{"bike_id":"f99f463d-dfd9-4379-80da-4807fee9e5eb","system_id":"levelo_inurba_marseille","lat":43.284219,"lon":5.3497,"is_reserved":false,"is_disabled":false,"rental_uris":{"android":"levelo://app?vid=f99f463d-dfd9-4379-80da-4807fee9e5eb","ios":"levelo://app?vid=f99f463d-dfd9-4379-80da-4807fee9e5eb"},"vehicle_type_id":"4","last_reported":1687277288,"current_range_meters":24400,"station_id":"ce4bhbh2rcd13ifvqepg","pricing_plan_id":"free"},{"bike_id":"77b4ff0b-067d-4fa5-9092-200ba1aebcf3","system_id":"levelo_inurba_marseille","lat":43.284219,"lon":5.3497,"is_reserved":false,"is_disabled":false,"rental_uris":{"android":"levelo://app?vid=77b4ff0b-067d-4fa5-9092-200ba1aebcf3","ios":"levelo://app?vid=77b4ff0b-067d-4fa5-9092-200ba1aebcf3"},"vehicle_type_id":"4","last_reported":1687277288,"current_range_meters":21200,"station_id":"ce4bhbh2rcd13ifvqepg","pricing_plan_id":"free"},{"bike_id":"7d688f66-5d56-4072-a231-13df02290fad","system_id":"levelo_inurba_marseille","lat":43.284219,"lon":5.3497,"is_reserved":false,"is_disabled":false,"rental_uris":{"android":"levelo://app?vid=7d688f66-5d56-4072-a231-13df02290fad","ios":"levelo://app?vid=7d688f66-5d56-4072-a231-13df02290fad"},"vehicle_type_id":"4","last_reported":1687277288,"current_range_meters":30800,"station_id":"ce4bhbh2rcd13ifvqepg","pricing_plan_id":"free"},{"bike_id":"8dec6fab-d194-44ff-8050-0ef4adbf1d4c","system_id":"levelo_inurba_marseille","lat":43.284217,"lon":5.349697,"is_reserved":false,"is_disabled":false,"rental_uris":{"android":"levelo://app?vid=8dec6fab-d194-44ff-8050-0ef4adbf1d4c","ios":"levelo://app?vid=8dec6fab-d194-44ff-8050-0ef4adbf1d4c"},"vehicle_type_id":"4","last_reported":1687277288,"current_range_meters":21200,"station_id":"ce4bhbh2rcd13ifvqepg","pricing_plan_id":"free"},{"bike_id":"ae8ae50d-aed5-4138-aeea-26763f609fcb","system_id":"levelo_inurba_marseille","lat":43.284219,"lon":5.3497,"is_reserved":false,"is_disabled":false,"rental_uris":{"android":"levelo://app?vid=ae8ae50d-aed5-4138-aeea-26763f609fcb","ios":"levelo://app?vid=ae8ae50d-aed5-4138-aeea-26763f609fcb"},"vehicle_type_id":"4","last_reported":1687277288,"current_range_meters":8400,"station_id":"ce4bhbh2rcd13ifvqepg","pricing_plan_id":"free"},{"bike_id":"6f493bd4-727a-4753-94a5-e47b1ffcb211","system_id":"levelo_inurba_marseille","lat":43.284219,"lon":5.3497,"is_reserved":false,"is_disabled":false,"rental_uris":{"android":"levelo://app?vid=6f493bd4-727a-4753-94a5-e47b1ffcb211","ios":"levelo://app?vid=6f493bd4-727a-4753-94a5-e47b1ffcb211"},"vehicle_type_id":"4","last_reported":1687277288,"current_range_meters":11600,"station_id":"ce4bhbh2rcd13ifvqepg","pricing_plan_id":"free"},{"bike_id":"509a53cb-1360-457e-a10f-e0ae57598df4","system_id":"levelo_inurba_marseille","lat":43.284219,"lon":5.3497,"is_reserved":false,"is_disabled":false,"rental_uris":{"android":"levelo://app?vid=509a53cb-1360-457e-a10f-e0ae57598df4","ios":"levelo://app?vid=509a53cb-1360-457e-a10f-e0ae57598df4"},"vehicle_type_id":"4","last_reported":1687277288,"current_range_meters":26400,"station_id":"ce4bhbh2rcd13ifvqepg","pricing_plan_id":"free"},{"bike_id":"16e5fedd-6e86-436a-a0a2-72c7cd60a6ea","system_id":"levelo_inurba_marseille","lat":43.32185,"lon":5.40787,"is_reserved":false,"is_disabled":false,"rental_uris":{"android":"levelo://app?vid=16e5fedd-6e86-436a-a0a2-72c7cd60a6ea","ios":"levelo://app?vid=16e5fedd-6e86-436a-a0a2-72c7cd60a6ea"},"vehicle_type_id":"4","last_reported":1687277288,"current_range_meters":23600,"station_id":"","pricing_plan_id":"free"},{"bike_id":"ac4ad8db-82e2-46ae-9f6a-99e70ffedd3c","system_id":"levelo_inurba_marseille","lat":43.284219,"lon":5.3497,"is_reserved":false,"is_disabled":false,"rental_uris":{"android":"levelo://app?vid=ac4ad8db-82e2-46ae-9f6a-99e70ffedd3c","ios":"levelo://app?vid=ac4ad8db-82e2-46ae-9f6a-99e70ffedd3c"},"vehicle_type_id":"4","last_reported":1687277288,"current_range_meters":22800,"station_id":"ce4bhbh2rcd13ifvqepg","pricing_plan_id":"free"},{"bike_id":"7a5aa209-e128-450d-9f4d-94ea390ece1f","system_id":"levelo_inurba_marseille","lat":43.284217,"lon":5.349697,"is_reserved":false,"is_disabled":false,"rental_uris":{"android":"levelo://app?vid=7a5aa209-e128-450d-9f4d-94ea390ece1f","ios":"levelo://app?vid=7a5aa209-e128-450d-9f4d-94ea390ece1f"},"vehicle_type_id":"4","last_reported":1687277288,"current_range_meters":23600,"station_id":"ce4bhbh2rcd13ifvqepg","pricing_plan_id":"free"},{"bike_id":"acba39d5-f561-41b5-a491-b61b6b552a8d","system_id":"levelo_inurba_marseille","lat":43.284217,"lon":5.349697,"is_reserved":false,"is_disabled":false,"rental_uris":{"android":"levelo://app?vid=acba39d5-f561-41b5-a491-b61b6b552a8d","ios":"levelo://app?vid=acba39d5-f561-41b5-a491-b61b6b552a8d"},"vehicle_type_id":"4","last_reported":1687277288,"current_range_meters":27600,"station_id":"ce4bhbh2rcd13ifvqepg","pricing_plan_id":"free"},{"bike_id":"b3e7b38e-383a-4391-b283-7e637b91744a","system_id":"levelo_inurba_marseille","lat":43.284219,"lon":5.3497,"is_reserved":false,"is_disabled":false,"rental_uris":{"android":"levelo://app?vid=b3e7b38e-383a-4391-b283-7e637b91744a","ios":"levelo://app?vid=b3e7b38e-383a-4391-b283-7e637b91744a"},"vehicle_type_id":"4","last_reported":1687277288,"current_range_meters":24800,"station_id":"ce4bhbh2rcd13ifvqepg","pricing_plan_id":"free"},{"bike_id":"b6cfa5c7-07d8-4389-818c-89d00eab9610","system_id":"levelo_inurba_marseille","lat":43.284217,"lon":5.349697,"is_reserved":false,"is_disabled":false,"rental_uris":{"android":"levelo://app?vid=b6cfa5c7-07d8-4389-818c-89d00eab9610","ios":"levelo://app?vid=b6cfa5c7-07d8-4389-818c-89d00eab9610"},"vehicle_type_id":"4","last_reported":1687277288,"current_range_meters":31200,"station_id":"ce4bhbh2rcd13ifvqepg","pricing_plan_id":"free"},{"bike_id":"4f60c289-db59-4778-9414-8eeab28faa6f","system_id":"levelo_inurba_marseille","lat":43.284217,"lon":5.349697,"is_reserved":false,"is_disabled":false,"rental_uris":{"android":"levelo://app?vid=4f60c289-db59-4778-9414-8eeab28faa6f","ios":"levelo://app?vid=4f60c289-db59-4778-9414-8eeab28faa6f"},"vehicle_type_id":"4","last_reported":1687277288,"current_range_meters":21600,"station_id":"ce4bhbh2rcd13ifvqepg","pricing_plan_id":"free"},{"bike_id":"8c06626e-68fd-4292-9caa-c1d863daf489","system_id":"levelo_inurba_marseille","lat":43.284217,"lon":5.349697,"is_reserved":false,"is_disabled":false,"rental_uris":{"android":"levelo://app?vid=8c06626e-68fd-4292-9caa-c1d863daf489","ios":"levelo://app?vid=8c06626e-68fd-4292-9caa-c1d863daf489"},"vehicle_type_id":"4","last_reported":1687277288,"current_range_meters":25600,"station_id":"ce4bhbh2rcd13ifvqepg","pricing_plan_id":"free"},{"bike_id":"958dcdd9-6e6e-45af-b20d-d7c4fe4bc280","system_id":"levelo_inurba_marseille","lat":43.284217,"lon":5.349697,"is_reserved":false,"is_disabled":false,"rental_uris":{"android":"levelo://app?vid=958dcdd9-6e6e-45af-b20d-d7c4fe4bc280","ios":"levelo://app?vid=958dcdd9-6e6e-45af-b20d-d7c4fe4bc280"},"vehicle_type_id":"4","last_reported":1687277288,"current_range_meters":32000,"station_id":"ce4bhbh2rcd13ifvqepg","pricing_plan_id":"free"},{"bike_id":"dde5b470-d718-476f-874b-606a1e935c4f","system_id":"levelo_inurba_marseille","lat":43.28039,"lon":5.369297,"is_reserved":false,"is_disabled":false,"rental_uris":{"android":"levelo://app?vid=dde5b470-d718-476f-874b-606a1e935c4f","ios":"levelo://app?vid=dde5b470-d718-476f-874b-606a1e935c4f"},"vehicle_type_id":"4","last_reported":1687277288,"current_range_meters":6000,"station_id":"ce4bha12rcd13ifvqef0","pricing_plan_id":"free"},{"bike_id":"391f4df4-6c30-44bb-be68-cde6b75ecaa0","system_id":"levelo_inurba_marseille","lat":43.292724,"lon":5.401131,"is_reserved":false,"is_disabled":false,"rental_uris":{"android":"levelo://app?vid=391f4df4-6c30-44bb-be68-cde6b75ecaa0","ios":"levelo://app?vid=391f4df4-6c30-44bb-be68-cde6b75ecaa0"},"vehicle_type_id":"4","last_reported":1687277288,"current_range_meters":26800,"station_id":"ce4bh312rcd13ifvqdk0","pricing_plan_id":"free"},{"bike_id":"bf01f0fd-16db-49f2-877d-2cfd8f053e0d","system_id":"levelo_inurba_marseille","lat":43.28039,"lon":5.369297,"is_reserved":false,"is_disabled":false,"rental_uris":{"android":"levelo://app?vid=bf01f0fd-16db-49f2-877d-2cfd8f053e0d","ios":"levelo://app?vid=bf01f0fd-16db-49f2-877d-2cfd8f053e0d"},"vehicle_type_id":"4","last_reported":1687277288,"current_range_meters":7200,"station_id":"ce4bha12rcd13ifvqef0","pricing_plan_id":"free"},{"bike_id":"49d6bf62-68bf-463d-9fed-ed4da551263a","system_id":"levelo_inurba_marseille","lat":43.292724,"lon":5.401131,"is_reserved":false,"is_disabled":false,"rental_uris":{"android":"levelo://app?vid=49d6bf62-68bf-463d-9fed-ed4da551263a","ios":"levelo://app?vid=49d6bf62-68bf-463d-9fed-ed4da551263a"},"vehicle_type_id":"4","last_reported":1687277288,"current_range_meters":24000,"station_id":"ce4bh312rcd13ifvqdk0","pricing_plan_id":"free"},{"bike_id":"f24a3c26-0a55-4bc5-b060-05f874bedf9a","system_id":"levelo_inurba_marseille","lat":43.28277,"lon":5.35072,"is_reserved":false,"is_disabled":false,"rental_uris":{"android":"levelo://app?vid=f24a3c26-0a55-4bc5-b060-05f874bedf9a","ios":"levelo://app?vid=f24a3c26-0a55-4bc5-b060-05f874bedf9a"},"vehicle_type_id":"4","last_reported":1687277288,"current_range_meters":20000,"station_id":"ce4bhbp2rcd13ifvqerg","pricing_plan_id":"free"},{"bike_id":"6d01efce-bc1a-4db6-9a20-4c337ed3d196","system_id":"levelo_inurba_marseille","lat":43.28275,"lon":5.35074,"is_reserved":false,"is_disabled":false,"rental_uris":{"android":"levelo://app?vid=6d01efce-bc1a-4db6-9a20-4c337ed3d196","ios":"levelo://app?vid=6d01efce-bc1a-4db6-9a20-4c337ed3d196"},"vehicle_type_id":"4","last_reported":1687277288,"current_range_meters":13600,"station_id":"ce4bhbp2rcd13ifvqerg","pricing_plan_id":"free"},{"bike_id":"9dc81d6d-c611-4e67-936f-cf5d3d99298c","system_id":"levelo_inurba_marseille","lat":43.28271,"lon":5.35084,"is_reserved":false,"is_disabled":false,"rental_uris":{"android":"levelo://app?vid=9dc81d6d-c611-4e67-936f-cf5d3d99298c","ios":"levelo://app?vid=9dc81d6d-c611-4e67-936f-cf5d3d99298c"},"vehicle_type_id":"4","last_reported":1687277288,"current_range_meters":0,"station_id":"ce4bhbp2rcd13ifvqerg","pricing_plan_id":"free"},{"bike_id":"9c76d1d2-15b4-4e39-982a-eb88ac3e6b64","system_id":"levelo_inurba_marseille","lat":43.28273,"lon":5.35074,"is_reserved":false,"is_disabled":false,"rental_uris":{"android":"levelo://app?vid=9c76d1d2-15b4-4e39-982a-eb88ac3e6b64","ios":"levelo://app?vid=9c76d1d2-15b4-4e39-982a-eb88ac3e6b64"},"vehicle_type_id":"4","last_reported":1687277288,"current_range_meters":31200,"station_id":"ce4bhbp2rcd13ifvqerg","pricing_plan_id":"free"},{"bike_id":"540430f1-f001-4dfa-be39-d2f13cf02741","system_id":"levelo_inurba_marseille","lat":43.28268,"lon":5.3508,"is_reserved":false,"is_disabled":false,"rental_uris":{"android":"levelo://app?vid=540430f1-f001-4dfa-be39-d2f13cf02741","ios":"levelo://app?vid=540430f1-f001-4dfa-be39-d2f13cf02741"},"vehicle_type_id":"4","last_reported":1687277288,"current_range_meters":0,"station_id":"ce4bhbp2rcd13ifvqerg","pricing_plan_id":"free"},{"bike_id":"106e14ac-ae5d-4c51-afc5-5ee9c446315f","system_id":"levelo_inurba_marseille","lat":43.28268,"lon":5.35073,"is_reserved":false,"is_disabled":false,"rental_uris":{"android":"levelo://app?vid=106e14ac-ae5d-4c51-afc5-5ee9c446315f","ios":"levelo://app?vid=106e14ac-ae5d-4c51-afc5-5ee9c446315f"},"vehicle_type_id":"4","last_reported":1687277288,"current_range_meters":26800,"station_id":"ce4bhbp2rcd13ifvqerg","pricing_plan_id":"free"},{"bike_id":"e60e253a-8d93-4495-a7ed-2c7902390ce4","system_id":"levelo_inurba_marseille","lat":43.28263,"lon":5.35076,"is_reserved":false,"is_disabled":false,"rental_uris":{"android":"levelo://app?vid=e60e253a-8d93-4495-a7ed-2c7902390ce4","ios":"levelo://app?vid=e60e253a-8d93-4495-a7ed-2c7902390ce4"},"vehicle_type_id":"4","last_reported":1687277288,"current_range_meters":22400,"station_id":"ce4bhbp2rcd13ifvqerg","pricing_plan_id":"free"},{"bike_id":"9064fe79-f0b6-4203-84f4-698fe07fd37e","system_id":"levelo_inurba_marseille","lat":43.280382,"lon":5.369291,"is_reserved":false,"is_disabled":false,"rental_uris":{"android":"levelo://app?vid=9064fe79-f0b6-4203-84f4-698fe07fd37e","ios":"levelo://app?vid=9064fe79-f0b6-4203-84f4-698fe07fd37e"},"vehicle_type_id":"4","last_reported":1687277288,"current_range_meters":17200,"station_id":"ce4bha12rcd13ifvqef0","pricing_plan_id":"free"},{"bike_id":"33e79df3-6a7b-46d3-b4d5-f487bd3f35b6","system_id":"levelo_inurba_marseille","lat":43.282661,"lon":5.350604,"is_reserved":false,"is_disabled":false,"rental_uris":{"android":"levelo://app?vid=33e79df3-6a7b-46d3-b4d5-f487bd3f35b6","ios":"levelo://app?vid=33e79df3-6a7b-46d3-b4d5-f487bd3f35b6"},"vehicle_type_id":"4","last_reported":1687277288,"current_range_meters":7600,"station_id":"ce4bhbp2rcd13ifvqerg","pricing_plan_id":"free"},{"bike_id":"4ea60c86-403c-406c-8e3e-11dde869ce6b","system_id":"levelo_inurba_marseille","lat":43.28263,"lon":5.35066,"is_reserved":false,"is_disabled":false,"rental_uris":{"android":"levelo://app?vid=4ea60c86-403c-406c-8e3e-11dde869ce6b","ios":"levelo://app?vid=4ea60c86-403c-406c-8e3e-11dde869ce6b"},"vehicle_type_id":"4","last_reported":1687277288,"current_range_meters":15600,"station_id":"ce4bhbp2rcd13ifvqerg","pricing_plan_id":"free"},{"bike_id":"972b9095-765a-4dc4-aa58-efe2d9693be1","system_id":"levelo_inurba_marseille","lat":43.28039,"lon":5.369297,"is_reserved":false,"is_disabled":false,"rental_uris":{"android":"levelo://app?vid=972b9095-765a-4dc4-aa58-efe2d9693be1","ios":"levelo://app?vid=972b9095-765a-4dc4-aa58-efe2d9693be1"},"vehicle_type_id":"4","last_reported":1687277288,"current_range_meters":13200,"station_id":"ce4bha12rcd13ifvqef0","pricing_plan_id":"free"},{"bike_id":"f668771d-930a-4d4d-8253-67fba2c46c2f","system_id":"levelo_inurba_marseille","lat":43.282744,"lon":5.350533,"is_reserved":false,"is_disabled":false,"rental_uris":{"android":"levelo://app?vid=f668771d-930a-4d4d-8253-67fba2c46c2f","ios":"levelo://app?vid=f668771d-930a-4d4d-8253-67fba2c46c2f"},"vehicle_type_id":"4","last_reported":1687277288,"current_range_meters":20000,"station_id":"ce4bhbp2rcd13ifvqerg","pricing_plan_id":"free"},{"bike_id":"6489e7e3-d34f-49e8-999e-49aeabad95fc","system_id":"levelo_inurba_marseille","lat":43.28039,"lon":5.369297,"is_reserved":false,"is_disabled":false,"rental_uris":{"android":"levelo://app?vid=6489e7e3-d34f-49e8-999e-49aeabad95fc","ios":"levelo://app?vid=6489e7e3-d34f-49e8-999e-49aeabad95fc"},"vehicle_type_id":"4","last_reported":1687277288,"current_range_meters":17600,"station_id":"ce4bha12rcd13ifvqef0","pricing_plan_id":"free"},{"bike_id":"4989b521-664d-4a8e-af69-f942665c60c0","system_id":"levelo_inurba_marseille","lat":43.280382,"lon":5.369291,"is_reserved":false,"is_disabled":false,"rental_uris":{"android":"levelo://app?vid=4989b521-664d-4a8e-af69-f942665c60c0","ios":"levelo://app?vid=4989b521-664d-4a8e-af69-f942665c60c0"},"vehicle_type_id":"4","last_reported":1687277288,"current_range_meters":4800,"station_id":"ce4bha12rcd13ifvqef0","pricing_plan_id":"free"},{"bike_id":"3c61871c-bd65-4380-8b62-f2187458c6cf","system_id":"levelo_inurba_marseille","lat":43.280382,"lon":5.369291,"is_reserved":false,"is_disabled":false,"rental_uris":{"android":"levelo://app?vid=3c61871c-bd65-4380-8b62-f2187458c6cf","ios":"levelo://app?vid=3c61871c-bd65-4380-8b62-f2187458c6cf"},"vehicle_type_id":"4","last_reported":1687277288,"current_range_meters":19600,"station_id":"ce4bha12rcd13ifvqef0","pricing_plan_id":"free"},{"bike_id":"4418582e-f3f6-4b47-8721-f3766e70073e","system_id":"levelo_inurba_marseille","lat":43.28039,"lon":5.369297,"is_reserved":false,"is_disabled":false,"rental_uris":{"android":"levelo://app?vid=4418582e-f3f6-4b47-8721-f3766e70073e","ios":"levelo://app?vid=4418582e-f3f6-4b47-8721-f3766e70073e"},"vehicle_type_id":"4","last_reported":1687277288,"current_range_meters":17200,"station_id":"ce4bha12rcd13ifvqef0","pricing_plan_id":"free"},{"bike_id":"35fdda07-1de1-4336-93f2-2f8a99a5c9ce","system_id":"levelo_inurba_marseille","lat":43.28039,"lon":5.369297,"is_reserved":false,"is_disabled":false,"rental_uris":{"android":"levelo://app?vid=35fdda07-1de1-4336-93f2-2f8a99a5c9ce","ios":"levelo://app?vid=35fdda07-1de1-4336-93f2-2f8a99a5c9ce"},"vehicle_type_id":"4","last_reported":1687277288,"current_range_meters":12400,"station_id":"ce4bha12rcd13ifvqef0","pricing_plan_id":"free"},{"bike_id":"c7cec6c4-a669-49d3-99ec-d2cb72ec2974","system_id":"levelo_inurba_marseille","lat":43.28039,"lon":5.369297,"is_reserved":false,"is_disabled":false,"rental_uris":{"android":"levelo://app?vid=c7cec6c4-a669-49d3-99ec-d2cb72ec2974","ios":"levelo://app?vid=c7cec6c4-a669-49d3-99ec-d2cb72ec2974"},"vehicle_type_id":"4","last_reported":1687277288,"current_range_meters":29200,"station_id":"ce4bha12rcd13ifvqef0","pricing_plan_id":"free"},{"bike_id":"0263059e-363a-4a73-a723-81ce2c32e9cb","system_id":"levelo_inurba_marseille","lat":43.280382,"lon":5.369291,"is_reserved":false,"is_disabled":false,"rental_uris":{"android":"levelo://app?vid=0263059e-363a-4a73-a723-81ce2c32e9cb","ios":"levelo://app?vid=0263059e-363a-4a73-a723-81ce2c32e9cb"},"vehicle_type_id":"4","last_reported":1687277288,"current_range_meters":18000,"station_id":"ce4bha12rcd13ifvqef0","pricing_plan_id":"free"},{"bike_id":"5455e2dd-09e5-4d39-9698-36d8c7a2b862","system_id":"levelo_inurba_marseille","lat":43.283502,"lon":5.386471,"is_reserved":false,"is_disabled":false,"rental_uris":{"android":"levelo://app?vid=5455e2dd-09e5-4d39-9698-36d8c7a2b862","ios":"levelo://app?vid=5455e2dd-09e5-4d39-9698-36d8c7a2b862"},"vehicle_type_id":"4","last_reported":1687277288,"current_range_meters":16000,"station_id":"ce4bh492rcd13ifvqdvg","pricing_plan_id":"free"},{"bike_id":"a8688f82-7563-4150-a1fb-7da4dadae701","system_id":"levelo_inurba_marseille","lat":43.296263,"lon":5.40601,"is_reserved":false,"is_disabled":false,"rental_uris":{"android":"levelo://app?vid=a8688f82-7563-4150-a1fb-7da4dadae701","ios":"levelo://app?vid=a8688f82-7563-4150-a1fb-7da4dadae701"},"vehicle_type_id":"4","last_reported":1687277288,"current_range_meters":2400,"station_id":"ce4bh0h2rcd13ifvqd60","pricing_plan_id":"free"},{"bike_id":"b76e3bba-82a0-4712-8d16-65cce1c8f60a","system_id":"levelo_inurba_marseille","lat":43.296263,"lon":5.40601,"is_reserved":false,"is_disabled":false,"rental_uris":{"android":"levelo://app?vid=b76e3bba-82a0-4712-8d16-65cce1c8f60a","ios":"levelo://app?vid=b76e3bba-82a0-4712-8d16-65cce1c8f60a"},"vehicle_type_id":"4","last_reported":1687277288,"current_range_meters":10800,"station_id":"ce4bh0h2rcd13ifvqd60","pricing_plan_id":"free"},{"bike_id":"08f60d14-7ffd-48b4-8f8c-43ed5424ef0a","system_id":"levelo_inurba_marseille","lat":43.284462,"lon":5.392121,"is_reserved":false,"is_disabled":false,"rental_uris":{"android":"levelo://app?vid=08f60d14-7ffd-48b4-8f8c-43ed5424ef0a","ios":"levelo://app?vid=08f60d14-7ffd-48b4-8f8c-43ed5424ef0a"},"vehicle_type_id":"4","last_reported":1687277288,"current_range_meters":26800,"station_id":"ce4bhoh2rcd13ifvqh5g","pricing_plan_id":"free"},{"bike_id":"ff22564b-7f59-4dba-a7bd-0f1bc5689db1","system_id":"levelo_inurba_marseille","lat":43.326605,"lon":5.409903,"is_reserved":false,"is_disabled":false,"rental_uris":{"android":"levelo://app?vid=ff22564b-7f59-4dba-a7bd-0f1bc5689db1","ios":"levelo://app?vid=ff22564b-7f59-4dba-a7bd-0f1bc5689db1"},"vehicle_type_id":"4","last_reported":1687277288,"current_range_meters":26000,"station_id":"ce4bhpp2rcd13ifvqhgg","pricing_plan_id":"free"},{"bike_id":"61b0e6f0-454a-476b-8907-b62820ae0c9d","system_id":"levelo_inurba_marseille","lat":43.32646,"lon":5.41006,"is_reserved":false,"is_disabled":false,"rental_uris":{"android":"levelo://app?vid=61b0e6f0-454a-476b-8907-b62820ae0c9d","ios":"levelo://app?vid=61b0e6f0-454a-476b-8907-b62820ae0c9d"},"vehicle_type_id":"4","last_reported":1687277288,"current_range_meters":22800,"station_id":"","pricing_plan_id":"free"},{"bike_id":"aeccf2a6-f69f-4567-811b-195bdb31d916","system_id":"levelo_inurba_marseille","lat":43.287154,"lon":5.399979,"is_reserved":false,"is_disabled":false,"rental_uris":{"android":"levelo://app?vid=aeccf2a6-f69f-4567-811b-195bdb31d916","ios":"levelo://app?vid=aeccf2a6-f69f-4567-811b-195bdb31d916"},"vehicle_type_id":"4","last_reported":1687277288,"current_range_meters":10400,"station_id":"ce4bho92rcd13ifvqh3g","pricing_plan_id":"free"},{"bike_id":"53f049d8-b953-451e-abbd-0db093344960","system_id":"levelo_inurba_marseille","lat":43.279742,"lon":5.38744,"is_reserved":false,"is_disabled":false,"rental_uris":{"android":"levelo://app?vid=53f049d8-b953-451e-abbd-0db093344960","ios":"levelo://app?vid=53f049d8-b953-451e-abbd-0db093344960"},"vehicle_type_id":"4","last_reported":1687277288,"current_range_meters":13200,"station_id":"ce4bhg12rcd13ifvqf80","pricing_plan_id":"free"},{"bike_id":"f221af10-a7f0-4222-9cf3-c1479224c9d8","system_id":"levelo_inurba_marseille","lat":43.29258,"lon":5.40912,"is_reserved":false,"is_disabled":false,"rental_uris":{"android":"levelo://app?vid=f221af10-a7f0-4222-9cf3-c1479224c9d8","ios":"levelo://app?vid=f221af10-a7f0-4222-9cf3-c1479224c9d8"},"vehicle_type_id":"4","last_reported":1687277288,"current_range_meters":0,"station_id":"ce4bh192rcd13ifvqdc0","pricing_plan_id":"free"},{"bike_id":"db5668a6-8b4b-42e9-ba29-74746cedaccc","system_id":"levelo_inurba_marseille","lat":43.27618,"lon":5.361009,"is_reserved":false,"is_disabled":false,"rental_uris":{"android":"levelo://app?vid=db5668a6-8b4b-42e9-ba29-74746cedaccc","ios":"levelo://app?vid=db5668a6-8b4b-42e9-ba29-74746cedaccc"},"vehicle_type_id":"4","last_reported":1687277288,"current_range_meters":30400,"station_id":"ce4bgj92rcd13ifvqbe0","pricing_plan_id":"free"},{"bike_id":"b34997ea-6c70-4536-b60b-7ada9be16264","system_id":"levelo_inurba_marseille","lat":43.27618,"lon":5.361009,"is_reserved":false,"is_disabled":false,"rental_uris":{"android":"levelo://app?vid=b34997ea-6c70-4536-b60b-7ada9be16264","ios":"levelo://app?vid=b34997ea-6c70-4536-b60b-7ada9be16264"},"vehicle_type_id":"4","last_reported":1687277288,"current_range_meters":27600,"station_id":"ce4bgj92rcd13ifvqbe0","pricing_plan_id":"free"},{"bike_id":"b23ddbcb-b68a-47f6-8bc3-b9582dc406ee","system_id":"levelo_inurba_marseille","lat":43.27618,"lon":5.361009,"is_reserved":false,"is_disabled":false,"rental_uris":{"android":"levelo://app?vid=b23ddbcb-b68a-47f6-8bc3-b9582dc406ee","ios":"levelo://app?vid=b23ddbcb-b68a-47f6-8bc3-b9582dc406ee"},"vehicle_type_id":"4","last_reported":1687277288,"current_range_meters":26000,"station_id":"ce4bgj92rcd13ifvqbe0","pricing_plan_id":"free"},{"bike_id":"d9484bfe-7269-4792-9059-2620539cc974","system_id":"levelo_inurba_marseille","lat":43.276179,"lon":5.361009,"is_reserved":false,"is_disabled":false,"rental_uris":{"android":"levelo://app?vid=d9484bfe-7269-4792-9059-2620539cc974","ios":"levelo://app?vid=d9484bfe-7269-4792-9059-2620539cc974"},"vehicle_type_id":"4","last_reported":1687277288,"current_range_meters":12400,"station_id":"ce4bgj92rcd13ifvqbe0","pricing_plan_id":"free"},{"bike_id":"68bcf575-32fe-4608-858d-d34767ef7487","system_id":"levelo_inurba_marseille","lat":43.32544,"lon":5.41453,"is_reserved":false,"is_disabled":false,"rental_uris":{"android":"levelo://app?vid=68bcf575-32fe-4608-858d-d34767ef7487","ios":"levelo://app?vid=68bcf575-32fe-4608-858d-d34767ef7487"},"vehicle_type_id":"4","last_reported":1687277288,"current_range_meters":20000,"station_id":"ce4bhq12rcd13ifvqhhg","pricing_plan_id":"free"},{"bike_id":"7d5679d6-e776-4eb9-acc0-33f66aa8f14a","system_id":"levelo_inurba_marseille","lat":43.28533,"lon":5.40158,"is_reserved":false,"is_disabled":false,"rental_uris":{"android":"levelo://app?vid=7d5679d6-e776-4eb9-acc0-33f66aa8f14a","ios":"levelo://app?vid=7d5679d6-e776-4eb9-acc0-33f66aa8f14a"},"vehicle_type_id":"4","last_reported":1687277288,"current_range_meters":0,"station_id":"","pricing_plan_id":"free"},{"bike_id":"4db4cf7f-2d74-446a-8c5d-d88502289371","system_id":"levelo_inurba_marseille","lat":43.287154,"lon":5.399979,"is_reserved":false,"is_disabled":false,"rental_uris":{"android":"levelo://app?vid=4db4cf7f-2d74-446a-8c5d-d88502289371","ios":"levelo://app?vid=4db4cf7f-2d74-446a-8c5d-d88502289371"},"vehicle_type_id":"4","last_reported":1687277288,"current_range_meters":6800,"station_id":"ce4bho92rcd13ifvqh3g","pricing_plan_id":"free"},{"bike_id":"84ce03ef-dd08-4cf7-b9ea-2fbb7b24980b","system_id":"levelo_inurba_marseille","lat":43.280784,"lon":5.396622,"is_reserved":false,"is_disabled":false,"rental_uris":{"android":"levelo://app?vid=84ce03ef-dd08-4cf7-b9ea-2fbb7b24980b","ios":"levelo://app?vid=84ce03ef-dd08-4cf7-b9ea-2fbb7b24980b"},"vehicle_type_id":"4","last_reported":1687277288,"current_range_meters":22000,"station_id":"ce4bho12rcd13ifvqh2g","pricing_plan_id":"free"},{"bike_id":"3f38f4f1-826a-424d-a7f7-f5e8037ffdaf","system_id":"levelo_inurba_marseille","lat":43.280784,"lon":5.396622,"is_reserved":false,"is_disabled":false,"rental_uris":{"android":"levelo://app?vid=3f38f4f1-826a-424d-a7f7-f5e8037ffdaf","ios":"levelo://app?vid=3f38f4f1-826a-424d-a7f7-f5e8037ffdaf"},"vehicle_type_id":"4","last_reported":1687277288,"current_range_meters":6400,"station_id":"ce4bho12rcd13ifvqh2g","pricing_plan_id":"free"},{"bike_id":"8ec01333-3ec6-47d3-ab52-0f0b3f4d905e","system_id":"levelo_inurba_marseille","lat":43.280784,"lon":5.396622,"is_reserved":false,"is_disabled":false,"rental_uris":{"android":"levelo://app?vid=8ec01333-3ec6-47d3-ab52-0f0b3f4d905e","ios":"levelo://app?vid=8ec01333-3ec6-47d3-ab52-0f0b3f4d905e"},"vehicle_type_id":"4","last_reported":1687277288,"current_range_meters":5600,"station_id":"ce4bho12rcd13ifvqh2g","pricing_plan_id":"free"},{"bike_id":"672ccc80-525a-42c7-bf38-5609ee4b769a","system_id":"levelo_inurba_marseille","lat":43.273613,"lon":5.362705,"is_reserved":false,"is_disabled":false,"rental_uris":{"android":"levelo://app?vid=672ccc80-525a-42c7-bf38-5609ee4b769a","ios":"levelo://app?vid=672ccc80-525a-42c7-bf38-5609ee4b769a"},"vehicle_type_id":"4","last_reported":1687277288,"current_range_meters":31200,"station_id":"ce4bhbh2rcd13ifvqeo0","pricing_plan_id":"free"},{"bike_id":"6275aaca-a354-407f-be44-df40f2969d44","system_id":"levelo_inurba_marseille","lat":43.273613,"lon":5.362705,"is_reserved":false,"is_disabled":false,"rental_uris":{"android":"levelo://app?vid=6275aaca-a354-407f-be44-df40f2969d44","ios":"levelo://app?vid=6275aaca-a354-407f-be44-df40f2969d44"},"vehicle_type_id":"4","last_reported":1687277288,"current_range_meters":31200,"station_id":"ce4bhbh2rcd13ifvqeo0","pricing_plan_id":"free"},{"bike_id":"4bb18d45-7b31-47dc-bc65-0ce6ce61973c","system_id":"levelo_inurba_marseille","lat":43.273609,"lon":5.362708,"is_reserved":false,"is_disabled":false,"rental_uris":{"android":"levelo://app?vid=4bb18d45-7b31-47dc-bc65-0ce6ce61973c","ios":"levelo://app?vid=4bb18d45-7b31-47dc-bc65-0ce6ce61973c"},"vehicle_type_id":"4","last_reported":1687277288,"current_range_meters":30400,"station_id":"ce4bhbh2rcd13ifvqeo0","pricing_plan_id":"free"},{"bike_id":"0ab422be-89e9-477a-9ab3-efbe64a2002e","system_id":"levelo_inurba_marseille","lat":43.273613,"lon":5.362705,"is_reserved":false,"is_disabled":false,"rental_uris":{"android":"levelo://app?vid=0ab422be-89e9-477a-9ab3-efbe64a2002e","ios":"levelo://app?vid=0ab422be-89e9-477a-9ab3-efbe64a2002e"},"vehicle_type_id":"4","last_reported":1687277288,"current_range_meters":2400,"station_id":"ce4bhbh2rcd13ifvqeo0","pricing_plan_id":"free"},{"bike_id":"e9053dcc-b1b2-4fce-9dbc-c39ce0e8ef78","system_id":"levelo_inurba_marseille","lat":43.27375,"lon":5.36255,"is_reserved":false,"is_disabled":false,"rental_uris":{"android":"levelo://app?vid=e9053dcc-b1b2-4fce-9dbc-c39ce0e8ef78","ios":"levelo://app?vid=e9053dcc-b1b2-4fce-9dbc-c39ce0e8ef78"},"vehicle_type_id":"4","last_reported":1687277288,"current_range_meters":800,"station_id":"ce4bhbh2rcd13ifvqeo0","pricing_plan_id":"free"},{"bike_id":"699a4a49-e25a-4485-a592-a33d9c1cf289","system_id":"levelo_inurba_marseille","lat":43.273609,"lon":5.362708,"is_reserved":false,"is_disabled":false,"rental_uris":{"android":"levelo://app?vid=699a4a49-e25a-4485-a592-a33d9c1cf289","ios":"levelo://app?vid=699a4a49-e25a-4485-a592-a33d9c1cf289"},"vehicle_type_id":"4","last_reported":1687277288,"current_range_meters":12400,"station_id":"ce4bhbh2rcd13ifvqeo0","pricing_plan_id":"free"},{"bike_id":"05c303eb-270f-4e42-9fb7-04234cd8bd01","system_id":"levelo_inurba_marseille","lat":43.273609,"lon":5.362708,"is_reserved":false,"is_disabled":false,"rental_uris":{"android":"levelo://app?vid=05c303eb-270f-4e42-9fb7-04234cd8bd01","ios":"levelo://app?vid=05c303eb-270f-4e42-9fb7-04234cd8bd01"},"vehicle_type_id":"4","last_reported":1687277288,"current_range_meters":32000,"station_id":"ce4bhbh2rcd13ifvqeo0","pricing_plan_id":"free"},{"bike_id":"9c88f5cb-0d38-46f0-9058-fd18c989a6de","system_id":"levelo_inurba_marseille","lat":43.273609,"lon":5.362708,"is_reserved":false,"is_disabled":false,"rental_uris":{"android":"levelo://app?vid=9c88f5cb-0d38-46f0-9058-fd18c989a6de","ios":"levelo://app?vid=9c88f5cb-0d38-46f0-9058-fd18c989a6de"},"vehicle_type_id":"4","last_reported":1687277288,"current_range_meters":8400,"station_id":"ce4bhbh2rcd13ifvqeo0","pricing_plan_id":"free"},{"bike_id":"a5904f73-9b0b-421a-89bc-9cbc662b72ad","system_id":"levelo_inurba_marseille","lat":43.27354,"lon":5.36253,"is_reserved":false,"is_disabled":false,"rental_uris":{"android":"levelo://app?vid=a5904f73-9b0b-421a-89bc-9cbc662b72ad","ios":"levelo://app?vid=a5904f73-9b0b-421a-89bc-9cbc662b72ad"},"vehicle_type_id":"4","last_reported":1687277288,"current_range_meters":18800,"station_id":"ce4bhbh2rcd13ifvqeo0","pricing_plan_id":"free"},{"bike_id":"7aac24df-7d23-4e8e-9e80-ce11b88c78f1","system_id":"levelo_inurba_marseille","lat":43.31077,"lon":5.4243,"is_reserved":false,"is_disabled":false,"rental_uris":{"android":"levelo://app?vid=7aac24df-7d23-4e8e-9e80-ce11b88c78f1","ios":"levelo://app?vid=7aac24df-7d23-4e8e-9e80-ce11b88c78f1"},"vehicle_type_id":"4","last_reported":1687277288,"current_range_meters":22400,"station_id":"ce4bhp92rcd13ifvqhag","pricing_plan_id":"free"},{"bike_id":"0ffa1cc2-ed91-43dd-b7b7-8a1033ca7f65","system_id":"levelo_inurba_marseille","lat":43.31083,"lon":5.42431,"is_reserved":false,"is_disabled":false,"rental_uris":{"android":"levelo://app?vid=0ffa1cc2-ed91-43dd-b7b7-8a1033ca7f65","ios":"levelo://app?vid=0ffa1cc2-ed91-43dd-b7b7-8a1033ca7f65"},"vehicle_type_id":"4","last_reported":1687277288,"current_range_meters":10400,"station_id":"ce4bhp92rcd13ifvqhag","pricing_plan_id":"free"},{"bike_id":"2685d45b-bec7-4000-a8d3-05e5396acd4c","system_id":"levelo_inurba_marseille","lat":43.317121,"lon":5.423936,"is_reserved":false,"is_disabled":false,"rental_uris":{"android":"levelo://app?vid=2685d45b-bec7-4000-a8d3-05e5396acd4c","ios":"levelo://app?vid=2685d45b-bec7-4000-a8d3-05e5396acd4c"},"vehicle_type_id":"4","last_reported":1687277288,"current_range_meters":30000,"station_id":"ce4bhp92rcd13ifvqhbg","pricing_plan_id":"free"},{"bike_id":"af81c128-8306-435a-b895-70ba49fb36d8","system_id":"levelo_inurba_marseille","lat":43.31086,"lon":5.42434,"is_reserved":false,"is_disabled":false,"rental_uris":{"android":"levelo://app?vid=af81c128-8306-435a-b895-70ba49fb36d8","ios":"levelo://app?vid=af81c128-8306-435a-b895-70ba49fb36d8"},"vehicle_type_id":"4","last_reported":1687277288,"current_range_meters":31200,"station_id":"ce4bhp92rcd13ifvqhag","pricing_plan_id":"free"},{"bike_id":"27dd57f7-af90-4a61-a063-37826f590ef6","system_id":"levelo_inurba_marseille","lat":43.31085,"lon":5.42436,"is_reserved":false,"is_disabled":false,"rental_uris":{"android":"levelo://app?vid=27dd57f7-af90-4a61-a063-37826f590ef6","ios":"levelo://app?vid=27dd57f7-af90-4a61-a063-37826f590ef6"},"vehicle_type_id":"4","last_reported":1687277288,"current_range_meters":31200,"station_id":"ce4bhp92rcd13ifvqhag","pricing_plan_id":"free"},{"bike_id":"a8d22c26-956a-4526-9388-86d40247fdd8","system_id":"levelo_inurba_marseille","lat":43.31081,"lon":5.42438,"is_reserved":false,"is_disabled":false,"rental_uris":{"android":"levelo://app?vid=a8d22c26-956a-4526-9388-86d40247fdd8","ios":"levelo://app?vid=a8d22c26-956a-4526-9388-86d40247fdd8"},"vehicle_type_id":"4","last_reported":1687277288,"current_range_meters":31200,"station_id":"ce4bhp92rcd13ifvqhag","pricing_plan_id":"free"},{"bike_id":"f82c4e0b-ce86-4de4-962b-f266d6ba506e","system_id":"levelo_inurba_marseille","lat":43.273129,"lon":5.390725,"is_reserved":false,"is_disabled":false,"rental_uris":{"android":"levelo://app?vid=f82c4e0b-ce86-4de4-962b-f266d6ba506e","ios":"levelo://app?vid=f82c4e0b-ce86-4de4-962b-f266d6ba506e"},"vehicle_type_id":"4","last_reported":1687277288,"current_range_meters":26000,"station_id":"ce4bhgp2rcd13ifvqfe0","pricing_plan_id":"free"},{"bike_id":"e58f3c2f-796f-4dd3-b01d-bef2bb2f9168","system_id":"levelo_inurba_marseille","lat":43.30417,"lon":5.42539,"is_reserved":false,"is_disabled":false,"rental_uris":{"android":"levelo://app?vid=e58f3c2f-796f-4dd3-b01d-bef2bb2f9168","ios":"levelo://app?vid=e58f3c2f-796f-4dd3-b01d-bef2bb2f9168"},"vehicle_type_id":"4","last_reported":1687277288,"current_range_meters":1200,"station_id":"ce4bhoh2rcd13ifvqh6g","pricing_plan_id":"free"},{"bike_id":"9aa55f65-720e-4546-a9af-ffda886994af","system_id":"levelo_inurba_marseille","lat":43.29564,"lon":5.42291,"is_reserved":false,"is_disabled":false,"rental_uris":{"android":"levelo://app?vid=9aa55f65-720e-4546-a9af-ffda886994af","ios":"levelo://app?vid=9aa55f65-720e-4546-a9af-ffda886994af"},"vehicle_type_id":"4","last_reported":1687277288,"current_range_meters":3600,"station_id":"ce4bhph2rcd13ifvqhdg","pricing_plan_id":"free"},{"bike_id":"bc75e850-e871-433b-8f5f-0ddbd29d79a2","system_id":"levelo_inurba_marseille","lat":43.27219,"lon":5.39181,"is_reserved":false,"is_disabled":false,"rental_uris":{"android":"levelo://app?vid=bc75e850-e871-433b-8f5f-0ddbd29d79a2","ios":"levelo://app?vid=bc75e850-e871-433b-8f5f-0ddbd29d79a2"},"vehicle_type_id":"4","last_reported":1687277288,"current_range_meters":8400,"station_id":"ce4bhhp2rcd13ifvqfm0","pricing_plan_id":"free"},{"bike_id":"3916d0b9-f313-4f38-a38b-f2feffb92762","system_id":"levelo_inurba_marseille","lat":43.278128,"lon":5.407195,"is_reserved":false,"is_disabled":false,"rental_uris":{"android":"levelo://app?vid=3916d0b9-f313-4f38-a38b-f2feffb92762","ios":"levelo://app?vid=3916d0b9-f313-4f38-a38b-f2feffb92762"},"vehicle_type_id":"4","last_reported":1687277288,"current_range_meters":19200,"station_id":"ce4bhnh2rcd13ifvqgtg","pricing_plan_id":"free"},{"bike_id":"7bf946b2-32d0-4ebd-a3a0-7c540612b151","system_id":"levelo_inurba_marseille","lat":43.278128,"lon":5.407195,"is_reserved":false,"is_disabled":false,"rental_uris":{"android":"levelo://app?vid=7bf946b2-32d0-4ebd-a3a0-7c540612b151","ios":"levelo://app?vid=7bf946b2-32d0-4ebd-a3a0-7c540612b151"},"vehicle_type_id":"4","last_reported":1687277288,"current_range_meters":27200,"station_id":"ce4bhnh2rcd13ifvqgtg","pricing_plan_id":"free"},{"bike_id":"5287f2af-8d36-470d-bda6-b77a9830985f","system_id":"levelo_inurba_marseille","lat":43.278128,"lon":5.407195,"is_reserved":false,"is_disabled":false,"rental_uris":{"android":"levelo://app?vid=5287f2af-8d36-470d-bda6-b77a9830985f","ios":"levelo://app?vid=5287f2af-8d36-470d-bda6-b77a9830985f"},"vehicle_type_id":"4","last_reported":1687277288,"current_range_meters":13600,"station_id":"ce4bhnh2rcd13ifvqgtg","pricing_plan_id":"free"},{"bike_id":"689d4ac2-d05b-4559-9e67-cf2790923bf8","system_id":"levelo_inurba_marseille","lat":43.26953,"lon":5.38628,"is_reserved":false,"is_disabled":false,"rental_uris":{"android":"levelo://app?vid=689d4ac2-d05b-4559-9e67-cf2790923bf8","ios":"levelo://app?vid=689d4ac2-d05b-4559-9e67-cf2790923bf8"},"vehicle_type_id":"4","last_reported":1687277288,"current_range_meters":9200,"station_id":"ce4bhh92rcd13ifvqfh0","pricing_plan_id":"free"},{"bike_id":"b9941c4b-1af7-423b-af40-d1920dec9448","system_id":"levelo_inurba_marseille","lat":43.27996,"lon":5.416624,"is_reserved":false,"is_disabled":false,"rental_uris":{"android":"levelo://app?vid=b9941c4b-1af7-423b-af40-d1920dec9448","ios":"levelo://app?vid=b9941c4b-1af7-423b-af40-d1920dec9448"},"vehicle_type_id":"4","last_reported":1687277288,"current_range_meters":4000,"station_id":"ce4bho12rcd13ifvqh1g","pricing_plan_id":"free"},