{"last_updated":1732119137,"ttl":60,"version":"2.2","data":{"bikes":[{"bike_id":"7dc3f267-8ac6-49dd-a2aa-320d8e587b3f","system_id":"levelo_inurba_marseille","lat":43.27496,"lon":5.42455,"is_reserved":false,"is_disabled":true,"rental_uris":{"android":"levelo://app?vid=7dc3f267-8ac6-49dd-a2aa-320d8e587b3f","ios":"levelo://app?vid=7dc3f267-8ac6-49dd-a2aa-320d8e587b3f"},"vehicle_type_id":"4","last_reported":1732119137,"current_range_meters":400,"station_id":"ce4bhn92rcd13ifvqgrg","pricing_plan_id":"cebpf4jnsgd1na2vs0mg"},{"bike_id":"15c612f5-8722-4b64-ba44-9c6bde5740d6","system_id":"levelo_inurba_marseille","lat":43.29256,"lon":5.38439,"is_reserved":false,"is_disabled":false,"rental_uris":{"android":"levelo://app?vid=15c612f5-8722-4b64-ba44-9c6bde5740d6","ios":"levelo://app?vid=15c612f5-8722-4b64-ba44-9c6bde5740d6"},"vehicle_type_id":"4","last_reported":1732119137,"current_range_meters":37600,"station_id":"ce4bh692rcd13ifvqea0","pricing_plan_id":"cebpf4jnsgd1na2vs0mg"},{"bike_id":"2f8d9c7a-0bd4-4557-bd42-0b1efe16c8bd","system_id":"levelo_inurba_marseille","lat":43.28106,"lon":5.37848,"is_reserved":false,"is_disabled":false,"rental_uris":{"android":"levelo://app?vid=2f8d9c7a-0bd4-4557-bd42-0b1efe16c8bd","ios":"levelo://app?vid=2f8d9c7a-0bd4-4557-bd42-0b1efe16c8bd"},"vehicle_type_id":"4","last_reported":1732119137,"current_range_meters":19200,"station_id":"ce4bha12rcd13ifvqee0","pricing_plan_id":"cebpf4jnsgd1na2vs0mg"},{"bike_id":"93388fc2-b436-497b-bf62-e4a514ff8b57","system_id":"levelo_inurba_marseille","lat":43.28474,"lon":5.38417,"is_reserved":false,"is_disabled":false,"rental_uris":{"android":"levelo://app?vid=93388fc2-b436-497b-bf62-e4a514ff8b57","ios":"levelo://app?vid=93388fc2-b436-497b-bf62-e4a514ff8b57"},"vehicle_type_id":"4","last_reported":1732119137,"current_range_meters":28400,"station_id":"ce4bh512rcd13ifvqe3g","pricing_plan_id":"cebpf4jnsgd1na2vs0mg"},{"bike_id":"a93bb80b-5ae8-4967-a325-183939624743","system_id":"levelo_inurba_marseille","lat":43.29283,"lon":5.40129,"is_reserved":false,"is_disabled":false,"rental_uris":{"android":"levelo://app?vid=a93bb80b-5ae8-4967-a325-183939624743","ios":"levelo://app?vid=a93bb80b-5ae8-4967-a325-183939624743"},"vehicle_type_id":"4","last_reported":1732119137,"current_range_meters":16800,"station_id":"ce4bh312rcd13ifvqdk0","pricing_plan_id":"cebpf4jnsgd1na2vs0mg"},{"bike_id":"a29be751-0577-482b-b167-9e96e4dbacd4","system_id":"levelo_inurba_marseille","lat":43.28571,"lon":5.39504,"is_reserved":false,"is_disabled":false,"rental_uris":{"android":"levelo://app?vid=a29be751-0577-482b-b167-9e96e4dbacd4","ios":"levelo://app?vid=a29be751-0577-482b-b167-9e96e4dbacd4"},"vehicle_type_id":"4","last_reported":1732119137,"current_range_meters":38000,"station_id":"ce4bh292rcd13ifvqdg0","pricing_plan_id":"cebpf4jnsgd1na2vs0mg"},{"bike_id":"57c8a187-61e5-47e3-ab84-0d2b63b271ea","system_id":"levelo_inurba_marseille","lat":43.255,"lon":5.37656,"is_reserved":false,"is_disabled":false,"rental_uris":{"android":"levelo://app?vid=57c8a187-61e5-47e3-ab84-0d2b63b271ea","ios":"levelo://app?vid=57c8a187-61e5-47e3-ab84-0d2b63b271ea"},"vehicle_type_id":"4","last_reported":1732119137,"current_range_meters":14800,"station_id":"ce4bhh12rcd13ifvqff0","pricing_plan_id":"cebpf4jnsgd1na2vs0mg"},{"bike_id":"8d8aea59-a7a3-4cb8-b3ef-eceff66c58e3","system_id":"levelo_inurba_marseille","lat":43.31328,"lon":5.39689,"is_reserved":false,"is_disabled":false,"rental_uris":{"android":"levelo://app?vid=8d8aea59-a7a3-4cb8-b3ef-eceff66c58e3","ios":"levelo://app?vid=8d8aea59-a7a3-4cb8-b3ef-eceff66c58e3"},"vehicle_type_id":"4","last_reported":1732119137,"current_range_meters":10800,"station_id":"ce4bgvp2rcd13ifvqcu0","pricing_plan_id":"cebpf4jnsgd1na2vs0mg"},{"bike_id":"faaa07fe-d059-4c7c-8d3a-4406c48468a3","system_id":"levelo_inurba_marseille","lat":43.25109,"lon":5.40327,"is_reserved":false,"is_disabled":true,"rental_uris":{"android":"levelo://app?vid=faaa07fe-d059-4c7c-8d3a-4406c48468a3","ios":"levelo://app?vid=faaa07fe-d059-4c7c-8d3a-4406c48468a3"},"vehicle_type_id":"4","last_reported":1732119137,"current_range_meters":0,"station_id":"ce4bhlh2rcd13ifvqgig","pricing_plan_id":"cebpf4jnsgd1na2vs0mg"},{"bike_id":"6686a329-719d-4d7f-8d96-538c319ae80c","system_id":"levelo_inurba_marseille","lat":43.26567,"lon":5.39011,"is_reserved":false,"is_disabled":false,"rental_uris":{"android":"levelo://app?vid=6686a329-719d-4d7f-8d96-538c319ae80c","ios":"levelo://app?vid=6686a329-719d-4d7f-8d96-538c319ae80c"},"vehicle_type_id":"4","last_reported":1732119137,"current_range_meters":11600,"station_id":"ce4bhe12rcd13ifvqf30","pricing_plan_id":"cebpf4jnsgd1na2vs0mg"},{"bike_id":"730321d2-de66-475f-920a-cd577dc02cf8","system_id":"levelo_inurba_marseille","lat":43.31753,"lon":5.3902,"is_reserved":false,"is_disabled":false,"rental_uris":{"android":"levelo://app?vid=730321d2-de66-475f-920a-cd577dc02cf8","ios":"levelo://app?vid=730321d2-de66-475f-920a-cd577dc02cf8"},"vehicle_type_id":"4","last_reported":1732119137,"current_range_meters":32800,"station_id":"ce4bhqp2rcd13ifvqhng","pricing_plan_id":"cebpf4jnsgd1na2vs0mg"},{"bike_id":"364db6e3-ce5a-437d-9911-96007cdd4f3e","system_id":"levelo_inurba_marseille","lat":43.33723,"lon":5.39192,"is_reserved":false,"is_disabled":false,"rental_uris":{"android":"levelo://app?vid=364db6e3-ce5a-437d-9911-96007cdd4f3e","ios":"levelo://app?vid=364db6e3-ce5a-437d-9911-96007cdd4f3e"},"vehicle_type_id":"4","last_reported":1732119137,"current_range_meters":16400,"station_id":"ce4bhr92rcd13ifvqhsg","pricing_plan_id":"cebpf4jnsgd1na2vs0mg"},{"bike_id":"332a1898-0f3d-47d4-b496-67421390bfb1","system_id":"levelo_inurba_marseille","lat":43.29192,"lon":5.35802,"is_reserved":false,"is_disabled":false,"rental_uris":{"android":"levelo://app?vid=332a1898-0f3d-47d4-b496-67421390bfb1","ios":"levelo://app?vid=332a1898-0f3d-47d4-b496-67421390bfb1"},"vehicle_type_id":"4","last_reported":1732119137,"current_range_meters":28800,"station_id":"ce4bhb12rcd13ifvqel0","pricing_plan_id":"cebpf4jnsgd1na2vs0mg"},{"bike_id":"aaa68104-60d6-454b-9438-4e38b46ffb6c","system_id":"levelo_inurba_marseille","lat":43.30818,"lon":5.3707,"is_reserved":false,"is_disabled":false,"rental_uris":{"android":"levelo://app?vid=aaa68104-60d6-454b-9438-4e38b46ffb6c","ios":"levelo://app?vid=aaa68104-60d6-454b-9438-4e38b46ffb6c"},"vehicle_type_id":"4","last_reported":1732119137,"current_range_meters":23200,"station_id":"","pricing_plan_id":"cebpf4jnsgd1na2vs0mg"},{"bike_id":"ca60ab6f-3d90-4392-8793-5c0ab60a4a7f","system_id":"levelo_inurba_marseille","lat":43.33022,"lon":5.39037,"is_reserved":false,"is_disabled":false,"rental_uris":{"android":"levelo://app?vid=ca60ab6f-3d90-4392-8793-5c0ab60a4a7f","ios":"levelo://app?vid=ca60ab6f-3d90-4392-8793-5c0ab60a4a7f"},"vehicle_type_id":"4","last_reported":1732119137,"current_range_meters":10000,"station_id":"ce4bhr92rcd13ifvqhrg","pricing_plan_id":"cebpf4jnsgd1na2vs0mg"},{"bike_id":"56fc12ee-a062-4721-87a3-846e4b711468","system_id":"levelo_inurba_marseille","lat":43.28696,"lon":5.39979,"is_reserved":false,"is_disabled":false,"rental_uris":{"android":"levelo://app?vid=56fc12ee-a062-4721-87a3-846e4b711468","ios":"levelo://app?vid=56fc12ee-a062-4721-87a3-846e4b711468"},"vehicle_type_id":"4","last_reported":1732119137,"current_range_meters":35200,"station_id":"ce4bho92rcd13ifvqh3g","pricing_plan_id":"cebpf4jnsgd1na2vs0mg"},{"bike_id":"ef70205b-60c1-43e2-87c8-93ba92749fdd","system_id":"levelo_inurba_marseille","lat":43.30927,"lon":5.40146,"is_reserved":false,"is_disabled":false,"rental_uris":{"android":"levelo://app?vid=ef70205b-60c1-43e2-87c8-93ba92749fdd","ios":"levelo://app?vid=ef70205b-60c1-43e2-87c8-93ba92749fdd"},"vehicle_type_id":"4","last_reported":1732119137,"current_range_meters":40000,"station_id":"ce4bgvp2rcd13ifvqct0","pricing_plan_id":"cebpf4jnsgd1na2vs0mg"},{"bike_id":"1a2b45b6-17d7-4592-8140-142385f04b6a","system_id":"levelo_inurba_marseille","lat":43.25088,"lon":5.39518,"is_reserved":false,"is_disabled":false,"rental_uris":{"android":"levelo://app?vid=1a2b45b6-17d7-4592-8140-142385f04b6a","ios":"levelo://app?vid=1a2b45b6-17d7-4592-8140-142385f04b6a"},"vehicle_type_id":"4","last_reported":1732119137,"current_range_meters":10800,"station_id":"ce4bhm12rcd13ifvqgkg","pricing_plan_id":"cebpf4jnsgd1na2vs0mg"},{"bike_id":"3f6b579f-5df3-4322-b6fd-3f0c956de0a8","system_id":"levelo_inurba_marseille","lat":43.31168,"lon":5.38722,"is_reserved":false,"is_disabled":false,"rental_uris":{"android":"levelo://app?vid=3f6b579f-5df3-4322-b6fd-3f0c956de0a8","ios":"levelo://app?vid=3f6b579f-5df3-4322-b6fd-3f0c956de0a8"},"vehicle_type_id":"4","last_reported":1732119137,"current_range_meters":14400,"station_id":"ce4bgv12rcd13ifvqcp0","pricing_plan_id":"cebpf4jnsgd1na2vs0mg"},{"bike_id":"5c3000a0-a190-4007-a723-aa2707fd1ce3","system_id":"levelo_inurba_marseille","lat":43.2293,"lon":5.35391,"is_reserved":false,"is_disabled":false,"rental_uris":{"android":"levelo://app?vid=5c3000a0-a190-4007-a723-aa2707fd1ce3","ios":"levelo://app?vid=5c3000a0-a190-4007-a723-aa2707fd1ce3"},"vehicle_type_id":"4","last_reported":1732119137,"current_range_meters":39200,"station_id":"cpo3532slgdg3j2ikp40","pricing_plan_id":"cebpf4jnsgd1na2vs0mg"},{"bike_id":"5d7e23fd-c014-4118-a01d-7b323cfb772b","system_id":"levelo_inurba_marseille","lat":43.305389,"lon":5.365574,"is_reserved":false,"is_disabled":false,"rental_uris":{"android":"levelo://app?vid=5d7e23fd-c014-4118-a01d-7b323cfb772b","ios":"levelo://app?vid=5d7e23fd-c014-4118-a01d-7b323cfb772b"},"vehicle_type_id":"4","last_reported":1732119137,"current_range_meters":15200,"station_id":"ce4bgs12rcd13ifvqcag","pricing_plan_id":"cebpf4jnsgd1na2vs0mg"},{"bike_id":"07dfa307-72b1-4fd3-aaec-cc158bba164b","system_id":"levelo_inurba_marseille","lat":43.31936,"lon":5.37453,"is_reserved":false,"is_disabled":false,"rental_uris":{"android":"levelo://app?vid=07dfa307-72b1-4fd3-aaec-cc158bba164b","ios":"levelo://app?vid=07dfa307-72b1-4fd3-aaec-cc158bba164b"},"vehicle_type_id":"4","last_reported":1732119137,"current_range_meters":38000,"station_id":"","pricing_plan_id":"cebpf4jnsgd1na2vs0mg"},{"bike_id":"616dff2c-175a-4d85-833d-b302d7d54d27","system_id":"levelo_inurba_marseille","lat":43.27995,"lon":5.40018,"is_reserved":false,"is_disabled":false,"rental_uris":{"android":"levelo://app?vid=616dff2c-175a-4d85-833d-b302d7d54d27","ios":"levelo://app?vid=616dff2c-175a-4d85-833d-b302d7d54d27"},"vehicle_type_id":"4","last_reported":1732119137,"current_range_meters":39200,"station_id":"ce4bho92rcd13ifvqh4g","pricing_plan_id":"cebpf4jnsgd1na2vs0mg"},{"bike_id":"e0b38293-d99b-4430-b64b-73ae136e0cbe","system_id":"levelo_inurba_marseille","lat":43.25934,"lon":5.40911,"is_reserved":false,"is_disabled":true,"rental_uris":{"android":"levelo://app?vid=e0b38293-d99b-4430-b64b-73ae136e0cbe","ios":"levelo://app?vid=e0b38293-d99b-4430-b64b-73ae136e0cbe"},"vehicle_type_id":"4","last_reported":1732119137,"current_range_meters":0,"station_id":"ce4bhm92rcd13ifvqglg","pricing_plan_id":"cebpf4jnsgd1na2vs0mg"},{"bike_id":"080a13b8-628d-489f-9ff9-0b0511ce1d3e","system_id":"levelo_inurba_marseille","lat":43.2817,"lon":5.42649,"is_reserved":false,"is_disabled":false,"rental_uris":{"android":"levelo://app?vid=080a13b8-628d-489f-9ff9-0b0511ce1d3e","ios":"levelo://app?vid=080a13b8-628d-489f-9ff9-0b0511ce1d3e"},"vehicle_type_id":"4","last_reported":1732119137,"current_range_meters":27600,"station_id":"ce4bhnh2rcd13ifvqgug","pricing_plan_id":"cebpf4jnsgd1na2vs0mg"},{"bike_id":"7d033e91-159c-4032-85b2-6e56cf193115","system_id":"levelo_inurba_marseille","lat":43.30133,"lon":5.38779,"is_reserved":false,"is_disabled":false,"rental_uris":{"android":"levelo://app?vid=7d033e91-159c-4032-85b2-6e56cf193115","ios":"levelo://app?vid=7d033e91-159c-4032-85b2-6e56cf193115"},"vehicle_type_id":"4","last_reported":1732119137,"current_range_meters":10000,"station_id":"ce4bghh2rcd13ifvqb60","pricing_plan_id":"cebpf4jnsgd1na2vs0mg"},{"bike_id":"0ac0b4e1-6c83-4b79-bc65-8865c770b838","system_id":"levelo_inurba_marseille","lat":43.25104,"lon":5.40325,"is_reserved":false,"is_disabled":false,"rental_uris":{"android":"levelo://app?vid=0ac0b4e1-6c83-4b79-bc65-8865c770b838","ios":"levelo://app?vid=0ac0b4e1-6c83-4b79-bc65-8865c770b838"},"vehicle_type_id":"4","last_reported":1732119137,"current_range_meters":8400,"station_id":"ce4bhlh2rcd13ifvqgig","pricing_plan_id":"cebpf4jnsgd1na2vs0mg"},{"bike_id":"d1624950-3674-48f4-8978-e1a4dbfee584","system_id":"levelo_inurba_marseille","lat":43.31329,"lon":5.39692,"is_reserved":false,"is_disabled":false,"rental_uris":{"android":"levelo://app?vid=d1624950-3674-48f4-8978-e1a4dbfee584","ios":"levelo://app?vid=d1624950-3674-48f4-8978-e1a4dbfee584"},"vehicle_type_id":"4","last_reported":1732119137,"current_range_meters":38400,"station_id":"ce4bgvp2rcd13ifvqcu0","pricing_plan_id":"cebpf4jnsgd1na2vs0mg"},{"bike_id":"3e053930-545a-451b-ac0b-d1a314154b44","system_id":"levelo_inurba_marseille","lat":43.29529,"lon":5.38532,"is_reserved":false,"is_disabled":false,"rental_uris":{"android":"levelo://app?vid=3e053930-545a-451b-ac0b-d1a314154b44","ios":"levelo://app?vid=3e053930-545a-451b-ac0b-d1a314154b44"},"vehicle_type_id":"4","last_reported":1732119137,"current_range_meters":28800,"station_id":"ce4bgih2rcd13ifvqba0","pricing_plan_id":"cebpf4jnsgd1na2vs0mg"},{"bike_id":"1cd0daee-d68a-4e66-9883-fbe67fd8260f","system_id":"levelo_inurba_marseille","lat":43.3059,"lon":5.37241,"is_reserved":false,"is_disabled":true,"rental_uris":{"android":"levelo://app?vid=1cd0daee-d68a-4e66-9883-fbe67fd8260f","ios":"levelo://app?vid=1cd0daee-d68a-4e66-9883-fbe67fd8260f"},"vehicle_type_id":"4","last_reported":1732119137,"current_range_meters":0,"station_id":"ce4bgqh2rcd13ifvqc4g","pricing_plan_id":"cebpf4jnsgd1na2vs0mg"},{"bike_id":"bc14e463-5825-4071-9c45-e0187e501788","system_id":"levelo_inurba_marseille","lat":43.24805,"lon":5.37457,"is_reserved":false,"is_disabled":false,"rental_uris":{"android":"levelo://app?vid=bc14e463-5825-4071-9c45-e0187e501788","ios":"levelo://app?vid=bc14e463-5825-4071-9c45-e0187e501788"},"vehicle_type_id":"4","last_reported":1732119137,"current_range_meters":28800,"station_id":"ce4bhgh2rcd13ifvqfb0","pricing_plan_id":"cebpf4jnsgd1na2vs0mg"},{"bike_id":"772ce743-8958-4198-b3ba-b6e0d96fa296","system_id":"levelo_inurba_marseille","lat":43.24168,"lon":5.36404,"is_reserved":false,"is_disabled":false,"rental_uris":{"android":"levelo://app?vid=772ce743-8958-4198-b3ba-b6e0d96fa296","ios":"levelo://app?vid=772ce743-8958-4198-b3ba-b6e0d96fa296"},"vehicle_type_id":"4","last_reported":1732119137,"current_range_meters":9600,"station_id":"cpo36qri1sfpv3e86is0","pricing_plan_id":"cebpf4jnsgd1na2vs0mg"},{"bike_id":"825a71cf-7b02-499e-aff3-424c476f6e3f","system_id":"levelo_inurba_marseille","lat":43.28281,"lon":5.35063,"is_reserved":false,"is_disabled":false,"rental_uris":{"android":"levelo://app?vid=825a71cf-7b02-499e-aff3-424c476f6e3f","ios":"levelo://app?vid=825a71cf-7b02-499e-aff3-424c476f6e3f"},"vehicle_type_id":"4","last_reported":1732119137,"current_range_meters":10000,"station_id":"ce4bhbp2rcd13ifvqerg","pricing_plan_id":"cebpf4jnsgd1na2vs0mg"},{"bike_id":"e0b3cfd8-b431-40c4-b561-9686fcadb284","system_id":"levelo_inurba_marseille","lat":43.31064,"lon":5.38359,"is_reserved":false,"is_disabled":false,"rental_uris":{"android":"levelo://app?vid=e0b3cfd8-b431-40c4-b561-9686fcadb284","ios":"levelo://app?vid=e0b3cfd8-b431-40c4-b561-9686fcadb284"},"vehicle_type_id":"4","last_reported":1732119137,"current_range_meters":23200,"station_id":"ce4bgv92rcd13ifvqcr0","pricing_plan_id":"cebpf4jnsgd1na2vs0mg"},{"bike_id":"597cb1c5-c680-49ef-9a1a-84a53b157037","system_id":"levelo_inurba_marseille","lat":43.32363,"lon":5.38886,"is_reserved":false,"is_disabled":false,"rental_uris":{"android":"levelo://app?vid=597cb1c5-c680-49ef-9a1a-84a53b157037","ios":"levelo://app?vid=597cb1c5-c680-49ef-9a1a-84a53b157037"},"vehicle_type_id":"4","last_reported":1732119137,"current_range_meters":22000,"station_id":"ce4bhqp2rcd13ifvqhog","pricing_plan_id":"cebpf4jnsgd1na2vs0mg"},{"bike_id":"271d005b-08e5-449a-9ecc-19dda8997147","system_id":"levelo_inurba_marseille","lat":43.31334,"lon":5.39697,"is_reserved":false,"is_disabled":false,"rental_uris":{"android":"levelo://app?vid=271d005b-08e5-449a-9ecc-19dda8997147","ios":"levelo://app?vid=271d005b-08e5-449a-9ecc-19dda8997147"},"vehicle_type_id":"4","last_reported":1732119137,"current_range_meters":34800,"station_id":"ce4bgvp2rcd13ifvqcu0","pricing_plan_id":"cebpf4jnsgd1na2vs0mg"},{"bike_id":"02330a79-2e93-42f9-a52a-47c8f49bf28e","system_id":"levelo_inurba_marseille","lat":43.28412,"lon":5.37501,"is_reserved":false,"is_disabled":false,"rental_uris":{"android":"levelo://app?vid=02330a79-2e93-42f9-a52a-47c8f49bf28e","ios":"levelo://app?vid=02330a79-2e93-42f9-a52a-47c8f49bf28e"},"vehicle_type_id":"4","last_reported":1732119137,"current_range_meters":35200,"station_id":"ce4bh412rcd13ifvqds0","pricing_plan_id":"cebpf4jnsgd1na2vs0mg"},{"bike_id":"e930d596-26df-4ead-a388-922491d52785","system_id":"levelo_inurba_marseille","lat":43.26781,"lon":5.39419,"is_reserved":false,"is_disabled":false,"rental_uris":{"android":"levelo://app?vid=e930d596-26df-4ead-a388-922491d52785","ios":"levelo://app?vid=e930d596-26df-4ead-a388-922491d52785"},"vehicle_type_id":"4","last_reported":1732119137,"current_range_meters":22400,"station_id":"ce4bhh12rcd13ifvqfg0","pricing_plan_id":"cebpf4jnsgd1na2vs0mg"},{"bike_id":"180c010c-b2c4-41ea-85e2-426686679691","system_id":"levelo_inurba_marseille","lat":43.29327,"lon":5.37177,"is_reserved":false,"is_disabled":false,"rental_uris":{"android":"levelo://app?vid=180c010c-b2c4-41ea-85e2-426686679691","ios":"levelo://app?vid=180c010c-b2c4-41ea-85e2-426686679691"},"vehicle_type_id":"4","last_reported":1732119137,"current_range_meters":28800,"station_id":"ce4bgh92rcd13ifvqb40","pricing_plan_id":"cebpf4jnsgd1na2vs0mg"},{"bike_id":"c8e78444-aed0-42c2-bd60-bd5ebc177c5c","system_id":"levelo_inurba_marseille","lat":43.29936,"lon":5.36555,"is_reserved":false,"is_disabled":true,"rental_uris":{"android":"levelo://app?vid=c8e78444-aed0-42c2-bd60-bd5ebc177c5c","ios":"levelo://app?vid=c8e78444-aed0-42c2-bd60-bd5ebc177c5c"},"vehicle_type_id":"4","last_reported":1732119137,"current_range_meters":28000,"station_id":"ce4bgm92rcd13ifvqbr0","pricing_plan_id":"cebpf4jnsgd1na2vs0mg"},{"bike_id":"fd07e1de-8bdc-4f24-a3f6-475cae1ae38c","system_id":"levelo_inurba_marseille","lat":43.30529,"lon":5.36542,"is_reserved":false,"is_disabled":false,"rental_uris":{"android":"levelo://app?vid=fd07e1de-8bdc-4f24-a3f6-475cae1ae38c","ios":"levelo://app?vid=fd07e1de-8bdc-4f24-a3f6-475cae1ae38c"},"vehicle_type_id":"4","last_reported":1732119137,"current_range_meters":24400,"station_id":"ce4bgs12rcd13ifvqcag","pricing_plan_id":"cebpf4jnsgd1na2vs0mg"},{"bike_id":"70742e5c-172e-4fd8-816f-ea900ebd05b0","system_id":"levelo_inurba_marseille","lat":43.32049,"lon":5.41534,"is_reserved":false,"is_disabled":false,"rental_uris":{"android":"levelo://app?vid=70742e5c-172e-4fd8-816f-ea900ebd05b0","ios":"levelo://app?vid=70742e5c-172e-4fd8-816f-ea900ebd05b0"},"vehicle_type_id":"4","last_reported":1732119137,"current_range_meters":40000,"station_id":"ce4bhq92rcd13ifvqhkg","pricing_plan_id":"cebpf4jnsgd1na2vs0mg"},{"bike_id":"0190f2aa-b2a5-4557-b23a-63d796473798","system_id":"levelo_inurba_marseille","lat":43.30126,"lon":5.39848,"is_reserved":false,"is_disabled":false,"rental_uris":{"android":"levelo://app?vid=0190f2aa-b2a5-4557-b23a-63d796473798","ios":"levelo://app?vid=0190f2aa-b2a5-4557-b23a-63d796473798"},"vehicle_type_id":"4","last_reported":1732119137,"current_range_meters":39200,"station_id":"ce4bh0h2rcd13ifvqd40","pricing_plan_id":"cebpf4jnsgd1na2vs0mg"},{"bike_id":"9a401885-21a4-49d1-a4ad-3ae3e7a4ee61","system_id":"levelo_inurba_marseille","lat":43.27958,"lon":5.41052,"is_reserved":false,"is_disabled":false,"rental_uris":{"android":"levelo://app?vid=9a401885-21a4-49d1-a4ad-3ae3e7a4ee61","ios":"levelo://app?vid=9a401885-21a4-49d1-a4ad-3ae3e7a4ee61"},"vehicle_type_id":"4","last_reported":1732119137,"current_range_meters":28400,"station_id":"ce4bhnp2rcd13ifvqh0g","pricing_plan_id":"cebpf4jnsgd1na2vs0mg"},{"bike_id":"59fe6ac7-ab5f-448b-a0dd-f0905e4f654e","system_id":"levelo_inurba_marseille","lat":43.28862,"lon":5.3585,"is_reserved":false,"is_disabled":false,"rental_uris":{"android":"levelo://app?vid=59fe6ac7-ab5f-448b-a0dd-f0905e4f654e","ios":"levelo://app?vid=59fe6ac7-ab5f-448b-a0dd-f0905e4f654e"},"vehicle_type_id":"4","last_reported":1732119137,"current_range_meters":24000,"station_id":"ce4bhb12rcd13ifvqem0","pricing_plan_id":"cebpf4jnsgd1na2vs0mg"},{"bike_id":"10815b4d-f630-46e4-b054-3a315a68514f","system_id":"levelo_inurba_marseille","lat":43.33722,"lon":5.39186,"is_reserved":false,"is_disabled":false,"rental_uris":{"android":"levelo://app?vid=10815b4d-f630-46e4-b054-3a315a68514f","ios":"levelo://app?vid=10815b4d-f630-46e4-b054-3a315a68514f"},"vehicle_type_id":"4","last_reported":1732119137,"current_range_meters":39200,"station_id":"ce4bhr92rcd13ifvqhsg","pricing_plan_id":"cebpf4jnsgd1na2vs0mg"},{"bike_id":"d111e22a-86dc-44e2-9398-1c41a0931a88","system_id":"levelo_inurba_marseille","lat":43.30419,"lon":5.41277,"is_reserved":false,"is_disabled":true,"rental_uris":{"android":"levelo://app?vid=d111e22a-86dc-44e2-9398-1c41a0931a88","ios":"levelo://app?vid=d111e22a-86dc-44e2-9398-1c41a0931a88"},"vehicle_type_id":"4","last_reported":1732119137,"current_range_meters":1200,"station_id":"ce4bhop2rcd13ifvqh8g","pricing_plan_id":"cebpf4jnsgd1na2vs0mg"},{"bike_id":"a974740f-894d-4cea-aa2d-54ece8023c36","system_id":"levelo_inurba_marseille","lat":43.28104,"lon":5.37832,"is_reserved":false,"is_disabled":false,"rental_uris":{"android":"levelo://app?vid=a974740f-894d-4cea-aa2d-54ece8023c36","ios":"levelo://app?vid=a974740f-894d-4cea-aa2d-54ece8023c36"},"vehicle_type_id":"4","last_reported":1732119137,"current_range_meters":28000,"station_id":"ce4bha12rcd13ifvqee0","pricing_plan_id":"cebpf4jnsgd1na2vs0mg"},{"bike_id":"bef8eee5-56e4-48ca-873d-f09a2c381e70","system_id":"levelo_inurba_marseille","lat":43.25819,"lon":5.39435,"is_reserved":false,"is_disabled":false,"rental_uris":{"android":"levelo://app?vid=bef8eee5-56e4-48ca-873d-f09a2c381e70","ios":"levelo://app?vid=bef8eee5-56e4-48ca-873d-f09a2c381e70"},"vehicle_type_id":"4","last_reported":1732119137,"current_range_meters":21600,"station_id":"ce4bhip2rcd13ifvqft0","pricing_plan_id":"cebpf4jnsgd1na2vs0mg"},{"bike_id":"94ce9954-6dc9-4017-8435-829309ee69bd","system_id":"levelo_inurba_marseille","lat":43.26958,"lon":5.38639,"is_reserved":false,"is_disabled":true,"rental_uris":{"android":"levelo://app?vid=94ce9954-6dc9-4017-8435-829309ee69bd","ios":"levelo://app?vid=94ce9954-6dc9-4017-8435-829309ee69bd"},"vehicle_type_id":"4","last_reported":1732119137,"current_range_meters":0,"station_id":"ce4bhh92rcd13ifvqfh0","pricing_plan_id":"cebpf4jnsgd1na2vs0mg"},{"bike_id":"a294dff0-fd60-4b5a-a5bb-f8c183996e85","system_id":"levelo_inurba_marseille","lat":43.30601,"lon":5.3724,"is_reserved":false,"is_disabled":false,"rental_uris":{"android":"levelo://app?vid=a294dff0-fd60-4b5a-a5bb-f8c183996e85","ios":"levelo://app?vid=a294dff0-fd60-4b5a-a5bb-f8c183996e85"},"vehicle_type_id":"4","last_reported":1732119137,"current_range_meters":38800,"station_id":"ce4bgqh2rcd13ifvqc4g","pricing_plan_id":"cebpf4jnsgd1na2vs0mg"},{"bike_id":"17a1ee21-a849-4433-badc-5af1a287346d","system_id":"levelo_inurba_marseille","lat":43.24584,"lon":5.37427,"is_reserved":false,"is_disabled":true,"rental_uris":{"android":"levelo://app?vid=17a1ee21-a849-4433-badc-5af1a287346d","ios":"levelo://app?vid=17a1ee21-a849-4433-badc-5af1a287346d"},"vehicle_type_id":"4","last_reported":1732119137,"current_range_meters":0,"station_id":"","pricing_plan_id":"cebpf4jnsgd1na2vs0mg"},{"bike_id":"72988ed8-3b21-48f9-9313-4c219313a03b","system_id":"levelo_inurba_marseille","lat":43.25106,"lon":5.40325,"is_reserved":false,"is_disabled":false,"rental_uris":{"android":"levelo://app?vid=72988ed8-3b21-48f9-9313-4c219313a03b","ios":"levelo://app?vid=72988ed8-3b21-48f9-9313-4c219313a03b"},"vehicle_type_id":"4","last_reported":1732119137,"current_range_meters":20000,"station_id":"ce4bhlh2rcd13ifvqgig","pricing_plan_id":"cebpf4jnsgd1na2vs0mg"},{"bike_id":"c5ca496f-e49b-4184-b17c-f21044658f36","system_id":"levelo_inurba_marseille","lat":43.29916,"lon":5.38158,"is_reserved":false,"is_disabled":false,"rental_uris":{"android":"levelo://app?vid=c5ca496f-e49b-4184-b17c-f21044658f36","ios":"levelo://app?vid=c5ca496f-e49b-4184-b17c-f21044658f36"},"vehicle_type_id":"4","last_reported":1732119137,"current_range_meters":29600,"station_id":"ce4bgj12rcd13ifvqbc0","pricing_plan_id":"cebpf4jnsgd1na2vs0mg"},{"bike_id":"78bacbec-a9de-4147-a298-2408b44869e5","system_id":"levelo_inurba_marseille","lat":43.27074,"lon":5.42278,"is_reserved":false,"is_disabled":false,"rental_uris":{"android":"levelo://app?vid=78bacbec-a9de-4147-a298-2408b44869e5","ios":"levelo://app?vid=78bacbec-a9de-4147-a298-2408b44869e5"},"vehicle_type_id":"4","last_reported":1732119137,"current_range_meters":30000,"station_id":"ce4bhk92rcd13ifvqgb0","pricing_plan_id":"cebpf4jnsgd1na2vs0mg"},{"bike_id":"4e5ed434-89da-43e5-8690-0024c009c05e","system_id":"levelo_inurba_marseille","lat":43.32367,"lon":5.38883,"is_reserved":false,"is_disabled":false,"rental_uris":{"android":"levelo://app?vid=4e5ed434-89da-43e5-8690-0024c009c05e","ios":"levelo://app?vid=4e5ed434-89da-43e5-8690-0024c009c05e"},"vehicle_type_id":"4","last_reported":1732119137,"current_range_meters":24800,"station_id":"ce4bhqp2rcd13ifvqhog","pricing_plan_id":"cebpf4jnsgd1na2vs0mg"},{"bike_id":"f5cf085e-8694-4c6f-ba9c-aa6e0d3c58c6","system_id":"levelo_inurba_marseille","lat":43.33642,"lon":5.35554,"is_reserved":false,"is_disabled":true,"rental_uris":{"android":"levelo://app?vid=f5cf085e-8694-4c6f-ba9c-aa6e0d3c58c6","ios":"levelo://app?vid=f5cf085e-8694-4c6f-ba9c-aa6e0d3c58c6"},"vehicle_type_id":"4","last_reported":1732119137,"current_range_meters":10800,"station_id":"","pricing_plan_id":"cebpf4jnsgd1na2vs0mg"},{"bike_id":"3d2beca7-eef0-4bae-98e1-8b3de347272c","system_id":"levelo_inurba_marseille","lat":43.23192,"lon":5.35554,"is_reserved":false,"is_disabled":false,"rental_uris":{"android":"levelo://app?vid=3d2beca7-eef0-4bae-98e1-8b3de347272c","ios":"levelo://app?vid=3d2beca7-eef0-4bae-98e1-8b3de347272c"},"vehicle_type_id":"4","last_reported":1732119137,"current_range_meters":37600,"station_id":"ce4bhu92rcd13ifvqi70","pricing_plan_id":"cebpf4jnsgd1na2vs0mg"},{"bike_id":"3274e2e0-6c9a-427a-aeef-d09c7ae3cb79","system_id":"levelo_inurba_marseille","lat":43.29778,"lon":5.3936,"is_reserved":false,"is_disabled":false,"rental_uris":{"android":"levelo://app?vid=3274e2e0-6c9a-427a-aeef-d09c7ae3cb79","ios":"levelo://app?vid=3274e2e0-6c9a-427a-aeef-d09c7ae3cb79"},"vehicle_type_id":"4","last_reported":1732119137,"current_range_meters":39200,"station_id":"chh1huq6cuj3fo74tm60","pricing_plan_id":"cebpf4jnsgd1na2vs0mg"},{"bike_id":"cd99b9ff-7bd3-473a-8944-f82967bfbfd0","system_id":"levelo_inurba_marseille","lat":43.23183,"lon":5.39995,"is_reserved":false,"is_disabled":false,"rental_uris":{"android":"levelo://app?vid=cd99b9ff-7bd3-473a-8944-f82967bfbfd0","ios":"levelo://app?vid=cd99b9ff-7bd3-473a-8944-f82967bfbfd0"},"vehicle_type_id":"4","last_reported":1732119137,"current_range_meters":28800,"station_id":"ce4bhn12rcd13ifvqgqg","pricing_plan_id":"cebpf4jnsgd1na2vs0mg"},{"bike_id":"ccd50d75-83ba-44e8-8889-51c560c2d710","system_id":"levelo_inurba_marseille","lat":43.31224,"lon":5.36846,"is_reserved":false,"is_disabled":false,"rental_uris":{"android":"levelo://app?vid=ccd50d75-83ba-44e8-8889-51c560c2d710","ios":"levelo://app?vid=ccd50d75-83ba-44e8-8889-51c560c2d710"},"vehicle_type_id":"4","last_reported":1732119137,"current_range_meters":28800,"station_id":"ce4bgl92rcd13ifvqbq0","pricing_plan_id":"cebpf4jnsgd1na2vs0mg"},{"bike_id":"2c0403cf-6952-4b51-b277-405286f2aaa5","system_id":"levelo_inurba_marseille","lat":43.3302,"lon":5.39043,"is_reserved":false,"is_disabled":false,"rental_uris":{"android":"levelo://app?vid=2c0403cf-6952-4b51-b277-405286f2aaa5","ios":"levelo://app?vid=2c0403cf-6952-4b51-b277-405286f2aaa5"},"vehicle_type_id":"4","last_reported":1732119137,"current_range_meters":38800,"station_id":"ce4bhr92rcd13ifvqhrg","pricing_plan_id":"cebpf4jnsgd1na2vs0mg"},{"bike_id":"e57590cc-a844-462b-b95c-023047b497c3","system_id":"levelo_inurba_marseille","lat":43.26024,"lon":5.37551,"is_reserved":false,"is_disabled":true,"rental_uris":{"android":"levelo://app?vid=e57590cc-a844-462b-b95c-023047b497c3","ios":"levelo://app?vid=e57590cc-a844-462b-b95c-023047b497c3"},"vehicle_type_id":"4","last_reported":1732119137,"current_range_meters":0,"station_id":"ce4bhgh2rcd13ifvqfa0","pricing_plan_id":"cebpf4jnsgd1na2vs0mg"},{"bike_id":"f3a52da7-9a20-424d-95b2-19ad07370146","system_id":"levelo_inurba_marseille","lat":43.31171,"lon":5.38726,"is_reserved":false,"is_disabled":false,"rental_uris":{"android":"levelo://app?vid=f3a52da7-9a20-424d-95b2-19ad07370146","ios":"levelo://app?vid=f3a52da7-9a20-424d-95b2-19ad07370146"},"vehicle_type_id":"4","last_reported":1732119137,"current_range_meters":38800,"station_id":"ce4bgv12rcd13ifvqcp0","pricing_plan_id":"cebpf4jnsgd1na2vs0mg"},{"bike_id":"8dd9b3eb-6af0-46fe-8a17-1995d56010fa","system_id":"levelo_inurba_marseille","lat":43.28671,"lon":5.36355,"is_reserved":false,"is_disabled":false,"rental_uris":{"android":"levelo://app?vid=8dd9b3eb-6af0-46fe-8a17-1995d56010fa","ios":"levelo://app?vid=8dd9b3eb-6af0-46fe-8a17-1995d56010fa"},"vehicle_type_id":"4","last_reported":1732119137,"current_range_meters":16800,"station_id":"ce4bhah2rcd13ifvqej0","pricing_plan_id":"cebpf4jnsgd1na2vs0mg"},{"bike_id":"fdbc4cc4-8e25-4970-9953-52ddd635ae09","system_id":"levelo_inurba_marseille","lat":43.30596,"lon":5.39356,"is_reserved":false,"is_disabled":false,"rental_uris":{"android":"levelo://app?vid=fdbc4cc4-8e25-4970-9953-52ddd635ae09","ios":"levelo://app?vid=fdbc4cc4-8e25-4970-9953-52ddd635ae09"},"vehicle_type_id":"4","last_reported":1732119137,"current_range_meters":28400,"station_id":"ce4bh0p2rcd13ifvqd80","pricing_plan_id":"cebpf4jnsgd1na2vs0mg"},{"bike_id":"d62e8c7c-d9b5-4f45-9fcb-7ca2b0d33c1e","system_id":"levelo_inurba_marseille","lat":43.29229,"lon":5.36075,"is_reserved":false,"is_disabled":false,"rental_uris":{"android":"levelo://app?vid=d62e8c7c-d9b5-4f45-9fcb-7ca2b0d33c1e","ios":"levelo://app?vid=d62e8c7c-d9b5-4f45-9fcb-7ca2b0d33c1e"},"vehicle_type_id":"4","last_reported":1732119137,"current_range_meters":11600,"station_id":"ce4bhbh2rcd13ifvqeqg","pricing_plan_id":"cebpf4jnsgd1na2vs0mg"},{"bike_id":"18f48537-054c-4640-8a0a-8b55bc8044f4","system_id":"levelo_inurba_marseille","lat":43.29044,"lon":5.35909,"is_reserved":false,"is_disabled":false,"rental_uris":{"android":"levelo://app?vid=18f48537-054c-4640-8a0a-8b55bc8044f4","ios":"levelo://app?vid=18f48537-054c-4640-8a0a-8b55bc8044f4"},"vehicle_type_id":"4","last_reported":1732119137,"current_range_meters":20000,"station_id":"ce4bha92rcd13ifvqeg0","pricing_plan_id":"cebpf4jnsgd1na2vs0mg"},{"bike_id":"8d5e8e54-f87c-49b3-8720-7e21078f8fcd","system_id":"levelo_inurba_marseille","lat":43.26492,"lon":5.3955,"is_reserved":false,"is_disabled":true,"rental_uris":{"android":"levelo://app?vid=8d5e8e54-f87c-49b3-8720-7e21078f8fcd","ios":"levelo://app?vid=8d5e8e54-f87c-49b3-8720-7e21078f8fcd"},"vehicle_type_id":"4","last_reported":1732119137,"current_range_meters":400,"station_id":"ce4bhi12rcd13ifvqfq0","pricing_plan_id":"cebpf4jnsgd1na2vs0mg"},{"bike_id":"9beabdc8-a2b2-4b1e-b24a-f5ebad04b4ce","system_id":"levelo_inurba_marseille","lat":43.28704,"lon":5.37939,"is_reserved":false,"is_disabled":false,"rental_uris":{"android":"levelo://app?vid=9beabdc8-a2b2-4b1e-b24a-f5ebad04b4ce","ios":"levelo://app?vid=9beabdc8-a2b2-4b1e-b24a-f5ebad04b4ce"},"vehicle_type_id":"4","last_reported":1732119137,"current_range_meters":14000,"station_id":"ce4bh9p2rcd13ifvqec0","pricing_plan_id":"cebpf4jnsgd1na2vs0mg"},{"bike_id":"2594e531-4b82-4891-8d78-f21ece4435eb","system_id":"levelo_inurba_marseille","lat":43.27216,"lon":5.39181,"is_reserved":false,"is_disabled":true,"rental_uris":{"android":"levelo://app?vid=2594e531-4b82-4891-8d78-f21ece4435eb","ios":"levelo://app?vid=2594e531-4b82-4891-8d78-f21ece4435eb"},"vehicle_type_id":"4","last_reported":1732119137,"current_range_meters":800,"station_id":"ce4bhhp2rcd13ifvqfm0","pricing_plan_id":"cebpf4jnsgd1na2vs0mg"},{"bike_id":"8940c8da-24b9-400b-a5b2-cdc6ccc3bcc8","system_id":"levelo_inurba_marseille","lat":43.29747,"lon":5.37706,"is_reserved":false,"is_disabled":false,"rental_uris":{"android":"levelo://app?vid=8940c8da-24b9-400b-a5b2-cdc6ccc3bcc8","ios":"levelo://app?vid=8940c8da-24b9-400b-a5b2-cdc6ccc3bcc8"},"vehicle_type_id":"4","last_reported":1732119137,"current_range_meters":37600,"station_id":"ce4bgkh2rcd13ifvqbl0","pricing_plan_id":"cebpf4jnsgd1na2vs0mg"},{"bike_id":"f5ffb3e5-f141-4e49-961d-7f0ec0b77112","system_id":"levelo_inurba_marseille","lat":43.28076,"lon":5.3965,"is_reserved":false,"is_disabled":false,"rental_uris":{"android":"levelo://app?vid=f5ffb3e5-f141-4e49-961d-7f0ec0b77112","ios":"levelo://app?vid=f5ffb3e5-f141-4e49-961d-7f0ec0b77112"},"vehicle_type_id":"4","last_reported":1732119137,"current_range_meters":38000,"station_id":"ce4bho12rcd13ifvqh2g","pricing_plan_id":"cebpf4jnsgd1na2vs0mg"},{"bike_id":"cdaafd2d-0da1-4fac-9881-15c66a7cd7c0","system_id":"levelo_inurba_marseille","lat":43.23159,"lon":5.43706,"is_reserved":false,"is_disabled":true,"rental_uris":{"android":"levelo://app?vid=cdaafd2d-0da1-4fac-9881-15c66a7cd7c0","ios":"levelo://app?vid=cdaafd2d-0da1-4fac-9881-15c66a7cd7c0"},"vehicle_type_id":"4","last_reported":1732119137,"current_range_meters":0,"station_id":"ce4bhmp2rcd13ifvqgog","pricing_plan_id":"cebpf4jnsgd1na2vs0mg"},{"bike_id":"571ebf17-9551-4693-af9a-d47668470fe6","system_id":"levelo_inurba_marseille","lat":43.32365,"lon":5.38883,"is_reserved":false,"is_disabled":false,"rental_uris":{"android":"levelo://app?vid=571ebf17-9551-4693-af9a-d47668470fe6","ios":"levelo://app?vid=571ebf17-9551-4693-af9a-d47668470fe6"},"vehicle_type_id":"4","last_reported":1732119137,"current_range_meters":8400,"station_id":"ce4bhqp2rcd13ifvqhog","pricing_plan_id":"cebpf4jnsgd1na2vs0mg"},{"bike_id":"f4ed55cd-02da-4b2f-8727-f10076e6b1f6","system_id":"levelo_inurba_marseille","lat":43.29375,"lon":5.37854,"is_reserved":false,"is_disabled":false,"rental_uris":{"android":"levelo://app?vid=f4ed55cd-02da-4b2f-8727-f10076e6b1f6","ios":"levelo://app?vid=f4ed55cd-02da-4b2f-8727-f10076e6b1f6"},"vehicle_type_id":"4","last_reported":1732119137,"current_range_meters":39200,"station_id":"ce4bgjh2rcd13ifvqbf0","pricing_plan_id":"cebpf4jnsgd1na2vs0mg"},{"bike_id":"8d5ad0a8-268e-4afd-be61-7919f93826c7","system_id":"levelo_inurba_marseille","lat":43.299151,"lon":5.374754,"is_reserved":false,"is_disabled":true,"rental_uris":{"android":"levelo://app?vid=8d5ad0a8-268e-4afd-be61-7919f93826c7","ios":"levelo://app?vid=8d5ad0a8-268e-4afd-be61-7919f93826c7"},"vehicle_type_id":"4","last_reported":1732119137,"current_range_meters":37600,"station_id":"ce4bgjh2rcd13ifvqbg0","pricing_plan_id":"cebpf4jnsgd1na2vs0mg"},{"bike_id":"f198b97b-88d4-49aa-b205-4610520421a6","system_id":"levelo_inurba_marseille","lat":43.33026,"lon":5.39039,"is_reserved":false,"is_disabled":false,"rental_uris":{"android":"levelo://app?vid=f198b97b-88d4-49aa-b205-4610520421a6","ios":"levelo://app?vid=f198b97b-88d4-49aa-b205-4610520421a6"},"vehicle_type_id":"4","last_reported":1732119137,"current_range_meters":38800,"station_id":"ce4bhr92rcd13ifvqhrg","pricing_plan_id":"cebpf4jnsgd1na2vs0mg"},{"bike_id":"9df16021-471e-4ef6-9340-e233fcc32213","system_id":"levelo_inurba_marseille","lat":43.25117,"lon":5.40317,"is_reserved":false,"is_disabled":false,"rental_uris":{"android":"levelo://app?vid=9df16021-471e-4ef6-9340-e233fcc32213","ios":"levelo://app?vid=9df16021-471e-4ef6-9340-e233fcc32213"},"vehicle_type_id":"4","last_reported":1732119137,"current_range_meters":8400,"station_id":"ce4bhlh2rcd13ifvqgig","pricing_plan_id":"cebpf4jnsgd1na2vs0mg"},{"bike_id":"6a9c3b42-bbed-4a17-9d21-9d400d11f331","system_id":"levelo_inurba_marseille","lat":43.3248,"lon":5.3656,"is_reserved":false,"is_disabled":false,"rental_uris":{"android":"levelo://app?vid=6a9c3b42-bbed-4a17-9d21-9d400d11f331","ios":"levelo://app?vid=6a9c3b42-bbed-4a17-9d21-9d400d11f331"},"vehicle_type_id":"4","last_reported":1732119137,"current_range_meters":37600,"station_id":"ce4bhs12rcd13ifvqhvg","pricing_plan_id":"cebpf4jnsgd1na2vs0mg"},{"bike_id":"17ffcfb2-c9a6-4a19-8f88-a1bbad3bea6e","system_id":"levelo_inurba_marseille","lat":43.28702,"lon":5.39991,"is_reserved":false,"is_disabled":false,"rental_uris":{"android":"levelo://app?vid=17ffcfb2-c9a6-4a19-8f88-a1bbad3bea6e","ios":"levelo://app?vid=17ffcfb2-c9a6-4a19-8f88-a1bbad3bea6e"},"vehicle_type_id":"4","last_reported":1732119137,"current_range_meters":4800,"station_id":"ce4bho92rcd13ifvqh3g","pricing_plan_id":"cebpf4jnsgd1na2vs0mg"},{"bike_id":"9bdc532b-4b33-44c5-8dc9-1985c8776d19","system_id":"levelo_inurba_marseille","lat":43.28962,"lon":5.36424,"is_reserved":false,"is_disabled":false,"rental_uris":{"android":"levelo://app?vid=9bdc532b-4b33-44c5-8dc9-1985c8776d19","ios":"levelo://app?vid=9bdc532b-4b33-44c5-8dc9-1985c8776d19"},"vehicle_type_id":"4","last_reported":1732119137,"current_range_meters":38800,"station_id":"ce4bhc92rcd13ifvqetg","pricing_plan_id":"cebpf4jnsgd1na2vs0mg"},{"bike_id":"319639f6-c364-407e-9612-56f449d4d076","system_id":"levelo_inurba_marseille","lat":43.28074,"lon":5.39661,"is_reserved":false,"is_disabled":true,"rental_uris":{"android":"levelo://app?vid=319639f6-c364-407e-9612-56f449d4d076","ios":"levelo://app?vid=319639f6-c364-407e-9612-56f449d4d076"},"vehicle_type_id":"4","last_reported":1732119137,"current_range_meters":0,"station_id":"ce4bho12rcd13ifvqh2g","pricing_plan_id":"cebpf4jnsgd1na2vs0mg"},{"bike_id":"76091a5b-a878-4b61-b401-0465aaa2d4dd","system_id":"levelo_inurba_marseille","lat":43.27373,"lon":5.36268,"is_reserved":false,"is_disabled":false,"rental_uris":{"android":"levelo://app?vid=76091a5b-a878-4b61-b401-0465aaa2d4dd","ios":"levelo://app?vid=76091a5b-a878-4b61-b401-0465aaa2d4dd"},"vehicle_type_id":"4","last_reported":1732119137,"current_range_meters":14800,"station_id":"ce4bhbh2rcd13ifvqeo0","pricing_plan_id":"cebpf4jnsgd1na2vs0mg"},{"bike_id":"1951da77-c259-424b-b12e-3b8bb4eeaeca","system_id":"levelo_inurba_marseille","lat":43.29057,"lon":5.37147,"is_reserved":false,"is_disabled":true,"rental_uris":{"android":"levelo://app?vid=1951da77-c259-424b-b12e-3b8bb4eeaeca","ios":"levelo://app?vid=1951da77-c259-424b-b12e-3b8bb4eeaeca"},"vehicle_type_id":"4","last_reported":1732119137,"current_range_meters":30000,"station_id":"ce4bh5p2rcd13ifvqe4g","pricing_plan_id":"cebpf4jnsgd1na2vs0mg"},{"bike_id":"c5f1db54-11ea-4990-b832-555ec10080b9","system_id":"levelo_inurba_marseille","lat":43.26573,"lon":5.39019,"is_reserved":false,"is_disabled":true,"rental_uris":{"android":"levelo://app?vid=c5f1db54-11ea-4990-b832-555ec10080b9","ios":"levelo://app?vid=c5f1db54-11ea-4990-b832-555ec10080b9"},"vehicle_type_id":"4","last_reported":1732119137,"current_range_meters":0,"station_id":"ce4bhe12rcd13ifvqf30","pricing_plan_id":"cebpf4jnsgd1na2vs0mg"},{"bike_id":"a858d3c9-f611-4d50-9c6e-5d3eb791536e","system_id":"levelo_inurba_marseille","lat":43.32338,"lon":5.41416,"is_reserved":false,"is_disabled":false,"rental_uris":{"android":"levelo://app?vid=a858d3c9-f611-4d50-9c6e-5d3eb791536e","ios":"levelo://app?vid=a858d3c9-f611-4d50-9c6e-5d3eb791536e"},"vehicle_type_id":"4","last_reported":1732119137,"current_range_meters":22400,"station_id":"","pricing_plan_id":"cebpf4jnsgd1na2vs0mg"},{"bike_id":"9b4d52a8-a22b-418c-a556-65afaca3a235","system_id":"levelo_inurba_marseille","lat":43.33755,"lon":5.3745,"is_reserved":false,"is_disabled":false,"rental_uris":{"android":"levelo://app?vid=9b4d52a8-a22b-418c-a556-65afaca3a235","ios":"levelo://app?vid=9b4d52a8-a22b-418c-a556-65afaca3a235"},"vehicle_type_id":"4","last_reported":1732119137,"current_range_meters":16000,"station_id":"","pricing_plan_id":"cebpf4jnsgd1na2vs0mg"},{"bike_id":"28013382-a13f-438d-a816-6c0d874cbecc","system_id":"levelo_inurba_marseille","lat":43.32613,"lon":5.41058,"is_reserved":false,"is_disabled":false,"rental_uris":{"android":"levelo://app?vid=28013382-a13f-438d-a816-6c0d874cbecc","ios":"levelo://app?vid=28013382-a13f-438d-a816-6c0d874cbecc"},"vehicle_type_id":"4","last_reported":1732119137,"current_range_meters":22800,"station_id":"","pricing_plan_id":"cebpf4jnsgd1na2vs0mg"},{"bike_id":"b483aa49-d973-45b3-9e82-f4a2b89610a3","system_id":"levelo_inurba_marseille","lat":43.28074,"lon":5.39657,"is_reserved":false,"is_disabled":false,"rental_uris":{"android":"levelo://app?vid=b483aa49-d973-45b3-9e82-f4a2b89610a3","ios":"levelo://app?vid=b483aa49-d973-45b3-9e82-f4a2b89610a3"},"vehicle_type_id":"4","last_reported":1732119137,"current_range_meters":38800,"station_id":"ce4bho12rcd13ifvqh2g","pricing_plan_id":"cebpf4jnsgd1na2vs0mg"},{"bike_id":"e74e8692-56b5-455e-b107-3674a73c30f0","system_id":"levelo_inurba_marseille","lat":43.29275,"lon":5.36846,"is_reserved":false,"is_disabled":false,"rental_uris":{"android":"levelo://app?vid=e74e8692-56b5-455e-b107-3674a73c30f0","ios":"levelo://app?vid=e74e8692-56b5-455e-b107-3674a73c30f0"},"vehicle_type_id":"4","last_reported":1732119137,"current_range_meters":38800,"station_id":"ce4bhbp2rcd13ifvqesg","pricing_plan_id":"cebpf4jnsgd1na2vs0mg"},{"bike_id":"8ae288fe-7f9e-4636-bc68-3daa0c790f34","system_id":"levelo_inurba_marseille","lat":43.2467,"lon":5.38163,"is_reserved":false,"is_disabled":true,"rental_uris":{"android":"levelo://app?vid=8ae288fe-7f9e-4636-bc68-3daa0c790f34","ios":"levelo://app?vid=8ae288fe-7f9e-4636-bc68-3daa0c790f34"},"vehicle_type_id":"4","last_reported":1732119137,"current_range_meters":400,"station_id":"ce4bhih2rcd13ifvqfr0","pricing_plan_id":"cebpf4jnsgd1na2vs0mg"},{"bike_id":"f8d773ad-6117-441c-8a1f-2ad7889ac928","system_id":"levelo_inurba_marseille","lat":43.337444,"lon":5.374475,"is_reserved":false,"is_disabled":false,"rental_uris":{"android":"levelo://app?vid=f8d773ad-6117-441c-8a1f-2ad7889ac928","ios":"levelo://app?vid=f8d773ad-6117-441c-8a1f-2ad7889ac928"},"vehicle_type_id":"4","last_reported":1732119137,"current_range_meters":32400,"station_id":"","pricing_plan_id":"cebpf4jnsgd1na2vs0mg"},{"bike_id":"2196e330-a7aa-4092-bb99-58cef0d5e930","system_id":"levelo_inurba_marseille","lat":43.25092,"lon":5.39522,"is_reserved":false,"is_disabled":false,"rental_uris":{"android":"levelo://app?vid=2196e330-a7aa-4092-bb99-58cef0d5e930","ios":"levelo://app?vid=2196e330-a7aa-4092-bb99-58cef0d5e930"},"vehicle_type_id":"4","last_reported":1732119137,"current_range_meters":5600,"station_id":"ce4bhm12rcd13ifvqgkg","pricing_plan_id":"cebpf4jnsgd1na2vs0mg"},{"bike_id":"a32613c2-ce23-4c6b-99d9-f02f377bc95a","system_id":"levelo_inurba_marseille","lat":43.337444,"lon":5.374475,"is_reserved":false,"is_disabled":false,"rental_uris":{"android":"levelo://app?vid=a32613c2-ce23-4c6b-99d9-f02f377bc95a","ios":"levelo://app?vid=a32613c2-ce23-4c6b-99d9-f02f377bc95a"},"vehicle_type_id":"4","last_reported":1732119137,"current_range_meters":38000,"station_id":"","pricing_plan_id":"cebpf4jnsgd1na2vs0mg"},{"bike_id":"b776332e-40d1-4fd6-9c65-32803e6de98b","system_id":"levelo_inurba_marseille","lat":43.30142,"lon":5.37421,"is_reserved":false,"is_disabled":true,"rental_uris":{"android":"levelo://app?vid=b776332e-40d1-4fd6-9c65-32803e6de98b","ios":"levelo://app?vid=b776332e-40d1-4fd6-9c65-32803e6de98b"},"vehicle_type_id":"4","last_reported":1732119137,"current_range_meters":0,"station_id":"ce4bgs92rcd13ifvqcc0","pricing_plan_id":"cebpf4jnsgd1na2vs0mg"},{"bike_id":"27131bab-36c8-459f-9d6d-e837ee329958","system_id":"levelo_inurba_marseille","lat":43.30136,"lon":5.37426,"is_reserved":false,"is_disabled":false,"rental_uris":{"android":"levelo://app?vid=27131bab-36c8-459f-9d6d-e837ee329958","ios":"levelo://app?vid=27131bab-36c8-459f-9d6d-e837ee329958"},"vehicle_type_id":"4","last_reported":1732119137,"current_range_meters":38800,"station_id":"ce4bgs92rcd13ifvqcc0","pricing_plan_id":"cebpf4jnsgd1na2vs0mg"},{"bike_id":"32414af1-6b54-43fc-b3c0-b44ea325bd12","system_id":"levelo_inurba_marseille","lat":43.31068,"lon":5.38353,"is_reserved":false,"is_disabled":false,"rental_uris":{"android":"levelo://app?vid=32414af1-6b54-43fc-b3c0-b44ea325bd12","ios":"levelo://app?vid=32414af1-6b54-43fc-b3c0-b44ea325bd12"},"vehicle_type_id":"4","last_reported":1732119137,"current_range_meters":34800,"station_id":"ce4bgv92rcd13ifvqcr0","pricing_plan_id":"cebpf4jnsgd1na2vs0mg"},{"bike_id":"46f35b48-a8c7-4c4a-93b8-4a72208a538c","system_id":"levelo_inurba_marseille","lat":43.299,"lon":5.37464,"is_reserved":false,"is_disabled":false,"rental_uris":{"android":"levelo://app?vid=46f35b48-a8c7-4c4a-93b8-4a72208a538c","ios":"levelo://app?vid=46f35b48-a8c7-4c4a-93b8-4a72208a538c"},"vehicle_type_id":"4","last_reported":1732119137,"current_range_meters":4400,"station_id":"ce4bgjh2rcd13ifvqbg0","pricing_plan_id":"cebpf4jnsgd1na2vs0mg"},{"bike_id":"5d436f52-a822-4e6c-90b6-3720cb098923","system_id":"levelo_inurba_marseille","lat":43.32291,"lon":5.38273,"is_reserved":false,"is_disabled":false,"rental_uris":{"android":"levelo://app?vid=5d436f52-a822-4e6c-90b6-3720cb098923","ios":"levelo://app?vid=5d436f52-a822-4e6c-90b6-3720cb098923"},"vehicle_type_id":"4","last_reported":1732119137,"current_range_meters":24000,"station_id":"ce4bhr12rcd13ifvqhqg","pricing_plan_id":"cebpf4jnsgd1na2vs0mg"},{"bike_id":"e4c11769-2c19-46a4-a622-9a2180bb2646","system_id":"levelo_inurba_marseille","lat":43.23149,"lon":5.43709,"is_reserved":false,"is_disabled":false,"rental_uris":{"android":"levelo://app?vid=e4c11769-2c19-46a4-a622-9a2180bb2646","ios":"levelo://app?vid=e4c11769-2c19-46a4-a622-9a2180bb2646"},"vehicle_type_id":"4","last_reported":1732119137,"current_range_meters":38800,"station_id":"ce4bhmp2rcd13ifvqgog","pricing_plan_id":"cebpf4jnsgd1na2vs0mg"},{"bike_id":"1b758113-6a51-491b-b678-620870512093","system_id":"levelo_inurba_marseille","lat":43.33023,"lon":5.39037,"is_reserved":false,"is_disabled":false,"rental_uris":{"android":"levelo://app?vid=1b758113-6a51-491b-b678-620870512093","ios":"levelo://app?vid=1b758113-6a51-491b-b678-620870512093"},"vehicle_type_id":"4","last_reported":1732119137,"current_range_meters":14800,"station_id":"ce4bhr92rcd13ifvqhrg","pricing_plan_id":"cebpf4jnsgd1na2vs0mg"},{"bike_id":"7a03fe2c-2501-4593-945f-c4181e6082d2","system_id":"levelo_inurba_marseille","lat":43.29921,"lon":5.36555,"is_reserved":false,"is_disabled":false,"rental_uris":{"android":"levelo://app?vid=7a03fe2c-2501-4593-945f-c4181e6082d2","ios":"levelo://app?vid=7a03fe2c-2501-4593-945f-c4181e6082d2"},"vehicle_type_id":"4","last_reported":1732119137,"current_range_meters":34000,"station_id":"ce4bgm92rcd13ifvqbr0","pricing_plan_id":"cebpf4jnsgd1na2vs0mg"},{"bike_id":"b1cedc83-c61f-4409-9668-a0092534a00a","system_id":"levelo_inurba_marseille","lat":43.2861,"lon":5.37071,"is_reserved":false,"is_disabled":false,"rental_uris":{"android":"levelo://app?vid=b1cedc83-c61f-4409-9668-a0092534a00a","ios":"levelo://app?vid=b1cedc83-c61f-4409-9668-a0092534a00a"},"vehicle_type_id":"4","last_reported":1732119137,"current_range_meters":6800,"station_id":"ce4bht12rcd13ifvqi60","pricing_plan_id":"cebpf4jnsgd1na2vs0mg"},{"bike_id":"5d65b627-3435-4723-9775-b5218e9b2a7a","system_id":"levelo_inurba_marseille","lat":43.27207,"lon":5.39195,"is_reserved":false,"is_disabled":true,"rental_uris":{"android":"levelo://app?vid=5d65b627-3435-4723-9775-b5218e9b2a7a","ios":"levelo://app?vid=5d65b627-3435-4723-9775-b5218e9b2a7a"},"vehicle_type_id":"4","last_reported":1732119137,"current_range_meters":12000,"station_id":"ce4bhhp2rcd13ifvqfm0","pricing_plan_id":"cebpf4jnsgd1na2vs0mg"},{"bike_id":"8818b0a7-c814-4461-bb43-5fd8c33bac08","system_id":"levelo_inurba_marseille","lat":43.3302,"lon":5.39033,"is_reserved":false,"is_disabled":false,"rental_uris":{"android":"levelo://app?vid=8818b0a7-c814-4461-bb43-5fd8c33bac08","ios":"levelo://app?vid=8818b0a7-c814-4461-bb43-5fd8c33bac08"},"vehicle_type_id":"4","last_reported":1732119137,"current_range_meters":30000,"station_id":"ce4bhr92rcd13ifvqhrg","pricing_plan_id":"cebpf4jnsgd1na2vs0mg"},{"bike_id":"9098dc35-72ed-43c0-92dc-d3fb66ac1c82","system_id":"levelo_inurba_marseille","lat":43.27311,"lon":5.39086,"is_reserved":false,"is_disabled":false,"rental_uris":{"android":"levelo://app?vid=9098dc35-72ed-43c0-92dc-d3fb66ac1c82","ios":"levelo://app?vid=9098dc35-72ed-43c0-92dc-d3fb66ac1c82"},"vehicle_type_id":"4","last_reported":1732119137,"current_range_meters":17600,"station_id":"ce4bhgp2rcd13ifvqfe0","pricing_plan_id":"cebpf4jnsgd1na2vs0mg"},{"bike_id":"1904e4d6-e1e0-456f-9800-8b0e0e7107b4","system_id":"levelo_inurba_marseille","lat":43.23153,"lon":5.4371,"is_reserved":false,"is_disabled":true,"rental_uris":{"android":"levelo://app?vid=1904e4d6-e1e0-456f-9800-8b0e0e7107b4","ios":"levelo://app?vid=1904e4d6-e1e0-456f-9800-8b0e0e7107b4"},"vehicle_type_id":"4","last_reported":1732119137,"current_range_meters":0,"station_id":"ce4bhmp2rcd13ifvqgog","pricing_plan_id":"cebpf4jnsgd1na2vs0mg"},{"bike_id":"181ed208-4dc5-47c6-8c9f-bb341f12bdd5","system_id":"levelo_inurba_marseille","lat":43.29794,"lon":5.38086,"is_reserved":false,"is_disabled":false,"rental_uris":{"android":"levelo://app?vid=181ed208-4dc5-47c6-8c9f-bb341f12bdd5","ios":"levelo://app?vid=181ed208-4dc5-47c6-8c9f-bb341f12bdd5"},"vehicle_type_id":"4","last_reported":1732119137,"current_range_meters":30800,"station_id":"ce4bgip2rcd13ifvqbb0","pricing_plan_id":"cebpf4jnsgd1na2vs0mg"},{"bike_id":"5bed771e-39e5-41eb-a8cc-e9dd79035ab2","system_id":"levelo_inurba_marseille","lat":43.32106,"lon":5.36778,"is_reserved":false,"is_disabled":false,"rental_uris":{"android":"levelo://app?vid=5bed771e-39e5-41eb-a8cc-e9dd79035ab2","ios":"levelo://app?vid=5bed771e-39e5-41eb-a8cc-e9dd79035ab2"},"vehicle_type_id":"4","last_reported":1732119137,"current_range_meters":25200,"station_id":"ce4bhrh2rcd13ifvqhug","pricing_plan_id":"cebpf4jnsgd1na2vs0mg"},{"bike_id":"1eff5ce5-2d56-4465-a12c-60db9ec2175a","system_id":"levelo_inurba_marseille","lat":43.22937,"lon":5.35378,"is_reserved":false,"is_disabled":false,"rental_uris":{"android":"levelo://app?vid=1eff5ce5-2d56-4465-a12c-60db9ec2175a","ios":"levelo://app?vid=1eff5ce5-2d56-4465-a12c-60db9ec2175a"},"vehicle_type_id":"4","last_reported":1732119137,"current_range_meters":15200,"station_id":"cpo3532slgdg3j2ikp40","pricing_plan_id":"cebpf4jnsgd1na2vs0mg"},{"bike_id":"cc781297-2b75-45b5-b322-fda7e3b0d529","system_id":"levelo_inurba_marseille","lat":43.29711,"lon":5.37714,"is_reserved":false,"is_disabled":false,"rental_uris":{"android":"levelo://app?vid=cc781297-2b75-45b5-b322-fda7e3b0d529","ios":"levelo://app?vid=cc781297-2b75-45b5-b322-fda7e3b0d529"},"vehicle_type_id":"4","last_reported":1732119137,"current_range_meters":21600,"station_id":"ce4bgkh2rcd13ifvqbl0","pricing_plan_id":"cebpf4jnsgd1na2vs0mg"},{"bike_id":"2ababd92-0357-4cfc-b6e0-d35df1f43f27","system_id":"levelo_inurba_marseille","lat":43.30107,"lon":5.40008,"is_reserved":false,"is_disabled":false,"rental_uris":{"android":"levelo://app?vid=2ababd92-0357-4cfc-b6e0-d35df1f43f27","ios":"levelo://app?vid=2ababd92-0357-4cfc-b6e0-d35df1f43f27"},"vehicle_type_id":"4","last_reported":1732119137,"current_range_meters":4000,"station_id":"","pricing_plan_id":"cebpf4jnsgd1na2vs0mg"},{"bike_id":"f1126846-151c-41db-a723-1b5f4b356b87","system_id":"levelo_inurba_marseille","lat":43.32363,"lon":5.38884,"is_reserved":false,"is_disabled":true,"rental_uris":{"android":"levelo://app?vid=f1126846-151c-41db-a723-1b5f4b356b87","ios":"levelo://app?vid=f1126846-151c-41db-a723-1b5f4b356b87"},"vehicle_type_id":"4","last_reported":1732119137,"current_range_meters":13600,"station_id":"ce4bhqp2rcd13ifvqhog","pricing_plan_id":"cebpf4jnsgd1na2vs0mg"},{"bike_id":"46247a99-4c87-4967-bba2-1c8a185060b7","system_id":"levelo_inurba_marseille","lat":43.30886,"lon":5.39657,"is_reserved":false,"is_disabled":false,"rental_uris":{"android":"levelo://app?vid=46247a99-4c87-4967-bba2-1c8a185060b7","ios":"levelo://app?vid=46247a99-4c87-4967-bba2-1c8a185060b7"},"vehicle_type_id":"4","last_reported":1732119137,"current_range_meters":9200,"station_id":"ce4bh012rcd13ifvqcv0","pricing_plan_id":"cebpf4jnsgd1na2vs0mg"},{"bike_id":"954054ad-77ac-46c3-a1b5-c8fc266a522b","system_id":"levelo_inurba_marseille","lat":43.31725,"lon":5.42397,"is_reserved":false,"is_disabled":false,"rental_uris":{"android":"levelo://app?vid=954054ad-77ac-46c3-a1b5-c8fc266a522b","ios":"levelo://app?vid=954054ad-77ac-46c3-a1b5-c8fc266a522b"},"vehicle_type_id":"4","last_reported":1732119137,"current_range_meters":38400,"station_id":"ce4bhp92rcd13ifvqhbg","pricing_plan_id":"cebpf4jnsgd1na2vs0mg"},{"bike_id":"6fb21490-ae35-486e-851e-6a8be14ace0e","system_id":"levelo_inurba_marseille","lat":43.30553,"lon":5.36705,"is_reserved":false,"is_disabled":false,"rental_uris":{"android":"levelo://app?vid=6fb21490-ae35-486e-851e-6a8be14ace0e","ios":"levelo://app?vid=6fb21490-ae35-486e-851e-6a8be14ace0e"},"vehicle_type_id":"4","last_reported":1732119137,"current_range_meters":8400,"station_id":"ce4bgrp2rcd13ifvqc9g","pricing_plan_id":"cebpf4jnsgd1na2vs0mg"},{"bike_id":"9c4a655e-2680-4a60-a844-6a2ea62fb4b1","system_id":"levelo_inurba_marseille","lat":43.26067,"lon":5.39402,"is_reserved":false,"is_disabled":false,"rental_uris":{"android":"levelo://app?vid=9c4a655e-2680-4a60-a844-6a2ea62fb4b1","ios":"levelo://app?vid=9c4a655e-2680-4a60-a844-6a2ea62fb4b1"},"vehicle_type_id":"4","last_reported":1732119137,"current_range_meters":24400,"station_id":"ce4bhh92rcd13ifvqfj0","pricing_plan_id":"cebpf4jnsgd1na2vs0mg"},{"bike_id":"b2b27ad0-252a-441b-a256-835f73d53486","system_id":"levelo_inurba_marseille","lat":43.24804,"lon":5.37454,"is_reserved":false,"is_disabled":false,"rental_uris":{"android":"levelo://app?vid=b2b27ad0-252a-441b-a256-835f73d53486","ios":"levelo://app?vid=b2b27ad0-252a-441b-a256-835f73d53486"},"vehicle_type_id":"4","last_reported":1732119137,"current_range_meters":36800,"station_id":"ce4bhgh2rcd13ifvqfb0","pricing_plan_id":"cebpf4jnsgd1na2vs0mg"},{"bike_id":"5470aa2e-eeb8-473e-a0f4-bae37ba342bc","system_id":"levelo_inurba_marseille","lat":43.2707,"lon":5.42282,"is_reserved":false,"is_disabled":false,"rental_uris":{"android":"levelo://app?vid=5470aa2e-eeb8-473e-a0f4-bae37ba342bc","ios":"levelo://app?vid=5470aa2e-eeb8-473e-a0f4-bae37ba342bc"},"vehicle_type_id":"4","last_reported":1732119137,"current_range_meters":22400,"station_id":"ce4bhk92rcd13ifvqgb0","pricing_plan_id":"cebpf4jnsgd1na2vs0mg"},{"bike_id":"40d1d570-8c38-4178-88a6-4752ec1aaf6a","system_id":"levelo_inurba_marseille","lat":43.32483,"lon":5.36568,"is_reserved":false,"is_disabled":false,"rental_uris":{"android":"levelo://app?vid=40d1d570-8c38-4178-88a6-4752ec1aaf6a","ios":"levelo://app?vid=40d1d570-8c38-4178-88a6-4752ec1aaf6a"},"vehicle_type_id":"4","last_reported":1732119137,"current_range_meters":16800,"station_id":"ce4bhs12rcd13ifvqhvg","pricing_plan_id":"cebpf4jnsgd1na2vs0mg"},{"bike_id":"e840fe4f-47a0-4d31-8133-7c332a3d517a","system_id":"levelo_inurba_marseille","lat":43.31078,"lon":5.42432,"is_reserved":false,"is_disabled":true,"rental_uris":{"android":"levelo://app?vid=e840fe4f-47a0-4d31-8133-7c332a3d517a","ios":"levelo://app?vid=e840fe4f-47a0-4d31-8133-7c332a3d517a"},"vehicle_type_id":"4","last_reported":1732119137,"current_range_meters":10000,"station_id":"ce4bhp92rcd13ifvqhag","pricing_plan_id":"cebpf4jnsgd1na2vs0mg"},{"bike_id":"4ec32970-c17d-45e6-b295-1eef3161e858","system_id":"levelo_inurba_marseille","lat":43.29536,"lon":5.38546,"is_reserved":false,"is_disabled":false,"rental_uris":{"android":"levelo://app?vid=4ec32970-c17d-45e6-b295-1eef3161e858","ios":"levelo://app?vid=4ec32970-c17d-45e6-b295-1eef3161e858"},"vehicle_type_id":"4","last_reported":1732119137,"current_range_meters":19200,"station_id":"ce4bgih2rcd13ifvqba0","pricing_plan_id":"cebpf4jnsgd1na2vs0mg"},{"bike_id":"856c2aa9-337f-47fc-98e1-4b290071f72c","system_id":"levelo_inurba_marseille","lat":43.29778,"lon":5.38101,"is_reserved":false,"is_disabled":false,"rental_uris":{"android":"levelo://app?vid=856c2aa9-337f-47fc-98e1-4b290071f72c","ios":"levelo://app?vid=856c2aa9-337f-47fc-98e1-4b290071f72c"},"vehicle_type_id":"4","last_reported":1732119137,"current_range_meters":36000,"station_id":"ce4bgip2rcd13ifvqbb0","pricing_plan_id":"cebpf4jnsgd1na2vs0mg"},{"bike_id":"20311737-7fc5-4962-b944-f87e0c5ea51b","system_id":"levelo_inurba_marseille","lat":43.32473,"lon":5.36567,"is_reserved":false,"is_disabled":false,"rental_uris":{"android":"levelo://app?vid=20311737-7fc5-4962-b944-f87e0c5ea51b","ios":"levelo://app?vid=20311737-7fc5-4962-b944-f87e0c5ea51b"},"vehicle_type_id":"4","last_reported":1732119137,"current_range_meters":32000,"station_id":"ce4bhs12rcd13ifvqhvg","pricing_plan_id":"cebpf4jnsgd1na2vs0mg"},{"bike_id":"98b32e58-9186-4741-afff-13e77a09e04c","system_id":"levelo_inurba_marseille","lat":43.25083,"lon":5.39511,"is_reserved":false,"is_disabled":false,"rental_uris":{"android":"levelo://app?vid=98b32e58-9186-4741-afff-13e77a09e04c","ios":"levelo://app?vid=98b32e58-9186-4741-afff-13e77a09e04c"},"vehicle_type_id":"4","last_reported":1732119137,"current_range_meters":26000,"station_id":"ce4bhm12rcd13ifvqgkg","pricing_plan_id":"cebpf4jnsgd1na2vs0mg"},{"bike_id":"9b3fbf62-4f4c-46b4-9c62-9854a41b7d49","system_id":"levelo_inurba_marseille","lat":43.31715,"lon":5.37739,"is_reserved":false,"is_disabled":false,"rental_uris":{"android":"levelo://app?vid=9b3fbf62-4f4c-46b4-9c62-9854a41b7d49","ios":"levelo://app?vid=9b3fbf62-4f4c-46b4-9c62-9854a41b7d49"},"vehicle_type_id":"4","last_reported":1732119137,"current_range_meters":15200,"station_id":"ce4bgth2rcd13ifvqch0","pricing_plan_id":"cebpf4jnsgd1na2vs0mg"},{"bike_id":"7eaf5910-b4db-4259-961f-d6ce83b4b295","system_id":"levelo_inurba_marseille","lat":43.337444,"lon":5.374475,"is_reserved":false,"is_disabled":false,"rental_uris":{"android":"levelo://app?vid=7eaf5910-b4db-4259-961f-d6ce83b4b295","ios":"levelo://app?vid=7eaf5910-b4db-4259-961f-d6ce83b4b295"},"vehicle_type_id":"4","last_reported":1732119137,"current_range_meters":37600,"station_id":"","pricing_plan_id":"cebpf4jnsgd1na2vs0mg"},{"bike_id":"abf1bf27-4fc3-4e43-b96d-02a80c5a6181","system_id":"levelo_inurba_marseille","lat":43.30543,"lon":5.38418,"is_reserved":false,"is_disabled":false,"rental_uris":{"android":"levelo://app?vid=abf1bf27-4fc3-4e43-b96d-02a80c5a6181","ios":"levelo://app?vid=abf1bf27-4fc3-4e43-b96d-02a80c5a6181"},"vehicle_type_id":"4","last_reported":1732119137,"current_range_meters":30000,"station_id":"ce4bgg92rcd13ifvqb30","pricing_plan_id":"cebpf4jnsgd1na2vs0mg"},{"bike_id":"36664ebb-4ca8-4637-b42b-d46c14de65dd","system_id":"levelo_inurba_marseille","lat":43.30611,"lon":5.37222,"is_reserved":false,"is_disabled":false,"rental_uris":{"android":"levelo://app?vid=36664ebb-4ca8-4637-b42b-d46c14de65dd","ios":"levelo://app?vid=36664ebb-4ca8-4637-b42b-d46c14de65dd"},"vehicle_type_id":"4","last_reported":1732119137,"current_range_meters":38800,"station_id":"ce4bgqh2rcd13ifvqc4g","pricing_plan_id":"cebpf4jnsgd1na2vs0mg"},{"bike_id":"144b7443-439b-4eb3-a8bb-304f595a9422","system_id":"levelo_inurba_marseille","lat":43.28,"lon":5.40016,"is_reserved":false,"is_disabled":false,"rental_uris":{"android":"levelo://app?vid=144b7443-439b-4eb3-a8bb-304f595a9422","ios":"levelo://app?vid=144b7443-439b-4eb3-a8bb-304f595a9422"},"vehicle_type_id":"4","last_reported":1732119137,"current_range_meters":39200,"station_id":"ce4bho92rcd13ifvqh4g","pricing_plan_id":"cebpf4jnsgd1na2vs0mg"},{"bike_id":"05725ad4-e1a4-4023-9f02-37bc3fcd6926","system_id":"levelo_inurba_marseille","lat":43.23151,"lon":5.43705,"is_reserved":false,"is_disabled":false,"rental_uris":{"android":"levelo://app?vid=05725ad4-e1a4-4023-9f02-37bc3fcd6926","ios":"levelo://app?vid=05725ad4-e1a4-4023-9f02-37bc3fcd6926"},"vehicle_type_id":"4","last_reported":1732119137,"current_range_meters":39200,"station_id":"ce4bhmp2rcd13ifvqgog","pricing_plan_id":"cebpf4jnsgd1na2vs0mg"},{"bike_id":"e66fb724-c129-4279-b539-98885d063721","system_id":"levelo_inurba_marseille","lat":43.29276,"lon":5.40917,"is_reserved":false,"is_disabled":false,"rental_uris":{"android":"levelo://app?vid=e66fb724-c129-4279-b539-98885d063721","ios":"levelo://app?vid=e66fb724-c129-4279-b539-98885d063721"},"vehicle_type_id":"4","last_reported":1732119137,"current_range_meters":38000,"station_id":"ce4bh192rcd13ifvqdc0","pricing_plan_id":"cebpf4jnsgd1na2vs0mg"},{"bike_id":"412b63c9-223f-4ced-93b2-b20438c65e58","system_id":"levelo_inurba_marseille","lat":43.31065,"lon":5.38347,"is_reserved":false,"is_disabled":false,"rental_uris":{"android":"levelo://app?vid=412b63c9-223f-4ced-93b2-b20438c65e58","ios":"levelo://app?vid=412b63c9-223f-4ced-93b2-b20438c65e58"},"vehicle_type_id":"4","last_reported":1732119137,"current_range_meters":24800,"station_id":"ce4bgv92rcd13ifvqcr0","pricing_plan_id":"cebpf4jnsgd1na2vs0mg"},{"bike_id":"07aefd15-a845-40e1-b682-f0d6059f2cb6","system_id":"levelo_inurba_marseille","lat":43.31999,"lon":5.38141,"is_reserved":false,"is_disabled":false,"rental_uris":{"android":"levelo://app?vid=07aefd15-a845-40e1-b682-f0d6059f2cb6","ios":"levelo://app?vid=07aefd15-a845-40e1-b682-f0d6059f2cb6"},"vehicle_type_id":"4","last_reported":1732119137,"current_range_meters":38800,"station_id":"ce4bhr12rcd13ifvqhpg","pricing_plan_id":"cebpf4jnsgd1na2vs0mg"},{"bike_id":"da92100c-6198-499c-bcb4-ce99352a2a85","system_id":"levelo_inurba_marseille","lat":43.24181,"lon":5.39728,"is_reserved":false,"is_disabled":true,"rental_uris":{"android":"levelo://app?vid=da92100c-6198-499c-bcb4-ce99352a2a85","ios":"levelo://app?vid=da92100c-6198-499c-bcb4-ce99352a2a85"},"vehicle_type_id":"4","last_reported":1732119137,"current_range_meters":0,"station_id":"ce4bhn12rcd13ifvqgpg","pricing_plan_id":"cebpf4jnsgd1na2vs0mg"},{"bike_id":"5b5f4604-3a82-4584-a08b-4bc79bf3d12b","system_id":"levelo_inurba_marseille","lat":43.309072,"lon":5.371641,"is_reserved":false,"is_disabled":false,"rental_uris":{"android":"levelo://app?vid=5b5f4604-3a82-4584-a08b-4bc79bf3d12b","ios":"levelo://app?vid=5b5f4604-3a82-4584-a08b-4bc79bf3d12b"},"vehicle_type_id":"4","last_reported":1732119137,"current_range_meters":14000,"station_id":"ce4bguh2rcd13ifvqckg","pricing_plan_id":"cebpf4jnsgd1na2vs0mg"},{"bike_id":"4be42907-a17d-4528-aadb-4ee1624a0554","system_id":"levelo_inurba_marseille","lat":43.28036,"lon":5.36956,"is_reserved":false,"is_disabled":false,"rental_uris":{"android":"levelo://app?vid=4be42907-a17d-4528-aadb-4ee1624a0554","ios":"levelo://app?vid=4be42907-a17d-4528-aadb-4ee1624a0554"},"vehicle_type_id":"4","last_reported":1732119137,"current_range_meters":38800,"station_id":"ce4bha12rcd13ifvqef0","pricing_plan_id":"cebpf4jnsgd1na2vs0mg"},{"bike_id":"955c2a7e-a3d7-4b22-b18a-82c322f42be2","system_id":"levelo_inurba_marseille","lat":43.24802,"lon":5.37454,"is_reserved":false,"is_disabled":false,"rental_uris":{"android":"levelo://app?vid=955c2a7e-a3d7-4b22-b18a-82c322f42be2","ios":"levelo://app?vid=955c2a7e-a3d7-4b22-b18a-82c322f42be2"},"vehicle_type_id":"4","last_reported":1732119137,"current_range_meters":7200,"station_id":"ce4bhgh2rcd13ifvqfb0","pricing_plan_id":"cebpf4jnsgd1na2vs0mg"},{"bike_id":"004391a8-f6b0-4bf9-9c99-9c570b963797","system_id":"levelo_inurba_marseille","lat":43.29523,"lon":5.391,"is_reserved":false,"is_disabled":false,"rental_uris":{"android":"levelo://app?vid=004391a8-f6b0-4bf9-9c99-9c570b963797","ios":"levelo://app?vid=004391a8-f6b0-4bf9-9c99-9c570b963797"},"vehicle_type_id":"4","last_reported":1732119137,"current_range_meters":30400,"station_id":"ce4bh3p2rcd13ifvqdp0","pricing_plan_id":"cebpf4jnsgd1na2vs0mg"},{"bike_id":"fa903a4d-e65a-41f9-bb07-869331be61e5","system_id":"levelo_inurba_marseille","lat":43.27994,"lon":5.40016,"is_reserved":false,"is_disabled":false,"rental_uris":{"android":"levelo://app?vid=fa903a4d-e65a-41f9-bb07-869331be61e5","ios":"levelo://app?vid=fa903a4d-e65a-41f9-bb07-869331be61e5"},"vehicle_type_id":"4","last_reported":1732119137,"current_range_meters":36800,"station_id":"ce4bho92rcd13ifvqh4g","pricing_plan_id":"cebpf4jnsgd1na2vs0mg"},{"bike_id":"efaa20f7-d2fb-4778-9ca3-b17e9193d440","system_id":"levelo_inurba_marseille","lat":43.33723,"lon":5.39177,"is_reserved":false,"is_disabled":false,"rental_uris":{"android":"levelo://app?vid=efaa20f7-d2fb-4778-9ca3-b17e9193d440","ios":"levelo://app?vid=efaa20f7-d2fb-4778-9ca3-b17e9193d440"},"vehicle_type_id":"4","last_reported":1732119137,"current_range_meters":34000,"station_id":"ce4bhr92rcd13ifvqhsg","pricing_plan_id":"cebpf4jnsgd1na2vs0mg"},{"bike_id":"514b263f-d105-48e8-a681-de81d638ff36","system_id":"levelo_inurba_marseille","lat":43.29631,"lon":5.37739,"is_reserved":false,"is_disabled":false,"rental_uris":{"android":"levelo://app?vid=514b263f-d105-48e8-a681-de81d638ff36","ios":"levelo://app?vid=514b263f-d105-48e8-a681-de81d638ff36"},"vehicle_type_id":"4","last_reported":1732119137,"current_range_meters":9600,"station_id":"ce4bgi92rcd13ifvqb90","pricing_plan_id":"cebpf4jnsgd1na2vs0mg"},{"bike_id":"cbb19e09-aa20-4763-8e71-dc123172ec07","system_id":"levelo_inurba_marseille","lat":43.23152,"lon":5.4371,"is_reserved":false,"is_disabled":false,"rental_uris":{"android":"levelo://app?vid=cbb19e09-aa20-4763-8e71-dc123172ec07","ios":"levelo://app?vid=cbb19e09-aa20-4763-8e71-dc123172ec07"},"vehicle_type_id":"4","last_reported":1732119137,"current_range_meters":39200,"station_id":"ce4bhmp2rcd13ifvqgog","pricing_plan_id":"cebpf4jnsgd1na2vs0mg"},{"bike_id":"f97de038-2e7d-4987-ac3c-9089930c1028","system_id":"levelo_inurba_marseille","lat":43.29575,"lon":5.3998,"is_reserved":false,"is_disabled":false,"rental_uris":{"android":"levelo://app?vid=f97de038-2e7d-4987-ac3c-9089930c1028","ios":"levelo://app?vid=f97de038-2e7d-4987-ac3c-9089930c1028"},"vehicle_type_id":"4","last_reported":1732119137,"current_range_meters":39200,"station_id":"ce4bh312rcd13ifvqdj0","pricing_plan_id":"cebpf4jnsgd1na2vs0mg"},{"bike_id":"028e5427-36e2-49e1-b3db-260058fffb58","system_id":"levelo_inurba_marseille","lat":43.25571,"lon":5.38225,"is_reserved":false,"is_disabled":false,"rental_uris":{"android":"levelo://app?vid=028e5427-36e2-49e1-b3db-260058fffb58","ios":"levelo://app?vid=028e5427-36e2-49e1-b3db-260058fffb58"},"vehicle_type_id":"4","last_reported":1732119137,"current_range_meters":27600,"station_id":"ce4bhih2rcd13ifvqfs0","pricing_plan_id":"cebpf4jnsgd1na2vs0mg"},{"bike_id":"a820487b-8ff2-4360-b2f3-86d11f42d4ec","system_id":"levelo_inurba_marseille","lat":43.312233,"lon":5.368561,"is_reserved":false,"is_disabled":false,"rental_uris":{"android":"levelo://app?vid=a820487b-8ff2-4360-b2f3-86d11f42d4ec","ios":"levelo://app?vid=a820487b-8ff2-4360-b2f3-86d11f42d4ec"},"vehicle_type_id":"4","last_reported":1732119137,"current_range_meters":12000,"station_id":"ce4bgl92rcd13ifvqbq0","pricing_plan_id":"cebpf4jnsgd1na2vs0mg"},{"bike_id":"8fc2a3b2-57a6-4657-af09-45775d28fdb5","system_id":"levelo_inurba_marseille","lat":43.24665,"lon":5.38164,"is_reserved":false,"is_disabled":false,"rental_uris":{"android":"levelo://app?vid=8fc2a3b2-57a6-4657-af09-45775d28fdb5","ios":"levelo://app?vid=8fc2a3b2-57a6-4657-af09-45775d28fdb5"},"vehicle_type_id":"4","last_reported":1732119137,"current_range_meters":8800,"station_id":"ce4bhih2rcd13ifvqfr0","pricing_plan_id":"cebpf4jnsgd1na2vs0mg"},{"bike_id":"8e0e79b7-db6f-4a7c-b363-01ff43db779d","system_id":"levelo_inurba_marseille","lat":43.31329,"lon":5.39687,"is_reserved":false,"is_disabled":false,"rental_uris":{"android":"levelo://app?vid=8e0e79b7-db6f-4a7c-b363-01ff43db779d","ios":"levelo://app?vid=8e0e79b7-db6f-4a7c-b363-01ff43db779d"},"vehicle_type_id":"4","last_reported":1732119137,"current_range_meters":25200,"station_id":"ce4bgvp2rcd13ifvqcu0","pricing_plan_id":"cebpf4jnsgd1na2vs0mg"},{"bike_id":"8bb445cf-638d-4be1-b10c-b6d207ffa0a8","system_id":"levelo_inurba_marseille","lat":43.29791,"lon":5.39351,"is_reserved":false,"is_disabled":false,"rental_uris":{"android":"levelo://app?vid=8bb445cf-638d-4be1-b10c-b6d207ffa0a8","ios":"levelo://app?vid=8bb445cf-638d-4be1-b10c-b6d207ffa0a8"},"vehicle_type_id":"4","last_reported":1732119137,"current_range_meters":35600,"station_id":"chh1huq6cuj3fo74tm60","pricing_plan_id":"cebpf4jnsgd1na2vs0mg"},{"bike_id":"41b66025-5082-421d-922c-552de41f1f1b","system_id":"levelo_inurba_marseille","lat":43.33795,"lon":5.37474,"is_reserved":false,"is_disabled":false,"rental_uris":{"android":"levelo://app?vid=41b66025-5082-421d-922c-552de41f1f1b","ios":"levelo://app?vid=41b66025-5082-421d-922c-552de41f1f1b"},"vehicle_type_id":"4","last_reported":1732119137,"current_range_meters":35600,"station_id":"","pricing_plan_id":"cebpf4jnsgd1na2vs0mg"},{"bike_id":"009ac959-e326-4fa0-a654-75e82873a609","system_id":"levelo_inurba_marseille","lat":43.31755,"lon":5.39018,"is_reserved":false,"is_disabled":false,"rental_uris":{"android":"levelo://app?vid=009ac959-e326-4fa0-a654-75e82873a609","ios":"levelo://app?vid=009ac959-e326-4fa0-a654-75e82873a609"},"vehicle_type_id":"4","last_reported":1732119137,"current_range_meters":39200,"station_id":"ce4bhqp2rcd13ifvqhng","pricing_plan_id":"cebpf4jnsgd1na2vs0mg"},{"bike_id":"7577f7b0-3986-4964-af34-9253d0a52f4b","system_id":"levelo_inurba_marseille","lat":43.30353,"lon":5.41888,"is_reserved":false,"is_disabled":true,"rental_uris":{"android":"levelo://app?vid=7577f7b0-3986-4964-af34-9253d0a52f4b","ios":"levelo://app?vid=7577f7b0-3986-4964-af34-9253d0a52f4b"},"vehicle_type_id":"4","last_reported":1732119137,"current_range_meters":0,"station_id":"ce4bhop2rcd13ifvqh7g","pricing_plan_id":"cebpf4jnsgd1na2vs0mg"},{"bike_id":"4dfec938-ae22-4859-943e-31b99d500af2","system_id":"levelo_inurba_marseille","lat":43.27993,"lon":5.41667,"is_reserved":false,"is_disabled":false,"rental_uris":{"android":"levelo://app?vid=4dfec938-ae22-4859-943e-31b99d500af2","ios":"levelo://app?vid=4dfec938-ae22-4859-943e-31b99d500af2"},"vehicle_type_id":"4","last_reported":1732119137,"current_range_meters":8800,"station_id":"ce4bho12rcd13ifvqh1g","pricing_plan_id":"cebpf4jnsgd1na2vs0mg"},{"bike_id":"b6a5dd45-3299-4794-bb3d-6c5c2b5a78a1","system_id":"levelo_inurba_marseille","lat":43.33023,"lon":5.39041,"is_reserved":false,"is_disabled":false,"rental_uris":{"android":"levelo://app?vid=b6a5dd45-3299-4794-bb3d-6c5c2b5a78a1","ios":"levelo://app?vid=b6a5dd45-3299-4794-bb3d-6c5c2b5a78a1"},"vehicle_type_id":"4","last_reported":1732119137,"current_range_meters":39200,"station_id":"ce4bhr92rcd13ifvqhrg","pricing_plan_id":"cebpf4jnsgd1na2vs0mg"},{"bike_id":"422724e5-20b6-4c82-99a6-14994c43927d","system_id":"levelo_inurba_marseille","lat":43.29003,"lon":5.35608,"is_reserved":false,"is_disabled":false,"rental_uris":{"android":"levelo://app?vid=422724e5-20b6-4c82-99a6-14994c43927d","ios":"levelo://app?vid=422724e5-20b6-4c82-99a6-14994c43927d"},"vehicle_type_id":"4","last_reported":1732119137,"current_range_meters":39200,"station_id":"ce4bhb92rcd13ifvqen0","pricing_plan_id":"cebpf4jnsgd1na2vs0mg"},{"bike_id":"07809f3f-bd95-4c1e-90f5-a5456dec6aaa","system_id":"levelo_inurba_marseille","lat":43.3064,"lon":5.40098,"is_reserved":false,"is_disabled":false,"rental_uris":{"android":"levelo://app?vid=07809f3f-bd95-4c1e-90f5-a5456dec6aaa","ios":"levelo://app?vid=07809f3f-bd95-4c1e-90f5-a5456dec6aaa"},"vehicle_type_id":"4","last_reported":1732119137,"current_range_meters":30800,"station_id":"ce4bh112rcd13ifvqda0","pricing_plan_id":"cebpf4jnsgd1na2vs0mg"},{"bike_id":"0b067f3c-e55c-4de2-897c-3d262d3f1f7e","system_id":"levelo_inurba_marseille","lat":43.3133,"lon":5.39695,"is_reserved":false,"is_disabled":false,"rental_uris":{"android":"levelo://app?vid=0b067f3c-e55c-4de2-897c-3d262d3f1f7e","ios":"levelo://app?vid=0b067f3c-e55c-4de2-897c-3d262d3f1f7e"},"vehicle_type_id":"4","last_reported":1732119137,"current_range_meters":38000,"station_id":"ce4bgvp2rcd13ifvqcu0","pricing_plan_id":"cebpf4jnsgd1na2vs0mg"},{"bike_id":"ef95be68-f924-4da3-934e-ad308acbe5cd","system_id":"levelo_inurba_marseille","lat":43.32362,"lon":5.38888,"is_reserved":false,"is_disabled":false,"rental_uris":{"android":"levelo://app?vid=ef95be68-f924-4da3-934e-ad308acbe5cd","ios":"levelo://app?vid=ef95be68-f924-4da3-934e-ad308acbe5cd"},"vehicle_type_id":"4","last_reported":1732119137,"current_range_meters":12000,"station_id":"ce4bhqp2rcd13ifvqhog","pricing_plan_id":"cebpf4jnsgd1na2vs0mg"},{"bike_id":"b0bbdeda-f1dc-40fa-81eb-4f4e7c690913","system_id":"levelo_inurba_marseille","lat":43.30555,"lon":5.38422,"is_reserved":false,"is_disabled":false,"rental_uris":{"android":"levelo://app?vid=b0bbdeda-f1dc-40fa-81eb-4f4e7c690913","ios":"levelo://app?vid=b0bbdeda-f1dc-40fa-81eb-4f4e7c690913"},"vehicle_type_id":"4","last_reported":1732119137,"current_range_meters":17600,"station_id":"ce4bgg92rcd13ifvqb30","pricing_plan_id":"cebpf4jnsgd1na2vs0mg"},{"bike_id":"e5951ee3-4a5a-4ebb-b469-096c5188dfa3","system_id":"levelo_inurba_marseille","lat":43.23191,"lon":5.35558,"is_reserved":false,"is_disabled":true,"rental_uris":{"android":"levelo://app?vid=e5951ee3-4a5a-4ebb-b469-096c5188dfa3","ios":"levelo://app?vid=e5951ee3-4a5a-4ebb-b469-096c5188dfa3"},"vehicle_type_id":"4","last_reported":1732119137,"current_range_meters":0,"station_id":"ce4bhu92rcd13ifvqi70","pricing_plan_id":"cebpf4jnsgd1na2vs0mg"},{"bike_id":"b2f6b9cf-69db-40ab-8230-689c41a2c16c","system_id":"levelo_inurba_marseille","lat":43.24162,"lon":5.36404,"is_reserved":false,"is_disabled":false,"rental_uris":{"android":"levelo://app?vid=b2f6b9cf-69db-40ab-8230-689c41a2c16c","ios":"levelo://app?vid=b2f6b9cf-69db-40ab-8230-689c41a2c16c"},"vehicle_type_id":"4","last_reported":1732119137,"current_range_meters":37600,"station_id":"cpo36qri1sfpv3e86is0","pricing_plan_id":"cebpf4jnsgd1na2vs0mg"},{"bike_id":"5088d695-0e9f-4773-b57e-f02f32e7ed76","system_id":"levelo_inurba_marseille","lat":43.33026,"lon":5.39043,"is_reserved":false,"is_disabled":false,"rental_uris":{"android":"levelo://app?vid=5088d695-0e9f-4773-b57e-f02f32e7ed76","ios":"levelo://app?vid=5088d695-0e9f-4773-b57e-f02f32e7ed76"},"vehicle_type_id":"4","last_reported":1732119137,"current_range_meters":12400,"station_id":"ce4bhr92rcd13ifvqhrg","pricing_plan_id":"cebpf4jnsgd1na2vs0mg"},{"bike_id":"7552fdf6-68b4-42db-aad1-86f289198bda","system_id":"levelo_inurba_marseille","lat":43.26556,"lon":5.3729,"is_reserved":false,"is_disabled":false,"rental_uris":{"android":"levelo://app?vid=7552fdf6-68b4-42db-aad1-86f289198bda","ios":"levelo://app?vid=7552fdf6-68b4-42db-aad1-86f289198bda"},"vehicle_type_id":"4","last_reported":1732119137,"current_range_meters":35600,"station_id":"ce4bhg12rcd13ifvqf70","pricing_plan_id":"cebpf4jnsgd1na2vs0mg"},{"bike_id":"9c2f2764-6c98-4600-8b7b-4a479e36ad6f","system_id":"levelo_inurba_marseille","lat":43.28665,"lon":5.3635,"is_reserved":false,"is_disabled":false,"rental_uris":{"android":"levelo://app?vid=9c2f2764-6c98-4600-8b7b-4a479e36ad6f","ios":"levelo://app?vid=9c2f2764-6c98-4600-8b7b-4a479e36ad6f"},"vehicle_type_id":"4","last_reported":1732119137,"current_range_meters":38800,"station_id":"ce4bhah2rcd13ifvqej0","pricing_plan_id":"cebpf4jnsgd1na2vs0mg"},{"bike_id":"2fdc2020-285e-4a6a-a71d-c29abfc6593b","system_id":"levelo_inurba_marseille","lat":43.29576,"lon":5.375,"is_reserved":false,"is_disabled":true,"rental_uris":{"android":"levelo://app?vid=2fdc2020-285e-4a6a-a71d-c29abfc6593b","ios":"levelo://app?vid=2fdc2020-285e-4a6a-a71d-c29abfc6593b"},"vehicle_type_id":"4","last_reported":1732119137,"current_range_meters":10000,"station_id":"ce4bgh92rcd13ifvqb50","pricing_plan_id":"cebpf4jnsgd1na2vs0mg"},{"bike_id":"da118503-6ab7-4c94-98bc-2b63accd50d2","system_id":"levelo_inurba_marseille","lat":43.31083,"lon":5.42433,"is_reserved":false,"is_disabled":false,"rental_uris":{"android":"levelo://app?vid=da118503-6ab7-4c94-98bc-2b63accd50d2","ios":"levelo://app?vid=da118503-6ab7-4c94-98bc-2b63accd50d2"},"vehicle_type_id":"4","last_reported":1732119137,"current_range_meters":39200,"station_id":"ce4bhp92rcd13ifvqhag","pricing_plan_id":"cebpf4jnsgd1na2vs0mg"},{"bike_id":"f55181d4-2053-40e2-9cda-06227a4b9bdf","system_id":"levelo_inurba_marseille","lat":43.32483,"lon":5.36564,"is_reserved":false,"is_disabled":false,"rental_uris":{"android":"levelo://app?vid=f55181d4-2053-40e2-9cda-06227a4b9bdf","ios":"levelo://app?vid=f55181d4-2053-40e2-9cda-06227a4b9bdf"},"vehicle_type_id":"4","last_reported":1732119137,"current_range_meters":38000,"station_id":"ce4bhs12rcd13ifvqhvg","pricing_plan_id":"cebpf4jnsgd1na2vs0mg"},{"bike_id":"036145f2-25f3-431d-8452-bf74254a5141","system_id":"levelo_inurba_marseille","lat":43.31756,"lon":5.39012,"is_reserved":false,"is_disabled":false,"rental_uris":{"android":"levelo://app?vid=036145f2-25f3-431d-8452-bf74254a5141","ios":"levelo://app?vid=036145f2-25f3-431d-8452-bf74254a5141"},"vehicle_type_id":"4","last_reported":1732119137,"current_range_meters":39200,"station_id":"ce4bhqp2rcd13ifvqhng","pricing_plan_id":"cebpf4jnsgd1na2vs0mg"},{"bike_id":"e281d2c8-ad6b-422f-929d-65f1a75a6032","system_id":"levelo_inurba_marseille","lat":43.26807,"lon":5.40272,"is_reserved":false,"is_disabled":false,"rental_uris":{"android":"levelo://app?vid=e281d2c8-ad6b-422f-929d-65f1a75a6032","ios":"levelo://app?vid=e281d2c8-ad6b-422f-929d-65f1a75a6032"},"vehicle_type_id":"4","last_reported":1732119137,"current_range_meters":17600,"station_id":"ce501612rcd8frsf0b60","pricing_plan_id":"cebpf4jnsgd1na2vs0mg"},{"bike_id":"a899e6bf-3bb7-4cf3-b160-88a650208135","system_id":"levelo_inurba_marseille","lat":43.31176,"lon":5.38734,"is_reserved":false,"is_disabled":false,"rental_uris":{"android":"levelo://app?vid=a899e6bf-3bb7-4cf3-b160-88a650208135","ios":"levelo://app?vid=a899e6bf-3bb7-4cf3-b160-88a650208135"},"vehicle_type_id":"4","last_reported":1732119137,"current_range_meters":8400,"station_id":"ce4bgv12rcd13ifvqcp0","pricing_plan_id":"cebpf4jnsgd1na2vs0mg"},{"bike_id":"b089cbb0-6403-422f-9806-d703fcbfcea4","system_id":"levelo_inurba_marseille","lat":43.28848,"lon":5.35865,"is_reserved":false,"is_disabled":false,"rental_uris":{"android":"levelo://app?vid=b089cbb0-6403-422f-9806-d703fcbfcea4","ios":"levelo://app?vid=b089cbb0-6403-422f-9806-d703fcbfcea4"},"vehicle_type_id":"4","last_reported":1732119137,"current_range_meters":36000,"station_id":"ce4bhb12rcd13ifvqem0","pricing_plan_id":"cebpf4jnsgd1na2vs0mg"},{"bike_id":"9cc89b56-70aa-4098-803d-33efb154ffb0","system_id":"levelo_inurba_marseille","lat":43.29628,"lon":5.37715,"is_reserved":false,"is_disabled":false,"rental_uris":{"android":"levelo://app?vid=9cc89b56-70aa-4098-803d-33efb154ffb0","ios":"levelo://app?vid=9cc89b56-70aa-4098-803d-33efb154ffb0"},"vehicle_type_id":"4","last_reported":1732119137,"current_range_meters":35600,"station_id":"ce4bgi92rcd13ifvqb90","pricing_plan_id":"cebpf4jnsgd1na2vs0mg"},{"bike_id":"7add793b-66b2-4a0c-bb54-c4153360e6f1","system_id":"levelo_inurba_marseille","lat":43.287,"lon":5.39984,"is_reserved":false,"is_disabled":false,"rental_uris":{"android":"levelo://app?vid=7add793b-66b2-4a0c-bb54-c4153360e6f1","ios":"levelo://app?vid=7add793b-66b2-4a0c-bb54-c4153360e6f1"},"vehicle_type_id":"4","last_reported":1732119137,"current_range_meters":6400,"station_id":"ce4bho92rcd13ifvqh3g","pricing_plan_id":"cebpf4jnsgd1na2vs0mg"},{"bike_id":"1f6184e6-16e9-423d-b3e0-a3aa386ef26b","system_id":"levelo_inurba_marseille","lat":43.33023,"lon":5.39036,"is_reserved":false,"is_disabled":false,"rental_uris":{"android":"levelo://app?vid=1f6184e6-16e9-423d-b3e0-a3aa386ef26b","ios":"levelo://app?vid=1f6184e6-16e9-423d-b3e0-a3aa386ef26b"},"vehicle_type_id":"4","last_reported":1732119137,"current_range_meters":36000,"station_id":"ce4bhr92rcd13ifvqhrg","pricing_plan_id":"cebpf4jnsgd1na2vs0mg"},{"bike_id":"3cd84749-4c1a-4b50-aa18-9d8d08a2f930","system_id":"levelo_inurba_marseille","lat":43.27374,"lon":5.36259,"is_reserved":false,"is_disabled":true,"rental_uris":{"android":"levelo://app?vid=3cd84749-4c1a-4b50-aa18-9d8d08a2f930","ios":"levelo://app?vid=3cd84749-4c1a-4b50-aa18-9d8d08a2f930"},"vehicle_type_id":"4","last_reported":1732119137,"current_range_meters":0,"station_id":"ce4bhbh2rcd13ifvqeo0","pricing_plan_id":"cebpf4jnsgd1na2vs0mg"},{"bike_id":"cde5eb04-35f5-4971-aec4-8004f9b2dcd9","system_id":"levelo_inurba_marseille","lat":43.28273,"lon":5.35066,"is_reserved":false,"is_disabled":true,"rental_uris":{"android":"levelo://app?vid=cde5eb04-35f5-4971-aec4-8004f9b2dcd9","ios":"levelo://app?vid=cde5eb04-35f5-4971-aec4-8004f9b2dcd9"},"vehicle_type_id":"4","last_reported":1732119137,"current_range_meters":0,"station_id":"ce4bhbp2rcd13ifvqerg","pricing_plan_id":"cebpf4jnsgd1na2vs0mg"},{"bike_id":"5092bab3-f2ae-4ccd-a32d-63567ce593e8","system_id":"levelo_inurba_marseille","lat":43.297018,"lon":5.376857,"is_reserved":false,"is_disabled":false,"rental_uris":{"android":"levelo://app?vid=5092bab3-f2ae-4ccd-a32d-63567ce593e8","ios":"levelo://app?vid=5092bab3-f2ae-4ccd-a32d-63567ce593e8"},"vehicle_type_id":"4","last_reported":1732119137,"current_range_meters":9200,"station_id":"ce4bgkh2rcd13ifvqbl0","pricing_plan_id":"cebpf4jnsgd1na2vs0mg"},{"bike_id":"21dcbabf-06c6-4e79-940e-7aa67178409a","system_id":"levelo_inurba_marseille","lat":43.29652,"lon":5.37766,"is_reserved":false,"is_disabled":false,"rental_uris":{"android":"levelo://app?vid=21dcbabf-06c6-4e79-940e-7aa67178409a","ios":"levelo://app?vid=21dcbabf-06c6-4e79-940e-7aa67178409a"},"vehicle_type_id":"4","last_reported":1732119137,"current_range_meters":33200,"station_id":"ce4bgkh2rcd13ifvqbl0","pricing_plan_id":"cebpf4jnsgd1na2vs0mg"},{"bike_id":"487f597b-9b83-43a9-ae80-527e118331c1","system_id":"levelo_inurba_marseille","lat":43.29791,"lon":5.38091,"is_reserved":false,"is_disabled":false,"rental_uris":{"android":"levelo://app?vid=487f597b-9b83-43a9-ae80-527e118331c1","ios":"levelo://app?vid=487f597b-9b83-43a9-ae80-527e118331c1"},"vehicle_type_id":"4","last_reported":1732119137,"current_range_meters":29600,"station_id":"ce4bgip2rcd13ifvqbb0","pricing_plan_id":"cebpf4jnsgd1na2vs0mg"},{"bike_id":"e4a63538-6805-482c-9a07-d98638b69e78","system_id":"levelo_inurba_marseille","lat":43.30643,"lon":5.40106,"is_reserved":false,"is_disabled":false,"rental_uris":{"android":"levelo://app?vid=e4a63538-6805-482c-9a07-d98638b69e78","ios":"levelo://app?vid=e4a63538-6805-482c-9a07-d98638b69e78"},"vehicle_type_id":"4","last_reported":1732119137,"current_range_meters":16400,"station_id":"ce4bh112rcd13ifvqda0","pricing_plan_id":"cebpf4jnsgd1na2vs0mg"},{"bike_id":"bd0f3ed6-4cba-4f56-9205-c76f2a9cc9c8","system_id":"levelo_inurba_marseille","lat":43.30182,"lon":5.36605,"is_reserved":false,"is_disabled":false,"rental_uris":{"android":"levelo://app?vid=bd0f3ed6-4cba-4f56-9205-c76f2a9cc9c8","ios":"levelo://app?vid=bd0f3ed6-4cba-4f56-9205-c76f2a9cc9c8"},"vehicle_type_id":"4","last_reported":1732119137,"current_range_meters":38800,"station_id":"ce4bgrh2rcd13ifvqc8g","pricing_plan_id":"cebpf4jnsgd1na2vs0mg"},{"bike_id":"bbf8487a-d295-4dc7-9627-c9fc18da9faa","system_id":"levelo_inurba_marseille","lat":43.32338,"lon":5.40624,"is_reserved":false,"is_disabled":false,"rental_uris":{"android":"levelo://app?vid=bbf8487a-d295-4dc7-9627-c9fc18da9faa","ios":"levelo://app?vid=bbf8487a-d295-4dc7-9627-c9fc18da9faa"},"vehicle_type_id":"4","last_reported":1732119137,"current_range_meters":26000,"station_id":"ce4bhq92rcd13ifvqhjg","pricing_plan_id":"cebpf4jnsgd1na2vs0mg"},{"bike_id":"89429ed2-f839-4749-bcb9-3e5230fe3bfb","system_id":"levelo_inurba_marseille","lat":43.33729,"lon":5.39184,"is_reserved":false,"is_disabled":false,"rental_uris":{"android":"levelo://app?vid=89429ed2-f839-4749-bcb9-3e5230fe3bfb","ios":"levelo://app?vid=89429ed2-f839-4749-bcb9-3e5230fe3bfb"},"vehicle_type_id":"4","last_reported":1732119137,"current_range_meters":33600,"station_id":"ce4bhr92rcd13ifvqhsg","pricing_plan_id":"cebpf4jnsgd1na2vs0mg"},{"bike_id":"4d7daa92-098a-4d38-b26f-4629da77392e","system_id":"levelo_inurba_marseille","lat":43.30874,"lon":5.39646,"is_reserved":false,"is_disabled":false,"rental_uris":{"android":"levelo://app?vid=4d7daa92-098a-4d38-b26f-4629da77392e","ios":"levelo://app?vid=4d7daa92-098a-4d38-b26f-4629da77392e"},"vehicle_type_id":"4","last_reported":1732119137,"current_range_meters":38800,"station_id":"ce4bh012rcd13ifvqcv0","pricing_plan_id":"cebpf4jnsgd1na2vs0mg"},{"bike_id":"09069445-3630-4783-a223-c9fd063d7c96","system_id":"levelo_inurba_marseille","lat":43.337444,"lon":5.374475,"is_reserved":false,"is_disabled":false,"rental_uris":{"android":"levelo://app?vid=09069445-3630-4783-a223-c9fd063d7c96","ios":"levelo://app?vid=09069445-3630-4783-a223-c9fd063d7c96"},"vehicle_type_id":"4","last_reported":1732119137,"current_range_meters":38000,"station_id":"","pricing_plan_id":"cebpf4jnsgd1na2vs0mg"},{"bike_id":"219b35e0-27a5-43a6-99fe-52bbe8904813","system_id":"levelo_inurba_marseille","lat":43.28365,"lon":5.44383,"is_reserved":false,"is_disabled":false,"rental_uris":{"android":"levelo://app?vid=219b35e0-27a5-43a6-99fe-52bbe8904813","ios":"levelo://app?vid=219b35e0-27a5-43a6-99fe-52bbe8904813"},"vehicle_type_id":"4","last_reported":1732119137,"current_range_meters":18000,"station_id":"","pricing_plan_id":"cebpf4jnsgd1na2vs0mg"},{"bike_id":"72ce4a24-46e4-42d0-964a-a23eb42db071","system_id":"levelo_inurba_marseille","lat":43.29163,"lon":5.37175,"is_reserved":false,"is_disabled":false,"rental_uris":{"android":"levelo://app?vid=72ce4a24-46e4-42d0-964a-a23eb42db071","ios":"levelo://app?vid=72ce4a24-46e4-42d0-964a-a23eb42db071"},"vehicle_type_id":"4","last_reported":1732119137,"current_range_meters":33600,"station_id":"ce4bha92rcd13ifvqeh0","pricing_plan_id":"cebpf4jnsgd1na2vs0mg"},{"bike_id":"a288582f-e609-4b1f-9e1f-4b407176785e","system_id":"levelo_inurba_marseille","lat":43.29912,"lon":5.37457,"is_reserved":false,"is_disabled":true,"rental_uris":{"android":"levelo://app?vid=a288582f-e609-4b1f-9e1f-4b407176785e","ios":"levelo://app?vid=a288582f-e609-4b1f-9e1f-4b407176785e"},"vehicle_type_id":"4","last_reported":1732119137,"current_range_meters":0,"station_id":"ce4bgjh2rcd13ifvqbg0","pricing_plan_id":"cebpf4jnsgd1na2vs0mg"},{"bike_id":"361a9df8-c4e0-42d9-907c-97e655999d3d","system_id":"levelo_inurba_marseille","lat":43.27208,"lon":5.39185,"is_reserved":false,"is_disabled":false,"rental_uris":{"android":"levelo://app?vid=361a9df8-c4e0-42d9-907c-97e655999d3d","ios":"levelo://app?vid=361a9df8-c4e0-42d9-907c-97e655999d3d"},"vehicle_type_id":"4","last_reported":1732119137,"current_range_meters":35200,"station_id":"ce4bhhp2rcd13ifvqfm0","pricing_plan_id":"cebpf4jnsgd1na2vs0mg"},{"bike_id":"79d8c574-9062-423c-8a03-76b3dbc58333","system_id":"levelo_inurba_marseille","lat":43.27841,"lon":5.39194,"is_reserved":false,"is_disabled":true,"rental_uris":{"android":"levelo://app?vid=79d8c574-9062-423c-8a03-76b3dbc58333","ios":"levelo://app?vid=79d8c574-9062-423c-8a03-76b3dbc58333"},"vehicle_type_id":"4","last_reported":1732119137,"current_range_meters":0,"station_id":"ce4bhjp2rcd13ifvqga0","pricing_plan_id":"cebpf4jnsgd1na2vs0mg"},{"bike_id":"7770b1cc-2a54-4d08-8255-6bed2fc397aa","system_id":"levelo_inurba_marseille","lat":43.23195,"lon":5.35549,"is_reserved":false,"is_disabled":false,"rental_uris":{"android":"levelo://app?vid=7770b1cc-2a54-4d08-8255-6bed2fc397aa","ios":"levelo://app?vid=7770b1cc-2a54-4d08-8255-6bed2fc397aa"},"vehicle_type_id":"4","last_reported":1732119137,"current_range_meters":24800,"station_id":"ce4bhu92rcd13ifvqi70","pricing_plan_id":"cebpf4jnsgd1na2vs0mg"},{"bike_id":"fc504aea-f1cd-48bb-b217-c4c16907c44f","system_id":"levelo_inurba_marseille","lat":43.28351,"lon":5.38114,"is_reserved":false,"is_disabled":false,"rental_uris":{"android":"levelo://app?vid=fc504aea-f1cd-48bb-b217-c4c16907c44f","ios":"levelo://app?vid=fc504aea-f1cd-48bb-b217-c4c16907c44f"},"vehicle_type_id":"4","last_reported":1732119137,"current_range_meters":39200,"station_id":"ce4bh412rcd13ifvqdr0","pricing_plan_id":"cebpf4jnsgd1na2vs0mg"},{"bike_id":"15d77772-a703-448f-ae19-f04e445b29e0","system_id":"levelo_inurba_marseille","lat":43.31331,"lon":5.39694,"is_reserved":false,"is_disabled":false,"rental_uris":{"android":"levelo://app?vid=15d77772-a703-448f-ae19-f04e445b29e0","ios":"levelo://app?vid=15d77772-a703-448f-ae19-f04e445b29e0"},"vehicle_type_id":"4","last_reported":1732119137,"current_range_meters":6800,"station_id":"ce4bgvp2rcd13ifvqcu0","pricing_plan_id":"cebpf4jnsgd1na2vs0mg"},{"bike_id":"c8b54cb3-2f45-4f76-a363-a020e94fcb62","system_id":"levelo_inurba_marseille","lat":43.30147,"lon":5.38076,"is_reserved":false,"is_disabled":false,"rental_uris":{"android":"levelo://app?vid=c8b54cb3-2f45-4f76-a363-a020e94fcb62","ios":"levelo://app?vid=c8b54cb3-2f45-4f76-a363-a020e94fcb62"},"vehicle_type_id":"4","last_reported":1732119137,"current_range_meters":32800,"station_id":"ce4bgjp2rcd13ifvqbh0","pricing_plan_id":"cebpf4jnsgd1na2vs0mg"},{"bike_id":"75afbc83-41fa-4972-a251-8f7abf3d0a52","system_id":"levelo_inurba_marseille","lat":43.29262,"lon":5.38447,"is_reserved":false,"is_disabled":false,"rental_uris":{"android":"levelo://app?vid=75afbc83-41fa-4972-a251-8f7abf3d0a52","ios":"levelo://app?vid=75afbc83-41fa-4972-a251-8f7abf3d0a52"},"vehicle_type_id":"4","last_reported":1732119137,"current_range_meters":35600,"station_id":"ce4bh692rcd13ifvqea0","pricing_plan_id":"cebpf4jnsgd1na2vs0mg"},{"bike_id":"3d25d818-80cf-415a-996a-afc2d01ce97b","system_id":"levelo_inurba_marseille","lat":43.277899,"lon":5.407309,"is_reserved":false,"is_disabled":false,"rental_uris":{"android":"levelo://app?vid=3d25d818-80cf-415a-996a-afc2d01ce97b","ios":"levelo://app?vid=3d25d818-80cf-415a-996a-afc2d01ce97b"},"vehicle_type_id":"4","last_reported":1732119137,"current_range_meters":8800,"station_id":"ce4bhnh2rcd13ifvqgtg","pricing_plan_id":"cebpf4jnsgd1na2vs0mg"},{"bike_id":"b6d776cc-3e25-4627-a9fa-efab44367f17","system_id":"levelo_inurba_marseille","lat":43.29763,"lon":5.39343,"is_reserved":false,"is_disabled":false,"rental_uris":{"android":"levelo://app?vid=b6d776cc-3e25-4627-a9fa-efab44367f17","ios":"levelo://app?vid=b6d776cc-3e25-4627-a9fa-efab44367f17"},"vehicle_type_id":"4","last_reported":1732119137,"current_range_meters":35600,"station_id":"chh1huq6cuj3fo74tm60","pricing_plan_id":"cebpf4jnsgd1na2vs0mg"},{"bike_id":"9bf40a2b-a736-45cb-a5ce-15e26c8591c0","system_id":"levelo_inurba_marseille","lat":43.29983,"lon":5.37178,"is_reserved":false,"is_disabled":false,"rental_uris":{"android":"levelo://app?vid=9bf40a2b-a736-45cb-a5ce-15e26c8591c0","ios":"levelo://app?vid=9bf40a2b-a736-45cb-a5ce-15e26c8591c0"},"vehicle_type_id":"4","last_reported":1732119137,"current_range_meters":37600,"station_id":"ce4bgr92rcd13ifvqc7g","pricing_plan_id":"cebpf4jnsgd1na2vs0mg"},{"bike_id":"fd2c12d2-7b4e-40dc-b7d5-8c8341f680d3","system_id":"levelo_inurba_marseille","lat":43.31122,"lon":5.37756,"is_reserved":false,"is_disabled":false,"rental_uris":{"android":"levelo://app?vid=fd2c12d2-7b4e-40dc-b7d5-8c8341f680d3","ios":"levelo://app?vid=fd2c12d2-7b4e-40dc-b7d5-8c8341f680d3"},"vehicle_type_id":"4","last_reported":1732119137,"current_range_meters":30000,"station_id":"ce4bgt92rcd13ifvqcg0","pricing_plan_id":"cebpf4jnsgd1na2vs0mg"},{"bike_id":"dee63561-c665-4d9b-b2f4-b46280b2b203","system_id":"levelo_inurba_marseille","lat":43.30599,"lon":5.37232,"is_reserved":false,"is_disabled":false,"rental_uris":{"android":"levelo://app?vid=dee63561-c665-4d9b-b2f4-b46280b2b203","ios":"levelo://app?vid=dee63561-c665-4d9b-b2f4-b46280b2b203"},"vehicle_type_id":"4","last_reported":1732119137,"current_range_meters":38800,"station_id":"ce4bgqh2rcd13ifvqc4g","pricing_plan_id":"cebpf4jnsgd1na2vs0mg"},{"bike_id":"acf689cf-3d62-4de4-aa95-e1f87eebd8fa","system_id":"levelo_inurba_marseille","lat":43.3149,"lon":5.37307,"is_reserved":false,"is_disabled":false,"rental_uris":{"android":"levelo://app?vid=acf689cf-3d62-4de4-aa95-e1f87eebd8fa","ios":"levelo://app?vid=acf689cf-3d62-4de4-aa95-e1f87eebd8fa"},"vehicle_type_id":"4","last_reported":1732119137,"current_range_meters":37600,"station_id":"ce4bgt12rcd13ifvqcd0","pricing_plan_id":"cebpf4jnsgd1na2vs0mg"},{"bike_id":"a6c0fd77-e059-43db-9cf6-72c87ccf6cde","system_id":"levelo_inurba_marseille","lat":43.32102,"lon":5.36777,"is_reserved":false,"is_disabled":false,"rental_uris":{"android":"levelo://app?vid=a6c0fd77-e059-43db-9cf6-72c87ccf6cde","ios":"levelo://app?vid=a6c0fd77-e059-43db-9cf6-72c87ccf6cde"},"vehicle_type_id":"4","last_reported":1732119137,"current_range_meters":37600,"station_id":"ce4bhrh2rcd13ifvqhug","pricing_plan_id":"cebpf4jnsgd1na2vs0mg"},{"bike_id":"0bada87d-2f66-42dc-a366-0335af27e411","system_id":"levelo_inurba_marseille","lat":43.29032,"lon":5.3814,"is_reserved":false,"is_disabled":false,"rental_uris":{"android":"levelo://app?vid=0bada87d-2f66-42dc-a366-0335af27e411","ios":"levelo://app?vid=0bada87d-2f66-42dc-a366-0335af27e411"},"vehicle_type_id":"4","last_reported":1732119137,"current_range_meters":17200,"station_id":"ce4bh4p2rcd13ifvqe1g","pricing_plan_id":"cebpf4jnsgd1na2vs0mg"},{"bike_id":"e1fe8ea8-cf64-4806-9e3b-fc76ff474308","system_id":"levelo_inurba_marseille","lat":43.3117,"lon":5.38718,"is_reserved":false,"is_disabled":false,"rental_uris":{"android":"levelo://app?vid=e1fe8ea8-cf64-4806-9e3b-fc76ff474308","ios":"levelo://app?vid=e1fe8ea8-cf64-4806-9e3b-fc76ff474308"},"vehicle_type_id":"4","last_reported":1732119137,"current_range_meters":37600,"station_id":"ce4bgv12rcd13ifvqcp0","pricing_plan_id":"cebpf4jnsgd1na2vs0mg"},{"bike_id":"3d6a4cb4-3feb-486f-9543-3449050eacd3","system_id":"levelo_inurba_marseille","lat":43.29976,"lon":5.37171,"is_reserved":false,"is_disabled":false,"rental_uris":{"android":"levelo://app?vid=3d6a4cb4-3feb-486f-9543-3449050eacd3","ios":"levelo://app?vid=3d6a4cb4-3feb-486f-9543-3449050eacd3"},"vehicle_type_id":"4","last_reported":1732119137,"current_range_meters":33600,"station_id":"ce4bgr92rcd13ifvqc7g","pricing_plan_id":"cebpf4jnsgd1na2vs0mg"},{"bike_id":"c5ca16b6-e8d8-4a0e-9669-c876050d43a8","system_id":"levelo_inurba_marseille","lat":43.29441,"lon":5.39758,"is_reserved":false,"is_disabled":false,"rental_uris":{"android":"levelo://app?vid=c5ca16b6-e8d8-4a0e-9669-c876050d43a8","ios":"levelo://app?vid=c5ca16b6-e8d8-4a0e-9669-c876050d43a8"},"vehicle_type_id":"4","last_reported":1732119137,"current_range_meters":39200,"station_id":"ce4bh3h2rcd13ifvqdo0","pricing_plan_id":"cebpf4jnsgd1na2vs0mg"},{"bike_id":"93e46142-5dc2-48ce-826c-5d358b2a1cce","system_id":"levelo_inurba_marseille","lat":43.32049,"lon":5.41549,"is_reserved":false,"is_disabled":true,"rental_uris":{"android":"levelo://app?vid=93e46142-5dc2-48ce-826c-5d358b2a1cce","ios":"levelo://app?vid=93e46142-5dc2-48ce-826c-5d358b2a1cce"},"vehicle_type_id":"4","last_reported":1732119137,"current_range_meters":2000,"station_id":"ce4bhq92rcd13ifvqhkg","pricing_plan_id":"cebpf4jnsgd1na2vs0mg"},{"bike_id":"9ab93d02-017a-434b-a103-02ff97998704","system_id":"levelo_inurba_marseille","lat":43.30131,"lon":5.39852,"is_reserved":false,"is_disabled":false,"rental_uris":{"android":"levelo://app?vid=9ab93d02-017a-434b-a103-02ff97998704","ios":"levelo://app?vid=9ab93d02-017a-434b-a103-02ff97998704"},"vehicle_type_id":"4","last_reported":1732119137,"current_range_meters":36800,"station_id":"ce4bh0h2rcd13ifvqd40","pricing_plan_id":"cebpf4jnsgd1na2vs0mg"},{"bike_id":"b1f6881e-7318-4a75-90e8-fac75fb95399","system_id":"levelo_inurba_marseille","lat":43.28631,"lon":5.46092,"is_reserved":false,"is_disabled":false,"rental_uris":{"android":"levelo://app?vid=b1f6881e-7318-4a75-90e8-fac75fb95399","ios":"levelo://app?vid=b1f6881e-7318-4a75-90e8-fac75fb95399"},"vehicle_type_id":"4","last_reported":1732119137,"current_range_meters":17200,"station_id":"","pricing_plan_id":"cebpf4jnsgd1na2vs0mg"},{"bike_id":"a6347c79-e809-41bd-9e5b-830c71bc8ab0","system_id":"levelo_inurba_marseille","lat":43.29541,"lon":5.38545,"is_reserved":false,"is_disabled":false,"rental_uris":{"android":"levelo://app?vid=a6347c79-e809-41bd-9e5b-830c71bc8ab0","ios":"levelo://app?vid=a6347c79-e809-41bd-9e5b-830c71bc8ab0"},"vehicle_type_id":"4","last_reported":1732119137,"current_range_meters":24400,"station_id":"ce4bgih2rcd13ifvqba0","pricing_plan_id":"cebpf4jnsgd1na2vs0mg"},{"bike_id":"18b8f091-c34a-472c-8dc3-5f3caf056c58","system_id":"levelo_inurba_marseille","lat":43.337444,"lon":5.374475,"is_reserved":false,"is_disabled":true,"rental_uris":{"android":"levelo://app?vid=18b8f091-c34a-472c-8dc3-5f3caf056c58","ios":"levelo://app?vid=18b8f091-c34a-472c-8dc3-5f3caf056c58"},"vehicle_type_id":"4","last_reported":1732119137,"current_range_meters":34000,"station_id":"","pricing_plan_id":"cebpf4jnsgd1na2vs0mg"},{"bike_id":"9044f75c-15b5-4f34-bbd2-226c9f41adac","system_id":"levelo_inurba_marseille","lat":43.2761,"lon":5.36119,"is_reserved":false,"is_disabled":true,"rental_uris":{"android":"levelo://app?vid=9044f75c-15b5-4f34-bbd2-226c9f41adac","ios":"levelo://app?vid=9044f75c-15b5-4f34-bbd2-226c9f41adac"},"vehicle_type_id":"4","last_reported":1732119137,"current_range_meters":28000,"station_id":"ce4bgj92rcd13ifvqbe0","pricing_plan_id":"cebpf4jnsgd1na2vs0mg"},{"bike_id":"f65c2316-eafa-4b2c-8ce7-688548fbfd09","system_id":"levelo_inurba_marseille","lat":43.32339,"lon":5.4062,"is_reserved":false,"is_disabled":false,"rental_uris":{"android":"levelo://app?vid=f65c2316-eafa-4b2c-8ce7-688548fbfd09","ios":"levelo://app?vid=f65c2316-eafa-4b2c-8ce7-688548fbfd09"},"vehicle_type_id":"4","last_reported":1732119137,"current_range_meters":39200,"station_id":"ce4bhq92rcd13ifvqhjg","pricing_plan_id":"cebpf4jnsgd1na2vs0mg"},{"bike_id":"79be115b-f002-4e8d-a5c2-2dbea30c21e6","system_id":"levelo_inurba_marseille","lat":43.25114,"lon":5.40323,"is_reserved":false,"is_disabled":false,"rental_uris":{"android":"levelo://app?vid=79be115b-f002-4e8d-a5c2-2dbea30c21e6","ios":"levelo://app?vid=79be115b-f002-4e8d-a5c2-2dbea30c21e6"},"vehicle_type_id":"4","last_reported":1732119137,"current_range_meters":25600,"station_id":"ce4bhlh2rcd13ifvqgig","pricing_plan_id":"cebpf4jnsgd1na2vs0mg"},{"bike_id":"ccf5e94a-251f-4f68-a88b-51e5313a6d6e","system_id":"levelo_inurba_marseille","lat":43.32363,"lon":5.38891,"is_reserved":false,"is_disabled":false,"rental_uris":{"android":"levelo://app?vid=ccf5e94a-251f-4f68-a88b-51e5313a6d6e","ios":"levelo://app?vid=ccf5e94a-251f-4f68-a88b-51e5313a6d6e"},"vehicle_type_id":"4","last_reported":1732119137,"current_range_meters":38800,"station_id":"ce4bhqp2rcd13ifvqhog","pricing_plan_id":"cebpf4jnsgd1na2vs0mg"},{"bike_id":"8d6bbae0-44e7-4cd8-97ab-da6fd7975579","system_id":"levelo_inurba_marseille","lat":43.3123,"lon":5.36872,"is_reserved":false,"is_disabled":false,"rental_uris":{"android":"levelo://app?vid=8d6bbae0-44e7-4cd8-97ab-da6fd7975579","ios":"levelo://app?vid=8d6bbae0-44e7-4cd8-97ab-da6fd7975579"},"vehicle_type_id":"4","last_reported":1732119137,"current_range_meters":28000,"station_id":"ce4bgl92rcd13ifvqbq0","pricing_plan_id":"cebpf4jnsgd1na2vs0mg"},{"bike_id":"ba98b08c-f206-4cda-a7bc-9934906fc530","system_id":"levelo_inurba_marseille","lat":43.27996,"lon":5.40015,"is_reserved":false,"is_disabled":false,"rental_uris":{"android":"levelo://app?vid=ba98b08c-f206-4cda-a7bc-9934906fc530","ios":"levelo://app?vid=ba98b08c-f206-4cda-a7bc-9934906fc530"},"vehicle_type_id":"4","last_reported":1732119137,"current_range_meters":28000,"station_id":"ce4bho92rcd13ifvqh4g","pricing_plan_id":"cebpf4jnsgd1na2vs0mg"},{"bike_id":"50f65782-312d-4ef5-afc1-123b69a23cad","system_id":"levelo_inurba_marseille","lat":43.28034,"lon":5.36942,"is_reserved":false,"is_disabled":true,"rental_uris":{"android":"levelo://app?vid=50f65782-312d-4ef5-afc1-123b69a23cad","ios":"levelo://app?vid=50f65782-312d-4ef5-afc1-123b69a23cad"},"vehicle_type_id":"4","last_reported":1732119137,"current_range_meters":0,"station_id":"ce4bha12rcd13ifvqef0","pricing_plan_id":"cebpf4jnsgd1na2vs0mg"},{"bike_id":"7ef4e782-9b03-4e44-a63d-c57509055e74","system_id":"levelo_inurba_marseille","lat":43.2799,"lon":5.40019,"is_reserved":false,"is_disabled":false,"rental_uris":{"android":"levelo://app?vid=7ef4e782-9b03-4e44-a63d-c57509055e74","ios":"levelo://app?vid=7ef4e782-9b03-4e44-a63d-c57509055e74"},