{"last_updated":1702069594,"ttl":30,"version":"2.2","data":{"bikes":[{"bike_id":"6e606b5a-9785-4a32-987f-9271e6bd673b","system_id":"levelo_inurba_marseille","lat":43.312239,"lon":5.368562,"is_reserved":false,"is_disabled":false,"rental_uris":{"android":"levelo://app?vid=6e606b5a-9785-4a32-987f-9271e6bd673b","ios":"levelo://app?vid=6e606b5a-9785-4a32-987f-9271e6bd673b"},"vehicle_type_id":"4","last_reported":1702069595,"current_range_meters":16400,"station_id":"ce4bgl92rcd13ifvqbq0","pricing_plan_id":"free"},{"bike_id":"b7f48dbd-3e52-4a90-bd72-9142c87e0859","system_id":"levelo_inurba_marseille","lat":43.312239,"lon":5.368562,"is_reserved":false,"is_disabled":false,"rental_uris":{"android":"levelo://app?vid=b7f48dbd-3e52-4a90-bd72-9142c87e0859","ios":"levelo://app?vid=b7f48dbd-3e52-4a90-bd72-9142c87e0859"},"vehicle_type_id":"4","last_reported":1702069595,"current_range_meters":18800,"station_id":"ce4bgl92rcd13ifvqbq0","pricing_plan_id":"free"},{"bike_id":"2bd28858-a6f5-401d-9fe8-6c5471cd6abd","system_id":"levelo_inurba_marseille","lat":43.309039,"lon":5.371797,"is_reserved":false,"is_disabled":false,"rental_uris":{"android":"levelo://app?vid=2bd28858-a6f5-401d-9fe8-6c5471cd6abd","ios":"levelo://app?vid=2bd28858-a6f5-401d-9fe8-6c5471cd6abd"},"vehicle_type_id":"4","last_reported":1702069595,"current_range_meters":25600,"station_id":"ce4bguh2rcd13ifvqckg","pricing_plan_id":"free"},{"bike_id":"49bb836a-14ec-4798-b84c-f0442c3ca19c","system_id":"levelo_inurba_marseille","lat":43.30983,"lon":5.37473,"is_reserved":false,"is_disabled":false,"rental_uris":{"android":"levelo://app?vid=49bb836a-14ec-4798-b84c-f0442c3ca19c","ios":"levelo://app?vid=49bb836a-14ec-4798-b84c-f0442c3ca19c"},"vehicle_type_id":"4","last_reported":1702069595,"current_range_meters":20000,"station_id":"","pricing_plan_id":"free"},{"bike_id":"6d20ba2b-7294-44d3-9180-108b026eb053","system_id":"levelo_inurba_marseille","lat":43.305706,"lon":5.365654,"is_reserved":false,"is_disabled":false,"rental_uris":{"android":"levelo://app?vid=6d20ba2b-7294-44d3-9180-108b026eb053","ios":"levelo://app?vid=6d20ba2b-7294-44d3-9180-108b026eb053"},"vehicle_type_id":"4","last_reported":1702069595,"current_range_meters":5600,"station_id":"ce4bgs12rcd13ifvqcag","pricing_plan_id":"free"},{"bike_id":"7b3173fd-532e-4fa7-8b3a-868ad37da620","system_id":"levelo_inurba_marseille","lat":43.311177,"lon":5.377587,"is_reserved":false,"is_disabled":false,"rental_uris":{"android":"levelo://app?vid=7b3173fd-532e-4fa7-8b3a-868ad37da620","ios":"levelo://app?vid=7b3173fd-532e-4fa7-8b3a-868ad37da620"},"vehicle_type_id":"4","last_reported":1702069595,"current_range_meters":0,"station_id":"ce4bgt92rcd13ifvqcg0","pricing_plan_id":"free"},{"bike_id":"1ea60f58-75f7-4484-b705-1156df4b02ad","system_id":"levelo_inurba_marseille","lat":43.30278,"lon":5.37351,"is_reserved":false,"is_disabled":false,"rental_uris":{"android":"levelo://app?vid=1ea60f58-75f7-4484-b705-1156df4b02ad","ios":"levelo://app?vid=1ea60f58-75f7-4484-b705-1156df4b02ad"},"vehicle_type_id":"4","last_reported":1702069595,"current_range_meters":0,"station_id":"","pricing_plan_id":"free"},{"bike_id":"b1464685-442b-4991-8252-b371fcfb171d","system_id":"levelo_inurba_marseille","lat":43.308083,"lon":5.381767,"is_reserved":false,"is_disabled":false,"rental_uris":{"android":"levelo://app?vid=b1464685-442b-4991-8252-b371fcfb171d","ios":"levelo://app?vid=b1464685-442b-4991-8252-b371fcfb171d"},"vehicle_type_id":"4","last_reported":1702069595,"current_range_meters":19200,"station_id":"ce4bgt12rcd13ifvqce0","pricing_plan_id":"free"},{"bike_id":"ff994633-9220-437a-a34a-d37730f116ab","system_id":"levelo_inurba_marseille","lat":43.301429,"lon":5.37413,"is_reserved":false,"is_disabled":false,"rental_uris":{"android":"levelo://app?vid=ff994633-9220-437a-a34a-d37730f116ab","ios":"levelo://app?vid=ff994633-9220-437a-a34a-d37730f116ab"},"vehicle_type_id":"4","last_reported":1702069595,"current_range_meters":13600,"station_id":"ce4bgs92rcd13ifvqcc0","pricing_plan_id":"free"},{"bike_id":"e5f7cffa-3d5c-441e-adcb-f934b33ceb94","system_id":"levelo_inurba_marseille","lat":43.31977,"lon":5.38126,"is_reserved":false,"is_disabled":false,"rental_uris":{"android":"levelo://app?vid=e5f7cffa-3d5c-441e-adcb-f934b33ceb94","ios":"levelo://app?vid=e5f7cffa-3d5c-441e-adcb-f934b33ceb94"},"vehicle_type_id":"4","last_reported":1702069595,"current_range_meters":0,"station_id":"ce4bhr12rcd13ifvqhpg","pricing_plan_id":"free"},{"bike_id":"fdbf67de-3b1c-4de6-a839-06a689d197d7","system_id":"levelo_inurba_marseille","lat":43.313571,"lon":5.384829,"is_reserved":false,"is_disabled":false,"rental_uris":{"android":"levelo://app?vid=fdbf67de-3b1c-4de6-a839-06a689d197d7","ios":"levelo://app?vid=fdbf67de-3b1c-4de6-a839-06a689d197d7"},"vehicle_type_id":"4","last_reported":1702069595,"current_range_meters":16400,"station_id":"ce4bgt92rcd13ifvqcf0","pricing_plan_id":"free"},{"bike_id":"d355fc28-1780-4327-ac1f-d8eeb55dbc11","system_id":"levelo_inurba_marseille","lat":43.29937,"lon":5.36558,"is_reserved":false,"is_disabled":false,"rental_uris":{"android":"levelo://app?vid=d355fc28-1780-4327-ac1f-d8eeb55dbc11","ios":"levelo://app?vid=d355fc28-1780-4327-ac1f-d8eeb55dbc11"},"vehicle_type_id":"4","last_reported":1702069595,"current_range_meters":24000,"station_id":"ce4bgm92rcd13ifvqbr0","pricing_plan_id":"free"},{"bike_id":"38f1223e-a214-4eb0-9b54-a70de861d11b","system_id":"levelo_inurba_marseille","lat":43.32288,"lon":5.38256,"is_reserved":false,"is_disabled":false,"rental_uris":{"android":"levelo://app?vid=38f1223e-a214-4eb0-9b54-a70de861d11b","ios":"levelo://app?vid=38f1223e-a214-4eb0-9b54-a70de861d11b"},"vehicle_type_id":"4","last_reported":1702069595,"current_range_meters":25600,"station_id":"ce4bhr12rcd13ifvqhqg","pricing_plan_id":"free"},{"bike_id":"a80312d7-2035-41c9-b519-92db02a72c60","system_id":"levelo_inurba_marseille","lat":43.322872,"lon":5.382756,"is_reserved":false,"is_disabled":false,"rental_uris":{"android":"levelo://app?vid=a80312d7-2035-41c9-b519-92db02a72c60","ios":"levelo://app?vid=a80312d7-2035-41c9-b519-92db02a72c60"},"vehicle_type_id":"4","last_reported":1702069595,"current_range_meters":26800,"station_id":"ce4bhr12rcd13ifvqhqg","pricing_plan_id":"free"},{"bike_id":"7b04c468-d67d-486d-aa31-b467eddee7c0","system_id":"levelo_inurba_marseille","lat":43.323,"lon":5.3826,"is_reserved":false,"is_disabled":false,"rental_uris":{"android":"levelo://app?vid=7b04c468-d67d-486d-aa31-b467eddee7c0","ios":"levelo://app?vid=7b04c468-d67d-486d-aa31-b467eddee7c0"},"vehicle_type_id":"4","last_reported":1702069595,"current_range_meters":1200,"station_id":"ce4bhr12rcd13ifvqhqg","pricing_plan_id":"free"},{"bike_id":"991448e4-6851-4d1a-aba1-4b6e7cd051db","system_id":"levelo_inurba_marseille","lat":43.32301,"lon":5.38261,"is_reserved":false,"is_disabled":false,"rental_uris":{"android":"levelo://app?vid=991448e4-6851-4d1a-aba1-4b6e7cd051db","ios":"levelo://app?vid=991448e4-6851-4d1a-aba1-4b6e7cd051db"},"vehicle_type_id":"4","last_reported":1702069595,"current_range_meters":21600,"station_id":"ce4bhr12rcd13ifvqhqg","pricing_plan_id":"free"},{"bike_id":"6ac675f1-e0be-498c-ad2f-b742a949d4b0","system_id":"levelo_inurba_marseille","lat":43.298218,"lon":5.374416,"is_reserved":false,"is_disabled":false,"rental_uris":{"android":"levelo://app?vid=6ac675f1-e0be-498c-ad2f-b742a949d4b0","ios":"levelo://app?vid=6ac675f1-e0be-498c-ad2f-b742a949d4b0"},"vehicle_type_id":"4","last_reported":1702069595,"current_range_meters":4800,"station_id":"","pricing_plan_id":"free"},{"bike_id":"90a5106b-97e9-466b-8c22-cd263e3e59cb","system_id":"levelo_inurba_marseille","lat":43.30818,"lon":5.38769,"is_reserved":false,"is_disabled":false,"rental_uris":{"android":"levelo://app?vid=90a5106b-97e9-466b-8c22-cd263e3e59cb","ios":"levelo://app?vid=90a5106b-97e9-466b-8c22-cd263e3e59cb"},"vehicle_type_id":"4","last_reported":1702069595,"current_range_meters":0,"station_id":"","pricing_plan_id":"free"},{"bike_id":"92dc65d6-6823-4de3-93d4-056f738f090c","system_id":"levelo_inurba_marseille","lat":43.316538,"lon":5.38954,"is_reserved":false,"is_disabled":false,"rental_uris":{"android":"levelo://app?vid=92dc65d6-6823-4de3-93d4-056f738f090c","ios":"levelo://app?vid=92dc65d6-6823-4de3-93d4-056f738f090c"},"vehicle_type_id":"4","last_reported":1702069595,"current_range_meters":400,"station_id":"","pricing_plan_id":"free"},{"bike_id":"2ba3d187-866c-4a09-817b-c1c02eaa1f0f","system_id":"levelo_inurba_marseille","lat":43.317557,"lon":5.390173,"is_reserved":false,"is_disabled":false,"rental_uris":{"android":"levelo://app?vid=2ba3d187-866c-4a09-817b-c1c02eaa1f0f","ios":"levelo://app?vid=2ba3d187-866c-4a09-817b-c1c02eaa1f0f"},"vehicle_type_id":"4","last_reported":1702069595,"current_range_meters":25600,"station_id":"ce4bhqp2rcd13ifvqhng","pricing_plan_id":"free"},{"bike_id":"064f56f8-ce51-4163-b6c0-f4dbc28179ab","system_id":"levelo_inurba_marseille","lat":43.304278,"lon":5.388868,"is_reserved":false,"is_disabled":false,"rental_uris":{"android":"levelo://app?vid=064f56f8-ce51-4163-b6c0-f4dbc28179ab","ios":"levelo://app?vid=064f56f8-ce51-4163-b6c0-f4dbc28179ab"},"vehicle_type_id":"4","last_reported":1702069595,"current_range_meters":12800,"station_id":"ce4bgk12rcd13ifvqbi0","pricing_plan_id":"free"},{"bike_id":"99682796-56f1-4a3e-8b36-48fe2305ab6b","system_id":"levelo_inurba_marseille","lat":43.304274,"lon":5.388873,"is_reserved":false,"is_disabled":false,"rental_uris":{"android":"levelo://app?vid=99682796-56f1-4a3e-8b36-48fe2305ab6b","ios":"levelo://app?vid=99682796-56f1-4a3e-8b36-48fe2305ab6b"},"vehicle_type_id":"4","last_reported":1702069595,"current_range_meters":0,"station_id":"ce4bgk12rcd13ifvqbi0","pricing_plan_id":"free"},{"bike_id":"124a7a9b-3c97-42c6-bd68-6864061feb1b","system_id":"levelo_inurba_marseille","lat":43.299707,"lon":5.384859,"is_reserved":false,"is_disabled":false,"rental_uris":{"android":"levelo://app?vid=124a7a9b-3c97-42c6-bd68-6864061feb1b","ios":"levelo://app?vid=124a7a9b-3c97-42c6-bd68-6864061feb1b"},"vehicle_type_id":"4","last_reported":1702069595,"current_range_meters":7200,"station_id":"ce4bgj92rcd13ifvqbd0","pricing_plan_id":"free"},{"bike_id":"6d2e6312-b68f-45bb-92ef-bae3f1e782a1","system_id":"levelo_inurba_marseille","lat":43.299717,"lon":5.384845,"is_reserved":false,"is_disabled":false,"rental_uris":{"android":"levelo://app?vid=6d2e6312-b68f-45bb-92ef-bae3f1e782a1","ios":"levelo://app?vid=6d2e6312-b68f-45bb-92ef-bae3f1e782a1"},"vehicle_type_id":"4","last_reported":1702069595,"current_range_meters":16400,"station_id":"ce4bgj92rcd13ifvqbd0","pricing_plan_id":"free"},{"bike_id":"0c36b66f-c435-491f-9e1c-abd1cf7e6d7b","system_id":"levelo_inurba_marseille","lat":43.294779,"lon":5.375799,"is_reserved":false,"is_disabled":false,"rental_uris":{"android":"levelo://app?vid=0c36b66f-c435-491f-9e1c-abd1cf7e6d7b","ios":"levelo://app?vid=0c36b66f-c435-491f-9e1c-abd1cf7e6d7b"},"vehicle_type_id":"4","last_reported":1702069595,"current_range_meters":26400,"station_id":"","pricing_plan_id":"free"},{"bike_id":"c988b46d-8a29-477d-b448-cae64455c145","system_id":"levelo_inurba_marseille","lat":43.32367,"lon":5.388836,"is_reserved":false,"is_disabled":false,"rental_uris":{"android":"levelo://app?vid=c988b46d-8a29-477d-b448-cae64455c145","ios":"levelo://app?vid=c988b46d-8a29-477d-b448-cae64455c145"},"vehicle_type_id":"4","last_reported":1702069595,"current_range_meters":15600,"station_id":"ce4bhqp2rcd13ifvqhog","pricing_plan_id":"free"},{"bike_id":"5a1f6bc8-e270-4ee1-b3a7-8b734b52a9ea","system_id":"levelo_inurba_marseille","lat":43.323673,"lon":5.388843,"is_reserved":false,"is_disabled":false,"rental_uris":{"android":"levelo://app?vid=5a1f6bc8-e270-4ee1-b3a7-8b734b52a9ea","ios":"levelo://app?vid=5a1f6bc8-e270-4ee1-b3a7-8b734b52a9ea"},"vehicle_type_id":"4","last_reported":1702069595,"current_range_meters":17600,"station_id":"ce4bhqp2rcd13ifvqhog","pricing_plan_id":"free"},{"bike_id":"2cdc0e47-e435-4f4b-b26c-545d5dc4ad4b","system_id":"levelo_inurba_marseille","lat":43.32368,"lon":5.38885,"is_reserved":false,"is_disabled":false,"rental_uris":{"android":"levelo://app?vid=2cdc0e47-e435-4f4b-b26c-545d5dc4ad4b","ios":"levelo://app?vid=2cdc0e47-e435-4f4b-b26c-545d5dc4ad4b"},"vehicle_type_id":"4","last_reported":1702069595,"current_range_meters":20000,"station_id":"ce4bhqp2rcd13ifvqhog","pricing_plan_id":"free"},{"bike_id":"3d6b8206-9bb9-4362-9303-5264b7a90fbf","system_id":"levelo_inurba_marseille","lat":43.29285,"lon":5.36849,"is_reserved":false,"is_disabled":false,"rental_uris":{"android":"levelo://app?vid=3d6b8206-9bb9-4362-9303-5264b7a90fbf","ios":"levelo://app?vid=3d6b8206-9bb9-4362-9303-5264b7a90fbf"},"vehicle_type_id":"4","last_reported":1702069595,"current_range_meters":9200,"station_id":"ce4bhbp2rcd13ifvqesg","pricing_plan_id":"free"},{"bike_id":"ffe8e861-9583-46be-9da3-462d5c1037ee","system_id":"levelo_inurba_marseille","lat":43.29285,"lon":5.37433,"is_reserved":false,"is_disabled":false,"rental_uris":{"android":"levelo://app?vid=ffe8e861-9583-46be-9da3-462d5c1037ee","ios":"levelo://app?vid=ffe8e861-9583-46be-9da3-462d5c1037ee"},"vehicle_type_id":"4","last_reported":1702069595,"current_range_meters":14400,"station_id":"ce4bgi12rcd13ifvqb70","pricing_plan_id":"free"},{"bike_id":"466c91c6-d038-42cf-818c-bf05597c451e","system_id":"levelo_inurba_marseille","lat":43.29264,"lon":5.37618,"is_reserved":false,"is_disabled":false,"rental_uris":{"android":"levelo://app?vid=466c91c6-d038-42cf-818c-bf05597c451e","ios":"levelo://app?vid=466c91c6-d038-42cf-818c-bf05597c451e"},"vehicle_type_id":"4","last_reported":1702069595,"current_range_meters":800,"station_id":"ce4bgi12rcd13ifvqb80","pricing_plan_id":"free"},{"bike_id":"f54cce81-24e4-44b7-978b-713350a2404c","system_id":"levelo_inurba_marseille","lat":43.29875,"lon":5.38901,"is_reserved":false,"is_disabled":false,"rental_uris":{"android":"levelo://app?vid=f54cce81-24e4-44b7-978b-713350a2404c","ios":"levelo://app?vid=f54cce81-24e4-44b7-978b-713350a2404c"},"vehicle_type_id":"4","last_reported":1702069595,"current_range_meters":0,"station_id":"","pricing_plan_id":"free"},{"bike_id":"8a00eb35-1cdc-4762-9b6e-730bc782b1b4","system_id":"levelo_inurba_marseille","lat":43.291675,"lon":5.371583,"is_reserved":false,"is_disabled":false,"rental_uris":{"android":"levelo://app?vid=8a00eb35-1cdc-4762-9b6e-730bc782b1b4","ios":"levelo://app?vid=8a00eb35-1cdc-4762-9b6e-730bc782b1b4"},"vehicle_type_id":"4","last_reported":1702069595,"current_range_meters":22800,"station_id":"ce4bha92rcd13ifvqeh0","pricing_plan_id":"free"},{"bike_id":"d9b37e7b-de31-4245-b873-4a9dfb483ab4","system_id":"levelo_inurba_marseille","lat":43.291671,"lon":5.371575,"is_reserved":false,"is_disabled":false,"rental_uris":{"android":"levelo://app?vid=d9b37e7b-de31-4245-b873-4a9dfb483ab4","ios":"levelo://app?vid=d9b37e7b-de31-4245-b873-4a9dfb483ab4"},"vehicle_type_id":"4","last_reported":1702069595,"current_range_meters":15600,"station_id":"ce4bha92rcd13ifvqeh0","pricing_plan_id":"free"},{"bike_id":"14fe21b6-310b-45f4-b0ac-6b2a7d363e8a","system_id":"levelo_inurba_marseille","lat":43.31323,"lon":5.39687,"is_reserved":false,"is_disabled":false,"rental_uris":{"android":"levelo://app?vid=14fe21b6-310b-45f4-b0ac-6b2a7d363e8a","ios":"levelo://app?vid=14fe21b6-310b-45f4-b0ac-6b2a7d363e8a"},"vehicle_type_id":"4","last_reported":1702069595,"current_range_meters":0,"station_id":"ce4bgvp2rcd13ifvqcu0","pricing_plan_id":"free"},{"bike_id":"f297ffec-eac0-4228-a2c5-41dd10ccaa3f","system_id":"levelo_inurba_marseille","lat":43.303002,"lon":5.392142,"is_reserved":false,"is_disabled":false,"rental_uris":{"android":"levelo://app?vid=f297ffec-eac0-4228-a2c5-41dd10ccaa3f","ios":"levelo://app?vid=f297ffec-eac0-4228-a2c5-41dd10ccaa3f"},"vehicle_type_id":"4","last_reported":1702069595,"current_range_meters":20800,"station_id":"ce4bgkh2rcd13ifvqbk0","pricing_plan_id":"free"},{"bike_id":"94068285-242b-497a-bafb-444d6c9ab705","system_id":"levelo_inurba_marseille","lat":43.313291,"lon":5.396838,"is_reserved":false,"is_disabled":false,"rental_uris":{"android":"levelo://app?vid=94068285-242b-497a-bafb-444d6c9ab705","ios":"levelo://app?vid=94068285-242b-497a-bafb-444d6c9ab705"},"vehicle_type_id":"4","last_reported":1702069595,"current_range_meters":2400,"station_id":"ce4bgvp2rcd13ifvqcu0","pricing_plan_id":"free"},{"bike_id":"54b9269a-a4fc-4c67-8b7d-f7faa397f746","system_id":"levelo_inurba_marseille","lat":43.313291,"lon":5.396838,"is_reserved":false,"is_disabled":false,"rental_uris":{"android":"levelo://app?vid=54b9269a-a4fc-4c67-8b7d-f7faa397f746","ios":"levelo://app?vid=54b9269a-a4fc-4c67-8b7d-f7faa397f746"},"vehicle_type_id":"4","last_reported":1702069595,"current_range_meters":0,"station_id":"ce4bgvp2rcd13ifvqcu0","pricing_plan_id":"free"},{"bike_id":"8740a9b7-7f35-462f-ac3b-ba0cd903103d","system_id":"levelo_inurba_marseille","lat":43.31325,"lon":5.39696,"is_reserved":false,"is_disabled":false,"rental_uris":{"android":"levelo://app?vid=8740a9b7-7f35-462f-ac3b-ba0cd903103d","ios":"levelo://app?vid=8740a9b7-7f35-462f-ac3b-ba0cd903103d"},"vehicle_type_id":"4","last_reported":1702069595,"current_range_meters":6000,"station_id":"ce4bgvp2rcd13ifvqcu0","pricing_plan_id":"free"},{"bike_id":"9003a963-c534-42ee-9575-67c4073546b3","system_id":"levelo_inurba_marseille","lat":43.29187,"lon":5.35797,"is_reserved":false,"is_disabled":false,"rental_uris":{"android":"levelo://app?vid=9003a963-c534-42ee-9575-67c4073546b3","ios":"levelo://app?vid=9003a963-c534-42ee-9575-67c4073546b3"},"vehicle_type_id":"4","last_reported":1702069595,"current_range_meters":19200,"station_id":"ce4bhb12rcd13ifvqel0","pricing_plan_id":"free"},{"bike_id":"9dab9597-ef4b-4290-a34c-173162f17347","system_id":"levelo_inurba_marseille","lat":43.309038,"lon":5.396546,"is_reserved":false,"is_disabled":false,"rental_uris":{"android":"levelo://app?vid=9dab9597-ef4b-4290-a34c-173162f17347","ios":"levelo://app?vid=9dab9597-ef4b-4290-a34c-173162f17347"},"vehicle_type_id":"4","last_reported":1702069595,"current_range_meters":19200,"station_id":"ce4bh012rcd13ifvqcv0","pricing_plan_id":"free"},{"bike_id":"fa0ccb6b-3b7a-4ce3-89e3-566be838af30","system_id":"levelo_inurba_marseille","lat":43.29529,"lon":5.385581,"is_reserved":false,"is_disabled":false,"rental_uris":{"android":"levelo://app?vid=fa0ccb6b-3b7a-4ce3-89e3-566be838af30","ios":"levelo://app?vid=fa0ccb6b-3b7a-4ce3-89e3-566be838af30"},"vehicle_type_id":"4","last_reported":1702069595,"current_range_meters":22800,"station_id":"ce4bgih2rcd13ifvqba0","pricing_plan_id":"free"},{"bike_id":"7ee49e95-f404-46ee-aa13-a47ef34d7357","system_id":"levelo_inurba_marseille","lat":43.29529,"lon":5.385581,"is_reserved":false,"is_disabled":false,"rental_uris":{"android":"levelo://app?vid=7ee49e95-f404-46ee-aa13-a47ef34d7357","ios":"levelo://app?vid=7ee49e95-f404-46ee-aa13-a47ef34d7357"},"vehicle_type_id":"4","last_reported":1702069595,"current_range_meters":4000,"station_id":"ce4bgih2rcd13ifvqba0","pricing_plan_id":"free"},{"bike_id":"939fe9cb-a159-4560-9835-fa4f85419e3a","system_id":"levelo_inurba_marseille","lat":43.29529,"lon":5.385581,"is_reserved":false,"is_disabled":false,"rental_uris":{"android":"levelo://app?vid=939fe9cb-a159-4560-9835-fa4f85419e3a","ios":"levelo://app?vid=939fe9cb-a159-4560-9835-fa4f85419e3a"},"vehicle_type_id":"4","last_reported":1702069595,"current_range_meters":18400,"station_id":"ce4bgih2rcd13ifvqba0","pricing_plan_id":"free"},{"bike_id":"b52bbea7-cd7c-4948-9c3b-f7ebb0332be0","system_id":"levelo_inurba_marseille","lat":43.290779,"lon":5.371482,"is_reserved":false,"is_disabled":false,"rental_uris":{"android":"levelo://app?vid=b52bbea7-cd7c-4948-9c3b-f7ebb0332be0","ios":"levelo://app?vid=b52bbea7-cd7c-4948-9c3b-f7ebb0332be0"},"vehicle_type_id":"4","last_reported":1702069595,"current_range_meters":0,"station_id":"ce4bh5p2rcd13ifvqe4g","pricing_plan_id":"free"},{"bike_id":"3607d39d-8749-456f-b759-8cb37aedb069","system_id":"levelo_inurba_marseille","lat":43.30209,"lon":5.39465,"is_reserved":false,"is_disabled":false,"rental_uris":{"android":"levelo://app?vid=3607d39d-8749-456f-b759-8cb37aedb069","ios":"levelo://app?vid=3607d39d-8749-456f-b759-8cb37aedb069"},"vehicle_type_id":"4","last_reported":1702069595,"current_range_meters":24400,"station_id":"ce4bh0p2rcd13ifvqd70","pricing_plan_id":"free"},{"bike_id":"d785afc1-304c-4d6e-8555-1c646c8d5638","system_id":"levelo_inurba_marseille","lat":43.302008,"lon":5.394694,"is_reserved":false,"is_disabled":false,"rental_uris":{"android":"levelo://app?vid=d785afc1-304c-4d6e-8555-1c646c8d5638","ios":"levelo://app?vid=d785afc1-304c-4d6e-8555-1c646c8d5638"},"vehicle_type_id":"4","last_reported":1702069595,"current_range_meters":10800,"station_id":"ce4bh0p2rcd13ifvqd70","pricing_plan_id":"free"},{"bike_id":"ff25bdf6-f4f0-40e1-aae6-ae032aa52bf1","system_id":"levelo_inurba_marseille","lat":43.290631,"lon":5.359244,"is_reserved":false,"is_disabled":false,"rental_uris":{"android":"levelo://app?vid=ff25bdf6-f4f0-40e1-aae6-ae032aa52bf1","ios":"levelo://app?vid=ff25bdf6-f4f0-40e1-aae6-ae032aa52bf1"},"vehicle_type_id":"4","last_reported":1702069595,"current_range_meters":28000,"station_id":"ce4bha92rcd13ifvqeg0","pricing_plan_id":"free"},{"bike_id":"156b02e8-0bc6-4b3b-ac4b-a85bc914224a","system_id":"levelo_inurba_marseille","lat":43.290631,"lon":5.359244,"is_reserved":false,"is_disabled":false,"rental_uris":{"android":"levelo://app?vid=156b02e8-0bc6-4b3b-ac4b-a85bc914224a","ios":"levelo://app?vid=156b02e8-0bc6-4b3b-ac4b-a85bc914224a"},"vehicle_type_id":"4","last_reported":1702069595,"current_range_meters":19600,"station_id":"ce4bha92rcd13ifvqeg0","pricing_plan_id":"free"},{"bike_id":"a1520945-b2f7-47b2-b919-b8fd2aa4db77","system_id":"levelo_inurba_marseille","lat":43.29414,"lon":5.38622,"is_reserved":false,"is_disabled":false,"rental_uris":{"android":"levelo://app?vid=a1520945-b2f7-47b2-b919-b8fd2aa4db77","ios":"levelo://app?vid=a1520945-b2f7-47b2-b919-b8fd2aa4db77"},"vehicle_type_id":"4","last_reported":1702069595,"current_range_meters":0,"station_id":"ce4bh2h2rcd13ifvqdh0","pricing_plan_id":"free"},{"bike_id":"8d17924d-e75c-4693-b1f6-d52eec57bdcf","system_id":"levelo_inurba_marseille","lat":43.294162,"lon":5.386292,"is_reserved":false,"is_disabled":false,"rental_uris":{"android":"levelo://app?vid=8d17924d-e75c-4693-b1f6-d52eec57bdcf","ios":"levelo://app?vid=8d17924d-e75c-4693-b1f6-d52eec57bdcf"},"vehicle_type_id":"4","last_reported":1702069595,"current_range_meters":11600,"station_id":"ce4bh2h2rcd13ifvqdh0","pricing_plan_id":"free"},{"bike_id":"a02a1b20-1fb1-4951-988a-77389649024d","system_id":"levelo_inurba_marseille","lat":43.289259,"lon":5.366364,"is_reserved":false,"is_disabled":false,"rental_uris":{"android":"levelo://app?vid=a02a1b20-1fb1-4951-988a-77389649024d","ios":"levelo://app?vid=a02a1b20-1fb1-4951-988a-77389649024d"},"vehicle_type_id":"4","last_reported":1702069595,"current_range_meters":14800,"station_id":"","pricing_plan_id":"free"},{"bike_id":"d25e6f1b-bf28-4697-8663-54f49dfb54f7","system_id":"levelo_inurba_marseille","lat":43.29277,"lon":5.38452,"is_reserved":false,"is_disabled":false,"rental_uris":{"android":"levelo://app?vid=d25e6f1b-bf28-4697-8663-54f49dfb54f7","ios":"levelo://app?vid=d25e6f1b-bf28-4697-8663-54f49dfb54f7"},"vehicle_type_id":"4","last_reported":1702069595,"current_range_meters":0,"station_id":"ce4bh692rcd13ifvqea0","pricing_plan_id":"free"},{"bike_id":"0773505a-5ac7-469c-aa78-41f4df83a038","system_id":"levelo_inurba_marseille","lat":43.292644,"lon":5.384257,"is_reserved":false,"is_disabled":false,"rental_uris":{"android":"levelo://app?vid=0773505a-5ac7-469c-aa78-41f4df83a038","ios":"levelo://app?vid=0773505a-5ac7-469c-aa78-41f4df83a038"},"vehicle_type_id":"4","last_reported":1702069595,"current_range_meters":20800,"station_id":"ce4bh692rcd13ifvqea0","pricing_plan_id":"free"},{"bike_id":"7e391a92-8e92-4c7c-838b-bb5accbe9b1e","system_id":"levelo_inurba_marseille","lat":43.292642,"lon":5.384254,"is_reserved":false,"is_disabled":false,"rental_uris":{"android":"levelo://app?vid=7e391a92-8e92-4c7c-838b-bb5accbe9b1e","ios":"levelo://app?vid=7e391a92-8e92-4c7c-838b-bb5accbe9b1e"},"vehicle_type_id":"4","last_reported":1702069595,"current_range_meters":8400,"station_id":"ce4bh692rcd13ifvqea0","pricing_plan_id":"free"},{"bike_id":"3d2a811d-b914-445f-9f68-3c7f195a1383","system_id":"levelo_inurba_marseille","lat":43.29256,"lon":5.38445,"is_reserved":false,"is_disabled":false,"rental_uris":{"android":"levelo://app?vid=3d2a811d-b914-445f-9f68-3c7f195a1383","ios":"levelo://app?vid=3d2a811d-b914-445f-9f68-3c7f195a1383"},"vehicle_type_id":"4","last_reported":1702069595,"current_range_meters":1600,"station_id":"ce4bh692rcd13ifvqea0","pricing_plan_id":"free"},{"bike_id":"8401e821-ba10-4020-b442-ccf15455346b","system_id":"levelo_inurba_marseille","lat":43.290995,"lon":5.381361,"is_reserved":false,"is_disabled":false,"rental_uris":{"android":"levelo://app?vid=8401e821-ba10-4020-b442-ccf15455346b","ios":"levelo://app?vid=8401e821-ba10-4020-b442-ccf15455346b"},"vehicle_type_id":"4","last_reported":1702069595,"current_range_meters":27200,"station_id":"ce4bh512rcd13ifvqe2g","pricing_plan_id":"free"},{"bike_id":"1186a314-2cea-49e9-a589-57005da1d5a8","system_id":"levelo_inurba_marseille","lat":43.29781,"lon":5.39321,"is_reserved":false,"is_disabled":false,"rental_uris":{"android":"levelo://app?vid=1186a314-2cea-49e9-a589-57005da1d5a8","ios":"levelo://app?vid=1186a314-2cea-49e9-a589-57005da1d5a8"},"vehicle_type_id":"4","last_reported":1702069595,"current_range_meters":0,"station_id":"chh1huq6cuj3fo74tm60","pricing_plan_id":"free"},{"bike_id":"ce879223-1a50-4e98-ab03-47f68f317132","system_id":"levelo_inurba_marseille","lat":43.290995,"lon":5.381361,"is_reserved":false,"is_disabled":false,"rental_uris":{"android":"levelo://app?vid=ce879223-1a50-4e98-ab03-47f68f317132","ios":"levelo://app?vid=ce879223-1a50-4e98-ab03-47f68f317132"},"vehicle_type_id":"4","last_reported":1702069595,"current_range_meters":0,"station_id":"ce4bh512rcd13ifvqe2g","pricing_plan_id":"free"},{"bike_id":"ffd7beee-90f6-4beb-952b-b0c99eea18a8","system_id":"levelo_inurba_marseille","lat":43.2978,"lon":5.39336,"is_reserved":false,"is_disabled":false,"rental_uris":{"android":"levelo://app?vid=ffd7beee-90f6-4beb-952b-b0c99eea18a8","ios":"levelo://app?vid=ffd7beee-90f6-4beb-952b-b0c99eea18a8"},"vehicle_type_id":"4","last_reported":1702069595,"current_range_meters":4800,"station_id":"chh1huq6cuj3fo74tm60","pricing_plan_id":"free"},{"bike_id":"4a3f384b-be29-4b1e-8ee9-e840b950715d","system_id":"levelo_inurba_marseille","lat":43.297815,"lon":5.393548,"is_reserved":false,"is_disabled":false,"rental_uris":{"android":"levelo://app?vid=4a3f384b-be29-4b1e-8ee9-e840b950715d","ios":"levelo://app?vid=4a3f384b-be29-4b1e-8ee9-e840b950715d"},"vehicle_type_id":"4","last_reported":1702069595,"current_range_meters":1600,"station_id":"chh1huq6cuj3fo74tm60","pricing_plan_id":"free"},{"bike_id":"92640e53-8d84-4d60-a095-556a5a6167d8","system_id":"levelo_inurba_marseille","lat":43.297755,"lon":5.393345,"is_reserved":false,"is_disabled":false,"rental_uris":{"android":"levelo://app?vid=92640e53-8d84-4d60-a095-556a5a6167d8","ios":"levelo://app?vid=92640e53-8d84-4d60-a095-556a5a6167d8"},"vehicle_type_id":"4","last_reported":1702069595,"current_range_meters":18800,"station_id":"chh1huq6cuj3fo74tm60","pricing_plan_id":"free"},{"bike_id":"cd3b17c2-2a8f-4d12-80e0-7a47508ae086","system_id":"levelo_inurba_marseille","lat":43.289741,"lon":5.378306,"is_reserved":false,"is_disabled":false,"rental_uris":{"android":"levelo://app?vid=cd3b17c2-2a8f-4d12-80e0-7a47508ae086","ios":"levelo://app?vid=cd3b17c2-2a8f-4d12-80e0-7a47508ae086"},"vehicle_type_id":"4","last_reported":1702069595,"current_range_meters":25200,"station_id":"ce4bh9p2rcd13ifvqed0","pricing_plan_id":"free"},{"bike_id":"62c66cc5-c8e8-418d-a632-b9d4342258e0","system_id":"levelo_inurba_marseille","lat":43.309371,"lon":5.401449,"is_reserved":false,"is_disabled":false,"rental_uris":{"android":"levelo://app?vid=62c66cc5-c8e8-418d-a632-b9d4342258e0","ios":"levelo://app?vid=62c66cc5-c8e8-418d-a632-b9d4342258e0"},"vehicle_type_id":"4","last_reported":1702069595,"current_range_meters":800,"station_id":"ce4bgvp2rcd13ifvqct0","pricing_plan_id":"free"},{"bike_id":"4d7f2324-70cc-4da2-94bd-1649c79e8ad1","system_id":"levelo_inurba_marseille","lat":43.30644,"lon":5.4009,"is_reserved":false,"is_disabled":false,"rental_uris":{"android":"levelo://app?vid=4d7f2324-70cc-4da2-94bd-1649c79e8ad1","ios":"levelo://app?vid=4d7f2324-70cc-4da2-94bd-1649c79e8ad1"},"vehicle_type_id":"4","last_reported":1702069595,"current_range_meters":0,"station_id":"ce4bh112rcd13ifvqda0","pricing_plan_id":"free"},{"bike_id":"066175bb-9259-4227-8cd4-78cd43f21020","system_id":"levelo_inurba_marseille","lat":43.28727,"lon":5.36078,"is_reserved":false,"is_disabled":false,"rental_uris":{"android":"levelo://app?vid=066175bb-9259-4227-8cd4-78cd43f21020","ios":"levelo://app?vid=066175bb-9259-4227-8cd4-78cd43f21020"},"vehicle_type_id":"4","last_reported":1702069595,"current_range_meters":22800,"station_id":"cki0cbj6b192h4jlfktg","pricing_plan_id":"free"},{"bike_id":"5b9bd563-fa68-4324-a454-e4d7c3118e5c","system_id":"levelo_inurba_marseille","lat":43.295237,"lon":5.394003,"is_reserved":false,"is_disabled":false,"rental_uris":{"android":"levelo://app?vid=5b9bd563-fa68-4324-a454-e4d7c3118e5c","ios":"levelo://app?vid=5b9bd563-fa68-4324-a454-e4d7c3118e5c"},"vehicle_type_id":"4","last_reported":1702069595,"current_range_meters":0,"station_id":"ce4bh292rcd13ifvqdf0","pricing_plan_id":"free"},{"bike_id":"8af74c88-4484-4b7e-a818-d11e187d8d1c","system_id":"levelo_inurba_marseille","lat":43.290345,"lon":5.38646,"is_reserved":false,"is_disabled":false,"rental_uris":{"android":"levelo://app?vid=8af74c88-4484-4b7e-a818-d11e187d8d1c","ios":"levelo://app?vid=8af74c88-4484-4b7e-a818-d11e187d8d1c"},"vehicle_type_id":"4","last_reported":1702069595,"current_range_meters":2000,"station_id":"ce4bh4p2rcd13ifvqe0g","pricing_plan_id":"free"},{"bike_id":"d9710330-bbbb-46ee-a197-ba784b0746f2","system_id":"levelo_inurba_marseille","lat":43.302759,"lon":5.400793,"is_reserved":false,"is_disabled":false,"rental_uris":{"android":"levelo://app?vid=d9710330-bbbb-46ee-a197-ba784b0746f2","ios":"levelo://app?vid=d9710330-bbbb-46ee-a197-ba784b0746f2"},"vehicle_type_id":"4","last_reported":1702069595,"current_range_meters":0,"station_id":"ce4bgvh2rcd13ifvqcs0","pricing_plan_id":"free"},{"bike_id":"ff58aa40-dd5e-4836-b8ba-4aff88fe2287","system_id":"levelo_inurba_marseille","lat":43.287185,"lon":5.379373,"is_reserved":false,"is_disabled":false,"rental_uris":{"android":"levelo://app?vid=ff58aa40-dd5e-4836-b8ba-4aff88fe2287","ios":"levelo://app?vid=ff58aa40-dd5e-4836-b8ba-4aff88fe2287"},"vehicle_type_id":"4","last_reported":1702069595,"current_range_meters":14800,"station_id":"ce4bh9p2rcd13ifvqec0","pricing_plan_id":"free"},{"bike_id":"f8b1d939-2875-4b07-89da-8980b927fa34","system_id":"levelo_inurba_marseille","lat":43.31687,"lon":5.40472,"is_reserved":false,"is_disabled":false,"rental_uris":{"android":"levelo://app?vid=f8b1d939-2875-4b07-89da-8980b927fa34","ios":"levelo://app?vid=f8b1d939-2875-4b07-89da-8980b927fa34"},"vehicle_type_id":"4","last_reported":1702069595,"current_range_meters":19200,"station_id":"ce4bh012rcd13ifvqd00","pricing_plan_id":"free"},{"bike_id":"fc75298f-98dc-43c8-9ac0-3baa025d364d","system_id":"levelo_inurba_marseille","lat":43.28615,"lon":5.35101,"is_reserved":false,"is_disabled":false,"rental_uris":{"android":"levelo://app?vid=fc75298f-98dc-43c8-9ac0-3baa025d364d","ios":"levelo://app?vid=fc75298f-98dc-43c8-9ac0-3baa025d364d"},"vehicle_type_id":"4","last_reported":1702069595,"current_range_meters":4800,"station_id":"ce4bhch2rcd13ifvqeug","pricing_plan_id":"free"},{"bike_id":"5161f0d9-5319-43e2-9e17-ccf893f7151c","system_id":"levelo_inurba_marseille","lat":43.283502,"lon":5.386471,"is_reserved":false,"is_disabled":false,"rental_uris":{"android":"levelo://app?vid=5161f0d9-5319-43e2-9e17-ccf893f7151c","ios":"levelo://app?vid=5161f0d9-5319-43e2-9e17-ccf893f7151c"},"vehicle_type_id":"4","last_reported":1702069595,"current_range_meters":13600,"station_id":"ce4bh492rcd13ifvqdvg","pricing_plan_id":"free"},{"bike_id":"3b44b279-4508-4e90-b4ff-6cbec8acfee3","system_id":"levelo_inurba_marseille","lat":43.284684,"lon":5.380436,"is_reserved":false,"is_disabled":false,"rental_uris":{"android":"levelo://app?vid=3b44b279-4508-4e90-b4ff-6cbec8acfee3","ios":"levelo://app?vid=3b44b279-4508-4e90-b4ff-6cbec8acfee3"},"vehicle_type_id":"4","last_reported":1702069595,"current_range_meters":19600,"station_id":"","pricing_plan_id":"free"},{"bike_id":"f1b839bb-8f6a-4aee-8e55-f014f99cc47c","system_id":"levelo_inurba_marseille","lat":43.323464,"lon":5.406297,"is_reserved":false,"is_disabled":false,"rental_uris":{"android":"levelo://app?vid=f1b839bb-8f6a-4aee-8e55-f014f99cc47c","ios":"levelo://app?vid=f1b839bb-8f6a-4aee-8e55-f014f99cc47c"},"vehicle_type_id":"4","last_reported":1702069595,"current_range_meters":14000,"station_id":"ce4bhq92rcd13ifvqhjg","pricing_plan_id":"free"},{"bike_id":"56f40ccb-7c60-4e5f-8244-bceecdbf0e2b","system_id":"levelo_inurba_marseille","lat":43.323464,"lon":5.406297,"is_reserved":false,"is_disabled":false,"rental_uris":{"android":"levelo://app?vid=56f40ccb-7c60-4e5f-8244-bceecdbf0e2b","ios":"levelo://app?vid=56f40ccb-7c60-4e5f-8244-bceecdbf0e2b"},"vehicle_type_id":"4","last_reported":1702069595,"current_range_meters":3600,"station_id":"ce4bhq92rcd13ifvqhjg","pricing_plan_id":"free"},{"bike_id":"394e7ef0-8795-4b05-b68f-3db5b0a2f588","system_id":"levelo_inurba_marseille","lat":43.33717,"lon":5.391857,"is_reserved":false,"is_disabled":false,"rental_uris":{"android":"levelo://app?vid=394e7ef0-8795-4b05-b68f-3db5b0a2f588","ios":"levelo://app?vid=394e7ef0-8795-4b05-b68f-3db5b0a2f588"},"vehicle_type_id":"4","last_reported":1702069595,"current_range_meters":28400,"station_id":"ce4bhr92rcd13ifvqhsg","pricing_plan_id":"free"},{"bike_id":"efe9d2cc-d0eb-4e85-b313-6bf62b4d4d4c","system_id":"levelo_inurba_marseille","lat":43.33727,"lon":5.39187,"is_reserved":false,"is_disabled":false,"rental_uris":{"android":"levelo://app?vid=efe9d2cc-d0eb-4e85-b313-6bf62b4d4d4c","ios":"levelo://app?vid=efe9d2cc-d0eb-4e85-b313-6bf62b4d4d4c"},"vehicle_type_id":"4","last_reported":1702069595,"current_range_meters":2400,"station_id":"ce4bhr92rcd13ifvqhsg","pricing_plan_id":"free"},{"bike_id":"40523761-337a-4544-813b-1585216178db","system_id":"levelo_inurba_marseille","lat":43.284787,"lon":5.384116,"is_reserved":false,"is_disabled":false,"rental_uris":{"android":"levelo://app?vid=40523761-337a-4544-813b-1585216178db","ios":"levelo://app?vid=40523761-337a-4544-813b-1585216178db"},"vehicle_type_id":"4","last_reported":1702069595,"current_range_meters":6000,"station_id":"ce4bh512rcd13ifvqe3g","pricing_plan_id":"free"},{"bike_id":"dda7d2e4-bcf2-4239-9235-234c82117a33","system_id":"levelo_inurba_marseille","lat":43.288501,"lon":5.393087,"is_reserved":false,"is_disabled":false,"rental_uris":{"android":"levelo://app?vid=dda7d2e4-bcf2-4239-9235-234c82117a33","ios":"levelo://app?vid=dda7d2e4-bcf2-4239-9235-234c82117a33"},"vehicle_type_id":"4","last_reported":1702069595,"current_range_meters":2400,"station_id":"ce4bh2p2rcd13ifvqdi0","pricing_plan_id":"free"},{"bike_id":"582df240-8dc9-4497-9933-b2f43a4b165e","system_id":"levelo_inurba_marseille","lat":43.292724,"lon":5.401131,"is_reserved":false,"is_disabled":false,"rental_uris":{"android":"levelo://app?vid=582df240-8dc9-4497-9933-b2f43a4b165e","ios":"levelo://app?vid=582df240-8dc9-4497-9933-b2f43a4b165e"},"vehicle_type_id":"4","last_reported":1702069595,"current_range_meters":2800,"station_id":"ce4bh312rcd13ifvqdk0","pricing_plan_id":"free"},{"bike_id":"789b23c6-d60e-4b98-aa31-8d26efb2dabf","system_id":"levelo_inurba_marseille","lat":43.282744,"lon":5.350533,"is_reserved":false,"is_disabled":false,"rental_uris":{"android":"levelo://app?vid=789b23c6-d60e-4b98-aa31-8d26efb2dabf","ios":"levelo://app?vid=789b23c6-d60e-4b98-aa31-8d26efb2dabf"},"vehicle_type_id":"4","last_reported":1702069595,"current_range_meters":29200,"station_id":"ce4bhbp2rcd13ifvqerg","pricing_plan_id":"free"},{"bike_id":"46b69059-f55d-44e0-8a7c-f36fa79d83b5","system_id":"levelo_inurba_marseille","lat":43.283502,"lon":5.386471,"is_reserved":false,"is_disabled":false,"rental_uris":{"android":"levelo://app?vid=46b69059-f55d-44e0-8a7c-f36fa79d83b5","ios":"levelo://app?vid=46b69059-f55d-44e0-8a7c-f36fa79d83b5"},"vehicle_type_id":"4","last_reported":1702069595,"current_range_meters":26400,"station_id":"ce4bh492rcd13ifvqdvg","pricing_plan_id":"free"},{"bike_id":"cd0a6c7b-b736-40e1-9d86-4dcb2e82c8f5","system_id":"levelo_inurba_marseille","lat":43.28038,"lon":5.36944,"is_reserved":false,"is_disabled":false,"rental_uris":{"android":"levelo://app?vid=cd0a6c7b-b736-40e1-9d86-4dcb2e82c8f5","ios":"levelo://app?vid=cd0a6c7b-b736-40e1-9d86-4dcb2e82c8f5"},"vehicle_type_id":"4","last_reported":1702069595,"current_range_meters":3600,"station_id":"ce4bha12rcd13ifvqef0","pricing_plan_id":"free"},{"bike_id":"dbaa8d01-05e0-4778-b647-6d4af5354590","system_id":"levelo_inurba_marseille","lat":43.280382,"lon":5.369291,"is_reserved":false,"is_disabled":false,"rental_uris":{"android":"levelo://app?vid=dbaa8d01-05e0-4778-b647-6d4af5354590","ios":"levelo://app?vid=dbaa8d01-05e0-4778-b647-6d4af5354590"},"vehicle_type_id":"4","last_reported":1702069595,"current_range_meters":0,"station_id":"ce4bha12rcd13ifvqef0","pricing_plan_id":"free"},{"bike_id":"7d6afa9a-2929-4189-ab76-6f7a34af73b3","system_id":"levelo_inurba_marseille","lat":43.280382,"lon":5.369291,"is_reserved":false,"is_disabled":false,"rental_uris":{"android":"levelo://app?vid=7d6afa9a-2929-4189-ab76-6f7a34af73b3","ios":"levelo://app?vid=7d6afa9a-2929-4189-ab76-6f7a34af73b3"},"vehicle_type_id":"4","last_reported":1702069595,"current_range_meters":17600,"station_id":"ce4bha12rcd13ifvqef0","pricing_plan_id":"free"},{"bike_id":"993f6636-7178-4467-8ea7-32387afc05b7","system_id":"levelo_inurba_marseille","lat":43.281044,"lon":5.378308,"is_reserved":false,"is_disabled":false,"rental_uris":{"android":"levelo://app?vid=993f6636-7178-4467-8ea7-32387afc05b7","ios":"levelo://app?vid=993f6636-7178-4467-8ea7-32387afc05b7"},"vehicle_type_id":"4","last_reported":1702069595,"current_range_meters":6400,"station_id":"ce4bha12rcd13ifvqee0","pricing_plan_id":"free"},{"bike_id":"32437485-9dd2-4f97-8b2e-d1f6729cd54f","system_id":"levelo_inurba_marseille","lat":43.285742,"lon":5.395004,"is_reserved":false,"is_disabled":false,"rental_uris":{"android":"levelo://app?vid=32437485-9dd2-4f97-8b2e-d1f6729cd54f","ios":"levelo://app?vid=32437485-9dd2-4f97-8b2e-d1f6729cd54f"},"vehicle_type_id":"4","last_reported":1702069595,"current_range_meters":16400,"station_id":"ce4bh292rcd13ifvqdg0","pricing_plan_id":"free"},{"bike_id":"c0763524-47cd-4818-80fc-1b29f8280dc8","system_id":"levelo_inurba_marseille","lat":43.326605,"lon":5.409903,"is_reserved":false,"is_disabled":false,"rental_uris":{"android":"levelo://app?vid=c0763524-47cd-4818-80fc-1b29f8280dc8","ios":"levelo://app?vid=c0763524-47cd-4818-80fc-1b29f8280dc8"},"vehicle_type_id":"4","last_reported":1702069595,"current_range_meters":28000,"station_id":"ce4bhpp2rcd13ifvqhgg","pricing_plan_id":"free"},{"bike_id":"e52ddfd6-0ddd-4c7b-ab34-3c7fe5c2aaef","system_id":"levelo_inurba_marseille","lat":43.326605,"lon":5.409903,"is_reserved":false,"is_disabled":false,"rental_uris":{"android":"levelo://app?vid=e52ddfd6-0ddd-4c7b-ab34-3c7fe5c2aaef","ios":"levelo://app?vid=e52ddfd6-0ddd-4c7b-ab34-3c7fe5c2aaef"},"vehicle_type_id":"4","last_reported":1702069595,"current_range_meters":400,"station_id":"ce4bhpp2rcd13ifvqhgg","pricing_plan_id":"free"},{"bike_id":"8e72c163-1aa2-4a7b-94b7-81680a6273b6","system_id":"levelo_inurba_marseille","lat":43.326605,"lon":5.409903,"is_reserved":false,"is_disabled":false,"rental_uris":{"android":"levelo://app?vid=8e72c163-1aa2-4a7b-94b7-81680a6273b6","ios":"levelo://app?vid=8e72c163-1aa2-4a7b-94b7-81680a6273b6"},"vehicle_type_id":"4","last_reported":1702069595,"current_range_meters":10800,"station_id":"ce4bhpp2rcd13ifvqhgg","pricing_plan_id":"free"},{"bike_id":"b26c8630-323c-4045-8811-b7bc791c08ad","system_id":"levelo_inurba_marseille","lat":43.277893,"lon":5.362492,"is_reserved":false,"is_disabled":false,"rental_uris":{"android":"levelo://app?vid=b26c8630-323c-4045-8811-b7bc791c08ad","ios":"levelo://app?vid=b26c8630-323c-4045-8811-b7bc791c08ad"},"vehicle_type_id":"4","last_reported":1702069595,"current_range_meters":26400,"station_id":"","pricing_plan_id":"free"},{"bike_id":"65c002a2-5a39-4ee9-bf1b-6b5b77e862f7","system_id":"levelo_inurba_marseille","lat":43.279087,"lon":5.380114,"is_reserved":false,"is_disabled":false,"rental_uris":{"android":"levelo://app?vid=65c002a2-5a39-4ee9-bf1b-6b5b77e862f7","ios":"levelo://app?vid=65c002a2-5a39-4ee9-bf1b-6b5b77e862f7"},"vehicle_type_id":"4","last_reported":1702069595,"current_range_meters":19200,"station_id":"ce4bhf92rcd13ifvqf50","pricing_plan_id":"free"},{"bike_id":"f2715cb4-e03b-4ef1-b7bf-104bfeecb1c6","system_id":"levelo_inurba_marseille","lat":43.287039,"lon":5.399771,"is_reserved":false,"is_disabled":false,"rental_uris":{"android":"levelo://app?vid=f2715cb4-e03b-4ef1-b7bf-104bfeecb1c6","ios":"levelo://app?vid=f2715cb4-e03b-4ef1-b7bf-104bfeecb1c6"},"vehicle_type_id":"4","last_reported":1702069595,"current_range_meters":17200,"station_id":"ce4bho92rcd13ifvqh3g","pricing_plan_id":"free"},{"bike_id":"8631ae63-0b52-41e3-be15-dee8c71e3059","system_id":"levelo_inurba_marseille","lat":43.28711,"lon":5.3999,"is_reserved":false,"is_disabled":false,"rental_uris":{"android":"levelo://app?vid=8631ae63-0b52-41e3-be15-dee8c71e3059","ios":"levelo://app?vid=8631ae63-0b52-41e3-be15-dee8c71e3059"},"vehicle_type_id":"4","last_reported":1702069595,"current_range_meters":18000,"station_id":"ce4bho92rcd13ifvqh3g","pricing_plan_id":"free"},{"bike_id":"9cd65b20-fee3-404f-89fa-9d7875c0b0fb","system_id":"levelo_inurba_marseille","lat":43.287154,"lon":5.399979,"is_reserved":false,"is_disabled":false,"rental_uris":{"android":"levelo://app?vid=9cd65b20-fee3-404f-89fa-9d7875c0b0fb","ios":"levelo://app?vid=9cd65b20-fee3-404f-89fa-9d7875c0b0fb"},"vehicle_type_id":"4","last_reported":1702069595,"current_range_meters":2800,"station_id":"ce4bho92rcd13ifvqh3g","pricing_plan_id":"free"},{"bike_id":"0804f928-033e-4ad2-9551-64a8b28d6a94","system_id":"levelo_inurba_marseille","lat":43.287154,"lon":5.399979,"is_reserved":false,"is_disabled":false,"rental_uris":{"android":"levelo://app?vid=0804f928-033e-4ad2-9551-64a8b28d6a94","ios":"levelo://app?vid=0804f928-033e-4ad2-9551-64a8b28d6a94"},"vehicle_type_id":"4","last_reported":1702069595,"current_range_meters":2000,"station_id":"ce4bho92rcd13ifvqh3g","pricing_plan_id":"free"},{"bike_id":"72ce4fee-625b-4283-9089-195424a3a7e5","system_id":"levelo_inurba_marseille","lat":43.279742,"lon":5.38744,"is_reserved":false,"is_disabled":false,"rental_uris":{"android":"levelo://app?vid=72ce4fee-625b-4283-9089-195424a3a7e5","ios":"levelo://app?vid=72ce4fee-625b-4283-9089-195424a3a7e5"},"vehicle_type_id":"4","last_reported":1702069595,"current_range_meters":6400,"station_id":"ce4bhg12rcd13ifvqf80","pricing_plan_id":"free"},{"bike_id":"2c5b79eb-ff9b-4e12-91bc-97e2c2ae3344","system_id":"levelo_inurba_marseille","lat":43.292571,"lon":5.409107,"is_reserved":false,"is_disabled":false,"rental_uris":{"android":"levelo://app?vid=2c5b79eb-ff9b-4e12-91bc-97e2c2ae3344","ios":"levelo://app?vid=2c5b79eb-ff9b-4e12-91bc-97e2c2ae3344"},"vehicle_type_id":"4","last_reported":1702069595,"current_range_meters":20000,"station_id":"ce4bh192rcd13ifvqdc0","pricing_plan_id":"free"},{"bike_id":"6edce03c-0022-4bb0-9265-42725fe528e0","system_id":"levelo_inurba_marseille","lat":43.292571,"lon":5.409107,"is_reserved":false,"is_disabled":false,"rental_uris":{"android":"levelo://app?vid=6edce03c-0022-4bb0-9265-42725fe528e0","ios":"levelo://app?vid=6edce03c-0022-4bb0-9265-42725fe528e0"},"vehicle_type_id":"4","last_reported":1702069595,"current_range_meters":18000,"station_id":"ce4bh192rcd13ifvqdc0","pricing_plan_id":"free"},{"bike_id":"5f546635-e769-46b7-b1de-ba9765c62bc5","system_id":"levelo_inurba_marseille","lat":43.292571,"lon":5.409107,"is_reserved":false,"is_disabled":false,"rental_uris":{"android":"levelo://app?vid=5f546635-e769-46b7-b1de-ba9765c62bc5","ios":"levelo://app?vid=5f546635-e769-46b7-b1de-ba9765c62bc5"},"vehicle_type_id":"4","last_reported":1702069595,"current_range_meters":2400,"station_id":"ce4bh192rcd13ifvqdc0","pricing_plan_id":"free"},{"bike_id":"808072ba-2557-491a-80b2-3a7d3b4e0e6a","system_id":"levelo_inurba_marseille","lat":43.280784,"lon":5.396622,"is_reserved":false,"is_disabled":false,"rental_uris":{"android":"levelo://app?vid=808072ba-2557-491a-80b2-3a7d3b4e0e6a","ios":"levelo://app?vid=808072ba-2557-491a-80b2-3a7d3b4e0e6a"},"vehicle_type_id":"4","last_reported":1702069595,"current_range_meters":26400,"station_id":"ce4bho12rcd13ifvqh2g","pricing_plan_id":"free"},{"bike_id":"d81229ad-7ea7-4266-8d19-5d7e02ab3041","system_id":"levelo_inurba_marseille","lat":43.280784,"lon":5.396622,"is_reserved":false,"is_disabled":false,"rental_uris":{"android":"levelo://app?vid=d81229ad-7ea7-4266-8d19-5d7e02ab3041","ios":"levelo://app?vid=d81229ad-7ea7-4266-8d19-5d7e02ab3041"},"vehicle_type_id":"4","last_reported":1702069595,"current_range_meters":30400,"station_id":"ce4bho12rcd13ifvqh2g","pricing_plan_id":"free"},{"bike_id":"467a8538-957e-410c-b9e6-f8e959406999","system_id":"levelo_inurba_marseille","lat":43.280784,"lon":5.396622,"is_reserved":false,"is_disabled":false,"rental_uris":{"android":"levelo://app?vid=467a8538-957e-410c-b9e6-f8e959406999","ios":"levelo://app?vid=467a8538-957e-410c-b9e6-f8e959406999"},"vehicle_type_id":"4","last_reported":1702069595,"current_range_meters":18400,"station_id":"ce4bho12rcd13ifvqh2g","pricing_plan_id":"free"},{"bike_id":"a38aeb50-e61c-4175-8b6c-ea2617d6def1","system_id":"levelo_inurba_marseille","lat":43.33612,"lon":5.410321,"is_reserved":false,"is_disabled":false,"rental_uris":{"android":"levelo://app?vid=a38aeb50-e61c-4175-8b6c-ea2617d6def1","ios":"levelo://app?vid=a38aeb50-e61c-4175-8b6c-ea2617d6def1"},"vehicle_type_id":"4","last_reported":1702069595,"current_range_meters":4800,"station_id":"ce4bhqh2rcd13ifvqhmg","pricing_plan_id":"free"},{"bike_id":"5f9cba12-eb64-4f86-b353-d76c80aaa249","system_id":"levelo_inurba_marseille","lat":43.278401,"lon":5.392152,"is_reserved":false,"is_disabled":false,"rental_uris":{"android":"levelo://app?vid=5f9cba12-eb64-4f86-b353-d76c80aaa249","ios":"levelo://app?vid=5f9cba12-eb64-4f86-b353-d76c80aaa249"},"vehicle_type_id":"4","last_reported":1702069595,"current_range_meters":10800,"station_id":"ce4bhjp2rcd13ifvqga0","pricing_plan_id":"free"},{"bike_id":"e34501e0-4a80-4af1-b609-c137374da842","system_id":"levelo_inurba_marseille","lat":43.273613,"lon":5.362705,"is_reserved":false,"is_disabled":false,"rental_uris":{"android":"levelo://app?vid=e34501e0-4a80-4af1-b609-c137374da842","ios":"levelo://app?vid=e34501e0-4a80-4af1-b609-c137374da842"},"vehicle_type_id":"4","last_reported":1702069595,"current_range_meters":4000,"station_id":"ce4bhbh2rcd13ifvqeo0","pricing_plan_id":"free"},{"bike_id":"a37e7359-9d82-4b6b-95fb-b1c3972b4cf8","system_id":"levelo_inurba_marseille","lat":43.279975,"lon":5.40009,"is_reserved":false,"is_disabled":false,"rental_uris":{"android":"levelo://app?vid=a37e7359-9d82-4b6b-95fb-b1c3972b4cf8","ios":"levelo://app?vid=a37e7359-9d82-4b6b-95fb-b1c3972b4cf8"},"vehicle_type_id":"4","last_reported":1702069595,"current_range_meters":24400,"station_id":"ce4bho92rcd13ifvqh4g","pricing_plan_id":"free"},{"bike_id":"f093167a-7b1c-4657-a857-543ec0c803d3","system_id":"levelo_inurba_marseille","lat":43.279975,"lon":5.40009,"is_reserved":false,"is_disabled":false,"rental_uris":{"android":"levelo://app?vid=f093167a-7b1c-4657-a857-543ec0c803d3","ios":"levelo://app?vid=f093167a-7b1c-4657-a857-543ec0c803d3"},"vehicle_type_id":"4","last_reported":1702069595,"current_range_meters":8000,"station_id":"ce4bho92rcd13ifvqh4g","pricing_plan_id":"free"},{"bike_id":"49eedf0f-10a6-4faa-a1bb-a8fca34629e4","system_id":"levelo_inurba_marseille","lat":43.28004,"lon":5.400003,"is_reserved":false,"is_disabled":false,"rental_uris":{"android":"levelo://app?vid=49eedf0f-10a6-4faa-a1bb-a8fca34629e4","ios":"levelo://app?vid=49eedf0f-10a6-4faa-a1bb-a8fca34629e4"},"vehicle_type_id":"4","last_reported":1702069595,"current_range_meters":4400,"station_id":"ce4bho92rcd13ifvqh4g","pricing_plan_id":"free"},{"bike_id":"1f5dca12-6e84-4152-96c5-5eeac8088d5e","system_id":"levelo_inurba_marseille","lat":43.279975,"lon":5.40009,"is_reserved":false,"is_disabled":false,"rental_uris":{"android":"levelo://app?vid=1f5dca12-6e84-4152-96c5-5eeac8088d5e","ios":"levelo://app?vid=1f5dca12-6e84-4152-96c5-5eeac8088d5e"},"vehicle_type_id":"4","last_reported":1702069595,"current_range_meters":10400,"station_id":"ce4bho92rcd13ifvqh4g","pricing_plan_id":"free"},{"bike_id":"ad7be816-4733-49ed-86f8-c55abb1687ae","system_id":"levelo_inurba_marseille","lat":43.279975,"lon":5.40009,"is_reserved":false,"is_disabled":false,"rental_uris":{"android":"levelo://app?vid=ad7be816-4733-49ed-86f8-c55abb1687ae","ios":"levelo://app?vid=ad7be816-4733-49ed-86f8-c55abb1687ae"},"vehicle_type_id":"4","last_reported":1702069595,"current_range_meters":11200,"station_id":"ce4bho92rcd13ifvqh4g","pricing_plan_id":"free"},{"bike_id":"51069f74-8655-4896-bc26-c9d98100d97c","system_id":"levelo_inurba_marseille","lat":43.279975,"lon":5.40009,"is_reserved":false,"is_disabled":false,"rental_uris":{"android":"levelo://app?vid=51069f74-8655-4896-bc26-c9d98100d97c","ios":"levelo://app?vid=51069f74-8655-4896-bc26-c9d98100d97c"},"vehicle_type_id":"4","last_reported":1702069595,"current_range_meters":23600,"station_id":"ce4bho92rcd13ifvqh4g","pricing_plan_id":"free"},{"bike_id":"4e2fa791-01f0-406f-a5b7-ba2e44f8a02b","system_id":"levelo_inurba_marseille","lat":43.279975,"lon":5.40009,"is_reserved":false,"is_disabled":false,"rental_uris":{"android":"levelo://app?vid=4e2fa791-01f0-406f-a5b7-ba2e44f8a02b","ios":"levelo://app?vid=4e2fa791-01f0-406f-a5b7-ba2e44f8a02b"},"vehicle_type_id":"4","last_reported":1702069595,"current_range_meters":24000,"station_id":"ce4bho92rcd13ifvqh4g","pricing_plan_id":"free"},{"bike_id":"f964f646-a5c9-4011-a751-1fce1e55f551","system_id":"levelo_inurba_marseille","lat":43.27994,"lon":5.40007,"is_reserved":false,"is_disabled":false,"rental_uris":{"android":"levelo://app?vid=f964f646-a5c9-4011-a751-1fce1e55f551","ios":"levelo://app?vid=f964f646-a5c9-4011-a751-1fce1e55f551"},"vehicle_type_id":"4","last_reported":1702069595,"current_range_meters":14400,"station_id":"ce4bho92rcd13ifvqh4g","pricing_plan_id":"free"},{"bike_id":"93226352-2010-4def-9d7a-564d481896ff","system_id":"levelo_inurba_marseille","lat":43.279975,"lon":5.40009,"is_reserved":false,"is_disabled":false,"rental_uris":{"android":"levelo://app?vid=93226352-2010-4def-9d7a-564d481896ff","ios":"levelo://app?vid=93226352-2010-4def-9d7a-564d481896ff"},"vehicle_type_id":"4","last_reported":1702069595,"current_range_meters":4000,"station_id":"ce4bho92rcd13ifvqh4g","pricing_plan_id":"free"},{"bike_id":"bd309c78-c820-47d6-8ca2-d32903baef91","system_id":"levelo_inurba_marseille","lat":43.276247,"lon":5.391943,"is_reserved":false,"is_disabled":false,"rental_uris":{"android":"levelo://app?vid=bd309c78-c820-47d6-8ca2-d32903baef91","ios":"levelo://app?vid=bd309c78-c820-47d6-8ca2-d32903baef91"},"vehicle_type_id":"4","last_reported":1702069595,"current_range_meters":10400,"station_id":"","pricing_plan_id":"free"},{"bike_id":"c58024d2-cabc-4012-868c-d0b5976a6bb0","system_id":"levelo_inurba_marseille","lat":43.317121,"lon":5.423936,"is_reserved":false,"is_disabled":false,"rental_uris":{"android":"levelo://app?vid=c58024d2-cabc-4012-868c-d0b5976a6bb0","ios":"levelo://app?vid=c58024d2-cabc-4012-868c-d0b5976a6bb0"},"vehicle_type_id":"4","last_reported":1702069595,"current_range_meters":29200,"station_id":"ce4bhp92rcd13ifvqhbg","pricing_plan_id":"free"},{"bike_id":"0f7a9644-c470-46e7-ae97-75a010349f8b","system_id":"levelo_inurba_marseille","lat":43.317121,"lon":5.423936,"is_reserved":false,"is_disabled":false,"rental_uris":{"android":"levelo://app?vid=0f7a9644-c470-46e7-ae97-75a010349f8b","ios":"levelo://app?vid=0f7a9644-c470-46e7-ae97-75a010349f8b"},"vehicle_type_id":"4","last_reported":1702069595,"current_range_meters":26000,"station_id":"ce4bhp92rcd13ifvqhbg","pricing_plan_id":"free"},{"bike_id":"fc4bcc5b-5f4e-42a1-8cca-78d5c651475f","system_id":"levelo_inurba_marseille","lat":43.317121,"lon":5.423936,"is_reserved":false,"is_disabled":false,"rental_uris":{"android":"levelo://app?vid=fc4bcc5b-5f4e-42a1-8cca-78d5c651475f","ios":"levelo://app?vid=fc4bcc5b-5f4e-42a1-8cca-78d5c651475f"},"vehicle_type_id":"4","last_reported":1702069595,"current_range_meters":0,"station_id":"ce4bhp92rcd13ifvqhbg","pricing_plan_id":"free"},{"bike_id":"48e3df08-57dc-434d-a06c-f6f751cd351f","system_id":"levelo_inurba_marseille","lat":43.310785,"lon":5.424305,"is_reserved":false,"is_disabled":false,"rental_uris":{"android":"levelo://app?vid=48e3df08-57dc-434d-a06c-f6f751cd351f","ios":"levelo://app?vid=48e3df08-57dc-434d-a06c-f6f751cd351f"},"vehicle_type_id":"4","last_reported":1702069595,"current_range_meters":22800,"station_id":"ce4bhp92rcd13ifvqhag","pricing_plan_id":"free"},{"bike_id":"fe6596e6-baa8-4e45-9baf-7421815b8310","system_id":"levelo_inurba_marseille","lat":43.31082,"lon":5.42431,"is_reserved":false,"is_disabled":false,"rental_uris":{"android":"levelo://app?vid=fe6596e6-baa8-4e45-9baf-7421815b8310","ios":"levelo://app?vid=fe6596e6-baa8-4e45-9baf-7421815b8310"},"vehicle_type_id":"4","last_reported":1702069595,"current_range_meters":18400,"station_id":"ce4bhp92rcd13ifvqhag","pricing_plan_id":"free"},{"bike_id":"e6ff414d-6f05-44d2-b7c6-4a89a6fc64e2","system_id":"levelo_inurba_marseille","lat":43.310838,"lon":5.424316,"is_reserved":false,"is_disabled":false,"rental_uris":{"android":"levelo://app?vid=e6ff414d-6f05-44d2-b7c6-4a89a6fc64e2","ios":"levelo://app?vid=e6ff414d-6f05-44d2-b7c6-4a89a6fc64e2"},"vehicle_type_id":"4","last_reported":1702069595,"current_range_meters":7200,"station_id":"ce4bhp92rcd13ifvqhag","pricing_plan_id":"free"},{"bike_id":"3382fddf-23bf-43e2-9be0-1a0233fdea3a","system_id":"levelo_inurba_marseille","lat":43.31082,"lon":5.42433,"is_reserved":false,"is_disabled":false,"rental_uris":{"android":"levelo://app?vid=3382fddf-23bf-43e2-9be0-1a0233fdea3a","ios":"levelo://app?vid=3382fddf-23bf-43e2-9be0-1a0233fdea3a"},"vehicle_type_id":"4","last_reported":1702069595,"current_range_meters":31200,"station_id":"ce4bhp92rcd13ifvqhag","pricing_plan_id":"free"},{"bike_id":"80038031-3601-4c51-b66a-c6c9131d41d1","system_id":"levelo_inurba_marseille","lat":43.310785,"lon":5.424305,"is_reserved":false,"is_disabled":false,"rental_uris":{"android":"levelo://app?vid=80038031-3601-4c51-b66a-c6c9131d41d1","ios":"levelo://app?vid=80038031-3601-4c51-b66a-c6c9131d41d1"},"vehicle_type_id":"4","last_reported":1702069595,"current_range_meters":22800,"station_id":"ce4bhp92rcd13ifvqhag","pricing_plan_id":"free"},{"bike_id":"63133364-316e-458e-b234-bbd4926c63fc","system_id":"levelo_inurba_marseille","lat":43.27583,"lon":5.39474,"is_reserved":false,"is_disabled":false,"rental_uris":{"android":"levelo://app?vid=63133364-316e-458e-b234-bbd4926c63fc","ios":"levelo://app?vid=63133364-316e-458e-b234-bbd4926c63fc"},"vehicle_type_id":"4","last_reported":1702069595,"current_range_meters":10800,"station_id":"","pricing_plan_id":"free"},{"bike_id":"998ac9bf-ef56-4afe-802b-f1b93d8fe82e","system_id":"levelo_inurba_marseille","lat":43.274099,"lon":5.394019,"is_reserved":false,"is_disabled":false,"rental_uris":{"android":"levelo://app?vid=998ac9bf-ef56-4afe-802b-f1b93d8fe82e","ios":"levelo://app?vid=998ac9bf-ef56-4afe-802b-f1b93d8fe82e"},"vehicle_type_id":"4","last_reported":1702069595,"current_range_meters":14400,"station_id":"ce4bhdp2rcd13ifvqf20","pricing_plan_id":"free"},{"bike_id":"5ed4ca3b-e38e-4196-acea-f278768787eb","system_id":"levelo_inurba_marseille","lat":43.295511,"lon":5.422926,"is_reserved":false,"is_disabled":false,"rental_uris":{"android":"levelo://app?vid=5ed4ca3b-e38e-4196-acea-f278768787eb","ios":"levelo://app?vid=5ed4ca3b-e38e-4196-acea-f278768787eb"},"vehicle_type_id":"4","last_reported":1702069595,"current_range_meters":14800,"station_id":"ce4bhph2rcd13ifvqhdg","pricing_plan_id":"free"},{"bike_id":"b0ace1ee-48c1-47ff-b8ca-0f59683651a4","system_id":"levelo_inurba_marseille","lat":43.295523,"lon":5.422926,"is_reserved":false,"is_disabled":false,"rental_uris":{"android":"levelo://app?vid=b0ace1ee-48c1-47ff-b8ca-0f59683651a4","ios":"levelo://app?vid=b0ace1ee-48c1-47ff-b8ca-0f59683651a4"},"vehicle_type_id":"4","last_reported":1702069595,"current_range_meters":30000,"station_id":"ce4bhph2rcd13ifvqhdg","pricing_plan_id":"free"},{"bike_id":"4f9e48a0-eacd-4e63-bd3c-330b19e5c041","system_id":"levelo_inurba_marseille","lat":43.295511,"lon":5.422926,"is_reserved":false,"is_disabled":false,"rental_uris":{"android":"levelo://app?vid=4f9e48a0-eacd-4e63-bd3c-330b19e5c041","ios":"levelo://app?vid=4f9e48a0-eacd-4e63-bd3c-330b19e5c041"},"vehicle_type_id":"4","last_reported":1702069595,"current_range_meters":16400,"station_id":"ce4bhph2rcd13ifvqhdg","pricing_plan_id":"free"},{"bike_id":"aed20910-2f26-49bf-9766-c6bdcb7981dd","system_id":"levelo_inurba_marseille","lat":43.295511,"lon":5.422926,"is_reserved":false,"is_disabled":false,"rental_uris":{"android":"levelo://app?vid=aed20910-2f26-49bf-9766-c6bdcb7981dd","ios":"levelo://app?vid=aed20910-2f26-49bf-9766-c6bdcb7981dd"},"vehicle_type_id":"4","last_reported":1702069595,"current_range_meters":3200,"station_id":"ce4bhph2rcd13ifvqhdg","pricing_plan_id":"free"},{"bike_id":"8f021145-48f8-459b-aef0-f8921e18b0a0","system_id":"levelo_inurba_marseille","lat":43.27214,"lon":5.3925,"is_reserved":false,"is_disabled":false,"rental_uris":{"android":"levelo://app?vid=8f021145-48f8-459b-aef0-f8921e18b0a0","ios":"levelo://app?vid=8f021145-48f8-459b-aef0-f8921e18b0a0"},"vehicle_type_id":"4","last_reported":1702069595,"current_range_meters":4000,"station_id":"","pricing_plan_id":"free"},{"bike_id":"ddb9f1cb-003b-4de8-b08b-b72e561ee63d","system_id":"levelo_inurba_marseille","lat":43.269467,"lon":5.386439,"is_reserved":false,"is_disabled":false,"rental_uris":{"android":"levelo://app?vid=ddb9f1cb-003b-4de8-b08b-b72e561ee63d","ios":"levelo://app?vid=ddb9f1cb-003b-4de8-b08b-b72e561ee63d"},"vehicle_type_id":"4","last_reported":1702069595,"current_range_meters":10800,"station_id":"ce4bhh92rcd13ifvqfh0","pricing_plan_id":"free"},{"bike_id":"c103b478-e4fe-4671-a366-d10af3e865c2","system_id":"levelo_inurba_marseille","lat":43.279396,"lon":5.410427,"is_reserved":false,"is_disabled":false,"rental_uris":{"android":"levelo://app?vid=c103b478-e4fe-4671-a366-d10af3e865c2","ios":"levelo://app?vid=c103b478-e4fe-4671-a366-d10af3e865c2"},"vehicle_type_id":"4","last_reported":1702069595,"current_range_meters":800,"station_id":"ce4bhnp2rcd13ifvqh0g","pricing_plan_id":"free"},{"bike_id":"5def4823-0c2e-424f-8b70-93316b88fa33","system_id":"levelo_inurba_marseille","lat":43.269319,"lon":5.389397,"is_reserved":false,"is_disabled":false,"rental_uris":{"android":"levelo://app?vid=5def4823-0c2e-424f-8b70-93316b88fa33","ios":"levelo://app?vid=5def4823-0c2e-424f-8b70-93316b88fa33"},"vehicle_type_id":"4","last_reported":1702069595,"current_range_meters":15200,"station_id":"ce4bhhh2rcd13ifvqfl0","pricing_plan_id":"free"},{"bike_id":"5934d825-14b1-42a1-9779-33d238710290","system_id":"levelo_inurba_marseille","lat":43.26681,"lon":5.382694,"is_reserved":false,"is_disabled":false,"rental_uris":{"android":"levelo://app?vid=5934d825-14b1-42a1-9779-33d238710290","ios":"levelo://app?vid=5934d825-14b1-42a1-9779-33d238710290"},"vehicle_type_id":"4","last_reported":1702069595,"current_range_meters":24000,"station_id":"ce4bhg92rcd13ifvqf90","pricing_plan_id":"free"},{"bike_id":"607ff236-2d1c-4ee7-8be3-36b424c6990b","system_id":"levelo_inurba_marseille","lat":43.27996,"lon":5.416624,"is_reserved":false,"is_disabled":false,"rental_uris":{"android":"levelo://app?vid=607ff236-2d1c-4ee7-8be3-36b424c6990b","ios":"levelo://app?vid=607ff236-2d1c-4ee7-8be3-36b424c6990b"},"vehicle_type_id":"4","last_reported":1702069595,"current_range_meters":10800,"station_id":"ce4bho12rcd13ifvqh1g","pricing_plan_id":"free"},{"bike_id":"12001040-7707-4d86-9b54-664e00437e73","system_id":"levelo_inurba_marseille","lat":43.279881,"lon":5.416579,"is_reserved":false,"is_disabled":false,"rental_uris":{"android":"levelo://app?vid=12001040-7707-4d86-9b54-664e00437e73","ios":"levelo://app?vid=12001040-7707-4d86-9b54-664e00437e73"},"vehicle_type_id":"4","last_reported":1702069595,"current_range_meters":5600,"station_id":"ce4bho12rcd13ifvqh1g","pricing_plan_id":"free"},{"bike_id":"139d5a25-9461-4d96-8287-d16974f10fd8","system_id":"levelo_inurba_marseille","lat":43.27985,"lon":5.41659,"is_reserved":false,"is_disabled":false,"rental_uris":{"android":"levelo://app?vid=139d5a25-9461-4d96-8287-d16974f10fd8","ios":"levelo://app?vid=139d5a25-9461-4d96-8287-d16974f10fd8"},"vehicle_type_id":"4","last_reported":1702069595,"current_range_meters":6000,"station_id":"ce4bho12rcd13ifvqh1g","pricing_plan_id":"free"},{"bike_id":"77bcbec6-2ceb-4e41-8b42-6c7f1dd8d6d2","system_id":"levelo_inurba_marseille","lat":43.267966,"lon":5.393976,"is_reserved":false,"is_disabled":false,"rental_uris":{"android":"levelo://app?vid=77bcbec6-2ceb-4e41-8b42-6c7f1dd8d6d2","ios":"levelo://app?vid=77bcbec6-2ceb-4e41-8b42-6c7f1dd8d6d2"},"vehicle_type_id":"4","last_reported":1702069595,"current_range_meters":3200,"station_id":"ce4bhh12rcd13ifvqfg0","pricing_plan_id":"free"},{"bike_id":"835bce3f-eb1e-4df5-8866-bd6727558ecd","system_id":"levelo_inurba_marseille","lat":43.2657,"lon":5.39008,"is_reserved":false,"is_disabled":false,"rental_uris":{"android":"levelo://app?vid=835bce3f-eb1e-4df5-8866-bd6727558ecd","ios":"levelo://app?vid=835bce3f-eb1e-4df5-8866-bd6727558ecd"},"vehicle_type_id":"4","last_reported":1702069595,"current_range_meters":24400,"station_id":"ce4bhe12rcd13ifvqf30","pricing_plan_id":"free"},{"bike_id":"6e7b4200-1948-48d3-accd-666077fbbf44","system_id":"levelo_inurba_marseille","lat":43.26949,"lon":5.40262,"is_reserved":false,"is_disabled":false,"rental_uris":{"android":"levelo://app?vid=6e7b4200-1948-48d3-accd-666077fbbf44","ios":"levelo://app?vid=6e7b4200-1948-48d3-accd-666077fbbf44"},"vehicle_type_id":"4","last_reported":1702069595,"current_range_meters":11600,"station_id":"cjm6bp8fraef2m0cb0m0","pricing_plan_id":"free"},{"bike_id":"17079219-e5bb-4a89-b7d3-3d1056cca7e6","system_id":"levelo_inurba_marseille","lat":43.317104,"lon":5.436818,"is_reserved":false,"is_disabled":false,"rental_uris":{"android":"levelo://app?vid=17079219-e5bb-4a89-b7d3-3d1056cca7e6","ios":"levelo://app?vid=17079219-e5bb-4a89-b7d3-3d1056cca7e6"},"vehicle_type_id":"4","last_reported":1702069595,"current_range_meters":8400,"station_id":"ce4bhp92rcd13ifvqhcg","pricing_plan_id":"free"},{"bike_id":"10bd98e0-d0a2-4a25-a407-cc97034aa68c","system_id":"levelo_inurba_marseille","lat":43.3171,"lon":5.43701,"is_reserved":false,"is_disabled":false,"rental_uris":{"android":"levelo://app?vid=10bd98e0-d0a2-4a25-a407-cc97034aa68c","ios":"levelo://app?vid=10bd98e0-d0a2-4a25-a407-cc97034aa68c"},"vehicle_type_id":"4","last_reported":1702069595,"current_range_meters":11200,"station_id":"ce4bhp92rcd13ifvqhcg","pricing_plan_id":"free"},{"bike_id":"6e703857-9603-4952-8898-0e1d4c0ec7de","system_id":"levelo_inurba_marseille","lat":43.261782,"lon":5.374515,"is_reserved":false,"is_disabled":false,"rental_uris":{"android":"levelo://app?vid=6e703857-9603-4952-8898-0e1d4c0ec7de","ios":"levelo://app?vid=6e703857-9603-4952-8898-0e1d4c0ec7de"},"vehicle_type_id":"4","last_reported":1702069595,"current_range_meters":6400,"station_id":"ce4bhgp2rcd13ifvqfc0","pricing_plan_id":"free"},{"bike_id":"26a316ce-cbd3-4799-8b70-99bfb6f0c11e","system_id":"levelo_inurba_marseille","lat":43.317104,"lon":5.436818,"is_reserved":false,"is_disabled":false,"rental_uris":{"android":"levelo://app?vid=26a316ce-cbd3-4799-8b70-99bfb6f0c11e","ios":"levelo://app?vid=26a316ce-cbd3-4799-8b70-99bfb6f0c11e"},"vehicle_type_id":"4","last_reported":1702069595,"current_range_meters":30800,"station_id":"ce4bhp92rcd13ifvqhcg","pricing_plan_id":"free"},{"bike_id":"2c28e409-64d2-48bf-b235-80e7348c2064","system_id":"levelo_inurba_marseille","lat":43.271368,"lon":5.40928,"is_reserved":false,"is_disabled":false,"rental_uris":{"android":"levelo://app?vid=2c28e409-64d2-48bf-b235-80e7348c2064","ios":"levelo://app?vid=2c28e409-64d2-48bf-b235-80e7348c2064"},"vehicle_type_id":"4","last_reported":1702069595,"current_range_meters":23600,"station_id":"ce4bhl12rcd13ifvqgf0","pricing_plan_id":"free"},{"bike_id":"668edf61-6960-468f-942e-6a5cc5a21a93","system_id":"levelo_inurba_marseille","lat":43.271388,"lon":5.409269,"is_reserved":false,"is_disabled":false,"rental_uris":{"android":"levelo://app?vid=668edf61-6960-468f-942e-6a5cc5a21a93","ios":"levelo://app?vid=668edf61-6960-468f-942e-6a5cc5a21a93"},"vehicle_type_id":"4","last_reported":1702069595,"current_range_meters":26800,"station_id":"ce4bhl12rcd13ifvqgf0","pricing_plan_id":"free"},{"bike_id":"c7243c68-1ec1-41a1-b9f1-d075e1e538d2","system_id":"levelo_inurba_marseille","lat":43.267959,"lon":5.402685,"is_reserved":false,"is_disabled":false,"rental_uris":{"android":"levelo://app?vid=c7243c68-1ec1-41a1-b9f1-d075e1e538d2","ios":"levelo://app?vid=c7243c68-1ec1-41a1-b9f1-d075e1e538d2"},"vehicle_type_id":"4","last_reported":1702069595,"current_range_meters":23600,"station_id":"ce501612rcd8frsf0b60","pricing_plan_id":"free"},{"bike_id":"706de2ca-d32a-42a2-9826-ef7d16f89a5b","system_id":"levelo_inurba_marseille","lat":43.267959,"lon":5.402687,"is_reserved":false,"is_disabled":false,"rental_uris":{"android":"levelo://app?vid=706de2ca-d32a-42a2-9826-ef7d16f89a5b","ios":"levelo://app?vid=706de2ca-d32a-42a2-9826-ef7d16f89a5b"},"vehicle_type_id":"4","last_reported":1702069595,"current_range_meters":21600,"station_id":"ce501612rcd8frsf0b60","pricing_plan_id":"free"},{"bike_id":"ca4db8a8-5b98-4b78-bc3d-514f38028a3d","system_id":"levelo_inurba_marseille","lat":43.298768,"lon":5.43643,"is_reserved":false,"is_disabled":false,"rental_uris":{"android":"levelo://app?vid=ca4db8a8-5b98-4b78-bc3d-514f38028a3d","ios":"levelo://app?vid=ca4db8a8-5b98-4b78-bc3d-514f38028a3d"},"vehicle_type_id":"4","last_reported":1702069595,"current_range_meters":31200,"station_id":"ce4bhpp2rcd13ifvqhfg","pricing_plan_id":"free"},{"bike_id":"4f68f183-a711-4386-a731-e8ea8e2f115e","system_id":"levelo_inurba_marseille","lat":43.298768,"lon":5.43643,"is_reserved":false,"is_disabled":false,"rental_uris":{"android":"levelo://app?vid=4f68f183-a711-4386-a731-e8ea8e2f115e","ios":"levelo://app?vid=4f68f183-a711-4386-a731-e8ea8e2f115e"},"vehicle_type_id":"4","last_reported":1702069595,"current_range_meters":26000,"station_id":"ce4bhpp2rcd13ifvqhfg","pricing_plan_id":"free"},{"bike_id":"6b17b896-99f2-456b-929e-df3811eeb274","system_id":"levelo_inurba_marseille","lat":43.298768,"lon":5.43643,"is_reserved":false,"is_disabled":false,"rental_uris":{"android":"levelo://app?vid=6b17b896-99f2-456b-929e-df3811eeb274","ios":"levelo://app?vid=6b17b896-99f2-456b-929e-df3811eeb274"},"vehicle_type_id":"4","last_reported":1702069595,"current_range_meters":28800,"station_id":"ce4bhpp2rcd13ifvqhfg","pricing_plan_id":"free"},{"bike_id":"5215ad78-0811-4492-88ee-04afc35bf3a5","system_id":"levelo_inurba_marseille","lat":43.298768,"lon":5.43643,"is_reserved":false,"is_disabled":false,"rental_uris":{"android":"levelo://app?vid=5215ad78-0811-4492-88ee-04afc35bf3a5","ios":"levelo://app?vid=5215ad78-0811-4492-88ee-04afc35bf3a5"},"vehicle_type_id":"4","last_reported":1702069595,"current_range_meters":31200,"station_id":"ce4bhpp2rcd13ifvqhfg","pricing_plan_id":"free"},{"bike_id":"83e2018e-7127-4415-8bbf-2e347a9c6750","system_id":"levelo_inurba_marseille","lat":43.298934,"lon":5.436609,"is_reserved":false,"is_disabled":false,"rental_uris":{"android":"levelo://app?vid=83e2018e-7127-4415-8bbf-2e347a9c6750","ios":"levelo://app?vid=83e2018e-7127-4415-8bbf-2e347a9c6750"},"vehicle_type_id":"4","last_reported":1702069595,"current_range_meters":2000,"station_id":"ce4bhpp2rcd13ifvqhfg","pricing_plan_id":"free"},{"bike_id":"70c52fa1-91be-4fbd-9217-7a0c668f9310","system_id":"levelo_inurba_marseille","lat":43.29888,"lon":5.43667,"is_reserved":false,"is_disabled":false,"rental_uris":{"android":"levelo://app?vid=70c52fa1-91be-4fbd-9217-7a0c668f9310","ios":"levelo://app?vid=70c52fa1-91be-4fbd-9217-7a0c668f9310"},"vehicle_type_id":"4","last_reported":1702069595,"current_range_meters":28000,"station_id":"ce4bhpp2rcd13ifvqhfg","pricing_plan_id":"free"},{"bike_id":"c16ba598-e268-423a-ba8d-6002d2a98117","system_id":"levelo_inurba_marseille","lat":43.298768,"lon":5.43643,"is_reserved":false,"is_disabled":false,"rental_uris":{"android":"levelo://app?vid=c16ba598-e268-423a-ba8d-6002d2a98117","ios":"levelo://app?vid=c16ba598-e268-423a-ba8d-6002d2a98117"},"vehicle_type_id":"4","last_reported":1702069595,"current_range_meters":27200,"station_id":"ce4bhpp2rcd13ifvqhfg","pricing_plan_id":"free"},{"bike_id":"f56607a5-8c0d-4214-a86e-b954d1fd309d","system_id":"levelo_inurba_marseille","lat":43.28151,"lon":5.42638,"is_reserved":false,"is_disabled":false,"rental_uris":{"android":"levelo://app?vid=f56607a5-8c0d-4214-a86e-b954d1fd309d","ios":"levelo://app?vid=f56607a5-8c0d-4214-a86e-b954d1fd309d"},"vehicle_type_id":"4","last_reported":1702069595,"current_range_meters":2800,"station_id":"ce4bhnh2rcd13ifvqgug","pricing_plan_id":"free"},{"bike_id":"2d70b9fc-8d42-4ce5-98c1-cdfca249cc2c","system_id":"levelo_inurba_marseille","lat":43.281548,"lon":5.42643,"is_reserved":false,"is_disabled":false,"rental_uris":{"android":"levelo://app?vid=2d70b9fc-8d42-4ce5-98c1-cdfca249cc2c","ios":"levelo://app?vid=2d70b9fc-8d42-4ce5-98c1-cdfca249cc2c"},"vehicle_type_id":"4","last_reported":1702069595,"current_range_meters":16400,"station_id":"ce4bhnh2rcd13ifvqgug","pricing_plan_id":"free"},{"bike_id":"000acef0-d2f9-45d3-985c-f854071a0283","system_id":"levelo_inurba_marseille","lat":43.275028,"lon":5.424534,"is_reserved":false,"is_disabled":false,"rental_uris":{"android":"levelo://app?vid=000acef0-d2f9-45d3-985c-f854071a0283","ios":"levelo://app?vid=000acef0-d2f9-45d3-985c-f854071a0283"},"vehicle_type_id":"4","last_reported":1702069595,"current_range_meters":26800,"station_id":"ce4bhn92rcd13ifvqgrg","pricing_plan_id":"free"},{"bike_id":"ca85992f-ca62-4604-8303-cae56285a00d","system_id":"levelo_inurba_marseille","lat":43.258224,"lon":5.394369,"is_reserved":false,"is_disabled":false,"rental_uris":{"android":"levelo://app?vid=ca85992f-ca62-4604-8303-cae56285a00d","ios":"levelo://app?vid=ca85992f-ca62-4604-8303-cae56285a00d"},"vehicle_type_id":"4","last_reported":1702069595,"current_range_meters":10400,"station_id":"ce4bhip2rcd13ifvqft0","pricing_plan_id":"free"},{"bike_id":"a78d5458-7f89-49f3-9e9c-277d880ae451","system_id":"levelo_inurba_marseille","lat":43.258224,"lon":5.394369,"is_reserved":false,"is_disabled":false,"rental_uris":{"android":"levelo://app?vid=a78d5458-7f89-49f3-9e9c-277d880ae451","ios":"levelo://app?vid=a78d5458-7f89-49f3-9e9c-277d880ae451"},"vehicle_type_id":"4","last_reported":1702069595,"current_range_meters":20800,"station_id":"ce4bhip2rcd13ifvqft0","pricing_plan_id":"free"},{"bike_id":"da69c03d-8b1e-42a8-b760-dd4ff8060f1e","system_id":"levelo_inurba_marseille","lat":43.25493,"lon":5.37647,"is_reserved":false,"is_disabled":false,"rental_uris":{"android":"levelo://app?vid=da69c03d-8b1e-42a8-b760-dd4ff8060f1e","ios":"levelo://app?vid=da69c03d-8b1e-42a8-b760-dd4ff8060f1e"},"vehicle_type_id":"4","last_reported":1702069595,"current_range_meters":26800,"station_id":"ce4bhh12rcd13ifvqff0","pricing_plan_id":"free"},{"bike_id":"6ba654fd-0962-4a10-910c-7ee49fa88cc1","system_id":"levelo_inurba_marseille","lat":43.270721,"lon":5.422764,"is_reserved":false,"is_disabled":false,"rental_uris":{"android":"levelo://app?vid=6ba654fd-0962-4a10-910c-7ee49fa88cc1","ios":"levelo://app?vid=6ba654fd-0962-4a10-910c-7ee49fa88cc1"},"vehicle_type_id":"4","last_reported":1702069595,"current_range_meters":12000,"station_id":"ce4bhk92rcd13ifvqgb0","pricing_plan_id":"free"},{"bike_id":"adc8557e-d91f-4fd5-848f-ea92ff49ccc1","system_id":"levelo_inurba_marseille","lat":43.270721,"lon":5.422764,"is_reserved":false,"is_disabled":false,"rental_uris":{"android":"levelo://app?vid=adc8557e-d91f-4fd5-848f-ea92ff49ccc1","ios":"levelo://app?vid=adc8557e-d91f-4fd5-848f-ea92ff49ccc1"},"vehicle_type_id":"4","last_reported":1702069595,"current_range_meters":8000,"station_id":"ce4bhk92rcd13ifvqgb0","pricing_plan_id":"free"},{"bike_id":"bca9cc40-1771-4266-9a81-e9666469cf1c","system_id":"levelo_inurba_marseille","lat":43.257079,"lon":5.411051,"is_reserved":false,"is_disabled":false,"rental_uris":{"android":"levelo://app?vid=bca9cc40-1771-4266-9a81-e9666469cf1c","ios":"levelo://app?vid=bca9cc40-1771-4266-9a81-e9666469cf1c"},"vehicle_type_id":"4","last_reported":1702069595,"current_range_meters":7200,"station_id":"ce4bhkp2rcd13ifvqgd0","pricing_plan_id":"free"},{"bike_id":"4bea3748-70d0-4f45-9e78-0d35b55884f7","system_id":"levelo_inurba_marseille","lat":43.250009,"lon":5.389195,"is_reserved":false,"is_disabled":false,"rental_uris":{"android":"levelo://app?vid=4bea3748-70d0-4f45-9e78-0d35b55884f7","ios":"levelo://app?vid=4bea3748-70d0-4f45-9e78-0d35b55884f7"},"vehicle_type_id":"4","last_reported":1702069595,"current_range_meters":2400,"station_id":"ce4bhgp2rcd13ifvqfd0","pricing_plan_id":"free"},{"bike_id":"b4dd9ddd-e6f8-4aa7-aeba-a309f73ed6f1","system_id":"levelo_inurba_marseille","lat":43.24805,"lon":5.3746,"is_reserved":false,"is_disabled":false,"rental_uris":{"android":"levelo://app?vid=b4dd9ddd-e6f8-4aa7-aeba-a309f73ed6f1","ios":"levelo://app?vid=b4dd9ddd-e6f8-4aa7-aeba-a309f73ed6f1"},"vehicle_type_id":"4","last_reported":1702069595,"current_range_meters":13600,"station_id":"ce4bhgh2rcd13ifvqfb0","pricing_plan_id":"free"},{"bike_id":"8508fa21-fb93-4b49-a453-60acc70e61cc","system_id":"levelo_inurba_marseille","lat":43.2479,"lon":5.374457,"is_reserved":false,"is_disabled":false,"rental_uris":{"android":"levelo://app?vid=8508fa21-fb93-4b49-a453-60acc70e61cc","ios":"levelo://app?vid=8508fa21-fb93-4b49-a453-60acc70e61cc"},"vehicle_type_id":"4","last_reported":1702069595,"current_range_meters":19600,"station_id":"ce4bhgh2rcd13ifvqfb0","pricing_plan_id":"free"},{"bike_id":"74383d30-662d-4e05-972f-8046308ae296","system_id":"levelo_inurba_marseille","lat":43.2479,"lon":5.374457,"is_reserved":false,"is_disabled":false,"rental_uris":{"android":"levelo://app?vid=74383d30-662d-4e05-972f-8046308ae296","ios":"levelo://app?vid=74383d30-662d-4e05-972f-8046308ae296"},"vehicle_type_id":"4","last_reported":1702069595,"current_range_meters":18000,"station_id":"ce4bhgh2rcd13ifvqfb0","pricing_plan_id":"free"},{"bike_id":"1374c76f-d6a2-4c6e-bccb-718d428b20a1","system_id":"levelo_inurba_marseille","lat":43.246461,"lon":5.389014,"is_reserved":false,"is_disabled":false,"rental_uris":{"android":"levelo://app?vid=1374c76f-d6a2-4c6e-bccb-718d428b20a1","ios":"levelo://app?vid=1374c76f-d6a2-4c6e-bccb-718d428b20a1"},"vehicle_type_id":"4","last_reported":1702069595,"current_range_meters":27200,"station_id":"ce4bhg12rcd13ifvqf60","pricing_plan_id":"free"},{"bike_id":"758b9b65-b402-4179-b762-f5848163a69d","system_id":"levelo_inurba_marseille","lat":43.243884,"lon":5.370736,"is_reserved":false,"is_disabled":false,"rental_uris":{"android":"levelo://app?vid=758b9b65-b402-4179-b762-f5848163a69d","ios":"levelo://app?vid=758b9b65-b402-4179-b762-f5848163a69d"},"vehicle_type_id":"4","last_reported":1702069595,"current_range_meters":28000,"station_id":"ce4bhhh2rcd13ifvqfk0","pricing_plan_id":"free"},{"bike_id":"838cf910-38c0-4679-ac31-6164d3144909","system_id":"levelo_inurba_marseille","lat":43.243884,"lon":5.370737,"is_reserved":false,"is_disabled":false,"rental_uris":{"android":"levelo://app?vid=838cf910-38c0-4679-ac31-6164d3144909","ios":"levelo://app?vid=838cf910-38c0-4679-ac31-6164d3144909"},"vehicle_type_id":"4","last_reported":1702069595,"current_range_meters":26000,"station_id":"ce4bhhh2rcd13ifvqfk0","pricing_plan_id":"free"},{"bike_id":"9bdb7ab8-9ffd-4fd0-a254-22e705c6f751","system_id":"levelo_inurba_marseille","lat":43.243884,"lon":5.370736,"is_reserved":false,"is_disabled":false,"rental_uris":{"android":"levelo://app?vid=9bdb7ab8-9ffd-4fd0-a254-22e705c6f751","ios":"levelo://app?vid=9bdb7ab8-9ffd-4fd0-a254-22e705c6f751"},"vehicle_type_id":"4","last_reported":1702069595,"current_range_meters":27600,"station_id":"ce4bhhh2rcd13ifvqfk0","pricing_plan_id":"free"},{"bike_id":"b3705516-da65-4902-b345-4cc53e261fdf","system_id":"levelo_inurba_marseille","lat":43.2408,"lon":5.37759,"is_reserved":false,"is_disabled":false,"rental_uris":{"android":"levelo://app?vid=b3705516-da65-4902-b345-4cc53e261fdf","ios":"levelo://app?vid=b3705516-da65-4902-b345-4cc53e261fdf"},"vehicle_type_id":"4","last_reported":1702069595,"current_range_meters":20800,"station_id":"","pricing_plan_id":"free"},{"bike_id":"6791efa3-078c-4678-ab27-3976ff2fdcc0","system_id":"levelo_inurba_marseille","lat":43.240623,"lon":5.377642,"is_reserved":false,"is_disabled":false,"rental_uris":{"android":"levelo://app?vid=6791efa3-078c-4678-ab27-3976ff2fdcc0","ios":"levelo://app?vid=6791efa3-078c-4678-ab27-3976ff2fdcc0"},"vehicle_type_id":"4","last_reported":1702069595,"current_range_meters":21600,"station_id":"ce4bhnp2rcd13ifvqgvg","pricing_plan_id":"free"},{"bike_id":"93954539-37ab-42cb-8148-c6cd6174d0ce","system_id":"levelo_inurba_marseille","lat":43.239588,"lon":5.366238,"is_reserved":false,"is_disabled":false,"rental_uris":{"android":"levelo://app?vid=93954539-37ab-42cb-8148-c6cd6174d0ce","ios":"levelo://app?vid=93954539-37ab-42cb-8148-c6cd6174d0ce"},"vehicle_type_id":"4","last_reported":1702069595,"current_range_meters":31600,"station_id":"ce4bhi12rcd13ifvqfp0","pricing_plan_id":"free"},{"bike_id":"07f04f98-06c9-4309-b3fe-4415621f48f3","system_id":"levelo_inurba_marseille","lat":43.239588,"lon":5.366238,"is_reserved":false,"is_disabled":false,"rental_uris":{"android":"levelo://app?vid=07f04f98-06c9-4309-b3fe-4415621f48f3","ios":"levelo://app?vid=07f04f98-06c9-4309-b3fe-4415621f48f3"},"vehicle_type_id":"4","last_reported":1702069595,"current_range_meters":22000,"station_id":"ce4bhi12rcd13ifvqfp0","pricing_plan_id":"free"},{"bike_id":"19de1d90-0ef7-4697-bd3a-3e98bd2bf2e7","system_id":"levelo_inurba_marseille","lat":43.239588,"lon":5.366238,"is_reserved":false,"is_disabled":false,"rental_uris":{"android":"levelo://app?vid=19de1d90-0ef7-4697-bd3a-3e98bd2bf2e7","ios":"levelo://app?vid=19de1d90-0ef7-4697-bd3a-3e98bd2bf2e7"},"vehicle_type_id":"4","last_reported":1702069595,"current_range_meters":31200,"station_id":"ce4bhi12rcd13ifvqfp0","pricing_plan_id":"free"},{"bike_id":"c044812f-23c8-40b9-9235-f3a1ed3758bf","system_id":"levelo_inurba_marseille","lat":43.239588,"lon":5.366238,"is_reserved":false,"is_disabled":false,"rental_uris":{"android":"levelo://app?vid=c044812f-23c8-40b9-9235-f3a1ed3758bf","ios":"levelo://app?vid=c044812f-23c8-40b9-9235-f3a1ed3758bf"},"vehicle_type_id":"4","last_reported":1702069595,"current_range_meters":18000,"station_id":"ce4bhi12rcd13ifvqfp0","pricing_plan_id":"free"},{"bike_id":"97560a92-af21-4d84-af2f-9a915168f03f","system_id":"levelo_inurba_marseille","lat":43.241782,"lon":5.397261,"is_reserved":false,"is_disabled":false,"rental_uris":{"android":"levelo://app?vid=97560a92-af21-4d84-af2f-9a915168f03f","ios":"levelo://app?vid=97560a92-af21-4d84-af2f-9a915168f03f"},"vehicle_type_id":"4","last_reported":1702069595,"current_range_meters":19200,"station_id":"ce4bhn12rcd13ifvqgpg","pricing_plan_id":"free"},{"bike_id":"1d8e9bd7-e6ff-447e-b845-0049da0206d3","system_id":"levelo_inurba_marseille","lat":43.231919,"lon":5.355532,"is_reserved":false,"is_disabled":false,"rental_uris":{"android":"levelo://app?vid=1d8e9bd7-e6ff-447e-b845-0049da0206d3","ios":"levelo://app?vid=1d8e9bd7-e6ff-447e-b845-0049da0206d3"},"vehicle_type_id":"4","last_reported":1702069595,"current_range_meters":6400,"station_id":"ce4bhu92rcd13ifvqi70","pricing_plan_id":"free"},{"bike_id":"c6004eb4-873a-4661-a0e7-ea9140f6bd61","system_id":"levelo_inurba_marseille","lat":43.231919,"lon":5.355532,"is_reserved":false,"is_disabled":false,"rental_uris":{"android":"levelo://app?vid=c6004eb4-873a-4661-a0e7-ea9140f6bd61","ios":"levelo://app?vid=c6004eb4-873a-4661-a0e7-ea9140f6bd61"},"vehicle_type_id":"4","last_reported":1702069595,"current_range_meters":30400,"station_id":"ce4bhu92rcd13ifvqi70","pricing_plan_id":"free"},{"bike_id":"d7354235-71f2-4aeb-aa26-9572f0d131ef","system_id":"levelo_inurba_marseille","lat":43.231794,"lon":5.400052,"is_reserved":false,"is_disabled":false,"rental_uris":{"android":"levelo://app?vid=d7354235-71f2-4aeb-aa26-9572f0d131ef","ios":"levelo://app?vid=d7354235-71f2-4aeb-aa26-9572f0d131ef"},"vehicle_type_id":"4","last_reported":1702069595,"current_range_meters":6400,"station_id":"ce4bhn12rcd13ifvqgqg","pricing_plan_id":"free"},{"bike_id":"1c690641-a72b-433d-b1af-d36beaec8f2e","system_id":"levelo_inurba_marseille","lat":43.231876,"lon":5.399891,"is_reserved":false,"is_disabled":false,"rental_uris":{"android":"levelo://app?vid=1c690641-a72b-433d-b1af-d36beaec8f2e","ios":"levelo://app?vid=1c690641-a72b-433d-b1af-d36beaec8f2e"},"vehicle_type_id":"4","last_reported":1702069595,"current_range_meters":29600,"station_id":"ce4bhn12rcd13ifvqgqg","pricing_plan_id":"free"},{"bike_id":"6c4620c0-0d4d-493f-9950-4fd3c4457696","system_id":"levelo_inurba_marseille","lat":43.231794,"lon":5.400052,"is_reserved":false,"is_disabled":false,"rental_uris":{"android":"levelo://app?vid=6c4620c0-0d4d-493f-9950-4fd3c4457696","ios":"levelo://app?vid=6c4620c0-0d4d-493f-9950-4fd3c4457696"},"vehicle_type_id":"4","last_reported":1702069595,"current_range_meters":31600,"station_id":"ce4bhn12rcd13ifvqgqg","pricing_plan_id":"free"},{"bike_id":"3aece95a-6827-475f-bdad-0c7db895cf00","system_id":"levelo_inurba_marseille","lat":43.231853,"lon":5.399917,"is_reserved":false,"is_disabled":false,"rental_uris":{"android":"levelo://app?vid=3aece95a-6827-475f-bdad-0c7db895cf00","ios":"levelo://app?vid=3aece95a-6827-475f-bdad-0c7db895cf00"},"vehicle_type_id":"4","last_reported":1702069595,"current_range_meters":6400,"station_id":"ce4bhn12rcd13ifvqgqg","pricing_plan_id":"free"},{"bike_id":"0ecf5d94-fb77-4683-9b33-b3a43c812fa1","system_id":"levelo_inurba_marseille","lat":43.23184,"lon":5.39989,"is_reserved":false,"is_disabled":false,"rental_uris":{"android":"levelo://app?vid=0ecf5d94-fb77-4683-9b33-b3a43c812fa1","ios":"levelo://app?vid=0ecf5d94-fb77-4683-9b33-b3a43c812fa1"},"vehicle_type_id":"4","last_reported":1702069595,"current_range_meters":20400,"station_id":"ce4bhn12rcd13ifvqgqg","pricing_plan_id":"free"},{"bike_id":"34665144-ce30-468a-b218-97ce329e0725","system_id":"levelo_inurba_marseille","lat":43.231794,"lon":5.400052,"is_reserved":false,"is_disabled":false,"rental_uris":{"android":"levelo://app?vid=34665144-ce30-468a-b218-97ce329e0725","ios":"levelo://app?vid=34665144-ce30-468a-b218-97ce329e0725"},"vehicle_type_id":"4","last_reported":1702069595,"current_range_meters":21600,"station_id":"ce4bhn12rcd13ifvqgqg","pricing_plan_id":"free"},{"bike_id":"be845917-f52e-4a9f-83ff-909546a09332","system_id":"levelo_inurba_marseille","lat":43.231794,"lon":5.400052,"is_reserved":false,"is_disabled":false,"rental_uris":{"android":"levelo://app?vid=be845917-f52e-4a9f-83ff-909546a09332","ios":"levelo://app?vid=be845917-f52e-4a9f-83ff-909546a09332"},"vehicle_type_id":"4","last_reported":1702069595,"current_range_meters":31200,"station_id":"ce4bhn12rcd13ifvqgqg","pricing_plan_id":"free"},{"bike_id":"5c4c14b0-15b0-4600-8dc6-cdbde00bef8b","system_id":"levelo_inurba_marseille","lat":43.231794,"lon":5.400052,"is_reserved":false,"is_disabled":false,"rental_uris":{"android":"levelo://app?vid=5c4c14b0-15b0-4600-8dc6-cdbde00bef8b","ios":"levelo://app?vid=5c4c14b0-15b0-4600-8dc6-cdbde00bef8b"},"vehicle_type_id":"4","last_reported":1702069595,"current_range_meters":5600,"station_id":"ce4bhn12rcd13ifvqgqg","pricing_plan_id":"free"},{"bike_id":"1364bb53-1feb-4c66-bc1b-fe1d777b1c2f","system_id":"levelo_inurba_marseille","lat":43.23181,"lon":5.39992,"is_reserved":false,"is_disabled":false,"rental_uris":{"android":"levelo://app?vid=1364bb53-1feb-4c66-bc1b-fe1d777b1c2f","ios":"levelo://app?vid=1364bb53-1feb-4c66-bc1b-fe1d777b1c2f"},"vehicle_type_id":"4","last_reported":1702069595,"current_range_meters":5600,"station_id":"ce4bhn12rcd13ifvqgqg","pricing_plan_id":"free"},{"bike_id":"ff1109c9-6591-43d3-b5cd-adc2963d746c","system_id":"levelo_inurba_marseille","lat":43.23178,"lon":5.39992,"is_reserved":false,"is_disabled":false,"rental_uris":{"android":"levelo://app?vid=ff1109c9-6591-43d3-b5cd-adc2963d746c","ios":"levelo://app?vid=ff1109c9-6591-43d3-b5cd-adc2963d746c"},"vehicle_type_id":"4","last_reported":1702069595,"current_range_meters":10400,"station_id":"ce4bhn12rcd13ifvqgqg","pricing_plan_id":"free"},{"bike_id":"dd3a6846-e009-4a2b-9715-3e42670dbb1b","system_id":"levelo_inurba_marseille","lat":43.231562,"lon":5.436933,"is_reserved":false,"is_disabled":false,"rental_uris":{"android":"levelo://app?vid=dd3a6846-e009-4a2b-9715-3e42670dbb1b","ios":"levelo://app?vid=dd3a6846-e009-4a2b-9715-3e42670dbb1b"},"vehicle_type_id":"4","last_reported":1702069595,"current_range_meters":22400,"station_id":"ce4bhmp2rcd13ifvqgog","pricing_plan_id":"free"}]}}