{"last_updated":1715447261,"ttl":30,"version":"2.2","data":{"bikes":[{"bike_id":"955b72c3-2146-4a1f-baec-7edf5f2e5270","system_id":"levelo_inurba_marseille","lat":43.31341,"lon":5.367098,"is_reserved":false,"is_disabled":false,"rental_uris":{"android":"levelo://app?vid=955b72c3-2146-4a1f-baec-7edf5f2e5270","ios":"levelo://app?vid=955b72c3-2146-4a1f-baec-7edf5f2e5270"},"vehicle_type_id":"4","last_reported":1715447261,"current_range_meters":1200,"station_id":"ce4bgr92rcd13ifvqc6g","pricing_plan_id":"cebpf4jnsgd1na2vs0mg"},{"bike_id":"312160d1-8fa2-468a-8ebf-fd60da90dc8a","system_id":"levelo_inurba_marseille","lat":43.312239,"lon":5.368562,"is_reserved":false,"is_disabled":false,"rental_uris":{"android":"levelo://app?vid=312160d1-8fa2-468a-8ebf-fd60da90dc8a","ios":"levelo://app?vid=312160d1-8fa2-468a-8ebf-fd60da90dc8a"},"vehicle_type_id":"4","last_reported":1715447261,"current_range_meters":27600,"station_id":"ce4bgl92rcd13ifvqbq0","pricing_plan_id":"cebpf4jnsgd1na2vs0mg"},{"bike_id":"b6d5adf7-e3cf-42dc-bd46-9e38f2887abe","system_id":"levelo_inurba_marseille","lat":43.312426,"lon":5.368516,"is_reserved":false,"is_disabled":false,"rental_uris":{"android":"levelo://app?vid=b6d5adf7-e3cf-42dc-bd46-9e38f2887abe","ios":"levelo://app?vid=b6d5adf7-e3cf-42dc-bd46-9e38f2887abe"},"vehicle_type_id":"4","last_reported":1715447261,"current_range_meters":5600,"station_id":"ce4bgl92rcd13ifvqbq0","pricing_plan_id":"cebpf4jnsgd1na2vs0mg"},{"bike_id":"8b9b009d-b510-433c-b85d-2dabb7f222b6","system_id":"levelo_inurba_marseille","lat":43.309076,"lon":5.368465,"is_reserved":false,"is_disabled":false,"rental_uris":{"android":"levelo://app?vid=8b9b009d-b510-433c-b85d-2dabb7f222b6","ios":"levelo://app?vid=8b9b009d-b510-433c-b85d-2dabb7f222b6"},"vehicle_type_id":"4","last_reported":1715447261,"current_range_meters":30800,"station_id":"ce4bgn92rcd13ifvqbvg","pricing_plan_id":"cebpf4jnsgd1na2vs0mg"},{"bike_id":"f4e0665c-b532-4f73-949f-7dd6ee177815","system_id":"levelo_inurba_marseille","lat":43.314811,"lon":5.373103,"is_reserved":false,"is_disabled":false,"rental_uris":{"android":"levelo://app?vid=f4e0665c-b532-4f73-949f-7dd6ee177815","ios":"levelo://app?vid=f4e0665c-b532-4f73-949f-7dd6ee177815"},"vehicle_type_id":"4","last_reported":1715447261,"current_range_meters":400,"station_id":"ce4bgt12rcd13ifvqcd0","pricing_plan_id":"cebpf4jnsgd1na2vs0mg"},{"bike_id":"e2653467-78d5-408e-88ab-012d5734f300","system_id":"levelo_inurba_marseille","lat":43.31494,"lon":5.37302,"is_reserved":false,"is_disabled":false,"rental_uris":{"android":"levelo://app?vid=e2653467-78d5-408e-88ab-012d5734f300","ios":"levelo://app?vid=e2653467-78d5-408e-88ab-012d5734f300"},"vehicle_type_id":"4","last_reported":1715447261,"current_range_meters":11600,"station_id":"ce4bgt12rcd13ifvqcd0","pricing_plan_id":"cebpf4jnsgd1na2vs0mg"},{"bike_id":"e5aaf2b9-77d6-4c43-9ada-6538193fc6ce","system_id":"levelo_inurba_marseille","lat":43.309039,"lon":5.371797,"is_reserved":false,"is_disabled":false,"rental_uris":{"android":"levelo://app?vid=e5aaf2b9-77d6-4c43-9ada-6538193fc6ce","ios":"levelo://app?vid=e5aaf2b9-77d6-4c43-9ada-6538193fc6ce"},"vehicle_type_id":"4","last_reported":1715447261,"current_range_meters":10000,"station_id":"ce4bguh2rcd13ifvqckg","pricing_plan_id":"cebpf4jnsgd1na2vs0mg"},{"bike_id":"0957e933-1b51-46a7-8089-090eb8de71ba","system_id":"levelo_inurba_marseille","lat":43.30889,"lon":5.37193,"is_reserved":false,"is_disabled":false,"rental_uris":{"android":"levelo://app?vid=0957e933-1b51-46a7-8089-090eb8de71ba","ios":"levelo://app?vid=0957e933-1b51-46a7-8089-090eb8de71ba"},"vehicle_type_id":"4","last_reported":1715447261,"current_range_meters":0,"station_id":"ce4bguh2rcd13ifvqckg","pricing_plan_id":"cebpf4jnsgd1na2vs0mg"},{"bike_id":"1b406b43-543b-4833-a716-17ce44920d28","system_id":"levelo_inurba_marseille","lat":43.309039,"lon":5.371797,"is_reserved":false,"is_disabled":false,"rental_uris":{"android":"levelo://app?vid=1b406b43-543b-4833-a716-17ce44920d28","ios":"levelo://app?vid=1b406b43-543b-4833-a716-17ce44920d28"},"vehicle_type_id":"4","last_reported":1715447261,"current_range_meters":23200,"station_id":"ce4bguh2rcd13ifvqckg","pricing_plan_id":"cebpf4jnsgd1na2vs0mg"},{"bike_id":"1f724e5d-c428-4d6a-b0e0-f3838a482c58","system_id":"levelo_inurba_marseille","lat":43.305714,"lon":5.365633,"is_reserved":false,"is_disabled":false,"rental_uris":{"android":"levelo://app?vid=1f724e5d-c428-4d6a-b0e0-f3838a482c58","ios":"levelo://app?vid=1f724e5d-c428-4d6a-b0e0-f3838a482c58"},"vehicle_type_id":"4","last_reported":1715447261,"current_range_meters":18800,"station_id":"ce4bgs12rcd13ifvqcag","pricing_plan_id":"cebpf4jnsgd1na2vs0mg"},{"bike_id":"a9b20bec-f307-4a80-89b8-7d3803114d52","system_id":"levelo_inurba_marseille","lat":43.305706,"lon":5.365654,"is_reserved":false,"is_disabled":false,"rental_uris":{"android":"levelo://app?vid=a9b20bec-f307-4a80-89b8-7d3803114d52","ios":"levelo://app?vid=a9b20bec-f307-4a80-89b8-7d3803114d52"},"vehicle_type_id":"4","last_reported":1715447261,"current_range_meters":4000,"station_id":"ce4bgs12rcd13ifvqcag","pricing_plan_id":"cebpf4jnsgd1na2vs0mg"},{"bike_id":"21a2e829-bd3e-4354-bfb6-5401ea8b2eb9","system_id":"levelo_inurba_marseille","lat":43.305714,"lon":5.365633,"is_reserved":false,"is_disabled":false,"rental_uris":{"android":"levelo://app?vid=21a2e829-bd3e-4354-bfb6-5401ea8b2eb9","ios":"levelo://app?vid=21a2e829-bd3e-4354-bfb6-5401ea8b2eb9"},"vehicle_type_id":"4","last_reported":1715447261,"current_range_meters":6400,"station_id":"ce4bgs12rcd13ifvqcag","pricing_plan_id":"cebpf4jnsgd1na2vs0mg"},{"bike_id":"cca02454-2bfc-494f-823f-2393b2ff121d","system_id":"levelo_inurba_marseille","lat":43.305714,"lon":5.365633,"is_reserved":false,"is_disabled":false,"rental_uris":{"android":"levelo://app?vid=cca02454-2bfc-494f-823f-2393b2ff121d","ios":"levelo://app?vid=cca02454-2bfc-494f-823f-2393b2ff121d"},"vehicle_type_id":"4","last_reported":1715447261,"current_range_meters":800,"station_id":"ce4bgs12rcd13ifvqcag","pricing_plan_id":"cebpf4jnsgd1na2vs0mg"},{"bike_id":"31c75503-b9e8-4eee-882f-6182b74e410a","system_id":"levelo_inurba_marseille","lat":43.305402,"lon":5.365605,"is_reserved":false,"is_disabled":false,"rental_uris":{"android":"levelo://app?vid=31c75503-b9e8-4eee-882f-6182b74e410a","ios":"levelo://app?vid=31c75503-b9e8-4eee-882f-6182b74e410a"},"vehicle_type_id":"4","last_reported":1715447261,"current_range_meters":8000,"station_id":"ce4bgs12rcd13ifvqcag","pricing_plan_id":"cebpf4jnsgd1na2vs0mg"},{"bike_id":"b374eed5-34b3-4225-8e6c-7c2f091b95a2","system_id":"levelo_inurba_marseille","lat":43.305706,"lon":5.365654,"is_reserved":false,"is_disabled":false,"rental_uris":{"android":"levelo://app?vid=b374eed5-34b3-4225-8e6c-7c2f091b95a2","ios":"levelo://app?vid=b374eed5-34b3-4225-8e6c-7c2f091b95a2"},"vehicle_type_id":"4","last_reported":1715447261,"current_range_meters":4400,"station_id":"ce4bgs12rcd13ifvqcag","pricing_plan_id":"cebpf4jnsgd1na2vs0mg"},{"bike_id":"37fc26e0-99f5-42d0-8c48-6cb69a5b9d4b","system_id":"levelo_inurba_marseille","lat":43.305246,"lon":5.365605,"is_reserved":false,"is_disabled":false,"rental_uris":{"android":"levelo://app?vid=37fc26e0-99f5-42d0-8c48-6cb69a5b9d4b","ios":"levelo://app?vid=37fc26e0-99f5-42d0-8c48-6cb69a5b9d4b"},"vehicle_type_id":"4","last_reported":1715447261,"current_range_meters":0,"station_id":"ce4bgs12rcd13ifvqcag","pricing_plan_id":"cebpf4jnsgd1na2vs0mg"},{"bike_id":"80002b85-cbaf-465c-8213-9fc1436771d1","system_id":"levelo_inurba_marseille","lat":43.30601,"lon":5.37242,"is_reserved":false,"is_disabled":false,"rental_uris":{"android":"levelo://app?vid=80002b85-cbaf-465c-8213-9fc1436771d1","ios":"levelo://app?vid=80002b85-cbaf-465c-8213-9fc1436771d1"},"vehicle_type_id":"4","last_reported":1715447261,"current_range_meters":0,"station_id":"ce4bgqh2rcd13ifvqc4g","pricing_plan_id":"cebpf4jnsgd1na2vs0mg"},{"bike_id":"4f90a547-148b-47c0-8979-3f67bd34872a","system_id":"levelo_inurba_marseille","lat":43.311131,"lon":5.377651,"is_reserved":false,"is_disabled":false,"rental_uris":{"android":"levelo://app?vid=4f90a547-148b-47c0-8979-3f67bd34872a","ios":"levelo://app?vid=4f90a547-148b-47c0-8979-3f67bd34872a"},"vehicle_type_id":"4","last_reported":1715447261,"current_range_meters":1200,"station_id":"ce4bgt92rcd13ifvqcg0","pricing_plan_id":"cebpf4jnsgd1na2vs0mg"},{"bike_id":"ea0f0698-97ee-4d57-a7ed-e1d5b54466e9","system_id":"levelo_inurba_marseille","lat":43.307945,"lon":5.376487,"is_reserved":false,"is_disabled":false,"rental_uris":{"android":"levelo://app?vid=ea0f0698-97ee-4d57-a7ed-e1d5b54466e9","ios":"levelo://app?vid=ea0f0698-97ee-4d57-a7ed-e1d5b54466e9"},"vehicle_type_id":"4","last_reported":1715447261,"current_range_meters":6800,"station_id":"ce4bgv92rcd13ifvqcq0","pricing_plan_id":"cebpf4jnsgd1na2vs0mg"},{"bike_id":"4428db23-4992-4066-a113-1bb3144c8195","system_id":"levelo_inurba_marseille","lat":43.311125,"lon":5.377624,"is_reserved":false,"is_disabled":false,"rental_uris":{"android":"levelo://app?vid=4428db23-4992-4066-a113-1bb3144c8195","ios":"levelo://app?vid=4428db23-4992-4066-a113-1bb3144c8195"},"vehicle_type_id":"4","last_reported":1715447261,"current_range_meters":6400,"station_id":"ce4bgt92rcd13ifvqcg0","pricing_plan_id":"cebpf4jnsgd1na2vs0mg"},{"bike_id":"be3e8099-5032-4bb6-9b93-c01a5685bc49","system_id":"levelo_inurba_marseille","lat":43.30793,"lon":5.37654,"is_reserved":false,"is_disabled":false,"rental_uris":{"android":"levelo://app?vid=be3e8099-5032-4bb6-9b93-c01a5685bc49","ios":"levelo://app?vid=be3e8099-5032-4bb6-9b93-c01a5685bc49"},"vehicle_type_id":"4","last_reported":1715447261,"current_range_meters":15600,"station_id":"ce4bgv92rcd13ifvqcq0","pricing_plan_id":"cebpf4jnsgd1na2vs0mg"},{"bike_id":"a8420d12-5ea1-4553-ba77-74153419b9a1","system_id":"levelo_inurba_marseille","lat":43.307945,"lon":5.376487,"is_reserved":false,"is_disabled":false,"rental_uris":{"android":"levelo://app?vid=a8420d12-5ea1-4553-ba77-74153419b9a1","ios":"levelo://app?vid=a8420d12-5ea1-4553-ba77-74153419b9a1"},"vehicle_type_id":"4","last_reported":1715447261,"current_range_meters":31600,"station_id":"ce4bgv92rcd13ifvqcq0","pricing_plan_id":"cebpf4jnsgd1na2vs0mg"},{"bike_id":"790aedc8-b7dc-4def-ae69-7d6266d72088","system_id":"levelo_inurba_marseille","lat":43.317075,"lon":5.377367,"is_reserved":false,"is_disabled":false,"rental_uris":{"android":"levelo://app?vid=790aedc8-b7dc-4def-ae69-7d6266d72088","ios":"levelo://app?vid=790aedc8-b7dc-4def-ae69-7d6266d72088"},"vehicle_type_id":"4","last_reported":1715447261,"current_range_meters":10000,"station_id":"ce4bgth2rcd13ifvqch0","pricing_plan_id":"cebpf4jnsgd1na2vs0mg"},{"bike_id":"0408073f-be50-4e5e-b46a-e92a1dd9c0d5","system_id":"levelo_inurba_marseille","lat":43.317075,"lon":5.377367,"is_reserved":false,"is_disabled":false,"rental_uris":{"android":"levelo://app?vid=0408073f-be50-4e5e-b46a-e92a1dd9c0d5","ios":"levelo://app?vid=0408073f-be50-4e5e-b46a-e92a1dd9c0d5"},"vehicle_type_id":"4","last_reported":1715447261,"current_range_meters":28800,"station_id":"ce4bgth2rcd13ifvqch0","pricing_plan_id":"cebpf4jnsgd1na2vs0mg"},{"bike_id":"769360a2-f035-499e-b98b-690229a54911","system_id":"levelo_inurba_marseille","lat":43.30304,"lon":5.368987,"is_reserved":false,"is_disabled":false,"rental_uris":{"android":"levelo://app?vid=769360a2-f035-499e-b98b-690229a54911","ios":"levelo://app?vid=769360a2-f035-499e-b98b-690229a54911"},"vehicle_type_id":"4","last_reported":1715447261,"current_range_meters":3200,"station_id":"ce4bgqh2rcd13ifvqc5g","pricing_plan_id":"cebpf4jnsgd1na2vs0mg"},{"bike_id":"aa664295-e016-4399-86dc-cf6c3cfdf577","system_id":"levelo_inurba_marseille","lat":43.308012,"lon":5.381511,"is_reserved":false,"is_disabled":false,"rental_uris":{"android":"levelo://app?vid=aa664295-e016-4399-86dc-cf6c3cfdf577","ios":"levelo://app?vid=aa664295-e016-4399-86dc-cf6c3cfdf577"},"vehicle_type_id":"4","last_reported":1715447261,"current_range_meters":22000,"station_id":"ce4bgt12rcd13ifvqce0","pricing_plan_id":"cebpf4jnsgd1na2vs0mg"},{"bike_id":"a470267d-00bb-45ca-881e-b60afc2a5e4f","system_id":"levelo_inurba_marseille","lat":43.30143,"lon":5.37413,"is_reserved":false,"is_disabled":false,"rental_uris":{"android":"levelo://app?vid=a470267d-00bb-45ca-881e-b60afc2a5e4f","ios":"levelo://app?vid=a470267d-00bb-45ca-881e-b60afc2a5e4f"},"vehicle_type_id":"4","last_reported":1715447261,"current_range_meters":26400,"station_id":"ce4bgs92rcd13ifvqcc0","pricing_plan_id":"cebpf4jnsgd1na2vs0mg"},{"bike_id":"3269a82e-20fd-46cb-9087-cc49c8cec2db","system_id":"levelo_inurba_marseille","lat":43.324739,"lon":5.365592,"is_reserved":false,"is_disabled":false,"rental_uris":{"android":"levelo://app?vid=3269a82e-20fd-46cb-9087-cc49c8cec2db","ios":"levelo://app?vid=3269a82e-20fd-46cb-9087-cc49c8cec2db"},"vehicle_type_id":"4","last_reported":1715447261,"current_range_meters":6800,"station_id":"ce4bhs12rcd13ifvqhvg","pricing_plan_id":"cebpf4jnsgd1na2vs0mg"},{"bike_id":"815a3fda-a165-4cb0-b470-93d7ebbde30d","system_id":"levelo_inurba_marseille","lat":43.32476,"lon":5.3657,"is_reserved":false,"is_disabled":false,"rental_uris":{"android":"levelo://app?vid=815a3fda-a165-4cb0-b470-93d7ebbde30d","ios":"levelo://app?vid=815a3fda-a165-4cb0-b470-93d7ebbde30d"},"vehicle_type_id":"4","last_reported":1715447261,"current_range_meters":7200,"station_id":"ce4bhs12rcd13ifvqhvg","pricing_plan_id":"cebpf4jnsgd1na2vs0mg"},{"bike_id":"8a43e928-1be0-49db-bf8f-02070f9088d0","system_id":"levelo_inurba_marseille","lat":43.32479,"lon":5.36573,"is_reserved":false,"is_disabled":false,"rental_uris":{"android":"levelo://app?vid=8a43e928-1be0-49db-bf8f-02070f9088d0","ios":"levelo://app?vid=8a43e928-1be0-49db-bf8f-02070f9088d0"},"vehicle_type_id":"4","last_reported":1715447261,"current_range_meters":14400,"station_id":"ce4bhs12rcd13ifvqhvg","pricing_plan_id":"cebpf4jnsgd1na2vs0mg"},{"bike_id":"7d725402-757b-4cd9-84ff-6dd57d0cc79e","system_id":"levelo_inurba_marseille","lat":43.32479,"lon":5.36571,"is_reserved":false,"is_disabled":false,"rental_uris":{"android":"levelo://app?vid=7d725402-757b-4cd9-84ff-6dd57d0cc79e","ios":"levelo://app?vid=7d725402-757b-4cd9-84ff-6dd57d0cc79e"},"vehicle_type_id":"4","last_reported":1715447261,"current_range_meters":28000,"station_id":"ce4bhs12rcd13ifvqhvg","pricing_plan_id":"cebpf4jnsgd1na2vs0mg"},{"bike_id":"de363a9b-b8dd-4f25-97c4-05ca23eea0b0","system_id":"levelo_inurba_marseille","lat":43.3248,"lon":5.36568,"is_reserved":false,"is_disabled":false,"rental_uris":{"android":"levelo://app?vid=de363a9b-b8dd-4f25-97c4-05ca23eea0b0","ios":"levelo://app?vid=de363a9b-b8dd-4f25-97c4-05ca23eea0b0"},"vehicle_type_id":"4","last_reported":1715447261,"current_range_meters":0,"station_id":"ce4bhs12rcd13ifvqhvg","pricing_plan_id":"cebpf4jnsgd1na2vs0mg"},{"bike_id":"a7364010-c030-4dda-9787-1388278fadb5","system_id":"levelo_inurba_marseille","lat":43.32485,"lon":5.36558,"is_reserved":false,"is_disabled":false,"rental_uris":{"android":"levelo://app?vid=a7364010-c030-4dda-9787-1388278fadb5","ios":"levelo://app?vid=a7364010-c030-4dda-9787-1388278fadb5"},"vehicle_type_id":"4","last_reported":1715447261,"current_range_meters":0,"station_id":"ce4bhs12rcd13ifvqhvg","pricing_plan_id":"cebpf4jnsgd1na2vs0mg"},{"bike_id":"a76ac9e1-e5fc-45aa-83a4-d1570f8cca81","system_id":"levelo_inurba_marseille","lat":43.32487,"lon":5.36563,"is_reserved":false,"is_disabled":false,"rental_uris":{"android":"levelo://app?vid=a76ac9e1-e5fc-45aa-83a4-d1570f8cca81","ios":"levelo://app?vid=a76ac9e1-e5fc-45aa-83a4-d1570f8cca81"},"vehicle_type_id":"4","last_reported":1715447261,"current_range_meters":9600,"station_id":"","pricing_plan_id":"cebpf4jnsgd1na2vs0mg"},{"bike_id":"881c0f05-224b-49a5-ba3a-07f084371cf7","system_id":"levelo_inurba_marseille","lat":43.310804,"lon":5.38359,"is_reserved":false,"is_disabled":false,"rental_uris":{"android":"levelo://app?vid=881c0f05-224b-49a5-ba3a-07f084371cf7","ios":"levelo://app?vid=881c0f05-224b-49a5-ba3a-07f084371cf7"},"vehicle_type_id":"4","last_reported":1715447261,"current_range_meters":15600,"station_id":"ce4bgv92rcd13ifvqcr0","pricing_plan_id":"cebpf4jnsgd1na2vs0mg"},{"bike_id":"a30168ee-5163-4e2b-9c19-12d9972dca34","system_id":"levelo_inurba_marseille","lat":43.310804,"lon":5.38359,"is_reserved":false,"is_disabled":false,"rental_uris":{"android":"levelo://app?vid=a30168ee-5163-4e2b-9c19-12d9972dca34","ios":"levelo://app?vid=a30168ee-5163-4e2b-9c19-12d9972dca34"},"vehicle_type_id":"4","last_reported":1715447261,"current_range_meters":4800,"station_id":"ce4bgv92rcd13ifvqcr0","pricing_plan_id":"cebpf4jnsgd1na2vs0mg"},{"bike_id":"f4bf507c-2bde-4feb-b703-dabad56ca1ba","system_id":"levelo_inurba_marseille","lat":43.310804,"lon":5.38359,"is_reserved":false,"is_disabled":false,"rental_uris":{"android":"levelo://app?vid=f4bf507c-2bde-4feb-b703-dabad56ca1ba","ios":"levelo://app?vid=f4bf507c-2bde-4feb-b703-dabad56ca1ba"},"vehicle_type_id":"4","last_reported":1715447261,"current_range_meters":22800,"station_id":"ce4bgv92rcd13ifvqcr0","pricing_plan_id":"cebpf4jnsgd1na2vs0mg"},{"bike_id":"1c7cafee-e030-43eb-a330-eeb527a21816","system_id":"levelo_inurba_marseille","lat":43.32313,"lon":5.37705,"is_reserved":false,"is_disabled":false,"rental_uris":{"android":"levelo://app?vid=1c7cafee-e030-43eb-a330-eeb527a21816","ios":"levelo://app?vid=1c7cafee-e030-43eb-a330-eeb527a21816"},"vehicle_type_id":"4","last_reported":1715447261,"current_range_meters":9200,"station_id":"","pricing_plan_id":"cebpf4jnsgd1na2vs0mg"},{"bike_id":"de3fe3d2-8fc8-439e-839f-4d64a65ba610","system_id":"levelo_inurba_marseille","lat":43.313571,"lon":5.384829,"is_reserved":false,"is_disabled":false,"rental_uris":{"android":"levelo://app?vid=de3fe3d2-8fc8-439e-839f-4d64a65ba610","ios":"levelo://app?vid=de3fe3d2-8fc8-439e-839f-4d64a65ba610"},"vehicle_type_id":"4","last_reported":1715447261,"current_range_meters":0,"station_id":"ce4bgt92rcd13ifvqcf0","pricing_plan_id":"cebpf4jnsgd1na2vs0mg"},{"bike_id":"c7bea60e-910f-4220-9a58-7743cbc63306","system_id":"levelo_inurba_marseille","lat":43.313571,"lon":5.384829,"is_reserved":false,"is_disabled":false,"rental_uris":{"android":"levelo://app?vid=c7bea60e-910f-4220-9a58-7743cbc63306","ios":"levelo://app?vid=c7bea60e-910f-4220-9a58-7743cbc63306"},"vehicle_type_id":"4","last_reported":1715447261,"current_range_meters":24800,"station_id":"ce4bgt92rcd13ifvqcf0","pricing_plan_id":"cebpf4jnsgd1na2vs0mg"},{"bike_id":"b9d4e297-ae4e-4240-a917-5c4a9b3fb321","system_id":"levelo_inurba_marseille","lat":43.313571,"lon":5.384829,"is_reserved":false,"is_disabled":false,"rental_uris":{"android":"levelo://app?vid=b9d4e297-ae4e-4240-a917-5c4a9b3fb321","ios":"levelo://app?vid=b9d4e297-ae4e-4240-a917-5c4a9b3fb321"},"vehicle_type_id":"4","last_reported":1715447261,"current_range_meters":19600,"station_id":"ce4bgt92rcd13ifvqcf0","pricing_plan_id":"cebpf4jnsgd1na2vs0mg"},{"bike_id":"83143a75-398d-4b0f-babe-8c292f008f1b","system_id":"levelo_inurba_marseille","lat":43.299222,"lon":5.365554,"is_reserved":false,"is_disabled":false,"rental_uris":{"android":"levelo://app?vid=83143a75-398d-4b0f-babe-8c292f008f1b","ios":"levelo://app?vid=83143a75-398d-4b0f-babe-8c292f008f1b"},"vehicle_type_id":"4","last_reported":1715447261,"current_range_meters":11600,"station_id":"ce4bgm92rcd13ifvqbr0","pricing_plan_id":"cebpf4jnsgd1na2vs0mg"},{"bike_id":"d6f99cbd-94d0-4af8-a2c1-9b06299d61e7","system_id":"levelo_inurba_marseille","lat":43.29941,"lon":5.36538,"is_reserved":false,"is_disabled":false,"rental_uris":{"android":"levelo://app?vid=d6f99cbd-94d0-4af8-a2c1-9b06299d61e7","ios":"levelo://app?vid=d6f99cbd-94d0-4af8-a2c1-9b06299d61e7"},"vehicle_type_id":"4","last_reported":1715447261,"current_range_meters":0,"station_id":"ce4bgm92rcd13ifvqbr0","pricing_plan_id":"cebpf4jnsgd1na2vs0mg"},{"bike_id":"49b59b6f-6623-42dc-a4e1-a4cc1641e35c","system_id":"levelo_inurba_marseille","lat":43.299222,"lon":5.365554,"is_reserved":false,"is_disabled":false,"rental_uris":{"android":"levelo://app?vid=49b59b6f-6623-42dc-a4e1-a4cc1641e35c","ios":"levelo://app?vid=49b59b6f-6623-42dc-a4e1-a4cc1641e35c"},"vehicle_type_id":"4","last_reported":1715447261,"current_range_meters":4800,"station_id":"ce4bgm92rcd13ifvqbr0","pricing_plan_id":"cebpf4jnsgd1na2vs0mg"},{"bike_id":"b093dfad-dab5-4278-9ae3-a06137baeda4","system_id":"levelo_inurba_marseille","lat":43.299222,"lon":5.365554,"is_reserved":false,"is_disabled":false,"rental_uris":{"android":"levelo://app?vid=b093dfad-dab5-4278-9ae3-a06137baeda4","ios":"levelo://app?vid=b093dfad-dab5-4278-9ae3-a06137baeda4"},"vehicle_type_id":"4","last_reported":1715447261,"current_range_meters":12000,"station_id":"ce4bgm92rcd13ifvqbr0","pricing_plan_id":"cebpf4jnsgd1na2vs0mg"},{"bike_id":"f70fe4ef-9ca0-49b0-ba84-e116f0c0d7ad","system_id":"levelo_inurba_marseille","lat":43.299724,"lon":5.371829,"is_reserved":false,"is_disabled":false,"rental_uris":{"android":"levelo://app?vid=f70fe4ef-9ca0-49b0-ba84-e116f0c0d7ad","ios":"levelo://app?vid=f70fe4ef-9ca0-49b0-ba84-e116f0c0d7ad"},"vehicle_type_id":"4","last_reported":1715447261,"current_range_meters":10400,"station_id":"ce4bgr92rcd13ifvqc7g","pricing_plan_id":"cebpf4jnsgd1na2vs0mg"},{"bike_id":"2b544e02-9189-4d43-853e-f2221f5cf01e","system_id":"levelo_inurba_marseille","lat":43.299222,"lon":5.365554,"is_reserved":false,"is_disabled":false,"rental_uris":{"android":"levelo://app?vid=2b544e02-9189-4d43-853e-f2221f5cf01e","ios":"levelo://app?vid=2b544e02-9189-4d43-853e-f2221f5cf01e"},"vehicle_type_id":"4","last_reported":1715447261,"current_range_meters":22800,"station_id":"ce4bgm92rcd13ifvqbr0","pricing_plan_id":"cebpf4jnsgd1na2vs0mg"},{"bike_id":"e19c6543-25f2-44ef-94bc-0bd7f37daceb","system_id":"levelo_inurba_marseille","lat":43.299222,"lon":5.365554,"is_reserved":false,"is_disabled":false,"rental_uris":{"android":"levelo://app?vid=e19c6543-25f2-44ef-94bc-0bd7f37daceb","ios":"levelo://app?vid=e19c6543-25f2-44ef-94bc-0bd7f37daceb"},"vehicle_type_id":"4","last_reported":1715447261,"current_range_meters":13600,"station_id":"ce4bgm92rcd13ifvqbr0","pricing_plan_id":"cebpf4jnsgd1na2vs0mg"},{"bike_id":"93cb6343-059c-4f60-a65c-ca0851eb6b85","system_id":"levelo_inurba_marseille","lat":43.299222,"lon":5.365554,"is_reserved":false,"is_disabled":false,"rental_uris":{"android":"levelo://app?vid=93cb6343-059c-4f60-a65c-ca0851eb6b85","ios":"levelo://app?vid=93cb6343-059c-4f60-a65c-ca0851eb6b85"},"vehicle_type_id":"4","last_reported":1715447261,"current_range_meters":15600,"station_id":"ce4bgm92rcd13ifvqbr0","pricing_plan_id":"cebpf4jnsgd1na2vs0mg"},{"bike_id":"923acbd1-e92a-48dd-8fab-bcec0476398c","system_id":"levelo_inurba_marseille","lat":43.29972,"lon":5.37172,"is_reserved":false,"is_disabled":false,"rental_uris":{"android":"levelo://app?vid=923acbd1-e92a-48dd-8fab-bcec0476398c","ios":"levelo://app?vid=923acbd1-e92a-48dd-8fab-bcec0476398c"},"vehicle_type_id":"4","last_reported":1715447261,"current_range_meters":8400,"station_id":"ce4bgr92rcd13ifvqc7g","pricing_plan_id":"cebpf4jnsgd1na2vs0mg"},{"bike_id":"0f420537-bc27-4b17-875e-6b7d92de63dd","system_id":"levelo_inurba_marseille","lat":43.305364,"lon":5.384119,"is_reserved":false,"is_disabled":false,"rental_uris":{"android":"levelo://app?vid=0f420537-bc27-4b17-875e-6b7d92de63dd","ios":"levelo://app?vid=0f420537-bc27-4b17-875e-6b7d92de63dd"},"vehicle_type_id":"4","last_reported":1715447261,"current_range_meters":0,"station_id":"ce4bgg92rcd13ifvqb30","pricing_plan_id":"cebpf4jnsgd1na2vs0mg"},{"bike_id":"8dd55cdc-e03b-485e-a84c-fcd9d1996d0f","system_id":"levelo_inurba_marseille","lat":43.299243,"lon":5.37481,"is_reserved":false,"is_disabled":false,"rental_uris":{"android":"levelo://app?vid=8dd55cdc-e03b-485e-a84c-fcd9d1996d0f","ios":"levelo://app?vid=8dd55cdc-e03b-485e-a84c-fcd9d1996d0f"},"vehicle_type_id":"4","last_reported":1715447261,"current_range_meters":18400,"station_id":"ce4bgjh2rcd13ifvqbg0","pricing_plan_id":"cebpf4jnsgd1na2vs0mg"},{"bike_id":"b6713ae2-5131-43d7-8c5d-65ed52782857","system_id":"levelo_inurba_marseille","lat":43.299243,"lon":5.374807,"is_reserved":false,"is_disabled":false,"rental_uris":{"android":"levelo://app?vid=b6713ae2-5131-43d7-8c5d-65ed52782857","ios":"levelo://app?vid=b6713ae2-5131-43d7-8c5d-65ed52782857"},"vehicle_type_id":"4","last_reported":1715447261,"current_range_meters":10000,"station_id":"ce4bgjh2rcd13ifvqbg0","pricing_plan_id":"cebpf4jnsgd1na2vs0mg"},{"bike_id":"cd28566f-02f8-4585-bc77-4e980f5f2953","system_id":"levelo_inurba_marseille","lat":43.311722,"lon":5.387247,"is_reserved":false,"is_disabled":false,"rental_uris":{"android":"levelo://app?vid=cd28566f-02f8-4585-bc77-4e980f5f2953","ios":"levelo://app?vid=cd28566f-02f8-4585-bc77-4e980f5f2953"},"vehicle_type_id":"4","last_reported":1715447261,"current_range_meters":4400,"station_id":"ce4bgv12rcd13ifvqcp0","pricing_plan_id":"cebpf4jnsgd1na2vs0mg"},{"bike_id":"2d6827e7-cf52-45b8-a8ea-c7ddb5f8f8b7","system_id":"levelo_inurba_marseille","lat":43.31167,"lon":5.38725,"is_reserved":false,"is_disabled":false,"rental_uris":{"android":"levelo://app?vid=2d6827e7-cf52-45b8-a8ea-c7ddb5f8f8b7","ios":"levelo://app?vid=2d6827e7-cf52-45b8-a8ea-c7ddb5f8f8b7"},"vehicle_type_id":"4","last_reported":1715447261,"current_range_meters":9200,"station_id":"ce4bgv12rcd13ifvqcp0","pricing_plan_id":"cebpf4jnsgd1na2vs0mg"},{"bike_id":"676e5dda-eba3-4b87-a7dc-ee379f42c552","system_id":"levelo_inurba_marseille","lat":43.297774,"lon":5.370875,"is_reserved":false,"is_disabled":false,"rental_uris":{"android":"levelo://app?vid=676e5dda-eba3-4b87-a7dc-ee379f42c552","ios":"levelo://app?vid=676e5dda-eba3-4b87-a7dc-ee379f42c552"},"vehicle_type_id":"4","last_reported":1715447261,"current_range_meters":10800,"station_id":"ce4bgop2rcd13ifvqc1g","pricing_plan_id":"cebpf4jnsgd1na2vs0mg"},{"bike_id":"ae051dbd-09cb-45c9-ab32-ec2cbe5bca4b","system_id":"levelo_inurba_marseille","lat":43.297794,"lon":5.370888,"is_reserved":false,"is_disabled":false,"rental_uris":{"android":"levelo://app?vid=ae051dbd-09cb-45c9-ab32-ec2cbe5bca4b","ios":"levelo://app?vid=ae051dbd-09cb-45c9-ab32-ec2cbe5bca4b"},"vehicle_type_id":"4","last_reported":1715447261,"current_range_meters":20000,"station_id":"ce4bgop2rcd13ifvqc1g","pricing_plan_id":"cebpf4jnsgd1na2vs0mg"},{"bike_id":"f9f2cc9b-5523-4356-8fba-306f7b19ce1e","system_id":"levelo_inurba_marseille","lat":43.322872,"lon":5.382756,"is_reserved":false,"is_disabled":false,"rental_uris":{"android":"levelo://app?vid=f9f2cc9b-5523-4356-8fba-306f7b19ce1e","ios":"levelo://app?vid=f9f2cc9b-5523-4356-8fba-306f7b19ce1e"},"vehicle_type_id":"4","last_reported":1715447261,"current_range_meters":3200,"station_id":"ce4bhr12rcd13ifvqhqg","pricing_plan_id":"cebpf4jnsgd1na2vs0mg"},{"bike_id":"37932b5e-b941-4921-9dfa-8cc4fa74cee8","system_id":"levelo_inurba_marseille","lat":43.322872,"lon":5.382756,"is_reserved":false,"is_disabled":false,"rental_uris":{"android":"levelo://app?vid=37932b5e-b941-4921-9dfa-8cc4fa74cee8","ios":"levelo://app?vid=37932b5e-b941-4921-9dfa-8cc4fa74cee8"},"vehicle_type_id":"4","last_reported":1715447261,"current_range_meters":23600,"station_id":"ce4bhr12rcd13ifvqhqg","pricing_plan_id":"cebpf4jnsgd1na2vs0mg"},{"bike_id":"8d4c06b3-4626-444e-a849-29e815a69458","system_id":"levelo_inurba_marseille","lat":43.322872,"lon":5.382756,"is_reserved":false,"is_disabled":false,"rental_uris":{"android":"levelo://app?vid=8d4c06b3-4626-444e-a849-29e815a69458","ios":"levelo://app?vid=8d4c06b3-4626-444e-a849-29e815a69458"},"vehicle_type_id":"4","last_reported":1715447261,"current_range_meters":30000,"station_id":"ce4bhr12rcd13ifvqhqg","pricing_plan_id":"cebpf4jnsgd1na2vs0mg"},{"bike_id":"13be3b16-3d32-4f7f-a4d8-23c28c88dead","system_id":"levelo_inurba_marseille","lat":43.297163,"lon":5.365866,"is_reserved":false,"is_disabled":false,"rental_uris":{"android":"levelo://app?vid=13be3b16-3d32-4f7f-a4d8-23c28c88dead","ios":"levelo://app?vid=13be3b16-3d32-4f7f-a4d8-23c28c88dead"},"vehicle_type_id":"4","last_reported":1715447261,"current_range_meters":10000,"station_id":"ce4bgn12rcd13ifvqbt0","pricing_plan_id":"cebpf4jnsgd1na2vs0mg"},{"bike_id":"8cbbdbb2-a9a2-417c-a7eb-66c423fbd325","system_id":"levelo_inurba_marseille","lat":43.2968,"lon":5.37291,"is_reserved":false,"is_disabled":false,"rental_uris":{"android":"levelo://app?vid=8cbbdbb2-a9a2-417c-a7eb-66c423fbd325","ios":"levelo://app?vid=8cbbdbb2-a9a2-417c-a7eb-66c423fbd325"},"vehicle_type_id":"4","last_reported":1715447261,"current_range_meters":1600,"station_id":"ce4bgk12rcd13ifvqbj0","pricing_plan_id":"cebpf4jnsgd1na2vs0mg"},{"bike_id":"e2b98f7e-ca8f-4e24-97ec-d9fb2edbdb01","system_id":"levelo_inurba_marseille","lat":43.296129,"lon":5.370777,"is_reserved":false,"is_disabled":false,"rental_uris":{"android":"levelo://app?vid=e2b98f7e-ca8f-4e24-97ec-d9fb2edbdb01","ios":"levelo://app?vid=e2b98f7e-ca8f-4e24-97ec-d9fb2edbdb01"},"vehicle_type_id":"4","last_reported":1715447261,"current_range_meters":28800,"station_id":"ce4bgnh2rcd13ifvqc0g","pricing_plan_id":"cebpf4jnsgd1na2vs0mg"},{"bike_id":"99c60ce4-33b4-4055-82eb-d8e62d678e24","system_id":"levelo_inurba_marseille","lat":43.29573,"lon":5.367355,"is_reserved":false,"is_disabled":false,"rental_uris":{"android":"levelo://app?vid=99c60ce4-33b4-4055-82eb-d8e62d678e24","ios":"levelo://app?vid=99c60ce4-33b4-4055-82eb-d8e62d678e24"},"vehicle_type_id":"4","last_reported":1715447261,"current_range_meters":27600,"station_id":"ce4bgph2rcd13ifvqc2g","pricing_plan_id":"cebpf4jnsgd1na2vs0mg"},{"bike_id":"697b05a0-05d7-468d-b699-d8cea8093905","system_id":"levelo_inurba_marseille","lat":43.296131,"lon":5.370791,"is_reserved":false,"is_disabled":false,"rental_uris":{"android":"levelo://app?vid=697b05a0-05d7-468d-b699-d8cea8093905","ios":"levelo://app?vid=697b05a0-05d7-468d-b699-d8cea8093905"},"vehicle_type_id":"4","last_reported":1715447261,"current_range_meters":29600,"station_id":"ce4bgnh2rcd13ifvqc0g","pricing_plan_id":"cebpf4jnsgd1na2vs0mg"},{"bike_id":"3fa6a219-b329-4e7e-b3a9-b6aed4f19e4f","system_id":"levelo_inurba_marseille","lat":43.29573,"lon":5.367355,"is_reserved":false,"is_disabled":false,"rental_uris":{"android":"levelo://app?vid=3fa6a219-b329-4e7e-b3a9-b6aed4f19e4f","ios":"levelo://app?vid=3fa6a219-b329-4e7e-b3a9-b6aed4f19e4f"},"vehicle_type_id":"4","last_reported":1715447261,"current_range_meters":6400,"station_id":"ce4bgph2rcd13ifvqc2g","pricing_plan_id":"cebpf4jnsgd1na2vs0mg"},{"bike_id":"e52266c3-4994-4bd4-b95f-b71b25a42966","system_id":"levelo_inurba_marseille","lat":43.299028,"lon":5.381509,"is_reserved":false,"is_disabled":false,"rental_uris":{"android":"levelo://app?vid=e52266c3-4994-4bd4-b95f-b71b25a42966","ios":"levelo://app?vid=e52266c3-4994-4bd4-b95f-b71b25a42966"},"vehicle_type_id":"4","last_reported":1715447261,"current_range_meters":22000,"station_id":"ce4bgj12rcd13ifvqbc0","pricing_plan_id":"cebpf4jnsgd1na2vs0mg"},{"bike_id":"9f252a48-dd03-4d91-82b5-e316db9e638f","system_id":"levelo_inurba_marseille","lat":43.309589,"lon":5.390258,"is_reserved":false,"is_disabled":false,"rental_uris":{"android":"levelo://app?vid=9f252a48-dd03-4d91-82b5-e316db9e638f","ios":"levelo://app?vid=9f252a48-dd03-4d91-82b5-e316db9e638f"},"vehicle_type_id":"4","last_reported":1715447261,"current_range_meters":0,"station_id":"ce4bgup2rcd13ifvqco0","pricing_plan_id":"cebpf4jnsgd1na2vs0mg"},{"bike_id":"39b87a80-48b7-40b2-9ff7-c37c4a649534","system_id":"levelo_inurba_marseille","lat":43.309589,"lon":5.390258,"is_reserved":false,"is_disabled":false,"rental_uris":{"android":"levelo://app?vid=39b87a80-48b7-40b2-9ff7-c37c4a649534","ios":"levelo://app?vid=39b87a80-48b7-40b2-9ff7-c37c4a649534"},"vehicle_type_id":"4","last_reported":1715447261,"current_range_meters":0,"station_id":"ce4bgup2rcd13ifvqco0","pricing_plan_id":"cebpf4jnsgd1na2vs0mg"},{"bike_id":"7792a0c4-69c2-4e9e-8863-f4e243322ed8","system_id":"levelo_inurba_marseille","lat":43.309589,"lon":5.390258,"is_reserved":false,"is_disabled":false,"rental_uris":{"android":"levelo://app?vid=7792a0c4-69c2-4e9e-8863-f4e243322ed8","ios":"levelo://app?vid=7792a0c4-69c2-4e9e-8863-f4e243322ed8"},"vehicle_type_id":"4","last_reported":1715447261,"current_range_meters":0,"station_id":"ce4bgup2rcd13ifvqco0","pricing_plan_id":"cebpf4jnsgd1na2vs0mg"},{"bike_id":"c8953885-028e-40ec-8e2c-e242dda2a96c","system_id":"levelo_inurba_marseille","lat":43.299028,"lon":5.381509,"is_reserved":false,"is_disabled":false,"rental_uris":{"android":"levelo://app?vid=c8953885-028e-40ec-8e2c-e242dda2a96c","ios":"levelo://app?vid=c8953885-028e-40ec-8e2c-e242dda2a96c"},"vehicle_type_id":"4","last_reported":1715447261,"current_range_meters":9600,"station_id":"ce4bgj12rcd13ifvqbc0","pricing_plan_id":"cebpf4jnsgd1na2vs0mg"},{"bike_id":"7ae00db1-d3ac-4ee5-b943-11ceb05d84d5","system_id":"levelo_inurba_marseille","lat":43.309589,"lon":5.390258,"is_reserved":false,"is_disabled":false,"rental_uris":{"android":"levelo://app?vid=7ae00db1-d3ac-4ee5-b943-11ceb05d84d5","ios":"levelo://app?vid=7ae00db1-d3ac-4ee5-b943-11ceb05d84d5"},"vehicle_type_id":"4","last_reported":1715447261,"current_range_meters":0,"station_id":"ce4bgup2rcd13ifvqco0","pricing_plan_id":"cebpf4jnsgd1na2vs0mg"},{"bike_id":"51c53baa-6c19-4f4e-b050-e3d2e682fcf9","system_id":"levelo_inurba_marseille","lat":43.317557,"lon":5.390173,"is_reserved":false,"is_disabled":false,"rental_uris":{"android":"levelo://app?vid=51c53baa-6c19-4f4e-b050-e3d2e682fcf9","ios":"levelo://app?vid=51c53baa-6c19-4f4e-b050-e3d2e682fcf9"},"vehicle_type_id":"4","last_reported":1715447261,"current_range_meters":400,"station_id":"ce4bhqp2rcd13ifvqhng","pricing_plan_id":"cebpf4jnsgd1na2vs0mg"},{"bike_id":"88031d4c-0039-492a-b461-541581b52a53","system_id":"levelo_inurba_marseille","lat":43.317557,"lon":5.390173,"is_reserved":false,"is_disabled":false,"rental_uris":{"android":"levelo://app?vid=88031d4c-0039-492a-b461-541581b52a53","ios":"levelo://app?vid=88031d4c-0039-492a-b461-541581b52a53"},"vehicle_type_id":"4","last_reported":1715447261,"current_range_meters":16400,"station_id":"ce4bhqp2rcd13ifvqhng","pricing_plan_id":"cebpf4jnsgd1na2vs0mg"},{"bike_id":"a4695294-3a00-4c78-9d55-ef35295cecf0","system_id":"levelo_inurba_marseille","lat":43.298107,"lon":5.381037,"is_reserved":false,"is_disabled":false,"rental_uris":{"android":"levelo://app?vid=a4695294-3a00-4c78-9d55-ef35295cecf0","ios":"levelo://app?vid=a4695294-3a00-4c78-9d55-ef35295cecf0"},"vehicle_type_id":"4","last_reported":1715447261,"current_range_meters":0,"station_id":"ce4bgip2rcd13ifvqbb0","pricing_plan_id":"cebpf4jnsgd1na2vs0mg"},{"bike_id":"26dc1fa1-4160-4379-8286-aedfeb5ee12a","system_id":"levelo_inurba_marseille","lat":43.295748,"lon":5.37522,"is_reserved":false,"is_disabled":false,"rental_uris":{"android":"levelo://app?vid=26dc1fa1-4160-4379-8286-aedfeb5ee12a","ios":"levelo://app?vid=26dc1fa1-4160-4379-8286-aedfeb5ee12a"},"vehicle_type_id":"4","last_reported":1715447261,"current_range_meters":5200,"station_id":"ce4bgh92rcd13ifvqb50","pricing_plan_id":"cebpf4jnsgd1na2vs0mg"},{"bike_id":"c68dae2b-ff5f-4e1d-b6cc-3a1a3af1aae0","system_id":"levelo_inurba_marseille","lat":43.296277,"lon":5.377108,"is_reserved":false,"is_disabled":false,"rental_uris":{"android":"levelo://app?vid=c68dae2b-ff5f-4e1d-b6cc-3a1a3af1aae0","ios":"levelo://app?vid=c68dae2b-ff5f-4e1d-b6cc-3a1a3af1aae0"},"vehicle_type_id":"4","last_reported":1715447261,"current_range_meters":0,"station_id":"ce4bgi92rcd13ifvqb90","pricing_plan_id":"cebpf4jnsgd1na2vs0mg"},{"bike_id":"5bc35382-5339-4dfc-a4a3-04be1f91f65a","system_id":"levelo_inurba_marseille","lat":43.29616,"lon":5.37733,"is_reserved":false,"is_disabled":false,"rental_uris":{"android":"levelo://app?vid=5bc35382-5339-4dfc-a4a3-04be1f91f65a","ios":"levelo://app?vid=5bc35382-5339-4dfc-a4a3-04be1f91f65a"},"vehicle_type_id":"4","last_reported":1715447261,"current_range_meters":0,"station_id":"ce4bgi92rcd13ifvqb90","pricing_plan_id":"cebpf4jnsgd1na2vs0mg"},{"bike_id":"d6266799-6336-4ee0-90dc-33a2620eed62","system_id":"levelo_inurba_marseille","lat":43.29613,"lon":5.37742,"is_reserved":false,"is_disabled":false,"rental_uris":{"android":"levelo://app?vid=d6266799-6336-4ee0-90dc-33a2620eed62","ios":"levelo://app?vid=d6266799-6336-4ee0-90dc-33a2620eed62"},"vehicle_type_id":"4","last_reported":1715447261,"current_range_meters":0,"station_id":"ce4bgi92rcd13ifvqb90","pricing_plan_id":"cebpf4jnsgd1na2vs0mg"},{"bike_id":"4bcaed50-a037-4a53-ba6d-ed2d684e58f3","system_id":"levelo_inurba_marseille","lat":43.295279,"lon":5.375048,"is_reserved":false,"is_disabled":false,"rental_uris":{"android":"levelo://app?vid=4bcaed50-a037-4a53-ba6d-ed2d684e58f3","ios":"levelo://app?vid=4bcaed50-a037-4a53-ba6d-ed2d684e58f3"},"vehicle_type_id":"4","last_reported":1715447261,"current_range_meters":5600,"station_id":"ce4bgkp2rcd13ifvqbmg","pricing_plan_id":"cebpf4jnsgd1na2vs0mg"},{"bike_id":"ee6db78c-f066-481b-8667-575f667e2b51","system_id":"levelo_inurba_marseille","lat":43.295279,"lon":5.375048,"is_reserved":false,"is_disabled":false,"rental_uris":{"android":"levelo://app?vid=ee6db78c-f066-481b-8667-575f667e2b51","ios":"levelo://app?vid=ee6db78c-f066-481b-8667-575f667e2b51"},"vehicle_type_id":"4","last_reported":1715447261,"current_range_meters":400,"station_id":"ce4bgkp2rcd13ifvqbmg","pricing_plan_id":"cebpf4jnsgd1na2vs0mg"},{"bike_id":"c3c53375-a70a-48f3-9b61-6739fce11263","system_id":"levelo_inurba_marseille","lat":43.295279,"lon":5.375048,"is_reserved":false,"is_disabled":false,"rental_uris":{"android":"levelo://app?vid=c3c53375-a70a-48f3-9b61-6739fce11263","ios":"levelo://app?vid=c3c53375-a70a-48f3-9b61-6739fce11263"},"vehicle_type_id":"4","last_reported":1715447261,"current_range_meters":7200,"station_id":"ce4bgkp2rcd13ifvqbmg","pricing_plan_id":"cebpf4jnsgd1na2vs0mg"},{"bike_id":"a97e5835-2a20-4331-8d0f-2301896c5515","system_id":"levelo_inurba_marseille","lat":43.299707,"lon":5.384859,"is_reserved":false,"is_disabled":false,"rental_uris":{"android":"levelo://app?vid=a97e5835-2a20-4331-8d0f-2301896c5515","ios":"levelo://app?vid=a97e5835-2a20-4331-8d0f-2301896c5515"},"vehicle_type_id":"4","last_reported":1715447261,"current_range_meters":21600,"station_id":"ce4bgj92rcd13ifvqbd0","pricing_plan_id":"cebpf4jnsgd1na2vs0mg"},{"bike_id":"38d540e3-fdf9-4c82-9c59-c461f3c1f918","system_id":"levelo_inurba_marseille","lat":43.299707,"lon":5.384859,"is_reserved":false,"is_disabled":false,"rental_uris":{"android":"levelo://app?vid=38d540e3-fdf9-4c82-9c59-c461f3c1f918","ios":"levelo://app?vid=38d540e3-fdf9-4c82-9c59-c461f3c1f918"},"vehicle_type_id":"4","last_reported":1715447261,"current_range_meters":22800,"station_id":"ce4bgj92rcd13ifvqbd0","pricing_plan_id":"cebpf4jnsgd1na2vs0mg"},{"bike_id":"e33b8e23-193c-4d70-97c2-a52f1a7b06f7","system_id":"levelo_inurba_marseille","lat":43.29975,"lon":5.38489,"is_reserved":false,"is_disabled":false,"rental_uris":{"android":"levelo://app?vid=e33b8e23-193c-4d70-97c2-a52f1a7b06f7","ios":"levelo://app?vid=e33b8e23-193c-4d70-97c2-a52f1a7b06f7"},"vehicle_type_id":"4","last_reported":1715447261,"current_range_meters":0,"station_id":"ce4bgj92rcd13ifvqbd0","pricing_plan_id":"cebpf4jnsgd1na2vs0mg"},{"bike_id":"bd1b0e75-f7e3-4e4e-a441-b076da16766b","system_id":"levelo_inurba_marseille","lat":43.299707,"lon":5.384859,"is_reserved":false,"is_disabled":false,"rental_uris":{"android":"levelo://app?vid=bd1b0e75-f7e3-4e4e-a441-b076da16766b","ios":"levelo://app?vid=bd1b0e75-f7e3-4e4e-a441-b076da16766b"},"vehicle_type_id":"4","last_reported":1715447261,"current_range_meters":18400,"station_id":"ce4bgj92rcd13ifvqbd0","pricing_plan_id":"cebpf4jnsgd1na2vs0mg"},{"bike_id":"59f1ace6-7374-492a-a305-5d4bcbb83333","system_id":"levelo_inurba_marseille","lat":43.295279,"lon":5.375048,"is_reserved":false,"is_disabled":false,"rental_uris":{"android":"levelo://app?vid=59f1ace6-7374-492a-a305-5d4bcbb83333","ios":"levelo://app?vid=59f1ace6-7374-492a-a305-5d4bcbb83333"},"vehicle_type_id":"4","last_reported":1715447261,"current_range_meters":400,"station_id":"ce4bgkp2rcd13ifvqbmg","pricing_plan_id":"cebpf4jnsgd1na2vs0mg"},{"bike_id":"5d260cbe-6fb7-4416-ae38-a5abe7913e9f","system_id":"levelo_inurba_marseille","lat":43.299717,"lon":5.384845,"is_reserved":false,"is_disabled":false,"rental_uris":{"android":"levelo://app?vid=5d260cbe-6fb7-4416-ae38-a5abe7913e9f","ios":"levelo://app?vid=5d260cbe-6fb7-4416-ae38-a5abe7913e9f"},"vehicle_type_id":"4","last_reported":1715447261,"current_range_meters":16000,"station_id":"ce4bgj92rcd13ifvqbd0","pricing_plan_id":"cebpf4jnsgd1na2vs0mg"},{"bike_id":"0d86c79c-ac92-4109-a7fc-c4ad14738536","system_id":"levelo_inurba_marseille","lat":43.295279,"lon":5.375048,"is_reserved":false,"is_disabled":false,"rental_uris":{"android":"levelo://app?vid=0d86c79c-ac92-4109-a7fc-c4ad14738536","ios":"levelo://app?vid=0d86c79c-ac92-4109-a7fc-c4ad14738536"},"vehicle_type_id":"4","last_reported":1715447261,"current_range_meters":2800,"station_id":"ce4bgkp2rcd13ifvqbmg","pricing_plan_id":"cebpf4jnsgd1na2vs0mg"},{"bike_id":"086ce1ff-bf6c-4f19-bc03-dc63d8bbe49a","system_id":"levelo_inurba_marseille","lat":43.299717,"lon":5.384845,"is_reserved":false,"is_disabled":false,"rental_uris":{"android":"levelo://app?vid=086ce1ff-bf6c-4f19-bc03-dc63d8bbe49a","ios":"levelo://app?vid=086ce1ff-bf6c-4f19-bc03-dc63d8bbe49a"},"vehicle_type_id":"4","last_reported":1715447261,"current_range_meters":22400,"station_id":"ce4bgj92rcd13ifvqbd0","pricing_plan_id":"cebpf4jnsgd1na2vs0mg"},{"bike_id":"2b63d15f-6149-4467-ad80-2b0a41e6b6db","system_id":"levelo_inurba_marseille","lat":43.299717,"lon":5.384845,"is_reserved":false,"is_disabled":false,"rental_uris":{"android":"levelo://app?vid=2b63d15f-6149-4467-ad80-2b0a41e6b6db","ios":"levelo://app?vid=2b63d15f-6149-4467-ad80-2b0a41e6b6db"},"vehicle_type_id":"4","last_reported":1715447261,"current_range_meters":3600,"station_id":"ce4bgj92rcd13ifvqbd0","pricing_plan_id":"cebpf4jnsgd1na2vs0mg"},{"bike_id":"31e7bb2c-8b4d-4dac-9b82-7095a3278c5a","system_id":"levelo_inurba_marseille","lat":43.295279,"lon":5.375048,"is_reserved":false,"is_disabled":false,"rental_uris":{"android":"levelo://app?vid=31e7bb2c-8b4d-4dac-9b82-7095a3278c5a","ios":"levelo://app?vid=31e7bb2c-8b4d-4dac-9b82-7095a3278c5a"},"vehicle_type_id":"4","last_reported":1715447261,"current_range_meters":27200,"station_id":"ce4bgkp2rcd13ifvqbmg","pricing_plan_id":"cebpf4jnsgd1na2vs0mg"},{"bike_id":"294be1bb-990b-498c-801d-00bd1e176097","system_id":"levelo_inurba_marseille","lat":43.299717,"lon":5.384845,"is_reserved":false,"is_disabled":false,"rental_uris":{"android":"levelo://app?vid=294be1bb-990b-498c-801d-00bd1e176097","ios":"levelo://app?vid=294be1bb-990b-498c-801d-00bd1e176097"},"vehicle_type_id":"4","last_reported":1715447261,"current_range_meters":18000,"station_id":"ce4bgj92rcd13ifvqbd0","pricing_plan_id":"cebpf4jnsgd1na2vs0mg"},{"bike_id":"daea4f0b-c564-46fd-8cac-acc3bab5e006","system_id":"levelo_inurba_marseille","lat":43.300556,"lon":5.386501,"is_reserved":false,"is_disabled":false,"rental_uris":{"android":"levelo://app?vid=daea4f0b-c564-46fd-8cac-acc3bab5e006","ios":"levelo://app?vid=daea4f0b-c564-46fd-8cac-acc3bab5e006"},"vehicle_type_id":"4","last_reported":1715447261,"current_range_meters":0,"station_id":"","pricing_plan_id":"cebpf4jnsgd1na2vs0mg"},{"bike_id":"33e30d54-2643-4cb6-956e-66ba926a1190","system_id":"levelo_inurba_marseille","lat":43.299406,"lon":5.385083,"is_reserved":false,"is_disabled":false,"rental_uris":{"android":"levelo://app?vid=33e30d54-2643-4cb6-956e-66ba926a1190","ios":"levelo://app?vid=33e30d54-2643-4cb6-956e-66ba926a1190"},"vehicle_type_id":"4","last_reported":1715447261,"current_range_meters":15600,"station_id":"ce4bgj92rcd13ifvqbd0","pricing_plan_id":"cebpf4jnsgd1na2vs0mg"},{"bike_id":"944327f7-6d87-4670-a7da-dfd868b698ef","system_id":"levelo_inurba_marseille","lat":43.32367,"lon":5.388836,"is_reserved":false,"is_disabled":false,"rental_uris":{"android":"levelo://app?vid=944327f7-6d87-4670-a7da-dfd868b698ef","ios":"levelo://app?vid=944327f7-6d87-4670-a7da-dfd868b698ef"},"vehicle_type_id":"4","last_reported":1715447261,"current_range_meters":7200,"station_id":"ce4bhqp2rcd13ifvqhog","pricing_plan_id":"cebpf4jnsgd1na2vs0mg"},{"bike_id":"81efba0e-12fe-4fa0-a4ae-da8c5b033846","system_id":"levelo_inurba_marseille","lat":43.32367,"lon":5.388836,"is_reserved":false,"is_disabled":false,"rental_uris":{"android":"levelo://app?vid=81efba0e-12fe-4fa0-a4ae-da8c5b033846","ios":"levelo://app?vid=81efba0e-12fe-4fa0-a4ae-da8c5b033846"},"vehicle_type_id":"4","last_reported":1715447261,"current_range_meters":10000,"station_id":"ce4bhqp2rcd13ifvqhog","pricing_plan_id":"cebpf4jnsgd1na2vs0mg"},{"bike_id":"e05287e2-27c9-4c9c-965f-62933ee55564","system_id":"levelo_inurba_marseille","lat":43.32367,"lon":5.388836,"is_reserved":false,"is_disabled":false,"rental_uris":{"android":"levelo://app?vid=e05287e2-27c9-4c9c-965f-62933ee55564","ios":"levelo://app?vid=e05287e2-27c9-4c9c-965f-62933ee55564"},"vehicle_type_id":"4","last_reported":1715447261,"current_range_meters":14800,"station_id":"ce4bhqp2rcd13ifvqhog","pricing_plan_id":"cebpf4jnsgd1na2vs0mg"},{"bike_id":"06f9c0f5-6885-4b95-91e8-0b0630ab4a38","system_id":"levelo_inurba_marseille","lat":43.254945,"lon":5.376454,"is_reserved":false,"is_disabled":false,"rental_uris":{"android":"levelo://app?vid=06f9c0f5-6885-4b95-91e8-0b0630ab4a38","ios":"levelo://app?vid=06f9c0f5-6885-4b95-91e8-0b0630ab4a38"},"vehicle_type_id":"4","last_reported":1715447261,"current_range_meters":9200,"station_id":"ce4bhh12rcd13ifvqff0","pricing_plan_id":"cebpf4jnsgd1na2vs0mg"},{"bike_id":"9f39eb09-201b-441f-bf1a-4977918259bd","system_id":"levelo_inurba_marseille","lat":43.293275,"lon":5.37033,"is_reserved":false,"is_disabled":false,"rental_uris":{"android":"levelo://app?vid=9f39eb09-201b-441f-bf1a-4977918259bd","ios":"levelo://app?vid=9f39eb09-201b-441f-bf1a-4977918259bd"},"vehicle_type_id":"4","last_reported":1715447261,"current_range_meters":6400,"station_id":"ce4bhbp2rcd13ifvqesg","pricing_plan_id":"cebpf4jnsgd1na2vs0mg"},{"bike_id":"caae2709-b041-48bc-b3f3-98d11651b467","system_id":"levelo_inurba_marseille","lat":43.293249,"lon":5.371578,"is_reserved":false,"is_disabled":false,"rental_uris":{"android":"levelo://app?vid=caae2709-b041-48bc-b3f3-98d11651b467","ios":"levelo://app?vid=caae2709-b041-48bc-b3f3-98d11651b467"},"vehicle_type_id":"4","last_reported":1715447261,"current_range_meters":400,"station_id":"ce4bgh92rcd13ifvqb40","pricing_plan_id":"cebpf4jnsgd1na2vs0mg"},{"bike_id":"8cfb0d1f-eab7-423d-85ce-78072bb61026","system_id":"levelo_inurba_marseille","lat":43.293249,"lon":5.371578,"is_reserved":false,"is_disabled":false,"rental_uris":{"android":"levelo://app?vid=8cfb0d1f-eab7-423d-85ce-78072bb61026","ios":"levelo://app?vid=8cfb0d1f-eab7-423d-85ce-78072bb61026"},"vehicle_type_id":"4","last_reported":1715447261,"current_range_meters":2000,"station_id":"ce4bgh92rcd13ifvqb40","pricing_plan_id":"cebpf4jnsgd1na2vs0mg"},{"bike_id":"dcdbe186-8f6f-4d98-94e6-5d692b12c0fa","system_id":"levelo_inurba_marseille","lat":43.293249,"lon":5.371578,"is_reserved":false,"is_disabled":false,"rental_uris":{"android":"levelo://app?vid=dcdbe186-8f6f-4d98-94e6-5d692b12c0fa","ios":"levelo://app?vid=dcdbe186-8f6f-4d98-94e6-5d692b12c0fa"},"vehicle_type_id":"4","last_reported":1715447261,"current_range_meters":28000,"station_id":"ce4bgh92rcd13ifvqb40","pricing_plan_id":"cebpf4jnsgd1na2vs0mg"},{"bike_id":"45eb2574-8763-4f20-bce6-d81284a99d15","system_id":"levelo_inurba_marseille","lat":43.29279,"lon":5.36839,"is_reserved":false,"is_disabled":false,"rental_uris":{"android":"levelo://app?vid=45eb2574-8763-4f20-bce6-d81284a99d15","ios":"levelo://app?vid=45eb2574-8763-4f20-bce6-d81284a99d15"},"vehicle_type_id":"4","last_reported":1715447261,"current_range_meters":11200,"station_id":"ce4bhbp2rcd13ifvqesg","pricing_plan_id":"cebpf4jnsgd1na2vs0mg"},{"bike_id":"3be1e938-fa54-4cff-82d2-1c56eaf3df9e","system_id":"levelo_inurba_marseille","lat":43.292749,"lon":5.368402,"is_reserved":false,"is_disabled":false,"rental_uris":{"android":"levelo://app?vid=3be1e938-fa54-4cff-82d2-1c56eaf3df9e","ios":"levelo://app?vid=3be1e938-fa54-4cff-82d2-1c56eaf3df9e"},"vehicle_type_id":"4","last_reported":1715447261,"current_range_meters":12400,"station_id":"ce4bhbp2rcd13ifvqesg","pricing_plan_id":"cebpf4jnsgd1na2vs0mg"},{"bike_id":"c5662420-c41d-484d-bc92-14b62bc4dc49","system_id":"levelo_inurba_marseille","lat":43.293249,"lon":5.371578,"is_reserved":false,"is_disabled":false,"rental_uris":{"android":"levelo://app?vid=c5662420-c41d-484d-bc92-14b62bc4dc49","ios":"levelo://app?vid=c5662420-c41d-484d-bc92-14b62bc4dc49"},"vehicle_type_id":"4","last_reported":1715447261,"current_range_meters":25200,"station_id":"ce4bgh92rcd13ifvqb40","pricing_plan_id":"cebpf4jnsgd1na2vs0mg"},{"bike_id":"33d23517-fd6b-4c78-b2c1-fe5b785e262e","system_id":"levelo_inurba_marseille","lat":43.29277,"lon":5.36841,"is_reserved":false,"is_disabled":false,"rental_uris":{"android":"levelo://app?vid=33d23517-fd6b-4c78-b2c1-fe5b785e262e","ios":"levelo://app?vid=33d23517-fd6b-4c78-b2c1-fe5b785e262e"},"vehicle_type_id":"4","last_reported":1715447261,"current_range_meters":14800,"station_id":"ce4bhbp2rcd13ifvqesg","pricing_plan_id":"cebpf4jnsgd1na2vs0mg"},{"bike_id":"aeafc71b-87e4-4b47-8c8b-248db53db61c","system_id":"levelo_inurba_marseille","lat":43.29277,"lon":5.36848,"is_reserved":false,"is_disabled":false,"rental_uris":{"android":"levelo://app?vid=aeafc71b-87e4-4b47-8c8b-248db53db61c","ios":"levelo://app?vid=aeafc71b-87e4-4b47-8c8b-248db53db61c"},"vehicle_type_id":"4","last_reported":1715447261,"current_range_meters":0,"station_id":"ce4bhbp2rcd13ifvqesg","pricing_plan_id":"cebpf4jnsgd1na2vs0mg"},{"bike_id":"9c020ef2-70b6-4215-93b9-4bfb3337bea2","system_id":"levelo_inurba_marseille","lat":43.293249,"lon":5.371578,"is_reserved":false,"is_disabled":false,"rental_uris":{"android":"levelo://app?vid=9c020ef2-70b6-4215-93b9-4bfb3337bea2","ios":"levelo://app?vid=9c020ef2-70b6-4215-93b9-4bfb3337bea2"},"vehicle_type_id":"4","last_reported":1715447261,"current_range_meters":23200,"station_id":"ce4bgh92rcd13ifvqb40","pricing_plan_id":"cebpf4jnsgd1na2vs0mg"},{"bike_id":"56a757a4-a444-4271-9f56-47e9830eaee2","system_id":"levelo_inurba_marseille","lat":43.29275,"lon":5.36841,"is_reserved":false,"is_disabled":false,"rental_uris":{"android":"levelo://app?vid=56a757a4-a444-4271-9f56-47e9830eaee2","ios":"levelo://app?vid=56a757a4-a444-4271-9f56-47e9830eaee2"},"vehicle_type_id":"4","last_reported":1715447261,"current_range_meters":21600,"station_id":"ce4bhbp2rcd13ifvqesg","pricing_plan_id":"cebpf4jnsgd1na2vs0mg"},{"bike_id":"01f44b2e-8dab-42b1-a4a4-56b46cd0e9e1","system_id":"levelo_inurba_marseille","lat":43.29275,"lon":5.36842,"is_reserved":false,"is_disabled":false,"rental_uris":{"android":"levelo://app?vid=01f44b2e-8dab-42b1-a4a4-56b46cd0e9e1","ios":"levelo://app?vid=01f44b2e-8dab-42b1-a4a4-56b46cd0e9e1"},"vehicle_type_id":"4","last_reported":1715447261,"current_range_meters":15200,"station_id":"ce4bhbp2rcd13ifvqesg","pricing_plan_id":"cebpf4jnsgd1na2vs0mg"},{"bike_id":"ace5f1ba-d409-47f8-8f94-137520b885a6","system_id":"levelo_inurba_marseille","lat":43.29275,"lon":5.36852,"is_reserved":false,"is_disabled":false,"rental_uris":{"android":"levelo://app?vid=ace5f1ba-d409-47f8-8f94-137520b885a6","ios":"levelo://app?vid=ace5f1ba-d409-47f8-8f94-137520b885a6"},"vehicle_type_id":"4","last_reported":1715447261,"current_range_meters":0,"station_id":"ce4bhbp2rcd13ifvqesg","pricing_plan_id":"cebpf4jnsgd1na2vs0mg"},{"bike_id":"2c82a83b-5d57-45a9-9329-413b4687cfa1","system_id":"levelo_inurba_marseille","lat":43.29271,"lon":5.36836,"is_reserved":false,"is_disabled":false,"rental_uris":{"android":"levelo://app?vid=2c82a83b-5d57-45a9-9329-413b4687cfa1","ios":"levelo://app?vid=2c82a83b-5d57-45a9-9329-413b4687cfa1"},"vehicle_type_id":"4","last_reported":1715447261,"current_range_meters":23600,"station_id":"ce4bhbp2rcd13ifvqesg","pricing_plan_id":"cebpf4jnsgd1na2vs0mg"},{"bike_id":"0ec477ef-fdfa-471c-ba23-857fcce35ac0","system_id":"levelo_inurba_marseille","lat":43.29233,"lon":5.36478,"is_reserved":false,"is_disabled":false,"rental_uris":{"android":"levelo://app?vid=0ec477ef-fdfa-471c-ba23-857fcce35ac0","ios":"levelo://app?vid=0ec477ef-fdfa-471c-ba23-857fcce35ac0"},"vehicle_type_id":"4","last_reported":1715447261,"current_range_meters":0,"station_id":"","pricing_plan_id":"cebpf4jnsgd1na2vs0mg"},{"bike_id":"3761c99b-c340-41cb-aba7-10ea710ca4ff","system_id":"levelo_inurba_marseille","lat":43.293009,"lon":5.374584,"is_reserved":false,"is_disabled":false,"rental_uris":{"android":"levelo://app?vid=3761c99b-c340-41cb-aba7-10ea710ca4ff","ios":"levelo://app?vid=3761c99b-c340-41cb-aba7-10ea710ca4ff"},"vehicle_type_id":"4","last_reported":1715447261,"current_range_meters":4800,"station_id":"ce4bgi12rcd13ifvqb70","pricing_plan_id":"cebpf4jnsgd1na2vs0mg"},{"bike_id":"a5ec3090-f155-45d6-85c4-0601d554a013","system_id":"levelo_inurba_marseille","lat":43.293009,"lon":5.374584,"is_reserved":false,"is_disabled":false,"rental_uris":{"android":"levelo://app?vid=a5ec3090-f155-45d6-85c4-0601d554a013","ios":"levelo://app?vid=a5ec3090-f155-45d6-85c4-0601d554a013"},"vehicle_type_id":"4","last_reported":1715447261,"current_range_meters":27600,"station_id":"ce4bgi12rcd13ifvqb70","pricing_plan_id":"cebpf4jnsgd1na2vs0mg"},{"bike_id":"d9ca3f57-b050-4e2e-b020-621e404a3576","system_id":"levelo_inurba_marseille","lat":43.29301,"lon":5.37466,"is_reserved":false,"is_disabled":false,"rental_uris":{"android":"levelo://app?vid=d9ca3f57-b050-4e2e-b020-621e404a3576","ios":"levelo://app?vid=d9ca3f57-b050-4e2e-b020-621e404a3576"},"vehicle_type_id":"4","last_reported":1715447261,"current_range_meters":0,"station_id":"ce4bgi12rcd13ifvqb70","pricing_plan_id":"cebpf4jnsgd1na2vs0mg"},{"bike_id":"2b817238-7391-422a-b158-4b99ee73067b","system_id":"levelo_inurba_marseille","lat":43.293009,"lon":5.374584,"is_reserved":false,"is_disabled":false,"rental_uris":{"android":"levelo://app?vid=2b817238-7391-422a-b158-4b99ee73067b","ios":"levelo://app?vid=2b817238-7391-422a-b158-4b99ee73067b"},"vehicle_type_id":"4","last_reported":1715447261,"current_range_meters":19600,"station_id":"ce4bgi12rcd13ifvqb70","pricing_plan_id":"cebpf4jnsgd1na2vs0mg"},{"bike_id":"b3f3c70c-b282-45a5-83d1-59b159cf4825","system_id":"levelo_inurba_marseille","lat":43.303104,"lon":5.392084,"is_reserved":false,"is_disabled":false,"rental_uris":{"android":"levelo://app?vid=b3f3c70c-b282-45a5-83d1-59b159cf4825","ios":"levelo://app?vid=b3f3c70c-b282-45a5-83d1-59b159cf4825"},"vehicle_type_id":"4","last_reported":1715447261,"current_range_meters":17600,"station_id":"ce4bgkh2rcd13ifvqbk0","pricing_plan_id":"cebpf4jnsgd1na2vs0mg"},{"bike_id":"6b110e35-b328-4e62-a1e4-77fe1823a033","system_id":"levelo_inurba_marseille","lat":43.302992,"lon":5.392136,"is_reserved":false,"is_disabled":false,"rental_uris":{"android":"levelo://app?vid=6b110e35-b328-4e62-a1e4-77fe1823a033","ios":"levelo://app?vid=6b110e35-b328-4e62-a1e4-77fe1823a033"},"vehicle_type_id":"4","last_reported":1715447261,"current_range_meters":4400,"station_id":"ce4bgkh2rcd13ifvqbk0","pricing_plan_id":"cebpf4jnsgd1na2vs0mg"},{"bike_id":"02a464c2-97f8-4e6d-ae50-695af4428df9","system_id":"levelo_inurba_marseille","lat":43.302992,"lon":5.392136,"is_reserved":false,"is_disabled":false,"rental_uris":{"android":"levelo://app?vid=02a464c2-97f8-4e6d-ae50-695af4428df9","ios":"levelo://app?vid=02a464c2-97f8-4e6d-ae50-695af4428df9"},"vehicle_type_id":"4","last_reported":1715447261,"current_range_meters":20400,"station_id":"ce4bgkh2rcd13ifvqbk0","pricing_plan_id":"cebpf4jnsgd1na2vs0mg"},{"bike_id":"14bddd1f-8625-48ac-8bce-4daa7e31f3d7","system_id":"levelo_inurba_marseille","lat":43.2479,"lon":5.374457,"is_reserved":false,"is_disabled":false,"rental_uris":{"android":"levelo://app?vid=14bddd1f-8625-48ac-8bce-4daa7e31f3d7","ios":"levelo://app?vid=14bddd1f-8625-48ac-8bce-4daa7e31f3d7"},"vehicle_type_id":"4","last_reported":1715447261,"current_range_meters":14000,"station_id":"ce4bhgh2rcd13ifvqfb0","pricing_plan_id":"cebpf4jnsgd1na2vs0mg"},{"bike_id":"0e224e25-6e31-4b38-aa64-8eebf413daa2","system_id":"levelo_inurba_marseille","lat":43.302992,"lon":5.392136,"is_reserved":false,"is_disabled":false,"rental_uris":{"android":"levelo://app?vid=0e224e25-6e31-4b38-aa64-8eebf413daa2","ios":"levelo://app?vid=0e224e25-6e31-4b38-aa64-8eebf413daa2"},"vehicle_type_id":"4","last_reported":1715447261,"current_range_meters":10800,"station_id":"ce4bgkh2rcd13ifvqbk0","pricing_plan_id":"cebpf4jnsgd1na2vs0mg"},{"bike_id":"87780139-2752-491a-8d52-49a8169f255a","system_id":"levelo_inurba_marseille","lat":43.302992,"lon":5.392136,"is_reserved":false,"is_disabled":false,"rental_uris":{"android":"levelo://app?vid=87780139-2752-491a-8d52-49a8169f255a","ios":"levelo://app?vid=87780139-2752-491a-8d52-49a8169f255a"},"vehicle_type_id":"4","last_reported":1715447261,"current_range_meters":15600,"station_id":"ce4bgkh2rcd13ifvqbk0","pricing_plan_id":"cebpf4jnsgd1na2vs0mg"},{"bike_id":"b99a50b1-6ef3-4af0-b7fc-cf6e38435b50","system_id":"levelo_inurba_marseille","lat":43.2936,"lon":5.37835,"is_reserved":false,"is_disabled":false,"rental_uris":{"android":"levelo://app?vid=b99a50b1-6ef3-4af0-b7fc-cf6e38435b50","ios":"levelo://app?vid=b99a50b1-6ef3-4af0-b7fc-cf6e38435b50"},"vehicle_type_id":"4","last_reported":1715447261,"current_range_meters":15600,"station_id":"ce4bgjh2rcd13ifvqbf0","pricing_plan_id":"cebpf4jnsgd1na2vs0mg"},{"bike_id":"858313e7-d7d3-4a21-bc9d-cd20971c6132","system_id":"levelo_inurba_marseille","lat":43.2937,"lon":5.37868,"is_reserved":false,"is_disabled":false,"rental_uris":{"android":"levelo://app?vid=858313e7-d7d3-4a21-bc9d-cd20971c6132","ios":"levelo://app?vid=858313e7-d7d3-4a21-bc9d-cd20971c6132"},"vehicle_type_id":"4","last_reported":1715447261,"current_range_meters":0,"station_id":"ce4bgjh2rcd13ifvqbf0","pricing_plan_id":"cebpf4jnsgd1na2vs0mg"},{"bike_id":"3a439e68-5d7a-4187-8cc5-2fb83e71f6ff","system_id":"levelo_inurba_marseille","lat":43.2936,"lon":5.37835,"is_reserved":false,"is_disabled":false,"rental_uris":{"android":"levelo://app?vid=3a439e68-5d7a-4187-8cc5-2fb83e71f6ff","ios":"levelo://app?vid=3a439e68-5d7a-4187-8cc5-2fb83e71f6ff"},"vehicle_type_id":"4","last_reported":1715447261,"current_range_meters":1200,"station_id":"ce4bgjh2rcd13ifvqbf0","pricing_plan_id":"cebpf4jnsgd1na2vs0mg"},{"bike_id":"a47e6f10-d937-4e6a-8a69-a152b6681a88","system_id":"levelo_inurba_marseille","lat":43.292311,"lon":5.360731,"is_reserved":false,"is_disabled":false,"rental_uris":{"android":"levelo://app?vid=a47e6f10-d937-4e6a-8a69-a152b6681a88","ios":"levelo://app?vid=a47e6f10-d937-4e6a-8a69-a152b6681a88"},"vehicle_type_id":"4","last_reported":1715447261,"current_range_meters":24400,"station_id":"ce4bhbh2rcd13ifvqeqg","pricing_plan_id":"cebpf4jnsgd1na2vs0mg"},{"bike_id":"c9ce95b4-40f3-48b2-a31b-92438b37d214","system_id":"levelo_inurba_marseille","lat":43.292311,"lon":5.360731,"is_reserved":false,"is_disabled":false,"rental_uris":{"android":"levelo://app?vid=c9ce95b4-40f3-48b2-a31b-92438b37d214","ios":"levelo://app?vid=c9ce95b4-40f3-48b2-a31b-92438b37d214"},"vehicle_type_id":"4","last_reported":1715447261,"current_range_meters":7200,"station_id":"ce4bhbh2rcd13ifvqeqg","pricing_plan_id":"cebpf4jnsgd1na2vs0mg"},{"bike_id":"22b5bd64-eb43-4cca-a203-b08bb252f583","system_id":"levelo_inurba_marseille","lat":43.292311,"lon":5.360731,"is_reserved":false,"is_disabled":false,"rental_uris":{"android":"levelo://app?vid=22b5bd64-eb43-4cca-a203-b08bb252f583","ios":"levelo://app?vid=22b5bd64-eb43-4cca-a203-b08bb252f583"},"vehicle_type_id":"4","last_reported":1715447261,"current_range_meters":7600,"station_id":"ce4bhbh2rcd13ifvqeqg","pricing_plan_id":"cebpf4jnsgd1na2vs0mg"},{"bike_id":"710e4c6a-b430-419d-87e9-72fa17dc8beb","system_id":"levelo_inurba_marseille","lat":43.292311,"lon":5.360731,"is_reserved":false,"is_disabled":false,"rental_uris":{"android":"levelo://app?vid=710e4c6a-b430-419d-87e9-72fa17dc8beb","ios":"levelo://app?vid=710e4c6a-b430-419d-87e9-72fa17dc8beb"},"vehicle_type_id":"4","last_reported":1715447261,"current_range_meters":0,"station_id":"ce4bhbh2rcd13ifvqeqg","pricing_plan_id":"cebpf4jnsgd1na2vs0mg"},{"bike_id":"075b168c-c9d2-46b9-a539-a6079f2d6b98","system_id":"levelo_inurba_marseille","lat":43.30085,"lon":5.390856,"is_reserved":false,"is_disabled":false,"rental_uris":{"android":"levelo://app?vid=075b168c-c9d2-46b9-a539-a6079f2d6b98","ios":"levelo://app?vid=075b168c-c9d2-46b9-a539-a6079f2d6b98"},"vehicle_type_id":"4","last_reported":1715447261,"current_range_meters":16800,"station_id":"ce4bh192rcd13ifvqdb0","pricing_plan_id":"cebpf4jnsgd1na2vs0mg"},{"bike_id":"a5200f64-537d-45d7-bd5b-7824c4c8ce45","system_id":"levelo_inurba_marseille","lat":43.30085,"lon":5.390856,"is_reserved":false,"is_disabled":false,"rental_uris":{"android":"levelo://app?vid=a5200f64-537d-45d7-bd5b-7824c4c8ce45","ios":"levelo://app?vid=a5200f64-537d-45d7-bd5b-7824c4c8ce45"},"vehicle_type_id":"4","last_reported":1715447261,"current_range_meters":10000,"station_id":"ce4bh192rcd13ifvqdb0","pricing_plan_id":"cebpf4jnsgd1na2vs0mg"},{"bike_id":"f7e9ba37-2efe-4be6-b1cb-63fe356358be","system_id":"levelo_inurba_marseille","lat":43.300852,"lon":5.390859,"is_reserved":false,"is_disabled":false,"rental_uris":{"android":"levelo://app?vid=f7e9ba37-2efe-4be6-b1cb-63fe356358be","ios":"levelo://app?vid=f7e9ba37-2efe-4be6-b1cb-63fe356358be"},"vehicle_type_id":"4","last_reported":1715447261,"current_range_meters":4800,"station_id":"ce4bh192rcd13ifvqdb0","pricing_plan_id":"cebpf4jnsgd1na2vs0mg"},{"bike_id":"1c01797e-dbb6-4d5e-9d2e-463b8799fb94","system_id":"levelo_inurba_marseille","lat":43.292311,"lon":5.360731,"is_reserved":false,"is_disabled":false,"rental_uris":{"android":"levelo://app?vid=1c01797e-dbb6-4d5e-9d2e-463b8799fb94","ios":"levelo://app?vid=1c01797e-dbb6-4d5e-9d2e-463b8799fb94"},"vehicle_type_id":"4","last_reported":1715447261,"current_range_meters":12000,"station_id":"ce4bhbh2rcd13ifvqeqg","pricing_plan_id":"cebpf4jnsgd1na2vs0mg"},{"bike_id":"b142cc0d-dc3d-419b-b0c5-53d1cda77141","system_id":"levelo_inurba_marseille","lat":43.29221,"lon":5.36078,"is_reserved":false,"is_disabled":false,"rental_uris":{"android":"levelo://app?vid=b142cc0d-dc3d-419b-b0c5-53d1cda77141","ios":"levelo://app?vid=b142cc0d-dc3d-419b-b0c5-53d1cda77141"},"vehicle_type_id":"4","last_reported":1715447261,"current_range_meters":0,"station_id":"ce4bhbh2rcd13ifvqeqg","pricing_plan_id":"cebpf4jnsgd1na2vs0mg"},{"bike_id":"ba54982f-efce-4cc5-b36d-5751f1bd3851","system_id":"levelo_inurba_marseille","lat":43.30085,"lon":5.390856,"is_reserved":false,"is_disabled":false,"rental_uris":{"android":"levelo://app?vid=ba54982f-efce-4cc5-b36d-5751f1bd3851","ios":"levelo://app?vid=ba54982f-efce-4cc5-b36d-5751f1bd3851"},"vehicle_type_id":"4","last_reported":1715447261,"current_range_meters":20000,"station_id":"ce4bh192rcd13ifvqdb0","pricing_plan_id":"cebpf4jnsgd1na2vs0mg"},{"bike_id":"cc4c2321-3fbf-4a81-acf3-c5817347c827","system_id":"levelo_inurba_marseille","lat":43.298764,"lon":5.388973,"is_reserved":false,"is_disabled":false,"rental_uris":{"android":"levelo://app?vid=cc4c2321-3fbf-4a81-acf3-c5817347c827","ios":"levelo://app?vid=cc4c2321-3fbf-4a81-acf3-c5817347c827"},"vehicle_type_id":"4","last_reported":1715447261,"current_range_meters":8800,"station_id":"ce4bh392rcd13ifvqdl0","pricing_plan_id":"cebpf4jnsgd1na2vs0mg"},{"bike_id":"a49bd24f-a3fd-495a-a99e-7cbed5eea753","system_id":"levelo_inurba_marseille","lat":43.298764,"lon":5.388973,"is_reserved":false,"is_disabled":false,"rental_uris":{"android":"levelo://app?vid=a49bd24f-a3fd-495a-a99e-7cbed5eea753","ios":"levelo://app?vid=a49bd24f-a3fd-495a-a99e-7cbed5eea753"},"vehicle_type_id":"4","last_reported":1715447261,"current_range_meters":16400,"station_id":"ce4bh392rcd13ifvqdl0","pricing_plan_id":"cebpf4jnsgd1na2vs0mg"},{"bike_id":"d6b765b8-62e8-4cb8-a2f0-d46ce9af8745","system_id":"levelo_inurba_marseille","lat":43.298764,"lon":5.388973,"is_reserved":false,"is_disabled":false,"rental_uris":{"android":"levelo://app?vid=d6b765b8-62e8-4cb8-a2f0-d46ce9af8745","ios":"levelo://app?vid=d6b765b8-62e8-4cb8-a2f0-d46ce9af8745"},"vehicle_type_id":"4","last_reported":1715447261,"current_range_meters":2800,"station_id":"ce4bh392rcd13ifvqdl0","pricing_plan_id":"cebpf4jnsgd1na2vs0mg"},{"bike_id":"91dac2e4-36ee-48d1-a7dd-e8eae52c3dea","system_id":"levelo_inurba_marseille","lat":43.298764,"lon":5.388973,"is_reserved":false,"is_disabled":false,"rental_uris":{"android":"levelo://app?vid=91dac2e4-36ee-48d1-a7dd-e8eae52c3dea","ios":"levelo://app?vid=91dac2e4-36ee-48d1-a7dd-e8eae52c3dea"},"vehicle_type_id":"4","last_reported":1715447261,"current_range_meters":4000,"station_id":"ce4bh392rcd13ifvqdl0","pricing_plan_id":"cebpf4jnsgd1na2vs0mg"},{"bike_id":"05123769-5afc-42e0-a974-64203711d8fc","system_id":"levelo_inurba_marseille","lat":43.291709,"lon":5.371583,"is_reserved":false,"is_disabled":false,"rental_uris":{"android":"levelo://app?vid=05123769-5afc-42e0-a974-64203711d8fc","ios":"levelo://app?vid=05123769-5afc-42e0-a974-64203711d8fc"},"vehicle_type_id":"4","last_reported":1715447261,"current_range_meters":0,"station_id":"ce4bha92rcd13ifvqeh0","pricing_plan_id":"cebpf4jnsgd1na2vs0mg"},{"bike_id":"a1005953-1e96-4385-84c7-3a2395f5e69d","system_id":"levelo_inurba_marseille","lat":43.29877,"lon":5.38913,"is_reserved":false,"is_disabled":false,"rental_uris":{"android":"levelo://app?vid=a1005953-1e96-4385-84c7-3a2395f5e69d","ios":"levelo://app?vid=a1005953-1e96-4385-84c7-3a2395f5e69d"},"vehicle_type_id":"4","last_reported":1715447261,"current_range_meters":0,"station_id":"ce4bh392rcd13ifvqdl0","pricing_plan_id":"cebpf4jnsgd1na2vs0mg"},{"bike_id":"ebd53efd-428e-4e11-9749-7825469f3bad","system_id":"levelo_inurba_marseille","lat":43.291671,"lon":5.371575,"is_reserved":false,"is_disabled":false,"rental_uris":{"android":"levelo://app?vid=ebd53efd-428e-4e11-9749-7825469f3bad","ios":"levelo://app?vid=ebd53efd-428e-4e11-9749-7825469f3bad"},"vehicle_type_id":"4","last_reported":1715447261,"current_range_meters":11200,"station_id":"ce4bha92rcd13ifvqeh0","pricing_plan_id":"cebpf4jnsgd1na2vs0mg"},{"bike_id":"483b36bf-dd87-46ed-9d45-681e0a932415","system_id":"levelo_inurba_marseille","lat":43.31326,"lon":5.39686,"is_reserved":false,"is_disabled":false,"rental_uris":{"android":"levelo://app?vid=483b36bf-dd87-46ed-9d45-681e0a932415","ios":"levelo://app?vid=483b36bf-dd87-46ed-9d45-681e0a932415"},"vehicle_type_id":"4","last_reported":1715447261,"current_range_meters":7600,"station_id":"ce4bgvp2rcd13ifvqcu0","pricing_plan_id":"cebpf4jnsgd1na2vs0mg"},{"bike_id":"466becef-e9d7-4830-a1c8-bbc4ff876f2d","system_id":"levelo_inurba_marseille","lat":43.29193,"lon":5.35797,"is_reserved":false,"is_disabled":false,"rental_uris":{"android":"levelo://app?vid=466becef-e9d7-4830-a1c8-bbc4ff876f2d","ios":"levelo://app?vid=466becef-e9d7-4830-a1c8-bbc4ff876f2d"},"vehicle_type_id":"4","last_reported":1715447261,"current_range_meters":0,"station_id":"ce4bhb12rcd13ifvqel0","pricing_plan_id":"cebpf4jnsgd1na2vs0mg"},{"bike_id":"aae124e5-60f8-479a-85a0-d18d373b8edc","system_id":"levelo_inurba_marseille","lat":43.313291,"lon":5.396838,"is_reserved":false,"is_disabled":false,"rental_uris":{"android":"levelo://app?vid=aae124e5-60f8-479a-85a0-d18d373b8edc","ios":"levelo://app?vid=aae124e5-60f8-479a-85a0-d18d373b8edc"},"vehicle_type_id":"4","last_reported":1715447261,"current_range_meters":22400,"station_id":"ce4bgvp2rcd13ifvqcu0","pricing_plan_id":"cebpf4jnsgd1na2vs0mg"},{"bike_id":"91941653-f149-4f08-a026-e118681674cb","system_id":"levelo_inurba_marseille","lat":43.313291,"lon":5.396838,"is_reserved":false,"is_disabled":false,"rental_uris":{"android":"levelo://app?vid=91941653-f149-4f08-a026-e118681674cb","ios":"levelo://app?vid=91941653-f149-4f08-a026-e118681674cb"},"vehicle_type_id":"4","last_reported":1715447261,"current_range_meters":10000,"station_id":"ce4bgvp2rcd13ifvqcu0","pricing_plan_id":"cebpf4jnsgd1na2vs0mg"},{"bike_id":"685f70ab-8601-4ddd-a93d-84cdc720730e","system_id":"levelo_inurba_marseille","lat":43.313291,"lon":5.396838,"is_reserved":false,"is_disabled":false,"rental_uris":{"android":"levelo://app?vid=685f70ab-8601-4ddd-a93d-84cdc720730e","ios":"levelo://app?vid=685f70ab-8601-4ddd-a93d-84cdc720730e"},"vehicle_type_id":"4","last_reported":1715447261,"current_range_meters":3200,"station_id":"ce4bgvp2rcd13ifvqcu0","pricing_plan_id":"cebpf4jnsgd1na2vs0mg"},{"bike_id":"fa72a85d-6483-4ed1-bd8f-a169aa2b01b0","system_id":"levelo_inurba_marseille","lat":43.313291,"lon":5.396838,"is_reserved":false,"is_disabled":false,"rental_uris":{"android":"levelo://app?vid=fa72a85d-6483-4ed1-bd8f-a169aa2b01b0","ios":"levelo://app?vid=fa72a85d-6483-4ed1-bd8f-a169aa2b01b0"},"vehicle_type_id":"4","last_reported":1715447261,"current_range_meters":22400,"station_id":"ce4bgvp2rcd13ifvqcu0","pricing_plan_id":"cebpf4jnsgd1na2vs0mg"},{"bike_id":"b6a34e75-e28b-422b-93e9-1450f724dec8","system_id":"levelo_inurba_marseille","lat":43.313291,"lon":5.396838,"is_reserved":false,"is_disabled":false,"rental_uris":{"android":"levelo://app?vid=b6a34e75-e28b-422b-93e9-1450f724dec8","ios":"levelo://app?vid=b6a34e75-e28b-422b-93e9-1450f724dec8"},"vehicle_type_id":"4","last_reported":1715447261,"current_range_meters":16400,"station_id":"ce4bgvp2rcd13ifvqcu0","pricing_plan_id":"cebpf4jnsgd1na2vs0mg"},{"bike_id":"68d275f5-2ec1-4742-a4c1-e9a222d8267c","system_id":"levelo_inurba_marseille","lat":43.309047,"lon":5.396551,"is_reserved":false,"is_disabled":false,"rental_uris":{"android":"levelo://app?vid=68d275f5-2ec1-4742-a4c1-e9a222d8267c","ios":"levelo://app?vid=68d275f5-2ec1-4742-a4c1-e9a222d8267c"},"vehicle_type_id":"4","last_reported":1715447261,"current_range_meters":19200,"station_id":"ce4bh012rcd13ifvqcv0","pricing_plan_id":"cebpf4jnsgd1na2vs0mg"},{"bike_id":"c0dcb867-e74b-4fc9-a2dd-cabdf5332885","system_id":"levelo_inurba_marseille","lat":43.29529,"lon":5.385581,"is_reserved":false,"is_disabled":false,"rental_uris":{"android":"levelo://app?vid=c0dcb867-e74b-4fc9-a2dd-cabdf5332885","ios":"levelo://app?vid=c0dcb867-e74b-4fc9-a2dd-cabdf5332885"},"vehicle_type_id":"4","last_reported":1715447261,"current_range_meters":0,"station_id":"ce4bgih2rcd13ifvqba0","pricing_plan_id":"cebpf4jnsgd1na2vs0mg"},{"bike_id":"ca776409-637e-48a4-b127-2e6480edea9b","system_id":"levelo_inurba_marseille","lat":43.29543,"lon":5.38546,"is_reserved":false,"is_disabled":false,"rental_uris":{"android":"levelo://app?vid=ca776409-637e-48a4-b127-2e6480edea9b","ios":"levelo://app?vid=ca776409-637e-48a4-b127-2e6480edea9b"},"vehicle_type_id":"4","last_reported":1715447261,"current_range_meters":0,"station_id":"ce4bgih2rcd13ifvqba0","pricing_plan_id":"cebpf4jnsgd1na2vs0mg"},{"bike_id":"1b34c23c-7bba-4f35-a62f-b51cb5b053cf","system_id":"levelo_inurba_marseille","lat":43.29529,"lon":5.385581,"is_reserved":false,"is_disabled":false,"rental_uris":{"android":"levelo://app?vid=1b34c23c-7bba-4f35-a62f-b51cb5b053cf","ios":"levelo://app?vid=1b34c23c-7bba-4f35-a62f-b51cb5b053cf"},"vehicle_type_id":"4","last_reported":1715447261,"current_range_meters":22800,"station_id":"ce4bgih2rcd13ifvqba0","pricing_plan_id":"cebpf4jnsgd1na2vs0mg"},{"bike_id":"8ded7330-dfdb-440a-bafa-29c842ddb24a","system_id":"levelo_inurba_marseille","lat":43.29529,"lon":5.385581,"is_reserved":false,"is_disabled":false,"rental_uris":{"android":"levelo://app?vid=8ded7330-dfdb-440a-bafa-29c842ddb24a","ios":"levelo://app?vid=8ded7330-dfdb-440a-bafa-29c842ddb24a"},"vehicle_type_id":"4","last_reported":1715447261,"current_range_meters":5200,"station_id":"ce4bgih2rcd13ifvqba0","pricing_plan_id":"cebpf4jnsgd1na2vs0mg"},{"bike_id":"cb4ff5c6-fa50-45cd-948f-3dc4dccb5b2a","system_id":"levelo_inurba_marseille","lat":43.29529,"lon":5.385581,"is_reserved":false,"is_disabled":false,"rental_uris":{"android":"levelo://app?vid=cb4ff5c6-fa50-45cd-948f-3dc4dccb5b2a","ios":"levelo://app?vid=cb4ff5c6-fa50-45cd-948f-3dc4dccb5b2a"},"vehicle_type_id":"4","last_reported":1715447261,"current_range_meters":10800,"station_id":"ce4bgih2rcd13ifvqba0","pricing_plan_id":"cebpf4jnsgd1na2vs0mg"},{"bike_id":"245a6be3-51ad-43b6-a450-6eedc888475d","system_id":"levelo_inurba_marseille","lat":43.290779,"lon":5.371482,"is_reserved":false,"is_disabled":false,"rental_uris":{"android":"levelo://app?vid=245a6be3-51ad-43b6-a450-6eedc888475d","ios":"levelo://app?vid=245a6be3-51ad-43b6-a450-6eedc888475d"},"vehicle_type_id":"4","last_reported":1715447261,"current_range_meters":13200,"station_id":"ce4bh5p2rcd13ifvqe4g","pricing_plan_id":"cebpf4jnsgd1na2vs0mg"},{"bike_id":"79b82ba0-7e8c-4fed-b416-60464e56de56","system_id":"levelo_inurba_marseille","lat":43.291675,"lon":5.371583,"is_reserved":false,"is_disabled":false,"rental_uris":{"android":"levelo://app?vid=79b82ba0-7e8c-4fed-b416-60464e56de56","ios":"levelo://app?vid=79b82ba0-7e8c-4fed-b416-60464e56de56"},"vehicle_type_id":"4","last_reported":1715447261,"current_range_meters":13200,"station_id":"ce4bha92rcd13ifvqeh0","pricing_plan_id":"cebpf4jnsgd1na2vs0mg"},{"bike_id":"75ace9e0-825a-42fa-b39d-9699ccf7be16","system_id":"levelo_inurba_marseille","lat":43.290779,"lon":5.371482,"is_reserved":false,"is_disabled":false,"rental_uris":{"android":"levelo://app?vid=75ace9e0-825a-42fa-b39d-9699ccf7be16","ios":"levelo://app?vid=75ace9e0-825a-42fa-b39d-9699ccf7be16"},"vehicle_type_id":"4","last_reported":1715447261,"current_range_meters":0,"station_id":"ce4bh5p2rcd13ifvqe4g","pricing_plan_id":"cebpf4jnsgd1na2vs0mg"},{"bike_id":"f1d4d1b3-2174-4cd6-8e3b-a3a506ada7b9","system_id":"levelo_inurba_marseille","lat":43.302008,"lon":5.394694,"is_reserved":false,"is_disabled":false,"rental_uris":{"android":"levelo://app?vid=f1d4d1b3-2174-4cd6-8e3b-a3a506ada7b9","ios":"levelo://app?vid=f1d4d1b3-2174-4cd6-8e3b-a3a506ada7b9"},"vehicle_type_id":"4","last_reported":1715447261,"current_range_meters":18000,"station_id":"ce4bh0p2rcd13ifvqd70","pricing_plan_id":"cebpf4jnsgd1na2vs0mg"},{"bike_id":"3054e1bd-a2a9-4e4c-aa11-6bc18837313a","system_id":"levelo_inurba_marseille","lat":43.302008,"lon":5.394694,"is_reserved":false,"is_disabled":false,"rental_uris":{"android":"levelo://app?vid=3054e1bd-a2a9-4e4c-aa11-6bc18837313a","ios":"levelo://app?vid=3054e1bd-a2a9-4e4c-aa11-6bc18837313a"},"vehicle_type_id":"4","last_reported":1715447261,"current_range_meters":3600,"station_id":"ce4bh0p2rcd13ifvqd70","pricing_plan_id":"cebpf4jnsgd1na2vs0mg"},{"bike_id":"220efb34-ad54-40da-916e-3be475baa43e","system_id":"levelo_inurba_marseille","lat":43.302008,"lon":5.394694,"is_reserved":false,"is_disabled":false,"rental_uris":{"android":"levelo://app?vid=220efb34-ad54-40da-916e-3be475baa43e","ios":"levelo://app?vid=220efb34-ad54-40da-916e-3be475baa43e"},"vehicle_type_id":"4","last_reported":1715447261,"current_range_meters":0,"station_id":"ce4bh0p2rcd13ifvqd70","pricing_plan_id":"cebpf4jnsgd1na2vs0mg"},{"bike_id":"6fbbb8b9-517b-440b-8b08-9ee27491700a","system_id":"levelo_inurba_marseille","lat":43.302008,"lon":5.394694,"is_reserved":false,"is_disabled":false,"rental_uris":{"android":"levelo://app?vid=6fbbb8b9-517b-440b-8b08-9ee27491700a","ios":"levelo://app?vid=6fbbb8b9-517b-440b-8b08-9ee27491700a"},"vehicle_type_id":"4","last_reported":1715447261,"current_range_meters":23200,"station_id":"ce4bh0p2rcd13ifvqd70","pricing_plan_id":"cebpf4jnsgd1na2vs0mg"},{"bike_id":"dc08d9d5-0df0-4aee-872f-c8d0d051faea","system_id":"levelo_inurba_marseille","lat":43.290624,"lon":5.359245,"is_reserved":false,"is_disabled":false,"rental_uris":{"android":"levelo://app?vid=dc08d9d5-0df0-4aee-872f-c8d0d051faea","ios":"levelo://app?vid=dc08d9d5-0df0-4aee-872f-c8d0d051faea"},"vehicle_type_id":"4","last_reported":1715447261,"current_range_meters":21200,"station_id":"ce4bha92rcd13ifvqeg0","pricing_plan_id":"cebpf4jnsgd1na2vs0mg"},{"bike_id":"0bc31975-240b-4f3c-bec0-6c4e965c8a2a","system_id":"levelo_inurba_marseille","lat":43.290631,"lon":5.359244,"is_reserved":false,"is_disabled":false,"rental_uris":{"android":"levelo://app?vid=0bc31975-240b-4f3c-bec0-6c4e965c8a2a","ios":"levelo://app?vid=0bc31975-240b-4f3c-bec0-6c4e965c8a2a"},"vehicle_type_id":"4","last_reported":1715447261,"current_range_meters":15200,"station_id":"ce4bha92rcd13ifvqeg0","pricing_plan_id":"cebpf4jnsgd1na2vs0mg"},{"bike_id":"1bf50dba-6e76-423f-bd2a-f6872a2bae89","system_id":"levelo_inurba_marseille","lat":43.290319,"lon":5.375732,"is_reserved":false,"is_disabled":false,"rental_uris":{"android":"levelo://app?vid=1bf50dba-6e76-423f-bd2a-f6872a2bae89","ios":"levelo://app?vid=1bf50dba-6e76-423f-bd2a-f6872a2bae89"},"vehicle_type_id":"4","last_reported":1715447261,"current_range_meters":4400,"station_id":"ce4bh692rcd13ifvqe90","pricing_plan_id":"cebpf4jnsgd1na2vs0mg"},{"bike_id":"43eed62a-91c0-4207-8307-7d65e248d1c3","system_id":"levelo_inurba_marseille","lat":43.29426,"lon":5.38628,"is_reserved":false,"is_disabled":false,"rental_uris":{"android":"levelo://app?vid=43eed62a-91c0-4207-8307-7d65e248d1c3","ios":"levelo://app?vid=43eed62a-91c0-4207-8307-7d65e248d1c3"},"vehicle_type_id":"4","last_reported":1715447261,"current_range_meters":15600,"station_id":"ce4bh2h2rcd13ifvqdh0","pricing_plan_id":"cebpf4jnsgd1na2vs0mg"},{"bike_id":"114c95eb-3c4c-42d8-9f2e-5ecf87c6106a","system_id":"levelo_inurba_marseille","lat":43.290327,"lon":5.375711,"is_reserved":false,"is_disabled":false,"rental_uris":{"android":"levelo://app?vid=114c95eb-3c4c-42d8-9f2e-5ecf87c6106a","ios":"levelo://app?vid=114c95eb-3c4c-42d8-9f2e-5ecf87c6106a"},"vehicle_type_id":"4","last_reported":1715447261,"current_range_meters":1600,"station_id":"ce4bh692rcd13ifvqe90","pricing_plan_id":"cebpf4jnsgd1na2vs0mg"},{"bike_id":"0b936cc4-5b46-4d38-bc0d-8b1bfc687785","system_id":"levelo_inurba_marseille","lat":43.290327,"lon":5.375711,"is_reserved":false,"is_disabled":false,"rental_uris":{"android":"levelo://app?vid=0b936cc4-5b46-4d38-bc0d-8b1bfc687785","ios":"levelo://app?vid=0b936cc4-5b46-4d38-bc0d-8b1bfc687785"},"vehicle_type_id":"4","last_reported":1715447261,"current_range_meters":14000,"station_id":"ce4bh692rcd13ifvqe90","pricing_plan_id":"cebpf4jnsgd1na2vs0mg"},{"bike_id":"a357d259-1f0d-43c9-b221-dea1af15f792","system_id":"levelo_inurba_marseille","lat":43.289444,"lon":5.366501,"is_reserved":false,"is_disabled":false,"rental_uris":{"android":"levelo://app?vid=a357d259-1f0d-43c9-b221-dea1af15f792","ios":"levelo://app?vid=a357d259-1f0d-43c9-b221-dea1af15f792"},"vehicle_type_id":"4","last_reported":1715447261,"current_range_meters":21600,"station_id":"","pricing_plan_id":"cebpf4jnsgd1na2vs0mg"},{"bike_id":"6bfb2404-a085-4a38-a925-5fe02450db88","system_id":"levelo_inurba_marseille","lat":43.289184,"lon":5.366408,"is_reserved":false,"is_disabled":false,"rental_uris":{"android":"levelo://app?vid=6bfb2404-a085-4a38-a925-5fe02450db88","ios":"levelo://app?vid=6bfb2404-a085-4a38-a925-5fe02450db88"},"vehicle_type_id":"4","last_reported":1715447261,"current_range_meters":23200,"station_id":"ce4bhap2rcd13ifvqek0","pricing_plan_id":"cebpf4jnsgd1na2vs0mg"},{"bike_id":"3e273663-7603-40fe-b030-126225e268e3","system_id":"levelo_inurba_marseille","lat":43.294153,"lon":5.386305,"is_reserved":false,"is_disabled":false,"rental_uris":{"android":"levelo://app?vid=3e273663-7603-40fe-b030-126225e268e3","ios":"levelo://app?vid=3e273663-7603-40fe-b030-126225e268e3"},"vehicle_type_id":"4","last_reported":1715447261,"current_range_meters":3200,"station_id":"ce4bh2h2rcd13ifvqdh0","pricing_plan_id":"cebpf4jnsgd1na2vs0mg"},{"bike_id":"1717e8b8-16cc-4752-abc2-26610e25dac7","system_id":"levelo_inurba_marseille","lat":43.289184,"lon":5.366408,"is_reserved":false,"is_disabled":false,"rental_uris":{"android":"levelo://app?vid=1717e8b8-16cc-4752-abc2-26610e25dac7","ios":"levelo://app?vid=1717e8b8-16cc-4752-abc2-26610e25dac7"},"vehicle_type_id":"4","last_reported":1715447261,"current_range_meters":0,"station_id":"ce4bhap2rcd13ifvqek0","pricing_plan_id":"cebpf4jnsgd1na2vs0mg"},{"bike_id":"63141588-7123-4e9c-b648-170781a9d4a2","system_id":"levelo_inurba_marseille","lat":43.289184,"lon":5.366408,"is_reserved":false,"is_disabled":false,"rental_uris":{"android":"levelo://app?vid=63141588-7123-4e9c-b648-170781a9d4a2","ios":"levelo://app?vid=63141588-7123-4e9c-b648-170781a9d4a2"},"vehicle_type_id":"4","last_reported":1715447261,"current_range_meters":16000,"station_id":"ce4bhap2rcd13ifvqek0","pricing_plan_id":"cebpf4jnsgd1na2vs0mg"},{"bike_id":"ff25c54c-f8fe-4c5e-9fbe-9a9dcfba0d79","system_id":"levelo_inurba_marseille","lat":43.2927,"lon":5.38456,"is_reserved":false,"is_disabled":false,"rental_uris":{"android":"levelo://app?vid=ff25c54c-f8fe-4c5e-9fbe-9a9dcfba0d79","ios":"levelo://app?vid=ff25c54c-f8fe-4c5e-9fbe-9a9dcfba0d79"},"vehicle_type_id":"4","last_reported":1715447261,"current_range_meters":0,"station_id":"ce4bh692rcd13ifvqea0","pricing_plan_id":"cebpf4jnsgd1na2vs0mg"},{"bike_id":"2a68e5a1-3fb5-420d-8e50-09162f39d2d1","system_id":"levelo_inurba_marseille","lat":43.292642,"lon":5.384254,"is_reserved":false,"is_disabled":false,"rental_uris":{"android":"levelo://app?vid=2a68e5a1-3fb5-420d-8e50-09162f39d2d1","ios":"levelo://app?vid=2a68e5a1-3fb5-420d-8e50-09162f39d2d1"},"vehicle_type_id":"4","last_reported":1715447261,"current_range_meters":31600,"station_id":"ce4bh692rcd13ifvqea0","pricing_plan_id":"cebpf4jnsgd1na2vs0mg"},{"bike_id":"76f43697-a61a-49c4-907a-c1648333a037","system_id":"levelo_inurba_marseille","lat":43.29268,"lon":5.38456,"is_reserved":false,"is_disabled":false,"rental_uris":{"android":"levelo://app?vid=76f43697-a61a-49c4-907a-c1648333a037","ios":"levelo://app?vid=76f43697-a61a-49c4-907a-c1648333a037"},"vehicle_type_id":"4","last_reported":1715447261,"current_range_meters":0,"station_id":"ce4bh692rcd13ifvqea0","pricing_plan_id":"cebpf4jnsgd1na2vs0mg"},{"bike_id":"7f178e18-4e51-4877-836a-510c8a4f623f","system_id":"levelo_inurba_marseille","lat":43.29258,"lon":5.3844,"is_reserved":false,"is_disabled":false,"rental_uris":{"android":"levelo://app?vid=7f178e18-4e51-4877-836a-510c8a4f623f","ios":"levelo://app?vid=7f178e18-4e51-4877-836a-510c8a4f623f"},"vehicle_type_id":"4","last_reported":1715447261,"current_range_meters":0,"station_id":"","pricing_plan_id":"cebpf4jnsgd1na2vs0mg"},{"bike_id":"3e7bbafd-59e9-499a-9414-2aa2c3ff9474","system_id":"levelo_inurba_marseille","lat":43.290079,"lon":5.356133,"is_reserved":false,"is_disabled":false,"rental_uris":{"android":"levelo://app?vid=3e7bbafd-59e9-499a-9414-2aa2c3ff9474","ios":"levelo://app?vid=3e7bbafd-59e9-499a-9414-2aa2c3ff9474"},"vehicle_type_id":"4","last_reported":1715447261,"current_range_meters":15600,"station_id":"ce4bhb92rcd13ifvqen0","pricing_plan_id":"cebpf4jnsgd1na2vs0mg"},{"bike_id":"22d44666-c492-4563-b939-2296b52494ea","system_id":"levelo_inurba_marseille","lat":43.295169,"lon":5.390426,"is_reserved":false,"is_disabled":false,"rental_uris":{"android":"levelo://app?vid=22d44666-c492-4563-b939-2296b52494ea","ios":"levelo://app?vid=22d44666-c492-4563-b939-2296b52494ea"},"vehicle_type_id":"4","last_reported":1715447261,"current_range_meters":24400,"station_id":"ce4bh3p2rcd13ifvqdp0","pricing_plan_id":"cebpf4jnsgd1na2vs0mg"},{"bike_id":"e1af4f3b-9ea4-4bdb-a640-77f6066d8e90","system_id":"levelo_inurba_marseille","lat":43.29787,"lon":5.39345,"is_reserved":false,"is_disabled":false,"rental_uris":{"android":"levelo://app?vid=e1af4f3b-9ea4-4bdb-a640-77f6066d8e90","ios":"levelo://app?vid=e1af4f3b-9ea4-4bdb-a640-77f6066d8e90"},"vehicle_type_id":"4","last_reported":1715447261,"current_range_meters":0,"station_id":"chh1huq6cuj3fo74tm60","pricing_plan_id":"cebpf4jnsgd1na2vs0mg"},{"bike_id":"229bc89b-b7de-4778-b214-d453c3b84b6d","system_id":"levelo_inurba_marseille","lat":43.297815,"lon":5.393548,"is_reserved":false,"is_disabled":false,"rental_uris":{"android":"levelo://app?vid=229bc89b-b7de-4778-b214-d453c3b84b6d","ios":"levelo://app?vid=229bc89b-b7de-4778-b214-d453c3b84b6d"},"vehicle_type_id":"4","last_reported":1715447261,"current_range_meters":6000,"station_id":"chh1huq6cuj3fo74tm60","pricing_plan_id":"cebpf4jnsgd1na2vs0mg"},{"bike_id":"19cbfe46-f1f8-4e64-a217-a4fc31b9fedd","system_id":"levelo_inurba_marseille","lat":43.330442,"lon":5.389148,"is_reserved":false,"is_disabled":false,"rental_uris":{"android":"levelo://app?vid=19cbfe46-f1f8-4e64-a217-a4fc31b9fedd","ios":"levelo://app?vid=19cbfe46-f1f8-4e64-a217-a4fc31b9fedd"},"vehicle_type_id":"4","last_reported":1715447261,"current_range_meters":6400,"station_id":"ce4bhr92rcd13ifvqhrg","pricing_plan_id":"cebpf4jnsgd1na2vs0mg"},{"bike_id":"21b1231b-b867-442c-943a-b04537e87783","system_id":"levelo_inurba_marseille","lat":43.297815,"lon":5.393548,"is_reserved":false,"is_disabled":false,"rental_uris":{"android":"levelo://app?vid=21b1231b-b867-442c-943a-b04537e87783","ios":"levelo://app?vid=21b1231b-b867-442c-943a-b04537e87783"},"vehicle_type_id":"4","last_reported":1715447261,"current_range_meters":16000,"station_id":"chh1huq6cuj3fo74tm60","pricing_plan_id":"cebpf4jnsgd1na2vs0mg"},{"bike_id":"d18d50ec-1e4e-45ae-a2ae-3127fc91ef08","system_id":"levelo_inurba_marseille","lat":43.295169,"lon":5.390426,"is_reserved":false,"is_disabled":false,"rental_uris":{"android":"levelo://app?vid=d18d50ec-1e4e-45ae-a2ae-3127fc91ef08","ios":"levelo://app?vid=d18d50ec-1e4e-45ae-a2ae-3127fc91ef08"},"vehicle_type_id":"4","last_reported":1715447261,"current_range_meters":23600,"station_id":"ce4bh3p2rcd13ifvqdp0","pricing_plan_id":"cebpf4jnsgd1na2vs0mg"},{"bike_id":"e8564673-7b14-4671-bd71-1178d76cd300","system_id":"levelo_inurba_marseille","lat":43.330442,"lon":5.389148,"is_reserved":false,"is_disabled":false,"rental_uris":{"android":"levelo://app?vid=e8564673-7b14-4671-bd71-1178d76cd300","ios":"levelo://app?vid=e8564673-7b14-4671-bd71-1178d76cd300"},"vehicle_type_id":"4","last_reported":1715447261,"current_range_meters":0,"station_id":"ce4bhr92rcd13ifvqhrg","pricing_plan_id":"cebpf4jnsgd1na2vs0mg"},{"bike_id":"ffd337c2-52b8-40c4-960d-38fe165ddfad","system_id":"levelo_inurba_marseille","lat":43.290103,"lon":5.356114,"is_reserved":false,"is_disabled":false,"rental_uris":{"android":"levelo://app?vid=ffd337c2-52b8-40c4-960d-38fe165ddfad","ios":"levelo://app?vid=ffd337c2-52b8-40c4-960d-38fe165ddfad"},"vehicle_type_id":"4","last_reported":1715447261,"current_range_meters":8400,"station_id":"ce4bhb92rcd13ifvqen0","pricing_plan_id":"cebpf4jnsgd1na2vs0mg"},{"bike_id":"23a62b29-2ae0-4524-866e-b81ea1a18cab","system_id":"levelo_inurba_marseille","lat":43.330442,"lon":5.389148,"is_reserved":false,"is_disabled":false,"rental_uris":{"android":"levelo://app?vid=23a62b29-2ae0-4524-866e-b81ea1a18cab","ios":"levelo://app?vid=23a62b29-2ae0-4524-866e-b81ea1a18cab"},"vehicle_type_id":"4","last_reported":1715447261,"current_range_meters":16000,"station_id":"ce4bhr92rcd13ifvqhrg","pricing_plan_id":"cebpf4jnsgd1na2vs0mg"},{"bike_id":"be92eeec-e1f7-4d76-a8a3-d769fdd97619","system_id":"levelo_inurba_marseille","lat":43.295169,"lon":5.390426,"is_reserved":false,"is_disabled":false,"rental_uris":{"android":"levelo://app?vid=be92eeec-e1f7-4d76-a8a3-d769fdd97619","ios":"levelo://app?vid=be92eeec-e1f7-4d76-a8a3-d769fdd97619"},"vehicle_type_id":"4","last_reported":1715447261,"current_range_meters":18400,"station_id":"ce4bh3p2rcd13ifvqdp0","pricing_plan_id":"cebpf4jnsgd1na2vs0mg"},{"bike_id":"5c8fcfc2-78d8-46f7-a78e-5fad62e4c9c9","system_id":"levelo_inurba_marseille","lat":43.31092,"lon":5.40078,"is_reserved":false,"is_disabled":false,"rental_uris":{"android":"levelo://app?vid=5c8fcfc2-78d8-46f7-a78e-5fad62e4c9c9","ios":"levelo://app?vid=5c8fcfc2-78d8-46f7-a78e-5fad62e4c9c9"},"vehicle_type_id":"4","last_reported":1715447261,"current_range_meters":3200,"station_id":"","pricing_plan_id":"cebpf4jnsgd1na2vs0mg"},{"bike_id":"aae68d77-53a0-48e7-ad92-ef326693a146","system_id":"levelo_inurba_marseille","lat":43.290345,"lon":5.38646,"is_reserved":false,"is_disabled":false,"rental_uris":{"android":"levelo://app?vid=aae68d77-53a0-48e7-ad92-ef326693a146","ios":"levelo://app?vid=aae68d77-53a0-48e7-ad92-ef326693a146"},"vehicle_type_id":"4","last_reported":1715447261,"current_range_meters":4000,"station_id":"ce4bh4p2rcd13ifvqe0g","pricing_plan_id":"cebpf4jnsgd1na2vs0mg"},{"bike_id":"c482757c-0d17-412b-9b04-f76eab22fd83","system_id":"levelo_inurba_marseille","lat":43.290094,"lon":5.381264,"is_reserved":false,"is_disabled":false,"rental_uris":{"android":"levelo://app?vid=c482757c-0d17-412b-9b04-f76eab22fd83","ios":"levelo://app?vid=c482757c-0d17-412b-9b04-f76eab22fd83"},"vehicle_type_id":"4","last_reported":1715447261,"current_range_meters":17600,"station_id":"ce4bh4p2rcd13ifvqe1g","pricing_plan_id":"cebpf4jnsgd1na2vs0mg"},{"bike_id":"a6fe3be9-2ae1-42ce-9d62-911bb3dea5fa","system_id":"levelo_inurba_marseille","lat":43.28856,"lon":5.358371,"is_reserved":false,"is_disabled":false,"rental_uris":{"android":"levelo://app?vid=a6fe3be9-2ae1-42ce-9d62-911bb3dea5fa","ios":"levelo://app?vid=a6fe3be9-2ae1-42ce-9d62-911bb3dea5fa"},"vehicle_type_id":"4","last_reported":1715447261,"current_range_meters":30400,"station_id":"ce4bhb12rcd13ifvqem0","pricing_plan_id":"cebpf4jnsgd1na2vs0mg"},{"bike_id":"923f7536-65fc-42bc-b47d-90c4ab3c2488","system_id":"levelo_inurba_marseille","lat":43.28856,"lon":5.358371,"is_reserved":false,"is_disabled":false,"rental_uris":{"android":"levelo://app?vid=923f7536-65fc-42bc-b47d-90c4ab3c2488","ios":"levelo://app?vid=923f7536-65fc-42bc-b47d-90c4ab3c2488"},"vehicle_type_id":"4","last_reported":1715447261,"current_range_meters":27600,"station_id":"ce4bhb12rcd13ifvqem0","pricing_plan_id":"cebpf4jnsgd1na2vs0mg"},{"bike_id":"6f341cff-767d-4560-9389-f3d202973269","system_id":"levelo_inurba_marseille","lat":43.29015,"lon":5.38139,"is_reserved":false,"is_disabled":false,"rental_uris":{"android":"levelo://app?vid=6f341cff-767d-4560-9389-f3d202973269","ios":"levelo://app?vid=6f341cff-767d-4560-9389-f3d202973269"},"vehicle_type_id":"4","last_reported":1715447261,"current_range_meters":0,"station_id":"ce4bh4p2rcd13ifvqe1g","pricing_plan_id":"cebpf4jnsgd1na2vs0mg"},{"bike_id":"9a1b9634-55fc-4a40-9f05-1867fce31820","system_id":"levelo_inurba_marseille","lat":43.28856,"lon":5.358371,"is_reserved":false,"is_disabled":false,"rental_uris":{"android":"levelo://app?vid=9a1b9634-55fc-4a40-9f05-1867fce31820","ios":"levelo://app?vid=9a1b9634-55fc-4a40-9f05-1867fce31820"},"vehicle_type_id":"4","last_reported":1715447261,"current_range_meters":10000,"station_id":"ce4bhb12rcd13ifvqem0","pricing_plan_id":"cebpf4jnsgd1na2vs0mg"},{"bike_id":"d81f72f7-a4a4-42b1-abfd-c6ceb2225c23","system_id":"levelo_inurba_marseille","lat":43.312609,"lon":5.401662,"is_reserved":false,"is_disabled":false,"rental_uris":{"android":"levelo://app?vid=d81f72f7-a4a4-42b1-abfd-c6ceb2225c23","ios":"levelo://app?vid=d81f72f7-a4a4-42b1-abfd-c6ceb2225c23"},"vehicle_type_id":"4","last_reported":1715447261,"current_range_meters":0,"station_id":"ce4bh092rcd13ifvqd30","pricing_plan_id":"cebpf4jnsgd1na2vs0mg"},{"bike_id":"72030d4e-71fb-4db1-bc8f-247b856541d4","system_id":"levelo_inurba_marseille","lat":43.312609,"lon":5.401662,"is_reserved":false,"is_disabled":false,"rental_uris":{"android":"levelo://app?vid=72030d4e-71fb-4db1-bc8f-247b856541d4","ios":"levelo://app?vid=72030d4e-71fb-4db1-bc8f-247b856541d4"},"vehicle_type_id":"4","last_reported":1715447261,"current_range_meters":0,"station_id":"ce4bh092rcd13ifvqd30","pricing_plan_id":"cebpf4jnsgd1na2vs0mg"},{"bike_id":"fa38820a-6594-447d-94ab-f30b6861c626","system_id":"levelo_inurba_marseille","lat":43.309371,"lon":5.401449,"is_reserved":false,"is_disabled":false,"rental_uris":{"android":"levelo://app?vid=fa38820a-6594-447d-94ab-f30b6861c626","ios":"levelo://app?vid=fa38820a-6594-447d-94ab-f30b6861c626"},"vehicle_type_id":"4","last_reported":1715447261,"current_range_meters":12800,"station_id":"ce4bgvp2rcd13ifvqct0","pricing_plan_id":"cebpf4jnsgd1na2vs0mg"},{"bike_id":"4cb462c8-7de4-4e22-8a8b-86f6e746df76","system_id":"levelo_inurba_marseille","lat":43.312609,"lon":5.401662,"is_reserved":false,"is_disabled":false,"rental_uris":{"android":"levelo://app?vid=4cb462c8-7de4-4e22-8a8b-86f6e746df76","ios":"levelo://app?vid=4cb462c8-7de4-4e22-8a8b-86f6e746df76"},"vehicle_type_id":"4","last_reported":1715447261,"current_range_meters":2800,"station_id":"ce4bh092rcd13ifvqd30","pricing_plan_id":"cebpf4jnsgd1na2vs0mg"},{"bike_id":"f7932a42-aa5c-439b-b535-65dd8ccd41cf","system_id":"levelo_inurba_marseille","lat":43.33751,"lon":5.37493,"is_reserved":false,"is_disabled":false,"rental_uris":{"android":"levelo://app?vid=f7932a42-aa5c-439b-b535-65dd8ccd41cf","ios":"levelo://app?vid=f7932a42-aa5c-439b-b535-65dd8ccd41cf"},"vehicle_type_id":"4","last_reported":1715447261,"current_range_meters":29600,"station_id":"","pricing_plan_id":"cebpf4jnsgd1na2vs0mg"},{"bike_id":"98b7dbe4-6af0-4086-be72-4c43a7dfb989","system_id":"levelo_inurba_marseille","lat":43.337606,"lon":5.374358,"is_reserved":false,"is_disabled":false,"rental_uris":{"android":"levelo://app?vid=98b7dbe4-6af0-4086-be72-4c43a7dfb989","ios":"levelo://app?vid=98b7dbe4-6af0-4086-be72-4c43a7dfb989"},"vehicle_type_id":"4","last_reported":1715447261,"current_range_meters":12400,"station_id":"","pricing_plan_id":"cebpf4jnsgd1na2vs0mg"},{"bike_id":"91d9714b-b35f-47ce-8f34-022bf351236f","system_id":"levelo_inurba_marseille","lat":43.33762,"lon":5.37436,"is_reserved":false,"is_disabled":false,"rental_uris":{"android":"levelo://app?vid=91d9714b-b35f-47ce-8f34-022bf351236f","ios":"levelo://app?vid=91d9714b-b35f-47ce-8f34-022bf351236f"},"vehicle_type_id":"4","last_reported":1715447261,"current_range_meters":24400,"station_id":"","pricing_plan_id":"cebpf4jnsgd1na2vs0mg"},{"bike_id":"98bc1eff-3980-4401-b273-80445a1a1e67","system_id":"levelo_inurba_marseille","lat":43.306412,"lon":5.401035,"is_reserved":false,"is_disabled":false,"rental_uris":{"android":"levelo://app?vid=98bc1eff-3980-4401-b273-80445a1a1e67","ios":"levelo://app?vid=98bc1eff-3980-4401-b273-80445a1a1e67"},"vehicle_type_id":"4","last_reported":1715447261,"current_range_meters":14800,"station_id":"ce4bh112rcd13ifvqda0","pricing_plan_id":"cebpf4jnsgd1na2vs0mg"},{"bike_id":"7741ff5a-deb4-4567-9e18-51b378fec354","system_id":"levelo_inurba_marseille","lat":43.312609,"lon":5.401662,"is_reserved":false,"is_disabled":false,"rental_uris":{"android":"levelo://app?vid=7741ff5a-deb4-4567-9e18-51b378fec354","ios":"levelo://app?vid=7741ff5a-deb4-4567-9e18-51b378fec354"},"vehicle_type_id":"4","last_reported":1715447261,"current_range_meters":0,"station_id":"ce4bh092rcd13ifvqd30","pricing_plan_id":"cebpf4jnsgd1na2vs0mg"},{"bike_id":"e3d3f308-23e3-4903-8505-193efdfcd82b","system_id":"levelo_inurba_marseille","lat":43.301117,"lon":5.398795,"is_reserved":false,"is_disabled":false,"rental_uris":{"android":"levelo://app?vid=e3d3f308-23e3-4903-8505-193efdfcd82b","ios":"levelo://app?vid=e3d3f308-23e3-4903-8505-193efdfcd82b"},"vehicle_type_id":"4","last_reported":1715447261,"current_range_meters":25600,"station_id":"ce4bh0h2rcd13ifvqd40","pricing_plan_id":"cebpf4jnsgd1na2vs0mg"},{"bike_id":"9501f4ec-7505-47bc-9f50-3acd9a4190a6","system_id":"levelo_inurba_marseille","lat":43.301117,"lon":5.398795,"is_reserved":false,"is_disabled":false,"rental_uris":{"android":"levelo://app?vid=9501f4ec-7505-47bc-9f50-3acd9a4190a6","ios":"levelo://app?vid=9501f4ec-7505-47bc-9f50-3acd9a4190a6"},"vehicle_type_id":"4","last_reported":1715447261,"current_range_meters":8800,"station_id":"ce4bh0h2rcd13ifvqd40","pricing_plan_id":"cebpf4jnsgd1na2vs0mg"},{"bike_id":"abbeae71-06f5-4964-8d19-82e23d9f0f19","system_id":"levelo_inurba_marseille","lat":43.28727,"lon":5.36078,"is_reserved":false,"is_disabled":false,"rental_uris":{"android":"levelo://app?vid=abbeae71-06f5-4964-8d19-82e23d9f0f19","ios":"levelo://app?vid=abbeae71-06f5-4964-8d19-82e23d9f0f19"},"vehicle_type_id":"4","last_reported":1715447261,"current_range_meters":11600,"station_id":"cki0cbj6b192h4jlfktg","pricing_plan_id":"cebpf4jnsgd1na2vs0mg"},{"bike_id":"46bdd72c-16f5-47b9-bdf6-858b9eb9e5e8","system_id":"levelo_inurba_marseille","lat":43.28727,"lon":5.36078,"is_reserved":false,"is_disabled":false,"rental_uris":{"android":"levelo://app?vid=46bdd72c-16f5-47b9-bdf6-858b9eb9e5e8","ios":"levelo://app?vid=46bdd72c-16f5-47b9-bdf6-858b9eb9e5e8"},"vehicle_type_id":"4","last_reported":1715447261,"current_range_meters":5600,"station_id":"cki0cbj6b192h4jlfktg","pricing_plan_id":"cebpf4jnsgd1na2vs0mg"},{"bike_id":"91266183-f089-41f9-b680-9b6f42362c41","system_id":"levelo_inurba_marseille","lat":43.28714,"lon":5.360948,"is_reserved":false,"is_disabled":false,"rental_uris":{"android":"levelo://app?vid=91266183-f089-41f9-b680-9b6f42362c41","ios":"levelo://app?vid=91266183-f089-41f9-b680-9b6f42362c41"},"vehicle_type_id":"4","last_reported":1715447261,"current_range_meters":23600,"station_id":"","pricing_plan_id":"cebpf4jnsgd1na2vs0mg"},{"bike_id":"fc9312cc-357d-42b6-ba79-175065b45010","system_id":"levelo_inurba_marseille","lat":43.287096,"lon":5.37385,"is_reserved":false,"is_disabled":false,"rental_uris":{"android":"levelo://app?vid=fc9312cc-357d-42b6-ba79-175065b45010","ios":"levelo://app?vid=fc9312cc-357d-42b6-ba79-175065b45010"},"vehicle_type_id":"4","last_reported":1715447261,"current_range_meters":3600,"station_id":"ce4bh3p2rcd13ifvqdq0","pricing_plan_id":"cebpf4jnsgd1na2vs0mg"},{"bike_id":"1c10b9d1-746a-48b8-b2be-f6f3882ecbe5","system_id":"levelo_inurba_marseille","lat":43.286961,"lon":5.373785,"is_reserved":false,"is_disabled":false,"rental_uris":{"android":"levelo://app?vid=1c10b9d1-746a-48b8-b2be-f6f3882ecbe5","ios":"levelo://app?vid=1c10b9d1-746a-48b8-b2be-f6f3882ecbe5"},"vehicle_type_id":"4","last_reported":1715447261,"current_range_meters":0,"station_id":"ce4bh3p2rcd13ifvqdq0","pricing_plan_id":"cebpf4jnsgd1na2vs0mg"},{"bike_id":"e635d355-7048-46c6-b72b-6b6c4d02dda1","system_id":"levelo_inurba_marseille","lat":43.286961,"lon":5.373785,"is_reserved":false,"is_disabled":false,"rental_uris":{"android":"levelo://app?vid=e635d355-7048-46c6-b72b-6b6c4d02dda1","ios":"levelo://app?vid=e635d355-7048-46c6-b72b-6b6c4d02dda1"},"vehicle_type_id":"4","last_reported":1715447261,"current_range_meters":10800,"station_id":"ce4bh3p2rcd13ifvqdq0","pricing_plan_id":"cebpf4jnsgd1na2vs0mg"},{"bike_id":"f003c4d2-390e-42b2-a2c7-6ebadf09fae7","system_id":"levelo_inurba_marseille","lat":43.290445,"lon":5.386285,"is_reserved":false,"is_disabled":false,"rental_uris":{"android":"levelo://app?vid=f003c4d2-390e-42b2-a2c7-6ebadf09fae7","ios":"levelo://app?vid=f003c4d2-390e-42b2-a2c7-6ebadf09fae7"},"vehicle_type_id":"4","last_reported":1715447261,"current_range_meters":0,"station_id":"ce4bh4p2rcd13ifvqe0g","pricing_plan_id":"cebpf4jnsgd1na2vs0mg"},{"bike_id":"19f45844-0a87-4473-bd01-e289f185be9d","system_id":"levelo_inurba_marseille","lat":43.295194,"lon":5.39397,"is_reserved":false,"is_disabled":false,"rental_uris":{"android":"levelo://app?vid=19f45844-0a87-4473-bd01-e289f185be9d","ios":"levelo://app?vid=19f45844-0a87-4473-bd01-e289f185be9d"},"vehicle_type_id":"4","last_reported":1715447261,"current_range_meters":26400,"station_id":"ce4bh292rcd13ifvqdf0","pricing_plan_id":"cebpf4jnsgd1na2vs0mg"},{"bike_id":"233ee36a-c9ea-40ce-aa50-3231de2bbaf1","system_id":"levelo_inurba_marseille","lat":43.295194,"lon":5.39397,"is_reserved":false,"is_disabled":false,"rental_uris":{"android":"levelo://app?vid=233ee36a-c9ea-40ce-aa50-3231de2bbaf1","ios":"levelo://app?vid=233ee36a-c9ea-40ce-aa50-3231de2bbaf1"},"vehicle_type_id":"4","last_reported":1715447261,"current_range_meters":15600,"station_id":"ce4bh292rcd13ifvqdf0","pricing_plan_id":"cebpf4jnsgd1na2vs0mg"},{"bike_id":"3a52f702-fb09-4dca-9698-3ef1b5f59c65","system_id":"levelo_inurba_marseille","lat":43.29513,"lon":5.39402,"is_reserved":false,"is_disabled":false,"rental_uris":{"android":"levelo://app?vid=3a52f702-fb09-4dca-9698-3ef1b5f59c65","ios":"levelo://app?vid=3a52f702-fb09-4dca-9698-3ef1b5f59c65"},"vehicle_type_id":"4","last_reported":1715447261,"current_range_meters":0,"station_id":"ce4bh292rcd13ifvqdf0","pricing_plan_id":"cebpf4jnsgd1na2vs0mg"},{"bike_id":"a2d52a9e-08e5-4109-a042-f2efd16b76cb","system_id":"levelo_inurba_marseille","lat":43.290345,"lon":5.38646,"is_reserved":false,"is_disabled":false,"rental_uris":{"android":"levelo://app?vid=a2d52a9e-08e5-4109-a042-f2efd16b76cb","ios":"levelo://app?vid=a2d52a9e-08e5-4109-a042-f2efd16b76cb"},"vehicle_type_id":"4","last_reported":1715447261,"current_range_meters":10800,"station_id":"ce4bh4p2rcd13ifvqe0g","pricing_plan_id":"cebpf4jnsgd1na2vs0mg"},