{"last_updated":1739452597,"ttl":60,"version":"2.2","data":{"bikes":[{"bike_id":"5753a631-bcf5-47c6-a32f-d84924661b65","system_id":"levelo_inurba_marseille","lat":43.31068,"lon":5.38349,"is_reserved":false,"is_disabled":false,"rental_uris":{"android":"levelo://app?vid=5753a631-bcf5-47c6-a32f-d84924661b65","ios":"levelo://app?vid=5753a631-bcf5-47c6-a32f-d84924661b65"},"vehicle_type_id":"4","last_reported":1739452597,"current_range_meters":38800,"station_id":"ce4bgv92rcd13ifvqcr0","pricing_plan_id":"cebpf4jnsgd1na2vs0mg"},{"bike_id":"2a32623e-3d15-4c8d-9a1c-e42b36fff43d","system_id":"levelo_inurba_marseille","lat":43.2691,"lon":5.40249,"is_reserved":false,"is_disabled":false,"rental_uris":{"android":"levelo://app?vid=2a32623e-3d15-4c8d-9a1c-e42b36fff43d","ios":"levelo://app?vid=2a32623e-3d15-4c8d-9a1c-e42b36fff43d"},"vehicle_type_id":"4","last_reported":1739452597,"current_range_meters":17600,"station_id":"cjm6bp8fraef2m0cb0m0","pricing_plan_id":"cebpf4jnsgd1na2vs0mg"},{"bike_id":"cf350bc3-a541-40e9-8d8e-feb68e8351b6","system_id":"levelo_inurba_marseille","lat":43.30537,"lon":5.36714,"is_reserved":false,"is_disabled":false,"rental_uris":{"android":"levelo://app?vid=cf350bc3-a541-40e9-8d8e-feb68e8351b6","ios":"levelo://app?vid=cf350bc3-a541-40e9-8d8e-feb68e8351b6"},"vehicle_type_id":"4","last_reported":1739452597,"current_range_meters":8400,"station_id":"ce4bgrp2rcd13ifvqc9g","pricing_plan_id":"cebpf4jnsgd1na2vs0mg"},{"bike_id":"3a22a082-e7f9-4394-a04b-27736eec973d","system_id":"levelo_inurba_marseille","lat":43.26803,"lon":5.40262,"is_reserved":false,"is_disabled":false,"rental_uris":{"android":"levelo://app?vid=3a22a082-e7f9-4394-a04b-27736eec973d","ios":"levelo://app?vid=3a22a082-e7f9-4394-a04b-27736eec973d"},"vehicle_type_id":"4","last_reported":1739452597,"current_range_meters":32000,"station_id":"ce501612rcd8frsf0b60","pricing_plan_id":"cebpf4jnsgd1na2vs0mg"},{"bike_id":"268369e0-c5b8-40e9-93c3-7641385ca3e3","system_id":"levelo_inurba_marseille","lat":43.31207,"lon":5.36846,"is_reserved":false,"is_disabled":false,"rental_uris":{"android":"levelo://app?vid=268369e0-c5b8-40e9-93c3-7641385ca3e3","ios":"levelo://app?vid=268369e0-c5b8-40e9-93c3-7641385ca3e3"},"vehicle_type_id":"4","last_reported":1739452597,"current_range_meters":36400,"station_id":"ce4bgl92rcd13ifvqbq0","pricing_plan_id":"cebpf4jnsgd1na2vs0mg"},{"bike_id":"35c96b0b-eb3c-4787-a379-c8c27196e8bc","system_id":"levelo_inurba_marseille","lat":43.32522,"lon":5.36571,"is_reserved":false,"is_disabled":false,"rental_uris":{"android":"levelo://app?vid=35c96b0b-eb3c-4787-a379-c8c27196e8bc","ios":"levelo://app?vid=35c96b0b-eb3c-4787-a379-c8c27196e8bc"},"vehicle_type_id":"4","last_reported":1739452597,"current_range_meters":38800,"station_id":"ce4bhs12rcd13ifvqhvg","pricing_plan_id":"cebpf4jnsgd1na2vs0mg"},{"bike_id":"1d4165b9-e8af-42e7-8e88-54a0f84b4f26","system_id":"levelo_inurba_marseille","lat":43.23214,"lon":5.39966,"is_reserved":false,"is_disabled":false,"rental_uris":{"android":"levelo://app?vid=1d4165b9-e8af-42e7-8e88-54a0f84b4f26","ios":"levelo://app?vid=1d4165b9-e8af-42e7-8e88-54a0f84b4f26"},"vehicle_type_id":"4","last_reported":1739452597,"current_range_meters":35200,"station_id":"ce4bhn12rcd13ifvqgqg","pricing_plan_id":"cebpf4jnsgd1na2vs0mg"},{"bike_id":"f6ef4f9a-c914-4d4b-a06e-00485b64285e","system_id":"levelo_inurba_marseille","lat":43.32484,"lon":5.36568,"is_reserved":false,"is_disabled":false,"rental_uris":{"android":"levelo://app?vid=f6ef4f9a-c914-4d4b-a06e-00485b64285e","ios":"levelo://app?vid=f6ef4f9a-c914-4d4b-a06e-00485b64285e"},"vehicle_type_id":"4","last_reported":1739452597,"current_range_meters":38800,"station_id":"ce4bhs12rcd13ifvqhvg","pricing_plan_id":"cebpf4jnsgd1na2vs0mg"},{"bike_id":"a0b5182d-5104-4c14-92e4-2b719ad97646","system_id":"levelo_inurba_marseille","lat":43.30093,"lon":5.39077,"is_reserved":false,"is_disabled":false,"rental_uris":{"android":"levelo://app?vid=a0b5182d-5104-4c14-92e4-2b719ad97646","ios":"levelo://app?vid=a0b5182d-5104-4c14-92e4-2b719ad97646"},"vehicle_type_id":"4","last_reported":1739452597,"current_range_meters":24800,"station_id":"ce4bh192rcd13ifvqdb0","pricing_plan_id":"cebpf4jnsgd1na2vs0mg"},{"bike_id":"7518e56b-57a9-4c23-bef2-edda7ac1824a","system_id":"levelo_inurba_marseille","lat":43.33591,"lon":5.4094,"is_reserved":false,"is_disabled":false,"rental_uris":{"android":"levelo://app?vid=7518e56b-57a9-4c23-bef2-edda7ac1824a","ios":"levelo://app?vid=7518e56b-57a9-4c23-bef2-edda7ac1824a"},"vehicle_type_id":"4","last_reported":1739452597,"current_range_meters":38800,"station_id":"ce4bhqh2rcd13ifvqhmg","pricing_plan_id":"cebpf4jnsgd1na2vs0mg"},{"bike_id":"bbb2097f-1c15-4581-beb5-ee0c580691bf","system_id":"levelo_inurba_marseille","lat":43.27371,"lon":5.36247,"is_reserved":false,"is_disabled":false,"rental_uris":{"android":"levelo://app?vid=bbb2097f-1c15-4581-beb5-ee0c580691bf","ios":"levelo://app?vid=bbb2097f-1c15-4581-beb5-ee0c580691bf"},"vehicle_type_id":"4","last_reported":1739452597,"current_range_meters":8000,"station_id":"ce4bhbh2rcd13ifvqeo0","pricing_plan_id":"cebpf4jnsgd1na2vs0mg"},{"bike_id":"8390feee-0735-4b8f-90c8-f81c741ca7d5","system_id":"levelo_inurba_marseille","lat":43.24827,"lon":5.3746,"is_reserved":false,"is_disabled":false,"rental_uris":{"android":"levelo://app?vid=8390feee-0735-4b8f-90c8-f81c741ca7d5","ios":"levelo://app?vid=8390feee-0735-4b8f-90c8-f81c741ca7d5"},"vehicle_type_id":"4","last_reported":1739452597,"current_range_meters":38000,"station_id":"ce4bhgh2rcd13ifvqfb0","pricing_plan_id":"cebpf4jnsgd1na2vs0mg"},{"bike_id":"9e4564f0-0519-46c9-beea-73f529a3ce6a","system_id":"levelo_inurba_marseille","lat":43.24819,"lon":5.37442,"is_reserved":false,"is_disabled":false,"rental_uris":{"android":"levelo://app?vid=9e4564f0-0519-46c9-beea-73f529a3ce6a","ios":"levelo://app?vid=9e4564f0-0519-46c9-beea-73f529a3ce6a"},"vehicle_type_id":"4","last_reported":1739452597,"current_range_meters":24800,"station_id":"ce4bhgh2rcd13ifvqfb0","pricing_plan_id":"cebpf4jnsgd1na2vs0mg"},{"bike_id":"e45b6582-b2f1-401a-9da1-97acaf3c4841","system_id":"levelo_inurba_marseille","lat":43.27674,"lon":5.38872,"is_reserved":false,"is_disabled":false,"rental_uris":{"android":"levelo://app?vid=e45b6582-b2f1-401a-9da1-97acaf3c4841","ios":"levelo://app?vid=e45b6582-b2f1-401a-9da1-97acaf3c4841"},"vehicle_type_id":"4","last_reported":1739452597,"current_range_meters":32400,"station_id":"ce4bhi12rcd13ifvqfo0","pricing_plan_id":"cebpf4jnsgd1na2vs0mg"},{"bike_id":"209607b8-e0db-40be-8468-78df3a2229d7","system_id":"levelo_inurba_marseille","lat":43.29772,"lon":5.37128,"is_reserved":false,"is_disabled":false,"rental_uris":{"android":"levelo://app?vid=209607b8-e0db-40be-8468-78df3a2229d7","ios":"levelo://app?vid=209607b8-e0db-40be-8468-78df3a2229d7"},"vehicle_type_id":"4","last_reported":1739452597,"current_range_meters":30400,"station_id":"ce4bgop2rcd13ifvqc1g","pricing_plan_id":"cebpf4jnsgd1na2vs0mg"},{"bike_id":"f141a4ba-130b-4cbb-b4e3-7e93c5863ed6","system_id":"levelo_inurba_marseille","lat":43.28265,"lon":5.35042,"is_reserved":false,"is_disabled":false,"rental_uris":{"android":"levelo://app?vid=f141a4ba-130b-4cbb-b4e3-7e93c5863ed6","ios":"levelo://app?vid=f141a4ba-130b-4cbb-b4e3-7e93c5863ed6"},"vehicle_type_id":"4","last_reported":1739452597,"current_range_meters":38800,"station_id":"ce4bhbp2rcd13ifvqerg","pricing_plan_id":"cebpf4jnsgd1na2vs0mg"},{"bike_id":"86f7d0b9-8544-492c-b6d6-57e5d854a5db","system_id":"levelo_inurba_marseille","lat":43.30544,"lon":5.38425,"is_reserved":false,"is_disabled":true,"rental_uris":{"android":"levelo://app?vid=86f7d0b9-8544-492c-b6d6-57e5d854a5db","ios":"levelo://app?vid=86f7d0b9-8544-492c-b6d6-57e5d854a5db"},"vehicle_type_id":"4","last_reported":1739452597,"current_range_meters":37600,"station_id":"ce4bgg92rcd13ifvqb30","pricing_plan_id":"cebpf4jnsgd1na2vs0mg"},{"bike_id":"ac2f5c21-615f-4f60-8b2b-9954adc8ad1d","system_id":"levelo_inurba_marseille","lat":43.29821,"lon":5.36233,"is_reserved":false,"is_disabled":false,"rental_uris":{"android":"levelo://app?vid=ac2f5c21-615f-4f60-8b2b-9954adc8ad1d","ios":"levelo://app?vid=ac2f5c21-615f-4f60-8b2b-9954adc8ad1d"},"vehicle_type_id":"4","last_reported":1739452597,"current_range_meters":38800,"station_id":"ce4bgpp2rcd13ifvqc3g","pricing_plan_id":"cebpf4jnsgd1na2vs0mg"},{"bike_id":"f19b3f6f-e3c3-4220-818d-e5482b0b43b6","system_id":"levelo_inurba_marseille","lat":43.24976,"lon":5.38936,"is_reserved":false,"is_disabled":false,"rental_uris":{"android":"levelo://app?vid=f19b3f6f-e3c3-4220-818d-e5482b0b43b6","ios":"levelo://app?vid=f19b3f6f-e3c3-4220-818d-e5482b0b43b6"},"vehicle_type_id":"4","last_reported":1739452597,"current_range_meters":27600,"station_id":"ce4bhgp2rcd13ifvqfd0","pricing_plan_id":"cebpf4jnsgd1na2vs0mg"},{"bike_id":"83235b4c-dfe0-49a4-978b-f4b0b2b6fa10","system_id":"levelo_inurba_marseille","lat":43.29036,"lon":5.35911,"is_reserved":false,"is_disabled":false,"rental_uris":{"android":"levelo://app?vid=83235b4c-dfe0-49a4-978b-f4b0b2b6fa10","ios":"levelo://app?vid=83235b4c-dfe0-49a4-978b-f4b0b2b6fa10"},"vehicle_type_id":"4","last_reported":1739452597,"current_range_meters":39200,"station_id":"ce4bha92rcd13ifvqeg0","pricing_plan_id":"cebpf4jnsgd1na2vs0mg"},{"bike_id":"80acee79-0042-46eb-b82b-5f317036c503","system_id":"levelo_inurba_marseille","lat":43.29309,"lon":5.3717,"is_reserved":false,"is_disabled":false,"rental_uris":{"android":"levelo://app?vid=80acee79-0042-46eb-b82b-5f317036c503","ios":"levelo://app?vid=80acee79-0042-46eb-b82b-5f317036c503"},"vehicle_type_id":"4","last_reported":1739452597,"current_range_meters":38400,"station_id":"ce4bgh92rcd13ifvqb40","pricing_plan_id":"cebpf4jnsgd1na2vs0mg"},{"bike_id":"e2d6c964-ef45-4082-9aef-f59d187035c3","system_id":"levelo_inurba_marseille","lat":43.25082,"lon":5.39513,"is_reserved":false,"is_disabled":false,"rental_uris":{"android":"levelo://app?vid=e2d6c964-ef45-4082-9aef-f59d187035c3","ios":"levelo://app?vid=e2d6c964-ef45-4082-9aef-f59d187035c3"},"vehicle_type_id":"4","last_reported":1739452597,"current_range_meters":10800,"station_id":"ce4bhm12rcd13ifvqgkg","pricing_plan_id":"cebpf4jnsgd1na2vs0mg"},{"bike_id":"39e55a90-fe76-4904-bf9c-9841fe168f13","system_id":"levelo_inurba_marseille","lat":43.33743,"lon":5.39177,"is_reserved":false,"is_disabled":false,"rental_uris":{"android":"levelo://app?vid=39e55a90-fe76-4904-bf9c-9841fe168f13","ios":"levelo://app?vid=39e55a90-fe76-4904-bf9c-9841fe168f13"},"vehicle_type_id":"4","last_reported":1739452597,"current_range_meters":38000,"station_id":"ce4bhr92rcd13ifvqhsg","pricing_plan_id":"cebpf4jnsgd1na2vs0mg"},{"bike_id":"7b830c89-3a1c-4014-a605-109efca81479","system_id":"levelo_inurba_marseille","lat":43.27677,"lon":5.38869,"is_reserved":false,"is_disabled":false,"rental_uris":{"android":"levelo://app?vid=7b830c89-3a1c-4014-a605-109efca81479","ios":"levelo://app?vid=7b830c89-3a1c-4014-a605-109efca81479"},"vehicle_type_id":"4","last_reported":1739452597,"current_range_meters":38800,"station_id":"ce4bhi12rcd13ifvqfo0","pricing_plan_id":"cebpf4jnsgd1na2vs0mg"},{"bike_id":"3c1530a7-718c-4463-a9bc-88472caca1ad","system_id":"levelo_inurba_marseille","lat":43.29242,"lon":5.36084,"is_reserved":false,"is_disabled":false,"rental_uris":{"android":"levelo://app?vid=3c1530a7-718c-4463-a9bc-88472caca1ad","ios":"levelo://app?vid=3c1530a7-718c-4463-a9bc-88472caca1ad"},"vehicle_type_id":"4","last_reported":1739452597,"current_range_meters":38800,"station_id":"ce4bhbh2rcd13ifvqeqg","pricing_plan_id":"cebpf4jnsgd1na2vs0mg"},{"bike_id":"74eed58f-1fd9-4ea4-a6c5-9ec97791fe06","system_id":"levelo_inurba_marseille","lat":43.28113,"lon":5.37829,"is_reserved":false,"is_disabled":false,"rental_uris":{"android":"levelo://app?vid=74eed58f-1fd9-4ea4-a6c5-9ec97791fe06","ios":"levelo://app?vid=74eed58f-1fd9-4ea4-a6c5-9ec97791fe06"},"vehicle_type_id":"4","last_reported":1739452597,"current_range_meters":39200,"station_id":"ce4bha12rcd13ifvqee0","pricing_plan_id":"cebpf4jnsgd1na2vs0mg"},{"bike_id":"b5f5c839-e320-47cb-9d31-999374daa67e","system_id":"levelo_inurba_marseille","lat":43.29003,"lon":5.35608,"is_reserved":false,"is_disabled":false,"rental_uris":{"android":"levelo://app?vid=b5f5c839-e320-47cb-9d31-999374daa67e","ios":"levelo://app?vid=b5f5c839-e320-47cb-9d31-999374daa67e"},"vehicle_type_id":"4","last_reported":1739452597,"current_range_meters":12800,"station_id":"ce4bhb92rcd13ifvqen0","pricing_plan_id":"cebpf4jnsgd1na2vs0mg"},{"bike_id":"8292432b-ffe7-4134-a1fa-801fa6c43494","system_id":"levelo_inurba_marseille","lat":43.30974,"lon":5.39051,"is_reserved":false,"is_disabled":false,"rental_uris":{"android":"levelo://app?vid=8292432b-ffe7-4134-a1fa-801fa6c43494","ios":"levelo://app?vid=8292432b-ffe7-4134-a1fa-801fa6c43494"},"vehicle_type_id":"4","last_reported":1739452597,"current_range_meters":38800,"station_id":"ce4bgup2rcd13ifvqco0","pricing_plan_id":"cebpf4jnsgd1na2vs0mg"},{"bike_id":"5b3d7282-f9d7-48c3-902e-95c6831b6a1c","system_id":"levelo_inurba_marseille","lat":43.26687,"lon":5.38275,"is_reserved":false,"is_disabled":false,"rental_uris":{"android":"levelo://app?vid=5b3d7282-f9d7-48c3-902e-95c6831b6a1c","ios":"levelo://app?vid=5b3d7282-f9d7-48c3-902e-95c6831b6a1c"},"vehicle_type_id":"4","last_reported":1739452597,"current_range_meters":25200,"station_id":"ce4bhg92rcd13ifvqf90","pricing_plan_id":"cebpf4jnsgd1na2vs0mg"},{"bike_id":"a2fef756-4840-497e-a38a-42c9426c2629","system_id":"levelo_inurba_marseille","lat":43.3414,"lon":5.40908,"is_reserved":false,"is_disabled":false,"rental_uris":{"android":"levelo://app?vid=a2fef756-4840-497e-a38a-42c9426c2629","ios":"levelo://app?vid=a2fef756-4840-497e-a38a-42c9426c2629"},"vehicle_type_id":"4","last_reported":1739452597,"current_range_meters":27600,"station_id":"ce4bhqh2rcd13ifvqhlg","pricing_plan_id":"cebpf4jnsgd1na2vs0mg"},{"bike_id":"8054137f-c573-408f-9225-3700b33ee09c","system_id":"levelo_inurba_marseille","lat":43.30307,"lon":5.36895,"is_reserved":false,"is_disabled":false,"rental_uris":{"android":"levelo://app?vid=8054137f-c573-408f-9225-3700b33ee09c","ios":"levelo://app?vid=8054137f-c573-408f-9225-3700b33ee09c"},"vehicle_type_id":"4","last_reported":1739452597,"current_range_meters":15200,"station_id":"ce4bgqh2rcd13ifvqc5g","pricing_plan_id":"cebpf4jnsgd1na2vs0mg"},{"bike_id":"2aaa0461-0d26-4d11-8e1e-9a504fd159ff","system_id":"levelo_inurba_marseille","lat":43.28734,"lon":5.38509,"is_reserved":false,"is_disabled":false,"rental_uris":{"android":"levelo://app?vid=2aaa0461-0d26-4d11-8e1e-9a504fd159ff","ios":"levelo://app?vid=2aaa0461-0d26-4d11-8e1e-9a504fd159ff"},"vehicle_type_id":"4","last_reported":1739452597,"current_range_meters":25200,"station_id":"","pricing_plan_id":"cebpf4jnsgd1na2vs0mg"},{"bike_id":"8900e754-ee32-4b2e-947b-9c238986e436","system_id":"levelo_inurba_marseille","lat":43.28274,"lon":5.35073,"is_reserved":false,"is_disabled":false,"rental_uris":{"android":"levelo://app?vid=8900e754-ee32-4b2e-947b-9c238986e436","ios":"levelo://app?vid=8900e754-ee32-4b2e-947b-9c238986e436"},"vehicle_type_id":"4","last_reported":1739452597,"current_range_meters":28000,"station_id":"ce4bhbp2rcd13ifvqerg","pricing_plan_id":"cebpf4jnsgd1na2vs0mg"},{"bike_id":"27ccc90b-a77a-4779-8209-9459b7825bbe","system_id":"levelo_inurba_marseille","lat":43.29358,"lon":5.37843,"is_reserved":false,"is_disabled":false,"rental_uris":{"android":"levelo://app?vid=27ccc90b-a77a-4779-8209-9459b7825bbe","ios":"levelo://app?vid=27ccc90b-a77a-4779-8209-9459b7825bbe"},"vehicle_type_id":"4","last_reported":1739452597,"current_range_meters":37600,"station_id":"ce4bgjh2rcd13ifvqbf0","pricing_plan_id":"cebpf4jnsgd1na2vs0mg"},{"bike_id":"4004e863-e0ca-4122-9424-ab9f70e142e6","system_id":"levelo_inurba_marseille","lat":43.31373,"lon":5.39636,"is_reserved":false,"is_disabled":false,"rental_uris":{"android":"levelo://app?vid=4004e863-e0ca-4122-9424-ab9f70e142e6","ios":"levelo://app?vid=4004e863-e0ca-4122-9424-ab9f70e142e6"},"vehicle_type_id":"4","last_reported":1739452597,"current_range_meters":24800,"station_id":"","pricing_plan_id":"cebpf4jnsgd1na2vs0mg"},{"bike_id":"1d3086d2-c69c-4ad2-b6e6-9b32db5ec44d","system_id":"levelo_inurba_marseille","lat":43.29045,"lon":5.35917,"is_reserved":false,"is_disabled":false,"rental_uris":{"android":"levelo://app?vid=1d3086d2-c69c-4ad2-b6e6-9b32db5ec44d","ios":"levelo://app?vid=1d3086d2-c69c-4ad2-b6e6-9b32db5ec44d"},"vehicle_type_id":"4","last_reported":1739452597,"current_range_meters":24000,"station_id":"ce4bha92rcd13ifvqeg0","pricing_plan_id":"cebpf4jnsgd1na2vs0mg"},{"bike_id":"dcca8e37-a6db-4e39-9c16-0fe565f8ffc5","system_id":"levelo_inurba_marseille","lat":43.23187,"lon":5.39977,"is_reserved":false,"is_disabled":false,"rental_uris":{"android":"levelo://app?vid=dcca8e37-a6db-4e39-9c16-0fe565f8ffc5","ios":"levelo://app?vid=dcca8e37-a6db-4e39-9c16-0fe565f8ffc5"},"vehicle_type_id":"4","last_reported":1739452597,"current_range_meters":28400,"station_id":"ce4bhn12rcd13ifvqgqg","pricing_plan_id":"cebpf4jnsgd1na2vs0mg"},{"bike_id":"4fd01e18-6a56-4c02-a514-555bdc1d320f","system_id":"levelo_inurba_marseille","lat":43.27205,"lon":5.39179,"is_reserved":false,"is_disabled":false,"rental_uris":{"android":"levelo://app?vid=4fd01e18-6a56-4c02-a514-555bdc1d320f","ios":"levelo://app?vid=4fd01e18-6a56-4c02-a514-555bdc1d320f"},"vehicle_type_id":"4","last_reported":1739452597,"current_range_meters":3200,"station_id":"ce4bhhp2rcd13ifvqfm0","pricing_plan_id":"cebpf4jnsgd1na2vs0mg"},{"bike_id":"2c6d46bc-15d7-408b-8dbb-d8c4ad5bbf49","system_id":"levelo_inurba_marseille","lat":43.29739,"lon":5.37678,"is_reserved":false,"is_disabled":false,"rental_uris":{"android":"levelo://app?vid=2c6d46bc-15d7-408b-8dbb-d8c4ad5bbf49","ios":"levelo://app?vid=2c6d46bc-15d7-408b-8dbb-d8c4ad5bbf49"},"vehicle_type_id":"4","last_reported":1739452597,"current_range_meters":38800,"station_id":"ce4bgkh2rcd13ifvqbl0","pricing_plan_id":"cebpf4jnsgd1na2vs0mg"},{"bike_id":"a666841c-b7cb-4f81-9c73-1ae185918b9f","system_id":"levelo_inurba_marseille","lat":43.28851,"lon":5.35854,"is_reserved":false,"is_disabled":false,"rental_uris":{"android":"levelo://app?vid=a666841c-b7cb-4f81-9c73-1ae185918b9f","ios":"levelo://app?vid=a666841c-b7cb-4f81-9c73-1ae185918b9f"},"vehicle_type_id":"4","last_reported":1739452597,"current_range_meters":34000,"station_id":"ce4bhb12rcd13ifvqem0","pricing_plan_id":"cebpf4jnsgd1na2vs0mg"},{"bike_id":"2ddef1d7-c4fd-4c99-b50f-1b938123733f","system_id":"levelo_inurba_marseille","lat":43.27058,"lon":5.40269,"is_reserved":false,"is_disabled":false,"rental_uris":{"android":"levelo://app?vid=2ddef1d7-c4fd-4c99-b50f-1b938123733f","ios":"levelo://app?vid=2ddef1d7-c4fd-4c99-b50f-1b938123733f"},"vehicle_type_id":"4","last_reported":1739452597,"current_range_meters":24800,"station_id":"ce4bhk92rcd13ifvqgc0","pricing_plan_id":"cebpf4jnsgd1na2vs0mg"},{"bike_id":"1f591447-b542-497b-a21e-dfda09c304ae","system_id":"levelo_inurba_marseille","lat":43.29922,"lon":5.3748,"is_reserved":false,"is_disabled":false,"rental_uris":{"android":"levelo://app?vid=1f591447-b542-497b-a21e-dfda09c304ae","ios":"levelo://app?vid=1f591447-b542-497b-a21e-dfda09c304ae"},"vehicle_type_id":"4","last_reported":1739452597,"current_range_meters":14800,"station_id":"ce4bgjh2rcd13ifvqbg0","pricing_plan_id":"cebpf4jnsgd1na2vs0mg"},{"bike_id":"03f1ee11-be7f-45e6-a171-a893130e88b6","system_id":"levelo_inurba_marseille","lat":43.29004,"lon":5.35599,"is_reserved":false,"is_disabled":false,"rental_uris":{"android":"levelo://app?vid=03f1ee11-be7f-45e6-a171-a893130e88b6","ios":"levelo://app?vid=03f1ee11-be7f-45e6-a171-a893130e88b6"},"vehicle_type_id":"4","last_reported":1739452597,"current_range_meters":38800,"station_id":"ce4bhb92rcd13ifvqen0","pricing_plan_id":"cebpf4jnsgd1na2vs0mg"},{"bike_id":"704ec19d-e7c0-4858-a423-dcfa560220a5","system_id":"levelo_inurba_marseille","lat":43.23212,"lon":5.39981,"is_reserved":false,"is_disabled":false,"rental_uris":{"android":"levelo://app?vid=704ec19d-e7c0-4858-a423-dcfa560220a5","ios":"levelo://app?vid=704ec19d-e7c0-4858-a423-dcfa560220a5"},"vehicle_type_id":"4","last_reported":1739452597,"current_range_meters":36800,"station_id":"ce4bhn12rcd13ifvqgqg","pricing_plan_id":"cebpf4jnsgd1na2vs0mg"},{"bike_id":"aa9010f5-ddb8-40ac-92f7-6cf7d13e88ae","system_id":"levelo_inurba_marseille","lat":43.26692,"lon":5.3826,"is_reserved":false,"is_disabled":false,"rental_uris":{"android":"levelo://app?vid=aa9010f5-ddb8-40ac-92f7-6cf7d13e88ae","ios":"levelo://app?vid=aa9010f5-ddb8-40ac-92f7-6cf7d13e88ae"},"vehicle_type_id":"4","last_reported":1739452597,"current_range_meters":38000,"station_id":"ce4bhg92rcd13ifvqf90","pricing_plan_id":"cebpf4jnsgd1na2vs0mg"},{"bike_id":"b0127c8f-801f-46cb-9aba-3ca1f95d16f1","system_id":"levelo_inurba_marseille","lat":43.34135,"lon":5.40901,"is_reserved":false,"is_disabled":false,"rental_uris":{"android":"levelo://app?vid=b0127c8f-801f-46cb-9aba-3ca1f95d16f1","ios":"levelo://app?vid=b0127c8f-801f-46cb-9aba-3ca1f95d16f1"},"vehicle_type_id":"4","last_reported":1739452597,"current_range_meters":36800,"station_id":"ce4bhqh2rcd13ifvqhlg","pricing_plan_id":"cebpf4jnsgd1na2vs0mg"},{"bike_id":"255edc25-18b0-47b6-83a7-442f3b86ac4f","system_id":"levelo_inurba_marseille","lat":43.26057,"lon":5.39396,"is_reserved":false,"is_disabled":false,"rental_uris":{"android":"levelo://app?vid=255edc25-18b0-47b6-83a7-442f3b86ac4f","ios":"levelo://app?vid=255edc25-18b0-47b6-83a7-442f3b86ac4f"},"vehicle_type_id":"4","last_reported":1739452597,"current_range_meters":38800,"station_id":"ce4bhh92rcd13ifvqfj0","pricing_plan_id":"cebpf4jnsgd1na2vs0mg"},{"bike_id":"8b301010-c1b7-4bf5-be73-26b4bca92fe7","system_id":"levelo_inurba_marseille","lat":43.24805,"lon":5.37449,"is_reserved":false,"is_disabled":false,"rental_uris":{"android":"levelo://app?vid=8b301010-c1b7-4bf5-be73-26b4bca92fe7","ios":"levelo://app?vid=8b301010-c1b7-4bf5-be73-26b4bca92fe7"},"vehicle_type_id":"4","last_reported":1739452597,"current_range_meters":20800,"station_id":"ce4bhgh2rcd13ifvqfb0","pricing_plan_id":"cebpf4jnsgd1na2vs0mg"},{"bike_id":"5014a418-9296-4854-a3ce-8f5cc273e0d3","system_id":"levelo_inurba_marseille","lat":43.28107,"lon":5.37842,"is_reserved":false,"is_disabled":false,"rental_uris":{"android":"levelo://app?vid=5014a418-9296-4854-a3ce-8f5cc273e0d3","ios":"levelo://app?vid=5014a418-9296-4854-a3ce-8f5cc273e0d3"},"vehicle_type_id":"4","last_reported":1739452597,"current_range_meters":32400,"station_id":"ce4bha12rcd13ifvqee0","pricing_plan_id":"cebpf4jnsgd1na2vs0mg"},{"bike_id":"9cf8e6d9-67b8-441b-8ab4-08ef8560d2b0","system_id":"levelo_inurba_marseille","lat":43.33198,"lon":5.35577,"is_reserved":false,"is_disabled":false,"rental_uris":{"android":"levelo://app?vid=9cf8e6d9-67b8-441b-8ab4-08ef8560d2b0","ios":"levelo://app?vid=9cf8e6d9-67b8-441b-8ab4-08ef8560d2b0"},"vehicle_type_id":"4","last_reported":1739452597,"current_range_meters":4800,"station_id":"","pricing_plan_id":"cebpf4jnsgd1na2vs0mg"},{"bike_id":"293514b4-33bd-4f1f-b6a1-f48e8a03df35","system_id":"levelo_inurba_marseille","lat":43.29036,"lon":5.39939,"is_reserved":false,"is_disabled":false,"rental_uris":{"android":"levelo://app?vid=293514b4-33bd-4f1f-b6a1-f48e8a03df35","ios":"levelo://app?vid=293514b4-33bd-4f1f-b6a1-f48e8a03df35"},"vehicle_type_id":"4","last_reported":1739452597,"current_range_meters":36800,"station_id":"ce4bh392rcd13ifvqdm0","pricing_plan_id":"cebpf4jnsgd1na2vs0mg"},{"bike_id":"b4aa76b0-5b22-4f3b-962e-9b24d747039a","system_id":"levelo_inurba_marseille","lat":43.28989,"lon":5.37843,"is_reserved":false,"is_disabled":false,"rental_uris":{"android":"levelo://app?vid=b4aa76b0-5b22-4f3b-962e-9b24d747039a","ios":"levelo://app?vid=b4aa76b0-5b22-4f3b-962e-9b24d747039a"},"vehicle_type_id":"4","last_reported":1739452597,"current_range_meters":37600,"station_id":"ce4bh9p2rcd13ifvqed0","pricing_plan_id":"cebpf4jnsgd1na2vs0mg"},{"bike_id":"73672ad0-aab9-42fb-bc4f-9f3ef24e20d5","system_id":"levelo_inurba_marseille","lat":43.24417,"lon":5.37069,"is_reserved":false,"is_disabled":true,"rental_uris":{"android":"levelo://app?vid=73672ad0-aab9-42fb-bc4f-9f3ef24e20d5","ios":"levelo://app?vid=73672ad0-aab9-42fb-bc4f-9f3ef24e20d5"},"vehicle_type_id":"4","last_reported":1739452597,"current_range_meters":34000,"station_id":"ce4bhhh2rcd13ifvqfk0","pricing_plan_id":"cebpf4jnsgd1na2vs0mg"},{"bike_id":"7e4baaff-43df-45ac-ba99-60d4ee3b5a14","system_id":"levelo_inurba_marseille","lat":43.32501,"lon":5.3654,"is_reserved":false,"is_disabled":false,"rental_uris":{"android":"levelo://app?vid=7e4baaff-43df-45ac-ba99-60d4ee3b5a14","ios":"levelo://app?vid=7e4baaff-43df-45ac-ba99-60d4ee3b5a14"},"vehicle_type_id":"4","last_reported":1739452597,"current_range_meters":36800,"station_id":"ce4bhs12rcd13ifvqhvg","pricing_plan_id":"cebpf4jnsgd1na2vs0mg"},{"bike_id":"7e5520a4-2922-4ff8-9b47-91c4e8c21ca4","system_id":"levelo_inurba_marseille","lat":43.2465,"lon":5.38887,"is_reserved":false,"is_disabled":false,"rental_uris":{"android":"levelo://app?vid=7e5520a4-2922-4ff8-9b47-91c4e8c21ca4","ios":"levelo://app?vid=7e5520a4-2922-4ff8-9b47-91c4e8c21ca4"},"vehicle_type_id":"4","last_reported":1739452597,"current_range_meters":29600,"station_id":"ce4bhg12rcd13ifvqf60","pricing_plan_id":"cebpf4jnsgd1na2vs0mg"},{"bike_id":"3988dd28-6d2b-46c9-a74e-cbe2d8bf40cf","system_id":"levelo_inurba_marseille","lat":43.2417,"lon":5.39726,"is_reserved":false,"is_disabled":false,"rental_uris":{"android":"levelo://app?vid=3988dd28-6d2b-46c9-a74e-cbe2d8bf40cf","ios":"levelo://app?vid=3988dd28-6d2b-46c9-a74e-cbe2d8bf40cf"},"vehicle_type_id":"4","last_reported":1739452597,"current_range_meters":37600,"station_id":"ce4bhn12rcd13ifvqgpg","pricing_plan_id":"cebpf4jnsgd1na2vs0mg"},{"bike_id":"b03fd7e9-5604-4ddf-8507-029c6e1eb1c8","system_id":"levelo_inurba_marseille","lat":43.25917,"lon":5.40868,"is_reserved":false,"is_disabled":false,"rental_uris":{"android":"levelo://app?vid=b03fd7e9-5604-4ddf-8507-029c6e1eb1c8","ios":"levelo://app?vid=b03fd7e9-5604-4ddf-8507-029c6e1eb1c8"},"vehicle_type_id":"4","last_reported":1739452597,"current_range_meters":8400,"station_id":"ce4bhm92rcd13ifvqglg","pricing_plan_id":"cebpf4jnsgd1na2vs0mg"},{"bike_id":"51ab7186-5043-4bed-baca-73708608a302","system_id":"levelo_inurba_marseille","lat":43.29584,"lon":5.37026,"is_reserved":false,"is_disabled":true,"rental_uris":{"android":"levelo://app?vid=51ab7186-5043-4bed-baca-73708608a302","ios":"levelo://app?vid=51ab7186-5043-4bed-baca-73708608a302"},"vehicle_type_id":"4","last_reported":1739452597,"current_range_meters":0,"station_id":"","pricing_plan_id":"cebpf4jnsgd1na2vs0mg"},{"bike_id":"d3fc5f7e-9983-4343-a9af-f36df7d45f29","system_id":"levelo_inurba_marseille","lat":43.23196,"lon":5.39985,"is_reserved":false,"is_disabled":false,"rental_uris":{"android":"levelo://app?vid=d3fc5f7e-9983-4343-a9af-f36df7d45f29","ios":"levelo://app?vid=d3fc5f7e-9983-4343-a9af-f36df7d45f29"},"vehicle_type_id":"4","last_reported":1739452597,"current_range_meters":24400,"station_id":"ce4bhn12rcd13ifvqgqg","pricing_plan_id":"cebpf4jnsgd1na2vs0mg"},{"bike_id":"62bc9e9f-0fb1-417c-bae2-2a6fae8e3f1f","system_id":"levelo_inurba_marseille","lat":43.33726,"lon":5.39178,"is_reserved":false,"is_disabled":false,"rental_uris":{"android":"levelo://app?vid=62bc9e9f-0fb1-417c-bae2-2a6fae8e3f1f","ios":"levelo://app?vid=62bc9e9f-0fb1-417c-bae2-2a6fae8e3f1f"},"vehicle_type_id":"4","last_reported":1739452597,"current_range_meters":17600,"station_id":"ce4bhr92rcd13ifvqhsg","pricing_plan_id":"cebpf4jnsgd1na2vs0mg"},{"bike_id":"9f273670-15eb-4b22-9f2f-8564846efece","system_id":"levelo_inurba_marseille","lat":43.30511,"lon":5.36512,"is_reserved":false,"is_disabled":false,"rental_uris":{"android":"levelo://app?vid=9f273670-15eb-4b22-9f2f-8564846efece","ios":"levelo://app?vid=9f273670-15eb-4b22-9f2f-8564846efece"},"vehicle_type_id":"4","last_reported":1739452597,"current_range_meters":38800,"station_id":"ce4bgs12rcd13ifvqcag","pricing_plan_id":"cebpf4jnsgd1na2vs0mg"},{"bike_id":"4d8f6951-4bdb-4749-832f-76e93a2eb66d","system_id":"levelo_inurba_marseille","lat":43.28282,"lon":5.35079,"is_reserved":false,"is_disabled":false,"rental_uris":{"android":"levelo://app?vid=4d8f6951-4bdb-4749-832f-76e93a2eb66d","ios":"levelo://app?vid=4d8f6951-4bdb-4749-832f-76e93a2eb66d"},"vehicle_type_id":"4","last_reported":1739452597,"current_range_meters":18800,"station_id":"ce4bhbp2rcd13ifvqerg","pricing_plan_id":"cebpf4jnsgd1na2vs0mg"},{"bike_id":"4d424081-1725-48a1-83bc-7e460123e0e1","system_id":"levelo_inurba_marseille","lat":43.272,"lon":5.39164,"is_reserved":false,"is_disabled":false,"rental_uris":{"android":"levelo://app?vid=4d424081-1725-48a1-83bc-7e460123e0e1","ios":"levelo://app?vid=4d424081-1725-48a1-83bc-7e460123e0e1"},"vehicle_type_id":"4","last_reported":1739452597,"current_range_meters":38800,"station_id":"ce4bhhp2rcd13ifvqfm0","pricing_plan_id":"cebpf4jnsgd1na2vs0mg"},{"bike_id":"51a05f69-767b-4091-a186-8bcbafd831ce","system_id":"levelo_inurba_marseille","lat":43.29525,"lon":5.39045,"is_reserved":false,"is_disabled":false,"rental_uris":{"android":"levelo://app?vid=51a05f69-767b-4091-a186-8bcbafd831ce","ios":"levelo://app?vid=51a05f69-767b-4091-a186-8bcbafd831ce"},"vehicle_type_id":"4","last_reported":1739452597,"current_range_meters":38800,"station_id":"ce4bh3p2rcd13ifvqdp0","pricing_plan_id":"cebpf4jnsgd1na2vs0mg"},{"bike_id":"dff784b9-040c-429d-b847-08ccef8ffbe4","system_id":"levelo_inurba_marseille","lat":43.24806,"lon":5.37457,"is_reserved":false,"is_disabled":false,"rental_uris":{"android":"levelo://app?vid=dff784b9-040c-429d-b847-08ccef8ffbe4","ios":"levelo://app?vid=dff784b9-040c-429d-b847-08ccef8ffbe4"},"vehicle_type_id":"4","last_reported":1739452597,"current_range_meters":18000,"station_id":"ce4bhgh2rcd13ifvqfb0","pricing_plan_id":"cebpf4jnsgd1na2vs0mg"},{"bike_id":"83ead89d-7307-4fdc-b0ac-67471a6fecef","system_id":"levelo_inurba_marseille","lat":43.30584,"lon":5.36708,"is_reserved":false,"is_disabled":false,"rental_uris":{"android":"levelo://app?vid=83ead89d-7307-4fdc-b0ac-67471a6fecef","ios":"levelo://app?vid=83ead89d-7307-4fdc-b0ac-67471a6fecef"},"vehicle_type_id":"4","last_reported":1739452597,"current_range_meters":28800,"station_id":"ce4bgrp2rcd13ifvqc9g","pricing_plan_id":"cebpf4jnsgd1na2vs0mg"},{"bike_id":"ee079ffa-4416-4a91-bc98-3bd665acea3b","system_id":"levelo_inurba_marseille","lat":43.33724,"lon":5.3919,"is_reserved":false,"is_disabled":false,"rental_uris":{"android":"levelo://app?vid=ee079ffa-4416-4a91-bc98-3bd665acea3b","ios":"levelo://app?vid=ee079ffa-4416-4a91-bc98-3bd665acea3b"},"vehicle_type_id":"4","last_reported":1739452597,"current_range_meters":39200,"station_id":"ce4bhr92rcd13ifvqhsg","pricing_plan_id":"cebpf4jnsgd1na2vs0mg"},{"bike_id":"1fa82dc6-47d4-4356-bbca-393bf4461726","system_id":"levelo_inurba_marseille","lat":43.23972,"lon":5.36624,"is_reserved":false,"is_disabled":false,"rental_uris":{"android":"levelo://app?vid=1fa82dc6-47d4-4356-bbca-393bf4461726","ios":"levelo://app?vid=1fa82dc6-47d4-4356-bbca-393bf4461726"},"vehicle_type_id":"4","last_reported":1739452597,"current_range_meters":38800,"station_id":"ce4bhi12rcd13ifvqfp0","pricing_plan_id":"cebpf4jnsgd1na2vs0mg"},{"bike_id":"2355c6e5-09c3-4950-a7a8-dbebf456e6b5","system_id":"levelo_inurba_marseille","lat":43.30788,"lon":5.36507,"is_reserved":false,"is_disabled":false,"rental_uris":{"android":"levelo://app?vid=2355c6e5-09c3-4950-a7a8-dbebf456e6b5","ios":"levelo://app?vid=2355c6e5-09c3-4950-a7a8-dbebf456e6b5"},"vehicle_type_id":"4","last_reported":1739452597,"current_range_meters":22800,"station_id":"","pricing_plan_id":"cebpf4jnsgd1na2vs0mg"},{"bike_id":"275c44c4-3993-4a81-8e38-9a2aa5b2d08b","system_id":"levelo_inurba_marseille","lat":43.30146,"lon":5.3742,"is_reserved":false,"is_disabled":false,"rental_uris":{"android":"levelo://app?vid=275c44c4-3993-4a81-8e38-9a2aa5b2d08b","ios":"levelo://app?vid=275c44c4-3993-4a81-8e38-9a2aa5b2d08b"},"vehicle_type_id":"4","last_reported":1739452597,"current_range_meters":25600,"station_id":"ce4bgs92rcd13ifvqcc0","pricing_plan_id":"cebpf4jnsgd1na2vs0mg"},{"bike_id":"93cabce3-58dd-4607-8727-b622e6b7f5b9","system_id":"levelo_inurba_marseille","lat":43.24398,"lon":5.37051,"is_reserved":false,"is_disabled":false,"rental_uris":{"android":"levelo://app?vid=93cabce3-58dd-4607-8727-b622e6b7f5b9","ios":"levelo://app?vid=93cabce3-58dd-4607-8727-b622e6b7f5b9"},"vehicle_type_id":"4","last_reported":1739452597,"current_range_meters":39200,"station_id":"ce4bhhh2rcd13ifvqfk0","pricing_plan_id":"cebpf4jnsgd1na2vs0mg"},{"bike_id":"73204b29-ec32-4146-8fea-bcca13682a2a","system_id":"levelo_inurba_marseille","lat":43.24808,"lon":5.37437,"is_reserved":false,"is_disabled":false,"rental_uris":{"android":"levelo://app?vid=73204b29-ec32-4146-8fea-bcca13682a2a","ios":"levelo://app?vid=73204b29-ec32-4146-8fea-bcca13682a2a"},"vehicle_type_id":"4","last_reported":1739452597,"current_range_meters":22000,"station_id":"ce4bhgh2rcd13ifvqfb0","pricing_plan_id":"cebpf4jnsgd1na2vs0mg"},{"bike_id":"476efa06-ff76-4710-9c45-8a07585e8d77","system_id":"levelo_inurba_marseille","lat":43.29549,"lon":5.42286,"is_reserved":false,"is_disabled":true,"rental_uris":{"android":"levelo://app?vid=476efa06-ff76-4710-9c45-8a07585e8d77","ios":"levelo://app?vid=476efa06-ff76-4710-9c45-8a07585e8d77"},"vehicle_type_id":"4","last_reported":1739452597,"current_range_meters":24800,"station_id":"ce4bhph2rcd13ifvqhdg","pricing_plan_id":"cebpf4jnsgd1na2vs0mg"},{"bike_id":"b85f089e-bcba-493c-8108-fb98e760e842","system_id":"levelo_inurba_marseille","lat":43.324853,"lon":5.365715,"is_reserved":false,"is_disabled":false,"rental_uris":{"android":"levelo://app?vid=b85f089e-bcba-493c-8108-fb98e760e842","ios":"levelo://app?vid=b85f089e-bcba-493c-8108-fb98e760e842"},"vehicle_type_id":"4","last_reported":1739452597,"current_range_meters":38800,"station_id":"ce4bhs12rcd13ifvqhvg","pricing_plan_id":"cebpf4jnsgd1na2vs0mg"},{"bike_id":"d1e6b517-b6c2-4320-8222-419cb00ef868","system_id":"levelo_inurba_marseille","lat":43.30333,"lon":5.369,"is_reserved":false,"is_disabled":false,"rental_uris":{"android":"levelo://app?vid=d1e6b517-b6c2-4320-8222-419cb00ef868","ios":"levelo://app?vid=d1e6b517-b6c2-4320-8222-419cb00ef868"},"vehicle_type_id":"4","last_reported":1739452597,"current_range_meters":18800,"station_id":"ce4bgqh2rcd13ifvqc5g","pricing_plan_id":"cebpf4jnsgd1na2vs0mg"},{"bike_id":"1e50abb4-045b-48f5-92b6-0552e964e3dc","system_id":"levelo_inurba_marseille","lat":43.31215,"lon":5.36835,"is_reserved":false,"is_disabled":false,"rental_uris":{"android":"levelo://app?vid=1e50abb4-045b-48f5-92b6-0552e964e3dc","ios":"levelo://app?vid=1e50abb4-045b-48f5-92b6-0552e964e3dc"},"vehicle_type_id":"4","last_reported":1739452597,"current_range_meters":22800,"station_id":"ce4bgl92rcd13ifvqbq0","pricing_plan_id":"cebpf4jnsgd1na2vs0mg"},{"bike_id":"d674d394-04ab-4838-a267-bcdd8affd803","system_id":"levelo_inurba_marseille","lat":43.30805,"lon":5.43521,"is_reserved":false,"is_disabled":false,"rental_uris":{"android":"levelo://app?vid=d674d394-04ab-4838-a267-bcdd8affd803","ios":"levelo://app?vid=d674d394-04ab-4838-a267-bcdd8affd803"},"vehicle_type_id":"4","last_reported":1739452597,"current_range_meters":38800,"station_id":"ce4bhph2rcd13ifvqheg","pricing_plan_id":"cebpf4jnsgd1na2vs0mg"},{"bike_id":"6270596b-3aed-4278-993e-daaa16055229","system_id":"levelo_inurba_marseille","lat":43.23963,"lon":5.36631,"is_reserved":false,"is_disabled":false,"rental_uris":{"android":"levelo://app?vid=6270596b-3aed-4278-993e-daaa16055229","ios":"levelo://app?vid=6270596b-3aed-4278-993e-daaa16055229"},"vehicle_type_id":"4","last_reported":1739452597,"current_range_meters":9600,"station_id":"ce4bhi12rcd13ifvqfp0","pricing_plan_id":"cebpf4jnsgd1na2vs0mg"},{"bike_id":"77141241-dab5-480b-aa9f-3d044a3d29b1","system_id":"levelo_inurba_marseille","lat":43.28427,"lon":5.34995,"is_reserved":false,"is_disabled":false,"rental_uris":{"android":"levelo://app?vid=77141241-dab5-480b-aa9f-3d044a3d29b1","ios":"levelo://app?vid=77141241-dab5-480b-aa9f-3d044a3d29b1"},"vehicle_type_id":"4","last_reported":1739452597,"current_range_meters":38000,"station_id":"ce4bhbh2rcd13ifvqepg","pricing_plan_id":"cebpf4jnsgd1na2vs0mg"},{"bike_id":"3c972bc6-571f-4946-9dde-c7f43d4c71a0","system_id":"levelo_inurba_marseille","lat":43.32448,"lon":5.36558,"is_reserved":false,"is_disabled":false,"rental_uris":{"android":"levelo://app?vid=3c972bc6-571f-4946-9dde-c7f43d4c71a0","ios":"levelo://app?vid=3c972bc6-571f-4946-9dde-c7f43d4c71a0"},"vehicle_type_id":"4","last_reported":1739452597,"current_range_meters":24400,"station_id":"ce4bhs12rcd13ifvqhvg","pricing_plan_id":"cebpf4jnsgd1na2vs0mg"},{"bike_id":"099a1e84-c968-4d02-8d1c-8f9348d7a62d","system_id":"levelo_inurba_marseille","lat":43.27564,"lon":5.3842,"is_reserved":false,"is_disabled":false,"rental_uris":{"android":"levelo://app?vid=099a1e84-c968-4d02-8d1c-8f9348d7a62d","ios":"levelo://app?vid=099a1e84-c968-4d02-8d1c-8f9348d7a62d"},"vehicle_type_id":"4","last_reported":1739452597,"current_range_meters":38800,"station_id":"ce4bhh92rcd13ifvqfi0","pricing_plan_id":"cebpf4jnsgd1na2vs0mg"},{"bike_id":"bf5e3488-e81b-4267-812c-341a93c84a2e","system_id":"levelo_inurba_marseille","lat":43.27967,"lon":5.38735,"is_reserved":false,"is_disabled":false,"rental_uris":{"android":"levelo://app?vid=bf5e3488-e81b-4267-812c-341a93c84a2e","ios":"levelo://app?vid=bf5e3488-e81b-4267-812c-341a93c84a2e"},"vehicle_type_id":"4","last_reported":1739452597,"current_range_meters":37600,"station_id":"ce4bhg12rcd13ifvqf80","pricing_plan_id":"cebpf4jnsgd1na2vs0mg"},{"bike_id":"8397142d-18ae-4dce-b410-f832bf9c44f5","system_id":"levelo_inurba_marseille","lat":43.27316,"lon":5.39112,"is_reserved":false,"is_disabled":false,"rental_uris":{"android":"levelo://app?vid=8397142d-18ae-4dce-b410-f832bf9c44f5","ios":"levelo://app?vid=8397142d-18ae-4dce-b410-f832bf9c44f5"},"vehicle_type_id":"4","last_reported":1739452597,"current_range_meters":38800,"station_id":"ce4bhgp2rcd13ifvqfe0","pricing_plan_id":"cebpf4jnsgd1na2vs0mg"},{"bike_id":"76ed4e97-7fa9-4836-bcd3-e52753ef31b4","system_id":"levelo_inurba_marseille","lat":43.29845,"lon":5.36285,"is_reserved":false,"is_disabled":false,"rental_uris":{"android":"levelo://app?vid=76ed4e97-7fa9-4836-bcd3-e52753ef31b4","ios":"levelo://app?vid=76ed4e97-7fa9-4836-bcd3-e52753ef31b4"},"vehicle_type_id":"4","last_reported":1739452597,"current_range_meters":37600,"station_id":"ce4bgpp2rcd13ifvqc3g","pricing_plan_id":"cebpf4jnsgd1na2vs0mg"},{"bike_id":"08a86ebb-b290-4f14-9520-6a5a716f26bd","system_id":"levelo_inurba_marseille","lat":43.23958,"lon":5.36628,"is_reserved":false,"is_disabled":false,"rental_uris":{"android":"levelo://app?vid=08a86ebb-b290-4f14-9520-6a5a716f26bd","ios":"levelo://app?vid=08a86ebb-b290-4f14-9520-6a5a716f26bd"},"vehicle_type_id":"4","last_reported":1739452597,"current_range_meters":38800,"station_id":"ce4bhi12rcd13ifvqfp0","pricing_plan_id":"cebpf4jnsgd1na2vs0mg"},{"bike_id":"6362738c-ded2-41a5-acbc-a12787f9eefd","system_id":"levelo_inurba_marseille","lat":43.31207,"lon":5.36826,"is_reserved":false,"is_disabled":false,"rental_uris":{"android":"levelo://app?vid=6362738c-ded2-41a5-acbc-a12787f9eefd","ios":"levelo://app?vid=6362738c-ded2-41a5-acbc-a12787f9eefd"},"vehicle_type_id":"4","last_reported":1739452597,"current_range_meters":38800,"station_id":"ce4bgl92rcd13ifvqbq0","pricing_plan_id":"cebpf4jnsgd1na2vs0mg"},{"bike_id":"2ff86c0c-69fd-4294-8842-114f3593748f","system_id":"levelo_inurba_marseille","lat":43.33769,"lon":5.37478,"is_reserved":false,"is_disabled":true,"rental_uris":{"android":"levelo://app?vid=2ff86c0c-69fd-4294-8842-114f3593748f","ios":"levelo://app?vid=2ff86c0c-69fd-4294-8842-114f3593748f"},"vehicle_type_id":"4","last_reported":1739452597,"current_range_meters":32000,"station_id":"","pricing_plan_id":"cebpf4jnsgd1na2vs0mg"},{"bike_id":"9b33e342-5144-472c-b8cd-bb3638f73c4a","system_id":"levelo_inurba_marseille","lat":43.310707,"lon":5.383477,"is_reserved":false,"is_disabled":false,"rental_uris":{"android":"levelo://app?vid=9b33e342-5144-472c-b8cd-bb3638f73c4a","ios":"levelo://app?vid=9b33e342-5144-472c-b8cd-bb3638f73c4a"},"vehicle_type_id":"4","last_reported":1739452597,"current_range_meters":8800,"station_id":"ce4bgv92rcd13ifvqcr0","pricing_plan_id":"cebpf4jnsgd1na2vs0mg"},{"bike_id":"23849fcd-4bc4-44f6-8337-e9a9a16fe0e7","system_id":"levelo_inurba_marseille","lat":43.29736,"lon":5.479507,"is_reserved":false,"is_disabled":false,"rental_uris":{"android":"levelo://app?vid=23849fcd-4bc4-44f6-8337-e9a9a16fe0e7","ios":"levelo://app?vid=23849fcd-4bc4-44f6-8337-e9a9a16fe0e7"},"vehicle_type_id":"4","last_reported":1739452597,"current_range_meters":8000,"station_id":"","pricing_plan_id":"cebpf4jnsgd1na2vs0mg"},{"bike_id":"faec99e1-d1bc-455a-8ff1-da7e5727f8ae","system_id":"levelo_inurba_marseille","lat":43.24388,"lon":5.37056,"is_reserved":false,"is_disabled":false,"rental_uris":{"android":"levelo://app?vid=faec99e1-d1bc-455a-8ff1-da7e5727f8ae","ios":"levelo://app?vid=faec99e1-d1bc-455a-8ff1-da7e5727f8ae"},"vehicle_type_id":"4","last_reported":1739452597,"current_range_meters":24400,"station_id":"ce4bhhh2rcd13ifvqfk0","pricing_plan_id":"cebpf4jnsgd1na2vs0mg"},{"bike_id":"cbe0d17d-ef18-447c-bfea-f64ee5b36386","system_id":"levelo_inurba_marseille","lat":43.3122,"lon":5.36869,"is_reserved":false,"is_disabled":false,"rental_uris":{"android":"levelo://app?vid=cbe0d17d-ef18-447c-bfea-f64ee5b36386","ios":"levelo://app?vid=cbe0d17d-ef18-447c-bfea-f64ee5b36386"},"vehicle_type_id":"4","last_reported":1739452597,"current_range_meters":33600,"station_id":"ce4bgl92rcd13ifvqbq0","pricing_plan_id":"cebpf4jnsgd1na2vs0mg"},{"bike_id":"00961a95-8814-4e09-aa67-0c4050a0401b","system_id":"levelo_inurba_marseille","lat":43.24175,"lon":5.39722,"is_reserved":false,"is_disabled":false,"rental_uris":{"android":"levelo://app?vid=00961a95-8814-4e09-aa67-0c4050a0401b","ios":"levelo://app?vid=00961a95-8814-4e09-aa67-0c4050a0401b"},"vehicle_type_id":"4","last_reported":1739452597,"current_range_meters":36400,"station_id":"ce4bhn12rcd13ifvqgpg","pricing_plan_id":"cebpf4jnsgd1na2vs0mg"},{"bike_id":"16d2405f-70f5-4018-af07-174457bfff8e","system_id":"levelo_inurba_marseille","lat":43.31072,"lon":5.38351,"is_reserved":false,"is_disabled":false,"rental_uris":{"android":"levelo://app?vid=16d2405f-70f5-4018-af07-174457bfff8e","ios":"levelo://app?vid=16d2405f-70f5-4018-af07-174457bfff8e"},"vehicle_type_id":"4","last_reported":1739452597,"current_range_meters":28800,"station_id":"ce4bgv92rcd13ifvqcr0","pricing_plan_id":"cebpf4jnsgd1na2vs0mg"},{"bike_id":"f0195f21-e6c5-42cd-95a8-243cbb17e446","system_id":"levelo_inurba_marseille","lat":43.336082,"lon":5.410253,"is_reserved":false,"is_disabled":false,"rental_uris":{"android":"levelo://app?vid=f0195f21-e6c5-42cd-95a8-243cbb17e446","ios":"levelo://app?vid=f0195f21-e6c5-42cd-95a8-243cbb17e446"},"vehicle_type_id":"4","last_reported":1739452597,"current_range_meters":38800,"station_id":"ce4bhqh2rcd13ifvqhmg","pricing_plan_id":"cebpf4jnsgd1na2vs0mg"},{"bike_id":"14b2070b-6ddc-42e3-b1e8-9c0cbc081f72","system_id":"levelo_inurba_marseille","lat":43.33727,"lon":5.39179,"is_reserved":false,"is_disabled":false,"rental_uris":{"android":"levelo://app?vid=14b2070b-6ddc-42e3-b1e8-9c0cbc081f72","ios":"levelo://app?vid=14b2070b-6ddc-42e3-b1e8-9c0cbc081f72"},"vehicle_type_id":"4","last_reported":1739452597,"current_range_meters":38800,"station_id":"ce4bhr92rcd13ifvqhsg","pricing_plan_id":"cebpf4jnsgd1na2vs0mg"},{"bike_id":"01ecade8-42d0-4557-a2fb-d9f8cac78f27","system_id":"levelo_inurba_marseille","lat":43.2307,"lon":5.35492,"is_reserved":false,"is_disabled":false,"rental_uris":{"android":"levelo://app?vid=01ecade8-42d0-4557-a2fb-d9f8cac78f27","ios":"levelo://app?vid=01ecade8-42d0-4557-a2fb-d9f8cac78f27"},"vehicle_type_id":"4","last_reported":1739452597,"current_range_meters":9200,"station_id":"cpo3342slgdg3j2ifvpg","pricing_plan_id":"cebpf4jnsgd1na2vs0mg"},{"bike_id":"39caa847-b837-4440-a510-689edd01525f","system_id":"levelo_inurba_marseille","lat":43.2398,"lon":5.36617,"is_reserved":false,"is_disabled":false,"rental_uris":{"android":"levelo://app?vid=39caa847-b837-4440-a510-689edd01525f","ios":"levelo://app?vid=39caa847-b837-4440-a510-689edd01525f"},"vehicle_type_id":"4","last_reported":1739452597,"current_range_meters":24800,"station_id":"ce4bhi12rcd13ifvqfp0","pricing_plan_id":"cebpf4jnsgd1na2vs0mg"},{"bike_id":"90069231-8d02-46fd-ba3f-d8e7e83900ee","system_id":"levelo_inurba_marseille","lat":43.28832,"lon":5.43789,"is_reserved":false,"is_disabled":true,"rental_uris":{"android":"levelo://app?vid=90069231-8d02-46fd-ba3f-d8e7e83900ee","ios":"levelo://app?vid=90069231-8d02-46fd-ba3f-d8e7e83900ee"},"vehicle_type_id":"4","last_reported":1739452597,"current_range_meters":0,"station_id":"","pricing_plan_id":"cebpf4jnsgd1na2vs0mg"},{"bike_id":"9d249881-5a15-4231-8a5b-9e0b021f19d2","system_id":"levelo_inurba_marseille","lat":43.27958,"lon":5.38708,"is_reserved":false,"is_disabled":true,"rental_uris":{"android":"levelo://app?vid=9d249881-5a15-4231-8a5b-9e0b021f19d2","ios":"levelo://app?vid=9d249881-5a15-4231-8a5b-9e0b021f19d2"},"vehicle_type_id":"4","last_reported":1739452597,"current_range_meters":36000,"station_id":"ce4bhg12rcd13ifvqf80","pricing_plan_id":"cebpf4jnsgd1na2vs0mg"},{"bike_id":"42066ecf-a88d-4fd9-b940-7ad470a027ef","system_id":"levelo_inurba_marseille","lat":43.28848,"lon":5.3932,"is_reserved":false,"is_disabled":false,"rental_uris":{"android":"levelo://app?vid=42066ecf-a88d-4fd9-b940-7ad470a027ef","ios":"levelo://app?vid=42066ecf-a88d-4fd9-b940-7ad470a027ef"},"vehicle_type_id":"4","last_reported":1739452597,"current_range_meters":17200,"station_id":"ce4bh2p2rcd13ifvqdi0","pricing_plan_id":"cebpf4jnsgd1na2vs0mg"},{"bike_id":"1197363b-8b66-4a7f-a57b-5c2dad4c9493","system_id":"levelo_inurba_marseille","lat":43.31247,"lon":5.36899,"is_reserved":false,"is_disabled":false,"rental_uris":{"android":"levelo://app?vid=1197363b-8b66-4a7f-a57b-5c2dad4c9493","ios":"levelo://app?vid=1197363b-8b66-4a7f-a57b-5c2dad4c9493"},"vehicle_type_id":"4","last_reported":1739452597,"current_range_meters":28000,"station_id":"ce4bgl92rcd13ifvqbq0","pricing_plan_id":"cebpf4jnsgd1na2vs0mg"},{"bike_id":"123afe72-86eb-4cb2-981c-a710ec42fb20","system_id":"levelo_inurba_marseille","lat":43.30545,"lon":5.365373,"is_reserved":false,"is_disabled":false,"rental_uris":{"android":"levelo://app?vid=123afe72-86eb-4cb2-981c-a710ec42fb20","ios":"levelo://app?vid=123afe72-86eb-4cb2-981c-a710ec42fb20"},"vehicle_type_id":"4","last_reported":1739452597,"current_range_meters":28000,"station_id":"ce4bgs12rcd13ifvqcag","pricing_plan_id":"cebpf4jnsgd1na2vs0mg"},{"bike_id":"55783f89-5e68-44de-b32f-22f3cb2fd82b","system_id":"levelo_inurba_marseille","lat":43.28432,"lon":5.39185,"is_reserved":false,"is_disabled":false,"rental_uris":{"android":"levelo://app?vid=55783f89-5e68-44de-b32f-22f3cb2fd82b","ios":"levelo://app?vid=55783f89-5e68-44de-b32f-22f3cb2fd82b"},"vehicle_type_id":"4","last_reported":1739452597,"current_range_meters":38800,"station_id":"ce4bhoh2rcd13ifvqh5g","pricing_plan_id":"cebpf4jnsgd1na2vs0mg"},{"bike_id":"e13b346e-16be-4753-8e65-74002c37e2cd","system_id":"levelo_inurba_marseille","lat":43.337444,"lon":5.374475,"is_reserved":false,"is_disabled":false,"rental_uris":{"android":"levelo://app?vid=e13b346e-16be-4753-8e65-74002c37e2cd","ios":"levelo://app?vid=e13b346e-16be-4753-8e65-74002c37e2cd"},"vehicle_type_id":"4","last_reported":1739452597,"current_range_meters":28800,"station_id":"","pricing_plan_id":"cebpf4jnsgd1na2vs0mg"},{"bike_id":"d1de7867-d125-47c8-8a90-8eabb1d25537","system_id":"levelo_inurba_marseille","lat":43.25707,"lon":5.41091,"is_reserved":false,"is_disabled":false,"rental_uris":{"android":"levelo://app?vid=d1de7867-d125-47c8-8a90-8eabb1d25537","ios":"levelo://app?vid=d1de7867-d125-47c8-8a90-8eabb1d25537"},"vehicle_type_id":"4","last_reported":1739452597,"current_range_meters":37600,"station_id":"ce4bhkp2rcd13ifvqgd0","pricing_plan_id":"cebpf4jnsgd1na2vs0mg"},{"bike_id":"9aafad7f-9abd-4452-b8c1-10b87cede291","system_id":"levelo_inurba_marseille","lat":43.28097,"lon":5.37846,"is_reserved":false,"is_disabled":false,"rental_uris":{"android":"levelo://app?vid=9aafad7f-9abd-4452-b8c1-10b87cede291","ios":"levelo://app?vid=9aafad7f-9abd-4452-b8c1-10b87cede291"},"vehicle_type_id":"4","last_reported":1739452597,"current_range_meters":29600,"station_id":"ce4bha12rcd13ifvqee0","pricing_plan_id":"cebpf4jnsgd1na2vs0mg"},{"bike_id":"a28b8174-0d2e-4fbc-a13c-72ac707973ae","system_id":"levelo_inurba_marseille","lat":43.30914,"lon":5.36841,"is_reserved":false,"is_disabled":false,"rental_uris":{"android":"levelo://app?vid=a28b8174-0d2e-4fbc-a13c-72ac707973ae","ios":"levelo://app?vid=a28b8174-0d2e-4fbc-a13c-72ac707973ae"},"vehicle_type_id":"4","last_reported":1739452597,"current_range_meters":38800,"station_id":"ce4bgn92rcd13ifvqbvg","pricing_plan_id":"cebpf4jnsgd1na2vs0mg"},{"bike_id":"cf5c922b-59a3-4fa2-863e-b1e48304b5b9","system_id":"levelo_inurba_marseille","lat":43.2769,"lon":5.38889,"is_reserved":false,"is_disabled":false,"rental_uris":{"android":"levelo://app?vid=cf5c922b-59a3-4fa2-863e-b1e48304b5b9","ios":"levelo://app?vid=cf5c922b-59a3-4fa2-863e-b1e48304b5b9"},"vehicle_type_id":"4","last_reported":1739452597,"current_range_meters":38800,"station_id":"ce4bhi12rcd13ifvqfo0","pricing_plan_id":"cebpf4jnsgd1na2vs0mg"},{"bike_id":"70617585-289d-477e-b3bd-01213e273ed0","system_id":"levelo_inurba_marseille","lat":43.24814,"lon":5.37453,"is_reserved":false,"is_disabled":false,"rental_uris":{"android":"levelo://app?vid=70617585-289d-477e-b3bd-01213e273ed0","ios":"levelo://app?vid=70617585-289d-477e-b3bd-01213e273ed0"},"vehicle_type_id":"4","last_reported":1739452597,"current_range_meters":36400,"station_id":"ce4bhgh2rcd13ifvqfb0","pricing_plan_id":"cebpf4jnsgd1na2vs0mg"},{"bike_id":"7b35ec91-75d0-476a-8303-ae83c6d3cb50","system_id":"levelo_inurba_marseille","lat":43.24812,"lon":5.37435,"is_reserved":false,"is_disabled":false,"rental_uris":{"android":"levelo://app?vid=7b35ec91-75d0-476a-8303-ae83c6d3cb50","ios":"levelo://app?vid=7b35ec91-75d0-476a-8303-ae83c6d3cb50"},"vehicle_type_id":"4","last_reported":1739452597,"current_range_meters":38800,"station_id":"ce4bhgh2rcd13ifvqfb0","pricing_plan_id":"cebpf4jnsgd1na2vs0mg"},{"bike_id":"3ff589f6-6d67-4692-a191-85c194c7757f","system_id":"levelo_inurba_marseille","lat":43.23954,"lon":5.36634,"is_reserved":false,"is_disabled":false,"rental_uris":{"android":"levelo://app?vid=3ff589f6-6d67-4692-a191-85c194c7757f","ios":"levelo://app?vid=3ff589f6-6d67-4692-a191-85c194c7757f"},"vehicle_type_id":"4","last_reported":1739452597,"current_range_meters":28400,"station_id":"ce4bhi12rcd13ifvqfp0","pricing_plan_id":"cebpf4jnsgd1na2vs0mg"},{"bike_id":"c4859de0-f69a-4df9-8bc7-73be04bead96","system_id":"levelo_inurba_marseille","lat":43.29832,"lon":5.35983,"is_reserved":false,"is_disabled":false,"rental_uris":{"android":"levelo://app?vid=c4859de0-f69a-4df9-8bc7-73be04bead96","ios":"levelo://app?vid=c4859de0-f69a-4df9-8bc7-73be04bead96"},"vehicle_type_id":"4","last_reported":1739452597,"current_range_meters":35600,"station_id":"","pricing_plan_id":"cebpf4jnsgd1na2vs0mg"},{"bike_id":"d98edff1-bb3d-40fc-9e0c-e36c180a8550","system_id":"levelo_inurba_marseille","lat":43.29308,"lon":5.37471,"is_reserved":false,"is_disabled":false,"rental_uris":{"android":"levelo://app?vid=d98edff1-bb3d-40fc-9e0c-e36c180a8550","ios":"levelo://app?vid=d98edff1-bb3d-40fc-9e0c-e36c180a8550"},"vehicle_type_id":"4","last_reported":1739452597,"current_range_meters":10000,"station_id":"ce4bgi12rcd13ifvqb70","pricing_plan_id":"cebpf4jnsgd1na2vs0mg"},{"bike_id":"8fa2c838-e786-432d-89c0-ea57bc9058f2","system_id":"levelo_inurba_marseille","lat":43.26205,"lon":5.37465,"is_reserved":false,"is_disabled":false,"rental_uris":{"android":"levelo://app?vid=8fa2c838-e786-432d-89c0-ea57bc9058f2","ios":"levelo://app?vid=8fa2c838-e786-432d-89c0-ea57bc9058f2"},"vehicle_type_id":"4","last_reported":1739452597,"current_range_meters":37600,"station_id":"ce4bhgp2rcd13ifvqfc0","pricing_plan_id":"cebpf4jnsgd1na2vs0mg"},{"bike_id":"c2250f20-2283-4e17-b7ce-382f2f740aa1","system_id":"levelo_inurba_marseille","lat":43.2481,"lon":5.37454,"is_reserved":false,"is_disabled":false,"rental_uris":{"android":"levelo://app?vid=c2250f20-2283-4e17-b7ce-382f2f740aa1","ios":"levelo://app?vid=c2250f20-2283-4e17-b7ce-382f2f740aa1"},"vehicle_type_id":"4","last_reported":1739452597,"current_range_meters":38800,"station_id":"ce4bhgh2rcd13ifvqfb0","pricing_plan_id":"cebpf4jnsgd1na2vs0mg"},{"bike_id":"079e37de-a967-4afe-9997-04d6269e040f","system_id":"levelo_inurba_marseille","lat":43.29273,"lon":5.36846,"is_reserved":false,"is_disabled":false,"rental_uris":{"android":"levelo://app?vid=079e37de-a967-4afe-9997-04d6269e040f","ios":"levelo://app?vid=079e37de-a967-4afe-9997-04d6269e040f"},"vehicle_type_id":"4","last_reported":1739452597,"current_range_meters":38000,"station_id":"ce4bhbp2rcd13ifvqesg","pricing_plan_id":"cebpf4jnsgd1na2vs0mg"},{"bike_id":"cece8b10-f731-4f88-99b8-6481c79ebf67","system_id":"levelo_inurba_marseille","lat":43.30531,"lon":5.36717,"is_reserved":false,"is_disabled":false,"rental_uris":{"android":"levelo://app?vid=cece8b10-f731-4f88-99b8-6481c79ebf67","ios":"levelo://app?vid=cece8b10-f731-4f88-99b8-6481c79ebf67"},"vehicle_type_id":"4","last_reported":1739452597,"current_range_meters":22400,"station_id":"ce4bgrp2rcd13ifvqc9g","pricing_plan_id":"cebpf4jnsgd1na2vs0mg"},{"bike_id":"dbad0a4d-3fbf-449a-abe5-08347d9d9085","system_id":"levelo_inurba_marseille","lat":43.29294,"lon":5.3692,"is_reserved":false,"is_disabled":false,"rental_uris":{"android":"levelo://app?vid=dbad0a4d-3fbf-449a-abe5-08347d9d9085","ios":"levelo://app?vid=dbad0a4d-3fbf-449a-abe5-08347d9d9085"},"vehicle_type_id":"4","last_reported":1739452597,"current_range_meters":16400,"station_id":"","pricing_plan_id":"cebpf4jnsgd1na2vs0mg"},{"bike_id":"492e558b-0ce5-4984-b6b1-1d33f225a96b","system_id":"levelo_inurba_marseille","lat":43.2416,"lon":5.36406,"is_reserved":false,"is_disabled":false,"rental_uris":{"android":"levelo://app?vid=492e558b-0ce5-4984-b6b1-1d33f225a96b","ios":"levelo://app?vid=492e558b-0ce5-4984-b6b1-1d33f225a96b"},"vehicle_type_id":"4","last_reported":1739452597,"current_range_meters":7200,"station_id":"cpo36qri1sfpv3e86is0","pricing_plan_id":"cebpf4jnsgd1na2vs0mg"},{"bike_id":"6bf99e3e-9f10-4617-93f9-2e16108e33a0","system_id":"levelo_inurba_marseille","lat":43.23147,"lon":5.4371,"is_reserved":false,"is_disabled":true,"rental_uris":{"android":"levelo://app?vid=6bf99e3e-9f10-4617-93f9-2e16108e33a0","ios":"levelo://app?vid=6bf99e3e-9f10-4617-93f9-2e16108e33a0"},"vehicle_type_id":"4","last_reported":1739452597,"current_range_meters":0,"station_id":"ce4bhmp2rcd13ifvqgog","pricing_plan_id":"cebpf4jnsgd1na2vs0mg"},{"bike_id":"50c3bcdd-193c-475f-bdc5-af354fe8f992","system_id":"levelo_inurba_marseille","lat":43.34143,"lon":5.40907,"is_reserved":false,"is_disabled":false,"rental_uris":{"android":"levelo://app?vid=50c3bcdd-193c-475f-bdc5-af354fe8f992","ios":"levelo://app?vid=50c3bcdd-193c-475f-bdc5-af354fe8f992"},"vehicle_type_id":"4","last_reported":1739452597,"current_range_meters":38000,"station_id":"ce4bhqh2rcd13ifvqhlg","pricing_plan_id":"cebpf4jnsgd1na2vs0mg"},{"bike_id":"db5187cf-2433-41b6-ad88-c8178c76bc92","system_id":"levelo_inurba_marseille","lat":43.30642,"lon":5.40092,"is_reserved":false,"is_disabled":false,"rental_uris":{"android":"levelo://app?vid=db5187cf-2433-41b6-ad88-c8178c76bc92","ios":"levelo://app?vid=db5187cf-2433-41b6-ad88-c8178c76bc92"},"vehicle_type_id":"4","last_reported":1739452597,"current_range_meters":37600,"station_id":"ce4bh112rcd13ifvqda0","pricing_plan_id":"cebpf4jnsgd1na2vs0mg"},{"bike_id":"9355cd59-e1ae-4841-89e0-a1135f03b0e4","system_id":"levelo_inurba_marseille","lat":43.303675,"lon":5.376241,"is_reserved":false,"is_disabled":false,"rental_uris":{"android":"levelo://app?vid=9355cd59-e1ae-4841-89e0-a1135f03b0e4","ios":"levelo://app?vid=9355cd59-e1ae-4841-89e0-a1135f03b0e4"},"vehicle_type_id":"4","last_reported":1739452597,"current_range_meters":38400,"station_id":"","pricing_plan_id":"cebpf4jnsgd1na2vs0mg"},{"bike_id":"da6f3c21-f619-4a81-a7b0-cf9719e8927b","system_id":"levelo_inurba_marseille","lat":43.29365,"lon":5.3721,"is_reserved":false,"is_disabled":false,"rental_uris":{"android":"levelo://app?vid=da6f3c21-f619-4a81-a7b0-cf9719e8927b","ios":"levelo://app?vid=da6f3c21-f619-4a81-a7b0-cf9719e8927b"},"vehicle_type_id":"4","last_reported":1739452597,"current_range_meters":9200,"station_id":"","pricing_plan_id":"cebpf4jnsgd1na2vs0mg"},{"bike_id":"32907916-d162-4b4d-8fdd-b395acc7aae1","system_id":"levelo_inurba_marseille","lat":43.30648,"lon":5.40089,"is_reserved":false,"is_disabled":false,"rental_uris":{"android":"levelo://app?vid=32907916-d162-4b4d-8fdd-b395acc7aae1","ios":"levelo://app?vid=32907916-d162-4b4d-8fdd-b395acc7aae1"},"vehicle_type_id":"4","last_reported":1739452597,"current_range_meters":14400,"station_id":"ce4bh112rcd13ifvqda0","pricing_plan_id":"cebpf4jnsgd1na2vs0mg"},{"bike_id":"fa094bf9-1d6a-4ba6-aa88-1151a5efd2ad","system_id":"levelo_inurba_marseille","lat":43.3059,"lon":5.36684,"is_reserved":false,"is_disabled":false,"rental_uris":{"android":"levelo://app?vid=fa094bf9-1d6a-4ba6-aa88-1151a5efd2ad","ios":"levelo://app?vid=fa094bf9-1d6a-4ba6-aa88-1151a5efd2ad"},"vehicle_type_id":"4","last_reported":1739452597,"current_range_meters":38400,"station_id":"ce4bgrp2rcd13ifvqc9g","pricing_plan_id":"cebpf4jnsgd1na2vs0mg"},{"bike_id":"786687c7-e4ff-4ff9-8656-9627b4ede65e","system_id":"levelo_inurba_marseille","lat":43.26691,"lon":5.3826,"is_reserved":false,"is_disabled":false,"rental_uris":{"android":"levelo://app?vid=786687c7-e4ff-4ff9-8656-9627b4ede65e","ios":"levelo://app?vid=786687c7-e4ff-4ff9-8656-9627b4ede65e"},"vehicle_type_id":"4","last_reported":1739452597,"current_range_meters":39200,"station_id":"ce4bhg92rcd13ifvqf90","pricing_plan_id":"cebpf4jnsgd1na2vs0mg"},{"bike_id":"47dc7c59-2f79-4ef3-9453-9bcbead0652a","system_id":"levelo_inurba_marseille","lat":43.25585,"lon":5.38221,"is_reserved":false,"is_disabled":false,"rental_uris":{"android":"levelo://app?vid=47dc7c59-2f79-4ef3-9453-9bcbead0652a","ios":"levelo://app?vid=47dc7c59-2f79-4ef3-9453-9bcbead0652a"},"vehicle_type_id":"4","last_reported":1739452597,"current_range_meters":36800,"station_id":"ce4bhih2rcd13ifvqfs0","pricing_plan_id":"cebpf4jnsgd1na2vs0mg"},{"bike_id":"26de5054-7c43-4c9f-977c-5313481d109f","system_id":"levelo_inurba_marseille","lat":43.24162,"lon":5.39726,"is_reserved":false,"is_disabled":false,"rental_uris":{"android":"levelo://app?vid=26de5054-7c43-4c9f-977c-5313481d109f","ios":"levelo://app?vid=26de5054-7c43-4c9f-977c-5313481d109f"},"vehicle_type_id":"4","last_reported":1739452597,"current_range_meters":38800,"station_id":"ce4bhn12rcd13ifvqgpg","pricing_plan_id":"cebpf4jnsgd1na2vs0mg"},{"bike_id":"db9667f4-6991-4a08-8532-cf6285800ccc","system_id":"levelo_inurba_marseille","lat":43.311791,"lon":5.387203,"is_reserved":false,"is_disabled":true,"rental_uris":{"android":"levelo://app?vid=db9667f4-6991-4a08-8532-cf6285800ccc","ios":"levelo://app?vid=db9667f4-6991-4a08-8532-cf6285800ccc"},"vehicle_type_id":"4","last_reported":1739452597,"current_range_meters":32800,"station_id":"ce4bgv12rcd13ifvqcp0","pricing_plan_id":"cebpf4jnsgd1na2vs0mg"},{"bike_id":"2a8d5b38-12c7-43ca-969a-fe7b4ef5b359","system_id":"levelo_inurba_marseille","lat":43.316994,"lon":5.377474,"is_reserved":false,"is_disabled":true,"rental_uris":{"android":"levelo://app?vid=2a8d5b38-12c7-43ca-969a-fe7b4ef5b359","ios":"levelo://app?vid=2a8d5b38-12c7-43ca-969a-fe7b4ef5b359"},"vehicle_type_id":"4","last_reported":1739452597,"current_range_meters":3200,"station_id":"ce4bgth2rcd13ifvqch0","pricing_plan_id":"cebpf4jnsgd1na2vs0mg"},{"bike_id":"486df385-f6f5-4ddc-9f12-6fe1627bb4ed","system_id":"levelo_inurba_marseille","lat":43.29897,"lon":5.43665,"is_reserved":false,"is_disabled":false,"rental_uris":{"android":"levelo://app?vid=486df385-f6f5-4ddc-9f12-6fe1627bb4ed","ios":"levelo://app?vid=486df385-f6f5-4ddc-9f12-6fe1627bb4ed"},"vehicle_type_id":"4","last_reported":1739452597,"current_range_meters":35200,"station_id":"ce4bhpp2rcd13ifvqhfg","pricing_plan_id":"cebpf4jnsgd1na2vs0mg"},{"bike_id":"b57ed8e3-61f5-404a-b343-ba4c48a4699e","system_id":"levelo_inurba_marseille","lat":43.27663,"lon":5.3888,"is_reserved":false,"is_disabled":false,"rental_uris":{"android":"levelo://app?vid=b57ed8e3-61f5-404a-b343-ba4c48a4699e","ios":"levelo://app?vid=b57ed8e3-61f5-404a-b343-ba4c48a4699e"},"vehicle_type_id":"4","last_reported":1739452597,"current_range_meters":36800,"station_id":"ce4bhi12rcd13ifvqfo0","pricing_plan_id":"cebpf4jnsgd1na2vs0mg"},{"bike_id":"7b2a99f7-c3e3-4c9f-8631-fe4a2f898d10","system_id":"levelo_inurba_marseille","lat":43.31209,"lon":5.36855,"is_reserved":false,"is_disabled":false,"rental_uris":{"android":"levelo://app?vid=7b2a99f7-c3e3-4c9f-8631-fe4a2f898d10","ios":"levelo://app?vid=7b2a99f7-c3e3-4c9f-8631-fe4a2f898d10"},"vehicle_type_id":"4","last_reported":1739452597,"current_range_meters":36400,"station_id":"ce4bgl92rcd13ifvqbq0","pricing_plan_id":"cebpf4jnsgd1na2vs0mg"},{"bike_id":"9f615527-2881-4cc8-8a07-478f1235273a","system_id":"levelo_inurba_marseille","lat":43.26689,"lon":5.38272,"is_reserved":false,"is_disabled":false,"rental_uris":{"android":"levelo://app?vid=9f615527-2881-4cc8-8a07-478f1235273a","ios":"levelo://app?vid=9f615527-2881-4cc8-8a07-478f1235273a"},"vehicle_type_id":"4","last_reported":1739452597,"current_range_meters":35200,"station_id":"ce4bhg92rcd13ifvqf90","pricing_plan_id":"cebpf4jnsgd1na2vs0mg"},{"bike_id":"5429a055-5c17-4863-ac08-ee7234bc7af8","system_id":"levelo_inurba_marseille","lat":43.32363,"lon":5.36759,"is_reserved":false,"is_disabled":false,"rental_uris":{"android":"levelo://app?vid=5429a055-5c17-4863-ac08-ee7234bc7af8","ios":"levelo://app?vid=5429a055-5c17-4863-ac08-ee7234bc7af8"},"vehicle_type_id":"4","last_reported":1739452597,"current_range_meters":11200,"station_id":"ce4bhsh2rcd13ifvqi2g","pricing_plan_id":"cebpf4jnsgd1na2vs0mg"},{"bike_id":"5e5b0f85-8132-4fd1-942d-dcf94c8e0c7d","system_id":"levelo_inurba_marseille","lat":43.29672,"lon":5.3727,"is_reserved":false,"is_disabled":false,"rental_uris":{"android":"levelo://app?vid=5e5b0f85-8132-4fd1-942d-dcf94c8e0c7d","ios":"levelo://app?vid=5e5b0f85-8132-4fd1-942d-dcf94c8e0c7d"},"vehicle_type_id":"4","last_reported":1739452597,"current_range_meters":28800,"station_id":"ce4bgk12rcd13ifvqbj0","pricing_plan_id":"cebpf4jnsgd1na2vs0mg"},{"bike_id":"891b5235-d570-4a76-86be-74a0648f4828","system_id":"levelo_inurba_marseille","lat":43.29848,"lon":5.3629,"is_reserved":false,"is_disabled":false,"rental_uris":{"android":"levelo://app?vid=891b5235-d570-4a76-86be-74a0648f4828","ios":"levelo://app?vid=891b5235-d570-4a76-86be-74a0648f4828"},"vehicle_type_id":"4","last_reported":1739452597,"current_range_meters":38800,"station_id":"ce4bgpp2rcd13ifvqc3g","pricing_plan_id":"cebpf4jnsgd1na2vs0mg"},{"bike_id":"7301463a-fb46-4ce0-af43-f19866fc8973","system_id":"levelo_inurba_marseille","lat":43.29797,"lon":5.38107,"is_reserved":false,"is_disabled":false,"rental_uris":{"android":"levelo://app?vid=7301463a-fb46-4ce0-af43-f19866fc8973","ios":"levelo://app?vid=7301463a-fb46-4ce0-af43-f19866fc8973"},"vehicle_type_id":"4","last_reported":1739452597,"current_range_meters":38800,"station_id":"ce4bgip2rcd13ifvqbb0","pricing_plan_id":"cebpf4jnsgd1na2vs0mg"},{"bike_id":"b57c67a0-1792-4659-8252-46bfcb1b78cf","system_id":"levelo_inurba_marseille","lat":43.28102,"lon":5.37835,"is_reserved":false,"is_disabled":false,"rental_uris":{"android":"levelo://app?vid=b57c67a0-1792-4659-8252-46bfcb1b78cf","ios":"levelo://app?vid=b57c67a0-1792-4659-8252-46bfcb1b78cf"},"vehicle_type_id":"4","last_reported":1739452597,"current_range_meters":30800,"station_id":"ce4bha12rcd13ifvqee0","pricing_plan_id":"cebpf4jnsgd1na2vs0mg"},{"bike_id":"346cee4d-a596-4b60-8a25-1f66d2af5108","system_id":"levelo_inurba_marseille","lat":43.30469,"lon":5.37904,"is_reserved":false,"is_disabled":false,"rental_uris":{"android":"levelo://app?vid=346cee4d-a596-4b60-8a25-1f66d2af5108","ios":"levelo://app?vid=346cee4d-a596-4b60-8a25-1f66d2af5108"},"vehicle_type_id":"4","last_reported":1739452597,"current_range_meters":16800,"station_id":"ce4bgup2rcd13ifvqcn0","pricing_plan_id":"cebpf4jnsgd1na2vs0mg"},{"bike_id":"21c6442b-fde6-4984-9769-ad9453b8a84f","system_id":"levelo_inurba_marseille","lat":43.29854,"lon":5.36291,"is_reserved":false,"is_disabled":false,"rental_uris":{"android":"levelo://app?vid=21c6442b-fde6-4984-9769-ad9453b8a84f","ios":"levelo://app?vid=21c6442b-fde6-4984-9769-ad9453b8a84f"},"vehicle_type_id":"4","last_reported":1739452597,"current_range_meters":12400,"station_id":"ce4bgpp2rcd13ifvqc3g","pricing_plan_id":"cebpf4jnsgd1na2vs0mg"},{"bike_id":"4cd12386-d4fc-41c5-92fb-6f9b5ce2f039","system_id":"levelo_inurba_marseille","lat":43.32061,"lon":5.41543,"is_reserved":false,"is_disabled":false,"rental_uris":{"android":"levelo://app?vid=4cd12386-d4fc-41c5-92fb-6f9b5ce2f039","ios":"levelo://app?vid=4cd12386-d4fc-41c5-92fb-6f9b5ce2f039"},"vehicle_type_id":"4","last_reported":1739452597,"current_range_meters":18800,"station_id":"ce4bhq92rcd13ifvqhkg","pricing_plan_id":"cebpf4jnsgd1na2vs0mg"},{"bike_id":"d51360a3-0cea-4fb2-85e7-3fe8ae2e5f5a","system_id":"levelo_inurba_marseille","lat":43.2826,"lon":5.35056,"is_reserved":false,"is_disabled":false,"rental_uris":{"android":"levelo://app?vid=d51360a3-0cea-4fb2-85e7-3fe8ae2e5f5a","ios":"levelo://app?vid=d51360a3-0cea-4fb2-85e7-3fe8ae2e5f5a"},"vehicle_type_id":"4","last_reported":1739452597,"current_range_meters":38800,"station_id":"ce4bhbp2rcd13ifvqerg","pricing_plan_id":"cebpf4jnsgd1na2vs0mg"},{"bike_id":"971f9951-cad8-4d64-aee1-30948583f711","system_id":"levelo_inurba_marseille","lat":43.32479,"lon":5.36565,"is_reserved":false,"is_disabled":false,"rental_uris":{"android":"levelo://app?vid=971f9951-cad8-4d64-aee1-30948583f711","ios":"levelo://app?vid=971f9951-cad8-4d64-aee1-30948583f711"},"vehicle_type_id":"4","last_reported":1739452597,"current_range_meters":38800,"station_id":"ce4bhs12rcd13ifvqhvg","pricing_plan_id":"cebpf4jnsgd1na2vs0mg"},{"bike_id":"29014cda-051d-4514-8dfd-4cf2ae5ff97b","system_id":"levelo_inurba_marseille","lat":43.29055,"lon":5.35907,"is_reserved":false,"is_disabled":false,"rental_uris":{"android":"levelo://app?vid=29014cda-051d-4514-8dfd-4cf2ae5ff97b","ios":"levelo://app?vid=29014cda-051d-4514-8dfd-4cf2ae5ff97b"},"vehicle_type_id":"4","last_reported":1739452597,"current_range_meters":25200,"station_id":"ce4bha92rcd13ifvqeg0","pricing_plan_id":"cebpf4jnsgd1na2vs0mg"},{"bike_id":"6fb98146-dfb0-4776-8c85-356a107d39f5","system_id":"levelo_inurba_marseille","lat":43.3057,"lon":5.36538,"is_reserved":false,"is_disabled":false,"rental_uris":{"android":"levelo://app?vid=6fb98146-dfb0-4776-8c85-356a107d39f5","ios":"levelo://app?vid=6fb98146-dfb0-4776-8c85-356a107d39f5"},"vehicle_type_id":"4","last_reported":1739452597,"current_range_meters":35200,"station_id":"ce4bgs12rcd13ifvqcag","pricing_plan_id":"cebpf4jnsgd1na2vs0mg"},{"bike_id":"44a91a9b-5565-4bab-9bbe-6ccf3e54b00b","system_id":"levelo_inurba_marseille","lat":43.32661,"lon":5.40993,"is_reserved":false,"is_disabled":false,"rental_uris":{"android":"levelo://app?vid=44a91a9b-5565-4bab-9bbe-6ccf3e54b00b","ios":"levelo://app?vid=44a91a9b-5565-4bab-9bbe-6ccf3e54b00b"},"vehicle_type_id":"4","last_reported":1739452597,"current_range_meters":38800,"station_id":"ce4bhpp2rcd13ifvqhgg","pricing_plan_id":"cebpf4jnsgd1na2vs0mg"},{"bike_id":"14e02d83-9711-4b76-82e6-b76fa116b167","system_id":"levelo_inurba_marseille","lat":43.23151,"lon":5.43715,"is_reserved":false,"is_disabled":false,"rental_uris":{"android":"levelo://app?vid=14e02d83-9711-4b76-82e6-b76fa116b167","ios":"levelo://app?vid=14e02d83-9711-4b76-82e6-b76fa116b167"},"vehicle_type_id":"4","last_reported":1739452597,"current_range_meters":36800,"station_id":"ce4bhmp2rcd13ifvqgog","pricing_plan_id":"cebpf4jnsgd1na2vs0mg"},{"bike_id":"5c77e241-f61f-441a-adc1-06629ef90749","system_id":"levelo_inurba_marseille","lat":43.28287,"lon":5.35071,"is_reserved":false,"is_disabled":false,"rental_uris":{"android":"levelo://app?vid=5c77e241-f61f-441a-adc1-06629ef90749","ios":"levelo://app?vid=5c77e241-f61f-441a-adc1-06629ef90749"},"vehicle_type_id":"4","last_reported":1739452597,"current_range_meters":26800,"station_id":"ce4bhbp2rcd13ifvqerg","pricing_plan_id":"cebpf4jnsgd1na2vs0mg"},{"bike_id":"1e39336a-e52b-46bc-a52a-74322a0d3a23","system_id":"levelo_inurba_marseille","lat":43.29279,"lon":5.36855,"is_reserved":false,"is_disabled":false,"rental_uris":{"android":"levelo://app?vid=1e39336a-e52b-46bc-a52a-74322a0d3a23","ios":"levelo://app?vid=1e39336a-e52b-46bc-a52a-74322a0d3a23"},"vehicle_type_id":"4","last_reported":1739452597,"current_range_meters":30000,"station_id":"ce4bhbp2rcd13ifvqesg","pricing_plan_id":"cebpf4jnsgd1na2vs0mg"},{"bike_id":"d3eddafd-a306-4e6f-acf7-385a5818cde0","system_id":"levelo_inurba_marseille","lat":43.2835,"lon":5.38102,"is_reserved":false,"is_disabled":false,"rental_uris":{"android":"levelo://app?vid=d3eddafd-a306-4e6f-acf7-385a5818cde0","ios":"levelo://app?vid=d3eddafd-a306-4e6f-acf7-385a5818cde0"},"vehicle_type_id":"4","last_reported":1739452597,"current_range_meters":34800,"station_id":"ce4bh412rcd13ifvqdr0","pricing_plan_id":"cebpf4jnsgd1na2vs0mg"},{"bike_id":"f6239305-e0d9-4f00-bea5-38eec798017a","system_id":"levelo_inurba_marseille","lat":43.2721,"lon":5.39183,"is_reserved":false,"is_disabled":false,"rental_uris":{"android":"levelo://app?vid=f6239305-e0d9-4f00-bea5-38eec798017a","ios":"levelo://app?vid=f6239305-e0d9-4f00-bea5-38eec798017a"},"vehicle_type_id":"4","last_reported":1739452597,"current_range_meters":24800,"station_id":"ce4bhhp2rcd13ifvqfm0","pricing_plan_id":"cebpf4jnsgd1na2vs0mg"},{"bike_id":"eb74081f-8035-495f-a073-abb8444b5eb2","system_id":"levelo_inurba_marseille","lat":43.23959,"lon":5.36628,"is_reserved":false,"is_disabled":false,"rental_uris":{"android":"levelo://app?vid=eb74081f-8035-495f-a073-abb8444b5eb2","ios":"levelo://app?vid=eb74081f-8035-495f-a073-abb8444b5eb2"},"vehicle_type_id":"4","last_reported":1739452597,"current_range_meters":38800,"station_id":"ce4bhi12rcd13ifvqfp0","pricing_plan_id":"cebpf4jnsgd1na2vs0mg"},{"bike_id":"213e7ed3-b6c6-470c-8e37-ca6ffb58bff8","system_id":"levelo_inurba_marseille","lat":43.27493,"lon":5.42472,"is_reserved":false,"is_disabled":true,"rental_uris":{"android":"levelo://app?vid=213e7ed3-b6c6-470c-8e37-ca6ffb58bff8","ios":"levelo://app?vid=213e7ed3-b6c6-470c-8e37-ca6ffb58bff8"},"vehicle_type_id":"4","last_reported":1739452597,"current_range_meters":28000,"station_id":"ce4bhn92rcd13ifvqgrg","pricing_plan_id":"cebpf4jnsgd1na2vs0mg"},{"bike_id":"b7338215-affb-4429-9e49-74023cf6df10","system_id":"levelo_inurba_marseille","lat":43.284187,"lon":5.34992,"is_reserved":false,"is_disabled":false,"rental_uris":{"android":"levelo://app?vid=b7338215-affb-4429-9e49-74023cf6df10","ios":"levelo://app?vid=b7338215-affb-4429-9e49-74023cf6df10"},"vehicle_type_id":"4","last_reported":1739452597,"current_range_meters":37600,"station_id":"ce4bhbh2rcd13ifvqepg","pricing_plan_id":"cebpf4jnsgd1na2vs0mg"},{"bike_id":"d4978a7f-4766-4fce-848b-bbc6171b7298","system_id":"levelo_inurba_marseille","lat":43.30889,"lon":5.39659,"is_reserved":false,"is_disabled":false,"rental_uris":{"android":"levelo://app?vid=d4978a7f-4766-4fce-848b-bbc6171b7298","ios":"levelo://app?vid=d4978a7f-4766-4fce-848b-bbc6171b7298"},"vehicle_type_id":"4","last_reported":1739452597,"current_range_meters":19600,"station_id":"ce4bh012rcd13ifvqcv0","pricing_plan_id":"cebpf4jnsgd1na2vs0mg"},{"bike_id":"8d2d4012-ff69-4800-927a-45caff6cd054","system_id":"levelo_inurba_marseille","lat":43.23157,"lon":5.43702,"is_reserved":false,"is_disabled":false,"rental_uris":{"android":"levelo://app?vid=8d2d4012-ff69-4800-927a-45caff6cd054","ios":"levelo://app?vid=8d2d4012-ff69-4800-927a-45caff6cd054"},"vehicle_type_id":"4","last_reported":1739452597,"current_range_meters":38800,"station_id":"ce4bhmp2rcd13ifvqgog","pricing_plan_id":"cebpf4jnsgd1na2vs0mg"},{"bike_id":"1ec14052-2d33-4aa1-9ab8-58cc71db74d1","system_id":"levelo_inurba_marseille","lat":43.241706,"lon":5.364078,"is_reserved":false,"is_disabled":false,"rental_uris":{"android":"levelo://app?vid=1ec14052-2d33-4aa1-9ab8-58cc71db74d1","ios":"levelo://app?vid=1ec14052-2d33-4aa1-9ab8-58cc71db74d1"},"vehicle_type_id":"4","last_reported":1739452597,"current_range_meters":6400,"station_id":"cpo36qri1sfpv3e86is0","pricing_plan_id":"cebpf4jnsgd1na2vs0mg"},{"bike_id":"6e58a69c-2a4e-4c49-840d-6e728a603acb","system_id":"levelo_inurba_marseille","lat":43.2308,"lon":5.35501,"is_reserved":false,"is_disabled":false,"rental_uris":{"android":"levelo://app?vid=6e58a69c-2a4e-4c49-840d-6e728a603acb","ios":"levelo://app?vid=6e58a69c-2a4e-4c49-840d-6e728a603acb"},"vehicle_type_id":"4","last_reported":1739452597,"current_range_meters":6000,"station_id":"cpo3342slgdg3j2ifvpg","pricing_plan_id":"cebpf4jnsgd1na2vs0mg"},{"bike_id":"add7e1b7-46d4-4b7f-bf50-34281873e788","system_id":"levelo_inurba_marseille","lat":43.31208,"lon":5.36861,"is_reserved":false,"is_disabled":false,"rental_uris":{"android":"levelo://app?vid=add7e1b7-46d4-4b7f-bf50-34281873e788","ios":"levelo://app?vid=add7e1b7-46d4-4b7f-bf50-34281873e788"},"vehicle_type_id":"4","last_reported":1739452597,"current_range_meters":28400,"station_id":"ce4bgl92rcd13ifvqbq0","pricing_plan_id":"cebpf4jnsgd1na2vs0mg"},{"bike_id":"ab99d0ad-28be-47e5-b8bd-3fed203a4e99","system_id":"levelo_inurba_marseille","lat":43.26071,"lon":5.3939,"is_reserved":false,"is_disabled":false,"rental_uris":{"android":"levelo://app?vid=ab99d0ad-28be-47e5-b8bd-3fed203a4e99","ios":"levelo://app?vid=ab99d0ad-28be-47e5-b8bd-3fed203a4e99"},"vehicle_type_id":"4","last_reported":1739452597,"current_range_meters":38800,"station_id":"ce4bhh92rcd13ifvqfj0","pricing_plan_id":"cebpf4jnsgd1na2vs0mg"},{"bike_id":"abfb6d29-80c6-4405-a32a-9efd185045b8","system_id":"levelo_inurba_marseille","lat":43.28978,"lon":5.37832,"is_reserved":false,"is_disabled":false,"rental_uris":{"android":"levelo://app?vid=abfb6d29-80c6-4405-a32a-9efd185045b8","ios":"levelo://app?vid=abfb6d29-80c6-4405-a32a-9efd185045b8"},"vehicle_type_id":"4","last_reported":1739452597,"current_range_meters":11200,"station_id":"ce4bh9p2rcd13ifvqed0","pricing_plan_id":"cebpf4jnsgd1na2vs0mg"},{"bike_id":"893707c5-6ee4-4ab2-b9a3-ff242b200663","system_id":"levelo_inurba_marseille","lat":43.31224,"lon":5.36854,"is_reserved":false,"is_disabled":false,"rental_uris":{"android":"levelo://app?vid=893707c5-6ee4-4ab2-b9a3-ff242b200663","ios":"levelo://app?vid=893707c5-6ee4-4ab2-b9a3-ff242b200663"},"vehicle_type_id":"4","last_reported":1739452597,"current_range_meters":30000,"station_id":"ce4bgl92rcd13ifvqbq0","pricing_plan_id":"cebpf4jnsgd1na2vs0mg"},{"bike_id":"4450d397-c7c4-4c68-aed9-fa811598c082","system_id":"levelo_inurba_marseille","lat":43.32573,"lon":5.36525,"is_reserved":false,"is_disabled":false,"rental_uris":{"android":"levelo://app?vid=4450d397-c7c4-4c68-aed9-fa811598c082","ios":"levelo://app?vid=4450d397-c7c4-4c68-aed9-fa811598c082"},"vehicle_type_id":"4","last_reported":1739452597,"current_range_meters":36800,"station_id":"","pricing_plan_id":"cebpf4jnsgd1na2vs0mg"},{"bike_id":"1baab903-2026-4726-99eb-a9de546ae1ea","system_id":"levelo_inurba_marseille","lat":43.30554,"lon":5.36696,"is_reserved":false,"is_disabled":false,"rental_uris":{"android":"levelo://app?vid=1baab903-2026-4726-99eb-a9de546ae1ea","ios":"levelo://app?vid=1baab903-2026-4726-99eb-a9de546ae1ea"},"vehicle_type_id":"4","last_reported":1739452597,"current_range_meters":38800,"station_id":"ce4bgrp2rcd13ifvqc9g","pricing_plan_id":"cebpf4jnsgd1na2vs0mg"},{"bike_id":"560a096a-69d8-4507-9fa0-36964492c190","system_id":"levelo_inurba_marseille","lat":43.29048,"lon":5.35903,"is_reserved":false,"is_disabled":false,"rental_uris":{"android":"levelo://app?vid=560a096a-69d8-4507-9fa0-36964492c190","ios":"levelo://app?vid=560a096a-69d8-4507-9fa0-36964492c190"},"vehicle_type_id":"4","last_reported":1739452597,"current_range_meters":38400,"station_id":"ce4bha92rcd13ifvqeg0","pricing_plan_id":"cebpf4jnsgd1na2vs0mg"},{"bike_id":"04e79b02-26b7-408e-8d07-a04361b8a27a","system_id":"levelo_inurba_marseille","lat":43.23181,"lon":5.39999,"is_reserved":false,"is_disabled":false,"rental_uris":{"android":"levelo://app?vid=04e79b02-26b7-408e-8d07-a04361b8a27a","ios":"levelo://app?vid=04e79b02-26b7-408e-8d07-a04361b8a27a"},"vehicle_type_id":"4","last_reported":1739452597,"current_range_meters":38800,"station_id":"ce4bhn12rcd13ifvqgqg","pricing_plan_id":"cebpf4jnsgd1na2vs0mg"},{"bike_id":"65fd0f84-f3bc-4487-8899-f39a59278670","system_id":"levelo_inurba_marseille","lat":43.27313,"lon":5.39081,"is_reserved":false,"is_disabled":false,"rental_uris":{"android":"levelo://app?vid=65fd0f84-f3bc-4487-8899-f39a59278670","ios":"levelo://app?vid=65fd0f84-f3bc-4487-8899-f39a59278670"},"vehicle_type_id":"4","last_reported":1739452597,"current_range_meters":12800,"station_id":"ce4bhgp2rcd13ifvqfe0","pricing_plan_id":"cebpf4jnsgd1na2vs0mg"},{"bike_id":"a46d134e-bde2-45d3-8b7d-1c59ab6497b4","system_id":"levelo_inurba_marseille","lat":43.29245,"lon":5.36854,"is_reserved":false,"is_disabled":false,"rental_uris":{"android":"levelo://app?vid=a46d134e-bde2-45d3-8b7d-1c59ab6497b4","ios":"levelo://app?vid=a46d134e-bde2-45d3-8b7d-1c59ab6497b4"},"vehicle_type_id":"4","last_reported":1739452597,"current_range_meters":38800,"station_id":"ce4bhbp2rcd13ifvqesg","pricing_plan_id":"cebpf4jnsgd1na2vs0mg"},{"bike_id":"f069e427-6164-49b3-a6ab-e71eaa4644e5","system_id":"levelo_inurba_marseille","lat":43.28603,"lon":5.35114,"is_reserved":false,"is_disabled":false,"rental_uris":{"android":"levelo://app?vid=f069e427-6164-49b3-a6ab-e71eaa4644e5","ios":"levelo://app?vid=f069e427-6164-49b3-a6ab-e71eaa4644e5"},"vehicle_type_id":"4","last_reported":1739452597,"current_range_meters":38800,"station_id":"ce4bhch2rcd13ifvqeug","pricing_plan_id":"cebpf4jnsgd1na2vs0mg"},{"bike_id":"361a6e8d-047a-4b8b-81b6-6ac778745881","system_id":"levelo_inurba_marseille","lat":43.30563,"lon":5.3653,"is_reserved":false,"is_disabled":false,"rental_uris":{"android":"levelo://app?vid=361a6e8d-047a-4b8b-81b6-6ac778745881","ios":"levelo://app?vid=361a6e8d-047a-4b8b-81b6-6ac778745881"},"vehicle_type_id":"4","last_reported":1739452597,"current_range_meters":27600,"station_id":"ce4bgs12rcd13ifvqcag","pricing_plan_id":"cebpf4jnsgd1na2vs0mg"},{"bike_id":"7d4c2fd4-95c7-4bbd-b767-d47d40112c4f","system_id":"levelo_inurba_marseille","lat":43.27225,"lon":5.39184,"is_reserved":false,"is_disabled":false,"rental_uris":{"android":"levelo://app?vid=7d4c2fd4-95c7-4bbd-b767-d47d40112c4f","ios":"levelo://app?vid=7d4c2fd4-95c7-4bbd-b767-d47d40112c4f"},"vehicle_type_id":"4","last_reported":1739452597,"current_range_meters":38800,"station_id":"ce4bhhp2rcd13ifvqfm0","pricing_plan_id":"cebpf4jnsgd1na2vs0mg"},{"bike_id":"17a4c50f-06c6-4024-a290-c6a7e18d1f87","system_id":"levelo_inurba_marseille","lat":43.30932,"lon":5.36882,"is_reserved":false,"is_disabled":false,"rental_uris":{"android":"levelo://app?vid=17a4c50f-06c6-4024-a290-c6a7e18d1f87","ios":"levelo://app?vid=17a4c50f-06c6-4024-a290-c6a7e18d1f87"},"vehicle_type_id":"4","last_reported":1739452597,"current_range_meters":33600,"station_id":"ce4bgn92rcd13ifvqbvg","pricing_plan_id":"cebpf4jnsgd1na2vs0mg"},{"bike_id":"939d1de8-80c0-4e05-921b-0578ee493aad","system_id":"levelo_inurba_marseille","lat":43.31225,"lon":5.36888,"is_reserved":false,"is_disabled":false,"rental_uris":{"android":"levelo://app?vid=939d1de8-80c0-4e05-921b-0578ee493aad","ios":"levelo://app?vid=939d1de8-80c0-4e05-921b-0578ee493aad"},"vehicle_type_id":"4","last_reported":1739452597,"current_range_meters":36400,"station_id":"ce4bgl92rcd13ifvqbq0","pricing_plan_id":"cebpf4jnsgd1na2vs0mg"},{"bike_id":"51c4e3a8-2172-4b7d-8e51-4493ba7214bb","system_id":"levelo_inurba_marseille","lat":43.30926,"lon":5.3686,"is_reserved":false,"is_disabled":false,"rental_uris":{"android":"levelo://app?vid=51c4e3a8-2172-4b7d-8e51-4493ba7214bb","ios":"levelo://app?vid=51c4e3a8-2172-4b7d-8e51-4493ba7214bb"},"vehicle_type_id":"4","last_reported":1739452597,"current_range_meters":38800,"station_id":"ce4bgn92rcd13ifvqbvg","pricing_plan_id":"cebpf4jnsgd1na2vs0mg"},{"bike_id":"7705324e-dd3d-4a92-a560-9ff863a19382","system_id":"levelo_inurba_marseille","lat":43.3015,"lon":5.37432,"is_reserved":false,"is_disabled":false,"rental_uris":{"android":"levelo://app?vid=7705324e-dd3d-4a92-a560-9ff863a19382","ios":"levelo://app?vid=7705324e-dd3d-4a92-a560-9ff863a19382"},"vehicle_type_id":"4","last_reported":1739452597,"current_range_meters":38800,"station_id":"ce4bgs92rcd13ifvqcc0","pricing_plan_id":"cebpf4jnsgd1na2vs0mg"},{"bike_id":"b8755ca6-650b-485e-b407-0a4fada7fbf9","system_id":"levelo_inurba_marseille","lat":43.28075,"lon":5.39657,"is_reserved":false,"is_disabled":false,"rental_uris":{"android":"levelo://app?vid=b8755ca6-650b-485e-b407-0a4fada7fbf9","ios":"levelo://app?vid=b8755ca6-650b-485e-b407-0a4fada7fbf9"},"vehicle_type_id":"4","last_reported":1739452597,"current_range_meters":30800,"station_id":"ce4bho12rcd13ifvqh2g","pricing_plan_id":"cebpf4jnsgd1na2vs0mg"},{"bike_id":"52591901-7075-4154-8ec9-0dfca05a1446","system_id":"levelo_inurba_marseille","lat":43.32517,"lon":5.36538,"is_reserved":false,"is_disabled":false,"rental_uris":{"android":"levelo://app?vid=52591901-7075-4154-8ec9-0dfca05a1446","ios":"levelo://app?vid=52591901-7075-4154-8ec9-0dfca05a1446"},"vehicle_type_id":"4","last_reported":1739452597,"current_range_meters":38800,"station_id":"ce4bhs12rcd13ifvqhvg","pricing_plan_id":"cebpf4jnsgd1na2vs0mg"},{"bike_id":"c30f1f25-d36c-46b1-8642-9c047b4735bb","system_id":"levelo_inurba_marseille","lat":43.24407,"lon":5.37077,"is_reserved":false,"is_disabled":false,"rental_uris":{"android":"levelo://app?vid=c30f1f25-d36c-46b1-8642-9c047b4735bb","ios":"levelo://app?vid=c30f1f25-d36c-46b1-8642-9c047b4735bb"},"vehicle_type_id":"4","last_reported":1739452597,"current_range_meters":22400,"station_id":"ce4bhhh2rcd13ifvqfk0","pricing_plan_id":"cebpf4jnsgd1na2vs0mg"},{"bike_id":"e823fe48-f4a6-4633-ab11-5ed86deb2fc6","system_id":"levelo_inurba_marseille","lat":43.31231,"lon":5.36866,"is_reserved":false,"is_disabled":false,"rental_uris":{"android":"levelo://app?vid=e823fe48-f4a6-4633-ab11-5ed86deb2fc6","ios":"levelo://app?vid=e823fe48-f4a6-4633-ab11-5ed86deb2fc6"},"vehicle_type_id":"4","last_reported":1739452597,"current_range_meters":6400,"station_id":"ce4bgl92rcd13ifvqbq0","pricing_plan_id":"cebpf4jnsgd1na2vs0mg"},{"bike_id":"869ced39-5718-444b-af82-80885a58ab9a","system_id":"levelo_inurba_marseille","lat":43.28443,"lon":5.39205,"is_reserved":false,"is_disabled":false,"rental_uris":{"android":"levelo://app?vid=869ced39-5718-444b-af82-80885a58ab9a","ios":"levelo://app?vid=869ced39-5718-444b-af82-80885a58ab9a"},"vehicle_type_id":"4","last_reported":1739452597,"current_range_meters":24000,"station_id":"ce4bhoh2rcd13ifvqh5g","pricing_plan_id":"cebpf4jnsgd1na2vs0mg"},{"bike_id":"43b6f948-f371-4215-9253-44a0b7606323","system_id":"levelo_inurba_marseille","lat":43.25116,"lon":5.40391,"is_reserved":false,"is_disabled":false,"rental_uris":{"android":"levelo://app?vid=43b6f948-f371-4215-9253-44a0b7606323","ios":"levelo://app?vid=43b6f948-f371-4215-9253-44a0b7606323"},"vehicle_type_id":"4","last_reported":1739452597,"current_range_meters":38800,"station_id":"ce4bhlh2rcd13ifvqgig","pricing_plan_id":"cebpf4jnsgd1na2vs0mg"},{"bike_id":"72f360d9-d19c-4d29-920b-54b9c1bdf4a5","system_id":"levelo_inurba_marseille","lat":43.30562,"lon":5.36712,"is_reserved":false,"is_disabled":false,"rental_uris":{"android":"levelo://app?vid=72f360d9-d19c-4d29-920b-54b9c1bdf4a5","ios":"levelo://app?vid=72f360d9-d19c-4d29-920b-54b9c1bdf4a5"},"vehicle_type_id":"4","last_reported":1739452597,"current_range_meters":30000,"station_id":"ce4bgrp2rcd13ifvqc9g","pricing_plan_id":"cebpf4jnsgd1na2vs0mg"},{"bike_id":"5cafedfd-675c-41aa-aecf-f2ed1668bc7a","system_id":"levelo_inurba_marseille","lat":43.31225,"lon":5.36868,"is_reserved":false,"is_disabled":false,"rental_uris":{"android":"levelo://app?vid=5cafedfd-675c-41aa-aecf-f2ed1668bc7a","ios":"levelo://app?vid=5cafedfd-675c-41aa-aecf-f2ed1668bc7a"},"vehicle_type_id":"4","last_reported":1739452597,"current_range_meters":35600,"station_id":"ce4bgl92rcd13ifvqbq0","pricing_plan_id":"cebpf4jnsgd1na2vs0mg"},{"bike_id":"ca60b2af-cce7-4290-adcc-eaec354c2c93","system_id":"levelo_inurba_marseille","lat":43.2502,"lon":5.38902,"is_reserved":false,"is_disabled":false,"rental_uris":{"android":"levelo://app?vid=ca60b2af-cce7-4290-adcc-eaec354c2c93","ios":"levelo://app?vid=ca60b2af-cce7-4290-adcc-eaec354c2c93"},"vehicle_type_id":"4","last_reported":1739452597,"current_range_meters":22800,"station_id":"ce4bhgp2rcd13ifvqfd0","pricing_plan_id":"cebpf4jnsgd1na2vs0mg"},{"bike_id":"0f1a0f19-b001-42c4-a882-ca88ade09ea0","system_id":"levelo_inurba_marseille","lat":43.31484,"lon":5.37312,"is_reserved":false,"is_disabled":false,"rental_uris":{"android":"levelo://app?vid=0f1a0f19-b001-42c4-a882-ca88ade09ea0","ios":"levelo://app?vid=0f1a0f19-b001-42c4-a882-ca88ade09ea0"},"vehicle_type_id":"4","last_reported":1739452597,"current_range_meters":27200,"station_id":"ce4bgt12rcd13ifvqcd0","pricing_plan_id":"cebpf4jnsgd1na2vs0mg"},{"bike_id":"54ce597b-1ca1-4d62-923d-d4b29eec04b3","system_id":"levelo_inurba_marseille","lat":43.31131,"lon":5.38261,"is_reserved":false,"is_disabled":false,"rental_uris":{"android":"levelo://app?vid=54ce597b-1ca1-4d62-923d-d4b29eec04b3","ios":"levelo://app?vid=54ce597b-1ca1-4d62-923d-d4b29eec04b3"},"vehicle_type_id":"4","last_reported":1739452597,"current_range_meters":10000,"station_id":"","pricing_plan_id":"cebpf4jnsgd1na2vs0mg"},{"bike_id":"81dbc0e8-aca2-4ef1-841c-e3101ee64858","system_id":"levelo_inurba_marseille","lat":43.27947,"lon":5.41042,"is_reserved":false,"is_disabled":false,"rental_uris":{"android":"levelo://app?vid=81dbc0e8-aca2-4ef1-841c-e3101ee64858","ios":"levelo://app?vid=81dbc0e8-aca2-4ef1-841c-e3101ee64858"},"vehicle_type_id":"4","last_reported":1739452597,"current_range_meters":10000,"station_id":"ce4bhnp2rcd13ifvqh0g","pricing_plan_id":"cebpf4jnsgd1na2vs0mg"},{"bike_id":"54023995-623b-441a-9d82-ed337c5ace1f","system_id":"levelo_inurba_marseille","lat":43.25926,"lon":5.40873,"is_reserved":false,"is_disabled":false,"rental_uris":{"android":"levelo://app?vid=54023995-623b-441a-9d82-ed337c5ace1f","ios":"levelo://app?vid=54023995-623b-441a-9d82-ed337c5ace1f"},"vehicle_type_id":"4","last_reported":1739452597,"current_range_meters":28000,"station_id":"ce4bhm92rcd13ifvqglg","pricing_plan_id":"cebpf4jnsgd1na2vs0mg"},{"bike_id":"82cc7838-4b5a-40fa-9f35-ce1cd1ae67e1","system_id":"levelo_inurba_marseille","lat":43.30093,"lon":5.37247,"is_reserved":false,"is_disabled":false,"rental_uris":{"android":"levelo://app?vid=82cc7838-4b5a-40fa-9f35-ce1cd1ae67e1","ios":"levelo://app?vid=82cc7838-4b5a-40fa-9f35-ce1cd1ae67e1"},"vehicle_type_id":"4","last_reported":1739452597,"current_range_meters":36400,"station_id":"","pricing_plan_id":"cebpf4jnsgd1na2vs0mg"},{"bike_id":"2e79e634-3467-41e1-bf8d-cd8cffbf109c","system_id":"levelo_inurba_marseille","lat":43.309,"lon":5.3686,"is_reserved":false,"is_disabled":false,"rental_uris":{"android":"levelo://app?vid=2e79e634-3467-41e1-bf8d-cd8cffbf109c","ios":"levelo://app?vid=2e79e634-3467-41e1-bf8d-cd8cffbf109c"},"vehicle_type_id":"4","last_reported":1739452597,"current_range_meters":17600,"station_id":"ce4bgn92rcd13ifvqbvg","pricing_plan_id":"cebpf4jnsgd1na2vs0mg"},{"bike_id":"6d15d47e-cacd-4c82-bd95-638b95191183","system_id":"levelo_inurba_marseille","lat":43.27623,"lon":5.36111,"is_reserved":false,"is_disabled":false,"rental_uris":{"android":"levelo://app?vid=6d15d47e-cacd-4c82-bd95-638b95191183","ios":"levelo://app?vid=6d15d47e-cacd-4c82-bd95-638b95191183"},"vehicle_type_id":"4","last_reported":1739452597,"current_range_meters":36400,"station_id":"ce4bgj92rcd13ifvqbe0","pricing_plan_id":"cebpf4jnsgd1na2vs0mg"},{"bike_id":"8cf55390-04c0-4c26-88a4-063765604ca6","system_id":"levelo_inurba_marseille","lat":43.29799,"lon":5.38092,"is_reserved":false,"is_disabled":false,"rental_uris":{"android":"levelo://app?vid=8cf55390-04c0-4c26-88a4-063765604ca6","ios":"levelo://app?vid=8cf55390-04c0-4c26-88a4-063765604ca6"},"vehicle_type_id":"4","last_reported":1739452597,"current_range_meters":30400,"station_id":"ce4bgip2rcd13ifvqbb0","pricing_plan_id":"cebpf4jnsgd1na2vs0mg"},{"bike_id":"58a923a1-50e5-4bcc-a5c7-59fd5ea18680","system_id":"levelo_inurba_marseille","lat":43.23151,"lon":5.43688,"is_reserved":false,"is_disabled":true,"rental_uris":{"android":"levelo://app?vid=58a923a1-50e5-4bcc-a5c7-59fd5ea18680","ios":"levelo://app?vid=58a923a1-50e5-4bcc-a5c7-59fd5ea18680"},"vehicle_type_id":"4","last_reported":1739452597,"current_range_meters":15200,"station_id":"ce4bhmp2rcd13ifvqgog","pricing_plan_id":"cebpf4jnsgd1na2vs0mg"},{"bike_id":"ae8861f8-c08f-4f77-8407-d5e8e57c5415","system_id":"levelo_inurba_marseille","lat":43.28931,"lon":5.38413,"is_reserved":false,"is_disabled":false,"rental_uris":{"android":"levelo://app?vid=ae8861f8-c08f-4f77-8407-d5e8e57c5415","ios":"levelo://app?vid=ae8861f8-c08f-4f77-8407-d5e8e57c5415"},"vehicle_type_id":"4","last_reported":1739452597,"current_range_meters":36000,"station_id":"ce4bh612rcd13ifvqe6g","pricing_plan_id":"cebpf4jnsgd1na2vs0mg"},{"bike_id":"3bfafe81-22be-4ef8-830c-9d59c43eb6b0","system_id":"levelo_inurba_marseille","lat":43.28414,"lon":5.34975,"is_reserved":false,"is_disabled":false,"rental_uris":{"android":"levelo://app?vid=3bfafe81-22be-4ef8-830c-9d59c43eb6b0","ios":"levelo://app?vid=3bfafe81-22be-4ef8-830c-9d59c43eb6b0"},"vehicle_type_id":"4","last_reported":1739452597,"current_range_meters":18000,"station_id":"ce4bhbh2rcd13ifvqepg","pricing_plan_id":"cebpf4jnsgd1na2vs0mg"},{"bike_id":"d594772c-f06c-42db-b4eb-8c17a4b3b2bd","system_id":"levelo_inurba_marseille","lat":43.31216,"lon":5.36843,"is_reserved":false,"is_disabled":false,"rental_uris":{"android":"levelo://app?vid=d594772c-f06c-42db-b4eb-8c17a4b3b2bd","ios":"levelo://app?vid=d594772c-f06c-42db-b4eb-8c17a4b3b2bd"},"vehicle_type_id":"4","last_reported":1739452597,"current_range_meters":31200,"station_id":"ce4bgl92rcd13ifvqbq0","pricing_plan_id":"cebpf4jnsgd1na2vs0mg"},{"bike_id":"5f48bdae-049e-4408-bc07-dbe4fc0e6823","system_id":"levelo_inurba_marseille","lat":43.31198,"lon":5.36812,"is_reserved":false,"is_disabled":false,"rental_uris":{"android":"levelo://app?vid=5f48bdae-049e-4408-bc07-dbe4fc0e6823","ios":"levelo://app?vid=5f48bdae-049e-4408-bc07-dbe4fc0e6823"},"vehicle_type_id":"4","last_reported":1739452597,"current_range_meters":26000,"station_id":"ce4bgl92rcd13ifvqbq0","pricing_plan_id":"cebpf4jnsgd1na2vs0mg"},{"bike_id":"5a88579c-17b2-490d-84e1-90b48c9fd073","system_id":"levelo_inurba_marseille","lat":43.30543,"lon":5.36549,"is_reserved":false,"is_disabled":false,"rental_uris":{"android":"levelo://app?vid=5a88579c-17b2-490d-84e1-90b48c9fd073","ios":"levelo://app?vid=5a88579c-17b2-490d-84e1-90b48c9fd073"},"vehicle_type_id":"4","last_reported":1739452597,"current_range_meters":38800,"station_id":"ce4bgs12rcd13ifvqcag","pricing_plan_id":"cebpf4jnsgd1na2vs0mg"},{"bike_id":"58ca8d36-3abf-4f9b-bf3f-e62ed0e7a978","system_id":"levelo_inurba_marseille","lat":43.23966,"lon":5.366288,"is_reserved":false,"is_disabled":false,"rental_uris":{"android":"levelo://app?vid=58ca8d36-3abf-4f9b-bf3f-e62ed0e7a978","ios":"levelo://app?vid=58ca8d36-3abf-4f9b-bf3f-e62ed0e7a978"},"vehicle_type_id":"4","last_reported":1739452597,"current_range_meters":28800,"station_id":"ce4bhi12rcd13ifvqfp0","pricing_plan_id":"cebpf4jnsgd1na2vs0mg"},{"bike_id":"ba41c089-3c4d-43d4-a16f-a7a9a29b9bdd","system_id":"levelo_inurba_marseille","lat":43.23962,"lon":5.36639,"is_reserved":false,"is_disabled":false,"rental_uris":{"android":"levelo://app?vid=ba41c089-3c4d-43d4-a16f-a7a9a29b9bdd","ios":"levelo://app?vid=ba41c089-3c4d-43d4-a16f-a7a9a29b9bdd"},"vehicle_type_id":"4","last_reported":1739452597,"current_range_meters":38800,"station_id":"ce4bhi12rcd13ifvqfp0","pricing_plan_id":"cebpf4jnsgd1na2vs0mg"},{"bike_id":"fa5c273e-6edd-40c6-994d-710c4077d1be","system_id":"levelo_inurba_marseille","lat":43.30567,"lon":5.36702,"is_reserved":false,"is_disabled":false,"rental_uris":{"android":"levelo://app?vid=fa5c273e-6edd-40c6-994d-710c4077d1be","ios":"levelo://app?vid=fa5c273e-6edd-40c6-994d-710c4077d1be"},"vehicle_type_id":"4","last_reported":1739452597,"current_range_meters":12000,"station_id":"ce4bgrp2rcd13ifvqc9g","pricing_plan_id":"cebpf4jnsgd1na2vs0mg"},{"bike_id":"e1641770-5dbc-4fec-b3c2-48dccbee7a66","system_id":"levelo_inurba_marseille","lat":43.23958,"lon":5.3664,"is_reserved":false,"is_disabled":false,"rental_uris":{"android":"levelo://app?vid=e1641770-5dbc-4fec-b3c2-48dccbee7a66","ios":"levelo://app?vid=e1641770-5dbc-4fec-b3c2-48dccbee7a66"},"vehicle_type_id":"4","last_reported":1739452597,"current_range_meters":38800,"station_id":"ce4bhi12rcd13ifvqfp0","pricing_plan_id":"cebpf4jnsgd1na2vs0mg"},{"bike_id":"2b3dc76b-34f2-42cc-93ba-67d333dbf04a","system_id":"levelo_inurba_marseille","lat":43.28622,"lon":5.35102,"is_reserved":false,"is_disabled":true,"rental_uris":{"android":"levelo://app?vid=2b3dc76b-34f2-42cc-93ba-67d333dbf04a","ios":"levelo://app?vid=2b3dc76b-34f2-42cc-93ba-67d333dbf04a"},"vehicle_type_id":"4","last_reported":1739452597,"current_range_meters":0,"station_id":"ce4bhch2rcd13ifvqeug","pricing_plan_id":"cebpf4jnsgd1na2vs0mg"},{"bike_id":"d157203c-3a5b-4bbc-9638-6eefce740d5e","system_id":"levelo_inurba_marseille","lat":43.23194,"lon":5.35554,"is_reserved":false,"is_disabled":false,"rental_uris":{"android":"levelo://app?vid=d157203c-3a5b-4bbc-9638-6eefce740d5e","ios":"levelo://app?vid=d157203c-3a5b-4bbc-9638-6eefce740d5e"},"vehicle_type_id":"4","last_reported":1739452597,"current_range_meters":31200,"station_id":"ce4bhu92rcd13ifvqi70","pricing_plan_id":"cebpf4jnsgd1na2vs0mg"},{"bike_id":"9acb5333-5cf1-494e-915f-5f562bae0853","system_id":"levelo_inurba_marseille","lat":43.33738,"lon":5.39173,"is_reserved":false,"is_disabled":false,"rental_uris":{"android":"levelo://app?vid=9acb5333-5cf1-494e-915f-5f562bae0853","ios":"levelo://app?vid=9acb5333-5cf1-494e-915f-5f562bae0853"},"vehicle_type_id":"4","last_reported":1739452597,"current_range_meters":34800,"station_id":"ce4bhr92rcd13ifvqhsg","pricing_plan_id":"cebpf4jnsgd1na2vs0mg"},{"bike_id":"937d3cc1-6add-4982-aebd-f6966441a674","system_id":"levelo_inurba_marseille","lat":43.23183,"lon":5.35532,"is_reserved":false,"is_disabled":true,"rental_uris":{"android":"levelo://app?vid=937d3cc1-6add-4982-aebd-f6966441a674","ios":"levelo://app?vid=937d3cc1-6add-4982-aebd-f6966441a674"},"vehicle_type_id":"4","last_reported":1739452597,"current_range_meters":0,"station_id":"ce4bhu92rcd13ifvqi70","pricing_plan_id":"cebpf4jnsgd1na2vs0mg"},{"bike_id":"2b9049b7-28b9-480f-9e51-4b5e717d3b34","system_id":"levelo_inurba_marseille","lat":43.25927,"lon":5.4089,"is_reserved":false,"is_disabled":false,"rental_uris":{"android":"levelo://app?vid=2b9049b7-28b9-480f-9e51-4b5e717d3b34","ios":"levelo://app?vid=2b9049b7-28b9-480f-9e51-4b5e717d3b34"},"vehicle_type_id":"4","last_reported":1739452597,"current_range_meters":38800,"station_id":"ce4bhm92rcd13ifvqglg","pricing_plan_id":"cebpf4jnsgd1na2vs0mg"},{"bike_id":"92b858e5-2279-4d20-84e0-441998ef220d","system_id":"levelo_inurba_marseille","lat":43.2941,"lon":5.38622,"is_reserved":false,"is_disabled":false,"rental_uris":{"android":"levelo://app?vid=92b858e5-2279-4d20-84e0-441998ef220d","ios":"levelo://app?vid=92b858e5-2279-4d20-84e0-441998ef220d"},"vehicle_type_id":"4","last_reported":1739452597,"current_range_meters":3600,"station_id":"ce4bh2h2rcd13ifvqdh0","pricing_plan_id":"cebpf4jnsgd1na2vs0mg"},{"bike_id":"2c18c95b-638f-4a7c-985d-fe31cce71267","system_id":"levelo_inurba_marseille","lat":43.23151,"lon":5.43702,"is_reserved":false,"is_disabled":false,"rental_uris":{"android":"levelo://app?vid=2c18c95b-638f-4a7c-985d-fe31cce71267","ios":"levelo://app?vid=2c18c95b-638f-4a7c-985d-fe31cce71267"},"vehicle_type_id":"4","last_reported":1739452597,"current_range_meters":27600,"station_id":"ce4bhmp2rcd13ifvqgog","pricing_plan_id":"cebpf4jnsgd1na2vs0mg"},{"bike_id":"22357605-22f9-4c7f-a011-3059b1fea57b","system_id":"levelo_inurba_marseille","lat":43.24656,"lon":5.38896,"is_reserved":false,"is_disabled":false,"rental_uris":{"android":"levelo://app?vid=22357605-22f9-4c7f-a011-3059b1fea57b","ios":"levelo://app?vid=22357605-22f9-4c7f-a011-3059b1fea57b"},"vehicle_type_id":"4","last_reported":1739452597,"current_range_meters":38800,"station_id":"ce4bhg12rcd13ifvqf60","pricing_plan_id":"cebpf4jnsgd1na2vs0mg"},{"bike_id":"25622700-94cb-40a3-84b5-b0015e736e5e","system_id":"levelo_inurba_marseille","lat":43.27367,"lon":5.36248,"is_reserved":false,"is_disabled":false,"rental_uris":{"android":"levelo://app?vid=25622700-94cb-40a3-84b5-b0015e736e5e","ios":"levelo://app?vid=25622700-94cb-40a3-84b5-b0015e736e5e"},"vehicle_type_id":"4","last_reported":1739452597,"current_range_meters":9200,"station_id":"ce4bhbh2rcd13ifvqeo0","pricing_plan_id":"cebpf4jnsgd1na2vs0mg"},{"bike_id":"e3c9740c-f6e4-4c70-9847-4889a83238fd","system_id":"levelo_inurba_marseille","lat":43.28149,"lon":5.44222,"is_reserved":false,"is_disabled":true,"rental_uris":{"android":"levelo://app?vid=e3c9740c-f6e4-4c70-9847-4889a83238fd","ios":"levelo://app?vid=e3c9740c-f6e4-4c70-9847-4889a83238fd"},"vehicle_type_id":"4","last_reported":1739452597,"current_range_meters":8000,"station_id":"","pricing_plan_id":"cebpf4jnsgd1na2vs0mg"},{"bike_id":"cf18ab70-bb45-4564-bdde-cabfe4b7ffff","system_id":"levelo_inurba_marseille","lat":43.29537,"lon":5.37552,"is_reserved":false,"is_disabled":false,"rental_uris":{"android":"levelo://app?vid=cf18ab70-bb45-4564-bdde-cabfe4b7ffff","ios":"levelo://app?vid=cf18ab70-bb45-4564-bdde-cabfe4b7ffff"},"vehicle_type_id":"4","last_reported":1739452597,"current_range_meters":26800,"station_id":"ce4bgkp2rcd13ifvqbmg","pricing_plan_id":"cebpf4jnsgd1na2vs0mg"},{"bike_id":"31f84ddc-bf3b-4d1c-9d83-4ffb586bc67a","system_id":"levelo_inurba_marseille","lat":43.32097,"lon":5.36728,"is_reserved":false,"is_disabled":false,"rental_uris":{"android":"levelo://app?vid=31f84ddc-bf3b-4d1c-9d83-4ffb586bc67a","ios":"levelo://app?vid=31f84ddc-bf3b-4d1c-9d83-4ffb586bc67a"},"vehicle_type_id":"4","last_reported":1739452597,"current_range_meters":36800,"station_id":"ce4bhrh2rcd13ifvqhug","pricing_plan_id":"cebpf4jnsgd1na2vs0mg"},{"bike_id":"95bea59d-9508-4e5c-9462-a6eb2b05c299","system_id":"levelo_inurba_marseille","lat":43.32808,"lon":5.4334,"is_reserved":false,"is_disabled":false,"rental_uris":{"android":"levelo://app?vid=95bea59d-9508-4e5c-9462-a6eb2b05c299","ios":"levelo://app?vid=95bea59d-9508-4e5c-9462-a6eb2b05c299"},"vehicle_type_id":"4","last_reported":1739452597,"current_range_meters":36400,"station_id":"","pricing_plan_id":"cebpf4jnsgd1na2vs0mg"},{"bike_id":"f5ced63f-0547-4272-a855-79ab47c63755","system_id":"levelo_inurba_marseille","lat":43.29099,"lon":5.38123,"is_reserved":false,"is_disabled":false,"rental_uris":{"android":"levelo://app?vid=f5ced63f-0547-4272-a855-79ab47c63755","ios":"levelo://app?vid=f5ced63f-0547-4272-a855-79ab47c63755"},"vehicle_type_id":"4","last_reported":1739452597,"current_range_meters":15200,"station_id":"ce4bh512rcd13ifvqe2g","pricing_plan_id":"cebpf4jnsgd1na2vs0mg"},{"bike_id":"6705e624-e3dd-4c74-bf2f-97a66048fa51","system_id":"levelo_inurba_marseille","lat":43.2901,"lon":5.35604,"is_reserved":false,"is_disabled":false,"rental_uris":{"android":"levelo://app?vid=6705e624-e3dd-4c74-bf2f-97a66048fa51","ios":"levelo://app?vid=6705e624-e3dd-4c74-bf2f-97a66048fa51"},"vehicle_type_id":"4","last_reported":1739452597,"current_range_meters":22800,"station_id":"ce4bhb92rcd13ifvqen0","pricing_plan_id":"cebpf4jnsgd1na2vs0mg"},