{"last_updated":1738343255,"ttl":60,"version":"2.2","data":{"bikes":[{"bike_id":"7a9ceb15-fa07-414e-bed0-5405ea0368c0","system_id":"levelo_inurba_marseille","lat":43.29962,"lon":5.38497,"is_reserved":false,"is_disabled":false,"rental_uris":{"android":"levelo://app?vid=7a9ceb15-fa07-414e-bed0-5405ea0368c0","ios":"levelo://app?vid=7a9ceb15-fa07-414e-bed0-5405ea0368c0"},"vehicle_type_id":"4","last_reported":1738343255,"current_range_meters":36000,"station_id":"ce4bgj92rcd13ifvqbd0","pricing_plan_id":"cebpf4jnsgd1na2vs0mg"},{"bike_id":"99c8e731-f913-430f-a2bc-32d57a5fab53","system_id":"levelo_inurba_marseille","lat":43.28472,"lon":5.38437,"is_reserved":false,"is_disabled":true,"rental_uris":{"android":"levelo://app?vid=99c8e731-f913-430f-a2bc-32d57a5fab53","ios":"levelo://app?vid=99c8e731-f913-430f-a2bc-32d57a5fab53"},"vehicle_type_id":"4","last_reported":1738343255,"current_range_meters":28000,"station_id":"ce4bh512rcd13ifvqe3g","pricing_plan_id":"cebpf4jnsgd1na2vs0mg"},{"bike_id":"794b5028-6c26-482f-81d1-59e42fb24050","system_id":"levelo_inurba_marseille","lat":43.288454,"lon":5.393134,"is_reserved":false,"is_disabled":false,"rental_uris":{"android":"levelo://app?vid=794b5028-6c26-482f-81d1-59e42fb24050","ios":"levelo://app?vid=794b5028-6c26-482f-81d1-59e42fb24050"},"vehicle_type_id":"4","last_reported":1738343255,"current_range_meters":28800,"station_id":"ce4bh2p2rcd13ifvqdi0","pricing_plan_id":"cebpf4jnsgd1na2vs0mg"},{"bike_id":"11c6cd56-82c1-4aa8-9050-0a5f6805a818","system_id":"levelo_inurba_marseille","lat":43.293075,"lon":5.374689,"is_reserved":false,"is_disabled":false,"rental_uris":{"android":"levelo://app?vid=11c6cd56-82c1-4aa8-9050-0a5f6805a818","ios":"levelo://app?vid=11c6cd56-82c1-4aa8-9050-0a5f6805a818"},"vehicle_type_id":"4","last_reported":1738343255,"current_range_meters":37600,"station_id":"ce4bgi12rcd13ifvqb70","pricing_plan_id":"cebpf4jnsgd1na2vs0mg"},{"bike_id":"f9c2d552-c8cc-44e9-aa8f-3fa89bfedd15","system_id":"levelo_inurba_marseille","lat":43.28109,"lon":5.37838,"is_reserved":false,"is_disabled":false,"rental_uris":{"android":"levelo://app?vid=f9c2d552-c8cc-44e9-aa8f-3fa89bfedd15","ios":"levelo://app?vid=f9c2d552-c8cc-44e9-aa8f-3fa89bfedd15"},"vehicle_type_id":"4","last_reported":1738343255,"current_range_meters":27200,"station_id":"ce4bha12rcd13ifvqee0","pricing_plan_id":"cebpf4jnsgd1na2vs0mg"},{"bike_id":"eb34b5bf-7bfd-458e-805f-89a1ef90ab9c","system_id":"levelo_inurba_marseille","lat":43.28083,"lon":5.39663,"is_reserved":false,"is_disabled":false,"rental_uris":{"android":"levelo://app?vid=eb34b5bf-7bfd-458e-805f-89a1ef90ab9c","ios":"levelo://app?vid=eb34b5bf-7bfd-458e-805f-89a1ef90ab9c"},"vehicle_type_id":"4","last_reported":1738343255,"current_range_meters":13600,"station_id":"ce4bho12rcd13ifvqh2g","pricing_plan_id":"cebpf4jnsgd1na2vs0mg"},{"bike_id":"9d397261-6963-47ac-a075-c1485ca541bb","system_id":"levelo_inurba_marseille","lat":43.25724,"lon":5.41104,"is_reserved":false,"is_disabled":false,"rental_uris":{"android":"levelo://app?vid=9d397261-6963-47ac-a075-c1485ca541bb","ios":"levelo://app?vid=9d397261-6963-47ac-a075-c1485ca541bb"},"vehicle_type_id":"4","last_reported":1738343255,"current_range_meters":27600,"station_id":"ce4bhkp2rcd13ifvqgd0","pricing_plan_id":"cebpf4jnsgd1na2vs0mg"},{"bike_id":"00bfc230-dfee-4a47-8f9f-99ff2e5e09c3","system_id":"levelo_inurba_marseille","lat":43.31756,"lon":5.3902,"is_reserved":false,"is_disabled":false,"rental_uris":{"android":"levelo://app?vid=00bfc230-dfee-4a47-8f9f-99ff2e5e09c3","ios":"levelo://app?vid=00bfc230-dfee-4a47-8f9f-99ff2e5e09c3"},"vehicle_type_id":"4","last_reported":1738343255,"current_range_meters":34000,"station_id":"ce4bhqp2rcd13ifvqhng","pricing_plan_id":"cebpf4jnsgd1na2vs0mg"},{"bike_id":"9589ffb9-c7bb-4b69-9093-3f10a1b7ad66","system_id":"levelo_inurba_marseille","lat":43.32033,"lon":5.41577,"is_reserved":false,"is_disabled":false,"rental_uris":{"android":"levelo://app?vid=9589ffb9-c7bb-4b69-9093-3f10a1b7ad66","ios":"levelo://app?vid=9589ffb9-c7bb-4b69-9093-3f10a1b7ad66"},"vehicle_type_id":"4","last_reported":1738343255,"current_range_meters":24400,"station_id":"ce4bhq92rcd13ifvqhkg","pricing_plan_id":"cebpf4jnsgd1na2vs0mg"},{"bike_id":"892bb6e6-bb8d-408c-9ec0-aa1e91db148e","system_id":"levelo_inurba_marseille","lat":43.30116,"lon":5.38774,"is_reserved":false,"is_disabled":false,"rental_uris":{"android":"levelo://app?vid=892bb6e6-bb8d-408c-9ec0-aa1e91db148e","ios":"levelo://app?vid=892bb6e6-bb8d-408c-9ec0-aa1e91db148e"},"vehicle_type_id":"4","last_reported":1738343255,"current_range_meters":37600,"station_id":"ce4bghh2rcd13ifvqb60","pricing_plan_id":"cebpf4jnsgd1na2vs0mg"},{"bike_id":"a6e6eb94-2d83-46f0-b083-8fb06c890fcf","system_id":"levelo_inurba_marseille","lat":43.29868,"lon":5.39738,"is_reserved":false,"is_disabled":false,"rental_uris":{"android":"levelo://app?vid=a6e6eb94-2d83-46f0-b083-8fb06c890fcf","ios":"levelo://app?vid=a6e6eb94-2d83-46f0-b083-8fb06c890fcf"},"vehicle_type_id":"4","last_reported":1738343255,"current_range_meters":17600,"station_id":"ce4bh0h2rcd13ifvqd50","pricing_plan_id":"cebpf4jnsgd1na2vs0mg"},{"bike_id":"364eb652-69b2-4cd0-85cc-79efa41d2c35","system_id":"levelo_inurba_marseille","lat":43.26809,"lon":5.40263,"is_reserved":false,"is_disabled":false,"rental_uris":{"android":"levelo://app?vid=364eb652-69b2-4cd0-85cc-79efa41d2c35","ios":"levelo://app?vid=364eb652-69b2-4cd0-85cc-79efa41d2c35"},"vehicle_type_id":"4","last_reported":1738343255,"current_range_meters":8800,"station_id":"ce501612rcd8frsf0b60","pricing_plan_id":"cebpf4jnsgd1na2vs0mg"},{"bike_id":"8126c25c-c3a2-4cdd-a2e4-d380d215e724","system_id":"levelo_inurba_marseille","lat":43.26808,"lon":5.40256,"is_reserved":false,"is_disabled":false,"rental_uris":{"android":"levelo://app?vid=8126c25c-c3a2-4cdd-a2e4-d380d215e724","ios":"levelo://app?vid=8126c25c-c3a2-4cdd-a2e4-d380d215e724"},"vehicle_type_id":"4","last_reported":1738343255,"current_range_meters":37600,"station_id":"ce501612rcd8frsf0b60","pricing_plan_id":"cebpf4jnsgd1na2vs0mg"},{"bike_id":"bbeccfc5-bed6-40da-af7b-e3f8796d6e04","system_id":"levelo_inurba_marseille","lat":43.29297,"lon":5.40135,"is_reserved":false,"is_disabled":false,"rental_uris":{"android":"levelo://app?vid=bbeccfc5-bed6-40da-af7b-e3f8796d6e04","ios":"levelo://app?vid=bbeccfc5-bed6-40da-af7b-e3f8796d6e04"},"vehicle_type_id":"4","last_reported":1738343255,"current_range_meters":38800,"station_id":"ce4bh312rcd13ifvqdk0","pricing_plan_id":"cebpf4jnsgd1na2vs0mg"},{"bike_id":"797a435a-6a1d-412f-8ae0-ddd12ec6f321","system_id":"levelo_inurba_marseille","lat":43.25861,"lon":5.3991,"is_reserved":false,"is_disabled":false,"rental_uris":{"android":"levelo://app?vid=797a435a-6a1d-412f-8ae0-ddd12ec6f321","ios":"levelo://app?vid=797a435a-6a1d-412f-8ae0-ddd12ec6f321"},"vehicle_type_id":"4","last_reported":1738343255,"current_range_meters":38800,"station_id":"ce4bhl92rcd13ifvqghg","pricing_plan_id":"cebpf4jnsgd1na2vs0mg"},{"bike_id":"364dd3ad-1940-4701-b152-585eda76d7b6","system_id":"levelo_inurba_marseille","lat":43.28352,"lon":5.38099,"is_reserved":false,"is_disabled":false,"rental_uris":{"android":"levelo://app?vid=364dd3ad-1940-4701-b152-585eda76d7b6","ios":"levelo://app?vid=364dd3ad-1940-4701-b152-585eda76d7b6"},"vehicle_type_id":"4","last_reported":1738343255,"current_range_meters":25200,"station_id":"ce4bh412rcd13ifvqdr0","pricing_plan_id":"cebpf4jnsgd1na2vs0mg"},{"bike_id":"1fbf3f20-0930-4b85-8900-561217e5a0eb","system_id":"levelo_inurba_marseille","lat":43.30416,"lon":5.41282,"is_reserved":false,"is_disabled":false,"rental_uris":{"android":"levelo://app?vid=1fbf3f20-0930-4b85-8900-561217e5a0eb","ios":"levelo://app?vid=1fbf3f20-0930-4b85-8900-561217e5a0eb"},"vehicle_type_id":"4","last_reported":1738343255,"current_range_meters":27600,"station_id":"ce4bhop2rcd13ifvqh8g","pricing_plan_id":"cebpf4jnsgd1na2vs0mg"},{"bike_id":"0ed8a6c6-eadb-4bd0-a58f-0b8be240ba0c","system_id":"levelo_inurba_marseille","lat":43.27817,"lon":5.40726,"is_reserved":false,"is_disabled":false,"rental_uris":{"android":"levelo://app?vid=0ed8a6c6-eadb-4bd0-a58f-0b8be240ba0c","ios":"levelo://app?vid=0ed8a6c6-eadb-4bd0-a58f-0b8be240ba0c"},"vehicle_type_id":"4","last_reported":1738343255,"current_range_meters":25600,"station_id":"ce4bhnh2rcd13ifvqgtg","pricing_plan_id":"cebpf4jnsgd1na2vs0mg"},{"bike_id":"b9aa5781-02dd-42a0-a665-f6a85646ac97","system_id":"levelo_inurba_marseille","lat":43.25584,"lon":5.38232,"is_reserved":false,"is_disabled":false,"rental_uris":{"android":"levelo://app?vid=b9aa5781-02dd-42a0-a665-f6a85646ac97","ios":"levelo://app?vid=b9aa5781-02dd-42a0-a665-f6a85646ac97"},"vehicle_type_id":"4","last_reported":1738343255,"current_range_meters":30800,"station_id":"ce4bhih2rcd13ifvqfs0","pricing_plan_id":"cebpf4jnsgd1na2vs0mg"},{"bike_id":"7be6a9fb-c2f9-4045-9a97-1d67bf5715d5","system_id":"levelo_inurba_marseille","lat":43.24996,"lon":5.38942,"is_reserved":false,"is_disabled":false,"rental_uris":{"android":"levelo://app?vid=7be6a9fb-c2f9-4045-9a97-1d67bf5715d5","ios":"levelo://app?vid=7be6a9fb-c2f9-4045-9a97-1d67bf5715d5"},"vehicle_type_id":"4","last_reported":1738343255,"current_range_meters":38800,"station_id":"ce4bhgp2rcd13ifvqfd0","pricing_plan_id":"cebpf4jnsgd1na2vs0mg"},{"bike_id":"ee082be5-29f6-4e91-8343-b7b0c9fcdff1","system_id":"levelo_inurba_marseille","lat":43.25083,"lon":5.39515,"is_reserved":false,"is_disabled":false,"rental_uris":{"android":"levelo://app?vid=ee082be5-29f6-4e91-8343-b7b0c9fcdff1","ios":"levelo://app?vid=ee082be5-29f6-4e91-8343-b7b0c9fcdff1"},"vehicle_type_id":"4","last_reported":1738343255,"current_range_meters":32800,"station_id":"ce4bhm12rcd13ifvqgkg","pricing_plan_id":"cebpf4jnsgd1na2vs0mg"},{"bike_id":"28bd14cb-2025-4f1c-960d-ea30bb604979","system_id":"levelo_inurba_marseille","lat":43.30152,"lon":5.38101,"is_reserved":false,"is_disabled":false,"rental_uris":{"android":"levelo://app?vid=28bd14cb-2025-4f1c-960d-ea30bb604979","ios":"levelo://app?vid=28bd14cb-2025-4f1c-960d-ea30bb604979"},"vehicle_type_id":"4","last_reported":1738343255,"current_range_meters":28000,"station_id":"ce4bgjp2rcd13ifvqbh0","pricing_plan_id":"cebpf4jnsgd1na2vs0mg"},{"bike_id":"23f78061-2e6e-4c05-812e-55ea5a69a776","system_id":"levelo_inurba_marseille","lat":43.29259,"lon":5.40917,"is_reserved":false,"is_disabled":false,"rental_uris":{"android":"levelo://app?vid=23f78061-2e6e-4c05-812e-55ea5a69a776","ios":"levelo://app?vid=23f78061-2e6e-4c05-812e-55ea5a69a776"},"vehicle_type_id":"4","last_reported":1738343255,"current_range_meters":38800,"station_id":"ce4bh192rcd13ifvqdc0","pricing_plan_id":"cebpf4jnsgd1na2vs0mg"},{"bike_id":"e99c90aa-e079-42e2-a963-1534829ba9c7","system_id":"levelo_inurba_marseille","lat":43.26206,"lon":5.37452,"is_reserved":false,"is_disabled":false,"rental_uris":{"android":"levelo://app?vid=e99c90aa-e079-42e2-a963-1534829ba9c7","ios":"levelo://app?vid=e99c90aa-e079-42e2-a963-1534829ba9c7"},"vehicle_type_id":"4","last_reported":1738343255,"current_range_meters":30800,"station_id":"ce4bhgp2rcd13ifvqfc0","pricing_plan_id":"cebpf4jnsgd1na2vs0mg"},{"bike_id":"217de6f9-0d4a-40eb-b60e-143c6d70feb4","system_id":"levelo_inurba_marseille","lat":43.26512,"lon":5.39548,"is_reserved":false,"is_disabled":false,"rental_uris":{"android":"levelo://app?vid=217de6f9-0d4a-40eb-b60e-143c6d70feb4","ios":"levelo://app?vid=217de6f9-0d4a-40eb-b60e-143c6d70feb4"},"vehicle_type_id":"4","last_reported":1738343255,"current_range_meters":38800,"station_id":"ce4bhi12rcd13ifvqfq0","pricing_plan_id":"cebpf4jnsgd1na2vs0mg"},{"bike_id":"472815ce-dd78-4e4c-82e8-cea31da48d22","system_id":"levelo_inurba_marseille","lat":43.33681,"lon":5.39248,"is_reserved":false,"is_disabled":false,"rental_uris":{"android":"levelo://app?vid=472815ce-dd78-4e4c-82e8-cea31da48d22","ios":"levelo://app?vid=472815ce-dd78-4e4c-82e8-cea31da48d22"},"vehicle_type_id":"4","last_reported":1738343255,"current_range_meters":39200,"station_id":"ce4bhr92rcd13ifvqhsg","pricing_plan_id":"cebpf4jnsgd1na2vs0mg"},{"bike_id":"cc47836a-b908-432f-8e0e-2f793407f141","system_id":"levelo_inurba_marseille","lat":43.22929,"lon":5.35376,"is_reserved":false,"is_disabled":false,"rental_uris":{"android":"levelo://app?vid=cc47836a-b908-432f-8e0e-2f793407f141","ios":"levelo://app?vid=cc47836a-b908-432f-8e0e-2f793407f141"},"vehicle_type_id":"4","last_reported":1738343255,"current_range_meters":9200,"station_id":"cpo3532slgdg3j2ikp40","pricing_plan_id":"cebpf4jnsgd1na2vs0mg"},{"bike_id":"dc88a78b-618f-4f83-8a69-83b165a245fb","system_id":"levelo_inurba_marseille","lat":43.2756,"lon":5.38433,"is_reserved":false,"is_disabled":false,"rental_uris":{"android":"levelo://app?vid=dc88a78b-618f-4f83-8a69-83b165a245fb","ios":"levelo://app?vid=dc88a78b-618f-4f83-8a69-83b165a245fb"},"vehicle_type_id":"4","last_reported":1738343255,"current_range_meters":29600,"station_id":"ce4bhh92rcd13ifvqfi0","pricing_plan_id":"cebpf4jnsgd1na2vs0mg"},{"bike_id":"d094a61b-5786-4af7-94de-e79c7ebfea5d","system_id":"levelo_inurba_marseille","lat":43.31757,"lon":5.39017,"is_reserved":false,"is_disabled":false,"rental_uris":{"android":"levelo://app?vid=d094a61b-5786-4af7-94de-e79c7ebfea5d","ios":"levelo://app?vid=d094a61b-5786-4af7-94de-e79c7ebfea5d"},"vehicle_type_id":"4","last_reported":1738343255,"current_range_meters":25200,"station_id":"ce4bhqp2rcd13ifvqhng","pricing_plan_id":"cebpf4jnsgd1na2vs0mg"},{"bike_id":"6a2d0788-0c09-4676-894b-1f3ee2adfb3a","system_id":"levelo_inurba_marseille","lat":43.30419,"lon":5.41278,"is_reserved":false,"is_disabled":false,"rental_uris":{"android":"levelo://app?vid=6a2d0788-0c09-4676-894b-1f3ee2adfb3a","ios":"levelo://app?vid=6a2d0788-0c09-4676-894b-1f3ee2adfb3a"},"vehicle_type_id":"4","last_reported":1738343255,"current_range_meters":14800,"station_id":"ce4bhop2rcd13ifvqh8g","pricing_plan_id":"cebpf4jnsgd1na2vs0mg"},{"bike_id":"0c8187f5-988a-4457-bbb8-4cf908ac31d3","system_id":"levelo_inurba_marseille","lat":43.25834,"lon":5.39434,"is_reserved":false,"is_disabled":false,"rental_uris":{"android":"levelo://app?vid=0c8187f5-988a-4457-bbb8-4cf908ac31d3","ios":"levelo://app?vid=0c8187f5-988a-4457-bbb8-4cf908ac31d3"},"vehicle_type_id":"4","last_reported":1738343255,"current_range_meters":23200,"station_id":"ce4bhip2rcd13ifvqft0","pricing_plan_id":"cebpf4jnsgd1na2vs0mg"},{"bike_id":"edf03fe0-0d67-43ea-a969-17cde7dbd888","system_id":"levelo_inurba_marseille","lat":43.29193,"lon":5.35816,"is_reserved":false,"is_disabled":false,"rental_uris":{"android":"levelo://app?vid=edf03fe0-0d67-43ea-a969-17cde7dbd888","ios":"levelo://app?vid=edf03fe0-0d67-43ea-a969-17cde7dbd888"},"vehicle_type_id":"4","last_reported":1738343255,"current_range_meters":6800,"station_id":"ce4bhb12rcd13ifvqel0","pricing_plan_id":"cebpf4jnsgd1na2vs0mg"},{"bike_id":"7fbc607b-e12b-47bd-a53f-1c18ac62adfd","system_id":"levelo_inurba_marseille","lat":43.27815,"lon":5.40723,"is_reserved":false,"is_disabled":false,"rental_uris":{"android":"levelo://app?vid=7fbc607b-e12b-47bd-a53f-1c18ac62adfd","ios":"levelo://app?vid=7fbc607b-e12b-47bd-a53f-1c18ac62adfd"},"vehicle_type_id":"4","last_reported":1738343255,"current_range_meters":32800,"station_id":"ce4bhnh2rcd13ifvqgtg","pricing_plan_id":"cebpf4jnsgd1na2vs0mg"},{"bike_id":"735cf356-6ca7-4c83-bf25-d301ccde8042","system_id":"levelo_inurba_marseille","lat":43.27179,"lon":5.41006,"is_reserved":false,"is_disabled":false,"rental_uris":{"android":"levelo://app?vid=735cf356-6ca7-4c83-bf25-d301ccde8042","ios":"levelo://app?vid=735cf356-6ca7-4c83-bf25-d301ccde8042"},"vehicle_type_id":"4","last_reported":1738343255,"current_range_meters":25600,"station_id":"ce4bhl12rcd13ifvqgf0","pricing_plan_id":"cebpf4jnsgd1na2vs0mg"},{"bike_id":"db7f3b10-3249-4ef1-b2d2-417c75340e93","system_id":"levelo_inurba_marseille","lat":43.26802,"lon":5.40264,"is_reserved":false,"is_disabled":false,"rental_uris":{"android":"levelo://app?vid=db7f3b10-3249-4ef1-b2d2-417c75340e93","ios":"levelo://app?vid=db7f3b10-3249-4ef1-b2d2-417c75340e93"},"vehicle_type_id":"4","last_reported":1738343255,"current_range_meters":37600,"station_id":"ce501612rcd8frsf0b60","pricing_plan_id":"cebpf4jnsgd1na2vs0mg"},{"bike_id":"606053f9-3da2-4594-b4df-8e24b5fa812c","system_id":"levelo_inurba_marseille","lat":43.26983,"lon":5.40272,"is_reserved":false,"is_disabled":false,"rental_uris":{"android":"levelo://app?vid=606053f9-3da2-4594-b4df-8e24b5fa812c","ios":"levelo://app?vid=606053f9-3da2-4594-b4df-8e24b5fa812c"},"vehicle_type_id":"4","last_reported":1738343255,"current_range_meters":37600,"station_id":"cjm6bp8fraef2m0cb0m0","pricing_plan_id":"cebpf4jnsgd1na2vs0mg"},{"bike_id":"8838e785-ddde-4529-b2e2-2393a68c07bc","system_id":"levelo_inurba_marseille","lat":43.31485,"lon":5.37284,"is_reserved":false,"is_disabled":true,"rental_uris":{"android":"levelo://app?vid=8838e785-ddde-4529-b2e2-2393a68c07bc","ios":"levelo://app?vid=8838e785-ddde-4529-b2e2-2393a68c07bc"},"vehicle_type_id":"4","last_reported":1738343255,"current_range_meters":0,"station_id":"ce4bgt12rcd13ifvqcd0","pricing_plan_id":"cebpf4jnsgd1na2vs0mg"},{"bike_id":"c1dac6bc-1d5f-442d-823d-1945bf1b35b3","system_id":"levelo_inurba_marseille","lat":43.23196,"lon":5.35555,"is_reserved":false,"is_disabled":false,"rental_uris":{"android":"levelo://app?vid=c1dac6bc-1d5f-442d-823d-1945bf1b35b3","ios":"levelo://app?vid=c1dac6bc-1d5f-442d-823d-1945bf1b35b3"},"vehicle_type_id":"4","last_reported":1738343255,"current_range_meters":14400,"station_id":"ce4bhu92rcd13ifvqi70","pricing_plan_id":"cebpf4jnsgd1na2vs0mg"},{"bike_id":"5cd5a23a-ab00-4fbc-8a6c-45981dcdea3e","system_id":"levelo_inurba_marseille","lat":43.23963,"lon":5.36632,"is_reserved":false,"is_disabled":false,"rental_uris":{"android":"levelo://app?vid=5cd5a23a-ab00-4fbc-8a6c-45981dcdea3e","ios":"levelo://app?vid=5cd5a23a-ab00-4fbc-8a6c-45981dcdea3e"},"vehicle_type_id":"4","last_reported":1738343255,"current_range_meters":9200,"station_id":"ce4bhi12rcd13ifvqfp0","pricing_plan_id":"cebpf4jnsgd1na2vs0mg"},{"bike_id":"db14cd8a-5ba9-45f6-b197-f717b13b5230","system_id":"levelo_inurba_marseille","lat":43.2985,"lon":5.36264,"is_reserved":false,"is_disabled":false,"rental_uris":{"android":"levelo://app?vid=db14cd8a-5ba9-45f6-b197-f717b13b5230","ios":"levelo://app?vid=db14cd8a-5ba9-45f6-b197-f717b13b5230"},"vehicle_type_id":"4","last_reported":1738343255,"current_range_meters":39200,"station_id":"ce4bgpp2rcd13ifvqc3g","pricing_plan_id":"cebpf4jnsgd1na2vs0mg"},{"bike_id":"808232f1-e991-4dd8-8765-6f4f5aba4517","system_id":"levelo_inurba_marseille","lat":43.3359,"lon":5.40978,"is_reserved":false,"is_disabled":true,"rental_uris":{"android":"levelo://app?vid=808232f1-e991-4dd8-8765-6f4f5aba4517","ios":"levelo://app?vid=808232f1-e991-4dd8-8765-6f4f5aba4517"},"vehicle_type_id":"4","last_reported":1738343255,"current_range_meters":0,"station_id":"ce4bhqh2rcd13ifvqhmg","pricing_plan_id":"cebpf4jnsgd1na2vs0mg"},{"bike_id":"a2ee6259-aa1b-4c7e-a9cd-6d318fb9b3a7","system_id":"levelo_inurba_marseille","lat":43.29722,"lon":5.37689,"is_reserved":false,"is_disabled":false,"rental_uris":{"android":"levelo://app?vid=a2ee6259-aa1b-4c7e-a9cd-6d318fb9b3a7","ios":"levelo://app?vid=a2ee6259-aa1b-4c7e-a9cd-6d318fb9b3a7"},"vehicle_type_id":"4","last_reported":1738343255,"current_range_meters":4800,"station_id":"ce4bgkh2rcd13ifvqbl0","pricing_plan_id":"cebpf4jnsgd1na2vs0mg"},{"bike_id":"9bf80e94-562b-410c-8b3d-b313c963b878","system_id":"levelo_inurba_marseille","lat":43.27204,"lon":5.40991,"is_reserved":false,"is_disabled":false,"rental_uris":{"android":"levelo://app?vid=9bf80e94-562b-410c-8b3d-b313c963b878","ios":"levelo://app?vid=9bf80e94-562b-410c-8b3d-b313c963b878"},"vehicle_type_id":"4","last_reported":1738343255,"current_range_meters":36400,"station_id":"ce4bhl12rcd13ifvqgf0","pricing_plan_id":"cebpf4jnsgd1na2vs0mg"},{"bike_id":"9f7cbc3c-6e0b-4442-8c70-64c0b2a1452e","system_id":"levelo_inurba_marseille","lat":43.23068,"lon":5.35478,"is_reserved":false,"is_disabled":false,"rental_uris":{"android":"levelo://app?vid=9f7cbc3c-6e0b-4442-8c70-64c0b2a1452e","ios":"levelo://app?vid=9f7cbc3c-6e0b-4442-8c70-64c0b2a1452e"},"vehicle_type_id":"4","last_reported":1738343255,"current_range_meters":38800,"station_id":"cpo3342slgdg3j2ifvpg","pricing_plan_id":"cebpf4jnsgd1na2vs0mg"},{"bike_id":"c8a3a0ed-dff2-4f3c-87dc-2e6b47b1ad28","system_id":"levelo_inurba_marseille","lat":43.337444,"lon":5.374475,"is_reserved":false,"is_disabled":true,"rental_uris":{"android":"levelo://app?vid=c8a3a0ed-dff2-4f3c-87dc-2e6b47b1ad28","ios":"levelo://app?vid=c8a3a0ed-dff2-4f3c-87dc-2e6b47b1ad28"},"vehicle_type_id":"4","last_reported":1738343255,"current_range_meters":0,"station_id":"","pricing_plan_id":"cebpf4jnsgd1na2vs0mg"},{"bike_id":"20d13492-56d3-4c8a-9cd8-d74200f79a48","system_id":"levelo_inurba_marseille","lat":43.28273,"lon":5.35071,"is_reserved":false,"is_disabled":false,"rental_uris":{"android":"levelo://app?vid=20d13492-56d3-4c8a-9cd8-d74200f79a48","ios":"levelo://app?vid=20d13492-56d3-4c8a-9cd8-d74200f79a48"},"vehicle_type_id":"4","last_reported":1738343255,"current_range_meters":11600,"station_id":"ce4bhbp2rcd13ifvqerg","pricing_plan_id":"cebpf4jnsgd1na2vs0mg"},{"bike_id":"0ca64129-63ca-480d-a228-e4b0575b143c","system_id":"levelo_inurba_marseille","lat":43.28712,"lon":5.37401,"is_reserved":false,"is_disabled":false,"rental_uris":{"android":"levelo://app?vid=0ca64129-63ca-480d-a228-e4b0575b143c","ios":"levelo://app?vid=0ca64129-63ca-480d-a228-e4b0575b143c"},"vehicle_type_id":"4","last_reported":1738343255,"current_range_meters":28000,"station_id":"ce4bh3p2rcd13ifvqdq0","pricing_plan_id":"cebpf4jnsgd1na2vs0mg"},{"bike_id":"6a86154e-7bb5-4710-aa37-12fad77c7577","system_id":"levelo_inurba_marseille","lat":43.26499,"lon":5.39553,"is_reserved":false,"is_disabled":false,"rental_uris":{"android":"levelo://app?vid=6a86154e-7bb5-4710-aa37-12fad77c7577","ios":"levelo://app?vid=6a86154e-7bb5-4710-aa37-12fad77c7577"},"vehicle_type_id":"4","last_reported":1738343255,"current_range_meters":34800,"station_id":"ce4bhi12rcd13ifvqfq0","pricing_plan_id":"cebpf4jnsgd1na2vs0mg"},{"bike_id":"7247902a-635d-4f06-9cf7-f11e089c2d38","system_id":"levelo_inurba_marseille","lat":43.26936,"lon":5.4024,"is_reserved":false,"is_disabled":false,"rental_uris":{"android":"levelo://app?vid=7247902a-635d-4f06-9cf7-f11e089c2d38","ios":"levelo://app?vid=7247902a-635d-4f06-9cf7-f11e089c2d38"},"vehicle_type_id":"4","last_reported":1738343255,"current_range_meters":37600,"station_id":"cjm6bp8fraef2m0cb0m0","pricing_plan_id":"cebpf4jnsgd1na2vs0mg"},{"bike_id":"b9dfdd12-ed8d-4873-9fc8-0a1849f2020b","system_id":"levelo_inurba_marseille","lat":43.26802,"lon":5.40265,"is_reserved":false,"is_disabled":false,"rental_uris":{"android":"levelo://app?vid=b9dfdd12-ed8d-4873-9fc8-0a1849f2020b","ios":"levelo://app?vid=b9dfdd12-ed8d-4873-9fc8-0a1849f2020b"},"vehicle_type_id":"4","last_reported":1738343255,"current_range_meters":38000,"station_id":"ce501612rcd8frsf0b60","pricing_plan_id":"cebpf4jnsgd1na2vs0mg"},{"bike_id":"155e1c4d-791d-4fa8-916d-1efdeaf52df4","system_id":"levelo_inurba_marseille","lat":43.26565,"lon":5.39013,"is_reserved":false,"is_disabled":false,"rental_uris":{"android":"levelo://app?vid=155e1c4d-791d-4fa8-916d-1efdeaf52df4","ios":"levelo://app?vid=155e1c4d-791d-4fa8-916d-1efdeaf52df4"},"vehicle_type_id":"4","last_reported":1738343255,"current_range_meters":36800,"station_id":"ce4bhe12rcd13ifvqf30","pricing_plan_id":"cebpf4jnsgd1na2vs0mg"},{"bike_id":"32802d31-82e5-49aa-928e-45336ddb5e58","system_id":"levelo_inurba_marseille","lat":43.25011,"lon":5.38922,"is_reserved":false,"is_disabled":false,"rental_uris":{"android":"levelo://app?vid=32802d31-82e5-49aa-928e-45336ddb5e58","ios":"levelo://app?vid=32802d31-82e5-49aa-928e-45336ddb5e58"},"vehicle_type_id":"4","last_reported":1738343255,"current_range_meters":38800,"station_id":"ce4bhgp2rcd13ifvqfd0","pricing_plan_id":"cebpf4jnsgd1na2vs0mg"},{"bike_id":"d06240a3-8895-42e8-9212-5c068d44e9d2","system_id":"levelo_inurba_marseille","lat":43.28627,"lon":5.35094,"is_reserved":false,"is_disabled":false,"rental_uris":{"android":"levelo://app?vid=d06240a3-8895-42e8-9212-5c068d44e9d2","ios":"levelo://app?vid=d06240a3-8895-42e8-9212-5c068d44e9d2"},"vehicle_type_id":"4","last_reported":1738343255,"current_range_meters":25600,"station_id":"ce4bhch2rcd13ifvqeug","pricing_plan_id":"cebpf4jnsgd1na2vs0mg"},{"bike_id":"a61ed06e-f050-4de5-be8b-09d8eeaca742","system_id":"levelo_inurba_marseille","lat":43.29275,"lon":5.38467,"is_reserved":false,"is_disabled":false,"rental_uris":{"android":"levelo://app?vid=a61ed06e-f050-4de5-be8b-09d8eeaca742","ios":"levelo://app?vid=a61ed06e-f050-4de5-be8b-09d8eeaca742"},"vehicle_type_id":"4","last_reported":1738343255,"current_range_meters":5600,"station_id":"ce4bh692rcd13ifvqea0","pricing_plan_id":"cebpf4jnsgd1na2vs0mg"},{"bike_id":"36868796-31ae-4cf0-ac0c-d037a5b591b3","system_id":"levelo_inurba_marseille","lat":43.24547,"lon":5.39525,"is_reserved":false,"is_disabled":false,"rental_uris":{"android":"levelo://app?vid=36868796-31ae-4cf0-ac0c-d037a5b591b3","ios":"levelo://app?vid=36868796-31ae-4cf0-ac0c-d037a5b591b3"},"vehicle_type_id":"4","last_reported":1738343255,"current_range_meters":35600,"station_id":"ce4bhlp2rcd13ifvqgjg","pricing_plan_id":"cebpf4jnsgd1na2vs0mg"},{"bike_id":"a7e1bb12-c60b-445a-9547-4b41c03d5f68","system_id":"levelo_inurba_marseille","lat":43.28154,"lon":5.42636,"is_reserved":false,"is_disabled":true,"rental_uris":{"android":"levelo://app?vid=a7e1bb12-c60b-445a-9547-4b41c03d5f68","ios":"levelo://app?vid=a7e1bb12-c60b-445a-9547-4b41c03d5f68"},"vehicle_type_id":"4","last_reported":1738343255,"current_range_meters":0,"station_id":"ce4bhnh2rcd13ifvqgug","pricing_plan_id":"cebpf4jnsgd1na2vs0mg"},{"bike_id":"a284af9d-721a-44a1-a2bc-3812d47b9629","system_id":"levelo_inurba_marseille","lat":43.29305,"lon":5.37455,"is_reserved":false,"is_disabled":false,"rental_uris":{"android":"levelo://app?vid=a284af9d-721a-44a1-a2bc-3812d47b9629","ios":"levelo://app?vid=a284af9d-721a-44a1-a2bc-3812d47b9629"},"vehicle_type_id":"4","last_reported":1738343255,"current_range_meters":38400,"station_id":"ce4bgi12rcd13ifvqb70","pricing_plan_id":"cebpf4jnsgd1na2vs0mg"},{"bike_id":"fbf62a3e-4c2a-4199-a315-7d737d4b3f63","system_id":"levelo_inurba_marseille","lat":43.29774,"lon":5.37122,"is_reserved":false,"is_disabled":false,"rental_uris":{"android":"levelo://app?vid=fbf62a3e-4c2a-4199-a315-7d737d4b3f63","ios":"levelo://app?vid=fbf62a3e-4c2a-4199-a315-7d737d4b3f63"},"vehicle_type_id":"4","last_reported":1738343255,"current_range_meters":38400,"station_id":"ce4bgop2rcd13ifvqc1g","pricing_plan_id":"cebpf4jnsgd1na2vs0mg"},{"bike_id":"a36de8bd-2e3e-4fb2-8780-295adcb078f0","system_id":"levelo_inurba_marseille","lat":43.26558,"lon":5.37289,"is_reserved":false,"is_disabled":false,"rental_uris":{"android":"levelo://app?vid=a36de8bd-2e3e-4fb2-8780-295adcb078f0","ios":"levelo://app?vid=a36de8bd-2e3e-4fb2-8780-295adcb078f0"},"vehicle_type_id":"4","last_reported":1738343255,"current_range_meters":32000,"station_id":"ce4bhg12rcd13ifvqf70","pricing_plan_id":"cebpf4jnsgd1na2vs0mg"},{"bike_id":"9838cc78-2b53-49d3-ae13-82df62c4fd64","system_id":"levelo_inurba_marseille","lat":43.28412,"lon":5.40934,"is_reserved":false,"is_disabled":true,"rental_uris":{"android":"levelo://app?vid=9838cc78-2b53-49d3-ae13-82df62c4fd64","ios":"levelo://app?vid=9838cc78-2b53-49d3-ae13-82df62c4fd64"},"vehicle_type_id":"4","last_reported":1738343255,"current_range_meters":0,"station_id":"","pricing_plan_id":"cebpf4jnsgd1na2vs0mg"},{"bike_id":"81bfe3c1-330b-49a5-95e3-e2be26c0ca99","system_id":"levelo_inurba_marseille","lat":43.29877,"lon":5.39732,"is_reserved":false,"is_disabled":false,"rental_uris":{"android":"levelo://app?vid=81bfe3c1-330b-49a5-95e3-e2be26c0ca99","ios":"levelo://app?vid=81bfe3c1-330b-49a5-95e3-e2be26c0ca99"},"vehicle_type_id":"4","last_reported":1738343255,"current_range_meters":39200,"station_id":"ce4bh0h2rcd13ifvqd50","pricing_plan_id":"cebpf4jnsgd1na2vs0mg"},{"bike_id":"6f2fcfaa-3927-43d5-81ce-564a67799966","system_id":"levelo_inurba_marseille","lat":43.31712,"lon":5.4371,"is_reserved":false,"is_disabled":false,"rental_uris":{"android":"levelo://app?vid=6f2fcfaa-3927-43d5-81ce-564a67799966","ios":"levelo://app?vid=6f2fcfaa-3927-43d5-81ce-564a67799966"},"vehicle_type_id":"4","last_reported":1738343255,"current_range_meters":22400,"station_id":"ce4bhp92rcd13ifvqhcg","pricing_plan_id":"cebpf4jnsgd1na2vs0mg"},{"bike_id":"a5646cab-9a7a-46d4-9871-a302b81e6e2b","system_id":"levelo_inurba_marseille","lat":43.29921,"lon":5.39719,"is_reserved":false,"is_disabled":false,"rental_uris":{"android":"levelo://app?vid=a5646cab-9a7a-46d4-9871-a302b81e6e2b","ios":"levelo://app?vid=a5646cab-9a7a-46d4-9871-a302b81e6e2b"},"vehicle_type_id":"4","last_reported":1738343255,"current_range_meters":38800,"station_id":"ce4bh0h2rcd13ifvqd50","pricing_plan_id":"cebpf4jnsgd1na2vs0mg"},{"bike_id":"78b43ac5-e91a-459f-a654-a1d5375a0672","system_id":"levelo_inurba_marseille","lat":43.299,"lon":5.43678,"is_reserved":false,"is_disabled":false,"rental_uris":{"android":"levelo://app?vid=78b43ac5-e91a-459f-a654-a1d5375a0672","ios":"levelo://app?vid=78b43ac5-e91a-459f-a654-a1d5375a0672"},"vehicle_type_id":"4","last_reported":1738343255,"current_range_meters":12000,"station_id":"ce4bhpp2rcd13ifvqhfg","pricing_plan_id":"cebpf4jnsgd1na2vs0mg"},{"bike_id":"f5e8fad8-097b-4894-9872-e6f60c121753","system_id":"levelo_inurba_marseille","lat":43.27907,"lon":5.38016,"is_reserved":false,"is_disabled":false,"rental_uris":{"android":"levelo://app?vid=f5e8fad8-097b-4894-9872-e6f60c121753","ios":"levelo://app?vid=f5e8fad8-097b-4894-9872-e6f60c121753"},"vehicle_type_id":"4","last_reported":1738343255,"current_range_meters":13600,"station_id":"ce4bhf92rcd13ifvqf50","pricing_plan_id":"cebpf4jnsgd1na2vs0mg"},{"bike_id":"1cc5e25c-3291-404f-9e35-a9ddbf257bea","system_id":"levelo_inurba_marseille","lat":43.29259,"lon":5.40917,"is_reserved":false,"is_disabled":false,"rental_uris":{"android":"levelo://app?vid=1cc5e25c-3291-404f-9e35-a9ddbf257bea","ios":"levelo://app?vid=1cc5e25c-3291-404f-9e35-a9ddbf257bea"},"vehicle_type_id":"4","last_reported":1738343255,"current_range_meters":30800,"station_id":"ce4bh192rcd13ifvqdc0","pricing_plan_id":"cebpf4jnsgd1na2vs0mg"},{"bike_id":"d0b2edf1-df1a-4cd9-8bbd-e430a7bfb874","system_id":"levelo_inurba_marseille","lat":43.29549,"lon":5.4229,"is_reserved":false,"is_disabled":false,"rental_uris":{"android":"levelo://app?vid=d0b2edf1-df1a-4cd9-8bbd-e430a7bfb874","ios":"levelo://app?vid=d0b2edf1-df1a-4cd9-8bbd-e430a7bfb874"},"vehicle_type_id":"4","last_reported":1738343255,"current_range_meters":38800,"station_id":"ce4bhph2rcd13ifvqhdg","pricing_plan_id":"cebpf4jnsgd1na2vs0mg"},{"bike_id":"4bbfab15-7f28-4fb2-9ec3-f938420ec585","system_id":"levelo_inurba_marseille","lat":43.23197,"lon":5.39972,"is_reserved":false,"is_disabled":false,"rental_uris":{"android":"levelo://app?vid=4bbfab15-7f28-4fb2-9ec3-f938420ec585","ios":"levelo://app?vid=4bbfab15-7f28-4fb2-9ec3-f938420ec585"},"vehicle_type_id":"4","last_reported":1738343255,"current_range_meters":12800,"station_id":"ce4bhn12rcd13ifvqgqg","pricing_plan_id":"cebpf4jnsgd1na2vs0mg"},{"bike_id":"3d3683d0-6fa2-4625-8b79-882bbb185c30","system_id":"levelo_inurba_marseille","lat":43.32276,"lon":5.38317,"is_reserved":false,"is_disabled":false,"rental_uris":{"android":"levelo://app?vid=3d3683d0-6fa2-4625-8b79-882bbb185c30","ios":"levelo://app?vid=3d3683d0-6fa2-4625-8b79-882bbb185c30"},"vehicle_type_id":"4","last_reported":1738343255,"current_range_meters":27600,"station_id":"ce4bhr12rcd13ifvqhqg","pricing_plan_id":"cebpf4jnsgd1na2vs0mg"},{"bike_id":"ba99ea07-1df0-4115-a720-af7a53cc89bf","system_id":"levelo_inurba_marseille","lat":43.305389,"lon":5.366988,"is_reserved":false,"is_disabled":false,"rental_uris":{"android":"levelo://app?vid=ba99ea07-1df0-4115-a720-af7a53cc89bf","ios":"levelo://app?vid=ba99ea07-1df0-4115-a720-af7a53cc89bf"},"vehicle_type_id":"4","last_reported":1738343255,"current_range_meters":38400,"station_id":"ce4bgrp2rcd13ifvqc9g","pricing_plan_id":"cebpf4jnsgd1na2vs0mg"},{"bike_id":"f7724904-e6a0-475a-94dc-eb5a2aaba110","system_id":"levelo_inurba_marseille","lat":43.27989,"lon":5.40009,"is_reserved":false,"is_disabled":true,"rental_uris":{"android":"levelo://app?vid=f7724904-e6a0-475a-94dc-eb5a2aaba110","ios":"levelo://app?vid=f7724904-e6a0-475a-94dc-eb5a2aaba110"},"vehicle_type_id":"4","last_reported":1738343255,"current_range_meters":2000,"station_id":"ce4bho92rcd13ifvqh4g","pricing_plan_id":"cebpf4jnsgd1na2vs0mg"},{"bike_id":"e2c49145-d80d-4c68-8184-02b30e52c755","system_id":"levelo_inurba_marseille","lat":43.30801,"lon":5.43531,"is_reserved":false,"is_disabled":false,"rental_uris":{"android":"levelo://app?vid=e2c49145-d80d-4c68-8184-02b30e52c755","ios":"levelo://app?vid=e2c49145-d80d-4c68-8184-02b30e52c755"},"vehicle_type_id":"4","last_reported":1738343255,"current_range_meters":28400,"station_id":"ce4bhph2rcd13ifvqheg","pricing_plan_id":"cebpf4jnsgd1na2vs0mg"},{"bike_id":"3ce5a499-04c7-4119-b329-aa2eb1d800cb","system_id":"levelo_inurba_marseille","lat":43.30589,"lon":5.3721,"is_reserved":false,"is_disabled":false,"rental_uris":{"android":"levelo://app?vid=3ce5a499-04c7-4119-b329-aa2eb1d800cb","ios":"levelo://app?vid=3ce5a499-04c7-4119-b329-aa2eb1d800cb"},"vehicle_type_id":"4","last_reported":1738343255,"current_range_meters":33600,"station_id":"ce4bgqh2rcd13ifvqc4g","pricing_plan_id":"cebpf4jnsgd1na2vs0mg"},{"bike_id":"d979d8d2-ec65-47af-9229-e4270aab279a","system_id":"levelo_inurba_marseille","lat":43.23067,"lon":5.35497,"is_reserved":false,"is_disabled":false,"rental_uris":{"android":"levelo://app?vid=d979d8d2-ec65-47af-9229-e4270aab279a","ios":"levelo://app?vid=d979d8d2-ec65-47af-9229-e4270aab279a"},"vehicle_type_id":"4","last_reported":1738343255,"current_range_meters":8800,"station_id":"cpo3342slgdg3j2ifvpg","pricing_plan_id":"cebpf4jnsgd1na2vs0mg"},{"bike_id":"03263ca6-cc41-4394-a25c-3e569937c8fa","system_id":"levelo_inurba_marseille","lat":43.28441,"lon":5.39196,"is_reserved":false,"is_disabled":false,"rental_uris":{"android":"levelo://app?vid=03263ca6-cc41-4394-a25c-3e569937c8fa","ios":"levelo://app?vid=03263ca6-cc41-4394-a25c-3e569937c8fa"},"vehicle_type_id":"4","last_reported":1738343255,"current_range_meters":36000,"station_id":"ce4bhoh2rcd13ifvqh5g","pricing_plan_id":"cebpf4jnsgd1na2vs0mg"},{"bike_id":"f10d9b40-8520-41ee-b039-cd6e7d066065","system_id":"levelo_inurba_marseille","lat":43.26248,"lon":5.37441,"is_reserved":false,"is_disabled":false,"rental_uris":{"android":"levelo://app?vid=f10d9b40-8520-41ee-b039-cd6e7d066065","ios":"levelo://app?vid=f10d9b40-8520-41ee-b039-cd6e7d066065"},"vehicle_type_id":"4","last_reported":1738343255,"current_range_meters":32400,"station_id":"ce4bhgp2rcd13ifvqfc0","pricing_plan_id":"cebpf4jnsgd1na2vs0mg"},{"bike_id":"b9e755cf-3bb9-4176-bf74-022a2f60d277","system_id":"levelo_inurba_marseille","lat":43.29799,"lon":5.40407,"is_reserved":false,"is_disabled":false,"rental_uris":{"android":"levelo://app?vid=b9e755cf-3bb9-4176-bf74-022a2f60d277","ios":"levelo://app?vid=b9e755cf-3bb9-4176-bf74-022a2f60d277"},"vehicle_type_id":"4","last_reported":1738343255,"current_range_meters":27200,"station_id":"ce4bh112rcd13ifvqd90","pricing_plan_id":"cebpf4jnsgd1na2vs0mg"},{"bike_id":"6951eebc-7f6d-4e4a-9f3f-5b0ee979e759","system_id":"levelo_inurba_marseille","lat":43.29903,"lon":5.43681,"is_reserved":false,"is_disabled":false,"rental_uris":{"android":"levelo://app?vid=6951eebc-7f6d-4e4a-9f3f-5b0ee979e759","ios":"levelo://app?vid=6951eebc-7f6d-4e4a-9f3f-5b0ee979e759"},"vehicle_type_id":"4","last_reported":1738343255,"current_range_meters":9200,"station_id":"ce4bhpp2rcd13ifvqhfg","pricing_plan_id":"cebpf4jnsgd1na2vs0mg"},{"bike_id":"7d6260ec-6d8c-4d5b-8950-1a493871014c","system_id":"levelo_inurba_marseille","lat":43.29902,"lon":5.43675,"is_reserved":false,"is_disabled":false,"rental_uris":{"android":"levelo://app?vid=7d6260ec-6d8c-4d5b-8950-1a493871014c","ios":"levelo://app?vid=7d6260ec-6d8c-4d5b-8950-1a493871014c"},"vehicle_type_id":"4","last_reported":1738343255,"current_range_meters":29600,"station_id":"ce4bhpp2rcd13ifvqhfg","pricing_plan_id":"cebpf4jnsgd1na2vs0mg"},{"bike_id":"4288a232-ae1a-4a0e-b7e1-97ede851d38b","system_id":"levelo_inurba_marseille","lat":43.2691,"lon":5.40271,"is_reserved":false,"is_disabled":false,"rental_uris":{"android":"levelo://app?vid=4288a232-ae1a-4a0e-b7e1-97ede851d38b","ios":"levelo://app?vid=4288a232-ae1a-4a0e-b7e1-97ede851d38b"},"vehicle_type_id":"4","last_reported":1738343255,"current_range_meters":27200,"station_id":"cjm6bp8fraef2m0cb0m0","pricing_plan_id":"cebpf4jnsgd1na2vs0mg"},{"bike_id":"f99e91c4-2330-4795-bfe7-3495ca9ba92c","system_id":"levelo_inurba_marseille","lat":43.28942,"lon":5.36639,"is_reserved":false,"is_disabled":true,"rental_uris":{"android":"levelo://app?vid=f99e91c4-2330-4795-bfe7-3495ca9ba92c","ios":"levelo://app?vid=f99e91c4-2330-4795-bfe7-3495ca9ba92c"},"vehicle_type_id":"4","last_reported":1738343255,"current_range_meters":36800,"station_id":"ce4bhap2rcd13ifvqek0","pricing_plan_id":"cebpf4jnsgd1na2vs0mg"},{"bike_id":"396d2bf0-6b5f-403b-bacf-9deaab552e51","system_id":"levelo_inurba_marseille","lat":43.23962,"lon":5.36624,"is_reserved":false,"is_disabled":false,"rental_uris":{"android":"levelo://app?vid=396d2bf0-6b5f-403b-bacf-9deaab552e51","ios":"levelo://app?vid=396d2bf0-6b5f-403b-bacf-9deaab552e51"},"vehicle_type_id":"4","last_reported":1738343255,"current_range_meters":12000,"station_id":"ce4bhi12rcd13ifvqfp0","pricing_plan_id":"cebpf4jnsgd1na2vs0mg"},{"bike_id":"d8b1c3f9-ff6e-4179-8423-4ba0d2a2af0e","system_id":"levelo_inurba_marseille","lat":43.33721,"lon":5.39177,"is_reserved":false,"is_disabled":false,"rental_uris":{"android":"levelo://app?vid=d8b1c3f9-ff6e-4179-8423-4ba0d2a2af0e","ios":"levelo://app?vid=d8b1c3f9-ff6e-4179-8423-4ba0d2a2af0e"},"vehicle_type_id":"4","last_reported":1738343255,"current_range_meters":39200,"station_id":"ce4bhr92rcd13ifvqhsg","pricing_plan_id":"cebpf4jnsgd1na2vs0mg"},{"bike_id":"3c4c7a88-5411-41a8-8f39-903a41cbeb53","system_id":"levelo_inurba_marseille","lat":43.30641,"lon":5.40104,"is_reserved":false,"is_disabled":false,"rental_uris":{"android":"levelo://app?vid=3c4c7a88-5411-41a8-8f39-903a41cbeb53","ios":"levelo://app?vid=3c4c7a88-5411-41a8-8f39-903a41cbeb53"},"vehicle_type_id":"4","last_reported":1738343255,"current_range_meters":28400,"station_id":"ce4bh112rcd13ifvqda0","pricing_plan_id":"cebpf4jnsgd1na2vs0mg"},{"bike_id":"89a4563c-a224-40bb-b4aa-1e03610a9b69","system_id":"levelo_inurba_marseille","lat":43.29038,"lon":5.39958,"is_reserved":false,"is_disabled":false,"rental_uris":{"android":"levelo://app?vid=89a4563c-a224-40bb-b4aa-1e03610a9b69","ios":"levelo://app?vid=89a4563c-a224-40bb-b4aa-1e03610a9b69"},"vehicle_type_id":"4","last_reported":1738343255,"current_range_meters":37600,"station_id":"ce4bh392rcd13ifvqdm0","pricing_plan_id":"cebpf4jnsgd1na2vs0mg"},{"bike_id":"acc2caf7-ee60-4ef9-96fe-3f7bbad788b6","system_id":"levelo_inurba_marseille","lat":43.23192,"lon":5.39976,"is_reserved":false,"is_disabled":false,"rental_uris":{"android":"levelo://app?vid=acc2caf7-ee60-4ef9-96fe-3f7bbad788b6","ios":"levelo://app?vid=acc2caf7-ee60-4ef9-96fe-3f7bbad788b6"},"vehicle_type_id":"4","last_reported":1738343255,"current_range_meters":33200,"station_id":"ce4bhn12rcd13ifvqgqg","pricing_plan_id":"cebpf4jnsgd1na2vs0mg"},{"bike_id":"37a316fb-b3fd-47c4-b337-ae3ed2613770","system_id":"levelo_inurba_marseille","lat":43.2587,"lon":5.39911,"is_reserved":false,"is_disabled":false,"rental_uris":{"android":"levelo://app?vid=37a316fb-b3fd-47c4-b337-ae3ed2613770","ios":"levelo://app?vid=37a316fb-b3fd-47c4-b337-ae3ed2613770"},"vehicle_type_id":"4","last_reported":1738343255,"current_range_meters":38400,"station_id":"ce4bhl92rcd13ifvqghg","pricing_plan_id":"cebpf4jnsgd1na2vs0mg"},{"bike_id":"f086b070-9af2-4a12-baa6-4f5148d2f614","system_id":"levelo_inurba_marseille","lat":43.27842,"lon":5.40652,"is_reserved":false,"is_disabled":false,"rental_uris":{"android":"levelo://app?vid=f086b070-9af2-4a12-baa6-4f5148d2f614","ios":"levelo://app?vid=f086b070-9af2-4a12-baa6-4f5148d2f614"},"vehicle_type_id":"4","last_reported":1738343255,"current_range_meters":19200,"station_id":"","pricing_plan_id":"cebpf4jnsgd1na2vs0mg"},{"bike_id":"f1531728-b8ea-45f6-b10e-94dd52db4db3","system_id":"levelo_inurba_marseille","lat":43.3133,"lon":5.39697,"is_reserved":false,"is_disabled":false,"rental_uris":{"android":"levelo://app?vid=f1531728-b8ea-45f6-b10e-94dd52db4db3","ios":"levelo://app?vid=f1531728-b8ea-45f6-b10e-94dd52db4db3"},"vehicle_type_id":"4","last_reported":1738343255,"current_range_meters":38800,"station_id":"ce4bgvp2rcd13ifvqcu0","pricing_plan_id":"cebpf4jnsgd1na2vs0mg"},{"bike_id":"97720b80-9b73-412f-b364-307a0f334978","system_id":"levelo_inurba_marseille","lat":43.26789,"lon":5.39433,"is_reserved":false,"is_disabled":false,"rental_uris":{"android":"levelo://app?vid=97720b80-9b73-412f-b364-307a0f334978","ios":"levelo://app?vid=97720b80-9b73-412f-b364-307a0f334978"},"vehicle_type_id":"4","last_reported":1738343255,"current_range_meters":17600,"station_id":"ce4bhh12rcd13ifvqfg0","pricing_plan_id":"cebpf4jnsgd1na2vs0mg"},{"bike_id":"f2b4e99c-b9a5-4459-85c5-d62126143e0f","system_id":"levelo_inurba_marseille","lat":43.2997,"lon":5.38495,"is_reserved":false,"is_disabled":false,"rental_uris":{"android":"levelo://app?vid=f2b4e99c-b9a5-4459-85c5-d62126143e0f","ios":"levelo://app?vid=f2b4e99c-b9a5-4459-85c5-d62126143e0f"},"vehicle_type_id":"4","last_reported":1738343255,"current_range_meters":38800,"station_id":"ce4bgj92rcd13ifvqbd0","pricing_plan_id":"cebpf4jnsgd1na2vs0mg"},{"bike_id":"655de219-5239-4620-8ea1-e2d087672467","system_id":"levelo_inurba_marseille","lat":43.26786,"lon":5.39419,"is_reserved":false,"is_disabled":false,"rental_uris":{"android":"levelo://app?vid=655de219-5239-4620-8ea1-e2d087672467","ios":"levelo://app?vid=655de219-5239-4620-8ea1-e2d087672467"},"vehicle_type_id":"4","last_reported":1738343255,"current_range_meters":26800,"station_id":"ce4bhh12rcd13ifvqfg0","pricing_plan_id":"cebpf4jnsgd1na2vs0mg"},{"bike_id":"013bfe64-6314-4103-8753-ed1e453c4bb8","system_id":"levelo_inurba_marseille","lat":43.28033,"lon":5.36946,"is_reserved":false,"is_disabled":false,"rental_uris":{"android":"levelo://app?vid=013bfe64-6314-4103-8753-ed1e453c4bb8","ios":"levelo://app?vid=013bfe64-6314-4103-8753-ed1e453c4bb8"},"vehicle_type_id":"4","last_reported":1738343255,"current_range_meters":2800,"station_id":"ce4bha12rcd13ifvqef0","pricing_plan_id":"cebpf4jnsgd1na2vs0mg"},{"bike_id":"e51c55a3-ae94-4062-8f8f-e80977881ffe","system_id":"levelo_inurba_marseille","lat":43.29078,"lon":5.37158,"is_reserved":false,"is_disabled":false,"rental_uris":{"android":"levelo://app?vid=e51c55a3-ae94-4062-8f8f-e80977881ffe","ios":"levelo://app?vid=e51c55a3-ae94-4062-8f8f-e80977881ffe"},"vehicle_type_id":"4","last_reported":1738343255,"current_range_meters":18000,"station_id":"ce4bh5p2rcd13ifvqe4g","pricing_plan_id":"cebpf4jnsgd1na2vs0mg"},{"bike_id":"1c5f32a5-3fae-4ceb-8b01-7113aed4134b","system_id":"levelo_inurba_marseille","lat":43.25579,"lon":5.38234,"is_reserved":false,"is_disabled":false,"rental_uris":{"android":"levelo://app?vid=1c5f32a5-3fae-4ceb-8b01-7113aed4134b","ios":"levelo://app?vid=1c5f32a5-3fae-4ceb-8b01-7113aed4134b"},"vehicle_type_id":"4","last_reported":1738343255,"current_range_meters":10000,"station_id":"ce4bhih2rcd13ifvqfs0","pricing_plan_id":"cebpf4jnsgd1na2vs0mg"},{"bike_id":"fe62d850-1039-44bc-8978-312a707acb18","system_id":"levelo_inurba_marseille","lat":43.27058,"lon":5.40266,"is_reserved":false,"is_disabled":false,"rental_uris":{"android":"levelo://app?vid=fe62d850-1039-44bc-8978-312a707acb18","ios":"levelo://app?vid=fe62d850-1039-44bc-8978-312a707acb18"},"vehicle_type_id":"4","last_reported":1738343255,"current_range_meters":6800,"station_id":"ce4bhk92rcd13ifvqgc0","pricing_plan_id":"cebpf4jnsgd1na2vs0mg"},{"bike_id":"fa007fe0-3dc1-405c-9d10-9879e2200643","system_id":"levelo_inurba_marseille","lat":43.32329,"lon":5.4062,"is_reserved":false,"is_disabled":false,"rental_uris":{"android":"levelo://app?vid=fa007fe0-3dc1-405c-9d10-9879e2200643","ios":"levelo://app?vid=fa007fe0-3dc1-405c-9d10-9879e2200643"},"vehicle_type_id":"4","last_reported":1738343255,"current_range_meters":24000,"station_id":"ce4bhq92rcd13ifvqhjg","pricing_plan_id":"cebpf4jnsgd1na2vs0mg"},{"bike_id":"16fbd2a3-3c7a-4395-b70a-b20ee68eae42","system_id":"levelo_inurba_marseille","lat":43.292664,"lon":5.384433,"is_reserved":false,"is_disabled":false,"rental_uris":{"android":"levelo://app?vid=16fbd2a3-3c7a-4395-b70a-b20ee68eae42","ios":"levelo://app?vid=16fbd2a3-3c7a-4395-b70a-b20ee68eae42"},"vehicle_type_id":"4","last_reported":1738343255,"current_range_meters":16800,"station_id":"ce4bh692rcd13ifvqea0","pricing_plan_id":"cebpf4jnsgd1na2vs0mg"},{"bike_id":"e88eb1f3-8ae0-45d5-b478-7fa0e88e8228","system_id":"levelo_inurba_marseille","lat":43.32286,"lon":5.38282,"is_reserved":false,"is_disabled":false,"rental_uris":{"android":"levelo://app?vid=e88eb1f3-8ae0-45d5-b478-7fa0e88e8228","ios":"levelo://app?vid=e88eb1f3-8ae0-45d5-b478-7fa0e88e8228"},"vehicle_type_id":"4","last_reported":1738343255,"current_range_meters":37600,"station_id":"ce4bhr12rcd13ifvqhqg","pricing_plan_id":"cebpf4jnsgd1na2vs0mg"},{"bike_id":"0fc8ef95-5e15-4825-b91c-cf0a986a3e9e","system_id":"levelo_inurba_marseille","lat":43.23179,"lon":5.39998,"is_reserved":false,"is_disabled":false,"rental_uris":{"android":"levelo://app?vid=0fc8ef95-5e15-4825-b91c-cf0a986a3e9e","ios":"levelo://app?vid=0fc8ef95-5e15-4825-b91c-cf0a986a3e9e"},"vehicle_type_id":"4","last_reported":1738343255,"current_range_meters":24000,"station_id":"ce4bhn12rcd13ifvqgqg","pricing_plan_id":"cebpf4jnsgd1na2vs0mg"},{"bike_id":"fe11ec81-8e43-46aa-9848-81a5bac57eb7","system_id":"levelo_inurba_marseille","lat":43.31072,"lon":5.38382,"is_reserved":false,"is_disabled":false,"rental_uris":{"android":"levelo://app?vid=fe11ec81-8e43-46aa-9848-81a5bac57eb7","ios":"levelo://app?vid=fe11ec81-8e43-46aa-9848-81a5bac57eb7"},"vehicle_type_id":"4","last_reported":1738343255,"current_range_meters":10800,"station_id":"ce4bgv92rcd13ifvqcr0","pricing_plan_id":"cebpf4jnsgd1na2vs0mg"},{"bike_id":"1cd2b6ef-71af-460d-98bc-825141d22fb4","system_id":"levelo_inurba_marseille","lat":43.29794,"lon":5.38087,"is_reserved":false,"is_disabled":false,"rental_uris":{"android":"levelo://app?vid=1cd2b6ef-71af-460d-98bc-825141d22fb4","ios":"levelo://app?vid=1cd2b6ef-71af-460d-98bc-825141d22fb4"},"vehicle_type_id":"4","last_reported":1738343255,"current_range_meters":16800,"station_id":"ce4bgip2rcd13ifvqbb0","pricing_plan_id":"cebpf4jnsgd1na2vs0mg"},{"bike_id":"c69d8d2c-4eec-4892-a6bc-4cd0964c6945","system_id":"levelo_inurba_marseille","lat":43.29269,"lon":5.38453,"is_reserved":false,"is_disabled":false,"rental_uris":{"android":"levelo://app?vid=c69d8d2c-4eec-4892-a6bc-4cd0964c6945","ios":"levelo://app?vid=c69d8d2c-4eec-4892-a6bc-4cd0964c6945"},"vehicle_type_id":"4","last_reported":1738343255,"current_range_meters":36800,"station_id":"ce4bh692rcd13ifvqea0","pricing_plan_id":"cebpf4jnsgd1na2vs0mg"},{"bike_id":"4a5caf8b-7a2f-4ca1-9845-cd1b8c362475","system_id":"levelo_inurba_marseille","lat":43.29336,"lon":5.40182,"is_reserved":false,"is_disabled":false,"rental_uris":{"android":"levelo://app?vid=4a5caf8b-7a2f-4ca1-9845-cd1b8c362475","ios":"levelo://app?vid=4a5caf8b-7a2f-4ca1-9845-cd1b8c362475"},"vehicle_type_id":"4","last_reported":1738343255,"current_range_meters":38400,"station_id":"ce4bh312rcd13ifvqdk0","pricing_plan_id":"cebpf4jnsgd1na2vs0mg"},{"bike_id":"df992793-2c1e-4a77-bff3-45b59f606f19","system_id":"levelo_inurba_marseille","lat":43.30882,"lon":5.37194,"is_reserved":false,"is_disabled":true,"rental_uris":{"android":"levelo://app?vid=df992793-2c1e-4a77-bff3-45b59f606f19","ios":"levelo://app?vid=df992793-2c1e-4a77-bff3-45b59f606f19"},"vehicle_type_id":"4","last_reported":1738343255,"current_range_meters":38800,"station_id":"ce4bguh2rcd13ifvqckg","pricing_plan_id":"cebpf4jnsgd1na2vs0mg"},{"bike_id":"e76772ad-4d7b-4743-aa72-133535f3d9df","system_id":"levelo_inurba_marseille","lat":43.296239,"lon":5.377045,"is_reserved":false,"is_disabled":true,"rental_uris":{"android":"levelo://app?vid=e76772ad-4d7b-4743-aa72-133535f3d9df","ios":"levelo://app?vid=e76772ad-4d7b-4743-aa72-133535f3d9df"},"vehicle_type_id":"4","last_reported":1738343255,"current_range_meters":0,"station_id":"","pricing_plan_id":"cebpf4jnsgd1na2vs0mg"},{"bike_id":"ab2c796a-c23b-4a3a-9534-777b873d6a05","system_id":"levelo_inurba_marseille","lat":43.24166,"lon":5.36402,"is_reserved":false,"is_disabled":false,"rental_uris":{"android":"levelo://app?vid=ab2c796a-c23b-4a3a-9534-777b873d6a05","ios":"levelo://app?vid=ab2c796a-c23b-4a3a-9534-777b873d6a05"},"vehicle_type_id":"4","last_reported":1738343255,"current_range_meters":36400,"station_id":"cpo36qri1sfpv3e86is0","pricing_plan_id":"cebpf4jnsgd1na2vs0mg"},{"bike_id":"1b857ce7-a20c-4770-9790-7268dce5d355","system_id":"levelo_inurba_marseille","lat":43.284703,"lon":5.38424,"is_reserved":false,"is_disabled":true,"rental_uris":{"android":"levelo://app?vid=1b857ce7-a20c-4770-9790-7268dce5d355","ios":"levelo://app?vid=1b857ce7-a20c-4770-9790-7268dce5d355"},"vehicle_type_id":"4","last_reported":1738343255,"current_range_meters":0,"station_id":"ce4bh512rcd13ifvqe3g","pricing_plan_id":"cebpf4jnsgd1na2vs0mg"},{"bike_id":"0e650bc1-89cb-4640-9012-626846857fe5","system_id":"levelo_inurba_marseille","lat":43.28425,"lon":5.39166,"is_reserved":false,"is_disabled":false,"rental_uris":{"android":"levelo://app?vid=0e650bc1-89cb-4640-9012-626846857fe5","ios":"levelo://app?vid=0e650bc1-89cb-4640-9012-626846857fe5"},"vehicle_type_id":"4","last_reported":1738343255,"current_range_meters":24800,"station_id":"ce4bhoh2rcd13ifvqh5g","pricing_plan_id":"cebpf4jnsgd1na2vs0mg"},{"bike_id":"58feef8f-17b5-470d-8151-c7a13f0dbe24","system_id":"levelo_inurba_marseille","lat":43.28426,"lon":5.37521,"is_reserved":false,"is_disabled":true,"rental_uris":{"android":"levelo://app?vid=58feef8f-17b5-470d-8151-c7a13f0dbe24","ios":"levelo://app?vid=58feef8f-17b5-470d-8151-c7a13f0dbe24"},"vehicle_type_id":"4","last_reported":1738343255,"current_range_meters":0,"station_id":"ce4bh412rcd13ifvqds0","pricing_plan_id":"cebpf4jnsgd1na2vs0mg"},{"bike_id":"3756559a-a7d3-4a43-beb0-74f82626ccce","system_id":"levelo_inurba_marseille","lat":43.23958,"lon":5.36642,"is_reserved":false,"is_disabled":false,"rental_uris":{"android":"levelo://app?vid=3756559a-a7d3-4a43-beb0-74f82626ccce","ios":"levelo://app?vid=3756559a-a7d3-4a43-beb0-74f82626ccce"},"vehicle_type_id":"4","last_reported":1738343255,"current_range_meters":29600,"station_id":"ce4bhi12rcd13ifvqfp0","pricing_plan_id":"cebpf4jnsgd1na2vs0mg"},{"bike_id":"4453e33c-51ab-42cc-b275-60a2c345fb5c","system_id":"levelo_inurba_marseille","lat":43.29006,"lon":5.35618,"is_reserved":false,"is_disabled":false,"rental_uris":{"android":"levelo://app?vid=4453e33c-51ab-42cc-b275-60a2c345fb5c","ios":"levelo://app?vid=4453e33c-51ab-42cc-b275-60a2c345fb5c"},"vehicle_type_id":"4","last_reported":1738343255,"current_range_meters":28400,"station_id":"ce4bhb92rcd13ifvqen0","pricing_plan_id":"cebpf4jnsgd1na2vs0mg"},{"bike_id":"fc2dee61-6a5e-41ce-a75c-e2029dcb39bc","system_id":"levelo_inurba_marseille","lat":43.26559,"lon":5.3729,"is_reserved":false,"is_disabled":false,"rental_uris":{"android":"levelo://app?vid=fc2dee61-6a5e-41ce-a75c-e2029dcb39bc","ios":"levelo://app?vid=fc2dee61-6a5e-41ce-a75c-e2029dcb39bc"},"vehicle_type_id":"4","last_reported":1738343255,"current_range_meters":12800,"station_id":"ce4bhg12rcd13ifvqf70","pricing_plan_id":"cebpf4jnsgd1na2vs0mg"},{"bike_id":"67bb732b-046e-4e3a-b983-8a4155db64fe","system_id":"levelo_inurba_marseille","lat":43.29864,"lon":5.36328,"is_reserved":false,"is_disabled":false,"rental_uris":{"android":"levelo://app?vid=67bb732b-046e-4e3a-b983-8a4155db64fe","ios":"levelo://app?vid=67bb732b-046e-4e3a-b983-8a4155db64fe"},"vehicle_type_id":"4","last_reported":1738343255,"current_range_meters":24800,"station_id":"ce4bgpp2rcd13ifvqc3g","pricing_plan_id":"cebpf4jnsgd1na2vs0mg"},{"bike_id":"89362659-b210-488d-9ea3-de3d2e673fc2","system_id":"levelo_inurba_marseille","lat":43.2907,"lon":5.37163,"is_reserved":false,"is_disabled":false,"rental_uris":{"android":"levelo://app?vid=89362659-b210-488d-9ea3-de3d2e673fc2","ios":"levelo://app?vid=89362659-b210-488d-9ea3-de3d2e673fc2"},"vehicle_type_id":"4","last_reported":1738343255,"current_range_meters":34000,"station_id":"ce4bh5p2rcd13ifvqe4g","pricing_plan_id":"cebpf4jnsgd1na2vs0mg"},{"bike_id":"f5192a48-f127-416f-ac25-5dcd6cb43014","system_id":"levelo_inurba_marseille","lat":43.31076,"lon":5.42458,"is_reserved":false,"is_disabled":true,"rental_uris":{"android":"levelo://app?vid=f5192a48-f127-416f-ac25-5dcd6cb43014","ios":"levelo://app?vid=f5192a48-f127-416f-ac25-5dcd6cb43014"},"vehicle_type_id":"4","last_reported":1738343255,"current_range_meters":0,"station_id":"ce4bhp92rcd13ifvqhag","pricing_plan_id":"cebpf4jnsgd1na2vs0mg"},{"bike_id":"e8e1f7c6-d773-4c38-bfcc-4a6d773355ce","system_id":"levelo_inurba_marseille","lat":43.22933,"lon":5.35399,"is_reserved":false,"is_disabled":false,"rental_uris":{"android":"levelo://app?vid=e8e1f7c6-d773-4c38-bfcc-4a6d773355ce","ios":"levelo://app?vid=e8e1f7c6-d773-4c38-bfcc-4a6d773355ce"},"vehicle_type_id":"4","last_reported":1738343255,"current_range_meters":38800,"station_id":"cpo3532slgdg3j2ikp40","pricing_plan_id":"cebpf4jnsgd1na2vs0mg"},{"bike_id":"35391981-bae2-40fe-ac7d-1d915c675ae0","system_id":"levelo_inurba_marseille","lat":43.28941,"lon":5.36641,"is_reserved":false,"is_disabled":false,"rental_uris":{"android":"levelo://app?vid=35391981-bae2-40fe-ac7d-1d915c675ae0","ios":"levelo://app?vid=35391981-bae2-40fe-ac7d-1d915c675ae0"},"vehicle_type_id":"4","last_reported":1738343255,"current_range_meters":18000,"station_id":"ce4bhap2rcd13ifvqek0","pricing_plan_id":"cebpf4jnsgd1na2vs0mg"},{"bike_id":"c8c689bb-2ae1-4506-84df-a14d4cabcf2e","system_id":"levelo_inurba_marseille","lat":43.24783,"lon":5.37455,"is_reserved":false,"is_disabled":false,"rental_uris":{"android":"levelo://app?vid=c8c689bb-2ae1-4506-84df-a14d4cabcf2e","ios":"levelo://app?vid=c8c689bb-2ae1-4506-84df-a14d4cabcf2e"},"vehicle_type_id":"4","last_reported":1738343255,"current_range_meters":10000,"station_id":"ce4bhgh2rcd13ifvqfb0","pricing_plan_id":"cebpf4jnsgd1na2vs0mg"},{"bike_id":"e3d8a223-fb6b-449d-8e45-ad3295748cda","system_id":"levelo_inurba_marseille","lat":43.29581,"lon":5.38156,"is_reserved":false,"is_disabled":false,"rental_uris":{"android":"levelo://app?vid=e3d8a223-fb6b-449d-8e45-ad3295748cda","ios":"levelo://app?vid=e3d8a223-fb6b-449d-8e45-ad3295748cda"},"vehicle_type_id":"4","last_reported":1738343255,"current_range_meters":33200,"station_id":"ce4bgl12rcd13ifvqbo0","pricing_plan_id":"cebpf4jnsgd1na2vs0mg"},{"bike_id":"152f7a67-dc5c-490f-9b41-c78b0708f79f","system_id":"levelo_inurba_marseille","lat":43.29298,"lon":5.37463,"is_reserved":false,"is_disabled":false,"rental_uris":{"android":"levelo://app?vid=152f7a67-dc5c-490f-9b41-c78b0708f79f","ios":"levelo://app?vid=152f7a67-dc5c-490f-9b41-c78b0708f79f"},"vehicle_type_id":"4","last_reported":1738343255,"current_range_meters":6800,"station_id":"ce4bgi12rcd13ifvqb70","pricing_plan_id":"cebpf4jnsgd1na2vs0mg"},{"bike_id":"446cfbd8-380d-483d-82ba-61ff47e31d05","system_id":"levelo_inurba_marseille","lat":43.292581,"lon":5.384376,"is_reserved":false,"is_disabled":true,"rental_uris":{"android":"levelo://app?vid=446cfbd8-380d-483d-82ba-61ff47e31d05","ios":"levelo://app?vid=446cfbd8-380d-483d-82ba-61ff47e31d05"},"vehicle_type_id":"4","last_reported":1738343255,"current_range_meters":3600,"station_id":"ce4bh692rcd13ifvqea0","pricing_plan_id":"cebpf4jnsgd1na2vs0mg"},{"bike_id":"15a4cde9-9176-4b0a-baea-7f4f797bb1d5","system_id":"levelo_inurba_marseille","lat":43.30177,"lon":5.36617,"is_reserved":false,"is_disabled":false,"rental_uris":{"android":"levelo://app?vid=15a4cde9-9176-4b0a-baea-7f4f797bb1d5","ios":"levelo://app?vid=15a4cde9-9176-4b0a-baea-7f4f797bb1d5"},"vehicle_type_id":"4","last_reported":1738343255,"current_range_meters":39200,"station_id":"ce4bgrh2rcd13ifvqc8g","pricing_plan_id":"cebpf4jnsgd1na2vs0mg"},{"bike_id":"3e768e8a-2566-477b-bca9-89fd7a0bf3af","system_id":"levelo_inurba_marseille","lat":43.29261,"lon":5.38444,"is_reserved":false,"is_disabled":false,"rental_uris":{"android":"levelo://app?vid=3e768e8a-2566-477b-bca9-89fd7a0bf3af","ios":"levelo://app?vid=3e768e8a-2566-477b-bca9-89fd7a0bf3af"},"vehicle_type_id":"4","last_reported":1738343255,"current_range_meters":32400,"station_id":"ce4bh692rcd13ifvqea0","pricing_plan_id":"cebpf4jnsgd1na2vs0mg"},{"bike_id":"60335d1b-4a92-46bd-8eca-dffb02768c78","system_id":"levelo_inurba_marseille","lat":43.2501,"lon":5.38946,"is_reserved":false,"is_disabled":false,"rental_uris":{"android":"levelo://app?vid=60335d1b-4a92-46bd-8eca-dffb02768c78","ios":"levelo://app?vid=60335d1b-4a92-46bd-8eca-dffb02768c78"},"vehicle_type_id":"4","last_reported":1738343255,"current_range_meters":14800,"station_id":"ce4bhgp2rcd13ifvqfd0","pricing_plan_id":"cebpf4jnsgd1na2vs0mg"},{"bike_id":"60911234-26e8-4f42-acbb-88b4c360ca2e","system_id":"levelo_inurba_marseille","lat":43.25014,"lon":5.38922,"is_reserved":false,"is_disabled":false,"rental_uris":{"android":"levelo://app?vid=60911234-26e8-4f42-acbb-88b4c360ca2e","ios":"levelo://app?vid=60911234-26e8-4f42-acbb-88b4c360ca2e"},"vehicle_type_id":"4","last_reported":1738343255,"current_range_meters":30400,"station_id":"ce4bhgp2rcd13ifvqfd0","pricing_plan_id":"cebpf4jnsgd1na2vs0mg"},{"bike_id":"7ddb10e5-2681-46b9-93c2-8ca31e7fa1e3","system_id":"levelo_inurba_marseille","lat":43.29304,"lon":5.3746,"is_reserved":false,"is_disabled":false,"rental_uris":{"android":"levelo://app?vid=7ddb10e5-2681-46b9-93c2-8ca31e7fa1e3","ios":"levelo://app?vid=7ddb10e5-2681-46b9-93c2-8ca31e7fa1e3"},"vehicle_type_id":"4","last_reported":1738343255,"current_range_meters":30400,"station_id":"ce4bgi12rcd13ifvqb70","pricing_plan_id":"cebpf4jnsgd1na2vs0mg"},{"bike_id":"070218cf-5f55-4a87-b307-d0bbb1caf6f4","system_id":"levelo_inurba_marseille","lat":43.23189,"lon":5.39972,"is_reserved":false,"is_disabled":false,"rental_uris":{"android":"levelo://app?vid=070218cf-5f55-4a87-b307-d0bbb1caf6f4","ios":"levelo://app?vid=070218cf-5f55-4a87-b307-d0bbb1caf6f4"},"vehicle_type_id":"4","last_reported":1738343255,"current_range_meters":38800,"station_id":"ce4bhn12rcd13ifvqgqg","pricing_plan_id":"cebpf4jnsgd1na2vs0mg"},{"bike_id":"ab9b1086-32a8-4273-a69f-981f121bcee0","system_id":"levelo_inurba_marseille","lat":43.2988,"lon":5.39737,"is_reserved":false,"is_disabled":false,"rental_uris":{"android":"levelo://app?vid=ab9b1086-32a8-4273-a69f-981f121bcee0","ios":"levelo://app?vid=ab9b1086-32a8-4273-a69f-981f121bcee0"},"vehicle_type_id":"4","last_reported":1738343255,"current_range_meters":32000,"station_id":"ce4bh0h2rcd13ifvqd50","pricing_plan_id":"cebpf4jnsgd1na2vs0mg"},{"bike_id":"44fd3688-5e46-4d53-a261-d3b874bbb592","system_id":"levelo_inurba_marseille","lat":43.24389,"lon":5.37063,"is_reserved":false,"is_disabled":false,"rental_uris":{"android":"levelo://app?vid=44fd3688-5e46-4d53-a261-d3b874bbb592","ios":"levelo://app?vid=44fd3688-5e46-4d53-a261-d3b874bbb592"},"vehicle_type_id":"4","last_reported":1738343255,"current_range_meters":34000,"station_id":"ce4bhhh2rcd13ifvqfk0","pricing_plan_id":"cebpf4jnsgd1na2vs0mg"},{"bike_id":"71f34f72-d3b7-46a5-9bd4-1fe057b3152f","system_id":"levelo_inurba_marseille","lat":43.22931,"lon":5.35399,"is_reserved":false,"is_disabled":false,"rental_uris":{"android":"levelo://app?vid=71f34f72-d3b7-46a5-9bd4-1fe057b3152f","ios":"levelo://app?vid=71f34f72-d3b7-46a5-9bd4-1fe057b3152f"},"vehicle_type_id":"4","last_reported":1738343255,"current_range_meters":38800,"station_id":"cpo3532slgdg3j2ikp40","pricing_plan_id":"cebpf4jnsgd1na2vs0mg"},{"bike_id":"dfa46347-f856-4215-88ea-22319ef195be","system_id":"levelo_inurba_marseille","lat":43.30931,"lon":5.40156,"is_reserved":false,"is_disabled":false,"rental_uris":{"android":"levelo://app?vid=dfa46347-f856-4215-88ea-22319ef195be","ios":"levelo://app?vid=dfa46347-f856-4215-88ea-22319ef195be"},"vehicle_type_id":"4","last_reported":1738343255,"current_range_meters":16800,"station_id":"ce4bgvp2rcd13ifvqct0","pricing_plan_id":"cebpf4jnsgd1na2vs0mg"},{"bike_id":"20029bdd-9f9c-4ff9-86e4-5ba6ed30f46a","system_id":"levelo_inurba_marseille","lat":43.23148,"lon":5.43705,"is_reserved":false,"is_disabled":true,"rental_uris":{"android":"levelo://app?vid=20029bdd-9f9c-4ff9-86e4-5ba6ed30f46a","ios":"levelo://app?vid=20029bdd-9f9c-4ff9-86e4-5ba6ed30f46a"},"vehicle_type_id":"4","last_reported":1738343255,"current_range_meters":0,"station_id":"ce4bhmp2rcd13ifvqgog","pricing_plan_id":"cebpf4jnsgd1na2vs0mg"},{"bike_id":"9a420f87-7d7e-4781-b326-9c09400ca210","system_id":"levelo_inurba_marseille","lat":43.26215,"lon":5.37444,"is_reserved":false,"is_disabled":false,"rental_uris":{"android":"levelo://app?vid=9a420f87-7d7e-4781-b326-9c09400ca210","ios":"levelo://app?vid=9a420f87-7d7e-4781-b326-9c09400ca210"},"vehicle_type_id":"4","last_reported":1738343255,"current_range_meters":39200,"station_id":"ce4bhgp2rcd13ifvqfc0","pricing_plan_id":"cebpf4jnsgd1na2vs0mg"},{"bike_id":"3d4b3e0a-4326-4344-bb72-09251a157a11","system_id":"levelo_inurba_marseille","lat":43.30539,"lon":5.36535,"is_reserved":false,"is_disabled":true,"rental_uris":{"android":"levelo://app?vid=3d4b3e0a-4326-4344-bb72-09251a157a11","ios":"levelo://app?vid=3d4b3e0a-4326-4344-bb72-09251a157a11"},"vehicle_type_id":"4","last_reported":1738343255,"current_range_meters":32400,"station_id":"ce4bgs12rcd13ifvqcag","pricing_plan_id":"cebpf4jnsgd1na2vs0mg"},{"bike_id":"c7b7d5dc-fcd4-4974-ac80-02e658adb2bb","system_id":"levelo_inurba_marseille","lat":43.30174,"lon":5.3812,"is_reserved":false,"is_disabled":false,"rental_uris":{"android":"levelo://app?vid=c7b7d5dc-fcd4-4974-ac80-02e658adb2bb","ios":"levelo://app?vid=c7b7d5dc-fcd4-4974-ac80-02e658adb2bb"},"vehicle_type_id":"4","last_reported":1738343255,"current_range_meters":38000,"station_id":"ce4bgjp2rcd13ifvqbh0","pricing_plan_id":"cebpf4jnsgd1na2vs0mg"},{"bike_id":"c116e3f6-7077-4f84-b653-a0878ae93f06","system_id":"levelo_inurba_marseille","lat":43.25583,"lon":5.38242,"is_reserved":false,"is_disabled":false,"rental_uris":{"android":"levelo://app?vid=c116e3f6-7077-4f84-b653-a0878ae93f06","ios":"levelo://app?vid=c116e3f6-7077-4f84-b653-a0878ae93f06"},"vehicle_type_id":"4","last_reported":1738343255,"current_range_meters":39200,"station_id":"ce4bhih2rcd13ifvqfs0","pricing_plan_id":"cebpf4jnsgd1na2vs0mg"},{"bike_id":"05865aae-e7aa-4436-809a-640be4d9286b","system_id":"levelo_inurba_marseille","lat":43.30162,"lon":5.38101,"is_reserved":false,"is_disabled":false,"rental_uris":{"android":"levelo://app?vid=05865aae-e7aa-4436-809a-640be4d9286b","ios":"levelo://app?vid=05865aae-e7aa-4436-809a-640be4d9286b"},"vehicle_type_id":"4","last_reported":1738343255,"current_range_meters":26800,"station_id":"ce4bgjp2rcd13ifvqbh0","pricing_plan_id":"cebpf4jnsgd1na2vs0mg"},{"bike_id":"491407c5-a175-44f0-86fc-0f4ccadf82e3","system_id":"levelo_inurba_marseille","lat":43.337444,"lon":5.374475,"is_reserved":false,"is_disabled":true,"rental_uris":{"android":"levelo://app?vid=491407c5-a175-44f0-86fc-0f4ccadf82e3","ios":"levelo://app?vid=491407c5-a175-44f0-86fc-0f4ccadf82e3"},"vehicle_type_id":"4","last_reported":1738343255,"current_range_meters":0,"station_id":"","pricing_plan_id":"cebpf4jnsgd1na2vs0mg"},{"bike_id":"ce7e4316-25a0-41be-9671-330b181493fd","system_id":"levelo_inurba_marseille","lat":43.26809,"lon":5.40283,"is_reserved":false,"is_disabled":false,"rental_uris":{"android":"levelo://app?vid=ce7e4316-25a0-41be-9671-330b181493fd","ios":"levelo://app?vid=ce7e4316-25a0-41be-9671-330b181493fd"},"vehicle_type_id":"4","last_reported":1738343255,"current_range_meters":36000,"station_id":"ce501612rcd8frsf0b60","pricing_plan_id":"cebpf4jnsgd1na2vs0mg"},{"bike_id":"b28d7184-1266-4471-abe6-13723f5fd964","system_id":"levelo_inurba_marseille","lat":43.32739,"lon":5.39185,"is_reserved":false,"is_disabled":false,"rental_uris":{"android":"levelo://app?vid=b28d7184-1266-4471-abe6-13723f5fd964","ios":"levelo://app?vid=b28d7184-1266-4471-abe6-13723f5fd964"},"vehicle_type_id":"4","last_reported":1738343255,"current_range_meters":4800,"station_id":"","pricing_plan_id":"cebpf4jnsgd1na2vs0mg"},{"bike_id":"41f3d4b4-da39-4dee-aa4a-0604fb9dd073","system_id":"levelo_inurba_marseille","lat":43.29581,"lon":5.36745,"is_reserved":false,"is_disabled":false,"rental_uris":{"android":"levelo://app?vid=41f3d4b4-da39-4dee-aa4a-0604fb9dd073","ios":"levelo://app?vid=41f3d4b4-da39-4dee-aa4a-0604fb9dd073"},"vehicle_type_id":"4","last_reported":1738343255,"current_range_meters":38800,"station_id":"ce4bgph2rcd13ifvqc2g","pricing_plan_id":"cebpf4jnsgd1na2vs0mg"},{"bike_id":"93904037-b415-459b-a13a-3b1079cdcb77","system_id":"levelo_inurba_marseille","lat":43.29788,"lon":5.39353,"is_reserved":false,"is_disabled":false,"rental_uris":{"android":"levelo://app?vid=93904037-b415-459b-a13a-3b1079cdcb77","ios":"levelo://app?vid=93904037-b415-459b-a13a-3b1079cdcb77"},"vehicle_type_id":"4","last_reported":1738343255,"current_range_meters":20800,"station_id":"chh1huq6cuj3fo74tm60","pricing_plan_id":"cebpf4jnsgd1na2vs0mg"},{"bike_id":"95aee25f-5c57-4ea4-ae9b-fd75ffb2acea","system_id":"levelo_inurba_marseille","lat":43.2319,"lon":5.39974,"is_reserved":false,"is_disabled":false,"rental_uris":{"android":"levelo://app?vid=95aee25f-5c57-4ea4-ae9b-fd75ffb2acea","ios":"levelo://app?vid=95aee25f-5c57-4ea4-ae9b-fd75ffb2acea"},"vehicle_type_id":"4","last_reported":1738343255,"current_range_meters":28000,"station_id":"ce4bhn12rcd13ifvqgqg","pricing_plan_id":"cebpf4jnsgd1na2vs0mg"},{"bike_id":"528fe304-774b-4f5e-99b0-3a6df52f7bd5","system_id":"levelo_inurba_marseille","lat":43.26946,"lon":5.402531,"is_reserved":false,"is_disabled":false,"rental_uris":{"android":"levelo://app?vid=528fe304-774b-4f5e-99b0-3a6df52f7bd5","ios":"levelo://app?vid=528fe304-774b-4f5e-99b0-3a6df52f7bd5"},"vehicle_type_id":"4","last_reported":1738343255,"current_range_meters":24800,"station_id":"cjm6bp8fraef2m0cb0m0","pricing_plan_id":"cebpf4jnsgd1na2vs0mg"},{"bike_id":"aad00494-9dbb-4ed4-a364-db735848be40","system_id":"levelo_inurba_marseille","lat":43.30134,"lon":5.38785,"is_reserved":false,"is_disabled":false,"rental_uris":{"android":"levelo://app?vid=aad00494-9dbb-4ed4-a364-db735848be40","ios":"levelo://app?vid=aad00494-9dbb-4ed4-a364-db735848be40"},"vehicle_type_id":"4","last_reported":1738343255,"current_range_meters":27600,"station_id":"ce4bghh2rcd13ifvqb60","pricing_plan_id":"cebpf4jnsgd1na2vs0mg"},{"bike_id":"9bd862b5-41ed-415b-908f-0b3f930ba20f","system_id":"levelo_inurba_marseille","lat":43.28703,"lon":5.37385,"is_reserved":false,"is_disabled":false,"rental_uris":{"android":"levelo://app?vid=9bd862b5-41ed-415b-908f-0b3f930ba20f","ios":"levelo://app?vid=9bd862b5-41ed-415b-908f-0b3f930ba20f"},"vehicle_type_id":"4","last_reported":1738343255,"current_range_meters":27200,"station_id":"ce4bh3p2rcd13ifvqdq0","pricing_plan_id":"cebpf4jnsgd1na2vs0mg"},{"bike_id":"ce99246d-5016-4980-b5d4-6a23af083798","system_id":"levelo_inurba_marseille","lat":43.30097,"lon":5.39071,"is_reserved":false,"is_disabled":false,"rental_uris":{"android":"levelo://app?vid=ce99246d-5016-4980-b5d4-6a23af083798","ios":"levelo://app?vid=ce99246d-5016-4980-b5d4-6a23af083798"},"vehicle_type_id":"4","last_reported":1738343255,"current_range_meters":29600,"station_id":"ce4bh192rcd13ifvqdb0","pricing_plan_id":"cebpf4jnsgd1na2vs0mg"},{"bike_id":"431fda7b-a3d9-408b-af36-53b559a4563b","system_id":"levelo_inurba_marseille","lat":43.28412,"lon":5.37523,"is_reserved":false,"is_disabled":false,"rental_uris":{"android":"levelo://app?vid=431fda7b-a3d9-408b-af36-53b559a4563b","ios":"levelo://app?vid=431fda7b-a3d9-408b-af36-53b559a4563b"},"vehicle_type_id":"4","last_reported":1738343255,"current_range_meters":19600,"station_id":"ce4bh412rcd13ifvqds0","pricing_plan_id":"cebpf4jnsgd1na2vs0mg"},{"bike_id":"6725a974-636a-4cad-bf4d-273395199ad4","system_id":"levelo_inurba_marseille","lat":43.33716,"lon":5.39195,"is_reserved":false,"is_disabled":false,"rental_uris":{"android":"levelo://app?vid=6725a974-636a-4cad-bf4d-273395199ad4","ios":"levelo://app?vid=6725a974-636a-4cad-bf4d-273395199ad4"},"vehicle_type_id":"4","last_reported":1738343255,"current_range_meters":22400,"station_id":"ce4bhr92rcd13ifvqhsg","pricing_plan_id":"cebpf4jnsgd1na2vs0mg"},{"bike_id":"e36db202-a0c5-4337-b881-dbba49b15e2b","system_id":"levelo_inurba_marseille","lat":43.23972,"lon":5.36631,"is_reserved":false,"is_disabled":false,"rental_uris":{"android":"levelo://app?vid=e36db202-a0c5-4337-b881-dbba49b15e2b","ios":"levelo://app?vid=e36db202-a0c5-4337-b881-dbba49b15e2b"},"vehicle_type_id":"4","last_reported":1738343255,"current_range_meters":19200,"station_id":"ce4bhi12rcd13ifvqfp0","pricing_plan_id":"cebpf4jnsgd1na2vs0mg"},{"bike_id":"bd8a828d-e634-4034-9cac-55889d5bbfa5","system_id":"levelo_inurba_marseille","lat":43.28161,"lon":5.4264,"is_reserved":false,"is_disabled":false,"rental_uris":{"android":"levelo://app?vid=bd8a828d-e634-4034-9cac-55889d5bbfa5","ios":"levelo://app?vid=bd8a828d-e634-4034-9cac-55889d5bbfa5"},"vehicle_type_id":"4","last_reported":1738343255,"current_range_meters":25600,"station_id":"ce4bhnh2rcd13ifvqgug","pricing_plan_id":"cebpf4jnsgd1na2vs0mg"},{"bike_id":"071b8fb3-7cad-45c0-b1f4-e857a8c2d066","system_id":"levelo_inurba_marseille","lat":43.29042,"lon":5.35912,"is_reserved":false,"is_disabled":false,"rental_uris":{"android":"levelo://app?vid=071b8fb3-7cad-45c0-b1f4-e857a8c2d066","ios":"levelo://app?vid=071b8fb3-7cad-45c0-b1f4-e857a8c2d066"},"vehicle_type_id":"4","last_reported":1738343255,"current_range_meters":33600,"station_id":"ce4bha92rcd13ifvqeg0","pricing_plan_id":"cebpf4jnsgd1na2vs0mg"},{"bike_id":"7556667b-8a87-4b02-834b-d784ffda3c8b","system_id":"levelo_inurba_marseille","lat":43.298,"lon":5.40429,"is_reserved":false,"is_disabled":false,"rental_uris":{"android":"levelo://app?vid=7556667b-8a87-4b02-834b-d784ffda3c8b","ios":"levelo://app?vid=7556667b-8a87-4b02-834b-d784ffda3c8b"},"vehicle_type_id":"4","last_reported":1738343255,"current_range_meters":38000,"station_id":"ce4bh112rcd13ifvqd90","pricing_plan_id":"cebpf4jnsgd1na2vs0mg"},{"bike_id":"f9d35a32-65b2-4842-bd83-8cbe10324274","system_id":"levelo_inurba_marseille","lat":43.28618,"lon":5.35091,"is_reserved":false,"is_disabled":false,"rental_uris":{"android":"levelo://app?vid=f9d35a32-65b2-4842-bd83-8cbe10324274","ios":"levelo://app?vid=f9d35a32-65b2-4842-bd83-8cbe10324274"},"vehicle_type_id":"4","last_reported":1738343255,"current_range_meters":11600,"station_id":"ce4bhch2rcd13ifvqeug","pricing_plan_id":"cebpf4jnsgd1na2vs0mg"},{"bike_id":"e737d6b4-980a-4244-b0b6-85b0751595d1","system_id":"levelo_inurba_marseille","lat":43.32038,"lon":5.41533,"is_reserved":false,"is_disabled":false,"rental_uris":{"android":"levelo://app?vid=e737d6b4-980a-4244-b0b6-85b0751595d1","ios":"levelo://app?vid=e737d6b4-980a-4244-b0b6-85b0751595d1"},"vehicle_type_id":"4","last_reported":1738343255,"current_range_meters":38000,"station_id":"ce4bhq92rcd13ifvqhkg","pricing_plan_id":"cebpf4jnsgd1na2vs0mg"},{"bike_id":"d446dd30-06ea-45f7-9639-c06cbcabff0a","system_id":"levelo_inurba_marseille","lat":43.25113,"lon":5.40323,"is_reserved":false,"is_disabled":false,"rental_uris":{"android":"levelo://app?vid=d446dd30-06ea-45f7-9639-c06cbcabff0a","ios":"levelo://app?vid=d446dd30-06ea-45f7-9639-c06cbcabff0a"},"vehicle_type_id":"4","last_reported":1738343255,"current_range_meters":17600,"station_id":"ce4bhlh2rcd13ifvqgig","pricing_plan_id":"cebpf4jnsgd1na2vs0mg"},{"bike_id":"62ca61f7-18ad-4e82-b44f-6753085f7603","system_id":"levelo_inurba_marseille","lat":43.29967,"lon":5.38501,"is_reserved":false,"is_disabled":false,"rental_uris":{"android":"levelo://app?vid=62ca61f7-18ad-4e82-b44f-6753085f7603","ios":"levelo://app?vid=62ca61f7-18ad-4e82-b44f-6753085f7603"},"vehicle_type_id":"4","last_reported":1738343255,"current_range_meters":30800,"station_id":"ce4bgj92rcd13ifvqbd0","pricing_plan_id":"cebpf4jnsgd1na2vs0mg"},{"bike_id":"8328472f-2ad9-41fc-8906-4c29390397f2","system_id":"levelo_inurba_marseille","lat":43.3014,"lon":5.37419,"is_reserved":false,"is_disabled":true,"rental_uris":{"android":"levelo://app?vid=8328472f-2ad9-41fc-8906-4c29390397f2","ios":"levelo://app?vid=8328472f-2ad9-41fc-8906-4c29390397f2"},"vehicle_type_id":"4","last_reported":1738343255,"current_range_meters":4400,"station_id":"ce4bgs92rcd13ifvqcc0","pricing_plan_id":"cebpf4jnsgd1na2vs0mg"},{"bike_id":"a558fade-2d9a-420c-9ad2-a690c73357c8","system_id":"levelo_inurba_marseille","lat":43.26494,"lon":5.3954,"is_reserved":false,"is_disabled":false,"rental_uris":{"android":"levelo://app?vid=a558fade-2d9a-420c-9ad2-a690c73357c8","ios":"levelo://app?vid=a558fade-2d9a-420c-9ad2-a690c73357c8"},"vehicle_type_id":"4","last_reported":1738343255,"current_range_meters":38800,"station_id":"ce4bhi12rcd13ifvqfq0","pricing_plan_id":"cebpf4jnsgd1na2vs0mg"},{"bike_id":"4f978120-52a2-4e6e-824d-af3c530ab4e7","system_id":"levelo_inurba_marseille","lat":43.26211,"lon":5.37445,"is_reserved":false,"is_disabled":false,"rental_uris":{"android":"levelo://app?vid=4f978120-52a2-4e6e-824d-af3c530ab4e7","ios":"levelo://app?vid=4f978120-52a2-4e6e-824d-af3c530ab4e7"},"vehicle_type_id":"4","last_reported":1738343255,"current_range_meters":22000,"station_id":"ce4bhgp2rcd13ifvqfc0","pricing_plan_id":"cebpf4jnsgd1na2vs0mg"},{"bike_id":"04507cab-e055-4f4d-bd41-920db9df1237","system_id":"levelo_inurba_marseille","lat":43.2794,"lon":5.41047,"is_reserved":false,"is_disabled":true,"rental_uris":{"android":"levelo://app?vid=04507cab-e055-4f4d-bd41-920db9df1237","ios":"levelo://app?vid=04507cab-e055-4f4d-bd41-920db9df1237"},"vehicle_type_id":"4","last_reported":1738343255,"current_range_meters":1600,"station_id":"ce4bhnp2rcd13ifvqh0g","pricing_plan_id":"cebpf4jnsgd1na2vs0mg"},{"bike_id":"4623e5a5-cbf1-496e-9465-46c71c0ca4b0","system_id":"levelo_inurba_marseille","lat":43.23967,"lon":5.36635,"is_reserved":false,"is_disabled":false,"rental_uris":{"android":"levelo://app?vid=4623e5a5-cbf1-496e-9465-46c71c0ca4b0","ios":"levelo://app?vid=4623e5a5-cbf1-496e-9465-46c71c0ca4b0"},"vehicle_type_id":"4","last_reported":1738343255,"current_range_meters":38800,"station_id":"ce4bhi12rcd13ifvqfp0","pricing_plan_id":"cebpf4jnsgd1na2vs0mg"},{"bike_id":"46b43093-b875-4b52-a6ea-76dd9dc96ba1","system_id":"levelo_inurba_marseille","lat":43.30507,"lon":5.3646,"is_reserved":false,"is_disabled":true,"rental_uris":{"android":"levelo://app?vid=46b43093-b875-4b52-a6ea-76dd9dc96ba1","ios":"levelo://app?vid=46b43093-b875-4b52-a6ea-76dd9dc96ba1"},"vehicle_type_id":"4","last_reported":1738343255,"current_range_meters":3200,"station_id":"","pricing_plan_id":"cebpf4jnsgd1na2vs0mg"},{"bike_id":"56d6b97f-30a2-4c2a-8be6-a12a9fc19507","system_id":"levelo_inurba_marseille","lat":43.31763,"lon":5.3902,"is_reserved":false,"is_disabled":false,"rental_uris":{"android":"levelo://app?vid=56d6b97f-30a2-4c2a-8be6-a12a9fc19507","ios":"levelo://app?vid=56d6b97f-30a2-4c2a-8be6-a12a9fc19507"},"vehicle_type_id":"4","last_reported":1738343255,"current_range_meters":12800,"station_id":"ce4bhqp2rcd13ifvqhng","pricing_plan_id":"cebpf4jnsgd1na2vs0mg"},{"bike_id":"d2a61873-58f7-4bc8-abeb-3ce8c1c55c8d","system_id":"levelo_inurba_marseille","lat":43.271801,"lon":5.409868,"is_reserved":false,"is_disabled":false,"rental_uris":{"android":"levelo://app?vid=d2a61873-58f7-4bc8-abeb-3ce8c1c55c8d","ios":"levelo://app?vid=d2a61873-58f7-4bc8-abeb-3ce8c1c55c8d"},"vehicle_type_id":"4","last_reported":1738343255,"current_range_meters":11600,"station_id":"ce4bhl12rcd13ifvqgf0","pricing_plan_id":"cebpf4jnsgd1na2vs0mg"},{"bike_id":"5d01760d-30d4-4517-bb05-c6a12523d377","system_id":"levelo_inurba_marseille","lat":43.29974,"lon":5.38491,"is_reserved":false,"is_disabled":false,"rental_uris":{"android":"levelo://app?vid=5d01760d-30d4-4517-bb05-c6a12523d377","ios":"levelo://app?vid=5d01760d-30d4-4517-bb05-c6a12523d377"},"vehicle_type_id":"4","last_reported":1738343255,"current_range_meters":34800,"station_id":"ce4bgj92rcd13ifvqbd0","pricing_plan_id":"cebpf4jnsgd1na2vs0mg"},{"bike_id":"711957f7-9de5-4d29-a21f-5e7a1ee39378","system_id":"levelo_inurba_marseille","lat":43.31068,"lon":5.38363,"is_reserved":false,"is_disabled":false,"rental_uris":{"android":"levelo://app?vid=711957f7-9de5-4d29-a21f-5e7a1ee39378","ios":"levelo://app?vid=711957f7-9de5-4d29-a21f-5e7a1ee39378"},"vehicle_type_id":"4","last_reported":1738343255,"current_range_meters":9600,"station_id":"ce4bgv92rcd13ifvqcr0","pricing_plan_id":"cebpf4jnsgd1na2vs0mg"},{"bike_id":"cc6fd4b5-60e4-4305-9d5e-ed1d3f12c2e5","system_id":"levelo_inurba_marseille","lat":43.33027,"lon":5.39046,"is_reserved":false,"is_disabled":false,"rental_uris":{"android":"levelo://app?vid=cc6fd4b5-60e4-4305-9d5e-ed1d3f12c2e5","ios":"levelo://app?vid=cc6fd4b5-60e4-4305-9d5e-ed1d3f12c2e5"},"vehicle_type_id":"4","last_reported":1738343255,"current_range_meters":24400,"station_id":"ce4bhr92rcd13ifvqhrg","pricing_plan_id":"cebpf4jnsgd1na2vs0mg"},{"bike_id":"9083b072-e9ef-41a8-bd35-d9a7044afec8","system_id":"levelo_inurba_marseille","lat":43.30539,"lon":5.36688,"is_reserved":false,"is_disabled":false,"rental_uris":{"android":"levelo://app?vid=9083b072-e9ef-41a8-bd35-d9a7044afec8","ios":"levelo://app?vid=9083b072-e9ef-41a8-bd35-d9a7044afec8"},"vehicle_type_id":"4","last_reported":1738343255,"current_range_meters":22400,"station_id":"ce4bhgp2rcd13ifvqfc0","pricing_plan_id":"cebpf4jnsgd1na2vs0mg"},{"bike_id":"b953855a-0f05-44be-aca4-b13269ef2f31","system_id":"levelo_inurba_marseille","lat":43.262,"lon":5.37929,"is_reserved":false,"is_disabled":false,"rental_uris":{"android":"levelo://app?vid=b953855a-0f05-44be-aca4-b13269ef2f31","ios":"levelo://app?vid=b953855a-0f05-44be-aca4-b13269ef2f31"},"vehicle_type_id":"4","last_reported":1738343255,"current_range_meters":36400,"station_id":"ce4bhjp2rcd13ifvqg90","pricing_plan_id":"cebpf4jnsgd1na2vs0mg"},{"bike_id":"5dde1a91-a19c-41e2-847b-743d7877c5bd","system_id":"levelo_inurba_marseille","lat":43.28463,"lon":5.35885,"is_reserved":false,"is_disabled":false,"rental_uris":{"android":"levelo://app?vid=5dde1a91-a19c-41e2-847b-743d7877c5bd","ios":"levelo://app?vid=5dde1a91-a19c-41e2-847b-743d7877c5bd"},"vehicle_type_id":"4","last_reported":1738343255,"current_range_meters":38800,"station_id":"ce4bhah2rcd13ifvqei0","pricing_plan_id":"cebpf4jnsgd1na2vs0mg"},{"bike_id":"098b1ea4-ff0e-4cb3-803c-6bec5159ca4a","system_id":"levelo_inurba_marseille","lat":43.3044,"lon":5.38895,"is_reserved":false,"is_disabled":false,"rental_uris":{"android":"levelo://app?vid=098b1ea4-ff0e-4cb3-803c-6bec5159ca4a","ios":"levelo://app?vid=098b1ea4-ff0e-4cb3-803c-6bec5159ca4a"},"vehicle_type_id":"4","last_reported":1738343255,"current_range_meters":26000,"station_id":"ce4bgk12rcd13ifvqbi0","pricing_plan_id":"cebpf4jnsgd1na2vs0mg"},{"bike_id":"3bbd6411-0191-463e-819d-d063fdf7bb5e","system_id":"levelo_inurba_marseille","lat":43.30508,"lon":5.36536,"is_reserved":false,"is_disabled":true,"rental_uris":{"android":"levelo://app?vid=3bbd6411-0191-463e-819d-d063fdf7bb5e","ios":"levelo://app?vid=3bbd6411-0191-463e-819d-d063fdf7bb5e"},"vehicle_type_id":"4","last_reported":1738343255,"current_range_meters":0,"station_id":"","pricing_plan_id":"cebpf4jnsgd1na2vs0mg"},{"bike_id":"b7aa58d4-19d9-48da-a213-001511379584","system_id":"levelo_inurba_marseille","lat":43.28912,"lon":5.37798,"is_reserved":false,"is_disabled":false,"rental_uris":{"android":"levelo://app?vid=b7aa58d4-19d9-48da-a213-001511379584","ios":"levelo://app?vid=b7aa58d4-19d9-48da-a213-001511379584"},"vehicle_type_id":"4","last_reported":1738343255,"current_range_meters":38800,"station_id":"","pricing_plan_id":"cebpf4jnsgd1na2vs0mg"},{"bike_id":"32d9a329-7366-4eb8-8d55-73b5c99c70c3","system_id":"levelo_inurba_marseille","lat":43.23194,"lon":5.355474,"is_reserved":false,"is_disabled":false,"rental_uris":{"android":"levelo://app?vid=32d9a329-7366-4eb8-8d55-73b5c99c70c3","ios":"levelo://app?vid=32d9a329-7366-4eb8-8d55-73b5c99c70c3"},"vehicle_type_id":"4","last_reported":1738343255,"current_range_meters":38800,"station_id":"ce4bhu92rcd13ifvqi70","pricing_plan_id":"cebpf4jnsgd1na2vs0mg"},{"bike_id":"ac1113cd-cfaf-40b6-8ac0-3eb89a50baf7","system_id":"levelo_inurba_marseille","lat":43.31486,"lon":5.37306,"is_reserved":false,"is_disabled":true,"rental_uris":{"android":"levelo://app?vid=ac1113cd-cfaf-40b6-8ac0-3eb89a50baf7","ios":"levelo://app?vid=ac1113cd-cfaf-40b6-8ac0-3eb89a50baf7"},"vehicle_type_id":"4","last_reported":1738343255,"current_range_meters":800,"station_id":"ce4bgt12rcd13ifvqcd0","pricing_plan_id":"cebpf4jnsgd1na2vs0mg"},{"bike_id":"ebbeef9e-d9a6-49cb-808e-0900a78d4bb3","system_id":"levelo_inurba_marseille","lat":43.29894,"lon":5.38893,"is_reserved":false,"is_disabled":false,"rental_uris":{"android":"levelo://app?vid=ebbeef9e-d9a6-49cb-808e-0900a78d4bb3","ios":"levelo://app?vid=ebbeef9e-d9a6-49cb-808e-0900a78d4bb3"},"vehicle_type_id":"4","last_reported":1738343255,"current_range_meters":21600,"station_id":"ce4bh392rcd13ifvqdl0","pricing_plan_id":"cebpf4jnsgd1na2vs0mg"},{"bike_id":"0a2fd205-d616-4064-aa75-d4d529957d90","system_id":"levelo_inurba_marseille","lat":43.23067,"lon":5.35496,"is_reserved":false,"is_disabled":false,"rental_uris":{"android":"levelo://app?vid=0a2fd205-d616-4064-aa75-d4d529957d90","ios":"levelo://app?vid=0a2fd205-d616-4064-aa75-d4d529957d90"},"vehicle_type_id":"4","last_reported":1738343255,"current_range_meters":20000,"station_id":"cpo3342slgdg3j2ifvpg","pricing_plan_id":"cebpf4jnsgd1na2vs0mg"},{"bike_id":"52aadcfb-9abf-4e74-acda-f22c741ce593","system_id":"levelo_inurba_marseille","lat":43.28608,"lon":5.37061,"is_reserved":false,"is_disabled":false,"rental_uris":{"android":"levelo://app?vid=52aadcfb-9abf-4e74-acda-f22c741ce593","ios":"levelo://app?vid=52aadcfb-9abf-4e74-acda-f22c741ce593"},"vehicle_type_id":"4","last_reported":1738343255,"current_range_meters":20000,"station_id":"ce4bht12rcd13ifvqi60","pricing_plan_id":"cebpf4jnsgd1na2vs0mg"},{"bike_id":"36e3a682-dd00-4474-89d9-bbaf36706a41","system_id":"levelo_inurba_marseille","lat":43.27989,"lon":5.40028,"is_reserved":false,"is_disabled":false,"rental_uris":{"android":"levelo://app?vid=36e3a682-dd00-4474-89d9-bbaf36706a41","ios":"levelo://app?vid=36e3a682-dd00-4474-89d9-bbaf36706a41"},"vehicle_type_id":"4","last_reported":1738343255,"current_range_meters":38800,"station_id":"ce4bho92rcd13ifvqh4g","pricing_plan_id":"cebpf4jnsgd1na2vs0mg"},{"bike_id":"addda343-67ed-47f2-92d9-e3811d95de60","system_id":"levelo_inurba_marseille","lat":43.31078,"lon":5.38357,"is_reserved":false,"is_disabled":false,"rental_uris":{"android":"levelo://app?vid=addda343-67ed-47f2-92d9-e3811d95de60","ios":"levelo://app?vid=addda343-67ed-47f2-92d9-e3811d95de60"},"vehicle_type_id":"4","last_reported":1738343255,"current_range_meters":28400,"station_id":"ce4bgv92rcd13ifvqcr0","pricing_plan_id":"cebpf4jnsgd1na2vs0mg"},{"bike_id":"591b2f5d-e3f4-4c23-a07c-db510651a226","system_id":"levelo_inurba_marseille","lat":43.26945,"lon":5.3892,"is_reserved":false,"is_disabled":false,"rental_uris":{"android":"levelo://app?vid=591b2f5d-e3f4-4c23-a07c-db510651a226","ios":"levelo://app?vid=591b2f5d-e3f4-4c23-a07c-db510651a226"},"vehicle_type_id":"4","last_reported":1738343255,"current_range_meters":38800,"station_id":"ce4bhhh2rcd13ifvqfl0","pricing_plan_id":"cebpf4jnsgd1na2vs0mg"},{"bike_id":"803e03d8-7d2e-4feb-ac46-774902d16dee","system_id":"levelo_inurba_marseille","lat":43.33759,"lon":5.37451,"is_reserved":false,"is_disabled":true,"rental_uris":{"android":"levelo://app?vid=803e03d8-7d2e-4feb-ac46-774902d16dee","ios":"levelo://app?vid=803e03d8-7d2e-4feb-ac46-774902d16dee"},"vehicle_type_id":"4","last_reported":1738343255,"current_range_meters":36400,"station_id":"","pricing_plan_id":"cebpf4jnsgd1na2vs0mg"},{"bike_id":"e01930f0-3329-4ff4-a2f7-baa59079302c","system_id":"levelo_inurba_marseille","lat":43.281,"lon":5.37857,"is_reserved":false,"is_disabled":false,"rental_uris":{"android":"levelo://app?vid=e01930f0-3329-4ff4-a2f7-baa59079302c","ios":"levelo://app?vid=e01930f0-3329-4ff4-a2f7-baa59079302c"},"vehicle_type_id":"4","last_reported":1738343255,"current_range_meters":6000,"station_id":"ce4bha12rcd13ifvqee0","pricing_plan_id":"cebpf4jnsgd1na2vs0mg"},{"bike_id":"90ec68d9-f1e9-4cfa-8e90-35c17ab03bc3","system_id":"levelo_inurba_marseille","lat":43.29519,"lon":5.39395,"is_reserved":false,"is_disabled":true,"rental_uris":{"android":"levelo://app?vid=90ec68d9-f1e9-4cfa-8e90-35c17ab03bc3","ios":"levelo://app?vid=90ec68d9-f1e9-4cfa-8e90-35c17ab03bc3"},"vehicle_type_id":"4","last_reported":1738343255,"current_range_meters":12000,"station_id":"ce4bh292rcd13ifvqdf0","pricing_plan_id":"cebpf4jnsgd1na2vs0mg"},{"bike_id":"f0014efe-59be-4c6a-b455-e28e23b4487f","system_id":"levelo_inurba_marseille","lat":43.2781,"lon":5.40717,"is_reserved":false,"is_disabled":false,"rental_uris":{"android":"levelo://app?vid=f0014efe-59be-4c6a-b455-e28e23b4487f","ios":"levelo://app?vid=f0014efe-59be-4c6a-b455-e28e23b4487f"},"vehicle_type_id":"4","last_reported":1738343255,"current_range_meters":29600,"station_id":"ce4bhnh2rcd13ifvqgtg","pricing_plan_id":"cebpf4jnsgd1na2vs0mg"},{"bike_id":"1f3960cd-eea7-4117-a4b8-926e34aacb5c","system_id":"levelo_inurba_marseille","lat":43.28612,"lon":5.37052,"is_reserved":false,"is_disabled":true,"rental_uris":{"android":"levelo://app?vid=1f3960cd-eea7-4117-a4b8-926e34aacb5c","ios":"levelo://app?vid=1f3960cd-eea7-4117-a4b8-926e34aacb5c"},"vehicle_type_id":"4","last_reported":1738343255,"current_range_meters":18800,"station_id":"ce4bht12rcd13ifvqi60","pricing_plan_id":"cebpf4jnsgd1na2vs0mg"},{"bike_id":"6337d338-3511-4993-ada0-12102998e834","system_id":"levelo_inurba_marseille","lat":43.23101,"lon":5.35505,"is_reserved":false,"is_disabled":false,"rental_uris":{"android":"levelo://app?vid=6337d338-3511-4993-ada0-12102998e834","ios":"levelo://app?vid=6337d338-3511-4993-ada0-12102998e834"},"vehicle_type_id":"4","last_reported":1738343255,"current_range_meters":14000,"station_id":"cpo3342slgdg3j2ifvpg","pricing_plan_id":"cebpf4jnsgd1na2vs0mg"},{"bike_id":"fe003c8d-49c9-48fb-b04d-8f90aac5a3e9","system_id":"levelo_inurba_marseille","lat":43.24996,"lon":5.38926,"is_reserved":false,"is_disabled":false,"rental_uris":{"android":"levelo://app?vid=fe003c8d-49c9-48fb-b04d-8f90aac5a3e9","ios":"levelo://app?vid=fe003c8d-49c9-48fb-b04d-8f90aac5a3e9"},"vehicle_type_id":"4","last_reported":1738343255,"current_range_meters":33600,"station_id":"ce4bhgp2rcd13ifvqfd0","pricing_plan_id":"cebpf4jnsgd1na2vs0mg"},{"bike_id":"37766b3f-cbcb-444a-a1d7-e4f66144d5ac","system_id":"levelo_inurba_marseille","lat":43.30165,"lon":5.38086,"is_reserved":false,"is_disabled":false,"rental_uris":{"android":"levelo://app?vid=37766b3f-cbcb-444a-a1d7-e4f66144d5ac","ios":"levelo://app?vid=37766b3f-cbcb-444a-a1d7-e4f66144d5ac"},"vehicle_type_id":"4","last_reported":1738343255,"current_range_meters":38800,"station_id":"ce4bgjp2rcd13ifvqbh0","pricing_plan_id":"cebpf4jnsgd1na2vs0mg"},{"bike_id":"3e06e3df-52c1-4111-856b-f1a8184ab824","system_id":"levelo_inurba_marseille","lat":43.27815,"lon":5.40711,"is_reserved":false,"is_disabled":false,"rental_uris":{"android":"levelo://app?vid=3e06e3df-52c1-4111-856b-f1a8184ab824","ios":"levelo://app?vid=3e06e3df-52c1-4111-856b-f1a8184ab824"},"vehicle_type_id":"4","last_reported":1738343255,"current_range_meters":27200,"station_id":"ce4bhnh2rcd13ifvqgtg","pricing_plan_id":"cebpf4jnsgd1na2vs0mg"},{"bike_id":"d994d4a0-0318-4f4e-9986-d94426f50c25","system_id":"levelo_inurba_marseille","lat":43.26235,"lon":5.37436,"is_reserved":false,"is_disabled":false,"rental_uris":{"android":"levelo://app?vid=d994d4a0-0318-4f4e-9986-d94426f50c25","ios":"levelo://app?vid=d994d4a0-0318-4f4e-9986-d94426f50c25"},"vehicle_type_id":"4","last_reported":1738343255,"current_range_meters":38800,"station_id":"ce4bhgp2rcd13ifvqfc0","pricing_plan_id":"cebpf4jnsgd1na2vs0mg"},{"bike_id":"98840af9-4585-4a79-b62b-69a5b9955a74","system_id":"levelo_inurba_marseille","lat":43.29841,"lon":5.36268,"is_reserved":false,"is_disabled":false,"rental_uris":{"android":"levelo://app?vid=98840af9-4585-4a79-b62b-69a5b9955a74","ios":"levelo://app?vid=98840af9-4585-4a79-b62b-69a5b9955a74"},"vehicle_type_id":"4","last_reported":1738343255,"current_range_meters":38800,"station_id":"ce4bgpp2rcd13ifvqc3g","pricing_plan_id":"cebpf4jnsgd1na2vs0mg"},{"bike_id":"9900f1a4-6fec-4768-9689-365d0e3a621d","system_id":"levelo_inurba_marseille","lat":43.23196,"lon":5.39968,"is_reserved":false,"is_disabled":false,"rental_uris":{"android":"levelo://app?vid=9900f1a4-6fec-4768-9689-365d0e3a621d","ios":"levelo://app?vid=9900f1a4-6fec-4768-9689-365d0e3a621d"},"vehicle_type_id":"4","last_reported":1738343255,"current_range_meters":38800,"station_id":"ce4bhn12rcd13ifvqgqg","pricing_plan_id":"cebpf4jnsgd1na2vs0mg"},{"bike_id":"4537fc7e-9c3b-4c59-873f-fdf096c03778","system_id":"levelo_inurba_marseille","lat":43.28665,"lon":5.36361,"is_reserved":false,"is_disabled":false,"rental_uris":{"android":"levelo://app?vid=4537fc7e-9c3b-4c59-873f-fdf096c03778","ios":"levelo://app?vid=4537fc7e-9c3b-4c59-873f-fdf096c03778"},"vehicle_type_id":"4","last_reported":1738343255,"current_range_meters":39200,"station_id":"ce4bhah2rcd13ifvqej0","pricing_plan_id":"cebpf4jnsgd1na2vs0mg"},{"bike_id":"6630ca91-ca35-4e81-9c54-578b49e543d0","system_id":"levelo_inurba_marseille","lat":43.27812,"lon":5.40707,"is_reserved":false,"is_disabled":false,"rental_uris":{"android":"levelo://app?vid=6630ca91-ca35-4e81-9c54-578b49e543d0","ios":"levelo://app?vid=6630ca91-ca35-4e81-9c54-578b49e543d0"},"vehicle_type_id":"4","last_reported":1738343255,"current_range_meters":35200,"station_id":"ce4bhnh2rcd13ifvqgtg","pricing_plan_id":"cebpf4jnsgd1na2vs0mg"},{"bike_id":"b1fd571c-e785-4fc7-9d16-3c2e86fe87de","system_id":"levelo_inurba_marseille","lat":43.27184,"lon":5.40989,"is_reserved":false,"is_disabled":true,"rental_uris":{"android":"levelo://app?vid=b1fd571c-e785-4fc7-9d16-3c2e86fe87de","ios":"levelo://app?vid=b1fd571c-e785-4fc7-9d16-3c2e86fe87de"},"vehicle_type_id":"4","last_reported":1738343255,"current_range_meters":400,"station_id":"ce4bhl12rcd13ifvqgf0","pricing_plan_id":"cebpf4jnsgd1na2vs0mg"},{"bike_id":"e6d6fcbb-39e0-4c3a-9515-64803fc4cc0a","system_id":"levelo_inurba_marseille","lat":43.33731,"lon":5.39187,"is_reserved":false,"is_disabled":false,"rental_uris":{"android":"levelo://app?vid=e6d6fcbb-39e0-4c3a-9515-64803fc4cc0a","ios":"levelo://app?vid=e6d6fcbb-39e0-4c3a-9515-64803fc4cc0a"},"vehicle_type_id":"4","last_reported":1738343255,"current_range_meters":18000,"station_id":"ce4bhr92rcd13ifvqhsg","pricing_plan_id":"cebpf4jnsgd1na2vs0mg"},{"bike_id":"6b396088-9541-42e8-9ba4-d9704d90d27a","system_id":"levelo_inurba_marseille","lat":43.30825,"lon":5.43492,"is_reserved":false,"is_disabled":false,"rental_uris":{"android":"levelo://app?vid=6b396088-9541-42e8-9ba4-d9704d90d27a","ios":"levelo://app?vid=6b396088-9541-42e8-9ba4-d9704d90d27a"},"vehicle_type_id":"4","last_reported":1738343255,"current_range_meters":10800,"station_id":"ce4bhph2rcd13ifvqheg","pricing_plan_id":"cebpf4jnsgd1na2vs0mg"},{"bike_id":"6f9a0614-d9ee-455d-9611-73697fa4831d","system_id":"levelo_inurba_marseille","lat":43.29007,"lon":5.35613,"is_reserved":false,"is_disabled":false,"rental_uris":{"android":"levelo://app?vid=6f9a0614-d9ee-455d-9611-73697fa4831d","ios":"levelo://app?vid=6f9a0614-d9ee-455d-9611-73697fa4831d"},"vehicle_type_id":"4","last_reported":1738343255,"current_range_meters":12800,"station_id":"ce4bhb92rcd13ifvqen0","pricing_plan_id":"cebpf4jnsgd1na2vs0mg"},{"bike_id":"78cc0d74-dd22-43ee-80eb-3612a94d6cfe","system_id":"levelo_inurba_marseille","lat":43.25815,"lon":5.39437,"is_reserved":false,"is_disabled":false,"rental_uris":{"android":"levelo://app?vid=78cc0d74-dd22-43ee-80eb-3612a94d6cfe","ios":"levelo://app?vid=78cc0d74-dd22-43ee-80eb-3612a94d6cfe"},"vehicle_type_id":"4","last_reported":1738343255,"current_range_meters":18800,"station_id":"ce4bhip2rcd13ifvqft0","pricing_plan_id":"cebpf4jnsgd1na2vs0mg"},{"bike_id":"331b80a1-68fc-4a77-aa0b-710390e0cf3c","system_id":"levelo_inurba_marseille","lat":43.29414,"lon":5.38626,"is_reserved":false,"is_disabled":false,"rental_uris":{"android":"levelo://app?vid=331b80a1-68fc-4a77-aa0b-710390e0cf3c","ios":"levelo://app?vid=331b80a1-68fc-4a77-aa0b-710390e0cf3c"},"vehicle_type_id":"4","last_reported":1738343255,"current_range_meters":8800,"station_id":"ce4bh2h2rcd13ifvqdh0","pricing_plan_id":"cebpf4jnsgd1na2vs0mg"},{"bike_id":"01180fdc-35dd-48c5-a833-74d6d6a90324","system_id":"levelo_inurba_marseille","lat":43.28461,"lon":5.35873,"is_reserved":false,"is_disabled":false,"rental_uris":{"android":"levelo://app?vid=01180fdc-35dd-48c5-a833-74d6d6a90324","ios":"levelo://app?vid=01180fdc-35dd-48c5-a833-74d6d6a90324"},"vehicle_type_id":"4","last_reported":1738343255,"current_range_meters":6400,"station_id":"ce4bhah2rcd13ifvqei0","pricing_plan_id":"cebpf4jnsgd1na2vs0mg"},{"bike_id":"42b92c0c-b723-49fc-885d-3b0df52a528c","system_id":"levelo_inurba_marseille","lat":43.30353,"lon":5.41867,"is_reserved":false,"is_disabled":false,"rental_uris":{"android":"levelo://app?vid=42b92c0c-b723-49fc-885d-3b0df52a528c","ios":"levelo://app?vid=42b92c0c-b723-49fc-885d-3b0df52a528c"},"vehicle_type_id":"4","last_reported":1738343255,"current_range_meters":39200,"station_id":"ce4bhop2rcd13ifvqh7g","pricing_plan_id":"cebpf4jnsgd1na2vs0mg"},{"bike_id":"2fa9a8cd-b66d-4851-8b28-0fc7c0cdf872","system_id":"levelo_inurba_marseille","lat":43.27999,"lon":5.40004,"is_reserved":false,"is_disabled":false,"rental_uris":{"android":"levelo://app?vid=2fa9a8cd-b66d-4851-8b28-0fc7c0cdf872","ios":"levelo://app?vid=2fa9a8cd-b66d-4851-8b28-0fc7c0cdf872"},"vehicle_type_id":"4","last_reported":1738343255,"current_range_meters":29600,"station_id":"ce4bho92rcd13ifvqh4g","pricing_plan_id":"cebpf4jnsgd1na2vs0mg"},{"bike_id":"0404bdf8-d770-4f93-a9e7-7c73af4c6980","system_id":"levelo_inurba_marseille","lat":43.280013,"lon":5.400169,"is_reserved":false,"is_disabled":false,"rental_uris":{"android":"levelo://app?vid=0404bdf8-d770-4f93-a9e7-7c73af4c6980","ios":"levelo://app?vid=0404bdf8-d770-4f93-a9e7-7c73af4c6980"},"vehicle_type_id":"4","last_reported":1738343255,"current_range_meters":16800,"station_id":"ce4bho92rcd13ifvqh4g","pricing_plan_id":"cebpf4jnsgd1na2vs0mg"},{"bike_id":"79f817ee-b679-4351-bf48-6af420b9433b","system_id":"levelo_inurba_marseille","lat":43.27909,"lon":5.39587,"is_reserved":false,"is_disabled":false,"rental_uris":{"android":"levelo://app?vid=79f817ee-b679-4351-bf48-6af420b9433b","ios":"levelo://app?vid=79f817ee-b679-4351-bf48-6af420b9433b"},"vehicle_type_id":"4","last_reported":1738343255,"current_range_meters":27600,"station_id":"ce4bhf92rcd13ifvqf40","pricing_plan_id":"cebpf4jnsgd1na2vs0mg"},{"bike_id":"5bb77195-6b37-404d-890a-16c6e68c5145","system_id":"levelo_inurba_marseille","lat":43.27824,"lon":5.40668,"is_reserved":false,"is_disabled":false,"rental_uris":{"android":"levelo://app?vid=5bb77195-6b37-404d-890a-16c6e68c5145","ios":"levelo://app?vid=5bb77195-6b37-404d-890a-16c6e68c5145"},"vehicle_type_id":"4","last_reported":1738343255,"current_range_meters":14000,"station_id":"ce4bhnh2rcd13ifvqgtg","pricing_plan_id":"cebpf4jnsgd1na2vs0mg"},{"bike_id":"0bf12a23-b2d0-4fb8-9ef0-81726886d3db","system_id":"levelo_inurba_marseille","lat":43.27838,"lon":5.39213,"is_reserved":false,"is_disabled":false,"rental_uris":{"android":"levelo://app?vid=0bf12a23-b2d0-4fb8-9ef0-81726886d3db","ios":"levelo://app?vid=0bf12a23-b2d0-4fb8-9ef0-81726886d3db"},"vehicle_type_id":"4","last_reported":1738343255,"current_range_meters":32000,"station_id":"ce4bhjp2rcd13ifvqga0","pricing_plan_id":"cebpf4jnsgd1na2vs0mg"},{"bike_id":"16c631ac-f574-481f-a414-ac1726716b86","system_id":"levelo_inurba_marseille","lat":43.29464,"lon":5.38593,"is_reserved":false,"is_disabled":false,"rental_uris":{"android":"levelo://app?vid=16c631ac-f574-481f-a414-ac1726716b86","ios":"levelo://app?vid=16c631ac-f574-481f-a414-ac1726716b86"},"vehicle_type_id":"4","last_reported":1738343255,"current_range_meters":3600,"station_id":"ce4bh2h2rcd13ifvqdh0","pricing_plan_id":"cebpf4jnsgd1na2vs0mg"},{"bike_id":"8c607d9e-5155-494c-8817-ffc30e5d0d6f","system_id":"levelo_inurba_marseille","lat":43.31524,"lon":5.38025,"is_reserved":false,"is_disabled":false,"rental_uris":{"android":"levelo://app?vid=8c607d9e-5155-494c-8817-ffc30e5d0d6f","ios":"levelo://app?vid=8c607d9e-5155-494c-8817-ffc30e5d0d6f"},"vehicle_type_id":"4","last_reported":1738343255,"current_range_meters":38800,"station_id":"ce4bhsp2rcd13ifvqi50","pricing_plan_id":"cebpf4jnsgd1na2vs0mg"},{"bike_id":"e0c63ee5-f830-41a5-8554-24c6cc39b0f8","system_id":"levelo_inurba_marseille","lat":43.28404,"lon":5.37527,"is_reserved":false,"is_disabled":false,"rental_uris":{"android":"levelo://app?vid=e0c63ee5-f830-41a5-8554-24c6cc39b0f8","ios":"levelo://app?vid=e0c63ee5-f830-41a5-8554-24c6cc39b0f8"},"vehicle_type_id":"4","last_reported":1738343255,"current_range_meters":10800,"station_id":"ce4bh412rcd13ifvqds0","pricing_plan_id":"cebpf4jnsgd1na2vs0mg"},{"bike_id":"883942c1-9c20-4def-96b3-b16e3bb55a49","system_id":"levelo_inurba_marseille","lat":43.29048,"lon":5.35886,"is_reserved":false,"is_disabled":false,"rental_uris":{"android":"levelo://app?vid=883942c1-9c20-4def-96b3-b16e3bb55a49","ios":"levelo://app?vid=883942c1-9c20-4def-96b3-b16e3bb55a49"},"vehicle_type_id":"4","last_reported":1738343255,"current_range_meters":10800,"station_id":"ce4bha92rcd13ifvqeg0","pricing_plan_id":"cebpf4jnsgd1na2vs0mg"},{"bike_id":"98599387-70d9-46bd-8755-765bf634f745","system_id":"levelo_inurba_marseille","lat":43.27624,"lon":5.36091,"is_reserved":false,"is_disabled":false,"rental_uris":{"android":"levelo://app?vid=98599387-70d9-46bd-8755-765bf634f745","ios":"levelo://app?vid=98599387-70d9-46bd-8755-765bf634f745"},"vehicle_type_id":"4","last_reported":1738343255,"current_range_meters":11600,"station_id":"ce4bgj92rcd13ifvqbe0","pricing_plan_id":"cebpf4jnsgd1na2vs0mg"},{"bike_id":"66a76712-22ff-46de-a2a1-d5968645d7e0","system_id":"levelo_inurba_marseille","lat":43.25083,"lon":5.39515,"is_reserved":false,"is_disabled":false,"rental_uris":{"android":"levelo://app?vid=66a76712-22ff-46de-a2a1-d5968645d7e0","ios":"levelo://app?vid=66a76712-22ff-46de-a2a1-d5968645d7e0"},"vehicle_type_id":"4","last_reported":1738343255,"current_range_meters":12800,"station_id":"ce4bhm12rcd13ifvqgkg","pricing_plan_id":"cebpf4jnsgd1na2vs0mg"},{"bike_id":"5c060e11-fec8-44f3-a347-1bdeb8850770","system_id":"levelo_inurba_marseille","lat":43.29603,"lon":5.38106,"is_reserved":false,"is_disabled":false,"rental_uris":{"android":"levelo://app?vid=5c060e11-fec8-44f3-a347-1bdeb8850770","ios":"levelo://app?vid=5c060e11-fec8-44f3-a347-1bdeb8850770"},"vehicle_type_id":"4","last_reported":1738343255,"current_range_meters":14000,"station_id":"ce4bgl12rcd13ifvqbo0","pricing_plan_id":"cebpf4jnsgd1na2vs0mg"},{"bike_id":"4008c5d4-accb-4981-8933-9e85f4cde128","system_id":"levelo_inurba_marseille","lat":43.23195,"lon":5.35563,"is_reserved":false,"is_disabled":false,"rental_uris":{"android":"levelo://app?vid=4008c5d4-accb-4981-8933-9e85f4cde128","ios":"levelo://app?vid=4008c5d4-accb-4981-8933-9e85f4cde128"},"vehicle_type_id":"4","last_reported":1738343255,"current_range_meters":32000,"station_id":"ce4bhu92rcd13ifvqi70","pricing_plan_id":"cebpf4jnsgd1na2vs0mg"},{"bike_id":"1a2e4908-a7ae-41b0-a676-3247db450a89","system_id":"levelo_inurba_marseille","lat":43.26941,"lon":5.38945,"is_reserved":false,"is_disabled":false,"rental_uris":{"android":"levelo://app?vid=1a2e4908-a7ae-41b0-a676-3247db450a89","ios":"levelo://app?vid=1a2e4908-a7ae-41b0-a676-3247db450a89"},"vehicle_type_id":"4","last_reported":1738343255,"current_range_meters":8400,"station_id":"ce4bhhh2rcd13ifvqfl0","pricing_plan_id":"cebpf4jnsgd1na2vs0mg"},