{"last_updated":1758355947,"ttl":60,"version":"2.2","data":{"bikes":[{"bike_id":"596aced0-384a-413c-a710-1b9ecc073bf4","system_id":"levelo_inurba_marseille","lat":43.29568,"lon":5.37531,"is_reserved":false,"is_disabled":false,"rental_uris":{"android":"levelo://app?vid=596aced0-384a-413c-a710-1b9ecc073bf4","ios":"levelo://app?vid=596aced0-384a-413c-a710-1b9ecc073bf4"},"vehicle_type_id":"4","last_reported":1758355948,"current_range_meters":2800,"station_id":"ce4bgh92rcd13ifvqb50","pricing_plan_id":"cebpf4jnsgd1na2vs0mg"},{"bike_id":"2dbfe08c-c3c1-4d5c-bf7b-29c8b6e02ccc","system_id":"levelo_inurba_marseille","lat":43.26618,"lon":5.3937,"is_reserved":false,"is_disabled":false,"rental_uris":{"android":"levelo://app?vid=2dbfe08c-c3c1-4d5c-bf7b-29c8b6e02ccc","ios":"levelo://app?vid=2dbfe08c-c3c1-4d5c-bf7b-29c8b6e02ccc"},"vehicle_type_id":"4","last_reported":1758355948,"current_range_meters":2800,"station_id":"","pricing_plan_id":"cebpf4jnsgd1na2vs0mg"},{"bike_id":"d167974d-acb6-4fbd-80ff-e686f4fdb71a","system_id":"levelo_inurba_marseille","lat":43.29628,"lon":5.37721,"is_reserved":false,"is_disabled":false,"rental_uris":{"android":"levelo://app?vid=d167974d-acb6-4fbd-80ff-e686f4fdb71a","ios":"levelo://app?vid=d167974d-acb6-4fbd-80ff-e686f4fdb71a"},"vehicle_type_id":"4","last_reported":1758355948,"current_range_meters":2800,"station_id":"ce4bgi92rcd13ifvqb90","pricing_plan_id":"cebpf4jnsgd1na2vs0mg"},{"bike_id":"b8f831f4-a078-4f01-bbcb-2d031100a46e","system_id":"levelo_inurba_marseille","lat":43.292722,"lon":5.368474,"is_reserved":false,"is_disabled":false,"rental_uris":{"android":"levelo://app?vid=b8f831f4-a078-4f01-bbcb-2d031100a46e","ios":"levelo://app?vid=b8f831f4-a078-4f01-bbcb-2d031100a46e"},"vehicle_type_id":"4","last_reported":1758355948,"current_range_meters":3200,"station_id":"ce4bhbp2rcd13ifvqesg","pricing_plan_id":"cebpf4jnsgd1na2vs0mg"},{"bike_id":"43efa335-5903-43b2-8631-41f1a0f0b7b2","system_id":"levelo_inurba_marseille","lat":43.276202,"lon":5.361096,"is_reserved":false,"is_disabled":false,"rental_uris":{"android":"levelo://app?vid=43efa335-5903-43b2-8631-41f1a0f0b7b2","ios":"levelo://app?vid=43efa335-5903-43b2-8631-41f1a0f0b7b2"},"vehicle_type_id":"4","last_reported":1758355948,"current_range_meters":3200,"station_id":"ce4bgj92rcd13ifvqbe0","pricing_plan_id":"cebpf4jnsgd1na2vs0mg"},{"bike_id":"03d0ca6a-6e64-45af-bdc0-1ba593c30399","system_id":"levelo_inurba_marseille","lat":43.284628,"lon":5.358883,"is_reserved":false,"is_disabled":false,"rental_uris":{"android":"levelo://app?vid=03d0ca6a-6e64-45af-bdc0-1ba593c30399","ios":"levelo://app?vid=03d0ca6a-6e64-45af-bdc0-1ba593c30399"},"vehicle_type_id":"4","last_reported":1758355948,"current_range_meters":3200,"station_id":"ce4bhah2rcd13ifvqei0","pricing_plan_id":"cebpf4jnsgd1na2vs0mg"},{"bike_id":"7745eab8-3d48-4349-b863-861b7cc7cbd1","system_id":"levelo_inurba_marseille","lat":43.290054,"lon":5.381405,"is_reserved":false,"is_disabled":false,"rental_uris":{"android":"levelo://app?vid=7745eab8-3d48-4349-b863-861b7cc7cbd1","ios":"levelo://app?vid=7745eab8-3d48-4349-b863-861b7cc7cbd1"},"vehicle_type_id":"4","last_reported":1758355948,"current_range_meters":3200,"station_id":"","pricing_plan_id":"cebpf4jnsgd1na2vs0mg"},{"bike_id":"cf66592a-d8fa-4c6c-9927-5d7a9fef5026","system_id":"levelo_inurba_marseille","lat":43.26213,"lon":5.39727,"is_reserved":false,"is_disabled":false,"rental_uris":{"android":"levelo://app?vid=cf66592a-d8fa-4c6c-9927-5d7a9fef5026","ios":"levelo://app?vid=cf66592a-d8fa-4c6c-9927-5d7a9fef5026"},"vehicle_type_id":"4","last_reported":1758355948,"current_range_meters":3200,"station_id":"","pricing_plan_id":"cebpf4jnsgd1na2vs0mg"},{"bike_id":"059c0ba7-1dcb-4f29-8d05-6060640937cc","system_id":"levelo_inurba_marseille","lat":43.31038,"lon":5.37444,"is_reserved":false,"is_disabled":true,"rental_uris":{"android":"levelo://app?vid=059c0ba7-1dcb-4f29-8d05-6060640937cc","ios":"levelo://app?vid=059c0ba7-1dcb-4f29-8d05-6060640937cc"},"vehicle_type_id":"4","last_reported":1758355948,"current_range_meters":4000,"station_id":"","pricing_plan_id":"cebpf4jnsgd1na2vs0mg"},{"bike_id":"56a4f75d-eaf2-44b4-aa02-4a439b19699b","system_id":"levelo_inurba_marseille","lat":43.3377,"lon":5.37425,"is_reserved":false,"is_disabled":false,"rental_uris":{"android":"levelo://app?vid=56a4f75d-eaf2-44b4-aa02-4a439b19699b","ios":"levelo://app?vid=56a4f75d-eaf2-44b4-aa02-4a439b19699b"},"vehicle_type_id":"4","last_reported":1758355948,"current_range_meters":4800,"station_id":"","pricing_plan_id":"cebpf4jnsgd1na2vs0mg"},{"bike_id":"50c1c1e3-58c2-4ff0-a78a-a7e499f3540c","system_id":"levelo_inurba_marseille","lat":43.28909,"lon":5.43264,"is_reserved":false,"is_disabled":false,"rental_uris":{"android":"levelo://app?vid=50c1c1e3-58c2-4ff0-a78a-a7e499f3540c","ios":"levelo://app?vid=50c1c1e3-58c2-4ff0-a78a-a7e499f3540c"},"vehicle_type_id":"4","last_reported":1758355948,"current_range_meters":4800,"station_id":"","pricing_plan_id":"cebpf4jnsgd1na2vs0mg"},{"bike_id":"42323a1a-489c-43cb-90ae-c675b27444d5","system_id":"levelo_inurba_marseille","lat":43.21664,"lon":5.3436,"is_reserved":false,"is_disabled":false,"rental_uris":{"android":"levelo://app?vid=42323a1a-489c-43cb-90ae-c675b27444d5","ios":"levelo://app?vid=42323a1a-489c-43cb-90ae-c675b27444d5"},"vehicle_type_id":"4","last_reported":1758355948,"current_range_meters":5600,"station_id":"","pricing_plan_id":"cebpf4jnsgd1na2vs0mg"},{"bike_id":"f9636a44-11a8-49d6-9b1c-12db7ad64ee3","system_id":"levelo_inurba_marseille","lat":43.241763,"lon":5.397147,"is_reserved":false,"is_disabled":false,"rental_uris":{"android":"levelo://app?vid=f9636a44-11a8-49d6-9b1c-12db7ad64ee3","ios":"levelo://app?vid=f9636a44-11a8-49d6-9b1c-12db7ad64ee3"},"vehicle_type_id":"4","last_reported":1758355948,"current_range_meters":5600,"station_id":"ce4bhn12rcd13ifvqgpg","pricing_plan_id":"cebpf4jnsgd1na2vs0mg"},{"bike_id":"1bb0312c-3a38-4fd4-b2ad-76c7ab682c8c","system_id":"levelo_inurba_marseille","lat":43.28678,"lon":5.38664,"is_reserved":false,"is_disabled":false,"rental_uris":{"android":"levelo://app?vid=1bb0312c-3a38-4fd4-b2ad-76c7ab682c8c","ios":"levelo://app?vid=1bb0312c-3a38-4fd4-b2ad-76c7ab682c8c"},"vehicle_type_id":"4","last_reported":1758355948,"current_range_meters":5600,"station_id":"ce4bh492rcd13ifvqdug","pricing_plan_id":"cebpf4jnsgd1na2vs0mg"},{"bike_id":"8d8aa201-5c39-47b1-a680-5c87fa552abf","system_id":"levelo_inurba_marseille","lat":43.229331,"lon":5.353769,"is_reserved":false,"is_disabled":false,"rental_uris":{"android":"levelo://app?vid=8d8aa201-5c39-47b1-a680-5c87fa552abf","ios":"levelo://app?vid=8d8aa201-5c39-47b1-a680-5c87fa552abf"},"vehicle_type_id":"4","last_reported":1758355948,"current_range_meters":5600,"station_id":"cpo3532slgdg3j2ikp40","pricing_plan_id":"cebpf4jnsgd1na2vs0mg"},{"bike_id":"23d726cd-b0d2-4de2-83ca-6add72e1aea6","system_id":"levelo_inurba_marseille","lat":43.2886,"lon":5.35838,"is_reserved":false,"is_disabled":false,"rental_uris":{"android":"levelo://app?vid=23d726cd-b0d2-4de2-83ca-6add72e1aea6","ios":"levelo://app?vid=23d726cd-b0d2-4de2-83ca-6add72e1aea6"},"vehicle_type_id":"4","last_reported":1758355948,"current_range_meters":6000,"station_id":"ce4bhb12rcd13ifvqem0","pricing_plan_id":"cebpf4jnsgd1na2vs0mg"},{"bike_id":"2448a02c-96ab-498a-b380-483065f76cc7","system_id":"levelo_inurba_marseille","lat":43.27057,"lon":5.4025,"is_reserved":false,"is_disabled":false,"rental_uris":{"android":"levelo://app?vid=2448a02c-96ab-498a-b380-483065f76cc7","ios":"levelo://app?vid=2448a02c-96ab-498a-b380-483065f76cc7"},"vehicle_type_id":"4","last_reported":1758355948,"current_range_meters":6000,"station_id":"ce4bhk92rcd13ifvqgc0","pricing_plan_id":"cebpf4jnsgd1na2vs0mg"},{"bike_id":"68046925-cb0f-43d4-8f06-644976d7cc80","system_id":"levelo_inurba_marseille","lat":43.29974,"lon":5.38473,"is_reserved":false,"is_disabled":false,"rental_uris":{"android":"levelo://app?vid=68046925-cb0f-43d4-8f06-644976d7cc80","ios":"levelo://app?vid=68046925-cb0f-43d4-8f06-644976d7cc80"},"vehicle_type_id":"4","last_reported":1758355948,"current_range_meters":6000,"station_id":"ce4bgj92rcd13ifvqbd0","pricing_plan_id":"cebpf4jnsgd1na2vs0mg"},{"bike_id":"e6f8489d-fe42-4015-a82c-b604c2c8b33e","system_id":"levelo_inurba_marseille","lat":43.29795,"lon":5.36682,"is_reserved":false,"is_disabled":false,"rental_uris":{"android":"levelo://app?vid=e6f8489d-fe42-4015-a82c-b604c2c8b33e","ios":"levelo://app?vid=e6f8489d-fe42-4015-a82c-b604c2c8b33e"},"vehicle_type_id":"4","last_reported":1758355948,"current_range_meters":6000,"station_id":"","pricing_plan_id":"cebpf4jnsgd1na2vs0mg"},{"bike_id":"e942f984-8fe7-48d1-8f04-3806656b9996","system_id":"levelo_inurba_marseille","lat":43.336231,"lon":5.379476,"is_reserved":false,"is_disabled":false,"rental_uris":{"android":"levelo://app?vid=e942f984-8fe7-48d1-8f04-3806656b9996","ios":"levelo://app?vid=e942f984-8fe7-48d1-8f04-3806656b9996"},"vehicle_type_id":"4","last_reported":1758355948,"current_range_meters":6400,"station_id":"","pricing_plan_id":"cebpf4jnsgd1na2vs0mg"},{"bike_id":"91c9b659-dfca-483a-9e24-32186701edcd","system_id":"levelo_inurba_marseille","lat":43.239662,"lon":5.366313,"is_reserved":false,"is_disabled":false,"rental_uris":{"android":"levelo://app?vid=91c9b659-dfca-483a-9e24-32186701edcd","ios":"levelo://app?vid=91c9b659-dfca-483a-9e24-32186701edcd"},"vehicle_type_id":"4","last_reported":1758355948,"current_range_meters":6400,"station_id":"ce4bhi12rcd13ifvqfp0","pricing_plan_id":"cebpf4jnsgd1na2vs0mg"},{"bike_id":"b8e8ecaa-a263-40d5-b1c1-305b693949fb","system_id":"levelo_inurba_marseille","lat":43.26551,"lon":5.37285,"is_reserved":false,"is_disabled":false,"rental_uris":{"android":"levelo://app?vid=b8e8ecaa-a263-40d5-b1c1-305b693949fb","ios":"levelo://app?vid=b8e8ecaa-a263-40d5-b1c1-305b693949fb"},"vehicle_type_id":"4","last_reported":1758355948,"current_range_meters":6400,"station_id":"ce4bhg12rcd13ifvqf70","pricing_plan_id":"cebpf4jnsgd1na2vs0mg"},{"bike_id":"05e320e8-97d6-41d2-851f-2588ce187567","system_id":"levelo_inurba_marseille","lat":43.29256,"lon":5.40901,"is_reserved":false,"is_disabled":false,"rental_uris":{"android":"levelo://app?vid=05e320e8-97d6-41d2-851f-2588ce187567","ios":"levelo://app?vid=05e320e8-97d6-41d2-851f-2588ce187567"},"vehicle_type_id":"4","last_reported":1758355948,"current_range_meters":6400,"station_id":"ce4bh192rcd13ifvqdc0","pricing_plan_id":"cebpf4jnsgd1na2vs0mg"},{"bike_id":"37aa092f-2d58-4344-9a75-df73ace38a0e","system_id":"levelo_inurba_marseille","lat":43.33769,"lon":5.37438,"is_reserved":false,"is_disabled":false,"rental_uris":{"android":"levelo://app?vid=37aa092f-2d58-4344-9a75-df73ace38a0e","ios":"levelo://app?vid=37aa092f-2d58-4344-9a75-df73ace38a0e"},"vehicle_type_id":"4","last_reported":1758355948,"current_range_meters":6400,"station_id":"","pricing_plan_id":"cebpf4jnsgd1na2vs0mg"},{"bike_id":"2e54f94d-3ec9-4815-8e51-acc1a69b790b","system_id":"levelo_inurba_marseille","lat":43.29278,"lon":5.40118,"is_reserved":false,"is_disabled":false,"rental_uris":{"android":"levelo://app?vid=2e54f94d-3ec9-4815-8e51-acc1a69b790b","ios":"levelo://app?vid=2e54f94d-3ec9-4815-8e51-acc1a69b790b"},"vehicle_type_id":"4","last_reported":1758355948,"current_range_meters":6800,"station_id":"ce4bh312rcd13ifvqdk0","pricing_plan_id":"cebpf4jnsgd1na2vs0mg"},{"bike_id":"22f0687d-25d3-4094-9c4a-293a61e189a6","system_id":"levelo_inurba_marseille","lat":43.2463,"lon":5.39626,"is_reserved":false,"is_disabled":false,"rental_uris":{"android":"levelo://app?vid=22f0687d-25d3-4094-9c4a-293a61e189a6","ios":"levelo://app?vid=22f0687d-25d3-4094-9c4a-293a61e189a6"},"vehicle_type_id":"4","last_reported":1758355948,"current_range_meters":6800,"station_id":"","pricing_plan_id":"cebpf4jnsgd1na2vs0mg"},{"bike_id":"e4099b8e-ad5d-4fa3-9e79-0bcdbda31f05","system_id":"levelo_inurba_marseille","lat":43.301472,"lon":5.380947,"is_reserved":false,"is_disabled":false,"rental_uris":{"android":"levelo://app?vid=e4099b8e-ad5d-4fa3-9e79-0bcdbda31f05","ios":"levelo://app?vid=e4099b8e-ad5d-4fa3-9e79-0bcdbda31f05"},"vehicle_type_id":"4","last_reported":1758355948,"current_range_meters":7200,"station_id":"ce4bgjp2rcd13ifvqbh0","pricing_plan_id":"cebpf4jnsgd1na2vs0mg"},{"bike_id":"d9512a5c-5a68-4ba5-89a7-de9727d43b1b","system_id":"levelo_inurba_marseille","lat":43.298127,"lon":5.417095,"is_reserved":false,"is_disabled":false,"rental_uris":{"android":"levelo://app?vid=d9512a5c-5a68-4ba5-89a7-de9727d43b1b","ios":"levelo://app?vid=d9512a5c-5a68-4ba5-89a7-de9727d43b1b"},"vehicle_type_id":"4","last_reported":1758355948,"current_range_meters":7200,"station_id":"","pricing_plan_id":"cebpf4jnsgd1na2vs0mg"},{"bike_id":"a41ef292-a38d-498f-a43c-67824ab6e2c1","system_id":"levelo_inurba_marseille","lat":43.23193,"lon":5.35554,"is_reserved":false,"is_disabled":false,"rental_uris":{"android":"levelo://app?vid=a41ef292-a38d-498f-a43c-67824ab6e2c1","ios":"levelo://app?vid=a41ef292-a38d-498f-a43c-67824ab6e2c1"},"vehicle_type_id":"4","last_reported":1758355948,"current_range_meters":7200,"station_id":"ce4bhu92rcd13ifvqi70","pricing_plan_id":"cebpf4jnsgd1na2vs0mg"},{"bike_id":"cad97885-b582-49b2-8b83-0a6c3d079fc6","system_id":"levelo_inurba_marseille","lat":43.297018,"lon":5.365873,"is_reserved":false,"is_disabled":false,"rental_uris":{"android":"levelo://app?vid=cad97885-b582-49b2-8b83-0a6c3d079fc6","ios":"levelo://app?vid=cad97885-b582-49b2-8b83-0a6c3d079fc6"},"vehicle_type_id":"4","last_reported":1758355948,"current_range_meters":7200,"station_id":"ce4bgn12rcd13ifvqbt0","pricing_plan_id":"cebpf4jnsgd1na2vs0mg"},{"bike_id":"5074750c-2726-421b-863d-7f068de1c5a0","system_id":"levelo_inurba_marseille","lat":43.28445,"lon":5.39202,"is_reserved":false,"is_disabled":false,"rental_uris":{"android":"levelo://app?vid=5074750c-2726-421b-863d-7f068de1c5a0","ios":"levelo://app?vid=5074750c-2726-421b-863d-7f068de1c5a0"},"vehicle_type_id":"4","last_reported":1758355948,"current_range_meters":7200,"station_id":"ce4bhoh2rcd13ifvqh5g","pricing_plan_id":"cebpf4jnsgd1na2vs0mg"},{"bike_id":"ad2e49da-52b5-4917-aeed-d38732baf8bd","system_id":"levelo_inurba_marseille","lat":43.25501,"lon":5.3765,"is_reserved":false,"is_disabled":false,"rental_uris":{"android":"levelo://app?vid=ad2e49da-52b5-4917-aeed-d38732baf8bd","ios":"levelo://app?vid=ad2e49da-52b5-4917-aeed-d38732baf8bd"},"vehicle_type_id":"4","last_reported":1758355948,"current_range_meters":7200,"station_id":"ce4bhh12rcd13ifvqff0","pricing_plan_id":"cebpf4jnsgd1na2vs0mg"},{"bike_id":"bf441925-63a2-478d-8fa9-abdadf2b41e1","system_id":"levelo_inurba_marseille","lat":43.22552,"lon":5.41632,"is_reserved":false,"is_disabled":false,"rental_uris":{"android":"levelo://app?vid=bf441925-63a2-478d-8fa9-abdadf2b41e1","ios":"levelo://app?vid=bf441925-63a2-478d-8fa9-abdadf2b41e1"},"vehicle_type_id":"4","last_reported":1758355948,"current_range_meters":7200,"station_id":"st_d2o4gvlbi1j2169b742g","pricing_plan_id":"cebpf4jnsgd1na2vs0mg"},{"bike_id":"cc05a417-a31a-48d1-9578-4fe3ddce0fcd","system_id":"levelo_inurba_marseille","lat":43.28922,"lon":5.38419,"is_reserved":false,"is_disabled":true,"rental_uris":{"android":"levelo://app?vid=cc05a417-a31a-48d1-9578-4fe3ddce0fcd","ios":"levelo://app?vid=cc05a417-a31a-48d1-9578-4fe3ddce0fcd"},"vehicle_type_id":"4","last_reported":1758355948,"current_range_meters":8000,"station_id":"ce4bh612rcd13ifvqe6g","pricing_plan_id":"cebpf4jnsgd1na2vs0mg"},{"bike_id":"6dc49f8f-31b8-485c-b489-e3fd253e6676","system_id":"levelo_inurba_marseille","lat":43.32665,"lon":5.40984,"is_reserved":false,"is_disabled":true,"rental_uris":{"android":"levelo://app?vid=6dc49f8f-31b8-485c-b489-e3fd253e6676","ios":"levelo://app?vid=6dc49f8f-31b8-485c-b489-e3fd253e6676"},"vehicle_type_id":"4","last_reported":1758355948,"current_range_meters":8000,"station_id":"ce4bhpp2rcd13ifvqhgg","pricing_plan_id":"cebpf4jnsgd1na2vs0mg"},{"bike_id":"b32c350a-cf4f-4f5a-9a5c-9355ad503b30","system_id":"levelo_inurba_marseille","lat":43.2792,"lon":5.39571,"is_reserved":false,"is_disabled":false,"rental_uris":{"android":"levelo://app?vid=b32c350a-cf4f-4f5a-9a5c-9355ad503b30","ios":"levelo://app?vid=b32c350a-cf4f-4f5a-9a5c-9355ad503b30"},"vehicle_type_id":"4","last_reported":1758355948,"current_range_meters":8000,"station_id":"ce4bhf92rcd13ifvqf40","pricing_plan_id":"cebpf4jnsgd1na2vs0mg"},{"bike_id":"c98e8586-be39-4777-a783-620d0ef3312a","system_id":"levelo_inurba_marseille","lat":43.30726,"lon":5.42446,"is_reserved":false,"is_disabled":false,"rental_uris":{"android":"levelo://app?vid=c98e8586-be39-4777-a783-620d0ef3312a","ios":"levelo://app?vid=c98e8586-be39-4777-a783-620d0ef3312a"},"vehicle_type_id":"4","last_reported":1758355948,"current_range_meters":8000,"station_id":"st_cvj6ca6bvosntc0bfgr0","pricing_plan_id":"cebpf4jnsgd1na2vs0mg"},{"bike_id":"56975eb0-de58-4eee-bb76-c1ecb40f5858","system_id":"levelo_inurba_marseille","lat":43.29524,"lon":5.39366,"is_reserved":false,"is_disabled":false,"rental_uris":{"android":"levelo://app?vid=56975eb0-de58-4eee-bb76-c1ecb40f5858","ios":"levelo://app?vid=56975eb0-de58-4eee-bb76-c1ecb40f5858"},"vehicle_type_id":"4","last_reported":1758355948,"current_range_meters":8400,"station_id":"ce4bh292rcd13ifvqdf0","pricing_plan_id":"cebpf4jnsgd1na2vs0mg"},{"bike_id":"fe319fcb-2656-42fa-97dc-1d6f04c90349","system_id":"levelo_inurba_marseille","lat":43.29581,"lon":5.42266,"is_reserved":false,"is_disabled":false,"rental_uris":{"android":"levelo://app?vid=fe319fcb-2656-42fa-97dc-1d6f04c90349","ios":"levelo://app?vid=fe319fcb-2656-42fa-97dc-1d6f04c90349"},"vehicle_type_id":"4","last_reported":1758355948,"current_range_meters":8000,"station_id":"ce4bhph2rcd13ifvqhdg","pricing_plan_id":"cebpf4jnsgd1na2vs0mg"},{"bike_id":"6c57f7cd-0239-49f2-9cec-f5f6c4d29aee","system_id":"levelo_inurba_marseille","lat":43.28653,"lon":5.36353,"is_reserved":false,"is_disabled":false,"rental_uris":{"android":"levelo://app?vid=6c57f7cd-0239-49f2-9cec-f5f6c4d29aee","ios":"levelo://app?vid=6c57f7cd-0239-49f2-9cec-f5f6c4d29aee"},"vehicle_type_id":"4","last_reported":1758355948,"current_range_meters":8400,"station_id":"","pricing_plan_id":"cebpf4jnsgd1na2vs0mg"},{"bike_id":"c3897c00-e950-4044-8f08-e0b1f3ccd977","system_id":"levelo_inurba_marseille","lat":43.22925,"lon":5.35386,"is_reserved":false,"is_disabled":true,"rental_uris":{"android":"levelo://app?vid=c3897c00-e950-4044-8f08-e0b1f3ccd977","ios":"levelo://app?vid=c3897c00-e950-4044-8f08-e0b1f3ccd977"},"vehicle_type_id":"4","last_reported":1758355948,"current_range_meters":8400,"station_id":"cpo3532slgdg3j2ikp40","pricing_plan_id":"cebpf4jnsgd1na2vs0mg"},{"bike_id":"2dd63ce0-73a6-4de4-8574-f3bfadd2eaa8","system_id":"levelo_inurba_marseille","lat":43.282,"lon":5.39048,"is_reserved":false,"is_disabled":false,"rental_uris":{"android":"levelo://app?vid=2dd63ce0-73a6-4de4-8574-f3bfadd2eaa8","ios":"levelo://app?vid=2dd63ce0-73a6-4de4-8574-f3bfadd2eaa8"},"vehicle_type_id":"4","last_reported":1758355948,"current_range_meters":8400,"station_id":"ce4bhn92rcd13ifvqgsg","pricing_plan_id":"cebpf4jnsgd1na2vs0mg"},{"bike_id":"cc48539f-3363-44f7-9041-3eea5291a9db","system_id":"levelo_inurba_marseille","lat":43.21189,"lon":5.35076,"is_reserved":false,"is_disabled":false,"rental_uris":{"android":"levelo://app?vid=cc48539f-3363-44f7-9041-3eea5291a9db","ios":"levelo://app?vid=cc48539f-3363-44f7-9041-3eea5291a9db"},"vehicle_type_id":"4","last_reported":1758355948,"current_range_meters":8400,"station_id":"st_cvj6sg6p6f1abm77japg","pricing_plan_id":"cebpf4jnsgd1na2vs0mg"},{"bike_id":"3e682cf4-5ea7-4563-9004-71435c031ec4","system_id":"levelo_inurba_marseille","lat":43.21193,"lon":5.35077,"is_reserved":false,"is_disabled":false,"rental_uris":{"android":"levelo://app?vid=3e682cf4-5ea7-4563-9004-71435c031ec4","ios":"levelo://app?vid=3e682cf4-5ea7-4563-9004-71435c031ec4"},"vehicle_type_id":"4","last_reported":1758355948,"current_range_meters":8800,"station_id":"st_cvj6sg6p6f1abm77japg","pricing_plan_id":"cebpf4jnsgd1na2vs0mg"},{"bike_id":"2aa1e690-fb47-41f4-87b4-95b056172a1a","system_id":"levelo_inurba_marseille","lat":43.229268,"lon":5.353997,"is_reserved":false,"is_disabled":false,"rental_uris":{"android":"levelo://app?vid=2aa1e690-fb47-41f4-87b4-95b056172a1a","ios":"levelo://app?vid=2aa1e690-fb47-41f4-87b4-95b056172a1a"},"vehicle_type_id":"4","last_reported":1758355948,"current_range_meters":8800,"station_id":"cpo3532slgdg3j2ikp40","pricing_plan_id":"cebpf4jnsgd1na2vs0mg"},{"bike_id":"c03db5d6-931c-41e0-bfa5-6550a106fb99","system_id":"levelo_inurba_marseille","lat":43.23286,"lon":5.36075,"is_reserved":false,"is_disabled":false,"rental_uris":{"android":"levelo://app?vid=c03db5d6-931c-41e0-bfa5-6550a106fb99","ios":"levelo://app?vid=c03db5d6-931c-41e0-bfa5-6550a106fb99"},"vehicle_type_id":"4","last_reported":1758355948,"current_range_meters":8800,"station_id":"","pricing_plan_id":"cebpf4jnsgd1na2vs0mg"},{"bike_id":"5bb42022-0e19-48bc-a5b4-218bb1d7482e","system_id":"levelo_inurba_marseille","lat":43.3126,"lon":5.37736,"is_reserved":false,"is_disabled":false,"rental_uris":{"android":"levelo://app?vid=5bb42022-0e19-48bc-a5b4-218bb1d7482e","ios":"levelo://app?vid=5bb42022-0e19-48bc-a5b4-218bb1d7482e"},"vehicle_type_id":"4","last_reported":1758355948,"current_range_meters":8800,"station_id":"","pricing_plan_id":"cebpf4jnsgd1na2vs0mg"},{"bike_id":"df1e8c3c-ed2b-467e-afc6-0b34009faf01","system_id":"levelo_inurba_marseille","lat":43.30028,"lon":5.38419,"is_reserved":false,"is_disabled":false,"rental_uris":{"android":"levelo://app?vid=df1e8c3c-ed2b-467e-afc6-0b34009faf01","ios":"levelo://app?vid=df1e8c3c-ed2b-467e-afc6-0b34009faf01"},"vehicle_type_id":"4","last_reported":1758355948,"current_range_meters":8800,"station_id":"","pricing_plan_id":"cebpf4jnsgd1na2vs0mg"},{"bike_id":"9006a456-309d-4846-875b-8f78208aeb69","system_id":"levelo_inurba_marseille","lat":43.254883,"lon":5.376491,"is_reserved":false,"is_disabled":false,"rental_uris":{"android":"levelo://app?vid=9006a456-309d-4846-875b-8f78208aeb69","ios":"levelo://app?vid=9006a456-309d-4846-875b-8f78208aeb69"},"vehicle_type_id":"4","last_reported":1758355948,"current_range_meters":9200,"station_id":"ce4bhh12rcd13ifvqff0","pricing_plan_id":"cebpf4jnsgd1na2vs0mg"},{"bike_id":"fb78ea42-e26f-45b3-a617-d3474b811b72","system_id":"levelo_inurba_marseille","lat":43.2987,"lon":5.37932,"is_reserved":false,"is_disabled":false,"rental_uris":{"android":"levelo://app?vid=fb78ea42-e26f-45b3-a617-d3474b811b72","ios":"levelo://app?vid=fb78ea42-e26f-45b3-a617-d3474b811b72"},"vehicle_type_id":"4","last_reported":1758355948,"current_range_meters":9200,"station_id":"","pricing_plan_id":"cebpf4jnsgd1na2vs0mg"},{"bike_id":"06572de0-c7c6-49cf-8221-d19fc0d2c0e1","system_id":"levelo_inurba_marseille","lat":43.29971,"lon":5.3851,"is_reserved":false,"is_disabled":false,"rental_uris":{"android":"levelo://app?vid=06572de0-c7c6-49cf-8221-d19fc0d2c0e1","ios":"levelo://app?vid=06572de0-c7c6-49cf-8221-d19fc0d2c0e1"},"vehicle_type_id":"4","last_reported":1758355948,"current_range_meters":9200,"station_id":"ce4bgj92rcd13ifvqbd0","pricing_plan_id":"cebpf4jnsgd1na2vs0mg"},{"bike_id":"647f9f03-0f20-47fb-8790-01c2132b2cc5","system_id":"levelo_inurba_marseille","lat":43.25279,"lon":5.42597,"is_reserved":false,"is_disabled":false,"rental_uris":{"android":"levelo://app?vid=647f9f03-0f20-47fb-8790-01c2132b2cc5","ios":"levelo://app?vid=647f9f03-0f20-47fb-8790-01c2132b2cc5"},"vehicle_type_id":"4","last_reported":1758355948,"current_range_meters":9200,"station_id":"","pricing_plan_id":"cebpf4jnsgd1na2vs0mg"},{"bike_id":"bf6e6d27-c09e-4725-9fbc-20073fd5a515","system_id":"levelo_inurba_marseille","lat":43.289376,"lon":5.396214,"is_reserved":false,"is_disabled":false,"rental_uris":{"android":"levelo://app?vid=bf6e6d27-c09e-4725-9fbc-20073fd5a515","ios":"levelo://app?vid=bf6e6d27-c09e-4725-9fbc-20073fd5a515"},"vehicle_type_id":"4","last_reported":1758355948,"current_range_meters":9200,"station_id":"","pricing_plan_id":"cebpf4jnsgd1na2vs0mg"},{"bike_id":"c627b34a-8e81-4438-af3b-4fd0aab1c160","system_id":"levelo_inurba_marseille","lat":43.29652,"lon":5.36022,"is_reserved":false,"is_disabled":false,"rental_uris":{"android":"levelo://app?vid=c627b34a-8e81-4438-af3b-4fd0aab1c160","ios":"levelo://app?vid=c627b34a-8e81-4438-af3b-4fd0aab1c160"},"vehicle_type_id":"4","last_reported":1758355948,"current_range_meters":9200,"station_id":"","pricing_plan_id":"cebpf4jnsgd1na2vs0mg"},{"bike_id":"0960e3dd-c358-4474-bd10-8223758e1f6b","system_id":"levelo_inurba_marseille","lat":43.296996,"lon":5.376855,"is_reserved":false,"is_disabled":false,"rental_uris":{"android":"levelo://app?vid=0960e3dd-c358-4474-bd10-8223758e1f6b","ios":"levelo://app?vid=0960e3dd-c358-4474-bd10-8223758e1f6b"},"vehicle_type_id":"4","last_reported":1758355948,"current_range_meters":9200,"station_id":"","pricing_plan_id":"cebpf4jnsgd1na2vs0mg"},{"bike_id":"e27a80ec-a6f1-4d92-9616-65578fa9e7d2","system_id":"levelo_inurba_marseille","lat":43.284545,"lon":5.358895,"is_reserved":false,"is_disabled":false,"rental_uris":{"android":"levelo://app?vid=e27a80ec-a6f1-4d92-9616-65578fa9e7d2","ios":"levelo://app?vid=e27a80ec-a6f1-4d92-9616-65578fa9e7d2"},"vehicle_type_id":"4","last_reported":1758355948,"current_range_meters":9600,"station_id":"ce4bhah2rcd13ifvqei0","pricing_plan_id":"cebpf4jnsgd1na2vs0mg"},{"bike_id":"0722c8ea-9cce-4ec9-9ab1-268c2e795fca","system_id":"levelo_inurba_marseille","lat":43.29035,"lon":5.3997,"is_reserved":false,"is_disabled":false,"rental_uris":{"android":"levelo://app?vid=0722c8ea-9cce-4ec9-9ab1-268c2e795fca","ios":"levelo://app?vid=0722c8ea-9cce-4ec9-9ab1-268c2e795fca"},"vehicle_type_id":"4","last_reported":1758355948,"current_range_meters":9600,"station_id":"ce4bh392rcd13ifvqdm0","pricing_plan_id":"cebpf4jnsgd1na2vs0mg"},{"bike_id":"4bbb8e4b-8415-4755-924b-7c4f87fc83dd","system_id":"levelo_inurba_marseille","lat":43.217533,"lon":5.346063,"is_reserved":false,"is_disabled":false,"rental_uris":{"android":"levelo://app?vid=4bbb8e4b-8415-4755-924b-7c4f87fc83dd","ios":"levelo://app?vid=4bbb8e4b-8415-4755-924b-7c4f87fc83dd"},"vehicle_type_id":"4","last_reported":1758355948,"current_range_meters":9600,"station_id":"","pricing_plan_id":"cebpf4jnsgd1na2vs0mg"},{"bike_id":"844eebf9-8569-4ae8-9a16-f26b110f9c8f","system_id":"levelo_inurba_marseille","lat":43.30947,"lon":5.39034,"is_reserved":false,"is_disabled":false,"rental_uris":{"android":"levelo://app?vid=844eebf9-8569-4ae8-9a16-f26b110f9c8f","ios":"levelo://app?vid=844eebf9-8569-4ae8-9a16-f26b110f9c8f"},"vehicle_type_id":"4","last_reported":1758355948,"current_range_meters":9200,"station_id":"ce4bgup2rcd13ifvqco0","pricing_plan_id":"cebpf4jnsgd1na2vs0mg"},{"bike_id":"f79bc5d1-5163-436f-949d-a820bc2d0ce3","system_id":"levelo_inurba_marseille","lat":43.255747,"lon":5.38233,"is_reserved":false,"is_disabled":false,"rental_uris":{"android":"levelo://app?vid=f79bc5d1-5163-436f-949d-a820bc2d0ce3","ios":"levelo://app?vid=f79bc5d1-5163-436f-949d-a820bc2d0ce3"},"vehicle_type_id":"4","last_reported":1758355948,"current_range_meters":10000,"station_id":"ce4bhih2rcd13ifvqfs0","pricing_plan_id":"cebpf4jnsgd1na2vs0mg"},{"bike_id":"0765f1d1-081b-48ff-b4ce-50191a579599","system_id":"levelo_inurba_marseille","lat":43.24174,"lon":5.39716,"is_reserved":false,"is_disabled":false,"rental_uris":{"android":"levelo://app?vid=0765f1d1-081b-48ff-b4ce-50191a579599","ios":"levelo://app?vid=0765f1d1-081b-48ff-b4ce-50191a579599"},"vehicle_type_id":"4","last_reported":1758355948,"current_range_meters":10000,"station_id":"ce4bhn12rcd13ifvqgpg","pricing_plan_id":"cebpf4jnsgd1na2vs0mg"},{"bike_id":"fa903b21-f281-4cdf-9804-94977ee3ac04","system_id":"levelo_inurba_marseille","lat":43.26788,"lon":5.39408,"is_reserved":false,"is_disabled":false,"rental_uris":{"android":"levelo://app?vid=fa903b21-f281-4cdf-9804-94977ee3ac04","ios":"levelo://app?vid=fa903b21-f281-4cdf-9804-94977ee3ac04"},"vehicle_type_id":"4","last_reported":1758355948,"current_range_meters":10000,"station_id":"ce4bhh12rcd13ifvqfg0","pricing_plan_id":"cebpf4jnsgd1na2vs0mg"},{"bike_id":"626b6093-634e-4cbb-b2d9-40fd2760e802","system_id":"levelo_inurba_marseille","lat":43.25836,"lon":5.39422,"is_reserved":false,"is_disabled":false,"rental_uris":{"android":"levelo://app?vid=626b6093-634e-4cbb-b2d9-40fd2760e802","ios":"levelo://app?vid=626b6093-634e-4cbb-b2d9-40fd2760e802"},"vehicle_type_id":"4","last_reported":1758355948,"current_range_meters":10000,"station_id":"ce4bhip2rcd13ifvqft0","pricing_plan_id":"cebpf4jnsgd1na2vs0mg"},{"bike_id":"8fbfd5a5-3333-4c55-a21e-563563a2175c","system_id":"levelo_inurba_marseille","lat":43.3377,"lon":5.37423,"is_reserved":false,"is_disabled":false,"rental_uris":{"android":"levelo://app?vid=8fbfd5a5-3333-4c55-a21e-563563a2175c","ios":"levelo://app?vid=8fbfd5a5-3333-4c55-a21e-563563a2175c"},"vehicle_type_id":"4","last_reported":1758355948,"current_range_meters":10000,"station_id":"","pricing_plan_id":"cebpf4jnsgd1na2vs0mg"},{"bike_id":"f85a8c4d-f9d0-4136-9b57-8bfb28db950c","system_id":"levelo_inurba_marseille","lat":43.318893,"lon":5.374626,"is_reserved":false,"is_disabled":false,"rental_uris":{"android":"levelo://app?vid=f85a8c4d-f9d0-4136-9b57-8bfb28db950c","ios":"levelo://app?vid=f85a8c4d-f9d0-4136-9b57-8bfb28db950c"},"vehicle_type_id":"4","last_reported":1758355948,"current_range_meters":11200,"station_id":"","pricing_plan_id":"cebpf4jnsgd1na2vs0mg"},{"bike_id":"617dca4b-4508-4d52-9e62-d583d919ac44","system_id":"levelo_inurba_marseille","lat":43.297423,"lon":5.37118,"is_reserved":false,"is_disabled":false,"rental_uris":{"android":"levelo://app?vid=617dca4b-4508-4d52-9e62-d583d919ac44","ios":"levelo://app?vid=617dca4b-4508-4d52-9e62-d583d919ac44"},"vehicle_type_id":"4","last_reported":1758355948,"current_range_meters":11200,"station_id":"ce4bgop2rcd13ifvqc1g","pricing_plan_id":"cebpf4jnsgd1na2vs0mg"},{"bike_id":"03ac7041-4042-45bb-aad0-91b68d20bddd","system_id":"levelo_inurba_marseille","lat":43.24647,"lon":5.38912,"is_reserved":false,"is_disabled":false,"rental_uris":{"android":"levelo://app?vid=03ac7041-4042-45bb-aad0-91b68d20bddd","ios":"levelo://app?vid=03ac7041-4042-45bb-aad0-91b68d20bddd"},"vehicle_type_id":"4","last_reported":1758355948,"current_range_meters":11200,"station_id":"ce4bhg12rcd13ifvqf60","pricing_plan_id":"cebpf4jnsgd1na2vs0mg"},{"bike_id":"9c0693b2-33f4-40d9-85fa-754a770a9d54","system_id":"levelo_inurba_marseille","lat":43.295188,"lon":5.390328,"is_reserved":false,"is_disabled":false,"rental_uris":{"android":"levelo://app?vid=9c0693b2-33f4-40d9-85fa-754a770a9d54","ios":"levelo://app?vid=9c0693b2-33f4-40d9-85fa-754a770a9d54"},"vehicle_type_id":"4","last_reported":1758355948,"current_range_meters":11200,"station_id":"ce4bh312rcd13ifvqdj0","pricing_plan_id":"cebpf4jnsgd1na2vs0mg"},{"bike_id":"8529d173-ab02-4c9f-bd24-7f74ac7efeed","system_id":"levelo_inurba_marseille","lat":43.29259,"lon":5.3744,"is_reserved":false,"is_disabled":false,"rental_uris":{"android":"levelo://app?vid=8529d173-ab02-4c9f-bd24-7f74ac7efeed","ios":"levelo://app?vid=8529d173-ab02-4c9f-bd24-7f74ac7efeed"},"vehicle_type_id":"4","last_reported":1758355948,"current_range_meters":11600,"station_id":"ce4bgi12rcd13ifvqb70","pricing_plan_id":"cebpf4jnsgd1na2vs0mg"},{"bike_id":"5e3bf85c-7ff6-4d71-998d-4e940edf82e7","system_id":"levelo_inurba_marseille","lat":43.274925,"lon":5.424518,"is_reserved":false,"is_disabled":false,"rental_uris":{"android":"levelo://app?vid=5e3bf85c-7ff6-4d71-998d-4e940edf82e7","ios":"levelo://app?vid=5e3bf85c-7ff6-4d71-998d-4e940edf82e7"},"vehicle_type_id":"4","last_reported":1758355948,"current_range_meters":11600,"station_id":"ce4bhn92rcd13ifvqgrg","pricing_plan_id":"cebpf4jnsgd1na2vs0mg"},{"bike_id":"2ab32746-2015-485c-8d1b-6d365c26b4bf","system_id":"levelo_inurba_marseille","lat":43.29234,"lon":5.37576,"is_reserved":false,"is_disabled":true,"rental_uris":{"android":"levelo://app?vid=2ab32746-2015-485c-8d1b-6d365c26b4bf","ios":"levelo://app?vid=2ab32746-2015-485c-8d1b-6d365c26b4bf"},"vehicle_type_id":"4","last_reported":1758355948,"current_range_meters":11600,"station_id":"","pricing_plan_id":"cebpf4jnsgd1na2vs0mg"},{"bike_id":"b5175bf2-b970-4193-a107-a70c3097ce26","system_id":"levelo_inurba_marseille","lat":43.25338,"lon":5.42168,"is_reserved":false,"is_disabled":false,"rental_uris":{"android":"levelo://app?vid=b5175bf2-b970-4193-a107-a70c3097ce26","ios":"levelo://app?vid=b5175bf2-b970-4193-a107-a70c3097ce26"},"vehicle_type_id":"4","last_reported":1758355948,"current_range_meters":11600,"station_id":"st_d2m65c5bi1j21697t3ng","pricing_plan_id":"cebpf4jnsgd1na2vs0mg"},{"bike_id":"a2523396-9757-4f7a-af46-78c68f0314ac","system_id":"levelo_inurba_marseille","lat":43.337444,"lon":5.374475,"is_reserved":false,"is_disabled":false,"rental_uris":{"android":"levelo://app?vid=a2523396-9757-4f7a-af46-78c68f0314ac","ios":"levelo://app?vid=a2523396-9757-4f7a-af46-78c68f0314ac"},"vehicle_type_id":"4","last_reported":1758355948,"current_range_meters":11600,"station_id":"","pricing_plan_id":"cebpf4jnsgd1na2vs0mg"},{"bike_id":"e03170f3-a454-4441-92ac-6a3e03a7df32","system_id":"levelo_inurba_marseille","lat":43.28699,"lon":5.39983,"is_reserved":false,"is_disabled":false,"rental_uris":{"android":"levelo://app?vid=e03170f3-a454-4441-92ac-6a3e03a7df32","ios":"levelo://app?vid=e03170f3-a454-4441-92ac-6a3e03a7df32"},"vehicle_type_id":"4","last_reported":1758355948,"current_range_meters":11600,"station_id":"ce4bho92rcd13ifvqh3g","pricing_plan_id":"cebpf4jnsgd1na2vs0mg"},{"bike_id":"0bfe348e-6459-4dea-b9d4-f1251d15e612","system_id":"levelo_inurba_marseille","lat":43.31997,"lon":5.3816,"is_reserved":false,"is_disabled":false,"rental_uris":{"android":"levelo://app?vid=0bfe348e-6459-4dea-b9d4-f1251d15e612","ios":"levelo://app?vid=0bfe348e-6459-4dea-b9d4-f1251d15e612"},"vehicle_type_id":"4","last_reported":1758355948,"current_range_meters":12000,"station_id":"ce4bhr12rcd13ifvqhpg","pricing_plan_id":"cebpf4jnsgd1na2vs0mg"},{"bike_id":"15056272-9948-4fb8-8a3f-0dce85d9f376","system_id":"levelo_inurba_marseille","lat":43.278261,"lon":5.392189,"is_reserved":false,"is_disabled":false,"rental_uris":{"android":"levelo://app?vid=15056272-9948-4fb8-8a3f-0dce85d9f376","ios":"levelo://app?vid=15056272-9948-4fb8-8a3f-0dce85d9f376"},"vehicle_type_id":"4","last_reported":1758355948,"current_range_meters":12000,"station_id":"ce4bhjp2rcd13ifvqga0","pricing_plan_id":"cebpf4jnsgd1na2vs0mg"},{"bike_id":"1f504a28-4fa9-403f-aa89-a2e3f8c0fae4","system_id":"levelo_inurba_marseille","lat":43.24074,"lon":5.3776,"is_reserved":false,"is_disabled":false,"rental_uris":{"android":"levelo://app?vid=1f504a28-4fa9-403f-aa89-a2e3f8c0fae4","ios":"levelo://app?vid=1f504a28-4fa9-403f-aa89-a2e3f8c0fae4"},"vehicle_type_id":"4","last_reported":1758355948,"current_range_meters":12000,"station_id":"ce4bhnp2rcd13ifvqgvg","pricing_plan_id":"cebpf4jnsgd1na2vs0mg"},{"bike_id":"bb72ba64-0211-468b-8863-8690777c217e","system_id":"levelo_inurba_marseille","lat":43.32092,"lon":5.36836,"is_reserved":false,"is_disabled":false,"rental_uris":{"android":"levelo://app?vid=bb72ba64-0211-468b-8863-8690777c217e","ios":"levelo://app?vid=bb72ba64-0211-468b-8863-8690777c217e"},"vehicle_type_id":"4","last_reported":1758355948,"current_range_meters":12000,"station_id":"ce4bhrh2rcd13ifvqhug","pricing_plan_id":"cebpf4jnsgd1na2vs0mg"},{"bike_id":"23fac069-01cc-45b6-b24d-e676fd2da16a","system_id":"levelo_inurba_marseille","lat":43.29269,"lon":5.36844,"is_reserved":false,"is_disabled":false,"rental_uris":{"android":"levelo://app?vid=23fac069-01cc-45b6-b24d-e676fd2da16a","ios":"levelo://app?vid=23fac069-01cc-45b6-b24d-e676fd2da16a"},"vehicle_type_id":"4","last_reported":1758355948,"current_range_meters":12000,"station_id":"ce4bhbp2rcd13ifvqesg","pricing_plan_id":"cebpf4jnsgd1na2vs0mg"},{"bike_id":"9e50eb2c-f3c7-4999-ae53-34a5a55fe92a","system_id":"levelo_inurba_marseille","lat":43.28028,"lon":5.36958,"is_reserved":false,"is_disabled":false,"rental_uris":{"android":"levelo://app?vid=9e50eb2c-f3c7-4999-ae53-34a5a55fe92a","ios":"levelo://app?vid=9e50eb2c-f3c7-4999-ae53-34a5a55fe92a"},"vehicle_type_id":"4","last_reported":1758355948,"current_range_meters":12400,"station_id":"ce4bha12rcd13ifvqef0","pricing_plan_id":"cebpf4jnsgd1na2vs0mg"},{"bike_id":"ccd44948-7c00-492e-b618-36105a29ab8f","system_id":"levelo_inurba_marseille","lat":43.32681,"lon":5.41006,"is_reserved":false,"is_disabled":true,"rental_uris":{"android":"levelo://app?vid=ccd44948-7c00-492e-b618-36105a29ab8f","ios":"levelo://app?vid=ccd44948-7c00-492e-b618-36105a29ab8f"},"vehicle_type_id":"4","last_reported":1758355948,"current_range_meters":12400,"station_id":"ce4bhpp2rcd13ifvqhgg","pricing_plan_id":"cebpf4jnsgd1na2vs0mg"},{"bike_id":"835975a0-27c7-47e7-bc1c-b8ba0b505127","system_id":"levelo_inurba_marseille","lat":43.32603,"lon":5.37804,"is_reserved":false,"is_disabled":false,"rental_uris":{"android":"levelo://app?vid=835975a0-27c7-47e7-bc1c-b8ba0b505127","ios":"levelo://app?vid=835975a0-27c7-47e7-bc1c-b8ba0b505127"},"vehicle_type_id":"4","last_reported":1758355948,"current_range_meters":12400,"station_id":"","pricing_plan_id":"cebpf4jnsgd1na2vs0mg"},{"bike_id":"c1843d42-9f15-4235-8c7f-0c60147cb155","system_id":"levelo_inurba_marseille","lat":43.21185,"lon":5.35086,"is_reserved":false,"is_disabled":false,"rental_uris":{"android":"levelo://app?vid=c1843d42-9f15-4235-8c7f-0c60147cb155","ios":"levelo://app?vid=c1843d42-9f15-4235-8c7f-0c60147cb155"},"vehicle_type_id":"4","last_reported":1758355948,"current_range_meters":12400,"station_id":"st_cvj6sg6p6f1abm77japg","pricing_plan_id":"cebpf4jnsgd1na2vs0mg"},{"bike_id":"0d92ed67-464e-4242-b7e6-72ec27a8c240","system_id":"levelo_inurba_marseille","lat":43.2953,"lon":5.3853,"is_reserved":false,"is_disabled":false,"rental_uris":{"android":"levelo://app?vid=0d92ed67-464e-4242-b7e6-72ec27a8c240","ios":"levelo://app?vid=0d92ed67-464e-4242-b7e6-72ec27a8c240"},"vehicle_type_id":"4","last_reported":1758355948,"current_range_meters":12000,"station_id":"ce4bgih2rcd13ifvqba0","pricing_plan_id":"cebpf4jnsgd1na2vs0mg"},{"bike_id":"5892a1a5-72f0-4fa8-a623-8be58359c326","system_id":"levelo_inurba_marseille","lat":43.27499,"lon":5.42456,"is_reserved":false,"is_disabled":false,"rental_uris":{"android":"levelo://app?vid=5892a1a5-72f0-4fa8-a623-8be58359c326","ios":"levelo://app?vid=5892a1a5-72f0-4fa8-a623-8be58359c326"},"vehicle_type_id":"4","last_reported":1758355948,"current_range_meters":12800,"station_id":"ce4bhn92rcd13ifvqgrg","pricing_plan_id":"cebpf4jnsgd1na2vs0mg"},{"bike_id":"c4706891-6ce1-4440-91ff-a3ecf2ff007e","system_id":"levelo_inurba_marseille","lat":43.26374,"lon":5.40075,"is_reserved":false,"is_disabled":false,"rental_uris":{"android":"levelo://app?vid=c4706891-6ce1-4440-91ff-a3ecf2ff007e","ios":"levelo://app?vid=c4706891-6ce1-4440-91ff-a3ecf2ff007e"},"vehicle_type_id":"4","last_reported":1758355948,"current_range_meters":12800,"station_id":"","pricing_plan_id":"cebpf4jnsgd1na2vs0mg"},{"bike_id":"33d69153-3ab1-466b-9006-3187feb06b56","system_id":"levelo_inurba_marseille","lat":43.211915,"lon":5.35073,"is_reserved":false,"is_disabled":false,"rental_uris":{"android":"levelo://app?vid=33d69153-3ab1-466b-9006-3187feb06b56","ios":"levelo://app?vid=33d69153-3ab1-466b-9006-3187feb06b56"},"vehicle_type_id":"4","last_reported":1758355948,"current_range_meters":12800,"station_id":"","pricing_plan_id":"cebpf4jnsgd1na2vs0mg"},{"bike_id":"012a818b-57a7-4c7e-9b4b-2c9d7ce5df51","system_id":"levelo_inurba_marseille","lat":43.27316,"lon":5.39074,"is_reserved":false,"is_disabled":false,"rental_uris":{"android":"levelo://app?vid=012a818b-57a7-4c7e-9b4b-2c9d7ce5df51","ios":"levelo://app?vid=012a818b-57a7-4c7e-9b4b-2c9d7ce5df51"},"vehicle_type_id":"4","last_reported":1758355948,"current_range_meters":12800,"station_id":"ce4bhgp2rcd13ifvqfe0","pricing_plan_id":"cebpf4jnsgd1na2vs0mg"},{"bike_id":"c807c160-f142-4f36-b4cd-8e180ee8e30f","system_id":"levelo_inurba_marseille","lat":43.30425,"lon":5.41273,"is_reserved":false,"is_disabled":false,"rental_uris":{"android":"levelo://app?vid=c807c160-f142-4f36-b4cd-8e180ee8e30f","ios":"levelo://app?vid=c807c160-f142-4f36-b4cd-8e180ee8e30f"},"vehicle_type_id":"4","last_reported":1758355948,"current_range_meters":12800,"station_id":"ce4bhop2rcd13ifvqh8g","pricing_plan_id":"cebpf4jnsgd1na2vs0mg"},{"bike_id":"cffc7bea-3cb5-4aca-b803-5b7635d58611","system_id":"levelo_inurba_marseille","lat":43.28213,"lon":5.39055,"is_reserved":false,"is_disabled":false,"rental_uris":{"android":"levelo://app?vid=cffc7bea-3cb5-4aca-b803-5b7635d58611","ios":"levelo://app?vid=cffc7bea-3cb5-4aca-b803-5b7635d58611"},"vehicle_type_id":"4","last_reported":1758355948,"current_range_meters":12800,"station_id":"ce4bhn92rcd13ifvqgsg","pricing_plan_id":"cebpf4jnsgd1na2vs0mg"},{"bike_id":"5e05e696-df5d-4299-a604-ed86d39ecbf5","system_id":"levelo_inurba_marseille","lat":43.30944,"lon":5.39052,"is_reserved":false,"is_disabled":false,"rental_uris":{"android":"levelo://app?vid=5e05e696-df5d-4299-a604-ed86d39ecbf5","ios":"levelo://app?vid=5e05e696-df5d-4299-a604-ed86d39ecbf5"},"vehicle_type_id":"4","last_reported":1758355948,"current_range_meters":12800,"station_id":"ce4bgup2rcd13ifvqco0","pricing_plan_id":"cebpf4jnsgd1na2vs0mg"},{"bike_id":"c5baaa51-c759-4b8d-bea7-fe8628b6b742","system_id":"levelo_inurba_marseille","lat":43.24382,"lon":5.37058,"is_reserved":false,"is_disabled":false,"rental_uris":{"android":"levelo://app?vid=c5baaa51-c759-4b8d-bea7-fe8628b6b742","ios":"levelo://app?vid=c5baaa51-c759-4b8d-bea7-fe8628b6b742"},"vehicle_type_id":"4","last_reported":1758355948,"current_range_meters":13600,"station_id":"ce4bhhh2rcd13ifvqfk0","pricing_plan_id":"cebpf4jnsgd1na2vs0mg"},{"bike_id":"8e86fe12-b2d6-4764-9720-31f5ab462b7b","system_id":"levelo_inurba_marseille","lat":43.22565,"lon":5.41614,"is_reserved":false,"is_disabled":false,"rental_uris":{"android":"levelo://app?vid=8e86fe12-b2d6-4764-9720-31f5ab462b7b","ios":"levelo://app?vid=8e86fe12-b2d6-4764-9720-31f5ab462b7b"},"vehicle_type_id":"4","last_reported":1758355948,"current_range_meters":13600,"station_id":"st_d2o4gvlbi1j2169b742g","pricing_plan_id":"cebpf4jnsgd1na2vs0mg"},{"bike_id":"12c2d35e-c3e1-4770-ab13-be595978035a","system_id":"levelo_inurba_marseille","lat":43.28861,"lon":5.3931,"is_reserved":false,"is_disabled":false,"rental_uris":{"android":"levelo://app?vid=12c2d35e-c3e1-4770-ab13-be595978035a","ios":"levelo://app?vid=12c2d35e-c3e1-4770-ab13-be595978035a"},"vehicle_type_id":"4","last_reported":1758355948,"current_range_meters":13600,"station_id":"ce4bh2p2rcd13ifvqdi0","pricing_plan_id":"cebpf4jnsgd1na2vs0mg"},{"bike_id":"05ca0aa0-5596-4971-a0c3-94e65df6bd50","system_id":"levelo_inurba_marseille","lat":43.22556,"lon":5.416303,"is_reserved":false,"is_disabled":false,"rental_uris":{"android":"levelo://app?vid=05ca0aa0-5596-4971-a0c3-94e65df6bd50","ios":"levelo://app?vid=05ca0aa0-5596-4971-a0c3-94e65df6bd50"},"vehicle_type_id":"4","last_reported":1758355948,"current_range_meters":13600,"station_id":"st_d2o4gvlbi1j2169b742g","pricing_plan_id":"cebpf4jnsgd1na2vs0mg"},{"bike_id":"190f3b2c-f3a4-4c3b-b46e-5a6482b2b977","system_id":"levelo_inurba_marseille","lat":43.2897,"lon":5.37836,"is_reserved":false,"is_disabled":false,"rental_uris":{"android":"levelo://app?vid=190f3b2c-f3a4-4c3b-b46e-5a6482b2b977","ios":"levelo://app?vid=190f3b2c-f3a4-4c3b-b46e-5a6482b2b977"},"vehicle_type_id":"4","last_reported":1758355948,"current_range_meters":13600,"station_id":"ce4bh9p2rcd13ifvqed0","pricing_plan_id":"cebpf4jnsgd1na2vs0mg"},{"bike_id":"11f536f5-f858-4572-b106-c5cc3146e3cd","system_id":"levelo_inurba_marseille","lat":43.25334,"lon":5.42164,"is_reserved":false,"is_disabled":false,"rental_uris":{"android":"levelo://app?vid=11f536f5-f858-4572-b106-c5cc3146e3cd","ios":"levelo://app?vid=11f536f5-f858-4572-b106-c5cc3146e3cd"},"vehicle_type_id":"4","last_reported":1758355948,"current_range_meters":13600,"station_id":"st_d2m65c5bi1j21697t3ng","pricing_plan_id":"cebpf4jnsgd1na2vs0mg"},{"bike_id":"377e8d45-9f94-4ead-b151-0fd9cba663b3","system_id":"levelo_inurba_marseille","lat":43.27618,"lon":5.36108,"is_reserved":false,"is_disabled":false,"rental_uris":{"android":"levelo://app?vid=377e8d45-9f94-4ead-b151-0fd9cba663b3","ios":"levelo://app?vid=377e8d45-9f94-4ead-b151-0fd9cba663b3"},"vehicle_type_id":"4","last_reported":1758355948,"current_range_meters":14000,"station_id":"ce4bgj92rcd13ifvqbe0","pricing_plan_id":"cebpf4jnsgd1na2vs0mg"},{"bike_id":"100fc699-7bc2-45de-9e70-967069e79569","system_id":"levelo_inurba_marseille","lat":43.27935,"lon":5.41056,"is_reserved":false,"is_disabled":false,"rental_uris":{"android":"levelo://app?vid=100fc699-7bc2-45de-9e70-967069e79569","ios":"levelo://app?vid=100fc699-7bc2-45de-9e70-967069e79569"},"vehicle_type_id":"4","last_reported":1758355948,"current_range_meters":14000,"station_id":"ce4bhnp2rcd13ifvqh0g","pricing_plan_id":"cebpf4jnsgd1na2vs0mg"},{"bike_id":"08e6cc79-ed3a-417b-b640-d746ca41bd60","system_id":"levelo_inurba_marseille","lat":43.25109,"lon":5.40332,"is_reserved":false,"is_disabled":false,"rental_uris":{"android":"levelo://app?vid=08e6cc79-ed3a-417b-b640-d746ca41bd60","ios":"levelo://app?vid=08e6cc79-ed3a-417b-b640-d746ca41bd60"},"vehicle_type_id":"4","last_reported":1758355948,"current_range_meters":14000,"station_id":"ce4bhlh2rcd13ifvqgig","pricing_plan_id":"cebpf4jnsgd1na2vs0mg"},{"bike_id":"df0199ee-ab4f-48ab-bbe9-404b970e49dc","system_id":"levelo_inurba_marseille","lat":43.290764,"lon":5.371503,"is_reserved":false,"is_disabled":false,"rental_uris":{"android":"levelo://app?vid=df0199ee-ab4f-48ab-bbe9-404b970e49dc","ios":"levelo://app?vid=df0199ee-ab4f-48ab-bbe9-404b970e49dc"},"vehicle_type_id":"4","last_reported":1758355948,"current_range_meters":13600,"station_id":"ce4bh5p2rcd13ifvqe4g","pricing_plan_id":"cebpf4jnsgd1na2vs0mg"},{"bike_id":"dd9cbb93-9685-4d92-bdf5-f3bcd595c354","system_id":"levelo_inurba_marseille","lat":43.29225,"lon":5.36065,"is_reserved":false,"is_disabled":false,"rental_uris":{"android":"levelo://app?vid=dd9cbb93-9685-4d92-bdf5-f3bcd595c354","ios":"levelo://app?vid=dd9cbb93-9685-4d92-bdf5-f3bcd595c354"},"vehicle_type_id":"4","last_reported":1758355948,"current_range_meters":14000,"station_id":"ce4bhbh2rcd13ifvqeqg","pricing_plan_id":"cebpf4jnsgd1na2vs0mg"},{"bike_id":"78101373-b8b4-498e-8461-ea5dc9f7a6b0","system_id":"levelo_inurba_marseille","lat":43.312786,"lon":5.40164,"is_reserved":false,"is_disabled":false,"rental_uris":{"android":"levelo://app?vid=78101373-b8b4-498e-8461-ea5dc9f7a6b0","ios":"levelo://app?vid=78101373-b8b4-498e-8461-ea5dc9f7a6b0"},"vehicle_type_id":"4","last_reported":1758355948,"current_range_meters":14000,"station_id":"ce4bh092rcd13ifvqd30","pricing_plan_id":"cebpf4jnsgd1na2vs0mg"},{"bike_id":"5a2eb1ad-d86d-4af8-9518-dafd2c01b598","system_id":"levelo_inurba_marseille","lat":43.30154,"lon":5.38089,"is_reserved":false,"is_disabled":false,"rental_uris":{"android":"levelo://app?vid=5a2eb1ad-d86d-4af8-9518-dafd2c01b598","ios":"levelo://app?vid=5a2eb1ad-d86d-4af8-9518-dafd2c01b598"},"vehicle_type_id":"4","last_reported":1758355948,"current_range_meters":14400,"station_id":"ce4bgjp2rcd13ifvqbh0","pricing_plan_id":"cebpf4jnsgd1na2vs0mg"},{"bike_id":"0a375db5-1784-479b-a141-90f1ff8d3241","system_id":"levelo_inurba_marseille","lat":43.30153,"lon":5.38092,"is_reserved":false,"is_disabled":false,"rental_uris":{"android":"levelo://app?vid=0a375db5-1784-479b-a141-90f1ff8d3241","ios":"levelo://app?vid=0a375db5-1784-479b-a141-90f1ff8d3241"},"vehicle_type_id":"4","last_reported":1758355948,"current_range_meters":14400,"station_id":"ce4bgjp2rcd13ifvqbh0","pricing_plan_id":"cebpf4jnsgd1na2vs0mg"},{"bike_id":"1e874712-5084-44a3-8984-59cd4033cafd","system_id":"levelo_inurba_marseille","lat":43.295263,"lon":5.390297,"is_reserved":false,"is_disabled":false,"rental_uris":{"android":"levelo://app?vid=1e874712-5084-44a3-8984-59cd4033cafd","ios":"levelo://app?vid=1e874712-5084-44a3-8984-59cd4033cafd"},"vehicle_type_id":"4","last_reported":1758355948,"current_range_meters":14400,"station_id":"ce4bh3p2rcd13ifvqdp0","pricing_plan_id":"cebpf4jnsgd1na2vs0mg"},{"bike_id":"7b96d418-9585-4249-aaab-8b0b6e237efb","system_id":"levelo_inurba_marseille","lat":43.25492,"lon":5.37646,"is_reserved":false,"is_disabled":false,"rental_uris":{"android":"levelo://app?vid=7b96d418-9585-4249-aaab-8b0b6e237efb","ios":"levelo://app?vid=7b96d418-9585-4249-aaab-8b0b6e237efb"},"vehicle_type_id":"4","last_reported":1758355948,"current_range_meters":14400,"station_id":"ce4bhh12rcd13ifvqff0","pricing_plan_id":"cebpf4jnsgd1na2vs0mg"},{"bike_id":"34ce480f-c08d-4c09-91f8-ebf4bce3cc0a","system_id":"levelo_inurba_marseille","lat":43.29043,"lon":5.35918,"is_reserved":false,"is_disabled":false,"rental_uris":{"android":"levelo://app?vid=34ce480f-c08d-4c09-91f8-ebf4bce3cc0a","ios":"levelo://app?vid=34ce480f-c08d-4c09-91f8-ebf4bce3cc0a"},"vehicle_type_id":"4","last_reported":1758355948,"current_range_meters":14400,"station_id":"ce4bha92rcd13ifvqeg0","pricing_plan_id":"cebpf4jnsgd1na2vs0mg"},{"bike_id":"ac6b189b-e789-4c5e-95bf-5a7171d7603c","system_id":"levelo_inurba_marseille","lat":43.28264,"lon":5.35075,"is_reserved":false,"is_disabled":false,"rental_uris":{"android":"levelo://app?vid=ac6b189b-e789-4c5e-95bf-5a7171d7603c","ios":"levelo://app?vid=ac6b189b-e789-4c5e-95bf-5a7171d7603c"},"vehicle_type_id":"4","last_reported":1758355948,"current_range_meters":14400,"station_id":"ce4bhbp2rcd13ifvqerg","pricing_plan_id":"cebpf4jnsgd1na2vs0mg"},{"bike_id":"04c7d08f-bac6-4502-ac60-a6896241f8e4","system_id":"levelo_inurba_marseille","lat":43.3237,"lon":5.38442,"is_reserved":false,"is_disabled":false,"rental_uris":{"android":"levelo://app?vid=04c7d08f-bac6-4502-ac60-a6896241f8e4","ios":"levelo://app?vid=04c7d08f-bac6-4502-ac60-a6896241f8e4"},"vehicle_type_id":"4","last_reported":1758355948,"current_range_meters":14800,"station_id":"","pricing_plan_id":"cebpf4jnsgd1na2vs0mg"},{"bike_id":"b810ec46-97ab-4356-95f9-0c9d02506d5a","system_id":"levelo_inurba_marseille","lat":43.24458,"lon":5.39039,"is_reserved":false,"is_disabled":false,"rental_uris":{"android":"levelo://app?vid=b810ec46-97ab-4356-95f9-0c9d02506d5a","ios":"levelo://app?vid=b810ec46-97ab-4356-95f9-0c9d02506d5a"},"vehicle_type_id":"4","last_reported":1758355948,"current_range_meters":14800,"station_id":"","pricing_plan_id":"cebpf4jnsgd1na2vs0mg"},{"bike_id":"c7b7bf6c-e3f6-421f-ab79-e572cd8b569c","system_id":"levelo_inurba_marseille","lat":43.29623,"lon":5.37154,"is_reserved":false,"is_disabled":false,"rental_uris":{"android":"levelo://app?vid=c7b7bf6c-e3f6-421f-ab79-e572cd8b569c","ios":"levelo://app?vid=c7b7bf6c-e3f6-421f-ab79-e572cd8b569c"},"vehicle_type_id":"4","last_reported":1758355948,"current_range_meters":14800,"station_id":"ce4bgnh2rcd13ifvqc0g","pricing_plan_id":"cebpf4jnsgd1na2vs0mg"},{"bike_id":"438ead59-de14-4fa0-a61d-03a70a4122ae","system_id":"levelo_inurba_marseille","lat":43.97274,"lon":4.89143,"is_reserved":false,"is_disabled":true,"rental_uris":{"android":"levelo://app?vid=438ead59-de14-4fa0-a61d-03a70a4122ae","ios":"levelo://app?vid=438ead59-de14-4fa0-a61d-03a70a4122ae"},"vehicle_type_id":"4","last_reported":1758355948,"current_range_meters":14800,"station_id":"","pricing_plan_id":"cebpf4jnsgd1na2vs0mg"},{"bike_id":"0f7caa9f-1d1a-40d7-9b4a-2f8720e63681","system_id":"levelo_inurba_marseille","lat":43.3087,"lon":5.37501,"is_reserved":false,"is_disabled":false,"rental_uris":{"android":"levelo://app?vid=0f7caa9f-1d1a-40d7-9b4a-2f8720e63681","ios":"levelo://app?vid=0f7caa9f-1d1a-40d7-9b4a-2f8720e63681"},"vehicle_type_id":"4","last_reported":1758355948,"current_range_meters":15200,"station_id":"","pricing_plan_id":"cebpf4jnsgd1na2vs0mg"},{"bike_id":"2c734c36-442f-468e-ab47-e34ad5183e32","system_id":"levelo_inurba_marseille","lat":43.25772,"lon":5.41047,"is_reserved":false,"is_disabled":true,"rental_uris":{"android":"levelo://app?vid=2c734c36-442f-468e-ab47-e34ad5183e32","ios":"levelo://app?vid=2c734c36-442f-468e-ab47-e34ad5183e32"},"vehicle_type_id":"4","last_reported":1758355948,"current_range_meters":15200,"station_id":"","pricing_plan_id":"cebpf4jnsgd1na2vs0mg"},{"bike_id":"a1a12c71-6d96-4648-a25f-8df642a6dc66","system_id":"levelo_inurba_marseille","lat":43.28478,"lon":5.38424,"is_reserved":false,"is_disabled":false,"rental_uris":{"android":"levelo://app?vid=a1a12c71-6d96-4648-a25f-8df642a6dc66","ios":"levelo://app?vid=a1a12c71-6d96-4648-a25f-8df642a6dc66"},"vehicle_type_id":"4","last_reported":1758355948,"current_range_meters":15200,"station_id":"ce4bh512rcd13ifvqe3g","pricing_plan_id":"cebpf4jnsgd1na2vs0mg"},{"bike_id":"fd6b138b-1fce-45b4-9bbf-6b329dfaafc2","system_id":"levelo_inurba_marseille","lat":43.28202,"lon":5.39061,"is_reserved":false,"is_disabled":false,"rental_uris":{"android":"levelo://app?vid=fd6b138b-1fce-45b4-9bbf-6b329dfaafc2","ios":"levelo://app?vid=fd6b138b-1fce-45b4-9bbf-6b329dfaafc2"},"vehicle_type_id":"4","last_reported":1758355948,"current_range_meters":15200,"station_id":"ce4bhn92rcd13ifvqgsg","pricing_plan_id":"cebpf4jnsgd1na2vs0mg"},{"bike_id":"55d1bc08-fd54-4a82-afc7-2adcaa7b1c4e","system_id":"levelo_inurba_marseille","lat":43.300343,"lon":5.376982,"is_reserved":false,"is_disabled":false,"rental_uris":{"android":"levelo://app?vid=55d1bc08-fd54-4a82-afc7-2adcaa7b1c4e","ios":"levelo://app?vid=55d1bc08-fd54-4a82-afc7-2adcaa7b1c4e"},"vehicle_type_id":"4","last_reported":1758355948,"current_range_meters":15200,"station_id":"","pricing_plan_id":"cebpf4jnsgd1na2vs0mg"},{"bike_id":"363d99e5-837c-43c8-abcc-c80ef2e2786a","system_id":"levelo_inurba_marseille","lat":43.2119,"lon":5.35072,"is_reserved":false,"is_disabled":false,"rental_uris":{"android":"levelo://app?vid=363d99e5-837c-43c8-abcc-c80ef2e2786a","ios":"levelo://app?vid=363d99e5-837c-43c8-abcc-c80ef2e2786a"},"vehicle_type_id":"4","last_reported":1758355948,"current_range_meters":15200,"station_id":"st_cvj6sg6p6f1abm77japg","pricing_plan_id":"cebpf4jnsgd1na2vs0mg"},{"bike_id":"a07a513e-e5a9-4481-8592-d991379bc662","system_id":"levelo_inurba_marseille","lat":43.337536,"lon":5.374536,"is_reserved":false,"is_disabled":false,"rental_uris":{"android":"levelo://app?vid=a07a513e-e5a9-4481-8592-d991379bc662","ios":"levelo://app?vid=a07a513e-e5a9-4481-8592-d991379bc662"},"vehicle_type_id":"4","last_reported":1758355948,"current_range_meters":15200,"station_id":"","pricing_plan_id":"cebpf4jnsgd1na2vs0mg"},{"bike_id":"2a00cb84-e9e6-4781-804d-0494d7480777","system_id":"levelo_inurba_marseille","lat":43.22555,"lon":5.4162,"is_reserved":false,"is_disabled":false,"rental_uris":{"android":"levelo://app?vid=2a00cb84-e9e6-4781-804d-0494d7480777","ios":"levelo://app?vid=2a00cb84-e9e6-4781-804d-0494d7480777"},"vehicle_type_id":"4","last_reported":1758355948,"current_range_meters":16000,"station_id":"st_d2o4gvlbi1j2169b742g","pricing_plan_id":"cebpf4jnsgd1na2vs0mg"},{"bike_id":"a91ea76b-8240-48fa-abc8-373d810003ce","system_id":"levelo_inurba_marseille","lat":43.30151,"lon":5.38093,"is_reserved":false,"is_disabled":false,"rental_uris":{"android":"levelo://app?vid=a91ea76b-8240-48fa-abc8-373d810003ce","ios":"levelo://app?vid=a91ea76b-8240-48fa-abc8-373d810003ce"},"vehicle_type_id":"4","last_reported":1758355948,"current_range_meters":16000,"station_id":"ce4bgjp2rcd13ifvqbh0","pricing_plan_id":"cebpf4jnsgd1na2vs0mg"},{"bike_id":"7761204a-13cb-4760-9762-09b32bbe043b","system_id":"levelo_inurba_marseille","lat":43.28262,"lon":5.35066,"is_reserved":false,"is_disabled":false,"rental_uris":{"android":"levelo://app?vid=7761204a-13cb-4760-9762-09b32bbe043b","ios":"levelo://app?vid=7761204a-13cb-4760-9762-09b32bbe043b"},"vehicle_type_id":"4","last_reported":1758355948,"current_range_meters":16000,"station_id":"ce4bhbp2rcd13ifvqerg","pricing_plan_id":"cebpf4jnsgd1na2vs0mg"},{"bike_id":"49ea835c-c204-4a2a-87d5-6279b34620a1","system_id":"levelo_inurba_marseille","lat":43.30143,"lon":5.3809,"is_reserved":false,"is_disabled":false,"rental_uris":{"android":"levelo://app?vid=49ea835c-c204-4a2a-87d5-6279b34620a1","ios":"levelo://app?vid=49ea835c-c204-4a2a-87d5-6279b34620a1"},"vehicle_type_id":"4","last_reported":1758355948,"current_range_meters":16400,"station_id":"ce4bgjp2rcd13ifvqbh0","pricing_plan_id":"cebpf4jnsgd1na2vs0mg"},{"bike_id":"4b96fdd3-4191-405a-9508-0bcda5ffa797","system_id":"levelo_inurba_marseille","lat":43.29555,"lon":5.40056,"is_reserved":false,"is_disabled":true,"rental_uris":{"android":"levelo://app?vid=4b96fdd3-4191-405a-9508-0bcda5ffa797","ios":"levelo://app?vid=4b96fdd3-4191-405a-9508-0bcda5ffa797"},"vehicle_type_id":"4","last_reported":1758355948,"current_range_meters":16400,"station_id":"ce4bh312rcd13ifvqdj0","pricing_plan_id":"cebpf4jnsgd1na2vs0mg"},{"bike_id":"68adab37-f5ad-4072-b58a-fe6c68285ca6","system_id":"levelo_inurba_marseille","lat":43.3061,"lon":5.37682,"is_reserved":false,"is_disabled":false,"rental_uris":{"android":"levelo://app?vid=68adab37-f5ad-4072-b58a-fe6c68285ca6","ios":"levelo://app?vid=68adab37-f5ad-4072-b58a-fe6c68285ca6"},"vehicle_type_id":"4","last_reported":1758355948,"current_range_meters":16400,"station_id":"","pricing_plan_id":"cebpf4jnsgd1na2vs0mg"},{"bike_id":"2e293824-b51e-4d23-8047-40ce2de89912","system_id":"levelo_inurba_marseille","lat":43.320891,"lon":5.368119,"is_reserved":false,"is_disabled":false,"rental_uris":{"android":"levelo://app?vid=2e293824-b51e-4d23-8047-40ce2de89912","ios":"levelo://app?vid=2e293824-b51e-4d23-8047-40ce2de89912"},"vehicle_type_id":"4","last_reported":1758355948,"current_range_meters":16400,"station_id":"ce4bhrh2rcd13ifvqhug","pricing_plan_id":"cebpf4jnsgd1na2vs0mg"},{"bike_id":"b4eb8ad2-3215-4100-8be8-4ebbc5c9ab6f","system_id":"levelo_inurba_marseille","lat":43.31142,"lon":5.38986,"is_reserved":false,"is_disabled":false,"rental_uris":{"android":"levelo://app?vid=b4eb8ad2-3215-4100-8be8-4ebbc5c9ab6f","ios":"levelo://app?vid=b4eb8ad2-3215-4100-8be8-4ebbc5c9ab6f"},"vehicle_type_id":"4","last_reported":1758355948,"current_range_meters":16400,"station_id":"","pricing_plan_id":"cebpf4jnsgd1na2vs0mg"},{"bike_id":"3e74079f-44a3-4134-aa00-2c33eb830918","system_id":"levelo_inurba_marseille","lat":43.29266,"lon":5.36852,"is_reserved":false,"is_disabled":false,"rental_uris":{"android":"levelo://app?vid=3e74079f-44a3-4134-aa00-2c33eb830918","ios":"levelo://app?vid=3e74079f-44a3-4134-aa00-2c33eb830918"},"vehicle_type_id":"4","last_reported":1758355948,"current_range_meters":16400,"station_id":"ce4bhbp2rcd13ifvqesg","pricing_plan_id":"cebpf4jnsgd1na2vs0mg"},{"bike_id":"885ed406-d7f7-4f29-836d-1949e35ce855","system_id":"levelo_inurba_marseille","lat":43.29594,"lon":5.38105,"is_reserved":false,"is_disabled":false,"rental_uris":{"android":"levelo://app?vid=885ed406-d7f7-4f29-836d-1949e35ce855","ios":"levelo://app?vid=885ed406-d7f7-4f29-836d-1949e35ce855"},"vehicle_type_id":"4","last_reported":1758355948,"current_range_meters":16400,"station_id":"ce4bgl12rcd13ifvqbo0","pricing_plan_id":"cebpf4jnsgd1na2vs0mg"},{"bike_id":"858b65db-5b23-41d8-84f2-b694b00279de","system_id":"levelo_inurba_marseille","lat":43.26225,"lon":5.37441,"is_reserved":false,"is_disabled":false,"rental_uris":{"android":"levelo://app?vid=858b65db-5b23-41d8-84f2-b694b00279de","ios":"levelo://app?vid=858b65db-5b23-41d8-84f2-b694b00279de"},"vehicle_type_id":"4","last_reported":1758355948,"current_range_meters":16800,"station_id":"","pricing_plan_id":"cebpf4jnsgd1na2vs0mg"},{"bike_id":"6f72b99b-ce32-4a38-83bd-472379356bd1","system_id":"levelo_inurba_marseille","lat":43.2802,"lon":5.3695,"is_reserved":false,"is_disabled":false,"rental_uris":{"android":"levelo://app?vid=6f72b99b-ce32-4a38-83bd-472379356bd1","ios":"levelo://app?vid=6f72b99b-ce32-4a38-83bd-472379356bd1"},"vehicle_type_id":"4","last_reported":1758355948,"current_range_meters":16800,"station_id":"ce4bha12rcd13ifvqef0","pricing_plan_id":"cebpf4jnsgd1na2vs0mg"},{"bike_id":"6ab2f933-df0d-426a-9aad-0252b901a630","system_id":"levelo_inurba_marseille","lat":43.32348,"lon":5.40604,"is_reserved":false,"is_disabled":false,"rental_uris":{"android":"levelo://app?vid=6ab2f933-df0d-426a-9aad-0252b901a630","ios":"levelo://app?vid=6ab2f933-df0d-426a-9aad-0252b901a630"},"vehicle_type_id":"4","last_reported":1758355948,"current_range_meters":16800,"station_id":"ce4bhq92rcd13ifvqhjg","pricing_plan_id":"cebpf4jnsgd1na2vs0mg"},{"bike_id":"97514a44-1f4d-4ae1-a270-04ca7b75c621","system_id":"levelo_inurba_marseille","lat":43.28855,"lon":5.42526,"is_reserved":false,"is_disabled":false,"rental_uris":{"android":"levelo://app?vid=97514a44-1f4d-4ae1-a270-04ca7b75c621","ios":"levelo://app?vid=97514a44-1f4d-4ae1-a270-04ca7b75c621"},"vehicle_type_id":"4","last_reported":1758355948,"current_range_meters":16800,"station_id":"","pricing_plan_id":"cebpf4jnsgd1na2vs0mg"},{"bike_id":"cf15506e-44b4-4a27-875c-40bba3b9be46","system_id":"levelo_inurba_marseille","lat":43.2894,"lon":5.36389,"is_reserved":false,"is_disabled":false,"rental_uris":{"android":"levelo://app?vid=cf15506e-44b4-4a27-875c-40bba3b9be46","ios":"levelo://app?vid=cf15506e-44b4-4a27-875c-40bba3b9be46"},"vehicle_type_id":"4","last_reported":1758355948,"current_range_meters":16800,"station_id":"ce4bhc92rcd13ifvqetg","pricing_plan_id":"cebpf4jnsgd1na2vs0mg"},{"bike_id":"19613896-b63a-44bc-92e8-994deaddf924","system_id":"levelo_inurba_marseille","lat":43.22564,"lon":5.4167,"is_reserved":false,"is_disabled":false,"rental_uris":{"android":"levelo://app?vid=19613896-b63a-44bc-92e8-994deaddf924","ios":"levelo://app?vid=19613896-b63a-44bc-92e8-994deaddf924"},"vehicle_type_id":"4","last_reported":1758355948,"current_range_meters":16800,"station_id":"st_d2o4gvlbi1j2169b742g","pricing_plan_id":"cebpf4jnsgd1na2vs0mg"},{"bike_id":"35c8cfd5-7dbe-43a1-8c79-16e86f75c744","system_id":"levelo_inurba_marseille","lat":43.2979,"lon":5.38095,"is_reserved":false,"is_disabled":false,"rental_uris":{"android":"levelo://app?vid=35c8cfd5-7dbe-43a1-8c79-16e86f75c744","ios":"levelo://app?vid=35c8cfd5-7dbe-43a1-8c79-16e86f75c744"},"vehicle_type_id":"4","last_reported":1758355948,"current_range_meters":17200,"station_id":"ce4bgip2rcd13ifvqbb0","pricing_plan_id":"cebpf4jnsgd1na2vs0mg"},{"bike_id":"c63ab006-186b-4545-9fa8-ad490a678942","system_id":"levelo_inurba_marseille","lat":43.30619,"lon":5.37222,"is_reserved":false,"is_disabled":false,"rental_uris":{"android":"levelo://app?vid=c63ab006-186b-4545-9fa8-ad490a678942","ios":"levelo://app?vid=c63ab006-186b-4545-9fa8-ad490a678942"},"vehicle_type_id":"4","last_reported":1758355948,"current_range_meters":17200,"station_id":"ce4bgqh2rcd13ifvqc4g","pricing_plan_id":"cebpf4jnsgd1na2vs0mg"},{"bike_id":"0f850c22-3d6c-4dfe-b889-c92d1afcf7e0","system_id":"levelo_inurba_marseille","lat":43.2803,"lon":5.36936,"is_reserved":false,"is_disabled":false,"rental_uris":{"android":"levelo://app?vid=0f850c22-3d6c-4dfe-b889-c92d1afcf7e0","ios":"levelo://app?vid=0f850c22-3d6c-4dfe-b889-c92d1afcf7e0"},"vehicle_type_id":"4","last_reported":1758355948,"current_range_meters":17200,"station_id":"ce4bha12rcd13ifvqef0","pricing_plan_id":"cebpf4jnsgd1na2vs0mg"},{"bike_id":"a1b46cd9-2588-4d20-afc6-8602c2a18ae1","system_id":"levelo_inurba_marseille","lat":43.26191,"lon":5.37447,"is_reserved":false,"is_disabled":false,"rental_uris":{"android":"levelo://app?vid=a1b46cd9-2588-4d20-afc6-8602c2a18ae1","ios":"levelo://app?vid=a1b46cd9-2588-4d20-afc6-8602c2a18ae1"},"vehicle_type_id":"4","last_reported":1758355948,"current_range_meters":17200,"station_id":"ce4bhgp2rcd13ifvqfc0","pricing_plan_id":"cebpf4jnsgd1na2vs0mg"},{"bike_id":"2a50c9d7-5aaf-4379-9a09-68c111c3de12","system_id":"levelo_inurba_marseille","lat":43.27492,"lon":5.42452,"is_reserved":false,"is_disabled":false,"rental_uris":{"android":"levelo://app?vid=2a50c9d7-5aaf-4379-9a09-68c111c3de12","ios":"levelo://app?vid=2a50c9d7-5aaf-4379-9a09-68c111c3de12"},"vehicle_type_id":"4","last_reported":1758355948,"current_range_meters":17200,"station_id":"ce4bhn92rcd13ifvqgrg","pricing_plan_id":"cebpf4jnsgd1na2vs0mg"},{"bike_id":"052f3db2-5691-4aad-93a7-779170e05671","system_id":"levelo_inurba_marseille","lat":43.23165,"lon":5.43726,"is_reserved":false,"is_disabled":false,"rental_uris":{"android":"levelo://app?vid=052f3db2-5691-4aad-93a7-779170e05671","ios":"levelo://app?vid=052f3db2-5691-4aad-93a7-779170e05671"},"vehicle_type_id":"4","last_reported":1758355948,"current_range_meters":17200,"station_id":"ce4bhmp2rcd13ifvqgog","pricing_plan_id":"cebpf4jnsgd1na2vs0mg"},{"bike_id":"26a32d00-5a5a-4094-958e-dfde0b143685","system_id":"levelo_inurba_marseille","lat":43.25325,"lon":5.42149,"is_reserved":false,"is_disabled":false,"rental_uris":{"android":"levelo://app?vid=26a32d00-5a5a-4094-958e-dfde0b143685","ios":"levelo://app?vid=26a32d00-5a5a-4094-958e-dfde0b143685"},"vehicle_type_id":"4","last_reported":1758355948,"current_range_meters":17200,"station_id":"st_d2m65c5bi1j21697t3ng","pricing_plan_id":"cebpf4jnsgd1na2vs0mg"},{"bike_id":"7849f7ac-b097-45ab-832c-740bf53ff437","system_id":"levelo_inurba_marseille","lat":43.287053,"lon":5.379603,"is_reserved":false,"is_disabled":false,"rental_uris":{"android":"levelo://app?vid=7849f7ac-b097-45ab-832c-740bf53ff437","ios":"levelo://app?vid=7849f7ac-b097-45ab-832c-740bf53ff437"},"vehicle_type_id":"4","last_reported":1758355948,"current_range_meters":17200,"station_id":"ce4bh9p2rcd13ifvqec0","pricing_plan_id":"cebpf4jnsgd1na2vs0mg"},{"bike_id":"43d57fd4-047e-4ac8-97e5-ec9b96239472","system_id":"levelo_inurba_marseille","lat":43.324,"lon":5.3895,"is_reserved":false,"is_disabled":false,"rental_uris":{"android":"levelo://app?vid=43d57fd4-047e-4ac8-97e5-ec9b96239472","ios":"levelo://app?vid=43d57fd4-047e-4ac8-97e5-ec9b96239472"},"vehicle_type_id":"4","last_reported":1758355948,"current_range_meters":17200,"station_id":"","pricing_plan_id":"cebpf4jnsgd1na2vs0mg"},{"bike_id":"534ff5b4-9e83-493b-9063-104ef0af4212","system_id":"levelo_inurba_marseille","lat":43.27986,"lon":5.41669,"is_reserved":false,"is_disabled":true,"rental_uris":{"android":"levelo://app?vid=534ff5b4-9e83-493b-9063-104ef0af4212","ios":"levelo://app?vid=534ff5b4-9e83-493b-9063-104ef0af4212"},"vehicle_type_id":"4","last_reported":1758355948,"current_range_meters":17200,"station_id":"ce4bho12rcd13ifvqh1g","pricing_plan_id":"cebpf4jnsgd1na2vs0mg"},{"bike_id":"35da6695-3201-4ea6-8792-a27d60e37cb4","system_id":"levelo_inurba_marseille","lat":43.26182,"lon":5.37061,"is_reserved":false,"is_disabled":false,"rental_uris":{"android":"levelo://app?vid=35da6695-3201-4ea6-8792-a27d60e37cb4","ios":"levelo://app?vid=35da6695-3201-4ea6-8792-a27d60e37cb4"},"vehicle_type_id":"4","last_reported":1758355948,"current_range_meters":17200,"station_id":"","pricing_plan_id":"cebpf4jnsgd1na2vs0mg"},{"bike_id":"b8af4056-fb36-4e39-a4f0-5cd179383459","system_id":"levelo_inurba_marseille","lat":43.32918,"lon":5.38949,"is_reserved":false,"is_disabled":false,"rental_uris":{"android":"levelo://app?vid=b8af4056-fb36-4e39-a4f0-5cd179383459","ios":"levelo://app?vid=b8af4056-fb36-4e39-a4f0-5cd179383459"},"vehicle_type_id":"4","last_reported":1758355948,"current_range_meters":17200,"station_id":"","pricing_plan_id":"cebpf4jnsgd1na2vs0mg"},{"bike_id":"a258ea9d-2fae-455b-9796-0bd90795c8c4","system_id":"levelo_inurba_marseille","lat":43.29039,"lon":5.39961,"is_reserved":false,"is_disabled":false,"rental_uris":{"android":"levelo://app?vid=a258ea9d-2fae-455b-9796-0bd90795c8c4","ios":"levelo://app?vid=a258ea9d-2fae-455b-9796-0bd90795c8c4"},"vehicle_type_id":"4","last_reported":1758355948,"current_range_meters":17600,"station_id":"ce4bh392rcd13ifvqdm0","pricing_plan_id":"cebpf4jnsgd1na2vs0mg"},{"bike_id":"5cd1e486-7b26-481d-9fa2-9cbdde02ba17","system_id":"levelo_inurba_marseille","lat":43.28416,"lon":5.349743,"is_reserved":false,"is_disabled":false,"rental_uris":{"android":"levelo://app?vid=5cd1e486-7b26-481d-9fa2-9cbdde02ba17","ios":"levelo://app?vid=5cd1e486-7b26-481d-9fa2-9cbdde02ba17"},"vehicle_type_id":"4","last_reported":1758355948,"current_range_meters":17600,"station_id":"ce4bhbh2rcd13ifvqepg","pricing_plan_id":"cebpf4jnsgd1na2vs0mg"},{"bike_id":"1d0b5d60-568f-4170-98dc-84bbc30b1c4e","system_id":"levelo_inurba_marseille","lat":43.28357,"lon":5.43823,"is_reserved":false,"is_disabled":false,"rental_uris":{"android":"levelo://app?vid=1d0b5d60-568f-4170-98dc-84bbc30b1c4e","ios":"levelo://app?vid=1d0b5d60-568f-4170-98dc-84bbc30b1c4e"},"vehicle_type_id":"4","last_reported":1758355948,"current_range_meters":17600,"station_id":"","pricing_plan_id":"cebpf4jnsgd1na2vs0mg"},{"bike_id":"d9d1cd19-79df-4bea-a892-6de78993cec8","system_id":"levelo_inurba_marseille","lat":43.26494,"lon":5.39545,"is_reserved":false,"is_disabled":false,"rental_uris":{"android":"levelo://app?vid=d9d1cd19-79df-4bea-a892-6de78993cec8","ios":"levelo://app?vid=d9d1cd19-79df-4bea-a892-6de78993cec8"},"vehicle_type_id":"4","last_reported":1758355948,"current_range_meters":18000,"station_id":"ce4bhi12rcd13ifvqfq0","pricing_plan_id":"cebpf4jnsgd1na2vs0mg"},{"bike_id":"75f20a8f-39e5-4298-8354-e21d92fdf177","system_id":"levelo_inurba_marseille","lat":43.29189,"lon":5.35802,"is_reserved":false,"is_disabled":false,"rental_uris":{"android":"levelo://app?vid=75f20a8f-39e5-4298-8354-e21d92fdf177","ios":"levelo://app?vid=75f20a8f-39e5-4298-8354-e21d92fdf177"},"vehicle_type_id":"4","last_reported":1758355948,"current_range_meters":18000,"station_id":"ce4bhb12rcd13ifvqel0","pricing_plan_id":"cebpf4jnsgd1na2vs0mg"},{"bike_id":"61183c5b-24a7-40b0-a073-cfa757e6c464","system_id":"levelo_inurba_marseille","lat":43.23961,"lon":5.36635,"is_reserved":false,"is_disabled":false,"rental_uris":{"android":"levelo://app?vid=61183c5b-24a7-40b0-a073-cfa757e6c464","ios":"levelo://app?vid=61183c5b-24a7-40b0-a073-cfa757e6c464"},"vehicle_type_id":"4","last_reported":1758355948,"current_range_meters":18000,"station_id":"ce4bhi12rcd13ifvqfp0","pricing_plan_id":"cebpf4jnsgd1na2vs0mg"},{"bike_id":"6ca17f53-9244-45b3-9e70-7310e4b45645","system_id":"levelo_inurba_marseille","lat":43.30309,"lon":5.36885,"is_reserved":false,"is_disabled":false,"rental_uris":{"android":"levelo://app?vid=6ca17f53-9244-45b3-9e70-7310e4b45645","ios":"levelo://app?vid=6ca17f53-9244-45b3-9e70-7310e4b45645"},"vehicle_type_id":"4","last_reported":1758355948,"current_range_meters":18000,"station_id":"ce4bgqh2rcd13ifvqc5g","pricing_plan_id":"cebpf4jnsgd1na2vs0mg"},{"bike_id":"b500686c-af92-4e8b-90b6-8f731231f6ab","system_id":"levelo_inurba_marseille","lat":43.23965,"lon":5.36635,"is_reserved":false,"is_disabled":false,"rental_uris":{"android":"levelo://app?vid=b500686c-af92-4e8b-90b6-8f731231f6ab","ios":"levelo://app?vid=b500686c-af92-4e8b-90b6-8f731231f6ab"},"vehicle_type_id":"4","last_reported":1758355948,"current_range_meters":18000,"station_id":"ce4bhi12rcd13ifvqfp0","pricing_plan_id":"cebpf4jnsgd1na2vs0mg"},{"bike_id":"6f00a981-ea1c-4e5d-813b-84daaa170976","system_id":"levelo_inurba_marseille","lat":43.28619,"lon":5.35105,"is_reserved":false,"is_disabled":false,"rental_uris":{"android":"levelo://app?vid=6f00a981-ea1c-4e5d-813b-84daaa170976","ios":"levelo://app?vid=6f00a981-ea1c-4e5d-813b-84daaa170976"},"vehicle_type_id":"4","last_reported":1758355948,"current_range_meters":18000,"station_id":"ce4bhch2rcd13ifvqeug","pricing_plan_id":"cebpf4jnsgd1na2vs0mg"},{"bike_id":"f5708da4-ba64-41f1-b293-dacd3525a635","system_id":"levelo_inurba_marseille","lat":43.24389,"lon":5.37063,"is_reserved":false,"is_disabled":false,"rental_uris":{"android":"levelo://app?vid=f5708da4-ba64-41f1-b293-dacd3525a635","ios":"levelo://app?vid=f5708da4-ba64-41f1-b293-dacd3525a635"},"vehicle_type_id":"4","last_reported":1758355948,"current_range_meters":18000,"station_id":"ce4bhhh2rcd13ifvqfk0","pricing_plan_id":"cebpf4jnsgd1na2vs0mg"},{"bike_id":"5c229055-54a1-4a42-b763-b27ed814b5ad","system_id":"levelo_inurba_marseille","lat":43.31517,"lon":5.38766,"is_reserved":false,"is_disabled":false,"rental_uris":{"android":"levelo://app?vid=5c229055-54a1-4a42-b763-b27ed814b5ad","ios":"levelo://app?vid=5c229055-54a1-4a42-b763-b27ed814b5ad"},"vehicle_type_id":"4","last_reported":1758355948,"current_range_meters":18000,"station_id":"","pricing_plan_id":"cebpf4jnsgd1na2vs0mg"},{"bike_id":"76bbf107-7ec5-4826-b296-ab629ecd14ab","system_id":"levelo_inurba_marseille","lat":43.29824,"lon":5.42099,"is_reserved":false,"is_disabled":false,"rental_uris":{"android":"levelo://app?vid=76bbf107-7ec5-4826-b296-ab629ecd14ab","ios":"levelo://app?vid=76bbf107-7ec5-4826-b296-ab629ecd14ab"},"vehicle_type_id":"4","last_reported":1758355948,"current_range_meters":18000,"station_id":"","pricing_plan_id":"cebpf4jnsgd1na2vs0mg"},{"bike_id":"2adab3d9-0921-446c-8f04-bff058e826d8","system_id":"levelo_inurba_marseille","lat":43.286687,"lon":5.3867,"is_reserved":false,"is_disabled":false,"rental_uris":{"android":"levelo://app?vid=2adab3d9-0921-446c-8f04-bff058e826d8","ios":"levelo://app?vid=2adab3d9-0921-446c-8f04-bff058e826d8"},"vehicle_type_id":"4","last_reported":1758355948,"current_range_meters":18000,"station_id":"ce4bh492rcd13ifvqdug","pricing_plan_id":"cebpf4jnsgd1na2vs0mg"},{"bike_id":"e86857f8-f405-4657-b145-ec58ed187087","system_id":"levelo_inurba_marseille","lat":43.31484,"lon":5.3881,"is_reserved":false,"is_disabled":false,"rental_uris":{"android":"levelo://app?vid=e86857f8-f405-4657-b145-ec58ed187087","ios":"levelo://app?vid=e86857f8-f405-4657-b145-ec58ed187087"},"vehicle_type_id":"4","last_reported":1758355948,"current_range_meters":18800,"station_id":"ce4bgt92rcd13ifvqcf0","pricing_plan_id":"cebpf4jnsgd1na2vs0mg"},{"bike_id":"2d61ca56-698f-4ba5-85b4-796568139d17","system_id":"levelo_inurba_marseille","lat":43.26217,"lon":5.37438,"is_reserved":false,"is_disabled":false,"rental_uris":{"android":"levelo://app?vid=2d61ca56-698f-4ba5-85b4-796568139d17","ios":"levelo://app?vid=2d61ca56-698f-4ba5-85b4-796568139d17"},"vehicle_type_id":"4","last_reported":1758355948,"current_range_meters":18800,"station_id":"ce4bhgp2rcd13ifvqfc0","pricing_plan_id":"cebpf4jnsgd1na2vs0mg"},{"bike_id":"0ae40df8-c199-4e1f-9b13-ca9d4c839732","system_id":"levelo_inurba_marseille","lat":43.27311,"lon":5.39094,"is_reserved":false,"is_disabled":false,"rental_uris":{"android":"levelo://app?vid=0ae40df8-c199-4e1f-9b13-ca9d4c839732","ios":"levelo://app?vid=0ae40df8-c199-4e1f-9b13-ca9d4c839732"},"vehicle_type_id":"4","last_reported":1758355948,"current_range_meters":18800,"station_id":"ce4bhgp2rcd13ifvqfe0","pricing_plan_id":"cebpf4jnsgd1na2vs0mg"},{"bike_id":"a025eb36-3fe7-4b2d-9002-38a03382b0c7","system_id":"levelo_inurba_marseille","lat":43.296094,"lon":5.377249,"is_reserved":false,"is_disabled":true,"rental_uris":{"android":"levelo://app?vid=a025eb36-3fe7-4b2d-9002-38a03382b0c7","ios":"levelo://app?vid=a025eb36-3fe7-4b2d-9002-38a03382b0c7"},"vehicle_type_id":"4","last_reported":1758355948,"current_range_meters":18800,"station_id":"ce4bgi92rcd13ifvqb90","pricing_plan_id":"cebpf4jnsgd1na2vs0mg"},{"bike_id":"c583a48c-2975-4add-84c7-5a9df938f44d","system_id":"levelo_inurba_marseille","lat":43.25923,"lon":5.40871,"is_reserved":false,"is_disabled":false,"rental_uris":{"android":"levelo://app?vid=c583a48c-2975-4add-84c7-5a9df938f44d","ios":"levelo://app?vid=c583a48c-2975-4add-84c7-5a9df938f44d"},"vehicle_type_id":"4","last_reported":1758355948,"current_range_meters":18800,"station_id":"ce4bhm92rcd13ifvqglg","pricing_plan_id":"cebpf4jnsgd1na2vs0mg"},{"bike_id":"e4755c6e-623b-4c48-8bb7-5fb081e43c5b","system_id":"levelo_inurba_marseille","lat":43.28445,"lon":5.35913,"is_reserved":false,"is_disabled":true,"rental_uris":{"android":"levelo://app?vid=e4755c6e-623b-4c48-8bb7-5fb081e43c5b","ios":"levelo://app?vid=e4755c6e-623b-4c48-8bb7-5fb081e43c5b"},"vehicle_type_id":"4","last_reported":1758355948,"current_range_meters":18800,"station_id":"ce4bhah2rcd13ifvqei0","pricing_plan_id":"cebpf4jnsgd1na2vs0mg"},{"bike_id":"a1d62266-ce23-4067-bc03-8998123c3cfc","system_id":"levelo_inurba_marseille","lat":43.2926,"lon":5.40904,"is_reserved":false,"is_disabled":false,"rental_uris":{"android":"levelo://app?vid=a1d62266-ce23-4067-bc03-8998123c3cfc","ios":"levelo://app?vid=a1d62266-ce23-4067-bc03-8998123c3cfc"},"vehicle_type_id":"4","last_reported":1758355948,"current_range_meters":18800,"station_id":"ce4bh192rcd13ifvqdc0","pricing_plan_id":"cebpf4jnsgd1na2vs0mg"},{"bike_id":"a00cae07-1942-43ca-afaa-aed1381d5b2a","system_id":"levelo_inurba_marseille","lat":43.28031,"lon":5.36928,"is_reserved":false,"is_disabled":false,"rental_uris":{"android":"levelo://app?vid=a00cae07-1942-43ca-afaa-aed1381d5b2a","ios":"levelo://app?vid=a00cae07-1942-43ca-afaa-aed1381d5b2a"},"vehicle_type_id":"4","last_reported":1758355948,"current_range_meters":19200,"station_id":"ce4bha12rcd13ifvqef0","pricing_plan_id":"cebpf4jnsgd1na2vs0mg"},{"bike_id":"73f29d37-9d61-447a-99e1-0bf71f91fed0","system_id":"levelo_inurba_marseille","lat":43.28418,"lon":5.34991,"is_reserved":false,"is_disabled":false,"rental_uris":{"android":"levelo://app?vid=73f29d37-9d61-447a-99e1-0bf71f91fed0","ios":"levelo://app?vid=73f29d37-9d61-447a-99e1-0bf71f91fed0"},"vehicle_type_id":"4","last_reported":1758355948,"current_range_meters":19200,"station_id":"ce4bhbh2rcd13ifvqepg","pricing_plan_id":"cebpf4jnsgd1na2vs0mg"},{"bike_id":"0ffbaa12-42f2-4109-ab8a-537c1eaa1ef5","system_id":"levelo_inurba_marseille","lat":43.25109,"lon":5.4032,"is_reserved":false,"is_disabled":false,"rental_uris":{"android":"levelo://app?vid=0ffbaa12-42f2-4109-ab8a-537c1eaa1ef5","ios":"levelo://app?vid=0ffbaa12-42f2-4109-ab8a-537c1eaa1ef5"},"vehicle_type_id":"4","last_reported":1758355948,"current_range_meters":19200,"station_id":"ce4bhlh2rcd13ifvqgig","pricing_plan_id":"cebpf4jnsgd1na2vs0mg"},{"bike_id":"75cdae86-aa3c-46f9-92bf-f3662c1063cf","system_id":"levelo_inurba_marseille","lat":43.337282,"lon":5.391868,"is_reserved":false,"is_disabled":false,"rental_uris":{"android":"levelo://app?vid=75cdae86-aa3c-46f9-92bf-f3662c1063cf","ios":"levelo://app?vid=75cdae86-aa3c-46f9-92bf-f3662c1063cf"},"vehicle_type_id":"4","last_reported":1758355948,"current_range_meters":19200,"station_id":"ce4bhr92rcd13ifvqhsg","pricing_plan_id":"cebpf4jnsgd1na2vs0mg"},{"bike_id":"f8e61284-8795-494e-9648-a784a5d777e1","system_id":"levelo_inurba_marseille","lat":43.26956,"lon":5.3863,"is_reserved":false,"is_disabled":false,"rental_uris":{"android":"levelo://app?vid=f8e61284-8795-494e-9648-a784a5d777e1","ios":"levelo://app?vid=f8e61284-8795-494e-9648-a784a5d777e1"},"vehicle_type_id":"4","last_reported":1758355948,"current_range_meters":17600,"station_id":"ce4bhh92rcd13ifvqfh0","pricing_plan_id":"cebpf4jnsgd1na2vs0mg"},{"bike_id":"cd6fd4f3-cecb-414e-9de3-a60b25e4410d","system_id":"levelo_inurba_marseille","lat":43.231547,"lon":5.437061,"is_reserved":false,"is_disabled":false,"rental_uris":{"android":"levelo://app?vid=cd6fd4f3-cecb-414e-9de3-a60b25e4410d","ios":"levelo://app?vid=cd6fd4f3-cecb-414e-9de3-a60b25e4410d"},"vehicle_type_id":"4","last_reported":1758355948,"current_range_meters":18800,"station_id":"ce4bhmp2rcd13ifvqgog","pricing_plan_id":"cebpf4jnsgd1na2vs0mg"},{"bike_id":"85736c9b-c1ff-48e6-9193-91ae727c0f2f","system_id":"levelo_inurba_marseille","lat":43.30147,"lon":5.38091,"is_reserved":false,"is_disabled":false,"rental_uris":{"android":"levelo://app?vid=85736c9b-c1ff-48e6-9193-91ae727c0f2f","ios":"levelo://app?vid=85736c9b-c1ff-48e6-9193-91ae727c0f2f"},"vehicle_type_id":"4","last_reported":1758355948,"current_range_meters":19200,"station_id":"ce4bgjp2rcd13ifvqbh0","pricing_plan_id":"cebpf4jnsgd1na2vs0mg"},{"bike_id":"3f1a4b27-0b3f-454c-af0d-a0040cad4bc0","system_id":"levelo_inurba_marseille","lat":43.29623,"lon":5.37171,"is_reserved":false,"is_disabled":false,"rental_uris":{"android":"levelo://app?vid=3f1a4b27-0b3f-454c-af0d-a0040cad4bc0","ios":"levelo://app?vid=3f1a4b27-0b3f-454c-af0d-a0040cad4bc0"},"vehicle_type_id":"4","last_reported":1758355948,"current_range_meters":19600,"station_id":"ce4bgnh2rcd13ifvqc0g","pricing_plan_id":"cebpf4jnsgd1na2vs0mg"},{"bike_id":"f1fed1ca-8816-44c8-8d21-52e8ab64d46d","system_id":"levelo_inurba_marseille","lat":43.25934,"lon":5.37578,"is_reserved":false,"is_disabled":false,"rental_uris":{"android":"levelo://app?vid=f1fed1ca-8816-44c8-8d21-52e8ab64d46d","ios":"levelo://app?vid=f1fed1ca-8816-44c8-8d21-52e8ab64d46d"},"vehicle_type_id":"4","last_reported":1758355948,"current_range_meters":19600,"station_id":"","pricing_plan_id":"cebpf4jnsgd1na2vs0mg"},{"bike_id":"829a9c6a-2907-4fcf-996b-1dc6eb22c894","system_id":"levelo_inurba_marseille","lat":43.225608,"lon":5.416333,"is_reserved":false,"is_disabled":false,"rental_uris":{"android":"levelo://app?vid=829a9c6a-2907-4fcf-996b-1dc6eb22c894","ios":"levelo://app?vid=829a9c6a-2907-4fcf-996b-1dc6eb22c894"},"vehicle_type_id":"4","last_reported":1758355948,"current_range_meters":19600,"station_id":"st_d2o4gvlbi1j2169b742g","pricing_plan_id":"cebpf4jnsgd1na2vs0mg"},{"bike_id":"e0989e2e-8859-445e-9a79-38497e96392f","system_id":"levelo_inurba_marseille","lat":43.29898,"lon":5.436512,"is_reserved":false,"is_disabled":false,"rental_uris":{"android":"levelo://app?vid=e0989e2e-8859-445e-9a79-38497e96392f","ios":"levelo://app?vid=e0989e2e-8859-445e-9a79-38497e96392f"},"vehicle_type_id":"4","last_reported":1758355948,"current_range_meters":19600,"station_id":"ce4bhpp2rcd13ifvqhfg","pricing_plan_id":"cebpf4jnsgd1na2vs0mg"},{"bike_id":"25c65175-1873-4ca0-baaa-bb6fa618af93","system_id":"levelo_inurba_marseille","lat":43.2804,"lon":5.36939,"is_reserved":false,"is_disabled":false,"rental_uris":{"android":"levelo://app?vid=25c65175-1873-4ca0-baaa-bb6fa618af93","ios":"levelo://app?vid=25c65175-1873-4ca0-baaa-bb6fa618af93"},"vehicle_type_id":"4","last_reported":1758355948,"current_range_meters":19600,"station_id":"ce4bha12rcd13ifvqef0","pricing_plan_id":"cebpf4jnsgd1na2vs0mg"},{"bike_id":"b2b5e9cb-b905-404b-85c4-54251e4eb97a","system_id":"levelo_inurba_marseille","lat":43.22546,"lon":5.41648,"is_reserved":false,"is_disabled":false,"rental_uris":{"android":"levelo://app?vid=b2b5e9cb-b905-404b-85c4-54251e4eb97a","ios":"levelo://app?vid=b2b5e9cb-b905-404b-85c4-54251e4eb97a"},"vehicle_type_id":"4","last_reported":1758355948,"current_range_meters":20000,"station_id":"st_d2o4gvlbi1j2169b742g","pricing_plan_id":"cebpf4jnsgd1na2vs0mg"},{"bike_id":"2d5aa6d4-5f6c-4ccc-8f2c-93629a97a355","system_id":"levelo_inurba_marseille","lat":43.24385,"lon":5.37056,"is_reserved":false,"is_disabled":false,"rental_uris":{"android":"levelo://app?vid=2d5aa6d4-5f6c-4ccc-8f2c-93629a97a355","ios":"levelo://app?vid=2d5aa6d4-5f6c-4ccc-8f2c-93629a97a355"},"vehicle_type_id":"4","last_reported":1758355948,"current_range_meters":20000,"station_id":"ce4bhhh2rcd13ifvqfk0","pricing_plan_id":"cebpf4jnsgd1na2vs0mg"},{"bike_id":"8052f39c-6d2d-4412-9be5-c7e43d1bef8c","system_id":"levelo_inurba_marseille","lat":43.2961,"lon":5.38622,"is_reserved":false,"is_disabled":false,"rental_uris":{"android":"levelo://app?vid=8052f39c-6d2d-4412-9be5-c7e43d1bef8c","ios":"levelo://app?vid=8052f39c-6d2d-4412-9be5-c7e43d1bef8c"},"vehicle_type_id":"4","last_reported":1758355948,"current_range_meters":20000,"station_id":"","pricing_plan_id":"cebpf4jnsgd1na2vs0mg"},{"bike_id":"962c8401-8ee6-4259-88ba-05d3278df9ce","system_id":"levelo_inurba_marseille","lat":43.337723,"lon":5.374434,"is_reserved":false,"is_disabled":false,"rental_uris":{"android":"levelo://app?vid=962c8401-8ee6-4259-88ba-05d3278df9ce","ios":"levelo://app?vid=962c8401-8ee6-4259-88ba-05d3278df9ce"},"vehicle_type_id":"4","last_reported":1758355948,"current_range_meters":20000,"station_id":"","pricing_plan_id":"cebpf4jnsgd1na2vs0mg"},{"bike_id":"1f977bff-d1b4-4bf8-9052-7ce7d6469f2f","system_id":"levelo_inurba_marseille","lat":43.29891,"lon":5.43672,"is_reserved":false,"is_disabled":false,"rental_uris":{"android":"levelo://app?vid=1f977bff-d1b4-4bf8-9052-7ce7d6469f2f","ios":"levelo://app?vid=1f977bff-d1b4-4bf8-9052-7ce7d6469f2f"},"vehicle_type_id":"4","last_reported":1758355948,"current_range_meters":20000,"station_id":"ce4bhpp2rcd13ifvqhfg","pricing_plan_id":"cebpf4jnsgd1na2vs0mg"},{"bike_id":"7cd9065b-ed74-491c-adb8-a33655432dc9","system_id":"levelo_inurba_marseille","lat":43.2963,"lon":5.37171,"is_reserved":false,"is_disabled":false,"rental_uris":{"android":"levelo://app?vid=7cd9065b-ed74-491c-adb8-a33655432dc9","ios":"levelo://app?vid=7cd9065b-ed74-491c-adb8-a33655432dc9"},"vehicle_type_id":"4","last_reported":1758355948,"current_range_meters":20000,"station_id":"ce4bgnh2rcd13ifvqc0g","pricing_plan_id":"cebpf4jnsgd1na2vs0mg"},{"bike_id":"9176512c-2cc1-4df2-a8e0-6be514fbcdbf","system_id":"levelo_inurba_marseille","lat":43.33748,"lon":5.37465,"is_reserved":false,"is_disabled":false,"rental_uris":{"android":"levelo://app?vid=9176512c-2cc1-4df2-a8e0-6be514fbcdbf","ios":"levelo://app?vid=9176512c-2cc1-4df2-a8e0-6be514fbcdbf"},"vehicle_type_id":"4","last_reported":1758355948,"current_range_meters":20000,"station_id":"","pricing_plan_id":"cebpf4jnsgd1na2vs0mg"},{"bike_id":"9c8ed7d3-6a9c-4457-97d3-6206fc3d3c84","system_id":"levelo_inurba_marseille","lat":43.301887,"lon":5.366121,"is_reserved":false,"is_disabled":false,"rental_uris":{"android":"levelo://app?vid=9c8ed7d3-6a9c-4457-97d3-6206fc3d3c84","ios":"levelo://app?vid=9c8ed7d3-6a9c-4457-97d3-6206fc3d3c84"},"vehicle_type_id":"4","last_reported":1758355948,"current_range_meters":20000,"station_id":"ce4bgrh2rcd13ifvqc8g","pricing_plan_id":"cebpf4jnsgd1na2vs0mg"},{"bike_id":"eee1ec61-2db6-4e87-b95a-086849069d4c","system_id":"levelo_inurba_marseille","lat":43.284752,"lon":5.384084,"is_reserved":false,"is_disabled":false,"rental_uris":{"android":"levelo://app?vid=eee1ec61-2db6-4e87-b95a-086849069d4c","ios":"levelo://app?vid=eee1ec61-2db6-4e87-b95a-086849069d4c"},"vehicle_type_id":"4","last_reported":1758355948,"current_range_meters":20400,"station_id":"ce4bh512rcd13ifvqe3g","pricing_plan_id":"cebpf4jnsgd1na2vs0mg"},{"bike_id":"773c7f4e-5236-4a76-83d2-cad115040b34","system_id":"levelo_inurba_marseille","lat":43.30151,"lon":5.3809,"is_reserved":false,"is_disabled":false,"rental_uris":{"android":"levelo://app?vid=773c7f4e-5236-4a76-83d2-cad115040b34","ios":"levelo://app?vid=773c7f4e-5236-4a76-83d2-cad115040b34"},"vehicle_type_id":"4","last_reported":1758355948,"current_range_meters":20400,"station_id":"ce4bgjp2rcd13ifvqbh0","pricing_plan_id":"cebpf4jnsgd1na2vs0mg"},{"bike_id":"16f3a3fe-5608-412a-82e1-a5d7638413e3","system_id":"levelo_inurba_marseille","lat":43.29975,"lon":5.38517,"is_reserved":false,"is_disabled":false,"rental_uris":{"android":"levelo://app?vid=16f3a3fe-5608-412a-82e1-a5d7638413e3","ios":"levelo://app?vid=16f3a3fe-5608-412a-82e1-a5d7638413e3"},"vehicle_type_id":"4","last_reported":1758355948,"current_range_meters":20400,"station_id":"ce4bgj92rcd13ifvqbd0","pricing_plan_id":"cebpf4jnsgd1na2vs0mg"},{"bike_id":"3b1cd703-a667-4028-95b0-0cd24de78ed2","system_id":"levelo_inurba_marseille","lat":43.301617,"lon":5.380759,"is_reserved":false,"is_disabled":false,"rental_uris":{"android":"levelo://app?vid=3b1cd703-a667-4028-95b0-0cd24de78ed2","ios":"levelo://app?vid=3b1cd703-a667-4028-95b0-0cd24de78ed2"},"vehicle_type_id":"4","last_reported":1758355948,"current_range_meters":20400,"station_id":"ce4bgjp2rcd13ifvqbh0","pricing_plan_id":"cebpf4jnsgd1na2vs0mg"},{"bike_id":"fd2a0f89-3353-4a77-8044-94b4159288a7","system_id":"levelo_inurba_marseille","lat":43.305633,"lon":5.365728,"is_reserved":false,"is_disabled":false,"rental_uris":{"android":"levelo://app?vid=fd2a0f89-3353-4a77-8044-94b4159288a7","ios":"levelo://app?vid=fd2a0f89-3353-4a77-8044-94b4159288a7"},"vehicle_type_id":"4","last_reported":1758355948,"current_range_meters":20400,"station_id":"ce4bgs12rcd13ifvqcag","pricing_plan_id":"cebpf4jnsgd1na2vs0mg"},{"bike_id":"6be3bd8b-eada-4f83-bfbf-82d34cec3c94","system_id":"levelo_inurba_marseille","lat":43.337724,"lon":5.374496,"is_reserved":false,"is_disabled":false,"rental_uris":{"android":"levelo://app?vid=6be3bd8b-eada-4f83-bfbf-82d34cec3c94","ios":"levelo://app?vid=6be3bd8b-eada-4f83-bfbf-82d34cec3c94"},"vehicle_type_id":"4","last_reported":1758355948,"current_range_meters":20800,"station_id":"","pricing_plan_id":"cebpf4jnsgd1na2vs0mg"},{"bike_id":"56d11065-4efb-4408-96b5-e870e9a57caf","system_id":"levelo_inurba_marseille","lat":43.297998,"lon":5.380946,"is_reserved":false,"is_disabled":false,"rental_uris":{"android":"levelo://app?vid=56d11065-4efb-4408-96b5-e870e9a57caf","ios":"levelo://app?vid=56d11065-4efb-4408-96b5-e870e9a57caf"},"vehicle_type_id":"4","last_reported":1758355948,"current_range_meters":20800,"station_id":"ce4bgip2rcd13ifvqbb0","pricing_plan_id":"cebpf4jnsgd1na2vs0mg"},{"bike_id":"9da8d317-9614-42e6-99bb-560f13ad16f8","system_id":"levelo_inurba_marseille","lat":43.26032,"lon":5.37545,"is_reserved":false,"is_disabled":false,"rental_uris":{"android":"levelo://app?vid=9da8d317-9614-42e6-99bb-560f13ad16f8","ios":"levelo://app?vid=9da8d317-9614-42e6-99bb-560f13ad16f8"},"vehicle_type_id":"4","last_reported":1758355948,"current_range_meters":20800,"station_id":"ce4bhgh2rcd13ifvqfa0","pricing_plan_id":"cebpf4jnsgd1na2vs0mg"},{"bike_id":"f35ea6ae-a3da-472f-bb07-fa0bbf38ce0e","system_id":"levelo_inurba_marseille","lat":43.26026,"lon":5.37548,"is_reserved":false,"is_disabled":false,"rental_uris":{"android":"levelo://app?vid=f35ea6ae-a3da-472f-bb07-fa0bbf38ce0e","ios":"levelo://app?vid=f35ea6ae-a3da-472f-bb07-fa0bbf38ce0e"},"vehicle_type_id":"4","last_reported":1758355948,"current_range_meters":21600,"station_id":"ce4bhgh2rcd13ifvqfa0","pricing_plan_id":"cebpf4jnsgd1na2vs0mg"},{"bike_id":"b1878783-f56d-4680-a172-b54269be029b","system_id":"levelo_inurba_marseille","lat":43.25579,"lon":5.38231,"is_reserved":false,"is_disabled":false,"rental_uris":{"android":"levelo://app?vid=b1878783-f56d-4680-a172-b54269be029b","ios":"levelo://app?vid=b1878783-f56d-4680-a172-b54269be029b"},"vehicle_type_id":"4","last_reported":1758355948,"current_range_meters":21600,"station_id":"ce4bhih2rcd13ifvqfs0","pricing_plan_id":"cebpf4jnsgd1na2vs0mg"},{"bike_id":"7c291a54-9a33-4037-97cb-c06fe5ab7011","system_id":"levelo_inurba_marseille","lat":43.315112,"lon":5.388072,"is_reserved":false,"is_disabled":false,"rental_uris":{"android":"levelo://app?vid=7c291a54-9a33-4037-97cb-c06fe5ab7011","ios":"levelo://app?vid=7c291a54-9a33-4037-97cb-c06fe5ab7011"},"vehicle_type_id":"4","last_reported":1758355948,"current_range_meters":21600,"station_id":"","pricing_plan_id":"cebpf4jnsgd1na2vs0mg"},{"bike_id":"2da421db-c2ee-4ff8-939f-404df5d456b9","system_id":"levelo_inurba_marseille","lat":43.323354,"lon":5.406273,"is_reserved":false,"is_disabled":false,"rental_uris":{"android":"levelo://app?vid=2da421db-c2ee-4ff8-939f-404df5d456b9","ios":"levelo://app?vid=2da421db-c2ee-4ff8-939f-404df5d456b9"},"vehicle_type_id":"4","last_reported":1758355948,"current_range_meters":21600,"station_id":"ce4bh492rcd13ifvqdug","pricing_plan_id":"cebpf4jnsgd1na2vs0mg"},{"bike_id":"9393bdf5-9b8e-4ba6-a685-9bc9736ae0e2","system_id":"levelo_inurba_marseille","lat":43.3015,"lon":5.38099,"is_reserved":false,"is_disabled":false,"rental_uris":{"android":"levelo://app?vid=9393bdf5-9b8e-4ba6-a685-9bc9736ae0e2","ios":"levelo://app?vid=9393bdf5-9b8e-4ba6-a685-9bc9736ae0e2"},"vehicle_type_id":"4","last_reported":1758355948,"current_range_meters":21600,"station_id":"ce4bgjp2rcd13ifvqbh0","pricing_plan_id":"cebpf4jnsgd1na2vs0mg"},{"bike_id":"f7127735-b82e-4bf5-8cee-c10d59a5f944","system_id":"levelo_inurba_marseille","lat":43.26202,"lon":5.37932,"is_reserved":false,"is_disabled":false,"rental_uris":{"android":"levelo://app?vid=f7127735-b82e-4bf5-8cee-c10d59a5f944","ios":"levelo://app?vid=f7127735-b82e-4bf5-8cee-c10d59a5f944"},"vehicle_type_id":"4","last_reported":1758355948,"current_range_meters":21600,"station_id":"ce4bhjp2rcd13ifvqg90","pricing_plan_id":"cebpf4jnsgd1na2vs0mg"},{"bike_id":"f68ef8b7-e9e9-48c6-b64c-38c2c57b7e07","system_id":"levelo_inurba_marseille","lat":43.29987,"lon":5.38521,"is_reserved":false,"is_disabled":false,"rental_uris":{"android":"levelo://app?vid=f68ef8b7-e9e9-48c6-b64c-38c2c57b7e07","ios":"levelo://app?vid=f68ef8b7-e9e9-48c6-b64c-38c2c57b7e07"},"vehicle_type_id":"4","last_reported":1758355948,"current_range_meters":21600,"station_id":"ce4bgj92rcd13ifvqbd0","pricing_plan_id":"cebpf4jnsgd1na2vs0mg"},{"bike_id":"32c22e7b-3876-49ef-9c25-944904c1061b","system_id":"levelo_inurba_marseille","lat":43.23206,"lon":5.35568,"is_reserved":false,"is_disabled":false,"rental_uris":{"android":"levelo://app?vid=32c22e7b-3876-49ef-9c25-944904c1061b","ios":"levelo://app?vid=32c22e7b-3876-49ef-9c25-944904c1061b"},"vehicle_type_id":"4","last_reported":1758355948,"current_range_meters":21600,"station_id":"ce4bhu92rcd13ifvqi70","pricing_plan_id":"cebpf4jnsgd1na2vs0mg"},{"bike_id":"157ef7b7-36d8-42ef-bd6d-ccd1ccdc48c2","system_id":"levelo_inurba_marseille","lat":43.32109,"lon":5.36792,"is_reserved":false,"is_disabled":false,"rental_uris":{"android":"levelo://app?vid=157ef7b7-36d8-42ef-bd6d-ccd1ccdc48c2","ios":"levelo://app?vid=157ef7b7-36d8-42ef-bd6d-ccd1ccdc48c2"},"vehicle_type_id":"4","last_reported":1758355948,"current_range_meters":22000,"station_id":"ce4bhrh2rcd13ifvqhug","pricing_plan_id":"cebpf4jnsgd1na2vs0mg"},{"bike_id":"535f5519-e46c-47f0-932e-2178b69ad847","system_id":"levelo_inurba_marseille","lat":43.25727,"lon":5.41125,"is_reserved":false,"is_disabled":false,"rental_uris":{"android":"levelo://app?vid=535f5519-e46c-47f0-932e-2178b69ad847","ios":"levelo://app?vid=535f5519-e46c-47f0-932e-2178b69ad847"},"vehicle_type_id":"4","last_reported":1758355948,"current_range_meters":22000,"station_id":"ce4bhkp2rcd13ifvqgd0","pricing_plan_id":"cebpf4jnsgd1na2vs0mg"},{"bike_id":"046ba709-b940-4fa3-9690-1d81db536e4b","system_id":"levelo_inurba_marseille","lat":43.225585,"lon":5.416292,"is_reserved":false,"is_disabled":false,"rental_uris":{"android":"levelo://app?vid=046ba709-b940-4fa3-9690-1d81db536e4b","ios":"levelo://app?vid=046ba709-b940-4fa3-9690-1d81db536e4b"},"vehicle_type_id":"4","last_reported":1758355948,"current_range_meters":22000,"station_id":"st_d2o4gvlbi1j2169b742g","pricing_plan_id":"cebpf4jnsgd1na2vs0mg"},{"bike_id":"21fdbfed-a4ea-4874-80c8-c98c653c6620","system_id":"levelo_inurba_marseille","lat":43.24166,"lon":5.36392,"is_reserved":false,"is_disabled":false,"rental_uris":{"android":"levelo://app?vid=21fdbfed-a4ea-4874-80c8-c98c653c6620","ios":"levelo://app?vid=21fdbfed-a4ea-4874-80c8-c98c653c6620"},"vehicle_type_id":"4","last_reported":1758355948,"current_range_meters":22000,"station_id":"cpo36qri1sfpv3e86is0","pricing_plan_id":"cebpf4jnsgd1na2vs0mg"},{"bike_id":"ff925bbf-d865-4075-9cf6-09e1ba51dceb","system_id":"levelo_inurba_marseille","lat":43.29956,"lon":5.41317,"is_reserved":false,"is_disabled":false,"rental_uris":{"android":"levelo://app?vid=ff925bbf-d865-4075-9cf6-09e1ba51dceb","ios":"levelo://app?vid=ff925bbf-d865-4075-9cf6-09e1ba51dceb"},"vehicle_type_id":"4","last_reported":1758355948,"current_range_meters":22000,"station_id":"ce4bhp12rcd13ifvqh9g","pricing_plan_id":"cebpf4jnsgd1na2vs0mg"},{"bike_id":"c0b9ca5a-758b-4a28-ae8c-850a5e5ffa0d","system_id":"levelo_inurba_marseille","lat":43.33747,"lon":5.3753,"is_reserved":false,"is_disabled":true,"rental_uris":{"android":"levelo://app?vid=c0b9ca5a-758b-4a28-ae8c-850a5e5ffa0d","ios":"levelo://app?vid=c0b9ca5a-758b-4a28-ae8c-850a5e5ffa0d"},"vehicle_type_id":"4","last_reported":1758355948,"current_range_meters":22000,"station_id":"","pricing_plan_id":"cebpf4jnsgd1na2vs0mg"},{"bike_id":"3239b3fb-b2a1-4efe-bf7d-3b32112452ee","system_id":"levelo_inurba_marseille","lat":43.27977,"lon":5.38743,"is_reserved":false,"is_disabled":false,"rental_uris":{"android":"levelo://app?vid=3239b3fb-b2a1-4efe-bf7d-3b32112452ee","ios":"levelo://app?vid=3239b3fb-b2a1-4efe-bf7d-3b32112452ee"},"vehicle_type_id":"4","last_reported":1758355948,"current_range_meters":22000,"station_id":"ce4bhg12rcd13ifvqf80","pricing_plan_id":"cebpf4jnsgd1na2vs0mg"},{"bike_id":"4b44493a-b3d2-4d57-ab16-9779f01677d6","system_id":"levelo_inurba_marseille","lat":43.24644,"lon":5.4316,"is_reserved":false,"is_disabled":false,"rental_uris":{"android":"levelo://app?vid=4b44493a-b3d2-4d57-ab16-9779f01677d6","ios":"levelo://app?vid=4b44493a-b3d2-4d57-ab16-9779f01677d6"},"vehicle_type_id":"4","last_reported":1758355948,"current_range_meters":22000,"station_id":"st_d2m6c4gdas8pm72e190g","pricing_plan_id":"cebpf4jnsgd1na2vs0mg"},{"bike_id":"f0d1b529-8718-4b37-9744-8213944114fb","system_id":"levelo_inurba_marseille","lat":43.29029,"lon":5.35606,"is_reserved":false,"is_disabled":false,"rental_uris":{"android":"levelo://app?vid=f0d1b529-8718-4b37-9744-8213944114fb","ios":"levelo://app?vid=f0d1b529-8718-4b37-9744-8213944114fb"},"vehicle_type_id":"4","last_reported":1758355948,"current_range_meters":22000,"station_id":"ce4bhb92rcd13ifvqen0","pricing_plan_id":"cebpf4jnsgd1na2vs0mg"},{"bike_id":"8290b581-7eb7-425a-b183-2e372619461b","system_id":"levelo_inurba_marseille","lat":43.29943,"lon":5.36535,"is_reserved":false,"is_disabled":false,"rental_uris":{"android":"levelo://app?vid=8290b581-7eb7-425a-b183-2e372619461b","ios":"levelo://app?vid=8290b581-7eb7-425a-b183-2e372619461b"},"vehicle_type_id":"4","last_reported":1758355948,"current_range_meters":22000,"station_id":"ce4bgm92rcd13ifvqbr0","pricing_plan_id":"cebpf4jnsgd1na2vs0mg"},{"bike_id":"a04faa48-3b48-4b09-8085-aa552855b5a1","system_id":"levelo_inurba_marseille","lat":43.29978,"lon":5.38486,"is_reserved":false,"is_disabled":false,"rental_uris":{"android":"levelo://app?vid=a04faa48-3b48-4b09-8085-aa552855b5a1","ios":"levelo://app?vid=a04faa48-3b48-4b09-8085-aa552855b5a1"},"vehicle_type_id":"4","last_reported":1758355948,"current_range_meters":22000,"station_id":"ce4bgj92rcd13ifvqbd0","pricing_plan_id":"cebpf4jnsgd1na2vs0mg"},{"bike_id":"cebd96d0-3f40-4cc8-aee9-38a48fc374c6","system_id":"levelo_inurba_marseille","lat":43.31218,"lon":5.40174,"is_reserved":false,"is_disabled":false,"rental_uris":{"android":"levelo://app?vid=cebd96d0-3f40-4cc8-aee9-38a48fc374c6","ios":"levelo://app?vid=cebd96d0-3f40-4cc8-aee9-38a48fc374c6"},"vehicle_type_id":"4","last_reported":1758355948,"current_range_meters":22400,"station_id":"ce4bh092rcd13ifvqd30","pricing_plan_id":"cebpf4jnsgd1na2vs0mg"},{"bike_id":"9bf65939-cc5f-4421-8a08-5651439628c8","system_id":"levelo_inurba_marseille","lat":43.31006,"lon":5.38963,"is_reserved":false,"is_disabled":false,"rental_uris":{"android":"levelo://app?vid=9bf65939-cc5f-4421-8a08-5651439628c8","ios":"levelo://app?vid=9bf65939-cc5f-4421-8a08-5651439628c8"},"vehicle_type_id":"4","last_reported":1758355948,"current_range_meters":22400,"station_id":"","pricing_plan_id":"cebpf4jnsgd1na2vs0mg"},{"bike_id":"c1f4aac7-2fab-4ada-a392-c85804bf74e8","system_id":"levelo_inurba_marseille","lat":43.251513,"lon":5.396672,"is_reserved":false,"is_disabled":false,"rental_uris":{"android":"levelo://app?vid=c1f4aac7-2fab-4ada-a392-c85804bf74e8","ios":"levelo://app?vid=c1f4aac7-2fab-4ada-a392-c85804bf74e8"},"vehicle_type_id":"4","last_reported":1758355948,"current_range_meters":22400,"station_id":"","pricing_plan_id":"cebpf4jnsgd1na2vs0mg"},{"bike_id":"b3abe435-1898-4919-8a5e-7e7f4a6405db","system_id":"levelo_inurba_marseille","lat":43.29916,"lon":5.38111,"is_reserved":false,"is_disabled":false,"rental_uris":{"android":"levelo://app?vid=b3abe435-1898-4919-8a5e-7e7f4a6405db","ios":"levelo://app?vid=b3abe435-1898-4919-8a5e-7e7f4a6405db"},"vehicle_type_id":"4","last_reported":1758355948,"current_range_meters":22400,"station_id":"ce4bgj12rcd13ifvqbc0","pricing_plan_id":"cebpf4jnsgd1na2vs0mg"},{"bike_id":"ef85fa9c-3868-40b7-9aac-34534c39363f","system_id":"levelo_inurba_marseille","lat":43.30796,"lon":5.38153,"is_reserved":false,"is_disabled":false,"rental_uris":{"android":"levelo://app?vid=ef85fa9c-3868-40b7-9aac-34534c39363f","ios":"levelo://app?vid=ef85fa9c-3868-40b7-9aac-34534c39363f"},"vehicle_type_id":"4","last_reported":1758355948,"current_range_meters":22400,"station_id":"ce4bgt12rcd13ifvqce0","pricing_plan_id":"cebpf4jnsgd1na2vs0mg"},{"bike_id":"e50f8eb9-02b1-4c48-840a-2de04fb3568c","system_id":"levelo_inurba_marseille","lat":43.27494,"lon":5.42476,"is_reserved":false,"is_disabled":false,"rental_uris":{"android":"levelo://app?vid=e50f8eb9-02b1-4c48-840a-2de04fb3568c","ios":"levelo://app?vid=e50f8eb9-02b1-4c48-840a-2de04fb3568c"},"vehicle_type_id":"4","last_reported":1758355948,"current_range_meters":22800,"station_id":"ce4bhn92rcd13ifvqgrg","pricing_plan_id":"cebpf4jnsgd1na2vs0mg"},