{"last_updated":1732007407,"ttl":60,"version":"2.2","data":{"bikes":[{"bike_id":"0e1c2a5a-9d09-47c3-98ea-6ec79f6c76a5","system_id":"levelo_inurba_marseille","lat":43.31393,"lon":5.36688,"is_reserved":false,"is_disabled":true,"rental_uris":{"android":"levelo://app?vid=0e1c2a5a-9d09-47c3-98ea-6ec79f6c76a5","ios":"levelo://app?vid=0e1c2a5a-9d09-47c3-98ea-6ec79f6c76a5"},"vehicle_type_id":"4","last_reported":1732007407,"current_range_meters":0,"station_id":"ce4bgr92rcd13ifvqc6g","pricing_plan_id":"cebpf4jnsgd1na2vs0mg"},{"bike_id":"8eee82bc-1982-4bd2-808a-3b622929f9f2","system_id":"levelo_inurba_marseille","lat":43.27826,"lon":5.39202,"is_reserved":false,"is_disabled":false,"rental_uris":{"android":"levelo://app?vid=8eee82bc-1982-4bd2-808a-3b622929f9f2","ios":"levelo://app?vid=8eee82bc-1982-4bd2-808a-3b622929f9f2"},"vehicle_type_id":"4","last_reported":1732007407,"current_range_meters":16800,"station_id":"ce4bhjp2rcd13ifvqga0","pricing_plan_id":"cebpf4jnsgd1na2vs0mg"},{"bike_id":"5af79085-8413-4ae2-9fcd-0a5d06643454","system_id":"levelo_inurba_marseille","lat":43.30148,"lon":5.38086,"is_reserved":false,"is_disabled":true,"rental_uris":{"android":"levelo://app?vid=5af79085-8413-4ae2-9fcd-0a5d06643454","ios":"levelo://app?vid=5af79085-8413-4ae2-9fcd-0a5d06643454"},"vehicle_type_id":"4","last_reported":1732007407,"current_range_meters":22800,"station_id":"ce4bgjp2rcd13ifvqbh0","pricing_plan_id":"cebpf4jnsgd1na2vs0mg"},{"bike_id":"7f51cb17-6f5b-4ee6-a2a5-2fef689a15a9","system_id":"levelo_inurba_marseille","lat":43.27948,"lon":5.41041,"is_reserved":false,"is_disabled":true,"rental_uris":{"android":"levelo://app?vid=7f51cb17-6f5b-4ee6-a2a5-2fef689a15a9","ios":"levelo://app?vid=7f51cb17-6f5b-4ee6-a2a5-2fef689a15a9"},"vehicle_type_id":"4","last_reported":1732007407,"current_range_meters":29600,"station_id":"ce4bhnp2rcd13ifvqh0g","pricing_plan_id":"cebpf4jnsgd1na2vs0mg"},{"bike_id":"75cc8757-90ec-44a2-b070-b9cc134f750e","system_id":"levelo_inurba_marseille","lat":43.25015,"lon":5.3807,"is_reserved":false,"is_disabled":false,"rental_uris":{"android":"levelo://app?vid=75cc8757-90ec-44a2-b070-b9cc134f750e","ios":"levelo://app?vid=75cc8757-90ec-44a2-b070-b9cc134f750e"},"vehicle_type_id":"4","last_reported":1732007407,"current_range_meters":34000,"station_id":"","pricing_plan_id":"cebpf4jnsgd1na2vs0mg"},{"bike_id":"56b1e23a-a8b6-4eed-a858-f200a5a0a62a","system_id":"levelo_inurba_marseille","lat":43.23148,"lon":5.43727,"is_reserved":false,"is_disabled":false,"rental_uris":{"android":"levelo://app?vid=56b1e23a-a8b6-4eed-a858-f200a5a0a62a","ios":"levelo://app?vid=56b1e23a-a8b6-4eed-a858-f200a5a0a62a"},"vehicle_type_id":"4","last_reported":1732007407,"current_range_meters":8400,"station_id":"ce4bhmp2rcd13ifvqgog","pricing_plan_id":"cebpf4jnsgd1na2vs0mg"},{"bike_id":"bb9ea763-6e93-4922-b0c2-ce9421dca49b","system_id":"levelo_inurba_marseille","lat":43.25932,"lon":5.40911,"is_reserved":false,"is_disabled":true,"rental_uris":{"android":"levelo://app?vid=bb9ea763-6e93-4922-b0c2-ce9421dca49b","ios":"levelo://app?vid=bb9ea763-6e93-4922-b0c2-ce9421dca49b"},"vehicle_type_id":"4","last_reported":1732007407,"current_range_meters":0,"station_id":"ce4bhm92rcd13ifvqglg","pricing_plan_id":"cebpf4jnsgd1na2vs0mg"},{"bike_id":"696dad62-b035-4843-b522-aad62f104751","system_id":"levelo_inurba_marseille","lat":43.34147,"lon":5.40914,"is_reserved":false,"is_disabled":false,"rental_uris":{"android":"levelo://app?vid=696dad62-b035-4843-b522-aad62f104751","ios":"levelo://app?vid=696dad62-b035-4843-b522-aad62f104751"},"vehicle_type_id":"4","last_reported":1732007407,"current_range_meters":26000,"station_id":"ce4bhqh2rcd13ifvqhlg","pricing_plan_id":"cebpf4jnsgd1na2vs0mg"},{"bike_id":"9502eb2d-3d88-47b6-823d-d0a9ae92ce64","system_id":"levelo_inurba_marseille","lat":43.29913,"lon":5.37462,"is_reserved":false,"is_disabled":false,"rental_uris":{"android":"levelo://app?vid=9502eb2d-3d88-47b6-823d-d0a9ae92ce64","ios":"levelo://app?vid=9502eb2d-3d88-47b6-823d-d0a9ae92ce64"},"vehicle_type_id":"4","last_reported":1732007407,"current_range_meters":15200,"station_id":"ce4bgjh2rcd13ifvqbg0","pricing_plan_id":"cebpf4jnsgd1na2vs0mg"},{"bike_id":"0bc2b4da-31a7-4cb4-95e9-3aa3825f7da9","system_id":"levelo_inurba_marseille","lat":43.27998,"lon":5.40011,"is_reserved":false,"is_disabled":false,"rental_uris":{"android":"levelo://app?vid=0bc2b4da-31a7-4cb4-95e9-3aa3825f7da9","ios":"levelo://app?vid=0bc2b4da-31a7-4cb4-95e9-3aa3825f7da9"},"vehicle_type_id":"4","last_reported":1732007407,"current_range_meters":11200,"station_id":"ce4bho92rcd13ifvqh4g","pricing_plan_id":"cebpf4jnsgd1na2vs0mg"},{"bike_id":"ab8b3dcb-d33d-4854-a37e-2243fffa6f29","system_id":"levelo_inurba_marseille","lat":43.30148,"lon":5.38079,"is_reserved":false,"is_disabled":false,"rental_uris":{"android":"levelo://app?vid=ab8b3dcb-d33d-4854-a37e-2243fffa6f29","ios":"levelo://app?vid=ab8b3dcb-d33d-4854-a37e-2243fffa6f29"},"vehicle_type_id":"4","last_reported":1732007407,"current_range_meters":36000,"station_id":"ce4bgjp2rcd13ifvqbh0","pricing_plan_id":"cebpf4jnsgd1na2vs0mg"},{"bike_id":"83669109-7550-4233-aa88-c125b219f8c3","system_id":"levelo_inurba_marseille","lat":43.30467,"lon":5.37907,"is_reserved":false,"is_disabled":false,"rental_uris":{"android":"levelo://app?vid=83669109-7550-4233-aa88-c125b219f8c3","ios":"levelo://app?vid=83669109-7550-4233-aa88-c125b219f8c3"},"vehicle_type_id":"4","last_reported":1732007407,"current_range_meters":25600,"station_id":"ce4bgup2rcd13ifvqcn0","pricing_plan_id":"cebpf4jnsgd1na2vs0mg"},{"bike_id":"0699f1c2-b7e4-449f-b358-06a7b93e0378","system_id":"levelo_inurba_marseille","lat":43.30916,"lon":5.36845,"is_reserved":false,"is_disabled":false,"rental_uris":{"android":"levelo://app?vid=0699f1c2-b7e4-449f-b358-06a7b93e0378","ios":"levelo://app?vid=0699f1c2-b7e4-449f-b358-06a7b93e0378"},"vehicle_type_id":"4","last_reported":1732007407,"current_range_meters":19200,"station_id":"ce4bgn92rcd13ifvqbvg","pricing_plan_id":"cebpf4jnsgd1na2vs0mg"},{"bike_id":"6c926eef-89ef-4421-9c04-3c9899f3173b","system_id":"levelo_inurba_marseille","lat":43.29902,"lon":5.43665,"is_reserved":false,"is_disabled":true,"rental_uris":{"android":"levelo://app?vid=6c926eef-89ef-4421-9c04-3c9899f3173b","ios":"levelo://app?vid=6c926eef-89ef-4421-9c04-3c9899f3173b"},"vehicle_type_id":"4","last_reported":1732007407,"current_range_meters":0,"station_id":"ce4bhpp2rcd13ifvqhfg","pricing_plan_id":"cebpf4jnsgd1na2vs0mg"},{"bike_id":"127efe80-b451-4258-b40a-516220894345","system_id":"levelo_inurba_marseille","lat":43.30889,"lon":5.37183,"is_reserved":false,"is_disabled":false,"rental_uris":{"android":"levelo://app?vid=127efe80-b451-4258-b40a-516220894345","ios":"levelo://app?vid=127efe80-b451-4258-b40a-516220894345"},"vehicle_type_id":"4","last_reported":1732007407,"current_range_meters":38800,"station_id":"ce4bguh2rcd13ifvqckg","pricing_plan_id":"cebpf4jnsgd1na2vs0mg"},{"bike_id":"55dfcf5a-ba1e-4c0d-8b08-a99a7c3dc723","system_id":"levelo_inurba_marseille","lat":43.30551,"lon":5.36527,"is_reserved":false,"is_disabled":false,"rental_uris":{"android":"levelo://app?vid=55dfcf5a-ba1e-4c0d-8b08-a99a7c3dc723","ios":"levelo://app?vid=55dfcf5a-ba1e-4c0d-8b08-a99a7c3dc723"},"vehicle_type_id":"4","last_reported":1732007407,"current_range_meters":38800,"station_id":"ce4bgs12rcd13ifvqcag","pricing_plan_id":"cebpf4jnsgd1na2vs0mg"},{"bike_id":"e08875d1-5eda-43a9-a5b5-ee3ebd16c83c","system_id":"levelo_inurba_marseille","lat":43.25006,"lon":5.38912,"is_reserved":false,"is_disabled":false,"rental_uris":{"android":"levelo://app?vid=e08875d1-5eda-43a9-a5b5-ee3ebd16c83c","ios":"levelo://app?vid=e08875d1-5eda-43a9-a5b5-ee3ebd16c83c"},"vehicle_type_id":"4","last_reported":1732007407,"current_range_meters":36400,"station_id":"ce4bhgp2rcd13ifvqfd0","pricing_plan_id":"cebpf4jnsgd1na2vs0mg"},{"bike_id":"b1879da0-4952-4a10-8d90-fd2192536eda","system_id":"levelo_inurba_marseille","lat":43.23156,"lon":5.43705,"is_reserved":false,"is_disabled":false,"rental_uris":{"android":"levelo://app?vid=b1879da0-4952-4a10-8d90-fd2192536eda","ios":"levelo://app?vid=b1879da0-4952-4a10-8d90-fd2192536eda"},"vehicle_type_id":"4","last_reported":1732007407,"current_range_meters":39200,"station_id":"ce4bhmp2rcd13ifvqgog","pricing_plan_id":"cebpf4jnsgd1na2vs0mg"},{"bike_id":"2f2740e1-ad4a-4efb-b1f1-826e784f47c8","system_id":"levelo_inurba_marseille","lat":43.2594,"lon":5.40904,"is_reserved":false,"is_disabled":false,"rental_uris":{"android":"levelo://app?vid=2f2740e1-ad4a-4efb-b1f1-826e784f47c8","ios":"levelo://app?vid=2f2740e1-ad4a-4efb-b1f1-826e784f47c8"},"vehicle_type_id":"4","last_reported":1732007407,"current_range_meters":17600,"station_id":"ce4bhm92rcd13ifvqglg","pricing_plan_id":"cebpf4jnsgd1na2vs0mg"},{"bike_id":"2fd3a9ee-4c1e-43ad-a34b-a2a15537ba5c","system_id":"levelo_inurba_marseille","lat":43.29042,"lon":5.37565,"is_reserved":false,"is_disabled":true,"rental_uris":{"android":"levelo://app?vid=2fd3a9ee-4c1e-43ad-a34b-a2a15537ba5c","ios":"levelo://app?vid=2fd3a9ee-4c1e-43ad-a34b-a2a15537ba5c"},"vehicle_type_id":"4","last_reported":1732007407,"current_range_meters":800,"station_id":"ce4bh692rcd13ifvqe90","pricing_plan_id":"cebpf4jnsgd1na2vs0mg"},{"bike_id":"8e7e7187-e587-44ac-886b-f69ece72d624","system_id":"levelo_inurba_marseille","lat":43.30949,"lon":5.39042,"is_reserved":false,"is_disabled":false,"rental_uris":{"android":"levelo://app?vid=8e7e7187-e587-44ac-886b-f69ece72d624","ios":"levelo://app?vid=8e7e7187-e587-44ac-886b-f69ece72d624"},"vehicle_type_id":"4","last_reported":1732007407,"current_range_meters":39200,"station_id":"ce4bgup2rcd13ifvqco0","pricing_plan_id":"cebpf4jnsgd1na2vs0mg"},{"bike_id":"1dc270f8-c0fd-4cd3-abb0-026fecbae2de","system_id":"levelo_inurba_marseille","lat":43.24087,"lon":5.37749,"is_reserved":false,"is_disabled":true,"rental_uris":{"android":"levelo://app?vid=1dc270f8-c0fd-4cd3-abb0-026fecbae2de","ios":"levelo://app?vid=1dc270f8-c0fd-4cd3-abb0-026fecbae2de"},"vehicle_type_id":"4","last_reported":1732007407,"current_range_meters":26000,"station_id":"ce4bhnp2rcd13ifvqgvg","pricing_plan_id":"cebpf4jnsgd1na2vs0mg"},{"bike_id":"d1cac6c1-3c7c-4330-bf0c-b1452a405bf8","system_id":"levelo_inurba_marseille","lat":43.29014,"lon":5.38133,"is_reserved":false,"is_disabled":false,"rental_uris":{"android":"levelo://app?vid=d1cac6c1-3c7c-4330-bf0c-b1452a405bf8","ios":"levelo://app?vid=d1cac6c1-3c7c-4330-bf0c-b1452a405bf8"},"vehicle_type_id":"4","last_reported":1732007407,"current_range_meters":38400,"station_id":"ce4bh4p2rcd13ifvqe1g","pricing_plan_id":"cebpf4jnsgd1na2vs0mg"},{"bike_id":"27826932-4185-4fc8-b80c-3fd0ce6de149","system_id":"levelo_inurba_marseille","lat":43.31486,"lon":5.37304,"is_reserved":false,"is_disabled":false,"rental_uris":{"android":"levelo://app?vid=27826932-4185-4fc8-b80c-3fd0ce6de149","ios":"levelo://app?vid=27826932-4185-4fc8-b80c-3fd0ce6de149"},"vehicle_type_id":"4","last_reported":1732007407,"current_range_meters":8000,"station_id":"ce4bgt12rcd13ifvqcd0","pricing_plan_id":"cebpf4jnsgd1na2vs0mg"},{"bike_id":"1ceca4c0-e64b-47cd-84e8-4eaf493a34ff","system_id":"levelo_inurba_marseille","lat":43.30328,"lon":5.40267,"is_reserved":false,"is_disabled":true,"rental_uris":{"android":"levelo://app?vid=1ceca4c0-e64b-47cd-84e8-4eaf493a34ff","ios":"levelo://app?vid=1ceca4c0-e64b-47cd-84e8-4eaf493a34ff"},"vehicle_type_id":"4","last_reported":1732007407,"current_range_meters":0,"station_id":"","pricing_plan_id":"cebpf4jnsgd1na2vs0mg"},{"bike_id":"67e7be22-2de4-40ec-8f9a-2c37035192f6","system_id":"levelo_inurba_marseille","lat":43.24073,"lon":5.37764,"is_reserved":false,"is_disabled":false,"rental_uris":{"android":"levelo://app?vid=67e7be22-2de4-40ec-8f9a-2c37035192f6","ios":"levelo://app?vid=67e7be22-2de4-40ec-8f9a-2c37035192f6"},"vehicle_type_id":"4","last_reported":1732007407,"current_range_meters":26000,"station_id":"ce4bhnp2rcd13ifvqgvg","pricing_plan_id":"cebpf4jnsgd1na2vs0mg"},{"bike_id":"908589c7-0195-46e2-9635-c2a80000b35f","system_id":"levelo_inurba_marseille","lat":43.23187,"lon":5.39987,"is_reserved":false,"is_disabled":false,"rental_uris":{"android":"levelo://app?vid=908589c7-0195-46e2-9635-c2a80000b35f","ios":"levelo://app?vid=908589c7-0195-46e2-9635-c2a80000b35f"},"vehicle_type_id":"4","last_reported":1732007407,"current_range_meters":6000,"station_id":"ce4bhn12rcd13ifvqgqg","pricing_plan_id":"cebpf4jnsgd1na2vs0mg"},{"bike_id":"636ad6ad-7ea2-4a54-b125-0c397f6550f8","system_id":"levelo_inurba_marseille","lat":43.28439,"lon":5.39179,"is_reserved":false,"is_disabled":false,"rental_uris":{"android":"levelo://app?vid=636ad6ad-7ea2-4a54-b125-0c397f6550f8","ios":"levelo://app?vid=636ad6ad-7ea2-4a54-b125-0c397f6550f8"},"vehicle_type_id":"4","last_reported":1732007407,"current_range_meters":38800,"station_id":"ce4bhoh2rcd13ifvqh5g","pricing_plan_id":"cebpf4jnsgd1na2vs0mg"},{"bike_id":"c909d17a-6117-477e-a413-6471255f018b","system_id":"levelo_inurba_marseille","lat":43.26953,"lon":5.38631,"is_reserved":false,"is_disabled":false,"rental_uris":{"android":"levelo://app?vid=c909d17a-6117-477e-a413-6471255f018b","ios":"levelo://app?vid=c909d17a-6117-477e-a413-6471255f018b"},"vehicle_type_id":"4","last_reported":1732007407,"current_range_meters":39200,"station_id":"ce4bhh92rcd13ifvqfh0","pricing_plan_id":"cebpf4jnsgd1na2vs0mg"},{"bike_id":"74a095eb-1835-47a0-a475-28dc99d16ff9","system_id":"levelo_inurba_marseille","lat":43.29298,"lon":5.37451,"is_reserved":false,"is_disabled":false,"rental_uris":{"android":"levelo://app?vid=74a095eb-1835-47a0-a475-28dc99d16ff9","ios":"levelo://app?vid=74a095eb-1835-47a0-a475-28dc99d16ff9"},"vehicle_type_id":"4","last_reported":1732007407,"current_range_meters":38800,"station_id":"ce4bgi12rcd13ifvqb70","pricing_plan_id":"cebpf4jnsgd1na2vs0mg"},{"bike_id":"3e89d28f-51c8-41c4-8b09-ee3fc9f6be6f","system_id":"levelo_inurba_marseille","lat":43.32479,"lon":5.36566,"is_reserved":false,"is_disabled":false,"rental_uris":{"android":"levelo://app?vid=3e89d28f-51c8-41c4-8b09-ee3fc9f6be6f","ios":"levelo://app?vid=3e89d28f-51c8-41c4-8b09-ee3fc9f6be6f"},"vehicle_type_id":"4","last_reported":1732007407,"current_range_meters":4800,"station_id":"ce4bhs12rcd13ifvqhvg","pricing_plan_id":"cebpf4jnsgd1na2vs0mg"},{"bike_id":"9ce67508-8b06-4b57-9464-c2d28878484d","system_id":"levelo_inurba_marseille","lat":43.34146,"lon":5.40904,"is_reserved":false,"is_disabled":false,"rental_uris":{"android":"levelo://app?vid=9ce67508-8b06-4b57-9464-c2d28878484d","ios":"levelo://app?vid=9ce67508-8b06-4b57-9464-c2d28878484d"},"vehicle_type_id":"4","last_reported":1732007407,"current_range_meters":28400,"station_id":"ce4bhqh2rcd13ifvqhlg","pricing_plan_id":"cebpf4jnsgd1na2vs0mg"},{"bike_id":"92ea0f93-f2e1-4e5d-abfa-d16e0edcd1e6","system_id":"levelo_inurba_marseille","lat":43.3091,"lon":5.3685,"is_reserved":false,"is_disabled":false,"rental_uris":{"android":"levelo://app?vid=92ea0f93-f2e1-4e5d-abfa-d16e0edcd1e6","ios":"levelo://app?vid=92ea0f93-f2e1-4e5d-abfa-d16e0edcd1e6"},"vehicle_type_id":"4","last_reported":1732007407,"current_range_meters":33200,"station_id":"ce4bgn92rcd13ifvqbvg","pricing_plan_id":"cebpf4jnsgd1na2vs0mg"},{"bike_id":"45949901-07a0-4edb-9e1b-0e2169a074dc","system_id":"levelo_inurba_marseille","lat":43.30527,"lon":5.36698,"is_reserved":false,"is_disabled":false,"rental_uris":{"android":"levelo://app?vid=45949901-07a0-4edb-9e1b-0e2169a074dc","ios":"levelo://app?vid=45949901-07a0-4edb-9e1b-0e2169a074dc"},"vehicle_type_id":"4","last_reported":1732007407,"current_range_meters":39200,"station_id":"ce4bgrp2rcd13ifvqc9g","pricing_plan_id":"cebpf4jnsgd1na2vs0mg"},{"bike_id":"1341a828-b981-4198-a789-8a5791ca7539","system_id":"levelo_inurba_marseille","lat":43.25003,"lon":5.38911,"is_reserved":false,"is_disabled":false,"rental_uris":{"android":"levelo://app?vid=1341a828-b981-4198-a789-8a5791ca7539","ios":"levelo://app?vid=1341a828-b981-4198-a789-8a5791ca7539"},"vehicle_type_id":"4","last_reported":1732007407,"current_range_meters":36800,"station_id":"ce4bhgp2rcd13ifvqfd0","pricing_plan_id":"cebpf4jnsgd1na2vs0mg"},{"bike_id":"b4c6db65-509a-4b31-a5b8-05c1e0b8b2a9","system_id":"levelo_inurba_marseille","lat":43.30607,"lon":5.37213,"is_reserved":false,"is_disabled":false,"rental_uris":{"android":"levelo://app?vid=b4c6db65-509a-4b31-a5b8-05c1e0b8b2a9","ios":"levelo://app?vid=b4c6db65-509a-4b31-a5b8-05c1e0b8b2a9"},"vehicle_type_id":"4","last_reported":1732007407,"current_range_meters":28000,"station_id":"ce4bgqh2rcd13ifvqc4g","pricing_plan_id":"cebpf4jnsgd1na2vs0mg"},{"bike_id":"9ad03d5b-80cc-4617-b477-34bb93e2d3f6","system_id":"levelo_inurba_marseille","lat":43.30139,"lon":5.37414,"is_reserved":false,"is_disabled":false,"rental_uris":{"android":"levelo://app?vid=9ad03d5b-80cc-4617-b477-34bb93e2d3f6","ios":"levelo://app?vid=9ad03d5b-80cc-4617-b477-34bb93e2d3f6"},"vehicle_type_id":"4","last_reported":1732007407,"current_range_meters":35600,"station_id":"ce4bgs92rcd13ifvqcc0","pricing_plan_id":"cebpf4jnsgd1na2vs0mg"},{"bike_id":"e3511c0c-eb2b-4100-bb2d-c5ebcd644bea","system_id":"levelo_inurba_marseille","lat":43.23959,"lon":5.36623,"is_reserved":false,"is_disabled":true,"rental_uris":{"android":"levelo://app?vid=e3511c0c-eb2b-4100-bb2d-c5ebcd644bea","ios":"levelo://app?vid=e3511c0c-eb2b-4100-bb2d-c5ebcd644bea"},"vehicle_type_id":"4","last_reported":1732007407,"current_range_meters":36800,"station_id":"ce4bhi12rcd13ifvqfp0","pricing_plan_id":"cebpf4jnsgd1na2vs0mg"},{"bike_id":"d10c90fd-3c70-4bb6-bcaa-6d62b6ce4770","system_id":"levelo_inurba_marseille","lat":43.26069,"lon":5.39391,"is_reserved":false,"is_disabled":true,"rental_uris":{"android":"levelo://app?vid=d10c90fd-3c70-4bb6-bcaa-6d62b6ce4770","ios":"levelo://app?vid=d10c90fd-3c70-4bb6-bcaa-6d62b6ce4770"},"vehicle_type_id":"4","last_reported":1732007407,"current_range_meters":8400,"station_id":"ce4bhh92rcd13ifvqfj0","pricing_plan_id":"cebpf4jnsgd1na2vs0mg"},{"bike_id":"5917a06d-1a89-42ee-9c96-70b3e49f2520","system_id":"levelo_inurba_marseille","lat":43.31708,"lon":5.40469,"is_reserved":false,"is_disabled":true,"rental_uris":{"android":"levelo://app?vid=5917a06d-1a89-42ee-9c96-70b3e49f2520","ios":"levelo://app?vid=5917a06d-1a89-42ee-9c96-70b3e49f2520"},"vehicle_type_id":"4","last_reported":1732007407,"current_range_meters":13600,"station_id":"ce4bh012rcd13ifvqd00","pricing_plan_id":"cebpf4jnsgd1na2vs0mg"},{"bike_id":"7c1fb462-847d-4126-8726-9a70b5e7e7d8","system_id":"levelo_inurba_marseille","lat":43.26932,"lon":5.38632,"is_reserved":false,"is_disabled":false,"rental_uris":{"android":"levelo://app?vid=7c1fb462-847d-4126-8726-9a70b5e7e7d8","ios":"levelo://app?vid=7c1fb462-847d-4126-8726-9a70b5e7e7d8"},"vehicle_type_id":"4","last_reported":1732007407,"current_range_meters":30800,"station_id":"ce4bhh92rcd13ifvqfh0","pricing_plan_id":"cebpf4jnsgd1na2vs0mg"},{"bike_id":"0ae43ad8-7108-4495-908e-f716a5c3355b","system_id":"levelo_inurba_marseille","lat":43.25942,"lon":5.40905,"is_reserved":false,"is_disabled":false,"rental_uris":{"android":"levelo://app?vid=0ae43ad8-7108-4495-908e-f716a5c3355b","ios":"levelo://app?vid=0ae43ad8-7108-4495-908e-f716a5c3355b"},"vehicle_type_id":"4","last_reported":1732007407,"current_range_meters":36800,"station_id":"ce4bhm92rcd13ifvqglg","pricing_plan_id":"cebpf4jnsgd1na2vs0mg"},{"bike_id":"e0abc5fe-21c1-4eb7-b6db-bcf57beffcd8","system_id":"levelo_inurba_marseille","lat":43.29618,"lon":5.37153,"is_reserved":false,"is_disabled":false,"rental_uris":{"android":"levelo://app?vid=e0abc5fe-21c1-4eb7-b6db-bcf57beffcd8","ios":"levelo://app?vid=e0abc5fe-21c1-4eb7-b6db-bcf57beffcd8"},"vehicle_type_id":"4","last_reported":1732007407,"current_range_meters":13600,"station_id":"ce4bgnh2rcd13ifvqc0g","pricing_plan_id":"cebpf4jnsgd1na2vs0mg"},{"bike_id":"19964f03-ceaf-4621-8b57-b6da4494d96e","system_id":"levelo_inurba_marseille","lat":43.29264,"lon":5.38456,"is_reserved":false,"is_disabled":false,"rental_uris":{"android":"levelo://app?vid=19964f03-ceaf-4621-8b57-b6da4494d96e","ios":"levelo://app?vid=19964f03-ceaf-4621-8b57-b6da4494d96e"},"vehicle_type_id":"4","last_reported":1732007407,"current_range_meters":9600,"station_id":"ce4bh692rcd13ifvqea0","pricing_plan_id":"cebpf4jnsgd1na2vs0mg"},{"bike_id":"e4200a2f-51c9-4a2d-93c0-970a40d32e47","system_id":"levelo_inurba_marseille","lat":43.30148,"lon":5.38078,"is_reserved":false,"is_disabled":false,"rental_uris":{"android":"levelo://app?vid=e4200a2f-51c9-4a2d-93c0-970a40d32e47","ios":"levelo://app?vid=e4200a2f-51c9-4a2d-93c0-970a40d32e47"},"vehicle_type_id":"4","last_reported":1732007407,"current_range_meters":14800,"station_id":"ce4bgjp2rcd13ifvqbh0","pricing_plan_id":"cebpf4jnsgd1na2vs0mg"},{"bike_id":"1cc90608-5a84-4c67-ae6a-369c2355d020","system_id":"levelo_inurba_marseille","lat":43.24081,"lon":5.37753,"is_reserved":false,"is_disabled":false,"rental_uris":{"android":"levelo://app?vid=1cc90608-5a84-4c67-ae6a-369c2355d020","ios":"levelo://app?vid=1cc90608-5a84-4c67-ae6a-369c2355d020"},"vehicle_type_id":"4","last_reported":1732007407,"current_range_meters":30000,"station_id":"ce4bhnp2rcd13ifvqgvg","pricing_plan_id":"cebpf4jnsgd1na2vs0mg"},{"bike_id":"9f48a3fa-abf8-448c-86ff-07a542626bbd","system_id":"levelo_inurba_marseille","lat":43.302786,"lon":5.376898,"is_reserved":false,"is_disabled":false,"rental_uris":{"android":"levelo://app?vid=9f48a3fa-abf8-448c-86ff-07a542626bbd","ios":"levelo://app?vid=9f48a3fa-abf8-448c-86ff-07a542626bbd"},"vehicle_type_id":"4","last_reported":1732007407,"current_range_meters":38800,"station_id":"ce4bguh2rcd13ifvqcj0","pricing_plan_id":"cebpf4jnsgd1na2vs0mg"},{"bike_id":"e4897b49-0f0e-49bf-9a7a-51d7117eac38","system_id":"levelo_inurba_marseille","lat":43.25929,"lon":5.40916,"is_reserved":false,"is_disabled":false,"rental_uris":{"android":"levelo://app?vid=e4897b49-0f0e-49bf-9a7a-51d7117eac38","ios":"levelo://app?vid=e4897b49-0f0e-49bf-9a7a-51d7117eac38"},"vehicle_type_id":"4","last_reported":1732007407,"current_range_meters":18000,"station_id":"ce4bhm92rcd13ifvqglg","pricing_plan_id":"cebpf4jnsgd1na2vs0mg"},{"bike_id":"a17c76e2-461b-4a15-bf38-3ca0fd0bdb2c","system_id":"levelo_inurba_marseille","lat":43.30963,"lon":5.3903,"is_reserved":false,"is_disabled":false,"rental_uris":{"android":"levelo://app?vid=a17c76e2-461b-4a15-bf38-3ca0fd0bdb2c","ios":"levelo://app?vid=a17c76e2-461b-4a15-bf38-3ca0fd0bdb2c"},"vehicle_type_id":"4","last_reported":1732007407,"current_range_meters":24400,"station_id":"ce4bgup2rcd13ifvqco0","pricing_plan_id":"cebpf4jnsgd1na2vs0mg"},{"bike_id":"3f095bc8-9af8-4b0b-a298-157d8e949f36","system_id":"levelo_inurba_marseille","lat":43.27676,"lon":5.38888,"is_reserved":false,"is_disabled":true,"rental_uris":{"android":"levelo://app?vid=3f095bc8-9af8-4b0b-a298-157d8e949f36","ios":"levelo://app?vid=3f095bc8-9af8-4b0b-a298-157d8e949f36"},"vehicle_type_id":"4","last_reported":1732007407,"current_range_meters":7200,"station_id":"ce4bhi12rcd13ifvqfo0","pricing_plan_id":"cebpf4jnsgd1na2vs0mg"},{"bike_id":"d9191eb3-d044-4aba-ba0e-dd3c3b6c8bb3","system_id":"levelo_inurba_marseille","lat":43.31358,"lon":5.36687,"is_reserved":false,"is_disabled":false,"rental_uris":{"android":"levelo://app?vid=d9191eb3-d044-4aba-ba0e-dd3c3b6c8bb3","ios":"levelo://app?vid=d9191eb3-d044-4aba-ba0e-dd3c3b6c8bb3"},"vehicle_type_id":"4","last_reported":1732007407,"current_range_meters":39200,"station_id":"ce4bgr92rcd13ifvqc6g","pricing_plan_id":"cebpf4jnsgd1na2vs0mg"},{"bike_id":"585a3dc7-b3b0-4c0a-ab3f-6cb3ea72722e","system_id":"levelo_inurba_marseille","lat":43.31125,"lon":5.37753,"is_reserved":false,"is_disabled":false,"rental_uris":{"android":"levelo://app?vid=585a3dc7-b3b0-4c0a-ab3f-6cb3ea72722e","ios":"levelo://app?vid=585a3dc7-b3b0-4c0a-ab3f-6cb3ea72722e"},"vehicle_type_id":"4","last_reported":1732007407,"current_range_meters":16400,"station_id":"ce4bgt92rcd13ifvqcg0","pricing_plan_id":"cebpf4jnsgd1na2vs0mg"},{"bike_id":"e9591178-cdc3-434f-a4e8-8a21a67ac277","system_id":"levelo_inurba_marseille","lat":43.30547,"lon":5.36695,"is_reserved":false,"is_disabled":false,"rental_uris":{"android":"levelo://app?vid=e9591178-cdc3-434f-a4e8-8a21a67ac277","ios":"levelo://app?vid=e9591178-cdc3-434f-a4e8-8a21a67ac277"},"vehicle_type_id":"4","last_reported":1732007407,"current_range_meters":20400,"station_id":"ce4bgrp2rcd13ifvqc9g","pricing_plan_id":"cebpf4jnsgd1na2vs0mg"},{"bike_id":"d674a550-723f-4e20-a0c2-89aa344c2ade","system_id":"levelo_inurba_marseille","lat":43.28204,"lon":5.4438,"is_reserved":false,"is_disabled":false,"rental_uris":{"android":"levelo://app?vid=d674a550-723f-4e20-a0c2-89aa344c2ade","ios":"levelo://app?vid=d674a550-723f-4e20-a0c2-89aa344c2ade"},"vehicle_type_id":"4","last_reported":1732007407,"current_range_meters":3600,"station_id":"","pricing_plan_id":"cebpf4jnsgd1na2vs0mg"},{"bike_id":"81ea8344-2c34-49ab-98e1-1b417b1f2880","system_id":"levelo_inurba_marseille","lat":43.30613,"lon":5.3721,"is_reserved":false,"is_disabled":false,"rental_uris":{"android":"levelo://app?vid=81ea8344-2c34-49ab-98e1-1b417b1f2880","ios":"levelo://app?vid=81ea8344-2c34-49ab-98e1-1b417b1f2880"},"vehicle_type_id":"4","last_reported":1732007407,"current_range_meters":16000,"station_id":"ce4bgqh2rcd13ifvqc4g","pricing_plan_id":"cebpf4jnsgd1na2vs0mg"},{"bike_id":"f26f9ff4-6d82-459d-bc98-b8addb7fa0b2","system_id":"levelo_inurba_marseille","lat":43.28941,"lon":5.3662,"is_reserved":false,"is_disabled":true,"rental_uris":{"android":"levelo://app?vid=f26f9ff4-6d82-459d-bc98-b8addb7fa0b2","ios":"levelo://app?vid=f26f9ff4-6d82-459d-bc98-b8addb7fa0b2"},"vehicle_type_id":"4","last_reported":1732007407,"current_range_meters":0,"station_id":"ce4bhap2rcd13ifvqek0","pricing_plan_id":"cebpf4jnsgd1na2vs0mg"},{"bike_id":"b1206e4c-ce16-4476-aec7-4a5829167624","system_id":"levelo_inurba_marseille","lat":43.29621,"lon":5.37706,"is_reserved":false,"is_disabled":false,"rental_uris":{"android":"levelo://app?vid=b1206e4c-ce16-4476-aec7-4a5829167624","ios":"levelo://app?vid=b1206e4c-ce16-4476-aec7-4a5829167624"},"vehicle_type_id":"4","last_reported":1732007407,"current_range_meters":19600,"station_id":"ce4bgi92rcd13ifvqb90","pricing_plan_id":"cebpf4jnsgd1na2vs0mg"},{"bike_id":"98080959-67df-4a67-adf1-aede5c0d42f6","system_id":"levelo_inurba_marseille","lat":43.2931,"lon":5.37178,"is_reserved":false,"is_disabled":false,"rental_uris":{"android":"levelo://app?vid=98080959-67df-4a67-adf1-aede5c0d42f6","ios":"levelo://app?vid=98080959-67df-4a67-adf1-aede5c0d42f6"},"vehicle_type_id":"4","last_reported":1732007407,"current_range_meters":6800,"station_id":"ce4bgh92rcd13ifvqb40","pricing_plan_id":"cebpf4jnsgd1na2vs0mg"},{"bike_id":"fab435eb-fc24-4869-9400-ba5219069b91","system_id":"levelo_inurba_marseille","lat":43.28442,"lon":5.35863,"is_reserved":false,"is_disabled":false,"rental_uris":{"android":"levelo://app?vid=fab435eb-fc24-4869-9400-ba5219069b91","ios":"levelo://app?vid=fab435eb-fc24-4869-9400-ba5219069b91"},"vehicle_type_id":"4","last_reported":1732007407,"current_range_meters":28800,"station_id":"ce4bhah2rcd13ifvqei0","pricing_plan_id":"cebpf4jnsgd1na2vs0mg"},{"bike_id":"4090e87e-c769-45bc-81bc-d98a1a6120df","system_id":"levelo_inurba_marseille","lat":43.301816,"lon":5.366262,"is_reserved":false,"is_disabled":false,"rental_uris":{"android":"levelo://app?vid=4090e87e-c769-45bc-81bc-d98a1a6120df","ios":"levelo://app?vid=4090e87e-c769-45bc-81bc-d98a1a6120df"},"vehicle_type_id":"4","last_reported":1732007407,"current_range_meters":16000,"station_id":"ce4bgrh2rcd13ifvqc8g","pricing_plan_id":"cebpf4jnsgd1na2vs0mg"},{"bike_id":"76b26817-8a0e-47d4-9818-68227ec46540","system_id":"levelo_inurba_marseille","lat":43.29062,"lon":5.3715,"is_reserved":false,"is_disabled":true,"rental_uris":{"android":"levelo://app?vid=76b26817-8a0e-47d4-9818-68227ec46540","ios":"levelo://app?vid=76b26817-8a0e-47d4-9818-68227ec46540"},"vehicle_type_id":"4","last_reported":1732007407,"current_range_meters":37600,"station_id":"ce4bh5p2rcd13ifvqe4g","pricing_plan_id":"cebpf4jnsgd1na2vs0mg"},{"bike_id":"8bce9918-8d4a-4d97-9aa6-73a02b15ca24","system_id":"levelo_inurba_marseille","lat":43.28284,"lon":5.35062,"is_reserved":false,"is_disabled":false,"rental_uris":{"android":"levelo://app?vid=8bce9918-8d4a-4d97-9aa6-73a02b15ca24","ios":"levelo://app?vid=8bce9918-8d4a-4d97-9aa6-73a02b15ca24"},"vehicle_type_id":"4","last_reported":1732007407,"current_range_meters":5600,"station_id":"ce4bhbp2rcd13ifvqerg","pricing_plan_id":"cebpf4jnsgd1na2vs0mg"},{"bike_id":"26cebf06-260c-4863-8cb4-8027a65a5ba0","system_id":"levelo_inurba_marseille","lat":43.33611,"lon":5.41026,"is_reserved":false,"is_disabled":false,"rental_uris":{"android":"levelo://app?vid=26cebf06-260c-4863-8cb4-8027a65a5ba0","ios":"levelo://app?vid=26cebf06-260c-4863-8cb4-8027a65a5ba0"},"vehicle_type_id":"4","last_reported":1732007407,"current_range_meters":32000,"station_id":"ce4bhqh2rcd13ifvqhmg","pricing_plan_id":"cebpf4jnsgd1na2vs0mg"},{"bike_id":"53af49ba-6f87-4d18-832a-0147436f0537","system_id":"levelo_inurba_marseille","lat":43.26953,"lon":5.38627,"is_reserved":false,"is_disabled":false,"rental_uris":{"android":"levelo://app?vid=53af49ba-6f87-4d18-832a-0147436f0537","ios":"levelo://app?vid=53af49ba-6f87-4d18-832a-0147436f0537"},"vehicle_type_id":"4","last_reported":1732007407,"current_range_meters":23200,"station_id":"ce4bhh92rcd13ifvqfh0","pricing_plan_id":"cebpf4jnsgd1na2vs0mg"},{"bike_id":"ad5908de-f9cb-4517-9cc9-61d6ad63a392","system_id":"levelo_inurba_marseille","lat":43.24652,"lon":5.388941,"is_reserved":false,"is_disabled":false,"rental_uris":{"android":"levelo://app?vid=ad5908de-f9cb-4517-9cc9-61d6ad63a392","ios":"levelo://app?vid=ad5908de-f9cb-4517-9cc9-61d6ad63a392"},"vehicle_type_id":"4","last_reported":1732007407,"current_range_meters":19200,"station_id":"ce4bhhh2rcd13ifvqfl0","pricing_plan_id":"cebpf4jnsgd1na2vs0mg"},{"bike_id":"4ebc87da-5f5a-4c8c-90f6-6d9b4554ca3e","system_id":"levelo_inurba_marseille","lat":43.30605,"lon":5.37238,"is_reserved":false,"is_disabled":false,"rental_uris":{"android":"levelo://app?vid=4ebc87da-5f5a-4c8c-90f6-6d9b4554ca3e","ios":"levelo://app?vid=4ebc87da-5f5a-4c8c-90f6-6d9b4554ca3e"},"vehicle_type_id":"4","last_reported":1732007407,"current_range_meters":36800,"station_id":"ce4bgqh2rcd13ifvqc4g","pricing_plan_id":"cebpf4jnsgd1na2vs0mg"},{"bike_id":"0f04f1db-976e-42b1-95dc-6b5155fa8d18","system_id":"levelo_inurba_marseille","lat":43.29617,"lon":5.37169,"is_reserved":false,"is_disabled":false,"rental_uris":{"android":"levelo://app?vid=0f04f1db-976e-42b1-95dc-6b5155fa8d18","ios":"levelo://app?vid=0f04f1db-976e-42b1-95dc-6b5155fa8d18"},"vehicle_type_id":"4","last_reported":1732007407,"current_range_meters":35600,"station_id":"ce4bgnh2rcd13ifvqc0g","pricing_plan_id":"cebpf4jnsgd1na2vs0mg"},{"bike_id":"00614b7c-a9a7-449f-a82b-bd0f64fd964d","system_id":"levelo_inurba_marseille","lat":43.29043,"lon":5.3757,"is_reserved":false,"is_disabled":false,"rental_uris":{"android":"levelo://app?vid=00614b7c-a9a7-449f-a82b-bd0f64fd964d","ios":"levelo://app?vid=00614b7c-a9a7-449f-a82b-bd0f64fd964d"},"vehicle_type_id":"4","last_reported":1732007407,"current_range_meters":38800,"station_id":"ce4bh692rcd13ifvqe90","pricing_plan_id":"cebpf4jnsgd1na2vs0mg"},{"bike_id":"c965d922-041e-4314-8721-46b1ef5413d3","system_id":"levelo_inurba_marseille","lat":43.26203,"lon":5.37929,"is_reserved":false,"is_disabled":false,"rental_uris":{"android":"levelo://app?vid=c965d922-041e-4314-8721-46b1ef5413d3","ios":"levelo://app?vid=c965d922-041e-4314-8721-46b1ef5413d3"},"vehicle_type_id":"4","last_reported":1732007407,"current_range_meters":28800,"station_id":"ce4bhjp2rcd13ifvqg90","pricing_plan_id":"cebpf4jnsgd1na2vs0mg"},{"bike_id":"eb347754-5eb7-4052-ba24-35f586931020","system_id":"levelo_inurba_marseille","lat":43.29027,"lon":5.39983,"is_reserved":false,"is_disabled":false,"rental_uris":{"android":"levelo://app?vid=eb347754-5eb7-4052-ba24-35f586931020","ios":"levelo://app?vid=eb347754-5eb7-4052-ba24-35f586931020"},"vehicle_type_id":"4","last_reported":1732007407,"current_range_meters":9200,"station_id":"ce4bh392rcd13ifvqdm0","pricing_plan_id":"cebpf4jnsgd1na2vs0mg"},{"bike_id":"ae2400e2-f3e7-4866-8508-eafa26d0549c","system_id":"levelo_inurba_marseille","lat":43.30354,"lon":5.41874,"is_reserved":false,"is_disabled":false,"rental_uris":{"android":"levelo://app?vid=ae2400e2-f3e7-4866-8508-eafa26d0549c","ios":"levelo://app?vid=ae2400e2-f3e7-4866-8508-eafa26d0549c"},"vehicle_type_id":"4","last_reported":1732007407,"current_range_meters":37600,"station_id":"ce4bhop2rcd13ifvqh7g","pricing_plan_id":"cebpf4jnsgd1na2vs0mg"},{"bike_id":"bc249293-6395-4334-b84a-652f70f197fc","system_id":"levelo_inurba_marseille","lat":43.27633,"lon":5.42643,"is_reserved":false,"is_disabled":true,"rental_uris":{"android":"levelo://app?vid=bc249293-6395-4334-b84a-652f70f197fc","ios":"levelo://app?vid=bc249293-6395-4334-b84a-652f70f197fc"},"vehicle_type_id":"4","last_reported":1732007407,"current_range_meters":400,"station_id":"","pricing_plan_id":"cebpf4jnsgd1na2vs0mg"},{"bike_id":"5203ab47-a9f6-48ae-bdd3-3c5a5ab6ee25","system_id":"levelo_inurba_marseille","lat":43.29976,"lon":5.38482,"is_reserved":false,"is_disabled":false,"rental_uris":{"android":"levelo://app?vid=5203ab47-a9f6-48ae-bdd3-3c5a5ab6ee25","ios":"levelo://app?vid=5203ab47-a9f6-48ae-bdd3-3c5a5ab6ee25"},"vehicle_type_id":"4","last_reported":1732007407,"current_range_meters":36400,"station_id":"ce4bgj92rcd13ifvqbd0","pricing_plan_id":"cebpf4jnsgd1na2vs0mg"},{"bike_id":"be1dd5f8-91fc-4786-8461-76cd869dae13","system_id":"levelo_inurba_marseille","lat":43.31982,"lon":5.41584,"is_reserved":false,"is_disabled":true,"rental_uris":{"android":"levelo://app?vid=be1dd5f8-91fc-4786-8461-76cd869dae13","ios":"levelo://app?vid=be1dd5f8-91fc-4786-8461-76cd869dae13"},"vehicle_type_id":"4","last_reported":1732007407,"current_range_meters":26800,"station_id":"","pricing_plan_id":"cebpf4jnsgd1na2vs0mg"},{"bike_id":"faa3accd-82ad-4ab4-8459-e7f3d78bab6c","system_id":"levelo_inurba_marseille","lat":43.28153,"lon":5.4264,"is_reserved":false,"is_disabled":false,"rental_uris":{"android":"levelo://app?vid=faa3accd-82ad-4ab4-8459-e7f3d78bab6c","ios":"levelo://app?vid=faa3accd-82ad-4ab4-8459-e7f3d78bab6c"},"vehicle_type_id":"4","last_reported":1732007407,"current_range_meters":39200,"station_id":"ce4bhnh2rcd13ifvqgug","pricing_plan_id":"cebpf4jnsgd1na2vs0mg"},{"bike_id":"ee5ad2bc-dd93-4a60-9deb-ff629596020e","system_id":"levelo_inurba_marseille","lat":43.24183,"lon":5.39728,"is_reserved":false,"is_disabled":false,"rental_uris":{"android":"levelo://app?vid=ee5ad2bc-dd93-4a60-9deb-ff629596020e","ios":"levelo://app?vid=ee5ad2bc-dd93-4a60-9deb-ff629596020e"},"vehicle_type_id":"4","last_reported":1732007407,"current_range_meters":38800,"station_id":"ce4bhn12rcd13ifvqgpg","pricing_plan_id":"cebpf4jnsgd1na2vs0mg"},{"bike_id":"0bb5e1a1-51d8-4941-980f-b98a84364589","system_id":"levelo_inurba_marseille","lat":43.30135,"lon":5.37421,"is_reserved":false,"is_disabled":false,"rental_uris":{"android":"levelo://app?vid=0bb5e1a1-51d8-4941-980f-b98a84364589","ios":"levelo://app?vid=0bb5e1a1-51d8-4941-980f-b98a84364589"},"vehicle_type_id":"4","last_reported":1732007407,"current_range_meters":28400,"station_id":"ce4bgs92rcd13ifvqcc0","pricing_plan_id":"cebpf4jnsgd1na2vs0mg"},{"bike_id":"9a485cc2-c9c8-4d5f-be0d-02ebe467cb37","system_id":"levelo_inurba_marseille","lat":43.3204,"lon":5.41542,"is_reserved":false,"is_disabled":false,"rental_uris":{"android":"levelo://app?vid=9a485cc2-c9c8-4d5f-be0d-02ebe467cb37","ios":"levelo://app?vid=9a485cc2-c9c8-4d5f-be0d-02ebe467cb37"},"vehicle_type_id":"4","last_reported":1732007407,"current_range_meters":4400,"station_id":"ce4bhq92rcd13ifvqhkg","pricing_plan_id":"cebpf4jnsgd1na2vs0mg"},{"bike_id":"e5e2248a-03d3-4b07-b4f7-fd61796e9419","system_id":"levelo_inurba_marseille","lat":43.29977,"lon":5.38074,"is_reserved":false,"is_disabled":true,"rental_uris":{"android":"levelo://app?vid=e5e2248a-03d3-4b07-b4f7-fd61796e9419","ios":"levelo://app?vid=e5e2248a-03d3-4b07-b4f7-fd61796e9419"},"vehicle_type_id":"4","last_reported":1732007407,"current_range_meters":0,"station_id":"","pricing_plan_id":"cebpf4jnsgd1na2vs0mg"},{"bike_id":"6ceef664-acd2-42e1-b843-e993f58ca8f0","system_id":"levelo_inurba_marseille","lat":43.33605,"lon":5.41019,"is_reserved":false,"is_disabled":false,"rental_uris":{"android":"levelo://app?vid=6ceef664-acd2-42e1-b843-e993f58ca8f0","ios":"levelo://app?vid=6ceef664-acd2-42e1-b843-e993f58ca8f0"},"vehicle_type_id":"4","last_reported":1732007407,"current_range_meters":18000,"station_id":"ce4bhqh2rcd13ifvqhmg","pricing_plan_id":"cebpf4jnsgd1na2vs0mg"},{"bike_id":"17499d31-2db8-4aec-84ea-c73c6e953f7f","system_id":"levelo_inurba_marseille","lat":43.306,"lon":5.37222,"is_reserved":false,"is_disabled":false,"rental_uris":{"android":"levelo://app?vid=17499d31-2db8-4aec-84ea-c73c6e953f7f","ios":"levelo://app?vid=17499d31-2db8-4aec-84ea-c73c6e953f7f"},"vehicle_type_id":"4","last_reported":1732007407,"current_range_meters":30800,"station_id":"ce4bgqh2rcd13ifvqc4g","pricing_plan_id":"cebpf4jnsgd1na2vs0mg"},{"bike_id":"56edd46b-d236-45f1-ba2f-1f7d8acc3af2","system_id":"levelo_inurba_marseille","lat":43.33778,"lon":5.37428,"is_reserved":false,"is_disabled":false,"rental_uris":{"android":"levelo://app?vid=56edd46b-d236-45f1-ba2f-1f7d8acc3af2","ios":"levelo://app?vid=56edd46b-d236-45f1-ba2f-1f7d8acc3af2"},"vehicle_type_id":"4","last_reported":1732007407,"current_range_meters":38800,"station_id":"","pricing_plan_id":"cebpf4jnsgd1na2vs0mg"},{"bike_id":"05146059-a541-410b-91a9-ddf6875c2b27","system_id":"levelo_inurba_marseille","lat":43.30529,"lon":5.36711,"is_reserved":false,"is_disabled":false,"rental_uris":{"android":"levelo://app?vid=05146059-a541-410b-91a9-ddf6875c2b27","ios":"levelo://app?vid=05146059-a541-410b-91a9-ddf6875c2b27"},"vehicle_type_id":"4","last_reported":1732007407,"current_range_meters":18000,"station_id":"ce4bgrp2rcd13ifvqc9g","pricing_plan_id":"cebpf4jnsgd1na2vs0mg"},{"bike_id":"60d82f17-39c7-4ba1-b220-bb76bbe03509","system_id":"levelo_inurba_marseille","lat":43.25933,"lon":5.40906,"is_reserved":false,"is_disabled":true,"rental_uris":{"android":"levelo://app?vid=60d82f17-39c7-4ba1-b220-bb76bbe03509","ios":"levelo://app?vid=60d82f17-39c7-4ba1-b220-bb76bbe03509"},"vehicle_type_id":"4","last_reported":1732007407,"current_range_meters":6400,"station_id":"ce4bhm92rcd13ifvqglg","pricing_plan_id":"cebpf4jnsgd1na2vs0mg"},{"bike_id":"a1bbca6e-55c9-4e70-9956-b9e44ef3e4fc","system_id":"levelo_inurba_marseille","lat":43.26781,"lon":5.39416,"is_reserved":false,"is_disabled":true,"rental_uris":{"android":"levelo://app?vid=a1bbca6e-55c9-4e70-9956-b9e44ef3e4fc","ios":"levelo://app?vid=a1bbca6e-55c9-4e70-9956-b9e44ef3e4fc"},"vehicle_type_id":"4","last_reported":1732007407,"current_range_meters":10800,"station_id":"ce4bhh12rcd13ifvqfg0","pricing_plan_id":"cebpf4jnsgd1na2vs0mg"},{"bike_id":"9039b419-d8b7-40b0-a69f-5b37a09d6a52","system_id":"levelo_inurba_marseille","lat":43.31346,"lon":5.36704,"is_reserved":false,"is_disabled":false,"rental_uris":{"android":"levelo://app?vid=9039b419-d8b7-40b0-a69f-5b37a09d6a52","ios":"levelo://app?vid=9039b419-d8b7-40b0-a69f-5b37a09d6a52"},"vehicle_type_id":"4","last_reported":1732007407,"current_range_meters":17200,"station_id":"ce4bgr92rcd13ifvqc6g","pricing_plan_id":"cebpf4jnsgd1na2vs0mg"},{"bike_id":"d6efe9b0-b4e9-4e49-baf5-57e7580b2300","system_id":"levelo_inurba_marseille","lat":43.26683,"lon":5.3827,"is_reserved":false,"is_disabled":false,"rental_uris":{"android":"levelo://app?vid=d6efe9b0-b4e9-4e49-baf5-57e7580b2300","ios":"levelo://app?vid=d6efe9b0-b4e9-4e49-baf5-57e7580b2300"},"vehicle_type_id":"4","last_reported":1732007407,"current_range_meters":18800,"station_id":"ce4bhg92rcd13ifvqf90","pricing_plan_id":"cebpf4jnsgd1na2vs0mg"},{"bike_id":"2a270517-9d5b-492f-a609-2bf32ee97d0e","system_id":"levelo_inurba_marseille","lat":43.29573,"lon":5.37499,"is_reserved":false,"is_disabled":true,"rental_uris":{"android":"levelo://app?vid=2a270517-9d5b-492f-a609-2bf32ee97d0e","ios":"levelo://app?vid=2a270517-9d5b-492f-a609-2bf32ee97d0e"},"vehicle_type_id":"4","last_reported":1732007407,"current_range_meters":34800,"station_id":"ce4bgh92rcd13ifvqb50","pricing_plan_id":"cebpf4jnsgd1na2vs0mg"},{"bike_id":"e872e288-7898-4d61-9856-14094895d63e","system_id":"levelo_inurba_marseille","lat":43.28704,"lon":5.39988,"is_reserved":false,"is_disabled":false,"rental_uris":{"android":"levelo://app?vid=e872e288-7898-4d61-9856-14094895d63e","ios":"levelo://app?vid=e872e288-7898-4d61-9856-14094895d63e"},"vehicle_type_id":"4","last_reported":1732007407,"current_range_meters":16800,"station_id":"ce4bho92rcd13ifvqh3g","pricing_plan_id":"cebpf4jnsgd1na2vs0mg"},{"bike_id":"756bb2aa-068f-463e-9297-6710d258bf29","system_id":"levelo_inurba_marseille","lat":43.26954,"lon":5.38626,"is_reserved":false,"is_disabled":false,"rental_uris":{"android":"levelo://app?vid=756bb2aa-068f-463e-9297-6710d258bf29","ios":"levelo://app?vid=756bb2aa-068f-463e-9297-6710d258bf29"},"vehicle_type_id":"4","last_reported":1732007407,"current_range_meters":26000,"station_id":"ce4bhh92rcd13ifvqfh0","pricing_plan_id":"cebpf4jnsgd1na2vs0mg"},{"bike_id":"1ff970a9-d231-4bbd-92a9-fc25fa1a5bc7","system_id":"levelo_inurba_marseille","lat":43.30149,"lon":5.38087,"is_reserved":false,"is_disabled":false,"rental_uris":{"android":"levelo://app?vid=1ff970a9-d231-4bbd-92a9-fc25fa1a5bc7","ios":"levelo://app?vid=1ff970a9-d231-4bbd-92a9-fc25fa1a5bc7"},"vehicle_type_id":"4","last_reported":1732007407,"current_range_meters":38400,"station_id":"ce4bgjp2rcd13ifvqbh0","pricing_plan_id":"cebpf4jnsgd1na2vs0mg"},{"bike_id":"f1888b1a-22ac-4f8d-8a07-bea9e3e6d605","system_id":"levelo_inurba_marseille","lat":43.30916,"lon":5.36845,"is_reserved":false,"is_disabled":false,"rental_uris":{"android":"levelo://app?vid=f1888b1a-22ac-4f8d-8a07-bea9e3e6d605","ios":"levelo://app?vid=f1888b1a-22ac-4f8d-8a07-bea9e3e6d605"},"vehicle_type_id":"4","last_reported":1732007407,"current_range_meters":22400,"station_id":"ce4bgn92rcd13ifvqbvg","pricing_plan_id":"cebpf4jnsgd1na2vs0mg"},{"bike_id":"08e5ab45-b337-4a2f-9261-ecef53f26147","system_id":"levelo_inurba_marseille","lat":43.30279,"lon":5.37689,"is_reserved":false,"is_disabled":false,"rental_uris":{"android":"levelo://app?vid=08e5ab45-b337-4a2f-9261-ecef53f26147","ios":"levelo://app?vid=08e5ab45-b337-4a2f-9261-ecef53f26147"},"vehicle_type_id":"4","last_reported":1732007407,"current_range_meters":11200,"station_id":"ce4bguh2rcd13ifvqcj0","pricing_plan_id":"cebpf4jnsgd1na2vs0mg"},{"bike_id":"24b2c3eb-8b9b-40a7-8aad-177c7a5a5f47","system_id":"levelo_inurba_marseille","lat":43.26934,"lon":5.38909,"is_reserved":false,"is_disabled":true,"rental_uris":{"android":"levelo://app?vid=24b2c3eb-8b9b-40a7-8aad-177c7a5a5f47","ios":"levelo://app?vid=24b2c3eb-8b9b-40a7-8aad-177c7a5a5f47"},"vehicle_type_id":"4","last_reported":1732007407,"current_range_meters":400,"station_id":"ce4bhhh2rcd13ifvqfl0","pricing_plan_id":"cebpf4jnsgd1na2vs0mg"},{"bike_id":"0423bcfb-7891-485e-8136-7848a3a445dc","system_id":"levelo_inurba_marseille","lat":43.30461,"lon":5.37901,"is_reserved":false,"is_disabled":false,"rental_uris":{"android":"levelo://app?vid=0423bcfb-7891-485e-8136-7848a3a445dc","ios":"levelo://app?vid=0423bcfb-7891-485e-8136-7848a3a445dc"},"vehicle_type_id":"4","last_reported":1732007407,"current_range_meters":14000,"station_id":"ce4bgup2rcd13ifvqcn0","pricing_plan_id":"cebpf4jnsgd1na2vs0mg"},{"bike_id":"0c21866d-64a6-48bd-84ec-2cdb016bb953","system_id":"levelo_inurba_marseille","lat":43.24391,"lon":5.37056,"is_reserved":false,"is_disabled":true,"rental_uris":{"android":"levelo://app?vid=0c21866d-64a6-48bd-84ec-2cdb016bb953","ios":"levelo://app?vid=0c21866d-64a6-48bd-84ec-2cdb016bb953"},"vehicle_type_id":"4","last_reported":1732007407,"current_range_meters":0,"station_id":"ce4bhhh2rcd13ifvqfk0","pricing_plan_id":"cebpf4jnsgd1na2vs0mg"},{"bike_id":"08d0498f-3ee0-4f75-a4d5-e1844ec1aa5c","system_id":"levelo_inurba_marseille","lat":43.31365,"lon":5.36718,"is_reserved":false,"is_disabled":false,"rental_uris":{"android":"levelo://app?vid=08d0498f-3ee0-4f75-a4d5-e1844ec1aa5c","ios":"levelo://app?vid=08d0498f-3ee0-4f75-a4d5-e1844ec1aa5c"},"vehicle_type_id":"4","last_reported":1732007407,"current_range_meters":36800,"station_id":"ce4bgr92rcd13ifvqc6g","pricing_plan_id":"cebpf4jnsgd1na2vs0mg"},{"bike_id":"8d9c7874-6ecd-4ea0-a9e8-ef53041c8d83","system_id":"levelo_inurba_marseille","lat":43.31361,"lon":5.385,"is_reserved":false,"is_disabled":true,"rental_uris":{"android":"levelo://app?vid=8d9c7874-6ecd-4ea0-a9e8-ef53041c8d83","ios":"levelo://app?vid=8d9c7874-6ecd-4ea0-a9e8-ef53041c8d83"},"vehicle_type_id":"4","last_reported":1732007407,"current_range_meters":36400,"station_id":"ce4bgt92rcd13ifvqcf0","pricing_plan_id":"cebpf4jnsgd1na2vs0mg"},{"bike_id":"d11f792a-d702-4584-a3d4-51714936f580","system_id":"levelo_inurba_marseille","lat":43.3061,"lon":5.37235,"is_reserved":false,"is_disabled":false,"rental_uris":{"android":"levelo://app?vid=d11f792a-d702-4584-a3d4-51714936f580","ios":"levelo://app?vid=d11f792a-d702-4584-a3d4-51714936f580"},"vehicle_type_id":"4","last_reported":1732007407,"current_range_meters":28400,"station_id":"ce4bgqh2rcd13ifvqc4g","pricing_plan_id":"cebpf4jnsgd1na2vs0mg"},{"bike_id":"d6e54eb8-b569-4670-b12b-fc7e345ccec9","system_id":"levelo_inurba_marseille","lat":43.29728,"lon":5.37681,"is_reserved":false,"is_disabled":true,"rental_uris":{"android":"levelo://app?vid=d6e54eb8-b569-4670-b12b-fc7e345ccec9","ios":"levelo://app?vid=d6e54eb8-b569-4670-b12b-fc7e345ccec9"},"vehicle_type_id":"4","last_reported":1732007407,"current_range_meters":37600,"station_id":"ce4bgkh2rcd13ifvqbl0","pricing_plan_id":"cebpf4jnsgd1na2vs0mg"},{"bike_id":"d1b604a8-334d-4cfc-ba9c-720d8061c18c","system_id":"levelo_inurba_marseille","lat":43.30612,"lon":5.3723,"is_reserved":false,"is_disabled":false,"rental_uris":{"android":"levelo://app?vid=d1b604a8-334d-4cfc-ba9c-720d8061c18c","ios":"levelo://app?vid=d1b604a8-334d-4cfc-ba9c-720d8061c18c"},"vehicle_type_id":"4","last_reported":1732007407,"current_range_meters":18800,"station_id":"ce4bgqh2rcd13ifvqc4g","pricing_plan_id":"cebpf4jnsgd1na2vs0mg"},{"bike_id":"cd75eccf-6644-4ce9-b3ae-17a02a26ec35","system_id":"levelo_inurba_marseille","lat":43.31357,"lon":5.36695,"is_reserved":false,"is_disabled":false,"rental_uris":{"android":"levelo://app?vid=cd75eccf-6644-4ce9-b3ae-17a02a26ec35","ios":"levelo://app?vid=cd75eccf-6644-4ce9-b3ae-17a02a26ec35"},"vehicle_type_id":"4","last_reported":1732007407,"current_range_meters":39200,"station_id":"ce4bgr92rcd13ifvqc6g","pricing_plan_id":"cebpf4jnsgd1na2vs0mg"},{"bike_id":"518fe038-4998-4612-a13d-47f0d0362382","system_id":"levelo_inurba_marseille","lat":43.29514,"lon":5.37513,"is_reserved":false,"is_disabled":false,"rental_uris":{"android":"levelo://app?vid=518fe038-4998-4612-a13d-47f0d0362382","ios":"levelo://app?vid=518fe038-4998-4612-a13d-47f0d0362382"},"vehicle_type_id":"4","last_reported":1732007407,"current_range_meters":36400,"station_id":"ce4bgkp2rcd13ifvqbmg","pricing_plan_id":"cebpf4jnsgd1na2vs0mg"},{"bike_id":"7084878f-2387-4ac5-ac8e-8c9558e2ac58","system_id":"levelo_inurba_marseille","lat":43.33764,"lon":5.37433,"is_reserved":false,"is_disabled":false,"rental_uris":{"android":"levelo://app?vid=7084878f-2387-4ac5-ac8e-8c9558e2ac58","ios":"levelo://app?vid=7084878f-2387-4ac5-ac8e-8c9558e2ac58"},"vehicle_type_id":"4","last_reported":1732007407,"current_range_meters":36000,"station_id":"","pricing_plan_id":"cebpf4jnsgd1na2vs0mg"},{"bike_id":"6f8c8a03-a3ac-433d-8ff0-b00910417904","system_id":"levelo_inurba_marseille","lat":43.24082,"lon":5.37762,"is_reserved":false,"is_disabled":false,"rental_uris":{"android":"levelo://app?vid=6f8c8a03-a3ac-433d-8ff0-b00910417904","ios":"levelo://app?vid=6f8c8a03-a3ac-433d-8ff0-b00910417904"},"vehicle_type_id":"4","last_reported":1732007407,"current_range_meters":38800,"station_id":"ce4bhnp2rcd13ifvqgvg","pricing_plan_id":"cebpf4jnsgd1na2vs0mg"},{"bike_id":"10cdeb80-91be-444c-9ab8-8730d872b06d","system_id":"levelo_inurba_marseille","lat":43.29031,"lon":5.39986,"is_reserved":false,"is_disabled":true,"rental_uris":{"android":"levelo://app?vid=10cdeb80-91be-444c-9ab8-8730d872b06d","ios":"levelo://app?vid=10cdeb80-91be-444c-9ab8-8730d872b06d"},"vehicle_type_id":"4","last_reported":1732007407,"current_range_meters":20000,"station_id":"ce4bh392rcd13ifvqdm0","pricing_plan_id":"cebpf4jnsgd1na2vs0mg"},{"bike_id":"0aa013e4-5722-4bce-a422-f4a17b1205c1","system_id":"levelo_inurba_marseille","lat":43.26767,"lon":5.37198,"is_reserved":false,"is_disabled":false,"rental_uris":{"android":"levelo://app?vid=0aa013e4-5722-4bce-a422-f4a17b1205c1","ios":"levelo://app?vid=0aa013e4-5722-4bce-a422-f4a17b1205c1"},"vehicle_type_id":"4","last_reported":1732007407,"current_range_meters":30400,"station_id":"","pricing_plan_id":"cebpf4jnsgd1na2vs0mg"},{"bike_id":"b9f521ff-4210-48a8-86f2-695a4551af32","system_id":"levelo_inurba_marseille","lat":43.29175,"lon":5.37139,"is_reserved":false,"is_disabled":true,"rental_uris":{"android":"levelo://app?vid=b9f521ff-4210-48a8-86f2-695a4551af32","ios":"levelo://app?vid=b9f521ff-4210-48a8-86f2-695a4551af32"},"vehicle_type_id":"4","last_reported":1732007407,"current_range_meters":12400,"station_id":"ce4bha92rcd13ifvqeh0","pricing_plan_id":"cebpf4jnsgd1na2vs0mg"},{"bike_id":"0b733133-03c9-4766-961e-92b775b50bbc","system_id":"levelo_inurba_marseille","lat":43.28193,"lon":5.44267,"is_reserved":false,"is_disabled":true,"rental_uris":{"android":"levelo://app?vid=0b733133-03c9-4766-961e-92b775b50bbc","ios":"levelo://app?vid=0b733133-03c9-4766-961e-92b775b50bbc"},"vehicle_type_id":"4","last_reported":1732007407,"current_range_meters":0,"station_id":"","pricing_plan_id":"cebpf4jnsgd1na2vs0mg"},{"bike_id":"74eb70e9-b94e-49a5-9a48-368b4be133db","system_id":"levelo_inurba_marseille","lat":43.30795,"lon":5.43513,"is_reserved":false,"is_disabled":false,"rental_uris":{"android":"levelo://app?vid=74eb70e9-b94e-49a5-9a48-368b4be133db","ios":"levelo://app?vid=74eb70e9-b94e-49a5-9a48-368b4be133db"},"vehicle_type_id":"4","last_reported":1732007407,"current_range_meters":38800,"station_id":"ce4bhph2rcd13ifvqheg","pricing_plan_id":"cebpf4jnsgd1na2vs0mg"},{"bike_id":"4cba050b-d851-4ee5-8ce0-ea7f25d9c27b","system_id":"levelo_inurba_marseille","lat":43.27494,"lon":5.42451,"is_reserved":false,"is_disabled":true,"rental_uris":{"android":"levelo://app?vid=4cba050b-d851-4ee5-8ce0-ea7f25d9c27b","ios":"levelo://app?vid=4cba050b-d851-4ee5-8ce0-ea7f25d9c27b"},"vehicle_type_id":"4","last_reported":1732007407,"current_range_meters":38000,"station_id":"ce4bhn92rcd13ifvqgrg","pricing_plan_id":"cebpf4jnsgd1na2vs0mg"},{"bike_id":"c4c95739-ad31-423c-a98a-2aaceff657a2","system_id":"levelo_inurba_marseille","lat":43.30946,"lon":5.39039,"is_reserved":false,"is_disabled":true,"rental_uris":{"android":"levelo://app?vid=c4c95739-ad31-423c-a98a-2aaceff657a2","ios":"levelo://app?vid=c4c95739-ad31-423c-a98a-2aaceff657a2"},"vehicle_type_id":"4","last_reported":1732007407,"current_range_meters":12400,"station_id":"ce4bgup2rcd13ifvqco0","pricing_plan_id":"cebpf4jnsgd1na2vs0mg"},{"bike_id":"e47d7c70-2839-409d-a310-ddbca439b392","system_id":"levelo_inurba_marseille","lat":43.2749,"lon":5.42458,"is_reserved":false,"is_disabled":false,"rental_uris":{"android":"levelo://app?vid=e47d7c70-2839-409d-a310-ddbca439b392","ios":"levelo://app?vid=e47d7c70-2839-409d-a310-ddbca439b392"},"vehicle_type_id":"4","last_reported":1732007407,"current_range_meters":37600,"station_id":"ce4bhn92rcd13ifvqgrg","pricing_plan_id":"cebpf4jnsgd1na2vs0mg"},{"bike_id":"9082f350-f064-4220-a24a-7c400d315f3b","system_id":"levelo_inurba_marseille","lat":43.240827,"lon":5.377547,"is_reserved":false,"is_disabled":false,"rental_uris":{"android":"levelo://app?vid=9082f350-f064-4220-a24a-7c400d315f3b","ios":"levelo://app?vid=9082f350-f064-4220-a24a-7c400d315f3b"},"vehicle_type_id":"4","last_reported":1732007407,"current_range_meters":36800,"station_id":"ce4bhnp2rcd13ifvqgvg","pricing_plan_id":"cebpf4jnsgd1na2vs0mg"},{"bike_id":"8c0f7771-880b-4614-abc8-3e41755a48fc","system_id":"levelo_inurba_marseille","lat":43.29026,"lon":5.39992,"is_reserved":false,"is_disabled":true,"rental_uris":{"android":"levelo://app?vid=8c0f7771-880b-4614-abc8-3e41755a48fc","ios":"levelo://app?vid=8c0f7771-880b-4614-abc8-3e41755a48fc"},"vehicle_type_id":"4","last_reported":1732007407,"current_range_meters":400,"station_id":"ce4bh392rcd13ifvqdm0","pricing_plan_id":"cebpf4jnsgd1na2vs0mg"},{"bike_id":"ff78d3fd-1323-4be7-9b8e-cca0330f5550","system_id":"levelo_inurba_marseille","lat":43.30537,"lon":5.36706,"is_reserved":false,"is_disabled":false,"rental_uris":{"android":"levelo://app?vid=ff78d3fd-1323-4be7-9b8e-cca0330f5550","ios":"levelo://app?vid=ff78d3fd-1323-4be7-9b8e-cca0330f5550"},"vehicle_type_id":"4","last_reported":1732007407,"current_range_meters":34000,"station_id":"ce4bgrp2rcd13ifvqc9g","pricing_plan_id":"cebpf4jnsgd1na2vs0mg"},{"bike_id":"bf616fda-0885-4bcf-8258-bc47aa3041a1","system_id":"levelo_inurba_marseille","lat":43.32489,"lon":5.36562,"is_reserved":false,"is_disabled":false,"rental_uris":{"android":"levelo://app?vid=bf616fda-0885-4bcf-8258-bc47aa3041a1","ios":"levelo://app?vid=bf616fda-0885-4bcf-8258-bc47aa3041a1"},"vehicle_type_id":"4","last_reported":1732007407,"current_range_meters":39200,"station_id":"ce4bhs12rcd13ifvqhvg","pricing_plan_id":"cebpf4jnsgd1na2vs0mg"},{"bike_id":"f52431c3-a0fa-4826-a02b-0d71a6a0f875","system_id":"levelo_inurba_marseille","lat":43.30279,"lon":5.37699,"is_reserved":false,"is_disabled":false,"rental_uris":{"android":"levelo://app?vid=f52431c3-a0fa-4826-a02b-0d71a6a0f875","ios":"levelo://app?vid=f52431c3-a0fa-4826-a02b-0d71a6a0f875"},"vehicle_type_id":"4","last_reported":1732007407,"current_range_meters":15200,"station_id":"ce4bguh2rcd13ifvqcj0","pricing_plan_id":"cebpf4jnsgd1na2vs0mg"},{"bike_id":"71324b49-1f17-4af6-89f7-e3218a4d4e19","system_id":"levelo_inurba_marseille","lat":43.24068,"lon":5.37763,"is_reserved":false,"is_disabled":false,"rental_uris":{"android":"levelo://app?vid=71324b49-1f17-4af6-89f7-e3218a4d4e19","ios":"levelo://app?vid=71324b49-1f17-4af6-89f7-e3218a4d4e19"},"vehicle_type_id":"4","last_reported":1732007407,"current_range_meters":39200,"station_id":"ce4bhnp2rcd13ifvqgvg","pricing_plan_id":"cebpf4jnsgd1na2vs0mg"},{"bike_id":"6799c54c-4cd6-4d25-a1cb-a4067a584a72","system_id":"levelo_inurba_marseille","lat":43.33717,"lon":5.39174,"is_reserved":false,"is_disabled":false,"rental_uris":{"android":"levelo://app?vid=6799c54c-4cd6-4d25-a1cb-a4067a584a72","ios":"levelo://app?vid=6799c54c-4cd6-4d25-a1cb-a4067a584a72"},"vehicle_type_id":"4","last_reported":1732007407,"current_range_meters":14000,"station_id":"ce4bhr92rcd13ifvqhsg","pricing_plan_id":"cebpf4jnsgd1na2vs0mg"},{"bike_id":"2382df88-68dc-46c4-b023-9ef3ddb7d632","system_id":"levelo_inurba_marseille","lat":43.28943,"lon":5.36632,"is_reserved":false,"is_disabled":true,"rental_uris":{"android":"levelo://app?vid=2382df88-68dc-46c4-b023-9ef3ddb7d632","ios":"levelo://app?vid=2382df88-68dc-46c4-b023-9ef3ddb7d632"},"vehicle_type_id":"4","last_reported":1732007407,"current_range_meters":12000,"station_id":"ce4bhap2rcd13ifvqek0","pricing_plan_id":"cebpf4jnsgd1na2vs0mg"},{"bike_id":"20d43469-0b35-4110-9c40-be0f1a781705","system_id":"levelo_inurba_marseille","lat":43.26212,"lon":5.37437,"is_reserved":false,"is_disabled":false,"rental_uris":{"android":"levelo://app?vid=20d43469-0b35-4110-9c40-be0f1a781705","ios":"levelo://app?vid=20d43469-0b35-4110-9c40-be0f1a781705"},"vehicle_type_id":"4","last_reported":1732007407,"current_range_meters":28000,"station_id":"ce4bhgp2rcd13ifvqfc0","pricing_plan_id":"cebpf4jnsgd1na2vs0mg"},{"bike_id":"66010a32-01cb-4e8c-b4d4-e9efb6ebfb75","system_id":"levelo_inurba_marseille","lat":43.31219,"lon":5.36858,"is_reserved":false,"is_disabled":false,"rental_uris":{"android":"levelo://app?vid=66010a32-01cb-4e8c-b4d4-e9efb6ebfb75","ios":"levelo://app?vid=66010a32-01cb-4e8c-b4d4-e9efb6ebfb75"},"vehicle_type_id":"4","last_reported":1732007407,"current_range_meters":6800,"station_id":"ce4bgl92rcd13ifvqbq0","pricing_plan_id":"cebpf4jnsgd1na2vs0mg"},{"bike_id":"9f1dfffb-1213-4f6e-84d3-a2f0789a9ef3","system_id":"levelo_inurba_marseille","lat":43.27612,"lon":5.35862,"is_reserved":false,"is_disabled":true,"rental_uris":{"android":"levelo://app?vid=9f1dfffb-1213-4f6e-84d3-a2f0789a9ef3","ios":"levelo://app?vid=9f1dfffb-1213-4f6e-84d3-a2f0789a9ef3"},"vehicle_type_id":"4","last_reported":1732007407,"current_range_meters":0,"station_id":"","pricing_plan_id":"cebpf4jnsgd1na2vs0mg"},{"bike_id":"8dfe3502-1a44-41d0-93ec-2f8847296f61","system_id":"levelo_inurba_marseille","lat":43.29194,"lon":5.358,"is_reserved":false,"is_disabled":true,"rental_uris":{"android":"levelo://app?vid=8dfe3502-1a44-41d0-93ec-2f8847296f61","ios":"levelo://app?vid=8dfe3502-1a44-41d0-93ec-2f8847296f61"},"vehicle_type_id":"4","last_reported":1732007407,"current_range_meters":38000,"station_id":"ce4bhb12rcd13ifvqel0","pricing_plan_id":"cebpf4jnsgd1na2vs0mg"},{"bike_id":"954054ad-77ac-46c3-a1b5-c8fc266a522b","system_id":"levelo_inurba_marseille","lat":43.31725,"lon":5.42397,"is_reserved":false,"is_disabled":false,"rental_uris":{"android":"levelo://app?vid=954054ad-77ac-46c3-a1b5-c8fc266a522b","ios":"levelo://app?vid=954054ad-77ac-46c3-a1b5-c8fc266a522b"},"vehicle_type_id":"4","last_reported":1732007407,"current_range_meters":38800,"station_id":"ce4bhp92rcd13ifvqhbg","pricing_plan_id":"cebpf4jnsgd1na2vs0mg"},{"bike_id":"522c4f65-9d99-4b84-b176-9a07439f9676","system_id":"levelo_inurba_marseille","lat":43.29626,"lon":5.37166,"is_reserved":false,"is_disabled":false,"rental_uris":{"android":"levelo://app?vid=522c4f65-9d99-4b84-b176-9a07439f9676","ios":"levelo://app?vid=522c4f65-9d99-4b84-b176-9a07439f9676"},"vehicle_type_id":"4","last_reported":1732007407,"current_range_meters":37600,"station_id":"ce4bgnh2rcd13ifvqc0g","pricing_plan_id":"cebpf4jnsgd1na2vs0mg"},{"bike_id":"353c6a8d-965b-4c4e-afca-3ed0328c2d2e","system_id":"levelo_inurba_marseille","lat":43.26062,"lon":5.39398,"is_reserved":false,"is_disabled":false,"rental_uris":{"android":"levelo://app?vid=353c6a8d-965b-4c4e-afca-3ed0328c2d2e","ios":"levelo://app?vid=353c6a8d-965b-4c4e-afca-3ed0328c2d2e"},"vehicle_type_id":"4","last_reported":1732007407,"current_range_meters":29600,"station_id":"ce4bhh92rcd13ifvqfj0","pricing_plan_id":"cebpf4jnsgd1na2vs0mg"},{"bike_id":"2d983866-913c-4390-ae48-1873d10c9730","system_id":"levelo_inurba_marseille","lat":43.24812,"lon":5.37457,"is_reserved":false,"is_disabled":true,"rental_uris":{"android":"levelo://app?vid=2d983866-913c-4390-ae48-1873d10c9730","ios":"levelo://app?vid=2d983866-913c-4390-ae48-1873d10c9730"},"vehicle_type_id":"4","last_reported":1732007407,"current_range_meters":17200,"station_id":"ce4bhgh2rcd13ifvqfb0","pricing_plan_id":"cebpf4jnsgd1na2vs0mg"},{"bike_id":"bab65bde-058b-478e-ae1f-b087d5eb58da","system_id":"levelo_inurba_marseille","lat":43.30465,"lon":5.379,"is_reserved":false,"is_disabled":false,"rental_uris":{"android":"levelo://app?vid=bab65bde-058b-478e-ae1f-b087d5eb58da","ios":"levelo://app?vid=bab65bde-058b-478e-ae1f-b087d5eb58da"},"vehicle_type_id":"4","last_reported":1732007407,"current_range_meters":34000,"station_id":"ce4bgup2rcd13ifvqcn0","pricing_plan_id":"cebpf4jnsgd1na2vs0mg"},{"bike_id":"d7b9d27e-fc4c-4617-af5f-dc76fe8cfae8","system_id":"levelo_inurba_marseille","lat":43.31362,"lon":5.36697,"is_reserved":false,"is_disabled":false,"rental_uris":{"android":"levelo://app?vid=d7b9d27e-fc4c-4617-af5f-dc76fe8cfae8","ios":"levelo://app?vid=d7b9d27e-fc4c-4617-af5f-dc76fe8cfae8"},"vehicle_type_id":"4","last_reported":1732007407,"current_range_meters":32400,"station_id":"ce4bgr92rcd13ifvqc6g","pricing_plan_id":"cebpf4jnsgd1na2vs0mg"},{"bike_id":"23652d48-f01f-4bbf-a184-4995db5230ae","system_id":"levelo_inurba_marseille","lat":43.30171,"lon":5.38086,"is_reserved":false,"is_disabled":false,"rental_uris":{"android":"levelo://app?vid=23652d48-f01f-4bbf-a184-4995db5230ae","ios":"levelo://app?vid=23652d48-f01f-4bbf-a184-4995db5230ae"},"vehicle_type_id":"4","last_reported":1732007407,"current_range_meters":24400,"station_id":"ce4bgjp2rcd13ifvqbh0","pricing_plan_id":"cebpf4jnsgd1na2vs0mg"},{"bike_id":"88196073-5d79-4eef-8b98-5b6c67eee457","system_id":"levelo_inurba_marseille","lat":43.31083,"lon":5.4243,"is_reserved":false,"is_disabled":true,"rental_uris":{"android":"levelo://app?vid=88196073-5d79-4eef-8b98-5b6c67eee457","ios":"levelo://app?vid=88196073-5d79-4eef-8b98-5b6c67eee457"},"vehicle_type_id":"4","last_reported":1732007407,"current_range_meters":17600,"station_id":"ce4bhp92rcd13ifvqhag","pricing_plan_id":"cebpf4jnsgd1na2vs0mg"},{"bike_id":"e2552533-ff42-49e1-bc04-27ec8fbf6c28","system_id":"levelo_inurba_marseille","lat":43.30468,"lon":5.37894,"is_reserved":false,"is_disabled":true,"rental_uris":{"android":"levelo://app?vid=e2552533-ff42-49e1-bc04-27ec8fbf6c28","ios":"levelo://app?vid=e2552533-ff42-49e1-bc04-27ec8fbf6c28"},"vehicle_type_id":"4","last_reported":1732007407,"current_range_meters":28400,"station_id":"ce4bgup2rcd13ifvqcn0","pricing_plan_id":"cebpf4jnsgd1na2vs0mg"},{"bike_id":"4fc8ad14-ec32-4e5d-98b7-e83e64c4feb7","system_id":"levelo_inurba_marseille","lat":43.24076,"lon":5.37758,"is_reserved":false,"is_disabled":false,"rental_uris":{"android":"levelo://app?vid=4fc8ad14-ec32-4e5d-98b7-e83e64c4feb7","ios":"levelo://app?vid=4fc8ad14-ec32-4e5d-98b7-e83e64c4feb7"},"vehicle_type_id":"4","last_reported":1732007407,"current_range_meters":4400,"station_id":"ce4bhnp2rcd13ifvqgvg","pricing_plan_id":"cebpf4jnsgd1na2vs0mg"},{"bike_id":"dc6d24e2-2777-4e90-a873-656596156e63","system_id":"levelo_inurba_marseille","lat":43.33604,"lon":5.41025,"is_reserved":false,"is_disabled":false,"rental_uris":{"android":"levelo://app?vid=dc6d24e2-2777-4e90-a873-656596156e63","ios":"levelo://app?vid=dc6d24e2-2777-4e90-a873-656596156e63"},"vehicle_type_id":"4","last_reported":1732007407,"current_range_meters":18000,"station_id":"ce4bhqh2rcd13ifvqhmg","pricing_plan_id":"cebpf4jnsgd1na2vs0mg"},{"bike_id":"3f2535ef-a383-4045-9ba4-aa662bf8b063","system_id":"levelo_inurba_marseille","lat":43.29905,"lon":5.43679,"is_reserved":false,"is_disabled":false,"rental_uris":{"android":"levelo://app?vid=3f2535ef-a383-4045-9ba4-aa662bf8b063","ios":"levelo://app?vid=3f2535ef-a383-4045-9ba4-aa662bf8b063"},"vehicle_type_id":"4","last_reported":1732007407,"current_range_meters":37600,"station_id":"ce4bhpp2rcd13ifvqhfg","pricing_plan_id":"cebpf4jnsgd1na2vs0mg"},{"bike_id":"4430c7fe-75c4-4750-ade5-2860cae79f17","system_id":"levelo_inurba_marseille","lat":43.23154,"lon":5.43699,"is_reserved":false,"is_disabled":false,"rental_uris":{"android":"levelo://app?vid=4430c7fe-75c4-4750-ade5-2860cae79f17","ios":"levelo://app?vid=4430c7fe-75c4-4750-ade5-2860cae79f17"},"vehicle_type_id":"4","last_reported":1732007407,"current_range_meters":39200,"station_id":"ce4bhmp2rcd13ifvqgog","pricing_plan_id":"cebpf4jnsgd1na2vs0mg"},{"bike_id":"bbe3cfb0-911d-4bbf-8512-7ffa0cb97a72","system_id":"levelo_inurba_marseille","lat":43.2732,"lon":5.39098,"is_reserved":false,"is_disabled":false,"rental_uris":{"android":"levelo://app?vid=bbe3cfb0-911d-4bbf-8512-7ffa0cb97a72","ios":"levelo://app?vid=bbe3cfb0-911d-4bbf-8512-7ffa0cb97a72"},"vehicle_type_id":"4","last_reported":1732007407,"current_range_meters":36800,"station_id":"ce4bhgp2rcd13ifvqfe0","pricing_plan_id":"cebpf4jnsgd1na2vs0mg"},{"bike_id":"e264033a-f915-4b27-a08a-2f42cfcf052a","system_id":"levelo_inurba_marseille","lat":43.33758,"lon":5.37418,"is_reserved":false,"is_disabled":false,"rental_uris":{"android":"levelo://app?vid=e264033a-f915-4b27-a08a-2f42cfcf052a","ios":"levelo://app?vid=e264033a-f915-4b27-a08a-2f42cfcf052a"},"vehicle_type_id":"4","last_reported":1732007407,"current_range_meters":38800,"station_id":"","pricing_plan_id":"cebpf4jnsgd1na2vs0mg"},{"bike_id":"affc6a42-c87f-4640-9297-4a4ea6bc3ad3","system_id":"levelo_inurba_marseille","lat":43.29557,"lon":5.42275,"is_reserved":false,"is_disabled":false,"rental_uris":{"android":"levelo://app?vid=affc6a42-c87f-4640-9297-4a4ea6bc3ad3","ios":"levelo://app?vid=affc6a42-c87f-4640-9297-4a4ea6bc3ad3"},"vehicle_type_id":"4","last_reported":1732007407,"current_range_meters":39200,"station_id":"ce4bhph2rcd13ifvqhdg","pricing_plan_id":"cebpf4jnsgd1na2vs0mg"},{"bike_id":"2f916fd3-595e-4676-87c8-dd8a3c25f856","system_id":"levelo_inurba_marseille","lat":43.29021,"lon":5.38129,"is_reserved":false,"is_disabled":false,"rental_uris":{"android":"levelo://app?vid=2f916fd3-595e-4676-87c8-dd8a3c25f856","ios":"levelo://app?vid=2f916fd3-595e-4676-87c8-dd8a3c25f856"},"vehicle_type_id":"4","last_reported":1732007407,"current_range_meters":25600,"station_id":"ce4bh4p2rcd13ifvqe1g","pricing_plan_id":"cebpf4jnsgd1na2vs0mg"},{"bike_id":"123862ba-68e2-48f6-a477-31ab9dae8bd5","system_id":"levelo_inurba_marseille","lat":43.337444,"lon":5.374475,"is_reserved":false,"is_disabled":true,"rental_uris":{"android":"levelo://app?vid=123862ba-68e2-48f6-a477-31ab9dae8bd5","ios":"levelo://app?vid=123862ba-68e2-48f6-a477-31ab9dae8bd5"},"vehicle_type_id":"4","last_reported":1732007407,"current_range_meters":16800,"station_id":"","pricing_plan_id":"cebpf4jnsgd1na2vs0mg"},{"bike_id":"25ddf417-8230-4dbc-b38a-2b2cb1ba9d73","system_id":"levelo_inurba_marseille","lat":43.30289,"lon":5.37689,"is_reserved":false,"is_disabled":true,"rental_uris":{"android":"levelo://app?vid=25ddf417-8230-4dbc-b38a-2b2cb1ba9d73","ios":"levelo://app?vid=25ddf417-8230-4dbc-b38a-2b2cb1ba9d73"},"vehicle_type_id":"4","last_reported":1732007407,"current_range_meters":11200,"station_id":"ce4bguh2rcd13ifvqcj0","pricing_plan_id":"cebpf4jnsgd1na2vs0mg"},{"bike_id":"8f9c2ea5-118d-4ec2-84a9-6cf6c2843205","system_id":"levelo_inurba_marseille","lat":43.262,"lon":5.37447,"is_reserved":false,"is_disabled":false,"rental_uris":{"android":"levelo://app?vid=8f9c2ea5-118d-4ec2-84a9-6cf6c2843205","ios":"levelo://app?vid=8f9c2ea5-118d-4ec2-84a9-6cf6c2843205"},"vehicle_type_id":"4","last_reported":1732007407,"current_range_meters":22400,"station_id":"ce4bhgp2rcd13ifvqfc0","pricing_plan_id":"cebpf4jnsgd1na2vs0mg"},{"bike_id":"9f6f45f4-ac0d-4056-b187-c460fe086bcd","system_id":"levelo_inurba_marseille","lat":43.30913,"lon":5.36847,"is_reserved":false,"is_disabled":false,"rental_uris":{"android":"levelo://app?vid=9f6f45f4-ac0d-4056-b187-c460fe086bcd","ios":"levelo://app?vid=9f6f45f4-ac0d-4056-b187-c460fe086bcd"},"vehicle_type_id":"4","last_reported":1732007407,"current_range_meters":36800,"station_id":"ce4bgn92rcd13ifvqbvg","pricing_plan_id":"cebpf4jnsgd1na2vs0mg"},{"bike_id":"2efb20d7-33b5-4daf-943b-210f5236bdea","system_id":"levelo_inurba_marseille","lat":43.30593,"lon":5.3936,"is_reserved":false,"is_disabled":false,"rental_uris":{"android":"levelo://app?vid=2efb20d7-33b5-4daf-943b-210f5236bdea","ios":"levelo://app?vid=2efb20d7-33b5-4daf-943b-210f5236bdea"},"vehicle_type_id":"4","last_reported":1732007407,"current_range_meters":29600,"station_id":"ce4bh0p2rcd13ifvqd80","pricing_plan_id":"cebpf4jnsgd1na2vs0mg"},{"bike_id":"c0414705-628e-4ecb-a390-6a6747dfe975","system_id":"levelo_inurba_marseille","lat":43.28972,"lon":5.37817,"is_reserved":false,"is_disabled":false,"rental_uris":{"android":"levelo://app?vid=c0414705-628e-4ecb-a390-6a6747dfe975","ios":"levelo://app?vid=c0414705-628e-4ecb-a390-6a6747dfe975"},"vehicle_type_id":"4","last_reported":1732007407,"current_range_meters":36000,"station_id":"ce4bh9p2rcd13ifvqed0","pricing_plan_id":"cebpf4jnsgd1na2vs0mg"},{"bike_id":"39e53801-da3e-4c0c-a56f-94942d8ebc7e","system_id":"levelo_inurba_marseille","lat":43.31363,"lon":5.38487,"is_reserved":false,"is_disabled":false,"rental_uris":{"android":"levelo://app?vid=39e53801-da3e-4c0c-a56f-94942d8ebc7e","ios":"levelo://app?vid=39e53801-da3e-4c0c-a56f-94942d8ebc7e"},"vehicle_type_id":"4","last_reported":1732007407,"current_range_meters":35600,"station_id":"ce4bgt92rcd13ifvqcf0","pricing_plan_id":"cebpf4jnsgd1na2vs0mg"},{"bike_id":"c9d38752-0196-4fdb-8e87-b59e624cbbe6","system_id":"levelo_inurba_marseille","lat":43.24078,"lon":5.37756,"is_reserved":false,"is_disabled":false,"rental_uris":{"android":"levelo://app?vid=c9d38752-0196-4fdb-8e87-b59e624cbbe6","ios":"levelo://app?vid=c9d38752-0196-4fdb-8e87-b59e624cbbe6"},"vehicle_type_id":"4","last_reported":1732007407,"current_range_meters":38800,"station_id":"ce4bhnp2rcd13ifvqgvg","pricing_plan_id":"cebpf4jnsgd1na2vs0mg"},{"bike_id":"f0f17b7f-3dc4-4e68-ab2f-b5ca340ead61","system_id":"levelo_inurba_marseille","lat":43.2847,"lon":5.38404,"is_reserved":false,"is_disabled":false,"rental_uris":{"android":"levelo://app?vid=f0f17b7f-3dc4-4e68-ab2f-b5ca340ead61","ios":"levelo://app?vid=f0f17b7f-3dc4-4e68-ab2f-b5ca340ead61"},"vehicle_type_id":"4","last_reported":1732007407,"current_range_meters":28000,"station_id":"ce4bh512rcd13ifvqe3g","pricing_plan_id":"cebpf4jnsgd1na2vs0mg"},{"bike_id":"611ce1d1-8049-472d-9623-d4ffd429639f","system_id":"levelo_inurba_marseille","lat":43.29746,"lon":5.38125,"is_reserved":false,"is_disabled":false,"rental_uris":{"android":"levelo://app?vid=611ce1d1-8049-472d-9623-d4ffd429639f","ios":"levelo://app?vid=611ce1d1-8049-472d-9623-d4ffd429639f"},"vehicle_type_id":"4","last_reported":1732007407,"current_range_meters":38800,"station_id":"ce4bgip2rcd13ifvqbb0","pricing_plan_id":"cebpf4jnsgd1na2vs0mg"},{"bike_id":"db0720ad-5349-46c0-a472-f76cf7d087ab","system_id":"levelo_inurba_marseille","lat":43.28107,"lon":5.37832,"is_reserved":false,"is_disabled":false,"rental_uris":{"android":"levelo://app?vid=db0720ad-5349-46c0-a472-f76cf7d087ab","ios":"levelo://app?vid=db0720ad-5349-46c0-a472-f76cf7d087ab"},"vehicle_type_id":"4","last_reported":1732007407,"current_range_meters":37600,"station_id":"ce4bha12rcd13ifvqee0","pricing_plan_id":"cebpf4jnsgd1na2vs0mg"},{"bike_id":"6163eb4e-0d90-4775-9849-f1d6b6c25581","system_id":"levelo_inurba_marseille","lat":43.29029,"lon":5.38627,"is_reserved":false,"is_disabled":false,"rental_uris":{"android":"levelo://app?vid=6163eb4e-0d90-4775-9849-f1d6b6c25581","ios":"levelo://app?vid=6163eb4e-0d90-4775-9849-f1d6b6c25581"},"vehicle_type_id":"4","last_reported":1732007407,"current_range_meters":30000,"station_id":"ce4bh4p2rcd13ifvqe0g","pricing_plan_id":"cebpf4jnsgd1na2vs0mg"},{"bike_id":"efaa20f7-d2fb-4778-9ca3-b17e9193d440","system_id":"levelo_inurba_marseille","lat":43.33724,"lon":5.39178,"is_reserved":false,"is_disabled":false,"rental_uris":{"android":"levelo://app?vid=efaa20f7-d2fb-4778-9ca3-b17e9193d440","ios":"levelo://app?vid=efaa20f7-d2fb-4778-9ca3-b17e9193d440"},"vehicle_type_id":"4","last_reported":1732007407,"current_range_meters":38800,"station_id":"ce4bhr92rcd13ifvqhsg","pricing_plan_id":"cebpf4jnsgd1na2vs0mg"},{"bike_id":"4b1089fa-7b1e-4c9e-b4cc-042056d6026b","system_id":"levelo_inurba_marseille","lat":43.30208,"lon":5.3946,"is_reserved":false,"is_disabled":true,"rental_uris":{"android":"levelo://app?vid=4b1089fa-7b1e-4c9e-b4cc-042056d6026b","ios":"levelo://app?vid=4b1089fa-7b1e-4c9e-b4cc-042056d6026b"},"vehicle_type_id":"4","last_reported":1732007407,"current_range_meters":28400,"station_id":"ce4bh0p2rcd13ifvqd70","pricing_plan_id":"cebpf4jnsgd1na2vs0mg"},{"bike_id":"e43ca7b2-88c9-47f1-8c96-06cd7962b10c","system_id":"levelo_inurba_marseille","lat":43.324829,"lon":5.415131,"is_reserved":false,"is_disabled":false,"rental_uris":{"android":"levelo://app?vid=e43ca7b2-88c9-47f1-8c96-06cd7962b10c","ios":"levelo://app?vid=e43ca7b2-88c9-47f1-8c96-06cd7962b10c"},"vehicle_type_id":"4","last_reported":1732007407,"current_range_meters":22400,"station_id":"ce4bhq12rcd13ifvqhhg","pricing_plan_id":"cebpf4jnsgd1na2vs0mg"},{"bike_id":"d5d93423-8b59-49ff-a38f-f9112bad0624","system_id":"levelo_inurba_marseille","lat":43.23153,"lon":5.43707,"is_reserved":false,"is_disabled":true,"rental_uris":{"android":"levelo://app?vid=d5d93423-8b59-49ff-a38f-f9112bad0624","ios":"levelo://app?vid=d5d93423-8b59-49ff-a38f-f9112bad0624"},"vehicle_type_id":"4","last_reported":1732007407,"current_range_meters":20000,"station_id":"ce4bhmp2rcd13ifvqgog","pricing_plan_id":"cebpf4jnsgd1na2vs0mg"},{"bike_id":"e2f6a0a8-eb6e-492e-a17f-6bde58b9d768","system_id":"levelo_inurba_marseille","lat":43.29846,"lon":5.36274,"is_reserved":false,"is_disabled":false,"rental_uris":{"android":"levelo://app?vid=e2f6a0a8-eb6e-492e-a17f-6bde58b9d768","ios":"levelo://app?vid=e2f6a0a8-eb6e-492e-a17f-6bde58b9d768"},"vehicle_type_id":"4","last_reported":1732007407,"current_range_meters":37600,"station_id":"ce4bgpp2rcd13ifvqc3g","pricing_plan_id":"cebpf4jnsgd1na2vs0mg"},{"bike_id":"fbf50743-a751-4d22-8d7f-9047b9d72787","system_id":"levelo_inurba_marseille","lat":43.33333,"lon":5.41865,"is_reserved":false,"is_disabled":false,"rental_uris":{"android":"levelo://app?vid=fbf50743-a751-4d22-8d7f-9047b9d72787","ios":"levelo://app?vid=fbf50743-a751-4d22-8d7f-9047b9d72787"},"vehicle_type_id":"4","last_reported":1732007407,"current_range_meters":28400,"station_id":"","pricing_plan_id":"cebpf4jnsgd1na2vs0mg"},{"bike_id":"a598d8a2-2919-4d59-8c1a-6dd57ad14fbc","system_id":"levelo_inurba_marseille","lat":43.29267,"lon":5.3845,"is_reserved":false,"is_disabled":true,"rental_uris":{"android":"levelo://app?vid=a598d8a2-2919-4d59-8c1a-6dd57ad14fbc","ios":"levelo://app?vid=a598d8a2-2919-4d59-8c1a-6dd57ad14fbc"},"vehicle_type_id":"4","last_reported":1732007407,"current_range_meters":800,"station_id":"ce4bh692rcd13ifvqea0","pricing_plan_id":"cebpf4jnsgd1na2vs0mg"},{"bike_id":"f1883a8f-ef40-4f2e-ae76-eab5c1cdbd5a","system_id":"levelo_inurba_marseille","lat":43.290316,"lon":5.386485,"is_reserved":false,"is_disabled":false,"rental_uris":{"android":"levelo://app?vid=f1883a8f-ef40-4f2e-ae76-eab5c1cdbd5a","ios":"levelo://app?vid=f1883a8f-ef40-4f2e-ae76-eab5c1cdbd5a"},"vehicle_type_id":"4","last_reported":1732007407,"current_range_meters":6400,"station_id":"ce4bho92rcd13ifvqh3g","pricing_plan_id":"cebpf4jnsgd1na2vs0mg"},{"bike_id":"6733cb59-4d68-47ac-81dd-3143cc2f2298","system_id":"levelo_inurba_marseille","lat":43.28244,"lon":5.3814,"is_reserved":false,"is_disabled":false,"rental_uris":{"android":"levelo://app?vid=6733cb59-4d68-47ac-81dd-3143cc2f2298","ios":"levelo://app?vid=6733cb59-4d68-47ac-81dd-3143cc2f2298"},"vehicle_type_id":"4","last_reported":1732007407,"current_range_meters":7200,"station_id":"ce4bhl92rcd13ifvqghg","pricing_plan_id":"cebpf4jnsgd1na2vs0mg"},{"bike_id":"c308d27a-3b84-4b5d-9a4a-784db5109340","system_id":"levelo_inurba_marseille","lat":43.28994,"lon":5.35593,"is_reserved":false,"is_disabled":true,"rental_uris":{"android":"levelo://app?vid=c308d27a-3b84-4b5d-9a4a-784db5109340","ios":"levelo://app?vid=c308d27a-3b84-4b5d-9a4a-784db5109340"},"vehicle_type_id":"4","last_reported":1732007407,"current_range_meters":31200,"station_id":"ce4bhb92rcd13ifvqen0","pricing_plan_id":"cebpf4jnsgd1na2vs0mg"},{"bike_id":"ce1ff79f-efc7-4e2b-bbf4-e16fc6f042ab","system_id":"levelo_inurba_marseille","lat":43.25868,"lon":5.39893,"is_reserved":false,"is_disabled":false,"rental_uris":{"android":"levelo://app?vid=ce1ff79f-efc7-4e2b-bbf4-e16fc6f042ab","ios":"levelo://app?vid=ce1ff79f-efc7-4e2b-bbf4-e16fc6f042ab"},"vehicle_type_id":"4","last_reported":1732007407,"current_range_meters":18000,"station_id":"ce4bhl92rcd13ifvqghg","pricing_plan_id":"cebpf4jnsgd1na2vs0mg"},{"bike_id":"f05450f9-d880-476e-a80a-efdb890dd318","system_id":"levelo_inurba_marseille","lat":43.30944,"lon":5.39043,"is_reserved":false,"is_disabled":true,"rental_uris":{"android":"levelo://app?vid=f05450f9-d880-476e-a80a-efdb890dd318","ios":"levelo://app?vid=f05450f9-d880-476e-a80a-efdb890dd318"},"vehicle_type_id":"4","last_reported":1732007407,"current_range_meters":0,"station_id":"ce4bgup2rcd13ifvqco0","pricing_plan_id":"cebpf4jnsgd1na2vs0mg"},{"bike_id":"21293bfb-2b86-45b8-b47c-391b66c9116f","system_id":"levelo_inurba_marseille","lat":43.3064,"lon":5.40075,"is_reserved":false,"is_disabled":false,"rental_uris":{"android":"levelo://app?vid=21293bfb-2b86-45b8-b47c-391b66c9116f","ios":"levelo://app?vid=21293bfb-2b86-45b8-b47c-391b66c9116f"},"vehicle_type_id":"4","last_reported":1732007407,"current_range_meters":18800,"station_id":"ce4bh112rcd13ifvqda0","pricing_plan_id":"cebpf4jnsgd1na2vs0mg"},{"bike_id":"219656c0-67d1-41e4-acab-237791f01352","system_id":"levelo_inurba_marseille","lat":43.26203,"lon":5.37929,"is_reserved":false,"is_disabled":false,"rental_uris":{"android":"levelo://app?vid=219656c0-67d1-41e4-acab-237791f01352","ios":"levelo://app?vid=219656c0-67d1-41e4-acab-237791f01352"},"vehicle_type_id":"4","last_reported":1732007407,"current_range_meters":15200,"station_id":"ce4bhjp2rcd13ifvqg90","pricing_plan_id":"cebpf4jnsgd1na2vs0mg"},{"bike_id":"e724f48d-7831-4a53-bd1c-2ddf0f9a9faa","system_id":"levelo_inurba_marseille","lat":43.30324,"lon":5.36907,"is_reserved":false,"is_disabled":false,"rental_uris":{"android":"levelo://app?vid=e724f48d-7831-4a53-bd1c-2ddf0f9a9faa","ios":"levelo://app?vid=e724f48d-7831-4a53-bd1c-2ddf0f9a9faa"},"vehicle_type_id":"4","last_reported":1732007407,"current_range_meters":8400,"station_id":"ce4bgqh2rcd13ifvqc5g","pricing_plan_id":"cebpf4jnsgd1na2vs0mg"},{"bike_id":"f0e2f4e5-f602-4a1c-ba1a-aa1d1150f28c","system_id":"levelo_inurba_marseille","lat":43.29628,"lon":5.40595,"is_reserved":false,"is_disabled":true,"rental_uris":{"android":"levelo://app?vid=f0e2f4e5-f602-4a1c-ba1a-aa1d1150f28c","ios":"levelo://app?vid=f0e2f4e5-f602-4a1c-ba1a-aa1d1150f28c"},"vehicle_type_id":"4","last_reported":1732007407,"current_range_meters":38800,"station_id":"ce4bh0h2rcd13ifvqd60","pricing_plan_id":"cebpf4jnsgd1na2vs0mg"},{"bike_id":"f9a8ee78-c6b1-4f65-9e22-f5d1574bd022","system_id":"levelo_inurba_marseille","lat":43.30958,"lon":5.39021,"is_reserved":false,"is_disabled":false,"rental_uris":{"android":"levelo://app?vid=f9a8ee78-c6b1-4f65-9e22-f5d1574bd022","ios":"levelo://app?vid=f9a8ee78-c6b1-4f65-9e22-f5d1574bd022"},"vehicle_type_id":"4","last_reported":1732007407,"current_range_meters":30400,"station_id":"ce4bgup2rcd13ifvqco0","pricing_plan_id":"cebpf4jnsgd1na2vs0mg"},{"bike_id":"628384db-a629-44bc-856e-9d5ee504cce9","system_id":"levelo_inurba_marseille","lat":43.25002,"lon":5.38925,"is_reserved":false,"is_disabled":true,"rental_uris":{"android":"levelo://app?vid=628384db-a629-44bc-856e-9d5ee504cce9","ios":"levelo://app?vid=628384db-a629-44bc-856e-9d5ee504cce9"},"vehicle_type_id":"4","last_reported":1732007407,"current_range_meters":39200,"station_id":"ce4bhgp2rcd13ifvqfd0","pricing_plan_id":"cebpf4jnsgd1na2vs0mg"},{"bike_id":"36738142-d2ff-4088-b452-61c504dfea94","system_id":"levelo_inurba_marseille","lat":43.28473,"lon":5.38402,"is_reserved":false,"is_disabled":false,"rental_uris":{"android":"levelo://app?vid=36738142-d2ff-4088-b452-61c504dfea94","ios":"levelo://app?vid=36738142-d2ff-4088-b452-61c504dfea94"},"vehicle_type_id":"4","last_reported":1732007407,"current_range_meters":30000,"station_id":"ce4bh512rcd13ifvqe3g","pricing_plan_id":"cebpf4jnsgd1na2vs0mg"},{"bike_id":"81f9fe4a-dfb3-4b4f-8aab-e637efb806dc","system_id":"levelo_inurba_marseille","lat":43.25861,"lon":5.39903,"is_reserved":false,"is_disabled":false,"rental_uris":{"android":"levelo://app?vid=81f9fe4a-dfb3-4b4f-8aab-e637efb806dc","ios":"levelo://app?vid=81f9fe4a-dfb3-4b4f-8aab-e637efb806dc"},"vehicle_type_id":"4","last_reported":1732007407,"current_range_meters":8800,"station_id":"ce4bhl92rcd13ifvqghg","pricing_plan_id":"cebpf4jnsgd1na2vs0mg"},{"bike_id":"0472df00-2514-4e20-96cd-0b3db31163ab","system_id":"levelo_inurba_marseille","lat":43.28036,"lon":5.36949,"is_reserved":false,"is_disabled":false,"rental_uris":{"android":"levelo://app?vid=0472df00-2514-4e20-96cd-0b3db31163ab","ios":"levelo://app?vid=0472df00-2514-4e20-96cd-0b3db31163ab"},"vehicle_type_id":"4","last_reported":1732007407,"current_range_meters":28800,"station_id":"ce4bha12rcd13ifvqef0","pricing_plan_id":"cebpf4jnsgd1na2vs0mg"},{"bike_id":"03d81797-2d3e-41fb-83d2-92ced9838d9a","system_id":"levelo_inurba_marseille","lat":43.26802,"lon":5.40266,"is_reserved":false,"is_disabled":true,"rental_uris":{"android":"levelo://app?vid=03d81797-2d3e-41fb-83d2-92ced9838d9a","ios":"levelo://app?vid=03d81797-2d3e-41fb-83d2-92ced9838d9a"},"vehicle_type_id":"4","last_reported":1732007407,"current_range_meters":28800,"station_id":"ce501612rcd8frsf0b60","pricing_plan_id":"cebpf4jnsgd1na2vs0mg"},{"bike_id":"be8a2b80-ff19-4fef-9087-6926fa4cb7fd","system_id":"levelo_inurba_marseille","lat":43.28938,"lon":5.39634,"is_reserved":false,"is_disabled":false,"rental_uris":{"android":"levelo://app?vid=be8a2b80-ff19-4fef-9087-6926fa4cb7fd","ios":"levelo://app?vid=be8a2b80-ff19-4fef-9087-6926fa4cb7fd"},"vehicle_type_id":"4","last_reported":1732007407,"current_range_meters":28400,"station_id":"ce4bh3h2rcd13ifvqdn0","pricing_plan_id":"cebpf4jnsgd1na2vs0mg"},{"bike_id":"7e225853-ea2f-419d-a4b1-862371673496","system_id":"levelo_inurba_marseille","lat":43.26684,"lon":5.38271,"is_reserved":false,"is_disabled":false,"rental_uris":{"android":"levelo://app?vid=7e225853-ea2f-419d-a4b1-862371673496","ios":"levelo://app?vid=7e225853-ea2f-419d-a4b1-862371673496"},"vehicle_type_id":"4","last_reported":1732007407,"current_range_meters":10000,"station_id":"ce4bhg92rcd13ifvqf90","pricing_plan_id":"cebpf4jnsgd1na2vs0mg"},{"bike_id":"209fb4d1-72f4-458c-8ec5-067e1928fc59","system_id":"levelo_inurba_marseille","lat":43.24077,"lon":5.3774,"is_reserved":false,"is_disabled":false,"rental_uris":{"android":"levelo://app?vid=209fb4d1-72f4-458c-8ec5-067e1928fc59","ios":"levelo://app?vid=209fb4d1-72f4-458c-8ec5-067e1928fc59"},"vehicle_type_id":"4","last_reported":1732007407,"current_range_meters":32000,"station_id":"ce4bhnp2rcd13ifvqgvg","pricing_plan_id":"cebpf4jnsgd1na2vs0mg"},{"bike_id":"568af564-eb73-46a3-b88d-babc2d3eab5a","system_id":"levelo_inurba_marseille","lat":43.30907,"lon":5.36844,"is_reserved":false,"is_disabled":false,"rental_uris":{"android":"levelo://app?vid=568af564-eb73-46a3-b88d-babc2d3eab5a","ios":"levelo://app?vid=568af564-eb73-46a3-b88d-babc2d3eab5a"},"vehicle_type_id":"4","last_reported":1732007407,"current_range_meters":18000,"station_id":"ce4bgn92rcd13ifvqbvg","pricing_plan_id":"cebpf4jnsgd1na2vs0mg"},{"bike_id":"4de41581-3b4d-48da-b235-99669862c70a","system_id":"levelo_inurba_marseille","lat":43.29607,"lon":5.37714,"is_reserved":false,"is_disabled":true,"rental_uris":{"android":"levelo://app?vid=4de41581-3b4d-48da-b235-99669862c70a","ios":"levelo://app?vid=4de41581-3b4d-48da-b235-99669862c70a"},"vehicle_type_id":"4","last_reported":1732007407,"current_range_meters":29600,"station_id":"ce4bgi92rcd13ifvqb90","pricing_plan_id":"cebpf4jnsgd1na2vs0mg"},{"bike_id":"2910f69a-6dac-4d69-a60d-e4f1b8cce200","system_id":"levelo_inurba_marseille","lat":43.27818,"lon":5.40717,"is_reserved":false,"is_disabled":true,"rental_uris":{"android":"levelo://app?vid=2910f69a-6dac-4d69-a60d-e4f1b8cce200","ios":"levelo://app?vid=2910f69a-6dac-4d69-a60d-e4f1b8cce200"},"vehicle_type_id":"4","last_reported":1732007407,"current_range_meters":21600,"station_id":"ce4bhnh2rcd13ifvqgtg","pricing_plan_id":"cebpf4jnsgd1na2vs0mg"},{"bike_id":"3d4a8a11-cd8e-4217-a130-2b8f97253671","system_id":"levelo_inurba_marseille","lat":43.3028,"lon":5.37691,"is_reserved":false,"is_disabled":false,"rental_uris":{"android":"levelo://app?vid=3d4a8a11-cd8e-4217-a130-2b8f97253671","ios":"levelo://app?vid=3d4a8a11-cd8e-4217-a130-2b8f97253671"},"vehicle_type_id":"4","last_reported":1732007407,"current_range_meters":38800,"station_id":"ce4bguh2rcd13ifvqcj0","pricing_plan_id":"cebpf4jnsgd1na2vs0mg"},{"bike_id":"987fec9c-337d-4c36-aa88-22fb1ba79b26","system_id":"levelo_inurba_marseille","lat":43.29531,"lon":5.39407,"is_reserved":false,"is_disabled":false,"rental_uris":{"android":"levelo://app?vid=987fec9c-337d-4c36-aa88-22fb1ba79b26","ios":"levelo://app?vid=987fec9c-337d-4c36-aa88-22fb1ba79b26"},"vehicle_type_id":"4","last_reported":1732007407,"current_range_meters":28800,"station_id":"ce4bh292rcd13ifvqdf0","pricing_plan_id":"cebpf4jnsgd1na2vs0mg"},{"bike_id":"85782696-36f2-4c33-98b6-2d88f8670e2c","system_id":"levelo_inurba_marseille","lat":43.31081,"lon":5.42429,"is_reserved":false,"is_disabled":false,"rental_uris":{"android":"levelo://app?vid=85782696-36f2-4c33-98b6-2d88f8670e2c","ios":"levelo://app?vid=85782696-36f2-4c33-98b6-2d88f8670e2c"},"vehicle_type_id":"4","last_reported":1732007407,"current_range_meters":36400,"station_id":"ce4bhp92rcd13ifvqhag","pricing_plan_id":"cebpf4jnsgd1na2vs0mg"},{"bike_id":"ae7e4626-b855-42c3-8deb-f7819a519ff2","system_id":"levelo_inurba_marseille","lat":43.30139,"lon":5.3742,"is_reserved":false,"is_disabled":false,"rental_uris":{"android":"levelo://app?vid=ae7e4626-b855-42c3-8deb-f7819a519ff2","ios":"levelo://app?vid=ae7e4626-b855-42c3-8deb-f7819a519ff2"},"vehicle_type_id":"4","last_reported":1732007407,"current_range_meters":27600,"station_id":"ce4bgs92rcd13ifvqcc0","pricing_plan_id":"cebpf4jnsgd1na2vs0mg"},{"bike_id":"408d6180-b8cc-47cb-8280-9835657424af","system_id":"levelo_inurba_marseille","lat":43.30154,"lon":5.38086,"is_reserved":false,"is_disabled":false,"rental_uris":{"android":"levelo://app?vid=408d6180-b8cc-47cb-8280-9835657424af","ios":"levelo://app?vid=408d6180-b8cc-47cb-8280-9835657424af"},"vehicle_type_id":"4","last_reported":1732007407,"current_range_meters":5600,"station_id":"ce4bgjp2rcd13ifvqbh0","pricing_plan_id":"cebpf4jnsgd1na2vs0mg"},{"bike_id":"a4902f06-0186-4c5b-a432-a67438ec032d","system_id":"levelo_inurba_marseille","lat":43.29862,"lon":5.39745,"is_reserved":false,"is_disabled":false,"rental_uris":{"android":"levelo://app?vid=a4902f06-0186-4c5b-a432-a67438ec032d","ios":"levelo://app?vid=a4902f06-0186-4c5b-a432-a67438ec032d"},"vehicle_type_id":"4","last_reported":1732007407,"current_range_meters":36000,"station_id":"ce4bh0h2rcd13ifvqd50","pricing_plan_id":"cebpf4jnsgd1na2vs0mg"},{"bike_id":"7a1d8a89-2a7e-4939-ab1a-d9cdb7e81301","system_id":"levelo_inurba_marseille","lat":43.29871,"lon":5.36738,"is_reserved":false,"is_disabled":true,"rental_uris":{"android":"levelo://app?vid=7a1d8a89-2a7e-4939-ab1a-d9cdb7e81301","ios":"levelo://app?vid=7a1d8a89-2a7e-4939-ab1a-d9cdb7e81301"},"vehicle_type_id":"4","last_reported":1732007407,"current_range_meters":0,"station_id":"","pricing_plan_id":"cebpf4jnsgd1na2vs0mg"},{"bike_id":"c46435fb-ac45-4251-8f82-c93eda02ef2f","system_id":"levelo_inurba_marseille","lat":43.31077,"lon":5.42432,"is_reserved":false,"is_disabled":false,"rental_uris":{"android":"levelo://app?vid=c46435fb-ac45-4251-8f82-c93eda02ef2f","ios":"levelo://app?vid=c46435fb-ac45-4251-8f82-c93eda02ef2f"},"vehicle_type_id":"4","last_reported":1732007407,"current_range_meters":3600,"station_id":"ce4bhp92rcd13ifvqhag","pricing_plan_id":"cebpf4jnsgd1na2vs0mg"},{"bike_id":"84add0bd-cb10-4dcb-82e1-3da91d21fda0","system_id":"levelo_inurba_marseille","lat":43.29899,"lon":5.43661,"is_reserved":false,"is_disabled":false,"rental_uris":{"android":"levelo://app?vid=84add0bd-cb10-4dcb-82e1-3da91d21fda0","ios":"levelo://app?vid=84add0bd-cb10-4dcb-82e1-3da91d21fda0"},"vehicle_type_id":"4","last_reported":1732007407,"current_range_meters":37600,"station_id":"ce4bhpp2rcd13ifvqhfg","pricing_plan_id":"cebpf4jnsgd1na2vs0mg"},{"bike_id":"00a36eb1-c31f-4b0d-85b0-eb7aa11e8e55","system_id":"levelo_inurba_marseille","lat":43.29046,"lon":5.39956,"is_reserved":false,"is_disabled":true,"rental_uris":{"android":"levelo://app?vid=00a36eb1-c31f-4b0d-85b0-eb7aa11e8e55","ios":"levelo://app?vid=00a36eb1-c31f-4b0d-85b0-eb7aa11e8e55"},"vehicle_type_id":"4","last_reported":1732007407,"current_range_meters":0,"station_id":"ce4bh392rcd13ifvqdm0","pricing_plan_id":"cebpf4jnsgd1na2vs0mg"},{"bike_id":"dc38aa57-8e60-4582-8a59-80ef7da6b3bc","system_id":"levelo_inurba_marseille","lat":43.3095,"lon":5.39035,"is_reserved":false,"is_disabled":false,"rental_uris":{"android":"levelo://app?vid=dc38aa57-8e60-4582-8a59-80ef7da6b3bc","ios":"levelo://app?vid=dc38aa57-8e60-4582-8a59-80ef7da6b3bc"},"vehicle_type_id":"4","last_reported":1732007407,"current_range_meters":11200,"station_id":"ce4bgup2rcd13ifvqco0","pricing_plan_id":"cebpf4jnsgd1na2vs0mg"},{"bike_id":"8e141282-1bd3-458c-bc05-8943ab4a4035","system_id":"levelo_inurba_marseille","lat":43.31216,"lon":5.36853,"is_reserved":false,"is_disabled":false,"rental_uris":{"android":"levelo://app?vid=8e141282-1bd3-458c-bc05-8943ab4a4035","ios":"levelo://app?vid=8e141282-1bd3-458c-bc05-8943ab4a4035"},"vehicle_type_id":"4","last_reported":1732007407,"current_range_meters":38800,"station_id":"ce4bgl92rcd13ifvqbq0","pricing_plan_id":"cebpf4jnsgd1na2vs0mg"},{"bike_id":"c43bd717-5c53-4564-a1c1-8bd3e169d807","system_id":"levelo_inurba_marseille","lat":43.31763,"lon":5.39005,"is_reserved":false,"is_disabled":false,"rental_uris":{"android":"levelo://app?vid=c43bd717-5c53-4564-a1c1-8bd3e169d807","ios":"levelo://app?vid=c43bd717-5c53-4564-a1c1-8bd3e169d807"},"vehicle_type_id":"4","last_reported":1732007407,"current_range_meters":17200,"station_id":"ce4bhqp2rcd13ifvqhng","pricing_plan_id":"cebpf4jnsgd1na2vs0mg"},{"bike_id":"d482b473-8011-43d1-9203-ef428f8af553","system_id":"levelo_inurba_marseille","lat":43.2955,"lon":5.42285,"is_reserved":false,"is_disabled":false,"rental_uris":{"android":"levelo://app?vid=d482b473-8011-43d1-9203-ef428f8af553","ios":"levelo://app?vid=d482b473-8011-43d1-9203-ef428f8af553"},"vehicle_type_id":"4","last_reported":1732007407,"current_range_meters":13600,"station_id":"ce4bhph2rcd13ifvqhdg","pricing_plan_id":"cebpf4jnsgd1na2vs0mg"},{"bike_id":"baed21b4-b397-414d-8b75-d87ea9b6a0ac","system_id":"levelo_inurba_marseille","lat":43.28106,"lon":5.37844,"is_reserved":false,"is_disabled":false,"rental_uris":{"android":"levelo://app?vid=baed21b4-b397-414d-8b75-d87ea9b6a0ac","ios":"levelo://app?vid=baed21b4-b397-414d-8b75-d87ea9b6a0ac"},"vehicle_type_id":"4","last_reported":1732007407,"current_range_meters":32000,"station_id":"ce4bha12rcd13ifvqee0","pricing_plan_id":"cebpf4jnsgd1na2vs0mg"},{"bike_id":"75a4dc29-43a0-43d4-a7f4-de95d0277d12","system_id":"levelo_inurba_marseille","lat":43.24998,"lon":5.38936,"is_reserved":false,"is_disabled":false,"rental_uris":{"android":"levelo://app?vid=75a4dc29-43a0-43d4-a7f4-de95d0277d12","ios":"levelo://app?vid=75a4dc29-43a0-43d4-a7f4-de95d0277d12"},"vehicle_type_id":"4","last_reported":1732007407,"current_range_meters":14800,"station_id":"ce4bhgp2rcd13ifvqfd0","pricing_plan_id":"cebpf4jnsgd1na2vs0mg"},{"bike_id":"cde5eb04-35f5-4971-aec4-8004f9b2dcd9","system_id":"levelo_inurba_marseille","lat":43.28277,"lon":5.35065,"is_reserved":false,"is_disabled":true,"rental_uris":{"android":"levelo://app?vid=cde5eb04-35f5-4971-aec4-8004f9b2dcd9","ios":"levelo://app?vid=cde5eb04-35f5-4971-aec4-8004f9b2dcd9"},"vehicle_type_id":"4","last_reported":1732007407,"current_range_meters":34000,"station_id":"ce4bhbp2rcd13ifvqerg","pricing_plan_id":"cebpf4jnsgd1na2vs0mg"},{"bike_id":"d94562ce-5e3b-4d15-a704-2e7d52662514","system_id":"levelo_inurba_marseille","lat":43.29311,"lon":5.37175,"is_reserved":false,"is_disabled":false,"rental_uris":{"android":"levelo://app?vid=d94562ce-5e3b-4d15-a704-2e7d52662514","ios":"levelo://app?vid=d94562ce-5e3b-4d15-a704-2e7d52662514"},"vehicle_type_id":"4","last_reported":1732007407,"current_range_meters":22800,"station_id":"ce4bgh92rcd13ifvqb40","pricing_plan_id":"cebpf4jnsgd1na2vs0mg"},{"bike_id":"c285c11f-9b36-4bc2-b2d9-efcee1febd1b","system_id":"levelo_inurba_marseille","lat":43.34144,"lon":5.40903,"is_reserved":false,"is_disabled":false,"rental_uris":{"android":"levelo://app?vid=c285c11f-9b36-4bc2-b2d9-efcee1febd1b","ios":"levelo://app?vid=c285c11f-9b36-4bc2-b2d9-efcee1febd1b"},"vehicle_type_id":"4","last_reported":1732007407,"current_range_meters":16800,"station_id":"ce4bhqh2rcd13ifvqhlg","pricing_plan_id":"cebpf4jnsgd1na2vs0mg"},{"bike_id":"810c9fc0-4aef-4f2b-830e-02a29828d02c","system_id":"levelo_inurba_marseille","lat":43.28978,"lon":5.37828,"is_reserved":false,"is_disabled":false,"rental_uris":{"android":"levelo://app?vid=810c9fc0-4aef-4f2b-830e-02a29828d02c","ios":"levelo://app?vid=810c9fc0-4aef-4f2b-830e-02a29828d02c"},"vehicle_type_id":"4","last_reported":1732007407,"current_range_meters":18000,"station_id":"ce4bh9p2rcd13ifvqed0","pricing_plan_id":"cebpf4jnsgd1na2vs0mg"},{"bike_id":"00f56e68-2075-4bfc-859c-fddfdb12c8ca","system_id":"levelo_inurba_marseille","lat":43.24073,"lon":5.37759,"is_reserved":false,"is_disabled":false,"rental_uris":{"android":"levelo://app?vid=00f56e68-2075-4bfc-859c-fddfdb12c8ca","ios":"levelo://app?vid=00f56e68-2075-4bfc-859c-fddfdb12c8ca"},"vehicle_type_id":"4","last_reported":1732007407,"current_range_meters":24400,"station_id":"ce4bhnp2rcd13ifvqgvg","pricing_plan_id":"cebpf4jnsgd1na2vs0mg"},{"bike_id":"6ebbdc8a-f3a1-40d2-968e-7409574b7edc","system_id":"levelo_inurba_marseille","lat":43.325448,"lon":5.4144,"is_reserved":false,"is_disabled":false,"rental_uris":{"android":"levelo://app?vid=6ebbdc8a-f3a1-40d2-968e-7409574b7edc","ios":"levelo://app?vid=6ebbdc8a-f3a1-40d2-968e-7409574b7edc"},"vehicle_type_id":"4","last_reported":1732007407,"current_range_meters":34800,"station_id":"ce4bhq12rcd13ifvqhhg","pricing_plan_id":"cebpf4jnsgd1na2vs0mg"},{"bike_id":"1e72fff0-6437-4924-829e-3845e595c084","system_id":"levelo_inurba_marseille","lat":43.2937,"lon":5.37855,"is_reserved":false,"is_disabled":false,"rental_uris":{"android":"levelo://app?vid=1e72fff0-6437-4924-829e-3845e595c084","ios":"levelo://app?vid=1e72fff0-6437-4924-829e-3845e595c084"},"vehicle_type_id":"4","last_reported":1732007407,"current_range_meters":37600,"station_id":"ce4bgjh2rcd13ifvqbf0","pricing_plan_id":"cebpf4jnsgd1na2vs0mg"},{"bike_id":"0e2bbe61-8f31-47ba-b582-6a82d0b052e0","system_id":"levelo_inurba_marseille","lat":43.29016,"lon":5.38351,"is_reserved":false,"is_disabled":false,"rental_uris":{"android":"levelo://app?vid=0e2bbe61-8f31-47ba-b582-6a82d0b052e0","ios":"levelo://app?vid=0e2bbe61-8f31-47ba-b582-6a82d0b052e0"},"vehicle_type_id":"4","last_reported":1732007407,"current_range_meters":29600,"station_id":"ce4bgip2rcd13ifvqbb0","pricing_plan_id":"cebpf4jnsgd1na2vs0mg"},{"bike_id":"bff402ee-970d-46d4-8d25-a5216fd3bac3","system_id":"levelo_inurba_marseille","lat":43.250074,"lon":5.389185,"is_reserved":false,"is_disabled":true,"rental_uris":{"android":"levelo://app?vid=bff402ee-970d-46d4-8d25-a5216fd3bac3","ios":"levelo://app?vid=bff402ee-970d-46d4-8d25-a5216fd3bac3"},"vehicle_type_id":"4","last_reported":1732007407,"current_range_meters":5600,"station_id":"ce4bhgp2rcd13ifvqfd0","pricing_plan_id":"cebpf4jnsgd1na2vs0mg"},{"bike_id":"c3bc0f64-f384-48a7-9517-04f95522a7e3","system_id":"levelo_inurba_marseille","lat":43.318242,"lon":5.37611,"is_reserved":false,"is_disabled":true,"rental_uris":{"android":"levelo://app?vid=c3bc0f64-f384-48a7-9517-04f95522a7e3","ios":"levelo://app?vid=c3bc0f64-f384-48a7-9517-04f95522a7e3"},"vehicle_type_id":"4","last_reported":1732007407,"current_range_meters":16400,"station_id":"","pricing_plan_id":"cebpf4jnsgd1na2vs0mg"},{"bike_id":"c3adda95-8823-44a7-ab6f-ce72306eabe1","system_id":"levelo_inurba_marseille","lat":43.27427,"lon":5.39406,"is_reserved":false,"is_disabled":true,"rental_uris":{"android":"levelo://app?vid=c3adda95-8823-44a7-ab6f-ce72306eabe1","ios":"levelo://app?vid=c3adda95-8823-44a7-ab6f-ce72306eabe1"},"vehicle_type_id":"4","last_reported":1732007407,"current_range_meters":37600,"station_id":"ce4bhdp2rcd13ifvqf20","pricing_plan_id":"cebpf4jnsgd1na2vs0mg"},{"bike_id":"0f7d3f82-6b41-4aca-b79e-c6aaeac6d97f","system_id":"levelo_inurba_marseille","lat":43.30547,"lon":5.36702,"is_reserved":false,"is_disabled":true,"rental_uris":{"android":"levelo://app?vid=0f7d3f82-6b41-4aca-b79e-c6aaeac6d97f","ios":"levelo://app?vid=0f7d3f82-6b41-4aca-b79e-c6aaeac6d97f"},"vehicle_type_id":"4","last_reported":1732007407,"current_range_meters":39200,"station_id":"ce4bgrp2rcd13ifvqc9g","pricing_plan_id":"cebpf4jnsgd1na2vs0mg"},{"bike_id":"46731ef7-efa9-4511-83cf-afa46ba542ba","system_id":"levelo_inurba_marseille","lat":43.30465,"lon":5.37901,"is_reserved":false,"is_disabled":false,"rental_uris":{"android":"levelo://app?vid=46731ef7-efa9-4511-83cf-afa46ba542ba","ios":"levelo://app?vid=46731ef7-efa9-4511-83cf-afa46ba542ba"},"vehicle_type_id":"4","last_reported":1732007407,"current_range_meters":5600,"station_id":"ce4bgup2rcd13ifvqcn0","pricing_plan_id":"cebpf4jnsgd1na2vs0mg"},{"bike_id":"76d06047-6022-43bd-b1fc-c4ae5ef0c8b9","system_id":"levelo_inurba_marseille","lat":43.30272,"lon":5.37689,"is_reserved":false,"is_disabled":false,"rental_uris":{"android":"levelo://app?vid=76d06047-6022-43bd-b1fc-c4ae5ef0c8b9","ios":"levelo://app?vid=76d06047-6022-43bd-b1fc-c4ae5ef0c8b9"},"vehicle_type_id":"4","last_reported":1732007407,"current_range_meters":37600,"station_id":"ce4bguh2rcd13ifvqcj0","pricing_plan_id":"cebpf4jnsgd1na2vs0mg"},{"bike_id":"c4bf7afd-15aa-4094-8dd5-981d6c28cc87","system_id":"levelo_inurba_marseille","lat":43.30913,"lon":5.36851,"is_reserved":false,"is_disabled":false,"rental_uris":{"android":"levelo://app?vid=c4bf7afd-15aa-4094-8dd5-981d6c28cc87","ios":"levelo://app?vid=c4bf7afd-15aa-4094-8dd5-981d6c28cc87"},"vehicle_type_id":"4","last_reported":1732007407,"current_range_meters":39200,"station_id":"ce4bgn92rcd13ifvqbvg","pricing_plan_id":"cebpf4jnsgd1na2vs0mg"},{"bike_id":"02c4176e-f331-4d90-892e-a79efbd5b7c8","system_id":"levelo_inurba_marseille","lat":43.24077,"lon":5.37755,"is_reserved":false,"is_disabled":false,"rental_uris":{"android":"levelo://app?vid=02c4176e-f331-4d90-892e-a79efbd5b7c8","ios":"levelo://app?vid=02c4176e-f331-4d90-892e-a79efbd5b7c8"},"vehicle_type_id":"4","last_reported":1732007407,"current_range_meters":38400,"station_id":"ce4bhnp2rcd13ifvqgvg","pricing_plan_id":"cebpf4jnsgd1na2vs0mg"},{"bike_id":"729f081d-5184-4f31-801f-2b41f23e3a17","system_id":"levelo_inurba_marseille","lat":43.33112,"lon":5.3821,"is_reserved":false,"is_disabled":true,"rental_uris":{"android":"levelo://app?vid=729f081d-5184-4f31-801f-2b41f23e3a17","ios":"levelo://app?vid=729f081d-5184-4f31-801f-2b41f23e3a17"},"vehicle_type_id":"4","last_reported":1732007407,"current_range_meters":35200,"station_id":"","pricing_plan_id":"cebpf4jnsgd1na2vs0mg"},{"bike_id":"638f8d00-ceb3-4062-9f5f-ca647d7df496","system_id":"levelo_inurba_marseille","lat":43.27422,"lon":5.3941,"is_reserved":false,"is_disabled":true,"rental_uris":{"android":"levelo://app?vid=638f8d00-ceb3-4062-9f5f-ca647d7df496","ios":"levelo://app?vid=638f8d00-ceb3-4062-9f5f-ca647d7df496"},"vehicle_type_id":"4","last_reported":1732007407,"current_range_meters":28400,"station_id":"ce4bhdp2rcd13ifvqf20","pricing_plan_id":"cebpf4jnsgd1na2vs0mg"},{"bike_id":"25d784e2-bad5-4648-8abc-849445b4c4c8","system_id":"levelo_inurba_marseille","lat":43.24082,"lon":5.3774,"is_reserved":false,"is_disabled":false,"rental_uris":{"android":"levelo://app?vid=25d784e2-bad5-4648-8abc-849445b4c4c8","ios":"levelo://app?vid=25d784e2-bad5-4648-8abc-849445b4c4c8"},"vehicle_type_id":"4","last_reported":1732007407,"current_range_meters":39200,"station_id":"ce4bhnp2rcd13ifvqgvg","pricing_plan_id":"cebpf4jnsgd1na2vs0mg"},{"bike_id":"4a4eab77-725b-412c-9743-c096390a45fd","system_id":"levelo_inurba_marseille","lat":43.28022,"lon":5.36946,"is_reserved":false,"is_disabled":false,"rental_uris":{"android":"levelo://app?vid=4a4eab77-725b-412c-9743-c096390a45fd","ios":"levelo://app?vid=4a4eab77-725b-412c-9743-c096390a45fd"},"vehicle_type_id":"4","last_reported":1732007407,"current_range_meters":38000,"station_id":"ce4bha12rcd13ifvqef0","pricing_plan_id":"cebpf4jnsgd1na2vs0mg"},{"bike_id":"fc86b385-912d-4c41-84c7-adb8e8df3dc0","system_id":"levelo_inurba_marseille","lat":43.29557,"lon":5.42286,"is_reserved":false,"is_disabled":false,"rental_uris":{"android":"levelo://app?vid=fc86b385-912d-4c41-84c7-adb8e8df3dc0","ios":"levelo://app?vid=fc86b385-912d-4c41-84c7-adb8e8df3dc0"},"vehicle_type_id":"4","last_reported":1732007407,"current_range_meters":18800,"station_id":"ce4bhph2rcd13ifvqhdg","pricing_plan_id":"cebpf4jnsgd1na2vs0mg"},{"bike_id":"fe329a77-e269-4bcf-a39a-93ffd701de4f","system_id":"levelo_inurba_marseille","lat":43.31227,"lon":5.36849,"is_reserved":false,"is_disabled":false,"rental_uris":{"android":"levelo://app?vid=fe329a77-e269-4bcf-a39a-93ffd701de4f","ios":"levelo://app?vid=fe329a77-e269-4bcf-a39a-93ffd701de4f"},