{"last_updated":1733396919,"ttl":60,"version":"2.2","data":{"bikes":[{"bike_id":"ded4ccce-ef33-4150-be34-864d499fb5c3","system_id":"levelo_inurba_marseille","lat":43.3053,"lon":5.3654,"is_reserved":false,"is_disabled":false,"rental_uris":{"android":"levelo://app?vid=ded4ccce-ef33-4150-be34-864d499fb5c3","ios":"levelo://app?vid=ded4ccce-ef33-4150-be34-864d499fb5c3"},"vehicle_type_id":"4","last_reported":1733396919,"current_range_meters":24800,"station_id":"ce4bgs12rcd13ifvqcag","pricing_plan_id":"cebpf4jnsgd1na2vs0mg"},{"bike_id":"a91fa1e8-32b4-471d-9ab1-72d0db7092c4","system_id":"levelo_inurba_marseille","lat":43.25931,"lon":5.40907,"is_reserved":false,"is_disabled":false,"rental_uris":{"android":"levelo://app?vid=a91fa1e8-32b4-471d-9ab1-72d0db7092c4","ios":"levelo://app?vid=a91fa1e8-32b4-471d-9ab1-72d0db7092c4"},"vehicle_type_id":"4","last_reported":1733396919,"current_range_meters":34000,"station_id":"ce4bhm92rcd13ifvqglg","pricing_plan_id":"cebpf4jnsgd1na2vs0mg"},{"bike_id":"dd441963-6bac-4718-862a-9d8c0eaced30","system_id":"levelo_inurba_marseille","lat":43.31309,"lon":5.39671,"is_reserved":false,"is_disabled":false,"rental_uris":{"android":"levelo://app?vid=dd441963-6bac-4718-862a-9d8c0eaced30","ios":"levelo://app?vid=dd441963-6bac-4718-862a-9d8c0eaced30"},"vehicle_type_id":"4","last_reported":1733396919,"current_range_meters":16400,"station_id":"ce4bgvp2rcd13ifvqcu0","pricing_plan_id":"cebpf4jnsgd1na2vs0mg"},{"bike_id":"df479c2c-35ac-44ad-b9d6-81c89ed769ce","system_id":"levelo_inurba_marseille","lat":43.29699,"lon":5.37054,"is_reserved":false,"is_disabled":true,"rental_uris":{"android":"levelo://app?vid=df479c2c-35ac-44ad-b9d6-81c89ed769ce","ios":"levelo://app?vid=df479c2c-35ac-44ad-b9d6-81c89ed769ce"},"vehicle_type_id":"4","last_reported":1733396919,"current_range_meters":0,"station_id":"","pricing_plan_id":"cebpf4jnsgd1na2vs0mg"},{"bike_id":"8e029eaf-e104-4c5d-858d-6cd39de73d09","system_id":"levelo_inurba_marseille","lat":43.24167,"lon":5.36388,"is_reserved":false,"is_disabled":false,"rental_uris":{"android":"levelo://app?vid=8e029eaf-e104-4c5d-858d-6cd39de73d09","ios":"levelo://app?vid=8e029eaf-e104-4c5d-858d-6cd39de73d09"},"vehicle_type_id":"4","last_reported":1733396919,"current_range_meters":6800,"station_id":"cpo36qri1sfpv3e86is0","pricing_plan_id":"cebpf4jnsgd1na2vs0mg"},{"bike_id":"e00b4e6b-695c-49c1-a7d5-b6b0ae9c113e","system_id":"levelo_inurba_marseille","lat":43.2731,"lon":5.39087,"is_reserved":false,"is_disabled":false,"rental_uris":{"android":"levelo://app?vid=e00b4e6b-695c-49c1-a7d5-b6b0ae9c113e","ios":"levelo://app?vid=e00b4e6b-695c-49c1-a7d5-b6b0ae9c113e"},"vehicle_type_id":"4","last_reported":1733396919,"current_range_meters":35600,"station_id":"ce4bhgp2rcd13ifvqfe0","pricing_plan_id":"cebpf4jnsgd1na2vs0mg"},{"bike_id":"f7f1177a-9fa2-4c01-9bd7-56528650247f","system_id":"levelo_inurba_marseille","lat":43.26552,"lon":5.37286,"is_reserved":false,"is_disabled":false,"rental_uris":{"android":"levelo://app?vid=f7f1177a-9fa2-4c01-9bd7-56528650247f","ios":"levelo://app?vid=f7f1177a-9fa2-4c01-9bd7-56528650247f"},"vehicle_type_id":"4","last_reported":1733396919,"current_range_meters":11200,"station_id":"ce4bhg12rcd13ifvqf70","pricing_plan_id":"cebpf4jnsgd1na2vs0mg"},{"bike_id":"b03a6a4e-535b-4e1a-a28b-ae3d5f12709c","system_id":"levelo_inurba_marseille","lat":43.30503,"lon":5.39078,"is_reserved":false,"is_disabled":false,"rental_uris":{"android":"levelo://app?vid=b03a6a4e-535b-4e1a-a28b-ae3d5f12709c","ios":"levelo://app?vid=b03a6a4e-535b-4e1a-a28b-ae3d5f12709c"},"vehicle_type_id":"4","last_reported":1733396919,"current_range_meters":16400,"station_id":"","pricing_plan_id":"cebpf4jnsgd1na2vs0mg"},{"bike_id":"be407bbe-d1ce-48de-8db2-09114af9efd7","system_id":"levelo_inurba_marseille","lat":43.3236,"lon":5.36758,"is_reserved":false,"is_disabled":false,"rental_uris":{"android":"levelo://app?vid=be407bbe-d1ce-48de-8db2-09114af9efd7","ios":"levelo://app?vid=be407bbe-d1ce-48de-8db2-09114af9efd7"},"vehicle_type_id":"4","last_reported":1733396919,"current_range_meters":29600,"station_id":"ce4bhsh2rcd13ifvqi2g","pricing_plan_id":"cebpf4jnsgd1na2vs0mg"},{"bike_id":"6e9419b7-ce6d-4c9c-abdc-b6e4707d4576","system_id":"levelo_inurba_marseille","lat":43.25934,"lon":5.4091,"is_reserved":false,"is_disabled":false,"rental_uris":{"android":"levelo://app?vid=6e9419b7-ce6d-4c9c-abdc-b6e4707d4576","ios":"levelo://app?vid=6e9419b7-ce6d-4c9c-abdc-b6e4707d4576"},"vehicle_type_id":"4","last_reported":1733396919,"current_range_meters":38800,"station_id":"ce4bhm92rcd13ifvqglg","pricing_plan_id":"cebpf4jnsgd1na2vs0mg"},{"bike_id":"f3bad640-db68-47b8-8f51-4546567c6911","system_id":"levelo_inurba_marseille","lat":43.25929,"lon":5.40882,"is_reserved":false,"is_disabled":false,"rental_uris":{"android":"levelo://app?vid=f3bad640-db68-47b8-8f51-4546567c6911","ios":"levelo://app?vid=f3bad640-db68-47b8-8f51-4546567c6911"},"vehicle_type_id":"4","last_reported":1733396919,"current_range_meters":16400,"station_id":"ce4bhm92rcd13ifvqglg","pricing_plan_id":"cebpf4jnsgd1na2vs0mg"},{"bike_id":"68f678e3-7cf8-437b-bd31-a925eeae1553","system_id":"levelo_inurba_marseille","lat":43.30539,"lon":5.36692,"is_reserved":false,"is_disabled":false,"rental_uris":{"android":"levelo://app?vid=68f678e3-7cf8-437b-bd31-a925eeae1553","ios":"levelo://app?vid=68f678e3-7cf8-437b-bd31-a925eeae1553"},"vehicle_type_id":"4","last_reported":1733396919,"current_range_meters":38800,"station_id":"ce4bgrp2rcd13ifvqc9g","pricing_plan_id":"cebpf4jnsgd1na2vs0mg"},{"bike_id":"8bd642b2-0279-44c7-9ee2-fc3b57332c83","system_id":"levelo_inurba_marseille","lat":43.27455,"lon":5.40073,"is_reserved":false,"is_disabled":true,"rental_uris":{"android":"levelo://app?vid=8bd642b2-0279-44c7-9ee2-fc3b57332c83","ios":"levelo://app?vid=8bd642b2-0279-44c7-9ee2-fc3b57332c83"},"vehicle_type_id":"4","last_reported":1733396919,"current_range_meters":0,"station_id":"","pricing_plan_id":"cebpf4jnsgd1na2vs0mg"},{"bike_id":"fbe7acd7-7c4b-4aaf-8fff-9b780d71cee0","system_id":"levelo_inurba_marseille","lat":43.25726,"lon":5.41118,"is_reserved":false,"is_disabled":false,"rental_uris":{"android":"levelo://app?vid=fbe7acd7-7c4b-4aaf-8fff-9b780d71cee0","ios":"levelo://app?vid=fbe7acd7-7c4b-4aaf-8fff-9b780d71cee0"},"vehicle_type_id":"4","last_reported":1733396919,"current_range_meters":38400,"station_id":"ce4bhkp2rcd13ifvqgd0","pricing_plan_id":"cebpf4jnsgd1na2vs0mg"},{"bike_id":"44ac1369-b1ce-4ecb-b751-50b3b3b010cf","system_id":"levelo_inurba_marseille","lat":43.29579,"lon":5.36744,"is_reserved":false,"is_disabled":false,"rental_uris":{"android":"levelo://app?vid=44ac1369-b1ce-4ecb-b751-50b3b3b010cf","ios":"levelo://app?vid=44ac1369-b1ce-4ecb-b751-50b3b3b010cf"},"vehicle_type_id":"4","last_reported":1733396919,"current_range_meters":38000,"station_id":"ce4bgph2rcd13ifvqc2g","pricing_plan_id":"cebpf4jnsgd1na2vs0mg"},{"bike_id":"8bbcdd79-5778-429d-a122-261540288044","system_id":"levelo_inurba_marseille","lat":43.29371,"lon":5.37838,"is_reserved":false,"is_disabled":false,"rental_uris":{"android":"levelo://app?vid=8bbcdd79-5778-429d-a122-261540288044","ios":"levelo://app?vid=8bbcdd79-5778-429d-a122-261540288044"},"vehicle_type_id":"4","last_reported":1733396919,"current_range_meters":35200,"station_id":"ce4bgjh2rcd13ifvqbf0","pricing_plan_id":"cebpf4jnsgd1na2vs0mg"},{"bike_id":"53220da6-87cf-42af-ad72-d41216f5f0d3","system_id":"levelo_inurba_marseille","lat":43.25575,"lon":5.38238,"is_reserved":false,"is_disabled":false,"rental_uris":{"android":"levelo://app?vid=53220da6-87cf-42af-ad72-d41216f5f0d3","ios":"levelo://app?vid=53220da6-87cf-42af-ad72-d41216f5f0d3"},"vehicle_type_id":"4","last_reported":1733396919,"current_range_meters":3600,"station_id":"ce4bhih2rcd13ifvqfs0","pricing_plan_id":"cebpf4jnsgd1na2vs0mg"},{"bike_id":"a18b4934-8c0c-4c61-b008-883eebb45560","system_id":"levelo_inurba_marseille","lat":43.23183,"lon":5.39995,"is_reserved":false,"is_disabled":false,"rental_uris":{"android":"levelo://app?vid=a18b4934-8c0c-4c61-b008-883eebb45560","ios":"levelo://app?vid=a18b4934-8c0c-4c61-b008-883eebb45560"},"vehicle_type_id":"4","last_reported":1733396919,"current_range_meters":39200,"station_id":"ce4bhn12rcd13ifvqgqg","pricing_plan_id":"cebpf4jnsgd1na2vs0mg"},{"bike_id":"f67dfab3-abcc-4688-bfd7-4284bf8c7187","system_id":"levelo_inurba_marseille","lat":43.3302,"lon":5.39045,"is_reserved":false,"is_disabled":true,"rental_uris":{"android":"levelo://app?vid=f67dfab3-abcc-4688-bfd7-4284bf8c7187","ios":"levelo://app?vid=f67dfab3-abcc-4688-bfd7-4284bf8c7187"},"vehicle_type_id":"4","last_reported":1733396919,"current_range_meters":0,"station_id":"ce4bhr92rcd13ifvqhrg","pricing_plan_id":"cebpf4jnsgd1na2vs0mg"},{"bike_id":"c4d17eb9-9a55-41ad-bf61-8b3bf09f3e9e","system_id":"levelo_inurba_marseille","lat":43.29531,"lon":5.38534,"is_reserved":false,"is_disabled":false,"rental_uris":{"android":"levelo://app?vid=c4d17eb9-9a55-41ad-bf61-8b3bf09f3e9e","ios":"levelo://app?vid=c4d17eb9-9a55-41ad-bf61-8b3bf09f3e9e"},"vehicle_type_id":"4","last_reported":1733396919,"current_range_meters":19200,"station_id":"ce4bgih2rcd13ifvqba0","pricing_plan_id":"cebpf4jnsgd1na2vs0mg"},{"bike_id":"875edb3f-0cc6-400b-9aaf-4f70120443bd","system_id":"levelo_inurba_marseille","lat":43.28716,"lon":5.4,"is_reserved":false,"is_disabled":false,"rental_uris":{"android":"levelo://app?vid=875edb3f-0cc6-400b-9aaf-4f70120443bd","ios":"levelo://app?vid=875edb3f-0cc6-400b-9aaf-4f70120443bd"},"vehicle_type_id":"4","last_reported":1733396919,"current_range_meters":34800,"station_id":"ce4bho92rcd13ifvqh3g","pricing_plan_id":"cebpf4jnsgd1na2vs0mg"},{"bike_id":"28b52837-d828-49e4-b4be-cfbac010c328","system_id":"levelo_inurba_marseille","lat":43.3372,"lon":5.39191,"is_reserved":false,"is_disabled":false,"rental_uris":{"android":"levelo://app?vid=28b52837-d828-49e4-b4be-cfbac010c328","ios":"levelo://app?vid=28b52837-d828-49e4-b4be-cfbac010c328"},"vehicle_type_id":"4","last_reported":1733396919,"current_range_meters":30400,"station_id":"ce4bhr92rcd13ifvqhsg","pricing_plan_id":"cebpf4jnsgd1na2vs0mg"},{"bike_id":"b3f478ac-3b05-4edf-bdbf-76399090f8e9","system_id":"levelo_inurba_marseille","lat":43.29994,"lon":5.37639,"is_reserved":false,"is_disabled":true,"rental_uris":{"android":"levelo://app?vid=b3f478ac-3b05-4edf-bdbf-76399090f8e9","ios":"levelo://app?vid=b3f478ac-3b05-4edf-bdbf-76399090f8e9"},"vehicle_type_id":"4","last_reported":1733396919,"current_range_meters":0,"station_id":"","pricing_plan_id":"cebpf4jnsgd1na2vs0mg"},{"bike_id":"75c4f34a-89f4-4145-a2e2-7dafbc1cdf90","system_id":"levelo_inurba_marseille","lat":43.29015,"lon":5.37265,"is_reserved":false,"is_disabled":true,"rental_uris":{"android":"levelo://app?vid=75c4f34a-89f4-4145-a2e2-7dafbc1cdf90","ios":"levelo://app?vid=75c4f34a-89f4-4145-a2e2-7dafbc1cdf90"},"vehicle_type_id":"4","last_reported":1733396919,"current_range_meters":0,"station_id":"","pricing_plan_id":"cebpf4jnsgd1na2vs0mg"},{"bike_id":"e8d9fcd3-6c4c-4c2e-a87e-41c5e4dfa6d0","system_id":"levelo_inurba_marseille","lat":43.25438,"lon":5.38158,"is_reserved":false,"is_disabled":true,"rental_uris":{"android":"levelo://app?vid=e8d9fcd3-6c4c-4c2e-a87e-41c5e4dfa6d0","ios":"levelo://app?vid=e8d9fcd3-6c4c-4c2e-a87e-41c5e4dfa6d0"},"vehicle_type_id":"4","last_reported":1733396919,"current_range_meters":0,"station_id":"","pricing_plan_id":"cebpf4jnsgd1na2vs0mg"},{"bike_id":"bc64e626-66ef-4451-bf1f-f67c852467cf","system_id":"levelo_inurba_marseille","lat":43.29898,"lon":5.43651,"is_reserved":false,"is_disabled":false,"rental_uris":{"android":"levelo://app?vid=bc64e626-66ef-4451-bf1f-f67c852467cf","ios":"levelo://app?vid=bc64e626-66ef-4451-bf1f-f67c852467cf"},"vehicle_type_id":"4","last_reported":1733396919,"current_range_meters":34000,"station_id":"ce4bhpp2rcd13ifvqhfg","pricing_plan_id":"cebpf4jnsgd1na2vs0mg"},{"bike_id":"1d234bdb-76d6-4c39-8063-2932f218db83","system_id":"levelo_inurba_marseille","lat":43.31758,"lon":5.39015,"is_reserved":false,"is_disabled":false,"rental_uris":{"android":"levelo://app?vid=1d234bdb-76d6-4c39-8063-2932f218db83","ios":"levelo://app?vid=1d234bdb-76d6-4c39-8063-2932f218db83"},"vehicle_type_id":"4","last_reported":1733396919,"current_range_meters":38800,"station_id":"ce4bhqp2rcd13ifvqhng","pricing_plan_id":"cebpf4jnsgd1na2vs0mg"},{"bike_id":"4a116253-96aa-4bc7-9dd6-fad740af4a82","system_id":"levelo_inurba_marseille","lat":43.30525,"lon":5.37836,"is_reserved":false,"is_disabled":true,"rental_uris":{"android":"levelo://app?vid=4a116253-96aa-4bc7-9dd6-fad740af4a82","ios":"levelo://app?vid=4a116253-96aa-4bc7-9dd6-fad740af4a82"},"vehicle_type_id":"4","last_reported":1733396919,"current_range_meters":17200,"station_id":"","pricing_plan_id":"cebpf4jnsgd1na2vs0mg"},{"bike_id":"47446314-3377-4eeb-ac99-7c7c1d340bea","system_id":"levelo_inurba_marseille","lat":43.27804,"lon":5.40709,"is_reserved":false,"is_disabled":false,"rental_uris":{"android":"levelo://app?vid=47446314-3377-4eeb-ac99-7c7c1d340bea","ios":"levelo://app?vid=47446314-3377-4eeb-ac99-7c7c1d340bea"},"vehicle_type_id":"4","last_reported":1733396919,"current_range_meters":16000,"station_id":"ce4bhnh2rcd13ifvqgtg","pricing_plan_id":"cebpf4jnsgd1na2vs0mg"},{"bike_id":"dc94138a-fb2f-40f9-b0fb-1d0eee682c64","system_id":"levelo_inurba_marseille","lat":43.33022,"lon":5.39044,"is_reserved":false,"is_disabled":false,"rental_uris":{"android":"levelo://app?vid=dc94138a-fb2f-40f9-b0fb-1d0eee682c64","ios":"levelo://app?vid=dc94138a-fb2f-40f9-b0fb-1d0eee682c64"},"vehicle_type_id":"4","last_reported":1733396919,"current_range_meters":27200,"station_id":"ce4bhr92rcd13ifvqhrg","pricing_plan_id":"cebpf4jnsgd1na2vs0mg"},{"bike_id":"ca51e7d4-ea93-4d1c-a552-a92c92a56cd0","system_id":"levelo_inurba_marseille","lat":43.29305,"lon":5.37458,"is_reserved":false,"is_disabled":false,"rental_uris":{"android":"levelo://app?vid=ca51e7d4-ea93-4d1c-a552-a92c92a56cd0","ios":"levelo://app?vid=ca51e7d4-ea93-4d1c-a552-a92c92a56cd0"},"vehicle_type_id":"4","last_reported":1733396919,"current_range_meters":36400,"station_id":"ce4bgi12rcd13ifvqb70","pricing_plan_id":"cebpf4jnsgd1na2vs0mg"},{"bike_id":"b5fd996e-c7d5-4495-9850-f2fe8b4c826e","system_id":"levelo_inurba_marseille","lat":43.30324,"lon":5.4044,"is_reserved":false,"is_disabled":false,"rental_uris":{"android":"levelo://app?vid=b5fd996e-c7d5-4495-9850-f2fe8b4c826e","ios":"levelo://app?vid=b5fd996e-c7d5-4495-9850-f2fe8b4c826e"},"vehicle_type_id":"4","last_reported":1733396919,"current_range_meters":6800,"station_id":"ce4bh012rcd13ifvqd10","pricing_plan_id":"cebpf4jnsgd1na2vs0mg"},{"bike_id":"cf666068-9b42-41f3-be35-2f169862fe36","system_id":"levelo_inurba_marseille","lat":43.28664,"lon":5.36347,"is_reserved":false,"is_disabled":false,"rental_uris":{"android":"levelo://app?vid=cf666068-9b42-41f3-be35-2f169862fe36","ios":"levelo://app?vid=cf666068-9b42-41f3-be35-2f169862fe36"},"vehicle_type_id":"4","last_reported":1733396919,"current_range_meters":7200,"station_id":"ce4bhah2rcd13ifvqej0","pricing_plan_id":"cebpf4jnsgd1na2vs0mg"},{"bike_id":"132970a3-ee02-48dc-a0cb-b3140e3325a4","system_id":"levelo_inurba_marseille","lat":43.26677,"lon":5.38267,"is_reserved":false,"is_disabled":false,"rental_uris":{"android":"levelo://app?vid=132970a3-ee02-48dc-a0cb-b3140e3325a4","ios":"levelo://app?vid=132970a3-ee02-48dc-a0cb-b3140e3325a4"},"vehicle_type_id":"4","last_reported":1733396919,"current_range_meters":38000,"station_id":"ce4bhg92rcd13ifvqf90","pricing_plan_id":"cebpf4jnsgd1na2vs0mg"},{"bike_id":"2f3968e7-9336-4ee4-ba78-8e92c0a818cc","system_id":"levelo_inurba_marseille","lat":43.31322,"lon":5.36647,"is_reserved":false,"is_disabled":true,"rental_uris":{"android":"levelo://app?vid=2f3968e7-9336-4ee4-ba78-8e92c0a818cc","ios":"levelo://app?vid=2f3968e7-9336-4ee4-ba78-8e92c0a818cc"},"vehicle_type_id":"4","last_reported":1733396919,"current_range_meters":0,"station_id":"","pricing_plan_id":"cebpf4jnsgd1na2vs0mg"},{"bike_id":"392acfb8-a8f5-4a80-bdb7-a743effd93d0","system_id":"levelo_inurba_marseille","lat":43.28364,"lon":5.38638,"is_reserved":false,"is_disabled":false,"rental_uris":{"android":"levelo://app?vid=392acfb8-a8f5-4a80-bdb7-a743effd93d0","ios":"levelo://app?vid=392acfb8-a8f5-4a80-bdb7-a743effd93d0"},"vehicle_type_id":"4","last_reported":1733396919,"current_range_meters":38000,"station_id":"ce4bh492rcd13ifvqdvg","pricing_plan_id":"cebpf4jnsgd1na2vs0mg"},{"bike_id":"16bea42d-3248-41fd-8b51-39fb3d7ec2c4","system_id":"levelo_inurba_marseille","lat":43.26471,"lon":5.38525,"is_reserved":false,"is_disabled":true,"rental_uris":{"android":"levelo://app?vid=16bea42d-3248-41fd-8b51-39fb3d7ec2c4","ios":"levelo://app?vid=16bea42d-3248-41fd-8b51-39fb3d7ec2c4"},"vehicle_type_id":"4","last_reported":1733396919,"current_range_meters":0,"station_id":"","pricing_plan_id":"cebpf4jnsgd1na2vs0mg"},{"bike_id":"fefed06f-f77c-4003-83aa-4b7097b9e66e","system_id":"levelo_inurba_marseille","lat":43.25561,"lon":5.40982,"is_reserved":false,"is_disabled":false,"rental_uris":{"android":"levelo://app?vid=fefed06f-f77c-4003-83aa-4b7097b9e66e","ios":"levelo://app?vid=fefed06f-f77c-4003-83aa-4b7097b9e66e"},"vehicle_type_id":"4","last_reported":1733396919,"current_range_meters":24800,"station_id":"","pricing_plan_id":"cebpf4jnsgd1na2vs0mg"},{"bike_id":"14c8cecf-60f8-4fdd-88dc-c5504b8bfb52","system_id":"levelo_inurba_marseille","lat":43.2318,"lon":5.39997,"is_reserved":false,"is_disabled":false,"rental_uris":{"android":"levelo://app?vid=14c8cecf-60f8-4fdd-88dc-c5504b8bfb52","ios":"levelo://app?vid=14c8cecf-60f8-4fdd-88dc-c5504b8bfb52"},"vehicle_type_id":"4","last_reported":1733396919,"current_range_meters":16400,"station_id":"ce4bhn12rcd13ifvqgqg","pricing_plan_id":"cebpf4jnsgd1na2vs0mg"},{"bike_id":"8b9b896f-9b83-4678-94f1-dcfa69832afa","system_id":"levelo_inurba_marseille","lat":43.28276,"lon":5.35059,"is_reserved":false,"is_disabled":true,"rental_uris":{"android":"levelo://app?vid=8b9b896f-9b83-4678-94f1-dcfa69832afa","ios":"levelo://app?vid=8b9b896f-9b83-4678-94f1-dcfa69832afa"},"vehicle_type_id":"4","last_reported":1733396919,"current_range_meters":1600,"station_id":"ce4bhbp2rcd13ifvqerg","pricing_plan_id":"cebpf4jnsgd1na2vs0mg"},{"bike_id":"9116fdca-0b1c-4e4c-897c-9bed1cd50a98","system_id":"levelo_inurba_marseille","lat":43.29793,"lon":5.38111,"is_reserved":false,"is_disabled":false,"rental_uris":{"android":"levelo://app?vid=9116fdca-0b1c-4e4c-897c-9bed1cd50a98","ios":"levelo://app?vid=9116fdca-0b1c-4e4c-897c-9bed1cd50a98"},"vehicle_type_id":"4","last_reported":1733396919,"current_range_meters":6000,"station_id":"ce4bgip2rcd13ifvqbb0","pricing_plan_id":"cebpf4jnsgd1na2vs0mg"},{"bike_id":"45dccfb4-da9a-43dc-a7bb-e832ca0b7df8","system_id":"levelo_inurba_marseille","lat":43.28359,"lon":5.38645,"is_reserved":false,"is_disabled":false,"rental_uris":{"android":"levelo://app?vid=45dccfb4-da9a-43dc-a7bb-e832ca0b7df8","ios":"levelo://app?vid=45dccfb4-da9a-43dc-a7bb-e832ca0b7df8"},"vehicle_type_id":"4","last_reported":1733396919,"current_range_meters":22400,"station_id":"ce4bh492rcd13ifvqdvg","pricing_plan_id":"cebpf4jnsgd1na2vs0mg"},{"bike_id":"8bdf2770-cfec-4eeb-aa46-5fb5dc1f9870","system_id":"levelo_inurba_marseille","lat":43.33023,"lon":5.39039,"is_reserved":false,"is_disabled":false,"rental_uris":{"android":"levelo://app?vid=8bdf2770-cfec-4eeb-aa46-5fb5dc1f9870","ios":"levelo://app?vid=8bdf2770-cfec-4eeb-aa46-5fb5dc1f9870"},"vehicle_type_id":"4","last_reported":1733396919,"current_range_meters":20400,"station_id":"ce4bhr92rcd13ifvqhrg","pricing_plan_id":"cebpf4jnsgd1na2vs0mg"},{"bike_id":"da9cfd76-5796-4c48-8486-043fb1d4045d","system_id":"levelo_inurba_marseille","lat":43.27062,"lon":5.40258,"is_reserved":false,"is_disabled":false,"rental_uris":{"android":"levelo://app?vid=da9cfd76-5796-4c48-8486-043fb1d4045d","ios":"levelo://app?vid=da9cfd76-5796-4c48-8486-043fb1d4045d"},"vehicle_type_id":"4","last_reported":1733396919,"current_range_meters":38800,"station_id":"ce4bhk92rcd13ifvqgc0","pricing_plan_id":"cebpf4jnsgd1na2vs0mg"},{"bike_id":"b0025f03-f4b7-4e1f-b2ae-d738bfb01f75","system_id":"levelo_inurba_marseille","lat":43.31757,"lon":5.39025,"is_reserved":false,"is_disabled":true,"rental_uris":{"android":"levelo://app?vid=b0025f03-f4b7-4e1f-b2ae-d738bfb01f75","ios":"levelo://app?vid=b0025f03-f4b7-4e1f-b2ae-d738bfb01f75"},"vehicle_type_id":"4","last_reported":1733396919,"current_range_meters":37600,"station_id":"ce4bhqp2rcd13ifvqhng","pricing_plan_id":"cebpf4jnsgd1na2vs0mg"},{"bike_id":"347da06d-1b0d-44af-aa9c-f125143865c1","system_id":"levelo_inurba_marseille","lat":43.28379,"lon":5.38622,"is_reserved":false,"is_disabled":false,"rental_uris":{"android":"levelo://app?vid=347da06d-1b0d-44af-aa9c-f125143865c1","ios":"levelo://app?vid=347da06d-1b0d-44af-aa9c-f125143865c1"},"vehicle_type_id":"4","last_reported":1733396919,"current_range_meters":32400,"station_id":"ce4bh492rcd13ifvqdvg","pricing_plan_id":"cebpf4jnsgd1na2vs0mg"},{"bike_id":"739d7ee5-0ce2-46dd-b97b-05f0ab956703","system_id":"levelo_inurba_marseille","lat":43.28363,"lon":5.38631,"is_reserved":false,"is_disabled":false,"rental_uris":{"android":"levelo://app?vid=739d7ee5-0ce2-46dd-b97b-05f0ab956703","ios":"levelo://app?vid=739d7ee5-0ce2-46dd-b97b-05f0ab956703"},"vehicle_type_id":"4","last_reported":1733396919,"current_range_meters":34000,"station_id":"ce4bh492rcd13ifvqdvg","pricing_plan_id":"cebpf4jnsgd1na2vs0mg"},{"bike_id":"5a50557a-331c-47f8-82cc-e12807c908db","system_id":"levelo_inurba_marseille","lat":43.33022,"lon":5.39039,"is_reserved":false,"is_disabled":false,"rental_uris":{"android":"levelo://app?vid=5a50557a-331c-47f8-82cc-e12807c908db","ios":"levelo://app?vid=5a50557a-331c-47f8-82cc-e12807c908db"},"vehicle_type_id":"4","last_reported":1733396919,"current_range_meters":38000,"station_id":"ce4bhr92rcd13ifvqhrg","pricing_plan_id":"cebpf4jnsgd1na2vs0mg"},{"bike_id":"f10c5e90-601b-4bd4-87e7-4cbb6a13a4fb","system_id":"levelo_inurba_marseille","lat":43.25566,"lon":5.38234,"is_reserved":false,"is_disabled":false,"rental_uris":{"android":"levelo://app?vid=f10c5e90-601b-4bd4-87e7-4cbb6a13a4fb","ios":"levelo://app?vid=f10c5e90-601b-4bd4-87e7-4cbb6a13a4fb"},"vehicle_type_id":"4","last_reported":1733396919,"current_range_meters":10000,"station_id":"","pricing_plan_id":"cebpf4jnsgd1na2vs0mg"},{"bike_id":"64cef5ac-e0ad-43ec-8d81-ef1e6eb0acd4","system_id":"levelo_inurba_marseille","lat":43.29961,"lon":5.37024,"is_reserved":false,"is_disabled":false,"rental_uris":{"android":"levelo://app?vid=64cef5ac-e0ad-43ec-8d81-ef1e6eb0acd4","ios":"levelo://app?vid=64cef5ac-e0ad-43ec-8d81-ef1e6eb0acd4"},"vehicle_type_id":"4","last_reported":1733396919,"current_range_meters":4400,"station_id":"","pricing_plan_id":"cebpf4jnsgd1na2vs0mg"},{"bike_id":"ef8dccf7-5c02-4648-910c-2c64ce488a65","system_id":"levelo_inurba_marseille","lat":43.281491,"lon":5.427901,"is_reserved":false,"is_disabled":false,"rental_uris":{"android":"levelo://app?vid=ef8dccf7-5c02-4648-910c-2c64ce488a65","ios":"levelo://app?vid=ef8dccf7-5c02-4648-910c-2c64ce488a65"},"vehicle_type_id":"4","last_reported":1733396919,"current_range_meters":7200,"station_id":"","pricing_plan_id":"cebpf4jnsgd1na2vs0mg"},{"bike_id":"afddb0ff-7658-4984-b285-b427f08dacd1","system_id":"levelo_inurba_marseille","lat":43.25109,"lon":5.40323,"is_reserved":false,"is_disabled":false,"rental_uris":{"android":"levelo://app?vid=afddb0ff-7658-4984-b285-b427f08dacd1","ios":"levelo://app?vid=afddb0ff-7658-4984-b285-b427f08dacd1"},"vehicle_type_id":"4","last_reported":1733396919,"current_range_meters":37600,"station_id":"ce4bhlh2rcd13ifvqgig","pricing_plan_id":"cebpf4jnsgd1na2vs0mg"},{"bike_id":"b73386f2-fa04-4fae-98be-ff0e17efea9c","system_id":"levelo_inurba_marseille","lat":43.32364,"lon":5.38882,"is_reserved":false,"is_disabled":false,"rental_uris":{"android":"levelo://app?vid=b73386f2-fa04-4fae-98be-ff0e17efea9c","ios":"levelo://app?vid=b73386f2-fa04-4fae-98be-ff0e17efea9c"},"vehicle_type_id":"4","last_reported":1733396919,"current_range_meters":38000,"station_id":"ce4bhqp2rcd13ifvqhog","pricing_plan_id":"cebpf4jnsgd1na2vs0mg"},{"bike_id":"07f35cef-3c4c-49ff-bbc5-431216a87437","system_id":"levelo_inurba_marseille","lat":43.27323,"lon":5.3907,"is_reserved":false,"is_disabled":true,"rental_uris":{"android":"levelo://app?vid=07f35cef-3c4c-49ff-bbc5-431216a87437","ios":"levelo://app?vid=07f35cef-3c4c-49ff-bbc5-431216a87437"},"vehicle_type_id":"4","last_reported":1733396919,"current_range_meters":1600,"station_id":"ce4bhgp2rcd13ifvqfe0","pricing_plan_id":"cebpf4jnsgd1na2vs0mg"},{"bike_id":"734d07dc-217f-41dd-93a2-1bef235667d0","system_id":"levelo_inurba_marseille","lat":43.24392,"lon":5.37063,"is_reserved":false,"is_disabled":false,"rental_uris":{"android":"levelo://app?vid=734d07dc-217f-41dd-93a2-1bef235667d0","ios":"levelo://app?vid=734d07dc-217f-41dd-93a2-1bef235667d0"},"vehicle_type_id":"4","last_reported":1733396919,"current_range_meters":6400,"station_id":"ce4bhhh2rcd13ifvqfk0","pricing_plan_id":"cebpf4jnsgd1na2vs0mg"},{"bike_id":"a7d90be5-9317-4bf9-9969-de0138044c30","system_id":"levelo_inurba_marseille","lat":43.24648,"lon":5.38891,"is_reserved":false,"is_disabled":false,"rental_uris":{"android":"levelo://app?vid=a7d90be5-9317-4bf9-9969-de0138044c30","ios":"levelo://app?vid=a7d90be5-9317-4bf9-9969-de0138044c30"},"vehicle_type_id":"4","last_reported":1733396919,"current_range_meters":19600,"station_id":"ce4bhg12rcd13ifvqf60","pricing_plan_id":"cebpf4jnsgd1na2vs0mg"},{"bike_id":"ede4c35b-2e79-4dbf-bb31-8b4997e84294","system_id":"levelo_inurba_marseille","lat":43.28843,"lon":5.39336,"is_reserved":false,"is_disabled":false,"rental_uris":{"android":"levelo://app?vid=ede4c35b-2e79-4dbf-bb31-8b4997e84294","ios":"levelo://app?vid=ede4c35b-2e79-4dbf-bb31-8b4997e84294"},"vehicle_type_id":"4","last_reported":1733396919,"current_range_meters":2800,"station_id":"ce4bh2p2rcd13ifvqdi0","pricing_plan_id":"cebpf4jnsgd1na2vs0mg"},{"bike_id":"bf2563f8-c620-4ec7-801a-2226ce3b7e46","system_id":"levelo_inurba_marseille","lat":43.2721,"lon":5.39189,"is_reserved":false,"is_disabled":false,"rental_uris":{"android":"levelo://app?vid=bf2563f8-c620-4ec7-801a-2226ce3b7e46","ios":"levelo://app?vid=bf2563f8-c620-4ec7-801a-2226ce3b7e46"},"vehicle_type_id":"4","last_reported":1733396919,"current_range_meters":32400,"station_id":"ce4bhhp2rcd13ifvqfm0","pricing_plan_id":"cebpf4jnsgd1na2vs0mg"},{"bike_id":"6f535613-23eb-45cf-bab8-06df9b7116b0","system_id":"levelo_inurba_marseille","lat":43.30525,"lon":5.36696,"is_reserved":false,"is_disabled":false,"rental_uris":{"android":"levelo://app?vid=6f535613-23eb-45cf-bab8-06df9b7116b0","ios":"levelo://app?vid=6f535613-23eb-45cf-bab8-06df9b7116b0"},"vehicle_type_id":"4","last_reported":1733396919,"current_range_meters":18000,"station_id":"ce4bgrp2rcd13ifvqc9g","pricing_plan_id":"cebpf4jnsgd1na2vs0mg"},{"bike_id":"cdfe6590-4984-4014-86c8-6dd70747c27a","system_id":"levelo_inurba_marseille","lat":43.29737,"lon":5.37434,"is_reserved":false,"is_disabled":true,"rental_uris":{"android":"levelo://app?vid=cdfe6590-4984-4014-86c8-6dd70747c27a","ios":"levelo://app?vid=cdfe6590-4984-4014-86c8-6dd70747c27a"},"vehicle_type_id":"4","last_reported":1733396919,"current_range_meters":0,"station_id":"","pricing_plan_id":"cebpf4jnsgd1na2vs0mg"},{"bike_id":"9309313e-316d-4707-816e-67df9a39a867","system_id":"levelo_inurba_marseille","lat":43.28943,"lon":5.36402,"is_reserved":false,"is_disabled":true,"rental_uris":{"android":"levelo://app?vid=9309313e-316d-4707-816e-67df9a39a867","ios":"levelo://app?vid=9309313e-316d-4707-816e-67df9a39a867"},"vehicle_type_id":"4","last_reported":1733396919,"current_range_meters":4800,"station_id":"ce4bhc92rcd13ifvqetg","pricing_plan_id":"cebpf4jnsgd1na2vs0mg"},{"bike_id":"c8b81c10-68ef-4f12-b188-70bd6f7d0025","system_id":"levelo_inurba_marseille","lat":43.27809,"lon":5.40711,"is_reserved":false,"is_disabled":false,"rental_uris":{"android":"levelo://app?vid=c8b81c10-68ef-4f12-b188-70bd6f7d0025","ios":"levelo://app?vid=c8b81c10-68ef-4f12-b188-70bd6f7d0025"},"vehicle_type_id":"4","last_reported":1733396919,"current_range_meters":33600,"station_id":"ce4bhnh2rcd13ifvqgtg","pricing_plan_id":"cebpf4jnsgd1na2vs0mg"},{"bike_id":"a658e8ef-25ae-4361-8989-08c77b9cbfa3","system_id":"levelo_inurba_marseille","lat":43.29017,"lon":5.38135,"is_reserved":false,"is_disabled":false,"rental_uris":{"android":"levelo://app?vid=a658e8ef-25ae-4361-8989-08c77b9cbfa3","ios":"levelo://app?vid=a658e8ef-25ae-4361-8989-08c77b9cbfa3"},"vehicle_type_id":"4","last_reported":1733396919,"current_range_meters":4000,"station_id":"ce4bh4p2rcd13ifvqe1g","pricing_plan_id":"cebpf4jnsgd1na2vs0mg"},{"bike_id":"987a5ab4-d60c-480c-94b6-7cab38975402","system_id":"levelo_inurba_marseille","lat":43.29748,"lon":5.37971,"is_reserved":false,"is_disabled":true,"rental_uris":{"android":"levelo://app?vid=987a5ab4-d60c-480c-94b6-7cab38975402","ios":"levelo://app?vid=987a5ab4-d60c-480c-94b6-7cab38975402"},"vehicle_type_id":"4","last_reported":1733396919,"current_range_meters":0,"station_id":"","pricing_plan_id":"cebpf4jnsgd1na2vs0mg"},{"bike_id":"2c4596ad-0ad9-4016-b92b-0093349de2b4","system_id":"levelo_inurba_marseille","lat":43.30755,"lon":5.38187,"is_reserved":false,"is_disabled":true,"rental_uris":{"android":"levelo://app?vid=2c4596ad-0ad9-4016-b92b-0093349de2b4","ios":"levelo://app?vid=2c4596ad-0ad9-4016-b92b-0093349de2b4"},"vehicle_type_id":"4","last_reported":1733396919,"current_range_meters":0,"station_id":"","pricing_plan_id":"cebpf4jnsgd1na2vs0mg"},{"bike_id":"00221bb3-43f4-4b93-97f7-7c625e48c6c0","system_id":"levelo_inurba_marseille","lat":43.25931,"lon":5.40912,"is_reserved":false,"is_disabled":false,"rental_uris":{"android":"levelo://app?vid=00221bb3-43f4-4b93-97f7-7c625e48c6c0","ios":"levelo://app?vid=00221bb3-43f4-4b93-97f7-7c625e48c6c0"},"vehicle_type_id":"4","last_reported":1733396919,"current_range_meters":35200,"station_id":"ce4bhm92rcd13ifvqglg","pricing_plan_id":"cebpf4jnsgd1na2vs0mg"},{"bike_id":"5544309e-e924-4299-beb3-abe2f7f10a51","system_id":"levelo_inurba_marseille","lat":43.30821,"lon":5.38132,"is_reserved":false,"is_disabled":true,"rental_uris":{"android":"levelo://app?vid=5544309e-e924-4299-beb3-abe2f7f10a51","ios":"levelo://app?vid=5544309e-e924-4299-beb3-abe2f7f10a51"},"vehicle_type_id":"4","last_reported":1733396919,"current_range_meters":38800,"station_id":"ce4bgt12rcd13ifvqce0","pricing_plan_id":"cebpf4jnsgd1na2vs0mg"},{"bike_id":"b7ab8c01-033f-4395-8276-23c850ad3d02","system_id":"levelo_inurba_marseille","lat":43.30348,"lon":5.36626,"is_reserved":false,"is_disabled":true,"rental_uris":{"android":"levelo://app?vid=b7ab8c01-033f-4395-8276-23c850ad3d02","ios":"levelo://app?vid=b7ab8c01-033f-4395-8276-23c850ad3d02"},"vehicle_type_id":"4","last_reported":1733396919,"current_range_meters":0,"station_id":"","pricing_plan_id":"cebpf4jnsgd1na2vs0mg"},{"bike_id":"9af467f5-837b-4396-a718-83ffe6577be8","system_id":"levelo_inurba_marseille","lat":43.25003,"lon":5.3893,"is_reserved":false,"is_disabled":false,"rental_uris":{"android":"levelo://app?vid=9af467f5-837b-4396-a718-83ffe6577be8","ios":"levelo://app?vid=9af467f5-837b-4396-a718-83ffe6577be8"},"vehicle_type_id":"4","last_reported":1733396919,"current_range_meters":39200,"station_id":"ce4bhgp2rcd13ifvqfd0","pricing_plan_id":"cebpf4jnsgd1na2vs0mg"},{"bike_id":"6b747444-14ad-4451-b70e-ce597046cb6c","system_id":"levelo_inurba_marseille","lat":43.26933,"lon":5.38916,"is_reserved":false,"is_disabled":false,"rental_uris":{"android":"levelo://app?vid=6b747444-14ad-4451-b70e-ce597046cb6c","ios":"levelo://app?vid=6b747444-14ad-4451-b70e-ce597046cb6c"},"vehicle_type_id":"4","last_reported":1733396919,"current_range_meters":34000,"station_id":"ce4bhhh2rcd13ifvqfl0","pricing_plan_id":"cebpf4jnsgd1na2vs0mg"},{"bike_id":"19d2ce59-2b75-48a1-9810-172e15ca151e","system_id":"levelo_inurba_marseille","lat":43.23189,"lon":5.35544,"is_reserved":false,"is_disabled":false,"rental_uris":{"android":"levelo://app?vid=19d2ce59-2b75-48a1-9810-172e15ca151e","ios":"levelo://app?vid=19d2ce59-2b75-48a1-9810-172e15ca151e"},"vehicle_type_id":"4","last_reported":1733396919,"current_range_meters":38800,"station_id":"ce4bhu92rcd13ifvqi70","pricing_plan_id":"cebpf4jnsgd1na2vs0mg"},{"bike_id":"b84d2d3b-ab3d-4dda-8a58-385c6d50e0eb","system_id":"levelo_inurba_marseille","lat":43.24805,"lon":5.3746,"is_reserved":false,"is_disabled":false,"rental_uris":{"android":"levelo://app?vid=b84d2d3b-ab3d-4dda-8a58-385c6d50e0eb","ios":"levelo://app?vid=b84d2d3b-ab3d-4dda-8a58-385c6d50e0eb"},"vehicle_type_id":"4","last_reported":1733396919,"current_range_meters":36800,"station_id":"ce4bhgh2rcd13ifvqfb0","pricing_plan_id":"cebpf4jnsgd1na2vs0mg"},{"bike_id":"7626d005-27f3-49c9-935c-bc442937a561","system_id":"levelo_inurba_marseille","lat":43.29087,"lon":5.38131,"is_reserved":false,"is_disabled":false,"rental_uris":{"android":"levelo://app?vid=7626d005-27f3-49c9-935c-bc442937a561","ios":"levelo://app?vid=7626d005-27f3-49c9-935c-bc442937a561"},"vehicle_type_id":"4","last_reported":1733396919,"current_range_meters":16400,"station_id":"ce4bh512rcd13ifvqe2g","pricing_plan_id":"cebpf4jnsgd1na2vs0mg"},{"bike_id":"6cc6805f-c0ca-4585-bdf1-b5a0339762b0","system_id":"levelo_inurba_marseille","lat":43.29015,"lon":5.42804,"is_reserved":false,"is_disabled":true,"rental_uris":{"android":"levelo://app?vid=6cc6805f-c0ca-4585-bdf1-b5a0339762b0","ios":"levelo://app?vid=6cc6805f-c0ca-4585-bdf1-b5a0339762b0"},"vehicle_type_id":"4","last_reported":1733396919,"current_range_meters":0,"station_id":"","pricing_plan_id":"cebpf4jnsgd1na2vs0mg"},{"bike_id":"0bfb3d4e-359d-4927-881b-5e84aa873cc8","system_id":"levelo_inurba_marseille","lat":43.32354,"lon":5.3676,"is_reserved":false,"is_disabled":false,"rental_uris":{"android":"levelo://app?vid=0bfb3d4e-359d-4927-881b-5e84aa873cc8","ios":"levelo://app?vid=0bfb3d4e-359d-4927-881b-5e84aa873cc8"},"vehicle_type_id":"4","last_reported":1733396919,"current_range_meters":14800,"station_id":"ce4bhsh2rcd13ifvqi2g","pricing_plan_id":"cebpf4jnsgd1na2vs0mg"},{"bike_id":"8d1c8b92-79bb-4181-b0d2-5e94db1a14d0","system_id":"levelo_inurba_marseille","lat":43.300115,"lon":5.382636,"is_reserved":false,"is_disabled":true,"rental_uris":{"android":"levelo://app?vid=8d1c8b92-79bb-4181-b0d2-5e94db1a14d0","ios":"levelo://app?vid=8d1c8b92-79bb-4181-b0d2-5e94db1a14d0"},"vehicle_type_id":"4","last_reported":1733396919,"current_range_meters":0,"station_id":"","pricing_plan_id":"cebpf4jnsgd1na2vs0mg"},{"bike_id":"86b9cc02-8d82-43a4-a6c9-ecb1ce163816","system_id":"levelo_inurba_marseille","lat":43.29205,"lon":5.39318,"is_reserved":false,"is_disabled":false,"rental_uris":{"android":"levelo://app?vid=86b9cc02-8d82-43a4-a6c9-ecb1ce163816","ios":"levelo://app?vid=86b9cc02-8d82-43a4-a6c9-ecb1ce163816"},"vehicle_type_id":"4","last_reported":1733396919,"current_range_meters":15200,"station_id":"ce4bh192rcd13ifvqdd0","pricing_plan_id":"cebpf4jnsgd1na2vs0mg"},{"bike_id":"6f0b16fc-b89e-492b-b913-0d7f6f04b518","system_id":"levelo_inurba_marseille","lat":43.30529,"lon":5.36532,"is_reserved":false,"is_disabled":false,"rental_uris":{"android":"levelo://app?vid=6f0b16fc-b89e-492b-b913-0d7f6f04b518","ios":"levelo://app?vid=6f0b16fc-b89e-492b-b913-0d7f6f04b518"},"vehicle_type_id":"4","last_reported":1733396919,"current_range_meters":22800,"station_id":"ce4bgs12rcd13ifvqcag","pricing_plan_id":"cebpf4jnsgd1na2vs0mg"},{"bike_id":"a59d1ed4-5bdf-4f49-8326-a5abff78acf4","system_id":"levelo_inurba_marseille","lat":43.25613,"lon":5.3824,"is_reserved":false,"is_disabled":false,"rental_uris":{"android":"levelo://app?vid=a59d1ed4-5bdf-4f49-8326-a5abff78acf4","ios":"levelo://app?vid=a59d1ed4-5bdf-4f49-8326-a5abff78acf4"},"vehicle_type_id":"4","last_reported":1733396919,"current_range_meters":24000,"station_id":"ce4bhhp2rcd13ifvqfm0","pricing_plan_id":"cebpf4jnsgd1na2vs0mg"},{"bike_id":"7401184e-dcdc-4f69-89e9-1615045c1f8c","system_id":"levelo_inurba_marseille","lat":43.30019,"lon":5.38925,"is_reserved":false,"is_disabled":true,"rental_uris":{"android":"levelo://app?vid=7401184e-dcdc-4f69-89e9-1615045c1f8c","ios":"levelo://app?vid=7401184e-dcdc-4f69-89e9-1615045c1f8c"},"vehicle_type_id":"4","last_reported":1733396919,"current_range_meters":800,"station_id":"","pricing_plan_id":"cebpf4jnsgd1na2vs0mg"},{"bike_id":"623a964c-0919-4298-975f-4b19e91d6307","system_id":"levelo_inurba_marseille","lat":43.29787,"lon":5.38096,"is_reserved":false,"is_disabled":false,"rental_uris":{"android":"levelo://app?vid=623a964c-0919-4298-975f-4b19e91d6307","ios":"levelo://app?vid=623a964c-0919-4298-975f-4b19e91d6307"},"vehicle_type_id":"4","last_reported":1733396919,"current_range_meters":6800,"station_id":"ce4bgip2rcd13ifvqbb0","pricing_plan_id":"cebpf4jnsgd1na2vs0mg"},{"bike_id":"a9e4e6c1-371c-48c2-a3c3-04f2bcfd31a1","system_id":"levelo_inurba_marseille","lat":43.29533,"lon":5.38546,"is_reserved":false,"is_disabled":true,"rental_uris":{"android":"levelo://app?vid=a9e4e6c1-371c-48c2-a3c3-04f2bcfd31a1","ios":"levelo://app?vid=a9e4e6c1-371c-48c2-a3c3-04f2bcfd31a1"},"vehicle_type_id":"4","last_reported":1733396919,"current_range_meters":3600,"station_id":"ce4bgih2rcd13ifvqba0","pricing_plan_id":"cebpf4jnsgd1na2vs0mg"},{"bike_id":"4fa3ab74-b634-42dc-8925-fb95bf053544","system_id":"levelo_inurba_marseille","lat":43.29874,"lon":5.38909,"is_reserved":false,"is_disabled":false,"rental_uris":{"android":"levelo://app?vid=4fa3ab74-b634-42dc-8925-fb95bf053544","ios":"levelo://app?vid=4fa3ab74-b634-42dc-8925-fb95bf053544"},"vehicle_type_id":"4","last_reported":1733396919,"current_range_meters":16800,"station_id":"ce4bh392rcd13ifvqdl0","pricing_plan_id":"cebpf4jnsgd1na2vs0mg"},{"bike_id":"1ca0aca0-4ca4-4bf8-9b1d-054345c3a341","system_id":"levelo_inurba_marseille","lat":43.28887,"lon":5.39996,"is_reserved":false,"is_disabled":false,"rental_uris":{"android":"levelo://app?vid=1ca0aca0-4ca4-4bf8-9b1d-054345c3a341","ios":"levelo://app?vid=1ca0aca0-4ca4-4bf8-9b1d-054345c3a341"},"vehicle_type_id":"4","last_reported":1733396919,"current_range_meters":24400,"station_id":"","pricing_plan_id":"cebpf4jnsgd1na2vs0mg"},{"bike_id":"2123c48b-96e7-4bbd-90d2-3223e5cf78e3","system_id":"levelo_inurba_marseille","lat":43.28572,"lon":5.39495,"is_reserved":false,"is_disabled":false,"rental_uris":{"android":"levelo://app?vid=2123c48b-96e7-4bbd-90d2-3223e5cf78e3","ios":"levelo://app?vid=2123c48b-96e7-4bbd-90d2-3223e5cf78e3"},"vehicle_type_id":"4","last_reported":1733396919,"current_range_meters":22400,"station_id":"ce4bh292rcd13ifvqdg0","pricing_plan_id":"cebpf4jnsgd1na2vs0mg"},{"bike_id":"870c36ea-4962-487a-ac9e-bf4bc7d7730c","system_id":"levelo_inurba_marseille","lat":43.30906,"lon":5.368412,"is_reserved":false,"is_disabled":false,"rental_uris":{"android":"levelo://app?vid=870c36ea-4962-487a-ac9e-bf4bc7d7730c","ios":"levelo://app?vid=870c36ea-4962-487a-ac9e-bf4bc7d7730c"},"vehicle_type_id":"4","last_reported":1733396919,"current_range_meters":23200,"station_id":"ce4bgn92rcd13ifvqbvg","pricing_plan_id":"cebpf4jnsgd1na2vs0mg"},{"bike_id":"1e682d17-8f4b-428d-953a-4aca2c0e0225","system_id":"levelo_inurba_marseille","lat":43.26207,"lon":5.37443,"is_reserved":false,"is_disabled":false,"rental_uris":{"android":"levelo://app?vid=1e682d17-8f4b-428d-953a-4aca2c0e0225","ios":"levelo://app?vid=1e682d17-8f4b-428d-953a-4aca2c0e0225"},"vehicle_type_id":"4","last_reported":1733396919,"current_range_meters":32400,"station_id":"ce4bhgp2rcd13ifvqfc0","pricing_plan_id":"cebpf4jnsgd1na2vs0mg"},{"bike_id":"31e6fc3b-f821-47c0-8265-070531f4b97c","system_id":"levelo_inurba_marseille","lat":43.24179,"lon":5.39726,"is_reserved":false,"is_disabled":false,"rental_uris":{"android":"levelo://app?vid=31e6fc3b-f821-47c0-8265-070531f4b97c","ios":"levelo://app?vid=31e6fc3b-f821-47c0-8265-070531f4b97c"},"vehicle_type_id":"4","last_reported":1733396919,"current_range_meters":35200,"station_id":"ce4bhn12rcd13ifvqgpg","pricing_plan_id":"cebpf4jnsgd1na2vs0mg"},{"bike_id":"2a0730d5-2943-419f-b177-8f5dfd46f81c","system_id":"levelo_inurba_marseille","lat":43.29796,"lon":5.38086,"is_reserved":false,"is_disabled":false,"rental_uris":{"android":"levelo://app?vid=2a0730d5-2943-419f-b177-8f5dfd46f81c","ios":"levelo://app?vid=2a0730d5-2943-419f-b177-8f5dfd46f81c"},"vehicle_type_id":"4","last_reported":1733396919,"current_range_meters":28800,"station_id":"ce4bgip2rcd13ifvqbb0","pricing_plan_id":"cebpf4jnsgd1na2vs0mg"},{"bike_id":"83a51dcf-bdb4-4ba4-9f61-74f143146f25","system_id":"levelo_inurba_marseille","lat":43.29196,"lon":5.35806,"is_reserved":false,"is_disabled":false,"rental_uris":{"android":"levelo://app?vid=83a51dcf-bdb4-4ba4-9f61-74f143146f25","ios":"levelo://app?vid=83a51dcf-bdb4-4ba4-9f61-74f143146f25"},"vehicle_type_id":"4","last_reported":1733396919,"current_range_meters":6800,"station_id":"ce4bhb12rcd13ifvqel0","pricing_plan_id":"cebpf4jnsgd1na2vs0mg"},{"bike_id":"bb6b53dd-4494-4182-a216-6003a45ab165","system_id":"levelo_inurba_marseille","lat":43.25001,"lon":5.38924,"is_reserved":false,"is_disabled":false,"rental_uris":{"android":"levelo://app?vid=bb6b53dd-4494-4182-a216-6003a45ab165","ios":"levelo://app?vid=bb6b53dd-4494-4182-a216-6003a45ab165"},"vehicle_type_id":"4","last_reported":1733396919,"current_range_meters":39200,"station_id":"ce4bhgp2rcd13ifvqfd0","pricing_plan_id":"cebpf4jnsgd1na2vs0mg"},{"bike_id":"9c77a68d-2e99-44e9-b903-950fb6644d35","system_id":"levelo_inurba_marseille","lat":43.25265,"lon":5.39465,"is_reserved":false,"is_disabled":true,"rental_uris":{"android":"levelo://app?vid=9c77a68d-2e99-44e9-b903-950fb6644d35","ios":"levelo://app?vid=9c77a68d-2e99-44e9-b903-950fb6644d35"},"vehicle_type_id":"4","last_reported":1733396919,"current_range_meters":0,"station_id":"","pricing_plan_id":"cebpf4jnsgd1na2vs0mg"},{"bike_id":"00b245b2-5653-47f5-9070-6e24e621ebc1","system_id":"levelo_inurba_marseille","lat":43.29896,"lon":5.43676,"is_reserved":false,"is_disabled":true,"rental_uris":{"android":"levelo://app?vid=00b245b2-5653-47f5-9070-6e24e621ebc1","ios":"levelo://app?vid=00b245b2-5653-47f5-9070-6e24e621ebc1"},"vehicle_type_id":"4","last_reported":1733396919,"current_range_meters":0,"station_id":"ce4bhpp2rcd13ifvqhfg","pricing_plan_id":"cebpf4jnsgd1na2vs0mg"},{"bike_id":"cb38f8ca-3f33-48d2-ad62-3f854dbc3941","system_id":"levelo_inurba_marseille","lat":43.30428,"lon":5.38884,"is_reserved":false,"is_disabled":true,"rental_uris":{"android":"levelo://app?vid=cb38f8ca-3f33-48d2-ad62-3f854dbc3941","ios":"levelo://app?vid=cb38f8ca-3f33-48d2-ad62-3f854dbc3941"},"vehicle_type_id":"4","last_reported":1733396919,"current_range_meters":0,"station_id":"ce4bgk12rcd13ifvqbi0","pricing_plan_id":"cebpf4jnsgd1na2vs0mg"},{"bike_id":"e062c41f-846d-4786-9966-150022463a96","system_id":"levelo_inurba_marseille","lat":43.28942,"lon":5.36629,"is_reserved":false,"is_disabled":true,"rental_uris":{"android":"levelo://app?vid=e062c41f-846d-4786-9966-150022463a96","ios":"levelo://app?vid=e062c41f-846d-4786-9966-150022463a96"},"vehicle_type_id":"4","last_reported":1733396919,"current_range_meters":0,"station_id":"ce4bhap2rcd13ifvqek0","pricing_plan_id":"cebpf4jnsgd1na2vs0mg"},{"bike_id":"a10704c7-b820-4828-8cd4-08b516623f07","system_id":"levelo_inurba_marseille","lat":43.3235,"lon":5.389814,"is_reserved":false,"is_disabled":false,"rental_uris":{"android":"levelo://app?vid=a10704c7-b820-4828-8cd4-08b516623f07","ios":"levelo://app?vid=a10704c7-b820-4828-8cd4-08b516623f07"},"vehicle_type_id":"4","last_reported":1733396919,"current_range_meters":22000,"station_id":"","pricing_plan_id":"cebpf4jnsgd1na2vs0mg"},{"bike_id":"83985555-c848-4b28-808f-8a7e7cf8519e","system_id":"levelo_inurba_marseille","lat":43.28115,"lon":5.43955,"is_reserved":false,"is_disabled":true,"rental_uris":{"android":"levelo://app?vid=83985555-c848-4b28-808f-8a7e7cf8519e","ios":"levelo://app?vid=83985555-c848-4b28-808f-8a7e7cf8519e"},"vehicle_type_id":"4","last_reported":1733396919,"current_range_meters":0,"station_id":"","pricing_plan_id":"cebpf4jnsgd1na2vs0mg"},{"bike_id":"76f22b2b-4267-4978-afb4-a70105660a0f","system_id":"levelo_inurba_marseille","lat":43.31231,"lon":5.36859,"is_reserved":false,"is_disabled":true,"rental_uris":{"android":"levelo://app?vid=76f22b2b-4267-4978-afb4-a70105660a0f","ios":"levelo://app?vid=76f22b2b-4267-4978-afb4-a70105660a0f"},"vehicle_type_id":"4","last_reported":1733396919,"current_range_meters":800,"station_id":"ce4bgl92rcd13ifvqbq0","pricing_plan_id":"cebpf4jnsgd1na2vs0mg"},{"bike_id":"903ec8f1-f4c3-441f-a117-ff7454fcb959","system_id":"levelo_inurba_marseille","lat":43.2946,"lon":5.39445,"is_reserved":false,"is_disabled":true,"rental_uris":{"android":"levelo://app?vid=903ec8f1-f4c3-441f-a117-ff7454fcb959","ios":"levelo://app?vid=903ec8f1-f4c3-441f-a117-ff7454fcb959"},"vehicle_type_id":"4","last_reported":1733396919,"current_range_meters":0,"station_id":"","pricing_plan_id":"cebpf4jnsgd1na2vs0mg"},{"bike_id":"44428cbe-ae33-42af-b9a2-ce2fd1bf640e","system_id":"levelo_inurba_marseille","lat":43.30125,"lon":5.39877,"is_reserved":false,"is_disabled":true,"rental_uris":{"android":"levelo://app?vid=44428cbe-ae33-42af-b9a2-ce2fd1bf640e","ios":"levelo://app?vid=44428cbe-ae33-42af-b9a2-ce2fd1bf640e"},"vehicle_type_id":"4","last_reported":1733396919,"current_range_meters":0,"station_id":"ce4bh0h2rcd13ifvqd40","pricing_plan_id":"cebpf4jnsgd1na2vs0mg"},{"bike_id":"f01c079e-081d-4d3a-b1fb-1464ed8b3d03","system_id":"levelo_inurba_marseille","lat":43.25569,"lon":5.38238,"is_reserved":false,"is_disabled":false,"rental_uris":{"android":"levelo://app?vid=f01c079e-081d-4d3a-b1fb-1464ed8b3d03","ios":"levelo://app?vid=f01c079e-081d-4d3a-b1fb-1464ed8b3d03"},"vehicle_type_id":"4","last_reported":1733396919,"current_range_meters":5600,"station_id":"ce4bhih2rcd13ifvqfs0","pricing_plan_id":"cebpf4jnsgd1na2vs0mg"},{"bike_id":"bde0d1f0-39ea-41b8-8689-2e0fad029a40","system_id":"levelo_inurba_marseille","lat":43.29294,"lon":5.37446,"is_reserved":false,"is_disabled":true,"rental_uris":{"android":"levelo://app?vid=bde0d1f0-39ea-41b8-8689-2e0fad029a40","ios":"levelo://app?vid=bde0d1f0-39ea-41b8-8689-2e0fad029a40"},"vehicle_type_id":"4","last_reported":1733396919,"current_range_meters":38000,"station_id":"ce4bgi12rcd13ifvqb70","pricing_plan_id":"cebpf4jnsgd1na2vs0mg"},{"bike_id":"eb21963f-de7e-4534-aca6-bda405f0be1e","system_id":"levelo_inurba_marseille","lat":43.29874,"lon":5.3975,"is_reserved":false,"is_disabled":false,"rental_uris":{"android":"levelo://app?vid=eb21963f-de7e-4534-aca6-bda405f0be1e","ios":"levelo://app?vid=eb21963f-de7e-4534-aca6-bda405f0be1e"},"vehicle_type_id":"4","last_reported":1733396919,"current_range_meters":31200,"station_id":"ce4bh0h2rcd13ifvqd50","pricing_plan_id":"cebpf4jnsgd1na2vs0mg"},{"bike_id":"020719d4-c29b-4e35-be4b-81ca932ddaa9","system_id":"levelo_inurba_marseille","lat":43.30241,"lon":5.40061,"is_reserved":false,"is_disabled":true,"rental_uris":{"android":"levelo://app?vid=020719d4-c29b-4e35-be4b-81ca932ddaa9","ios":"levelo://app?vid=020719d4-c29b-4e35-be4b-81ca932ddaa9"},"vehicle_type_id":"4","last_reported":1733396919,"current_range_meters":31200,"station_id":"ce4bgvh2rcd13ifvqcs0","pricing_plan_id":"cebpf4jnsgd1na2vs0mg"},{"bike_id":"83492766-92d1-48db-9f06-231702f40e6c","system_id":"levelo_inurba_marseille","lat":43.26189,"lon":5.37933,"is_reserved":false,"is_disabled":false,"rental_uris":{"android":"levelo://app?vid=83492766-92d1-48db-9f06-231702f40e6c","ios":"levelo://app?vid=83492766-92d1-48db-9f06-231702f40e6c"},"vehicle_type_id":"4","last_reported":1733396919,"current_range_meters":39200,"station_id":"ce4bhjp2rcd13ifvqg90","pricing_plan_id":"cebpf4jnsgd1na2vs0mg"},{"bike_id":"13538015-764f-42a6-b11b-bc3208e5b449","system_id":"levelo_inurba_marseille","lat":43.309,"lon":5.36859,"is_reserved":false,"is_disabled":false,"rental_uris":{"android":"levelo://app?vid=13538015-764f-42a6-b11b-bc3208e5b449","ios":"levelo://app?vid=13538015-764f-42a6-b11b-bc3208e5b449"},"vehicle_type_id":"4","last_reported":1733396919,"current_range_meters":36800,"station_id":"ce4bgn92rcd13ifvqbvg","pricing_plan_id":"cebpf4jnsgd1na2vs0mg"},{"bike_id":"2cd8bcc2-6973-4bbb-a4df-236cf5858163","system_id":"levelo_inurba_marseille","lat":43.23198,"lon":5.35547,"is_reserved":false,"is_disabled":false,"rental_uris":{"android":"levelo://app?vid=2cd8bcc2-6973-4bbb-a4df-236cf5858163","ios":"levelo://app?vid=2cd8bcc2-6973-4bbb-a4df-236cf5858163"},"vehicle_type_id":"4","last_reported":1733396919,"current_range_meters":38800,"station_id":"ce4bhu92rcd13ifvqi70","pricing_plan_id":"cebpf4jnsgd1na2vs0mg"},{"bike_id":"5a350c9b-1f90-4325-b44e-2012b6d22cc7","system_id":"levelo_inurba_marseille","lat":43.29594,"lon":5.38109,"is_reserved":false,"is_disabled":false,"rental_uris":{"android":"levelo://app?vid=5a350c9b-1f90-4325-b44e-2012b6d22cc7","ios":"levelo://app?vid=5a350c9b-1f90-4325-b44e-2012b6d22cc7"},"vehicle_type_id":"4","last_reported":1733396919,"current_range_meters":34800,"station_id":"ce4bgl12rcd13ifvqbo0","pricing_plan_id":"cebpf4jnsgd1na2vs0mg"},{"bike_id":"2e33b8ba-a6bd-4490-a1ee-179640a04ec5","system_id":"levelo_inurba_marseille","lat":43.290907,"lon":5.381563,"is_reserved":false,"is_disabled":true,"rental_uris":{"android":"levelo://app?vid=2e33b8ba-a6bd-4490-a1ee-179640a04ec5","ios":"levelo://app?vid=2e33b8ba-a6bd-4490-a1ee-179640a04ec5"},"vehicle_type_id":"4","last_reported":1733396919,"current_range_meters":36800,"station_id":"ce4bh512rcd13ifvqe2g","pricing_plan_id":"cebpf4jnsgd1na2vs0mg"},{"bike_id":"86e0770a-7d53-4f07-bfce-77b15f85fac6","system_id":"levelo_inurba_marseille","lat":43.29604,"lon":5.38111,"is_reserved":false,"is_disabled":false,"rental_uris":{"android":"levelo://app?vid=86e0770a-7d53-4f07-bfce-77b15f85fac6","ios":"levelo://app?vid=86e0770a-7d53-4f07-bfce-77b15f85fac6"},"vehicle_type_id":"4","last_reported":1733396919,"current_range_meters":38800,"station_id":"ce4bgl12rcd13ifvqbo0","pricing_plan_id":"cebpf4jnsgd1na2vs0mg"},{"bike_id":"506c09f4-6c9b-4fb3-996c-4c7f86dd75a8","system_id":"levelo_inurba_marseille","lat":43.25492,"lon":5.37652,"is_reserved":false,"is_disabled":true,"rental_uris":{"android":"levelo://app?vid=506c09f4-6c9b-4fb3-996c-4c7f86dd75a8","ios":"levelo://app?vid=506c09f4-6c9b-4fb3-996c-4c7f86dd75a8"},"vehicle_type_id":"4","last_reported":1733396919,"current_range_meters":0,"station_id":"","pricing_plan_id":"cebpf4jnsgd1na2vs0mg"},{"bike_id":"91ce04db-2714-450f-b5b6-ab07058eade5","system_id":"levelo_inurba_marseille","lat":43.29631,"lon":5.40597,"is_reserved":false,"is_disabled":true,"rental_uris":{"android":"levelo://app?vid=91ce04db-2714-450f-b5b6-ab07058eade5","ios":"levelo://app?vid=91ce04db-2714-450f-b5b6-ab07058eade5"},"vehicle_type_id":"4","last_reported":1733396919,"current_range_meters":0,"station_id":"ce4bh0h2rcd13ifvqd60","pricing_plan_id":"cebpf4jnsgd1na2vs0mg"},{"bike_id":"a5b5531f-e224-44cb-a7f1-11de402e62e9","system_id":"levelo_inurba_marseille","lat":43.29308,"lon":5.37168,"is_reserved":false,"is_disabled":false,"rental_uris":{"android":"levelo://app?vid=a5b5531f-e224-44cb-a7f1-11de402e62e9","ios":"levelo://app?vid=a5b5531f-e224-44cb-a7f1-11de402e62e9"},"vehicle_type_id":"4","last_reported":1733396919,"current_range_meters":38000,"station_id":"ce4bgh92rcd13ifvqb40","pricing_plan_id":"cebpf4jnsgd1na2vs0mg"},{"bike_id":"9202c63e-372c-4469-a5c1-8e35757d1940","system_id":"levelo_inurba_marseille","lat":43.30053,"lon":5.38832,"is_reserved":false,"is_disabled":true,"rental_uris":{"android":"levelo://app?vid=9202c63e-372c-4469-a5c1-8e35757d1940","ios":"levelo://app?vid=9202c63e-372c-4469-a5c1-8e35757d1940"},"vehicle_type_id":"4","last_reported":1733396919,"current_range_meters":0,"station_id":"","pricing_plan_id":"cebpf4jnsgd1na2vs0mg"},{"bike_id":"3f4abc69-7265-4f54-b48a-540a4536175b","system_id":"levelo_inurba_marseille","lat":43.30141,"lon":5.38083,"is_reserved":false,"is_disabled":false,"rental_uris":{"android":"levelo://app?vid=3f4abc69-7265-4f54-b48a-540a4536175b","ios":"levelo://app?vid=3f4abc69-7265-4f54-b48a-540a4536175b"},"vehicle_type_id":"4","last_reported":1733396919,"current_range_meters":27200,"station_id":"ce4bgjp2rcd13ifvqbh0","pricing_plan_id":"cebpf4jnsgd1na2vs0mg"},{"bike_id":"1d1e223d-f3f8-4945-8923-f4bdebc5ab9c","system_id":"levelo_inurba_marseille","lat":43.32059,"lon":5.4152,"is_reserved":false,"is_disabled":true,"rental_uris":{"android":"levelo://app?vid=1d1e223d-f3f8-4945-8923-f4bdebc5ab9c","ios":"levelo://app?vid=1d1e223d-f3f8-4945-8923-f4bdebc5ab9c"},"vehicle_type_id":"4","last_reported":1733396919,"current_range_meters":38800,"station_id":"ce4bhq92rcd13ifvqhkg","pricing_plan_id":"cebpf4jnsgd1na2vs0mg"},{"bike_id":"d79a5751-f344-4ee9-a851-18d72c5ca0ea","system_id":"levelo_inurba_marseille","lat":43.25502,"lon":5.37654,"is_reserved":false,"is_disabled":false,"rental_uris":{"android":"levelo://app?vid=d79a5751-f344-4ee9-a851-18d72c5ca0ea","ios":"levelo://app?vid=d79a5751-f344-4ee9-a851-18d72c5ca0ea"},"vehicle_type_id":"4","last_reported":1733396919,"current_range_meters":6000,"station_id":"ce4bhh12rcd13ifvqff0","pricing_plan_id":"cebpf4jnsgd1na2vs0mg"},{"bike_id":"f4baaaf3-5729-45c6-81a9-b069f42d75d5","system_id":"levelo_inurba_marseille","lat":43.28946,"lon":5.39643,"is_reserved":false,"is_disabled":true,"rental_uris":{"android":"levelo://app?vid=f4baaaf3-5729-45c6-81a9-b069f42d75d5","ios":"levelo://app?vid=f4baaaf3-5729-45c6-81a9-b069f42d75d5"},"vehicle_type_id":"4","last_reported":1733396919,"current_range_meters":0,"station_id":"ce4bh3h2rcd13ifvqdn0","pricing_plan_id":"cebpf4jnsgd1na2vs0mg"},{"bike_id":"cf3e6ea0-09ff-406c-b357-28a6a6117f94","system_id":"levelo_inurba_marseille","lat":43.22927,"lon":5.35374,"is_reserved":false,"is_disabled":false,"rental_uris":{"android":"levelo://app?vid=cf3e6ea0-09ff-406c-b357-28a6a6117f94","ios":"levelo://app?vid=cf3e6ea0-09ff-406c-b357-28a6a6117f94"},"vehicle_type_id":"4","last_reported":1733396919,"current_range_meters":39200,"station_id":"cpo3532slgdg3j2ikp40","pricing_plan_id":"cebpf4jnsgd1na2vs0mg"},{"bike_id":"fd7dea6a-aa83-4656-baae-4085b6e7d8d6","system_id":"levelo_inurba_marseille","lat":43.33717,"lon":5.39192,"is_reserved":false,"is_disabled":false,"rental_uris":{"android":"levelo://app?vid=fd7dea6a-aa83-4656-baae-4085b6e7d8d6","ios":"levelo://app?vid=fd7dea6a-aa83-4656-baae-4085b6e7d8d6"},"vehicle_type_id":"4","last_reported":1733396919,"current_range_meters":17600,"station_id":"ce4bhr92rcd13ifvqhsg","pricing_plan_id":"cebpf4jnsgd1na2vs0mg"},{"bike_id":"33b6defc-0259-40c1-8c7c-b5f4200fa144","system_id":"levelo_inurba_marseille","lat":43.23958,"lon":5.36633,"is_reserved":false,"is_disabled":false,"rental_uris":{"android":"levelo://app?vid=33b6defc-0259-40c1-8c7c-b5f4200fa144","ios":"levelo://app?vid=33b6defc-0259-40c1-8c7c-b5f4200fa144"},"vehicle_type_id":"4","last_reported":1733396919,"current_range_meters":38800,"station_id":"ce4bhi12rcd13ifvqfp0","pricing_plan_id":"cebpf4jnsgd1na2vs0mg"},{"bike_id":"4112efcc-f8fa-49b3-934b-fce3c026527f","system_id":"levelo_inurba_marseille","lat":43.3015,"lon":5.38088,"is_reserved":false,"is_disabled":false,"rental_uris":{"android":"levelo://app?vid=4112efcc-f8fa-49b3-934b-fce3c026527f","ios":"levelo://app?vid=4112efcc-f8fa-49b3-934b-fce3c026527f"},"vehicle_type_id":"4","last_reported":1733396919,"current_range_meters":22800,"station_id":"ce4bgjp2rcd13ifvqbh0","pricing_plan_id":"cebpf4jnsgd1na2vs0mg"},{"bike_id":"c2a83d0c-4ef0-4155-a264-8c4e435c6f5c","system_id":"levelo_inurba_marseille","lat":43.25001,"lon":5.38927,"is_reserved":false,"is_disabled":false,"rental_uris":{"android":"levelo://app?vid=c2a83d0c-4ef0-4155-a264-8c4e435c6f5c","ios":"levelo://app?vid=c2a83d0c-4ef0-4155-a264-8c4e435c6f5c"},"vehicle_type_id":"4","last_reported":1733396919,"current_range_meters":35200,"station_id":"ce4bhgp2rcd13ifvqfd0","pricing_plan_id":"cebpf4jnsgd1na2vs0mg"},{"bike_id":"719e509a-25e4-4b1b-9830-f708d85d7593","system_id":"levelo_inurba_marseille","lat":43.29283,"lon":5.37397,"is_reserved":false,"is_disabled":true,"rental_uris":{"android":"levelo://app?vid=719e509a-25e4-4b1b-9830-f708d85d7593","ios":"levelo://app?vid=719e509a-25e4-4b1b-9830-f708d85d7593"},"vehicle_type_id":"4","last_reported":1733396919,"current_range_meters":0,"station_id":"","pricing_plan_id":"cebpf4jnsgd1na2vs0mg"},{"bike_id":"ebe6555b-a4db-40e6-8e7e-a84ae5063c65","system_id":"levelo_inurba_marseille","lat":43.25864,"lon":5.399,"is_reserved":false,"is_disabled":false,"rental_uris":{"android":"levelo://app?vid=ebe6555b-a4db-40e6-8e7e-a84ae5063c65","ios":"levelo://app?vid=ebe6555b-a4db-40e6-8e7e-a84ae5063c65"},"vehicle_type_id":"4","last_reported":1733396919,"current_range_meters":27200,"station_id":"ce4bhl92rcd13ifvqghg","pricing_plan_id":"cebpf4jnsgd1na2vs0mg"},{"bike_id":"6e287fc0-e767-41d1-ab2a-bd6999bc0309","system_id":"levelo_inurba_marseille","lat":43.27318,"lon":5.39065,"is_reserved":false,"is_disabled":false,"rental_uris":{"android":"levelo://app?vid=6e287fc0-e767-41d1-ab2a-bd6999bc0309","ios":"levelo://app?vid=6e287fc0-e767-41d1-ab2a-bd6999bc0309"},"vehicle_type_id":"4","last_reported":1733396919,"current_range_meters":16000,"station_id":"ce4bhgp2rcd13ifvqfe0","pricing_plan_id":"cebpf4jnsgd1na2vs0mg"},{"bike_id":"58280f48-f176-40ae-b2d3-88afe3de9d89","system_id":"levelo_inurba_marseille","lat":43.30952,"lon":5.39035,"is_reserved":false,"is_disabled":false,"rental_uris":{"android":"levelo://app?vid=58280f48-f176-40ae-b2d3-88afe3de9d89","ios":"levelo://app?vid=58280f48-f176-40ae-b2d3-88afe3de9d89"},"vehicle_type_id":"4","last_reported":1733396919,"current_range_meters":38800,"station_id":"ce4bgup2rcd13ifvqco0","pricing_plan_id":"cebpf4jnsgd1na2vs0mg"},{"bike_id":"6e111957-e08a-4dff-8c65-9b42dba75b2b","system_id":"levelo_inurba_marseille","lat":43.30303,"lon":5.36899,"is_reserved":false,"is_disabled":false,"rental_uris":{"android":"levelo://app?vid=6e111957-e08a-4dff-8c65-9b42dba75b2b","ios":"levelo://app?vid=6e111957-e08a-4dff-8c65-9b42dba75b2b"},"vehicle_type_id":"4","last_reported":1733396919,"current_range_meters":30400,"station_id":"ce4bgqh2rcd13ifvqc5g","pricing_plan_id":"cebpf4jnsgd1na2vs0mg"},{"bike_id":"9357e64c-2656-46e7-aea5-e3b270eb4f69","system_id":"levelo_inurba_marseille","lat":43.29841,"lon":5.36267,"is_reserved":false,"is_disabled":false,"rental_uris":{"android":"levelo://app?vid=9357e64c-2656-46e7-aea5-e3b270eb4f69","ios":"levelo://app?vid=9357e64c-2656-46e7-aea5-e3b270eb4f69"},"vehicle_type_id":"4","last_reported":1733396919,"current_range_meters":25600,"station_id":"ce4bgpp2rcd13ifvqc3g","pricing_plan_id":"cebpf4jnsgd1na2vs0mg"},{"bike_id":"9987d59e-ef85-45d5-9091-b7be6ad2c3c9","system_id":"levelo_inurba_marseille","lat":43.285672,"lon":5.39497,"is_reserved":false,"is_disabled":false,"rental_uris":{"android":"levelo://app?vid=9987d59e-ef85-45d5-9091-b7be6ad2c3c9","ios":"levelo://app?vid=9987d59e-ef85-45d5-9091-b7be6ad2c3c9"},"vehicle_type_id":"4","last_reported":1733396919,"current_range_meters":8000,"station_id":"ce4bh292rcd13ifvqdg0","pricing_plan_id":"cebpf4jnsgd1na2vs0mg"},{"bike_id":"9d604c40-356d-4c31-9e6b-1b54b4a0006b","system_id":"levelo_inurba_marseille","lat":43.30534,"lon":5.38428,"is_reserved":false,"is_disabled":true,"rental_uris":{"android":"levelo://app?vid=9d604c40-356d-4c31-9e6b-1b54b4a0006b","ios":"levelo://app?vid=9d604c40-356d-4c31-9e6b-1b54b4a0006b"},"vehicle_type_id":"4","last_reported":1733396919,"current_range_meters":1200,"station_id":"ce4bgg92rcd13ifvqb30","pricing_plan_id":"cebpf4jnsgd1na2vs0mg"},{"bike_id":"8454f51a-e5eb-4d91-bd72-78e57e9d089b","system_id":"levelo_inurba_marseille","lat":43.29798,"lon":5.38096,"is_reserved":false,"is_disabled":false,"rental_uris":{"android":"levelo://app?vid=8454f51a-e5eb-4d91-bd72-78e57e9d089b","ios":"levelo://app?vid=8454f51a-e5eb-4d91-bd72-78e57e9d089b"},"vehicle_type_id":"4","last_reported":1733396919,"current_range_meters":9200,"station_id":"ce4bgip2rcd13ifvqbb0","pricing_plan_id":"cebpf4jnsgd1na2vs0mg"},{"bike_id":"e485c5c6-ec58-48a7-92a9-25bf0865c32e","system_id":"levelo_inurba_marseille","lat":43.29787,"lon":5.38104,"is_reserved":false,"is_disabled":false,"rental_uris":{"android":"levelo://app?vid=e485c5c6-ec58-48a7-92a9-25bf0865c32e","ios":"levelo://app?vid=e485c5c6-ec58-48a7-92a9-25bf0865c32e"},"vehicle_type_id":"4","last_reported":1733396919,"current_range_meters":29600,"station_id":"ce4bgip2rcd13ifvqbb0","pricing_plan_id":"cebpf4jnsgd1na2vs0mg"},{"bike_id":"b01ba929-1580-401b-973d-e4a15d746d4a","system_id":"levelo_inurba_marseille","lat":43.22929,"lon":5.35379,"is_reserved":false,"is_disabled":false,"rental_uris":{"android":"levelo://app?vid=b01ba929-1580-401b-973d-e4a15d746d4a","ios":"levelo://app?vid=b01ba929-1580-401b-973d-e4a15d746d4a"},"vehicle_type_id":"4","last_reported":1733396919,"current_range_meters":16400,"station_id":"cpo3532slgdg3j2ikp40","pricing_plan_id":"cebpf4jnsgd1na2vs0mg"},{"bike_id":"71b78a0a-1057-4184-a971-ade9e8292a25","system_id":"levelo_inurba_marseille","lat":43.29973,"lon":5.38485,"is_reserved":false,"is_disabled":false,"rental_uris":{"android":"levelo://app?vid=71b78a0a-1057-4184-a971-ade9e8292a25","ios":"levelo://app?vid=71b78a0a-1057-4184-a971-ade9e8292a25"},"vehicle_type_id":"4","last_reported":1733396919,"current_range_meters":37600,"station_id":"ce4bgj92rcd13ifvqbd0","pricing_plan_id":"cebpf4jnsgd1na2vs0mg"},{"bike_id":"36704c4b-0bb5-4f47-96bc-76424f8e05d6","system_id":"levelo_inurba_marseille","lat":43.29877,"lon":5.3891,"is_reserved":false,"is_disabled":false,"rental_uris":{"android":"levelo://app?vid=36704c4b-0bb5-4f47-96bc-76424f8e05d6","ios":"levelo://app?vid=36704c4b-0bb5-4f47-96bc-76424f8e05d6"},"vehicle_type_id":"4","last_reported":1733396919,"current_range_meters":17200,"station_id":"ce4bh392rcd13ifvqdl0","pricing_plan_id":"cebpf4jnsgd1na2vs0mg"},{"bike_id":"543b0472-eea6-4bf3-8f26-7426d9031df8","system_id":"levelo_inurba_marseille","lat":43.27815,"lon":5.40707,"is_reserved":false,"is_disabled":false,"rental_uris":{"android":"levelo://app?vid=543b0472-eea6-4bf3-8f26-7426d9031df8","ios":"levelo://app?vid=543b0472-eea6-4bf3-8f26-7426d9031df8"},"vehicle_type_id":"4","last_reported":1733396919,"current_range_meters":18800,"station_id":"ce4bhnh2rcd13ifvqgtg","pricing_plan_id":"cebpf4jnsgd1na2vs0mg"},{"bike_id":"1d9a4b4c-056a-4257-82be-cdf0089ad0fc","system_id":"levelo_inurba_marseille","lat":43.26936,"lon":5.40262,"is_reserved":false,"is_disabled":false,"rental_uris":{"android":"levelo://app?vid=1d9a4b4c-056a-4257-82be-cdf0089ad0fc","ios":"levelo://app?vid=1d9a4b4c-056a-4257-82be-cdf0089ad0fc"},"vehicle_type_id":"4","last_reported":1733396919,"current_range_meters":39200,"station_id":"cjm6bp8fraef2m0cb0m0","pricing_plan_id":"cebpf4jnsgd1na2vs0mg"},{"bike_id":"010f1ddc-a5dd-4595-9905-ebf82317a65f","system_id":"levelo_inurba_marseille","lat":43.3302,"lon":5.39036,"is_reserved":false,"is_disabled":false,"rental_uris":{"android":"levelo://app?vid=010f1ddc-a5dd-4595-9905-ebf82317a65f","ios":"levelo://app?vid=010f1ddc-a5dd-4595-9905-ebf82317a65f"},"vehicle_type_id":"4","last_reported":1733396919,"current_range_meters":39200,"station_id":"ce4bhr92rcd13ifvqhrg","pricing_plan_id":"cebpf4jnsgd1na2vs0mg"},{"bike_id":"5c117aab-b7d1-467d-a209-f54bdce85fbd","system_id":"levelo_inurba_marseille","lat":43.30914,"lon":5.36854,"is_reserved":false,"is_disabled":false,"rental_uris":{"android":"levelo://app?vid=5c117aab-b7d1-467d-a209-f54bdce85fbd","ios":"levelo://app?vid=5c117aab-b7d1-467d-a209-f54bdce85fbd"},"vehicle_type_id":"4","last_reported":1733396919,"current_range_meters":30000,"station_id":"ce4bgn92rcd13ifvqbvg","pricing_plan_id":"cebpf4jnsgd1na2vs0mg"},{"bike_id":"a21808ea-c7b7-4f34-a3f7-99c41f4c35a7","system_id":"levelo_inurba_marseille","lat":43.30958,"lon":5.39038,"is_reserved":false,"is_disabled":false,"rental_uris":{"android":"levelo://app?vid=a21808ea-c7b7-4f34-a3f7-99c41f4c35a7","ios":"levelo://app?vid=a21808ea-c7b7-4f34-a3f7-99c41f4c35a7"},"vehicle_type_id":"4","last_reported":1733396919,"current_range_meters":36800,"station_id":"ce4bgup2rcd13ifvqco0","pricing_plan_id":"cebpf4jnsgd1na2vs0mg"},{"bike_id":"4dddad9c-cde0-4e3f-a6a1-005c9046862a","system_id":"levelo_inurba_marseille","lat":43.3056,"lon":5.36556,"is_reserved":false,"is_disabled":false,"rental_uris":{"android":"levelo://app?vid=4dddad9c-cde0-4e3f-a6a1-005c9046862a","ios":"levelo://app?vid=4dddad9c-cde0-4e3f-a6a1-005c9046862a"},"vehicle_type_id":"4","last_reported":1733396919,"current_range_meters":28400,"station_id":"ce4bgs12rcd13ifvqcag","pricing_plan_id":"cebpf4jnsgd1na2vs0mg"},{"bike_id":"79c8ea6d-5102-4a1e-b941-afdabc095945","system_id":"levelo_inurba_marseille","lat":43.29067,"lon":5.38341,"is_reserved":false,"is_disabled":true,"rental_uris":{"android":"levelo://app?vid=79c8ea6d-5102-4a1e-b941-afdabc095945","ios":"levelo://app?vid=79c8ea6d-5102-4a1e-b941-afdabc095945"},"vehicle_type_id":"4","last_reported":1733396919,"current_range_meters":14400,"station_id":"","pricing_plan_id":"cebpf4jnsgd1na2vs0mg"},{"bike_id":"14757c55-869a-4b0b-afac-0faeea29372b","system_id":"levelo_inurba_marseille","lat":43.337444,"lon":5.374475,"is_reserved":false,"is_disabled":true,"rental_uris":{"android":"levelo://app?vid=14757c55-869a-4b0b-afac-0faeea29372b","ios":"levelo://app?vid=14757c55-869a-4b0b-afac-0faeea29372b"},"vehicle_type_id":"4","last_reported":1733396919,"current_range_meters":0,"station_id":"","pricing_plan_id":"cebpf4jnsgd1na2vs0mg"},{"bike_id":"fc3bb84f-59cf-428d-89b4-9ec25fea430a","system_id":"levelo_inurba_marseille","lat":43.28488,"lon":5.38572,"is_reserved":false,"is_disabled":false,"rental_uris":{"android":"levelo://app?vid=fc3bb84f-59cf-428d-89b4-9ec25fea430a","ios":"levelo://app?vid=fc3bb84f-59cf-428d-89b4-9ec25fea430a"},"vehicle_type_id":"4","last_reported":1733396919,"current_range_meters":38800,"station_id":"ce4bh8p2rcd13ifvqeb0","pricing_plan_id":"cebpf4jnsgd1na2vs0mg"},{"bike_id":"da3b0059-0a11-48d5-8b60-f6cb3b7a7ea5","system_id":"levelo_inurba_marseille","lat":43.29783,"lon":5.3811,"is_reserved":false,"is_disabled":false,"rental_uris":{"android":"levelo://app?vid=da3b0059-0a11-48d5-8b60-f6cb3b7a7ea5","ios":"levelo://app?vid=da3b0059-0a11-48d5-8b60-f6cb3b7a7ea5"},"vehicle_type_id":"4","last_reported":1733396919,"current_range_meters":19200,"station_id":"ce4bgip2rcd13ifvqbb0","pricing_plan_id":"cebpf4jnsgd1na2vs0mg"},{"bike_id":"3e592e74-64b6-427b-a9f3-9c85b0d07de7","system_id":"levelo_inurba_marseille","lat":43.2319,"lon":5.39987,"is_reserved":false,"is_disabled":false,"rental_uris":{"android":"levelo://app?vid=3e592e74-64b6-427b-a9f3-9c85b0d07de7","ios":"levelo://app?vid=3e592e74-64b6-427b-a9f3-9c85b0d07de7"},"vehicle_type_id":"4","last_reported":1733396919,"current_range_meters":29600,"station_id":"ce4bhn12rcd13ifvqgqg","pricing_plan_id":"cebpf4jnsgd1na2vs0mg"},{"bike_id":"bd1f85b5-1ade-4264-9243-4e0007387b34","system_id":"levelo_inurba_marseille","lat":43.3054,"lon":5.36529,"is_reserved":false,"is_disabled":false,"rental_uris":{"android":"levelo://app?vid=bd1f85b5-1ade-4264-9243-4e0007387b34","ios":"levelo://app?vid=bd1f85b5-1ade-4264-9243-4e0007387b34"},"vehicle_type_id":"4","last_reported":1733396919,"current_range_meters":33600,"station_id":"ce4bgs12rcd13ifvqcag","pricing_plan_id":"cebpf4jnsgd1na2vs0mg"},{"bike_id":"93e16e02-d588-4e99-9279-413a5cb0a089","system_id":"levelo_inurba_marseille","lat":43.31354,"lon":5.36713,"is_reserved":false,"is_disabled":true,"rental_uris":{"android":"levelo://app?vid=93e16e02-d588-4e99-9279-413a5cb0a089","ios":"levelo://app?vid=93e16e02-d588-4e99-9279-413a5cb0a089"},"vehicle_type_id":"4","last_reported":1733396919,"current_range_meters":27600,"station_id":"ce4bgr92rcd13ifvqc6g","pricing_plan_id":"cebpf4jnsgd1na2vs0mg"},{"bike_id":"704edf0a-9774-4ca2-8fd4-44a2b86045e9","system_id":"levelo_inurba_marseille","lat":43.27375,"lon":5.36259,"is_reserved":false,"is_disabled":false,"rental_uris":{"android":"levelo://app?vid=704edf0a-9774-4ca2-8fd4-44a2b86045e9","ios":"levelo://app?vid=704edf0a-9774-4ca2-8fd4-44a2b86045e9"},"vehicle_type_id":"4","last_reported":1733396919,"current_range_meters":19600,"station_id":"ce4bhbh2rcd13ifvqeo0","pricing_plan_id":"cebpf4jnsgd1na2vs0mg"},{"bike_id":"6cbba370-4cb2-4753-957d-8c3113d16189","system_id":"levelo_inurba_marseille","lat":43.32475,"lon":5.36566,"is_reserved":false,"is_disabled":false,"rental_uris":{"android":"levelo://app?vid=6cbba370-4cb2-4753-957d-8c3113d16189","ios":"levelo://app?vid=6cbba370-4cb2-4753-957d-8c3113d16189"},"vehicle_type_id":"4","last_reported":1733396919,"current_range_meters":39200,"station_id":"ce4bhs12rcd13ifvqhvg","pricing_plan_id":"cebpf4jnsgd1na2vs0mg"},{"bike_id":"e3923752-c6fb-428d-b772-351966af8aaa","system_id":"levelo_inurba_marseille","lat":43.30554,"lon":5.36547,"is_reserved":false,"is_disabled":false,"rental_uris":{"android":"levelo://app?vid=e3923752-c6fb-428d-b772-351966af8aaa","ios":"levelo://app?vid=e3923752-c6fb-428d-b772-351966af8aaa"},"vehicle_type_id":"4","last_reported":1733396919,"current_range_meters":38800,"station_id":"ce4bgs12rcd13ifvqcag","pricing_plan_id":"cebpf4jnsgd1na2vs0mg"},{"bike_id":"a4b9e425-64b8-4ce2-a5ab-5fcc5d1230a4","system_id":"levelo_inurba_marseille","lat":43.321057,"lon":5.367809,"is_reserved":false,"is_disabled":false,"rental_uris":{"android":"levelo://app?vid=a4b9e425-64b8-4ce2-a5ab-5fcc5d1230a4","ios":"levelo://app?vid=a4b9e425-64b8-4ce2-a5ab-5fcc5d1230a4"},"vehicle_type_id":"4","last_reported":1733396919,"current_range_meters":36400,"station_id":"ce4bhrh2rcd13ifvqhug","pricing_plan_id":"cebpf4jnsgd1na2vs0mg"},{"bike_id":"8c4ce45f-9817-4b51-b7d4-b395291fb672","system_id":"levelo_inurba_marseille","lat":43.30549,"lon":5.36566,"is_reserved":false,"is_disabled":false,"rental_uris":{"android":"levelo://app?vid=8c4ce45f-9817-4b51-b7d4-b395291fb672","ios":"levelo://app?vid=8c4ce45f-9817-4b51-b7d4-b395291fb672"},"vehicle_type_id":"4","last_reported":1733396919,"current_range_meters":9200,"station_id":"ce4bgs12rcd13ifvqcag","pricing_plan_id":"cebpf4jnsgd1na2vs0mg"},{"bike_id":"fd98eaa9-4d55-4e7b-aa90-0d14707466d9","system_id":"levelo_inurba_marseille","lat":43.337444,"lon":5.374475,"is_reserved":false,"is_disabled":true,"rental_uris":{"android":"levelo://app?vid=fd98eaa9-4d55-4e7b-aa90-0d14707466d9","ios":"levelo://app?vid=fd98eaa9-4d55-4e7b-aa90-0d14707466d9"},"vehicle_type_id":"4","last_reported":1733396919,"current_range_meters":0,"station_id":"","pricing_plan_id":"cebpf4jnsgd1na2vs0mg"},{"bike_id":"39cb4215-5675-4565-aeae-c2392d98b594","system_id":"levelo_inurba_marseille","lat":43.33751,"lon":5.37442,"is_reserved":false,"is_disabled":false,"rental_uris":{"android":"levelo://app?vid=39cb4215-5675-4565-aeae-c2392d98b594","ios":"levelo://app?vid=39cb4215-5675-4565-aeae-c2392d98b594"},"vehicle_type_id":"4","last_reported":1733396919,"current_range_meters":38400,"station_id":"","pricing_plan_id":"cebpf4jnsgd1na2vs0mg"},{"bike_id":"e9825e22-a219-4419-9c42-05f082b516ed","system_id":"levelo_inurba_marseille","lat":43.29794,"lon":5.39351,"is_reserved":false,"is_disabled":true,"rental_uris":{"android":"levelo://app?vid=e9825e22-a219-4419-9c42-05f082b516ed","ios":"levelo://app?vid=e9825e22-a219-4419-9c42-05f082b516ed"},"vehicle_type_id":"4","last_reported":1733396919,"current_range_meters":0,"station_id":"chh1huq6cuj3fo74tm60","pricing_plan_id":"cebpf4jnsgd1na2vs0mg"},{"bike_id":"9f166179-3cc0-42ca-860b-06242525cca2","system_id":"levelo_inurba_marseille","lat":43.32049,"lon":5.41555,"is_reserved":false,"is_disabled":false,"rental_uris":{"android":"levelo://app?vid=9f166179-3cc0-42ca-860b-06242525cca2","ios":"levelo://app?vid=9f166179-3cc0-42ca-860b-06242525cca2"},"vehicle_type_id":"4","last_reported":1733396919,"current_range_meters":34000,"station_id":"ce4bhq92rcd13ifvqhkg","pricing_plan_id":"cebpf4jnsgd1na2vs0mg"},{"bike_id":"fc02bf7c-fa30-4850-9eb4-c1c04eeef081","system_id":"levelo_inurba_marseille","lat":43.33013,"lon":5.39051,"is_reserved":false,"is_disabled":false,"rental_uris":{"android":"levelo://app?vid=fc02bf7c-fa30-4850-9eb4-c1c04eeef081","ios":"levelo://app?vid=fc02bf7c-fa30-4850-9eb4-c1c04eeef081"},"vehicle_type_id":"4","last_reported":1733396919,"current_range_meters":25200,"station_id":"ce4bhr92rcd13ifvqhrg","pricing_plan_id":"cebpf4jnsgd1na2vs0mg"},{"bike_id":"c2d8a1c2-d166-4a36-b32f-beec95c93bd5","system_id":"levelo_inurba_marseille","lat":43.33756,"lon":5.37459,"is_reserved":false,"is_disabled":false,"rental_uris":{"android":"levelo://app?vid=c2d8a1c2-d166-4a36-b32f-beec95c93bd5","ios":"levelo://app?vid=c2d8a1c2-d166-4a36-b32f-beec95c93bd5"},"vehicle_type_id":"4","last_reported":1733396919,"current_range_meters":9600,"station_id":"","pricing_plan_id":"cebpf4jnsgd1na2vs0mg"},{"bike_id":"cb78f849-47ed-4401-b9d1-c5e4e1282cdd","system_id":"levelo_inurba_marseille","lat":43.285672,"lon":5.39497,"is_reserved":false,"is_disabled":false,"rental_uris":{"android":"levelo://app?vid=cb78f849-47ed-4401-b9d1-c5e4e1282cdd","ios":"levelo://app?vid=cb78f849-47ed-4401-b9d1-c5e4e1282cdd"},"vehicle_type_id":"4","last_reported":1733396919,"current_range_meters":25200,"station_id":"ce4bh292rcd13ifvqdg0","pricing_plan_id":"cebpf4jnsgd1na2vs0mg"},{"bike_id":"aae6bf83-f63a-4e64-8e81-1ce3dc360841","system_id":"levelo_inurba_marseille","lat":43.27719,"lon":5.38943,"is_reserved":false,"is_disabled":true,"rental_uris":{"android":"levelo://app?vid=aae6bf83-f63a-4e64-8e81-1ce3dc360841","ios":"levelo://app?vid=aae6bf83-f63a-4e64-8e81-1ce3dc360841"},"vehicle_type_id":"4","last_reported":1733396919,"current_range_meters":0,"station_id":"ce4bhi12rcd13ifvqfo0","pricing_plan_id":"cebpf4jnsgd1na2vs0mg"},{"bike_id":"5f8bbb2c-ebed-4ddd-86fd-4d7693b5c047","system_id":"levelo_inurba_marseille","lat":43.26681,"lon":5.38265,"is_reserved":false,"is_disabled":false,"rental_uris":{"android":"levelo://app?vid=5f8bbb2c-ebed-4ddd-86fd-4d7693b5c047","ios":"levelo://app?vid=5f8bbb2c-ebed-4ddd-86fd-4d7693b5c047"},"vehicle_type_id":"4","last_reported":1733396919,"current_range_meters":30400,"station_id":"ce4bhg92rcd13ifvqf90","pricing_plan_id":"cebpf4jnsgd1na2vs0mg"},{"bike_id":"5f4b7b33-9066-484c-9c20-b70c39338231","system_id":"levelo_inurba_marseille","lat":43.26808,"lon":5.4027,"is_reserved":false,"is_disabled":false,"rental_uris":{"android":"levelo://app?vid=5f4b7b33-9066-484c-9c20-b70c39338231","ios":"levelo://app?vid=5f4b7b33-9066-484c-9c20-b70c39338231"},"vehicle_type_id":"4","last_reported":1733396919,"current_range_meters":38800,"station_id":"ce501612rcd8frsf0b60","pricing_plan_id":"cebpf4jnsgd1na2vs0mg"},{"bike_id":"5605d362-7a6b-439d-b82f-b1eebcb406f8","system_id":"levelo_inurba_marseille","lat":43.26686,"lon":5.38271,"is_reserved":false,"is_disabled":false,"rental_uris":{"android":"levelo://app?vid=5605d362-7a6b-439d-b82f-b1eebcb406f8","ios":"levelo://app?vid=5605d362-7a6b-439d-b82f-b1eebcb406f8"},"vehicle_type_id":"4","last_reported":1733396919,"current_range_meters":38800,"station_id":"ce4bhg92rcd13ifvqf90","pricing_plan_id":"cebpf4jnsgd1na2vs0mg"},{"bike_id":"b7ec7519-16d4-4bc8-8207-42c1cc7571ff","system_id":"levelo_inurba_marseille","lat":43.25936,"lon":5.40894,"is_reserved":false,"is_disabled":false,"rental_uris":{"android":"levelo://app?vid=b7ec7519-16d4-4bc8-8207-42c1cc7571ff","ios":"levelo://app?vid=b7ec7519-16d4-4bc8-8207-42c1cc7571ff"},"vehicle_type_id":"4","last_reported":1733396919,"current_range_meters":36800,"station_id":"ce4bhm92rcd13ifvqglg","pricing_plan_id":"cebpf4jnsgd1na2vs0mg"},{"bike_id":"dce35d6a-08b0-4b4c-b89b-7b5e69e85874","system_id":"levelo_inurba_marseille","lat":43.290289,"lon":5.381282,"is_reserved":false,"is_disabled":false,"rental_uris":{"android":"levelo://app?vid=dce35d6a-08b0-4b4c-b89b-7b5e69e85874","ios":"levelo://app?vid=dce35d6a-08b0-4b4c-b89b-7b5e69e85874"},"vehicle_type_id":"4","last_reported":1733396919,"current_range_meters":10800,"station_id":"ce4bhs12rcd13ifvqhvg","pricing_plan_id":"cebpf4jnsgd1na2vs0mg"},{"bike_id":"37727576-2d28-4525-b065-40affdaee0f8","system_id":"levelo_inurba_marseille","lat":43.32346,"lon":5.38909,"is_reserved":false,"is_disabled":false,"rental_uris":{"android":"levelo://app?vid=37727576-2d28-4525-b065-40affdaee0f8","ios":"levelo://app?vid=37727576-2d28-4525-b065-40affdaee0f8"},"vehicle_type_id":"4","last_reported":1733396919,"current_range_meters":38800,"station_id":"ce4bhqp2rcd13ifvqhog","pricing_plan_id":"cebpf4jnsgd1na2vs0mg"},{"bike_id":"32ffac43-1183-4b55-94c4-819aa1f8e38a","system_id":"levelo_inurba_marseille","lat":43.24976,"lon":5.38954,"is_reserved":false,"is_disabled":false,"rental_uris":{"android":"levelo://app?vid=32ffac43-1183-4b55-94c4-819aa1f8e38a","ios":"levelo://app?vid=32ffac43-1183-4b55-94c4-819aa1f8e38a"},"vehicle_type_id":"4","last_reported":1733396919,"current_range_meters":20000,"station_id":"ce4bhgp2rcd13ifvqfd0","pricing_plan_id":"cebpf4jnsgd1na2vs0mg"},{"bike_id":"b84be679-5b1f-48c3-976b-26533c3ca5c4","system_id":"levelo_inurba_marseille","lat":43.29837,"lon":5.36262,"is_reserved":false,"is_disabled":false,"rental_uris":{"android":"levelo://app?vid=b84be679-5b1f-48c3-976b-26533c3ca5c4","ios":"levelo://app?vid=b84be679-5b1f-48c3-976b-26533c3ca5c4"},"vehicle_type_id":"4","last_reported":1733396919,"current_range_meters":38400,"station_id":"ce4bgpp2rcd13ifvqc3g","pricing_plan_id":"cebpf4jnsgd1na2vs0mg"},{"bike_id":"bd147dca-cdf2-4c5b-9537-861d9fc68c71","system_id":"levelo_inurba_marseille","lat":43.30278,"lon":5.37709,"is_reserved":false,"is_disabled":false,"rental_uris":{"android":"levelo://app?vid=bd147dca-cdf2-4c5b-9537-861d9fc68c71","ios":"levelo://app?vid=bd147dca-cdf2-4c5b-9537-861d9fc68c71"},"vehicle_type_id":"4","last_reported":1733396919,"current_range_meters":35200,"station_id":"ce4bguh2rcd13ifvqcj0","pricing_plan_id":"cebpf4jnsgd1na2vs0mg"},{"bike_id":"ce0784e5-3824-43c5-ba81-0506401ceca2","system_id":"levelo_inurba_marseille","lat":43.33024,"lon":5.39039,"is_reserved":false,"is_disabled":false,"rental_uris":{"android":"levelo://app?vid=ce0784e5-3824-43c5-ba81-0506401ceca2","ios":"levelo://app?vid=ce0784e5-3824-43c5-ba81-0506401ceca2"},"vehicle_type_id":"4","last_reported":1733396919,"current_range_meters":38000,"station_id":"ce4bhr92rcd13ifvqhrg","pricing_plan_id":"cebpf4jnsgd1na2vs0mg"},{"bike_id":"e93e82ee-f4f4-485f-a49f-6ea9b2abcc3e","system_id":"levelo_inurba_marseille","lat":43.30539,"lon":5.36535,"is_reserved":false,"is_disabled":false,"rental_uris":{"android":"levelo://app?vid=e93e82ee-f4f4-485f-a49f-6ea9b2abcc3e","ios":"levelo://app?vid=e93e82ee-f4f4-485f-a49f-6ea9b2abcc3e"},"vehicle_type_id":"4","last_reported":1733396919,"current_range_meters":38800,"station_id":"ce4bgs12rcd13ifvqcag","pricing_plan_id":"cebpf4jnsgd1na2vs0mg"},{"bike_id":"54b774e6-b4a6-44ed-9946-e7a9ae4dd5d1","system_id":"levelo_inurba_marseille","lat":43.337444,"lon":5.374475,"is_reserved":false,"is_disabled":false,"rental_uris":{"android":"levelo://app?vid=54b774e6-b4a6-44ed-9946-e7a9ae4dd5d1","ios":"levelo://app?vid=54b774e6-b4a6-44ed-9946-e7a9ae4dd5d1"},"vehicle_type_id":"4","last_reported":1733396919,"current_range_meters":38800,"station_id":"ce4bh0p2rcd13ifvqd70","pricing_plan_id":"cebpf4jnsgd1na2vs0mg"},{"bike_id":"566d3863-5d3d-46e1-8560-48de365cc9d0","system_id":"levelo_inurba_marseille","lat":43.26552,"lon":5.37283,"is_reserved":false,"is_disabled":false,"rental_uris":{"android":"levelo://app?vid=566d3863-5d3d-46e1-8560-48de365cc9d0","ios":"levelo://app?vid=566d3863-5d3d-46e1-8560-48de365cc9d0"},"vehicle_type_id":"4","last_reported":1733396919,"current_range_meters":38800,"station_id":"ce4bhg12rcd13ifvqf70","pricing_plan_id":"cebpf4jnsgd1na2vs0mg"},{"bike_id":"80242e9c-14c7-4b58-93b4-d63aa66daa53","system_id":"levelo_inurba_marseille","lat":43.24805,"lon":5.37458,"is_reserved":false,"is_disabled":false,"rental_uris":{"android":"levelo://app?vid=80242e9c-14c7-4b58-93b4-d63aa66daa53","ios":"levelo://app?vid=80242e9c-14c7-4b58-93b4-d63aa66daa53"},"vehicle_type_id":"4","last_reported":1733396919,"current_range_meters":23200,"station_id":"ce4bhgh2rcd13ifvqfb0","pricing_plan_id":"cebpf4jnsgd1na2vs0mg"},{"bike_id":"4eba115e-8b6d-4397-95dd-3da566caa867","system_id":"levelo_inurba_marseille","lat":43.29004,"lon":5.35614,"is_reserved":false,"is_disabled":false,"rental_uris":{"android":"levelo://app?vid=4eba115e-8b6d-4397-95dd-3da566caa867","ios":"levelo://app?vid=4eba115e-8b6d-4397-95dd-3da566caa867"},"vehicle_type_id":"4","last_reported":1733396919,"current_range_meters":38800,"station_id":"ce4bhb92rcd13ifvqen0","pricing_plan_id":"cebpf4jnsgd1na2vs0mg"},{"bike_id":"55603ba0-257d-42e7-b9d1-7b47f78838bb","system_id":"levelo_inurba_marseille","lat":43.24386,"lon":5.37063,"is_reserved":false,"is_disabled":false,"rental_uris":{"android":"levelo://app?vid=55603ba0-257d-42e7-b9d1-7b47f78838bb","ios":"levelo://app?vid=55603ba0-257d-42e7-b9d1-7b47f78838bb"},"vehicle_type_id":"4","last_reported":1733396919,"current_range_meters":32800,"station_id":"ce4bhhh2rcd13ifvqfk0","pricing_plan_id":"cebpf4jnsgd1na2vs0mg"},{"bike_id":"46226c21-8eb6-497f-ba9e-14c8b332ac2f","system_id":"levelo_inurba_marseille","lat":43.29844,"lon":5.36271,"is_reserved":false,"is_disabled":false,"rental_uris":{"android":"levelo://app?vid=46226c21-8eb6-497f-ba9e-14c8b332ac2f","ios":"levelo://app?vid=46226c21-8eb6-497f-ba9e-14c8b332ac2f"},"vehicle_type_id":"4","last_reported":1733396919,"current_range_meters":23200,"station_id":"ce4bgpp2rcd13ifvqc3g","pricing_plan_id":"cebpf4jnsgd1na2vs0mg"},{"bike_id":"21c61b3f-2ae1-41ed-96e8-21fc1b01a387","system_id":"levelo_inurba_marseille","lat":43.30089,"lon":5.37244,"is_reserved":false,"is_disabled":false,"rental_uris":{"android":"levelo://app?vid=21c61b3f-2ae1-41ed-96e8-21fc1b01a387","ios":"levelo://app?vid=21c61b3f-2ae1-41ed-96e8-21fc1b01a387"},"vehicle_type_id":"4","last_reported":1733396919,"current_range_meters":16800,"station_id":"","pricing_plan_id":"cebpf4jnsgd1na2vs0mg"},{"bike_id":"aaf63e22-c730-437f-b874-ac44fb64b925","system_id":"levelo_inurba_marseille","lat":43.23922,"lon":5.36571,"is_reserved":false,"is_disabled":false,"rental_uris":{"android":"levelo://app?vid=aaf63e22-c730-437f-b874-ac44fb64b925","ios":"levelo://app?vid=aaf63e22-c730-437f-b874-ac44fb64b925"},"vehicle_type_id":"4","last_reported":1733396919,"current_range_meters":20400,"station_id":"","pricing_plan_id":"cebpf4jnsgd1na2vs0mg"},{"bike_id":"3a9149f3-357c-4d0a-859b-18382ef024a5","system_id":"levelo_inurba_marseille","lat":43.32112,"lon":5.36769,"is_reserved":false,"is_disabled":false,"rental_uris":{"android":"levelo://app?vid=3a9149f3-357c-4d0a-859b-18382ef024a5","ios":"levelo://app?vid=3a9149f3-357c-4d0a-859b-18382ef024a5"},"vehicle_type_id":"4","last_reported":1733396919,"current_range_meters":24400,"station_id":"ce4bhrh2rcd13ifvqhug","pricing_plan_id":"cebpf4jnsgd1na2vs0mg"},{"bike_id":"caf0dbbf-46fc-446d-b33a-0cca617bcd28","system_id":"levelo_inurba_marseille","lat":43.27494,"lon":5.42454,"is_reserved":false,"is_disabled":false,"rental_uris":{"android":"levelo://app?vid=caf0dbbf-46fc-446d-b33a-0cca617bcd28","ios":"levelo://app?vid=caf0dbbf-46fc-446d-b33a-0cca617bcd28"},"vehicle_type_id":"4","last_reported":1733396919,"current_range_meters":36400,"station_id":"ce4bhn92rcd13ifvqgrg","pricing_plan_id":"cebpf4jnsgd1na2vs0mg"},{"bike_id":"721f5feb-b378-4dac-af39-7801c98d73b6","system_id":"levelo_inurba_marseille","lat":43.3015,"lon":5.38086,"is_reserved":false,"is_disabled":true,"rental_uris":{"android":"levelo://app?vid=721f5feb-b378-4dac-af39-7801c98d73b6","ios":"levelo://app?vid=721f5feb-b378-4dac-af39-7801c98d73b6"},"vehicle_type_id":"4","last_reported":1733396919,"current_range_meters":0,"station_id":"ce4bgjp2rcd13ifvqbh0","pricing_plan_id":"cebpf4jnsgd1na2vs0mg"},{"bike_id":"da6a7a1d-e653-4950-af8c-8137b06f7d40","system_id":"levelo_inurba_marseille","lat":43.3004,"lon":5.37551,"is_reserved":false,"is_disabled":true,"rental_uris":{"android":"levelo://app?vid=da6a7a1d-e653-4950-af8c-8137b06f7d40","ios":"levelo://app?vid=da6a7a1d-e653-4950-af8c-8137b06f7d40"},"vehicle_type_id":"4","last_reported":1733396919,"current_range_meters":0,"station_id":"","pricing_plan_id":"cebpf4jnsgd1na2vs0mg"},{"bike_id":"83e01318-977b-4110-bff7-2466f25e4777","system_id":"levelo_inurba_marseille","lat":43.2594,"lon":5.40905,"is_reserved":false,"is_disabled":false,"rental_uris":{"android":"levelo://app?vid=83e01318-977b-4110-bff7-2466f25e4777","ios":"levelo://app?vid=83e01318-977b-4110-bff7-2466f25e4777"},"vehicle_type_id":"4","last_reported":1733396919,"current_range_meters":15200,"station_id":"ce4bhm92rcd13ifvqglg","pricing_plan_id":"cebpf4jnsgd1na2vs0mg"},{"bike_id":"10f45c91-d85a-4e94-8537-27e902b68779","system_id":"levelo_inurba_marseille","lat":43.25935,"lon":5.40911,"is_reserved":false,"is_disabled":false,"rental_uris":{"android":"levelo://app?vid=10f45c91-d85a-4e94-8537-27e902b68779","ios":"levelo://app?vid=10f45c91-d85a-4e94-8537-27e902b68779"},"vehicle_type_id":"4","last_reported":1733396919,"current_range_meters":18000,"station_id":"ce4bhm92rcd13ifvqglg","pricing_plan_id":"cebpf4jnsgd1na2vs0mg"},{"bike_id":"055f094c-d378-4f0a-bb86-072811811d59","system_id":"levelo_inurba_marseille","lat":43.25945,"lon":5.40901,"is_reserved":false,"is_disabled":false,"rental_uris":{"android":"levelo://app?vid=055f094c-d378-4f0a-bb86-072811811d59","ios":"levelo://app?vid=055f094c-d378-4f0a-bb86-072811811d59"},"vehicle_type_id":"4","last_reported":1733396919,"current_range_meters":37600,"station_id":"ce4bhm92rcd13ifvqglg","pricing_plan_id":"cebpf4jnsgd1na2vs0mg"},{"bike_id":"ea32da4e-bdd3-4cc0-95cd-754ac251d9d2","system_id":"levelo_inurba_marseille","lat":43.325,"lon":5.36542,"is_reserved":false,"is_disabled":false,"rental_uris":{"android":"levelo://app?vid=ea32da4e-bdd3-4cc0-95cd-754ac251d9d2","ios":"levelo://app?vid=ea32da4e-bdd3-4cc0-95cd-754ac251d9d2"},"vehicle_type_id":"4","last_reported":1733396919,"current_range_meters":27200,"station_id":"ce4bhs12rcd13ifvqhvg","pricing_plan_id":"cebpf4jnsgd1na2vs0mg"},{"bike_id":"3dc3bbfc-7a8e-4230-9bd4-cf0c0009f96d","system_id":"levelo_inurba_marseille","lat":43.30535,"lon":5.36542,"is_reserved":false,"is_disabled":false,"rental_uris":{"android":"levelo://app?vid=3dc3bbfc-7a8e-4230-9bd4-cf0c0009f96d","ios":"levelo://app?vid=3dc3bbfc-7a8e-4230-9bd4-cf0c0009f96d"},"vehicle_type_id":"4","last_reported":1733396919,"current_range_meters":38800,"station_id":"ce4bgs12rcd13ifvqcag","pricing_plan_id":"cebpf4jnsgd1na2vs0mg"},{"bike_id":"b9bd56fd-ec87-4663-ac42-cd96603ef2b6","system_id":"levelo_inurba_marseille","lat":43.29843,"lon":5.36276,"is_reserved":false,"is_disabled":false,"rental_uris":{"android":"levelo://app?vid=b9bd56fd-ec87-4663-ac42-cd96603ef2b6","ios":"levelo://app?vid=b9bd56fd-ec87-4663-ac42-cd96603ef2b6"},"vehicle_type_id":"4","last_reported":1733396919,"current_range_meters":30400,"station_id":"ce4bgpp2rcd13ifvqc3g","pricing_plan_id":"cebpf4jnsgd1na2vs0mg"},{"bike_id":"2db7f5fd-afd5-494c-99fe-e965dfdef234","system_id":"levelo_inurba_marseille","lat":43.32475,"lon":5.36568,"is_reserved":false,"is_disabled":false,"rental_uris":{"android":"levelo://app?vid=2db7f5fd-afd5-494c-99fe-e965dfdef234","ios":"levelo://app?vid=2db7f5fd-afd5-494c-99fe-e965dfdef234"},"vehicle_type_id":"4","last_reported":1733396919,"current_range_meters":38000,"station_id":"ce4bhs12rcd13ifvqhvg","pricing_plan_id":"cebpf4jnsgd1na2vs0mg"},{"bike_id":"b983f700-39e1-418f-84a3-1c3c95a84b96","system_id":"levelo_inurba_marseille","lat":43.33774,"lon":5.37489,"is_reserved":false,"is_disabled":false,"rental_uris":{"android":"levelo://app?vid=b983f700-39e1-418f-84a3-1c3c95a84b96","ios":"levelo://app?vid=b983f700-39e1-418f-84a3-1c3c95a84b96"},"vehicle_type_id":"4","last_reported":1733396919,"current_range_meters":38400,"station_id":"","pricing_plan_id":"cebpf4jnsgd1na2vs0mg"},{"bike_id":"30de221a-4ae9-44c8-af60-f5843b67f535","system_id":"levelo_inurba_marseille","lat":43.337444,"lon":5.374475,"is_reserved":false,"is_disabled":false,"rental_uris":{"android":"levelo://app?vid=30de221a-4ae9-44c8-af60-f5843b67f535","ios":"levelo://app?vid=30de221a-4ae9-44c8-af60-f5843b67f535"},"vehicle_type_id":"4","last_reported":1733396919,"current_range_meters":38400,"station_id":"","pricing_plan_id":"cebpf4jnsgd1na2vs0mg"},{"bike_id":"a1649a31-13c9-4866-97c4-402eb4304c84","system_id":"levelo_inurba_marseille","lat":43.2898,"lon":5.37842,"is_reserved":false,"is_disabled":true,"rental_uris":{"android":"levelo://app?vid=a1649a31-13c9-4866-97c4-402eb4304c84","ios":"levelo://app?vid=a1649a31-13c9-4866-97c4-402eb4304c84"},"vehicle_type_id":"4","last_reported":1733396919,"current_range_meters":38800,"station_id":"ce4bh9p2rcd13ifvqed0","pricing_plan_id":"cebpf4jnsgd1na2vs0mg"},{"bike_id":"568b8d08-aa1e-42e3-8c4c-9b5a0b1431e4","system_id":"levelo_inurba_marseille","lat":43.26684,"lon":5.38274,"is_reserved":false,"is_disabled":false,"rental_uris":{"android":"levelo://app?vid=568b8d08-aa1e-42e3-8c4c-9b5a0b1431e4","ios":"levelo://app?vid=568b8d08-aa1e-42e3-8c4c-9b5a0b1431e4"},"vehicle_type_id":"4","last_reported":1733396919,"current_range_meters":25600,"station_id":"ce4bhg92rcd13ifvqf90","pricing_plan_id":"cebpf4jnsgd1na2vs0mg"},{"bike_id":"7d875bde-26bc-4008-a109-975119dac9f5","system_id":"levelo_inurba_marseille","lat":43.30181,"lon":5.36647,"is_reserved":false,"is_disabled":false,"rental_uris":{"android":"levelo://app?vid=7d875bde-26bc-4008-a109-975119dac9f5","ios":"levelo://app?vid=7d875bde-26bc-4008-a109-975119dac9f5"},"vehicle_type_id":"4","last_reported":1733396919,"current_range_meters":38800,"station_id":"ce4bgrh2rcd13ifvqc8g","pricing_plan_id":"cebpf4jnsgd1na2vs0mg"},{"bike_id":"5ee984fd-ad4a-4905-a134-6c56ecba5028","system_id":"levelo_inurba_marseille","lat":43.32476,"lon":5.36564,"is_reserved":false,"is_disabled":false,"rental_uris":{"android":"levelo://app?vid=5ee984fd-ad4a-4905-a134-6c56ecba5028","ios":"levelo://app?vid=5ee984fd-ad4a-4905-a134-6c56ecba5028"},"vehicle_type_id":"4","last_reported":1733396919,"current_range_meters":22800,"station_id":"ce4bhs12rcd13ifvqhvg","pricing_plan_id":"cebpf4jnsgd1na2vs0mg"},{"bike_id":"7714ce30-465c-426d-9621-0f0245a19ff8","system_id":"levelo_inurba_marseille","lat":43.2718,"lon":5.41,"is_reserved":false,"is_disabled":false,"rental_uris":{"android":"levelo://app?vid=7714ce30-465c-426d-9621-0f0245a19ff8","ios":"levelo://app?vid=7714ce30-465c-426d-9621-0f0245a19ff8"},"vehicle_type_id":"4","last_reported":1733396919,"current_range_meters":27200,"station_id":"ce4bhl12rcd13ifvqgf0","pricing_plan_id":"cebpf4jnsgd1na2vs0mg"},{"bike_id":"f05a96c6-7f9a-4dd8-811e-faddc66c716d","system_id":"levelo_inurba_marseille","lat":43.30523,"lon":5.36536,"is_reserved":false,"is_disabled":false,"rental_uris":{"android":"levelo://app?vid=f05a96c6-7f9a-4dd8-811e-faddc66c716d","ios":"levelo://app?vid=f05a96c6-7f9a-4dd8-811e-faddc66c716d"},"vehicle_type_id":"4","last_reported":1733396919,"current_range_meters":25200,"station_id":"ce4bgs12rcd13ifvqcag","pricing_plan_id":"cebpf4jnsgd1na2vs0mg"},{"bike_id":"88a8cd86-bf0b-4ae8-bcc1-a22e74807cd8","system_id":"levelo_inurba_marseille","lat":43.29005,"lon":5.35621,"is_reserved":false,"is_disabled":false,"rental_uris":{"android":"levelo://app?vid=88a8cd86-bf0b-4ae8-bcc1-a22e74807cd8","ios":"levelo://app?vid=88a8cd86-bf0b-4ae8-bcc1-a22e74807cd8"},"vehicle_type_id":"4","last_reported":1733396919,"current_range_meters":38000,"station_id":"ce4bhb92rcd13ifvqen0","pricing_plan_id":"cebpf4jnsgd1na2vs0mg"},{"bike_id":"bf68f88d-53cd-478e-88d6-b5378e06bccd","system_id":"levelo_inurba_marseille","lat":43.27811,"lon":5.40714,"is_reserved":false,"is_disabled":false,"rental_uris":{"android":"levelo://app?vid=bf68f88d-53cd-478e-88d6-b5378e06bccd","ios":"levelo://app?vid=bf68f88d-53cd-478e-88d6-b5378e06bccd"},"vehicle_type_id":"4","last_reported":1733396919,"current_range_meters":29600,"station_id":"ce4bhnh2rcd13ifvqgtg","pricing_plan_id":"cebpf4jnsgd1na2vs0mg"},{"bike_id":"db3932e9-178a-4444-90e1-3636f24c8038","system_id":"levelo_inurba_marseille","lat":43.292225,"lon":5.360232,"is_reserved":false,"is_disabled":false,"rental_uris":{"android":"levelo://app?vid=db3932e9-178a-4444-90e1-3636f24c8038","ios":"levelo://app?vid=db3932e9-178a-4444-90e1-3636f24c8038"},"vehicle_type_id":"4","last_reported":1733396919,"current_range_meters":24000,"station_id":"ce4bhb12rcd13ifvqel0","pricing_plan_id":"cebpf4jnsgd1na2vs0mg"},{"bike_id":"eaba7670-b58d-4da3-98e2-9aa758641e7c","system_id":"levelo_inurba_marseille","lat":43.29571,"lon":5.39971,"is_reserved":false,"is_disabled":true,"rental_uris":{"android":"levelo://app?vid=eaba7670-b58d-4da3-98e2-9aa758641e7c","ios":"levelo://app?vid=eaba7670-b58d-4da3-98e2-9aa758641e7c"},"vehicle_type_id":"4","last_reported":1733396919,"current_range_meters":0,"station_id":"ce4bh312rcd13ifvqdj0","pricing_plan_id":"cebpf4jnsgd1na2vs0mg"},{"bike_id":"f97cba5c-c473-42df-8663-e73f686e8096","system_id":"levelo_inurba_marseille","lat":43.2991,"lon":5.37476,"is_reserved":false,"is_disabled":false,"rental_uris":{"android":"levelo://app?vid=f97cba5c-c473-42df-8663-e73f686e8096","ios":"levelo://app?vid=f97cba5c-c473-42df-8663-e73f686e8096"},"vehicle_type_id":"4","last_reported":1733396919,"current_range_meters":38800,"station_id":"ce4bgjh2rcd13ifvqbg0","pricing_plan_id":"cebpf4jnsgd1na2vs0mg"},{"bike_id":"21af6bec-95a7-4727-b381-a478af2b8837","system_id":"levelo_inurba_marseille","lat":43.30217,"lon":5.39473,"is_reserved":false,"is_disabled":false,"rental_uris":{"android":"levelo://app?vid=21af6bec-95a7-4727-b381-a478af2b8837","ios":"levelo://app?vid=21af6bec-95a7-4727-b381-a478af2b8837"},"vehicle_type_id":"4","last_reported":1733396919,"current_range_meters":38800,"station_id":"ce4bh0p2rcd13ifvqd70","pricing_plan_id":"cebpf4jnsgd1na2vs0mg"},{"bike_id":"fed80375-c758-4f34-abca-d3557a13877f","system_id":"levelo_inurba_marseille","lat":43.25723,"lon":5.41119,"is_reserved":false,"is_disabled":false,"rental_uris":{"android":"levelo://app?vid=fed80375-c758-4f34-abca-d3557a13877f","ios":"levelo://app?vid=fed80375-c758-4f34-abca-d3557a13877f"},"vehicle_type_id":"4","last_reported":1733396919,"current_range_meters":7200,"station_id":"ce4bhkp2rcd13ifvqgd0","pricing_plan_id":"cebpf4jnsgd1na2vs0mg"},{"bike_id":"be8cd377-bf58-414c-876c-45495911bc5b","system_id":"levelo_inurba_marseille","lat":43.28688,"lon":5.4108,"is_reserved":false,"is_disabled":true,"rental_uris":{"android":"levelo://app?vid=be8cd377-bf58-414c-876c-45495911bc5b","ios":"levelo://app?vid=be8cd377-bf58-414c-876c-45495911bc5b"},"vehicle_type_id":"4","last_reported":1733396919,"current_range_meters":6400,"station_id":"","pricing_plan_id":"cebpf4jnsgd1na2vs0mg"},{"bike_id":"f18cff08-ea29-4371-ae3b-1cf6b3eef905","system_id":"levelo_inurba_marseille","lat":43.30343,"lon":5.37243,"is_reserved":false,"is_disabled":false,"rental_uris":{"android":"levelo://app?vid=f18cff08-ea29-4371-ae3b-1cf6b3eef905","ios":"levelo://app?vid=f18cff08-ea29-4371-ae3b-1cf6b3eef905"},"vehicle_type_id":"4","last_reported":1733396919,"current_range_meters":16000,"station_id":"","pricing_plan_id":"cebpf4jnsgd1na2vs0mg"},{"bike_id":"d3248c41-7428-49a6-84bc-20fc92c0abcd","system_id":"levelo_inurba_marseille","lat":43.27069,"lon":5.42283,"is_reserved":false,"is_disabled":false,"rental_uris":{"android":"levelo://app?vid=d3248c41-7428-49a6-84bc-20fc92c0abcd","ios":"levelo://app?vid=d3248c41-7428-49a6-84bc-20fc92c0abcd"},"vehicle_type_id":"4","last_reported":1733396919,"current_range_meters":8400,"station_id":"ce4bhk92rcd13ifvqgb0","pricing_plan_id":"cebpf4jnsgd1na2vs0mg"},{"bike_id":"0770995c-964d-42cb-80de-55f4fd5ee79a","system_id":"levelo_inurba_marseille","lat":43.337444,"lon":5.374475,"is_reserved":false,"is_disabled":false,"rental_uris":{"android":"levelo://app?vid=0770995c-964d-42cb-80de-55f4fd5ee79a","ios":"levelo://app?vid=0770995c-964d-42cb-80de-55f4fd5ee79a"},"vehicle_type_id":"4","last_reported":1733396919,"current_range_meters":23200,"station_id":"","pricing_plan_id":"cebpf4jnsgd1na2vs0mg"},{"bike_id":"20e9db8d-d68b-4418-94af-d9d63f8c2b96","system_id":"levelo_inurba_marseille","lat":43.337444,"lon":5.374475,"is_reserved":false,"is_disabled":true,"rental_uris":{"android":"levelo://app?vid=20e9db8d-d68b-4418-94af-d9d63f8c2b96","ios":"levelo://app?vid=20e9db8d-d68b-4418-94af-d9d63f8c2b96"},"vehicle_type_id":"4","last_reported":1733396919,"current_range_meters":0,"station_id":"","pricing_plan_id":"cebpf4jnsgd1na2vs0mg"},{"bike_id":"88bd4630-1684-48a2-b33a-f80d98b6825f","system_id":"levelo_inurba_marseille","lat":43.33803,"lon":5.37425,"is_reserved":false,"is_disabled":false,"rental_uris":{"android":"levelo://app?vid=88bd4630-1684-48a2-b33a-f80d98b6825f","ios":"levelo://app?vid=88bd4630-1684-48a2-b33a-f80d98b6825f"},"vehicle_type_id":"4","last_reported":1733396919,"current_range_meters":36000,"station_id":"","pricing_plan_id":"cebpf4jnsgd1na2vs0mg"},{"bike_id":"7b815977-92fd-46fe-b96a-d788f289b49e","system_id":"levelo_inurba_marseille","lat":43.28655,"lon":5.3636,"is_reserved":false,"is_disabled":false,"rental_uris":{"android":"levelo://app?vid=7b815977-92fd-46fe-b96a-d788f289b49e","ios":"levelo://app?vid=7b815977-92fd-46fe-b96a-d788f289b49e"},"vehicle_type_id":"4","last_reported":1733396919,"current_range_meters":37600,"station_id":"ce4bhah2rcd13ifvqej0","pricing_plan_id":"cebpf4jnsgd1na2vs0mg"},{"bike_id":"ab74d258-8d56-4ed9-9cb7-57ae1639ee73","system_id":"levelo_inurba_marseille","lat":43.26312,"lon":5.40146,"is_reserved":false,"is_disabled":true,"rental_uris":{"android":"levelo://app?vid=ab74d258-8d56-4ed9-9cb7-57ae1639ee73","ios":"levelo://app?vid=ab74d258-8d56-4ed9-9cb7-57ae1639ee73"},"vehicle_type_id":"4","last_reported":1733396919,"current_range_meters":0,"station_id":"","pricing_plan_id":"cebpf4jnsgd1na2vs0mg"},{"bike_id":"39acb221-234a-4885-a424-8e2e2435dbb7","system_id":"levelo_inurba_marseille","lat":43.29377,"lon":5.3786,"is_reserved":false,"is_disabled":true,"rental_uris":{"android":"levelo://app?vid=39acb221-234a-4885-a424-8e2e2435dbb7","ios":"levelo://app?vid=39acb221-234a-4885-a424-8e2e2435dbb7"},"vehicle_type_id":"4","last_reported":1733396919,"current_range_meters":1200,"station_id":"ce4bgjh2rcd13ifvqbf0","pricing_plan_id":"cebpf4jnsgd1na2vs0mg"},{"bike_id":"9d387060-ed79-41e4-9606-32a420ea1a74","system_id":"levelo_inurba_marseille","lat":43.29256,"lon":5.38449,"is_reserved":false,"is_disabled":true,"rental_uris":{"android":"levelo://app?vid=9d387060-ed79-41e4-9606-32a420ea1a74","ios":"levelo://app?vid=9d387060-ed79-41e4-9606-32a420ea1a74"},"vehicle_type_id":"4","last_reported":1733396919,"current_range_meters":0,"station_id":"ce4bh692rcd13ifvqea0","pricing_plan_id":"cebpf4jnsgd1na2vs0mg"},{"bike_id":"2dc96063-b29a-4b01-b6f8-d8faac49410d","system_id":"levelo_inurba_marseille","lat":43.290386,"lon":5.363769,"is_reserved":false,"is_disabled":false,"rental_uris":{"android":"levelo://app?vid=2dc96063-b29a-4b01-b6f8-d8faac49410d","ios":"levelo://app?vid=2dc96063-b29a-4b01-b6f8-d8faac49410d"},"vehicle_type_id":"4","last_reported":1733396919,"current_range_meters":35200,"station_id":"","pricing_plan_id":"cebpf4jnsgd1na2vs0mg"},{"bike_id":"f6f6210d-5e07-46dd-93e4-3e102dd7cb0e","system_id":"levelo_inurba_marseille","lat":43.29384,"lon":5.38901,"is_reserved":false,"is_disabled":false,"rental_uris":{"android":"levelo://app?vid=f6f6210d-5e07-46dd-93e4-3e102dd7cb0e","ios":"levelo://app?vid=f6f6210d-5e07-46dd-93e4-3e102dd7cb0e"},"vehicle_type_id":"4","last_reported":1733396919,"current_range_meters":7200,"station_id":"","pricing_plan_id":"cebpf4jnsgd1na2vs0mg"},{"bike_id":"5171da7f-7b69-4fa9-a5ac-912417b93cef","system_id":"levelo_inurba_marseille","lat":43.23065,"lon":5.35493,"is_reserved":false,"is_disabled":false,"rental_uris":{"android":"levelo://app?vid=5171da7f-7b69-4fa9-a5ac-912417b93cef","ios":"levelo://app?vid=5171da7f-7b69-4fa9-a5ac-912417b93cef"},"vehicle_type_id":"4","last_reported":1733396919,"current_range_meters":30400,"station_id":"cpo3342slgdg3j2ifvpg","pricing_plan_id":"cebpf4jnsgd1na2vs0mg"},{"bike_id":"ca3dbfad-547e-49ae-ba9a-ccc2681ddda7","system_id":"levelo_inurba_marseille","lat":43.30434,"lon":5.38889,"is_reserved":false,"is_disabled":false,"rental_uris":{"android":"levelo://app?vid=ca3dbfad-547e-49ae-ba9a-ccc2681ddda7","ios":"levelo://app?vid=ca3dbfad-547e-49ae-ba9a-ccc2681ddda7"},"vehicle_type_id":"4","last_reported":1733396919,"current_range_meters":25200,"station_id":"ce4bgk12rcd13ifvqbi0","pricing_plan_id":"cebpf4jnsgd1na2vs0mg"},