{"last_updated":1706645216,"ttl":30,"version":"2.2","data":{"bikes":[{"bike_id":"7d731cec-0a6e-41af-a324-641e12930166","system_id":"levelo_inurba_marseille","lat":43.312239,"lon":5.368562,"is_reserved":false,"is_disabled":false,"rental_uris":{"android":"levelo://app?vid=7d731cec-0a6e-41af-a324-641e12930166","ios":"levelo://app?vid=7d731cec-0a6e-41af-a324-641e12930166"},"vehicle_type_id":"4","last_reported":1706645216,"current_range_meters":24000,"station_id":"ce4bgl92rcd13ifvqbq0","pricing_plan_id":"free"},{"bike_id":"888e6484-97db-4f48-9b83-6b3d3c2192a6","system_id":"levelo_inurba_marseille","lat":43.309257,"lon":5.3685,"is_reserved":false,"is_disabled":false,"rental_uris":{"android":"levelo://app?vid=888e6484-97db-4f48-9b83-6b3d3c2192a6","ios":"levelo://app?vid=888e6484-97db-4f48-9b83-6b3d3c2192a6"},"vehicle_type_id":"4","last_reported":1706645216,"current_range_meters":16800,"station_id":"ce4bgn92rcd13ifvqbvg","pricing_plan_id":"free"},{"bike_id":"757bca03-2335-48aa-b8ee-58a03d2a5848","system_id":"levelo_inurba_marseille","lat":43.314811,"lon":5.373104,"is_reserved":false,"is_disabled":false,"rental_uris":{"android":"levelo://app?vid=757bca03-2335-48aa-b8ee-58a03d2a5848","ios":"levelo://app?vid=757bca03-2335-48aa-b8ee-58a03d2a5848"},"vehicle_type_id":"4","last_reported":1706645216,"current_range_meters":0,"station_id":"ce4bgt12rcd13ifvqcd0","pricing_plan_id":"free"},{"bike_id":"3902f5e7-ec45-4759-a6e6-05e79993b655","system_id":"levelo_inurba_marseille","lat":43.314811,"lon":5.373103,"is_reserved":false,"is_disabled":false,"rental_uris":{"android":"levelo://app?vid=3902f5e7-ec45-4759-a6e6-05e79993b655","ios":"levelo://app?vid=3902f5e7-ec45-4759-a6e6-05e79993b655"},"vehicle_type_id":"4","last_reported":1706645216,"current_range_meters":23200,"station_id":"ce4bgt12rcd13ifvqcd0","pricing_plan_id":"free"},{"bike_id":"50b476b8-9eb2-4d1d-b90b-802375165bdf","system_id":"levelo_inurba_marseille","lat":43.314811,"lon":5.373104,"is_reserved":false,"is_disabled":false,"rental_uris":{"android":"levelo://app?vid=50b476b8-9eb2-4d1d-b90b-802375165bdf","ios":"levelo://app?vid=50b476b8-9eb2-4d1d-b90b-802375165bdf"},"vehicle_type_id":"4","last_reported":1706645216,"current_range_meters":800,"station_id":"ce4bgt12rcd13ifvqcd0","pricing_plan_id":"free"},{"bike_id":"86415665-9102-4033-9619-c07904b79cb5","system_id":"levelo_inurba_marseille","lat":43.309039,"lon":5.371797,"is_reserved":false,"is_disabled":false,"rental_uris":{"android":"levelo://app?vid=86415665-9102-4033-9619-c07904b79cb5","ios":"levelo://app?vid=86415665-9102-4033-9619-c07904b79cb5"},"vehicle_type_id":"4","last_reported":1706645216,"current_range_meters":13200,"station_id":"ce4bguh2rcd13ifvqckg","pricing_plan_id":"free"},{"bike_id":"3cac0d37-2e0f-42b2-b2bb-fc572ae9ae8f","system_id":"levelo_inurba_marseille","lat":43.309039,"lon":5.371797,"is_reserved":false,"is_disabled":false,"rental_uris":{"android":"levelo://app?vid=3cac0d37-2e0f-42b2-b2bb-fc572ae9ae8f","ios":"levelo://app?vid=3cac0d37-2e0f-42b2-b2bb-fc572ae9ae8f"},"vehicle_type_id":"4","last_reported":1706645216,"current_range_meters":24400,"station_id":"ce4bguh2rcd13ifvqckg","pricing_plan_id":"free"},{"bike_id":"dd638ec6-627e-4d63-a153-3d945cc545ec","system_id":"levelo_inurba_marseille","lat":43.30537,"lon":5.367345,"is_reserved":false,"is_disabled":false,"rental_uris":{"android":"levelo://app?vid=dd638ec6-627e-4d63-a153-3d945cc545ec","ios":"levelo://app?vid=dd638ec6-627e-4d63-a153-3d945cc545ec"},"vehicle_type_id":"4","last_reported":1706645216,"current_range_meters":0,"station_id":"ce4bgrp2rcd13ifvqc9g","pricing_plan_id":"free"},{"bike_id":"2182e694-ce60-487f-928c-ccd9f55ba739","system_id":"levelo_inurba_marseille","lat":43.305368,"lon":5.367343,"is_reserved":false,"is_disabled":false,"rental_uris":{"android":"levelo://app?vid=2182e694-ce60-487f-928c-ccd9f55ba739","ios":"levelo://app?vid=2182e694-ce60-487f-928c-ccd9f55ba739"},"vehicle_type_id":"4","last_reported":1706645216,"current_range_meters":4800,"station_id":"ce4bgrp2rcd13ifvqc9g","pricing_plan_id":"free"},{"bike_id":"de5d91a9-4314-4a9e-b7aa-e38b334762d6","system_id":"levelo_inurba_marseille","lat":43.305989,"lon":5.37225,"is_reserved":false,"is_disabled":false,"rental_uris":{"android":"levelo://app?vid=de5d91a9-4314-4a9e-b7aa-e38b334762d6","ios":"levelo://app?vid=de5d91a9-4314-4a9e-b7aa-e38b334762d6"},"vehicle_type_id":"4","last_reported":1706645216,"current_range_meters":13600,"station_id":"ce4bgqh2rcd13ifvqc4g","pricing_plan_id":"free"},{"bike_id":"9d1d0217-081c-4ab6-8348-39ef111c6efd","system_id":"levelo_inurba_marseille","lat":43.311131,"lon":5.377651,"is_reserved":false,"is_disabled":false,"rental_uris":{"android":"levelo://app?vid=9d1d0217-081c-4ab6-8348-39ef111c6efd","ios":"levelo://app?vid=9d1d0217-081c-4ab6-8348-39ef111c6efd"},"vehicle_type_id":"4","last_reported":1706645216,"current_range_meters":6000,"station_id":"ce4bgt92rcd13ifvqcg0","pricing_plan_id":"free"},{"bike_id":"bc5b46f5-832c-4707-807a-10d8c1f9a079","system_id":"levelo_inurba_marseille","lat":43.305989,"lon":5.37225,"is_reserved":false,"is_disabled":false,"rental_uris":{"android":"levelo://app?vid=bc5b46f5-832c-4707-807a-10d8c1f9a079","ios":"levelo://app?vid=bc5b46f5-832c-4707-807a-10d8c1f9a079"},"vehicle_type_id":"4","last_reported":1706645216,"current_range_meters":23600,"station_id":"ce4bgqh2rcd13ifvqc4g","pricing_plan_id":"free"},{"bike_id":"b8b12b2b-51a3-4d52-980b-48382f740aee","system_id":"levelo_inurba_marseille","lat":43.311131,"lon":5.377651,"is_reserved":false,"is_disabled":false,"rental_uris":{"android":"levelo://app?vid=b8b12b2b-51a3-4d52-980b-48382f740aee","ios":"levelo://app?vid=b8b12b2b-51a3-4d52-980b-48382f740aee"},"vehicle_type_id":"4","last_reported":1706645216,"current_range_meters":10800,"station_id":"ce4bgt92rcd13ifvqcg0","pricing_plan_id":"free"},{"bike_id":"8fc8edbe-5ed8-4689-8163-77e76c791ec5","system_id":"levelo_inurba_marseille","lat":43.307945,"lon":5.376487,"is_reserved":false,"is_disabled":false,"rental_uris":{"android":"levelo://app?vid=8fc8edbe-5ed8-4689-8163-77e76c791ec5","ios":"levelo://app?vid=8fc8edbe-5ed8-4689-8163-77e76c791ec5"},"vehicle_type_id":"4","last_reported":1706645216,"current_range_meters":12000,"station_id":"ce4bgv92rcd13ifvqcq0","pricing_plan_id":"free"},{"bike_id":"22331776-df67-43f7-9179-78b4bb83ed5c","system_id":"levelo_inurba_marseille","lat":43.307945,"lon":5.376487,"is_reserved":false,"is_disabled":false,"rental_uris":{"android":"levelo://app?vid=22331776-df67-43f7-9179-78b4bb83ed5c","ios":"levelo://app?vid=22331776-df67-43f7-9179-78b4bb83ed5c"},"vehicle_type_id":"4","last_reported":1706645216,"current_range_meters":6800,"station_id":"ce4bgv92rcd13ifvqcq0","pricing_plan_id":"free"},{"bike_id":"f11d4cde-3af7-4167-848a-dcd78644fab3","system_id":"levelo_inurba_marseille","lat":43.307945,"lon":5.376487,"is_reserved":false,"is_disabled":false,"rental_uris":{"android":"levelo://app?vid=f11d4cde-3af7-4167-848a-dcd78644fab3","ios":"levelo://app?vid=f11d4cde-3af7-4167-848a-dcd78644fab3"},"vehicle_type_id":"4","last_reported":1706645216,"current_range_meters":27200,"station_id":"ce4bgv92rcd13ifvqcq0","pricing_plan_id":"free"},{"bike_id":"c2e52285-bd7d-44a6-a29b-14fd23ef2937","system_id":"levelo_inurba_marseille","lat":43.307945,"lon":5.376487,"is_reserved":false,"is_disabled":false,"rental_uris":{"android":"levelo://app?vid=c2e52285-bd7d-44a6-a29b-14fd23ef2937","ios":"levelo://app?vid=c2e52285-bd7d-44a6-a29b-14fd23ef2937"},"vehicle_type_id":"4","last_reported":1706645216,"current_range_meters":14800,"station_id":"ce4bgv92rcd13ifvqcq0","pricing_plan_id":"free"},{"bike_id":"fdd056f9-09f5-494d-b7a1-9fb4fac4bf4a","system_id":"levelo_inurba_marseille","lat":43.303046,"lon":5.368981,"is_reserved":false,"is_disabled":false,"rental_uris":{"android":"levelo://app?vid=fdd056f9-09f5-494d-b7a1-9fb4fac4bf4a","ios":"levelo://app?vid=fdd056f9-09f5-494d-b7a1-9fb4fac4bf4a"},"vehicle_type_id":"4","last_reported":1706645216,"current_range_meters":23600,"station_id":"ce4bgqh2rcd13ifvqc5g","pricing_plan_id":"free"},{"bike_id":"9a5234cc-e4ec-42e9-8a7a-78859dcb7279","system_id":"levelo_inurba_marseille","lat":43.30304,"lon":5.368987,"is_reserved":false,"is_disabled":false,"rental_uris":{"android":"levelo://app?vid=9a5234cc-e4ec-42e9-8a7a-78859dcb7279","ios":"levelo://app?vid=9a5234cc-e4ec-42e9-8a7a-78859dcb7279"},"vehicle_type_id":"4","last_reported":1706645216,"current_range_meters":0,"station_id":"ce4bgqh2rcd13ifvqc5g","pricing_plan_id":"free"},{"bike_id":"f451b387-0e79-4dde-bd10-32f4ba4d50bd","system_id":"levelo_inurba_marseille","lat":43.30833,"lon":5.37926,"is_reserved":false,"is_disabled":false,"rental_uris":{"android":"levelo://app?vid=f451b387-0e79-4dde-bd10-32f4ba4d50bd","ios":"levelo://app?vid=f451b387-0e79-4dde-bd10-32f4ba4d50bd"},"vehicle_type_id":"4","last_reported":1706645216,"current_range_meters":6000,"station_id":"","pricing_plan_id":"free"},{"bike_id":"da7dcaae-033a-4491-afc8-287d2278d803","system_id":"levelo_inurba_marseille","lat":43.315293,"lon":5.380349,"is_reserved":false,"is_disabled":false,"rental_uris":{"android":"levelo://app?vid=da7dcaae-033a-4491-afc8-287d2278d803","ios":"levelo://app?vid=da7dcaae-033a-4491-afc8-287d2278d803"},"vehicle_type_id":"4","last_reported":1706645216,"current_range_meters":31200,"station_id":"ce4bhsp2rcd13ifvqi50","pricing_plan_id":"free"},{"bike_id":"1881aba2-bf08-4502-87cf-9c4f63ebd4d6","system_id":"levelo_inurba_marseille","lat":43.301939,"lon":5.366286,"is_reserved":false,"is_disabled":false,"rental_uris":{"android":"levelo://app?vid=1881aba2-bf08-4502-87cf-9c4f63ebd4d6","ios":"levelo://app?vid=1881aba2-bf08-4502-87cf-9c4f63ebd4d6"},"vehicle_type_id":"4","last_reported":1706645216,"current_range_meters":8000,"station_id":"ce4bgrh2rcd13ifvqc8g","pricing_plan_id":"free"},{"bike_id":"74298183-f170-436c-8127-7e49ae64ef77","system_id":"levelo_inurba_marseille","lat":43.301939,"lon":5.366286,"is_reserved":false,"is_disabled":false,"rental_uris":{"android":"levelo://app?vid=74298183-f170-436c-8127-7e49ae64ef77","ios":"levelo://app?vid=74298183-f170-436c-8127-7e49ae64ef77"},"vehicle_type_id":"4","last_reported":1706645216,"current_range_meters":12800,"station_id":"ce4bgrh2rcd13ifvqc8g","pricing_plan_id":"free"},{"bike_id":"81e20a9d-4109-4980-8dfd-fcb1f56ed037","system_id":"levelo_inurba_marseille","lat":43.301939,"lon":5.366286,"is_reserved":false,"is_disabled":false,"rental_uris":{"android":"levelo://app?vid=81e20a9d-4109-4980-8dfd-fcb1f56ed037","ios":"levelo://app?vid=81e20a9d-4109-4980-8dfd-fcb1f56ed037"},"vehicle_type_id":"4","last_reported":1706645216,"current_range_meters":30000,"station_id":"ce4bgrh2rcd13ifvqc8g","pricing_plan_id":"free"},{"bike_id":"51e89c63-f854-4682-acf5-667218799154","system_id":"levelo_inurba_marseille","lat":43.308012,"lon":5.381511,"is_reserved":false,"is_disabled":false,"rental_uris":{"android":"levelo://app?vid=51e89c63-f854-4682-acf5-667218799154","ios":"levelo://app?vid=51e89c63-f854-4682-acf5-667218799154"},"vehicle_type_id":"4","last_reported":1706645216,"current_range_meters":6000,"station_id":"ce4bgt12rcd13ifvqce0","pricing_plan_id":"free"},{"bike_id":"1f1e4df2-2836-4165-9f7e-ca919f82e870","system_id":"levelo_inurba_marseille","lat":43.308012,"lon":5.381511,"is_reserved":false,"is_disabled":false,"rental_uris":{"android":"levelo://app?vid=1f1e4df2-2836-4165-9f7e-ca919f82e870","ios":"levelo://app?vid=1f1e4df2-2836-4165-9f7e-ca919f82e870"},"vehicle_type_id":"4","last_reported":1706645216,"current_range_meters":13200,"station_id":"ce4bgt12rcd13ifvqce0","pricing_plan_id":"free"},{"bike_id":"a0fa7685-9c86-460c-ae66-1eb4e0aee124","system_id":"levelo_inurba_marseille","lat":43.308012,"lon":5.381511,"is_reserved":false,"is_disabled":false,"rental_uris":{"android":"levelo://app?vid=a0fa7685-9c86-460c-ae66-1eb4e0aee124","ios":"levelo://app?vid=a0fa7685-9c86-460c-ae66-1eb4e0aee124"},"vehicle_type_id":"4","last_reported":1706645216,"current_range_meters":18800,"station_id":"ce4bgt12rcd13ifvqce0","pricing_plan_id":"free"},{"bike_id":"300f204a-73c7-405d-8e28-620dca65d503","system_id":"levelo_inurba_marseille","lat":43.308012,"lon":5.381511,"is_reserved":false,"is_disabled":false,"rental_uris":{"android":"levelo://app?vid=300f204a-73c7-405d-8e28-620dca65d503","ios":"levelo://app?vid=300f204a-73c7-405d-8e28-620dca65d503"},"vehicle_type_id":"4","last_reported":1706645216,"current_range_meters":0,"station_id":"ce4bgt12rcd13ifvqce0","pricing_plan_id":"free"},{"bike_id":"a20b7e1f-273e-45a4-bd4b-39f266d8e860","system_id":"levelo_inurba_marseille","lat":43.308012,"lon":5.381511,"is_reserved":false,"is_disabled":false,"rental_uris":{"android":"levelo://app?vid=a20b7e1f-273e-45a4-bd4b-39f266d8e860","ios":"levelo://app?vid=a20b7e1f-273e-45a4-bd4b-39f266d8e860"},"vehicle_type_id":"4","last_reported":1706645216,"current_range_meters":6000,"station_id":"ce4bgt12rcd13ifvqce0","pricing_plan_id":"free"},{"bike_id":"04a284c6-ab3f-4874-9aaa-d24e4dd52dec","system_id":"levelo_inurba_marseille","lat":43.304636,"lon":5.379037,"is_reserved":false,"is_disabled":false,"rental_uris":{"android":"levelo://app?vid=04a284c6-ab3f-4874-9aaa-d24e4dd52dec","ios":"levelo://app?vid=04a284c6-ab3f-4874-9aaa-d24e4dd52dec"},"vehicle_type_id":"4","last_reported":1706645216,"current_range_meters":0,"station_id":"ce4bgup2rcd13ifvqcn0","pricing_plan_id":"free"},{"bike_id":"4736ab2f-d481-4964-88a7-047c1ca02d2a","system_id":"levelo_inurba_marseille","lat":43.324796,"lon":5.365768,"is_reserved":false,"is_disabled":false,"rental_uris":{"android":"levelo://app?vid=4736ab2f-d481-4964-88a7-047c1ca02d2a","ios":"levelo://app?vid=4736ab2f-d481-4964-88a7-047c1ca02d2a"},"vehicle_type_id":"4","last_reported":1706645216,"current_range_meters":28800,"station_id":"ce4bhs12rcd13ifvqhvg","pricing_plan_id":"free"},{"bike_id":"e9d343be-2147-463b-b2fc-696bf447a346","system_id":"levelo_inurba_marseille","lat":43.304606,"lon":5.379026,"is_reserved":false,"is_disabled":false,"rental_uris":{"android":"levelo://app?vid=e9d343be-2147-463b-b2fc-696bf447a346","ios":"levelo://app?vid=e9d343be-2147-463b-b2fc-696bf447a346"},"vehicle_type_id":"4","last_reported":1706645216,"current_range_meters":15600,"station_id":"ce4bgup2rcd13ifvqcn0","pricing_plan_id":"free"},{"bike_id":"f9b3aa5a-40af-4040-a917-268c7acc95ae","system_id":"levelo_inurba_marseille","lat":43.32481,"lon":5.36578,"is_reserved":false,"is_disabled":false,"rental_uris":{"android":"levelo://app?vid=f9b3aa5a-40af-4040-a917-268c7acc95ae","ios":"levelo://app?vid=f9b3aa5a-40af-4040-a917-268c7acc95ae"},"vehicle_type_id":"4","last_reported":1706645216,"current_range_meters":20800,"station_id":"ce4bhs12rcd13ifvqhvg","pricing_plan_id":"free"},{"bike_id":"4c1d912b-8425-4b28-bcd4-0691a1724560","system_id":"levelo_inurba_marseille","lat":43.324845,"lon":5.365813,"is_reserved":false,"is_disabled":false,"rental_uris":{"android":"levelo://app?vid=4c1d912b-8425-4b28-bcd4-0691a1724560","ios":"levelo://app?vid=4c1d912b-8425-4b28-bcd4-0691a1724560"},"vehicle_type_id":"4","last_reported":1706645216,"current_range_meters":22400,"station_id":"ce4bhs12rcd13ifvqhvg","pricing_plan_id":"free"},{"bike_id":"96d25446-9a11-4881-b615-c81fe5bf4f80","system_id":"levelo_inurba_marseille","lat":43.302784,"lon":5.377158,"is_reserved":false,"is_disabled":false,"rental_uris":{"android":"levelo://app?vid=96d25446-9a11-4881-b615-c81fe5bf4f80","ios":"levelo://app?vid=96d25446-9a11-4881-b615-c81fe5bf4f80"},"vehicle_type_id":"4","last_reported":1706645216,"current_range_meters":0,"station_id":"ce4bguh2rcd13ifvqcj0","pricing_plan_id":"free"},{"bike_id":"b8b1dbbf-61db-4523-87cf-433d900d312a","system_id":"levelo_inurba_marseille","lat":43.319935,"lon":5.381699,"is_reserved":false,"is_disabled":false,"rental_uris":{"android":"levelo://app?vid=b8b1dbbf-61db-4523-87cf-433d900d312a","ios":"levelo://app?vid=b8b1dbbf-61db-4523-87cf-433d900d312a"},"vehicle_type_id":"4","last_reported":1706645216,"current_range_meters":6800,"station_id":"ce4bhr12rcd13ifvqhpg","pricing_plan_id":"free"},{"bike_id":"3f4d96cf-b110-4a20-b31e-a4373c40e7be","system_id":"levelo_inurba_marseille","lat":43.31996,"lon":5.38157,"is_reserved":false,"is_disabled":false,"rental_uris":{"android":"levelo://app?vid=3f4d96cf-b110-4a20-b31e-a4373c40e7be","ios":"levelo://app?vid=3f4d96cf-b110-4a20-b31e-a4373c40e7be"},"vehicle_type_id":"4","last_reported":1706645216,"current_range_meters":18400,"station_id":"ce4bhr12rcd13ifvqhpg","pricing_plan_id":"free"},{"bike_id":"d0746e43-620f-459f-9e60-baedd4dac370","system_id":"levelo_inurba_marseille","lat":43.319935,"lon":5.381699,"is_reserved":false,"is_disabled":false,"rental_uris":{"android":"levelo://app?vid=d0746e43-620f-459f-9e60-baedd4dac370","ios":"levelo://app?vid=d0746e43-620f-459f-9e60-baedd4dac370"},"vehicle_type_id":"4","last_reported":1706645216,"current_range_meters":0,"station_id":"ce4bhr12rcd13ifvqhpg","pricing_plan_id":"free"},{"bike_id":"c4e490d7-0ea5-4f58-9a22-31a35fb1514e","system_id":"levelo_inurba_marseille","lat":43.319935,"lon":5.381699,"is_reserved":false,"is_disabled":false,"rental_uris":{"android":"levelo://app?vid=c4e490d7-0ea5-4f58-9a22-31a35fb1514e","ios":"levelo://app?vid=c4e490d7-0ea5-4f58-9a22-31a35fb1514e"},"vehicle_type_id":"4","last_reported":1706645216,"current_range_meters":2400,"station_id":"ce4bhr12rcd13ifvqhpg","pricing_plan_id":"free"},{"bike_id":"1781b2aa-3d7f-4b2b-afd5-f591db1ca4e3","system_id":"levelo_inurba_marseille","lat":43.319935,"lon":5.381699,"is_reserved":false,"is_disabled":false,"rental_uris":{"android":"levelo://app?vid=1781b2aa-3d7f-4b2b-afd5-f591db1ca4e3","ios":"levelo://app?vid=1781b2aa-3d7f-4b2b-afd5-f591db1ca4e3"},"vehicle_type_id":"4","last_reported":1706645216,"current_range_meters":19600,"station_id":"ce4bhr12rcd13ifvqhpg","pricing_plan_id":"free"},{"bike_id":"b98b133d-2d4f-4456-82c6-b1cf060c5f72","system_id":"levelo_inurba_marseille","lat":43.313571,"lon":5.384829,"is_reserved":false,"is_disabled":false,"rental_uris":{"android":"levelo://app?vid=b98b133d-2d4f-4456-82c6-b1cf060c5f72","ios":"levelo://app?vid=b98b133d-2d4f-4456-82c6-b1cf060c5f72"},"vehicle_type_id":"4","last_reported":1706645216,"current_range_meters":24800,"station_id":"ce4bgt92rcd13ifvqcf0","pricing_plan_id":"free"},{"bike_id":"019b88cb-f415-4e12-97d5-61f5c770d6ee","system_id":"levelo_inurba_marseille","lat":43.313571,"lon":5.384829,"is_reserved":false,"is_disabled":false,"rental_uris":{"android":"levelo://app?vid=019b88cb-f415-4e12-97d5-61f5c770d6ee","ios":"levelo://app?vid=019b88cb-f415-4e12-97d5-61f5c770d6ee"},"vehicle_type_id":"4","last_reported":1706645216,"current_range_meters":7200,"station_id":"ce4bgt92rcd13ifvqcf0","pricing_plan_id":"free"},{"bike_id":"93e83fb0-9475-4c14-89ce-189d23666de6","system_id":"levelo_inurba_marseille","lat":43.313571,"lon":5.384829,"is_reserved":false,"is_disabled":false,"rental_uris":{"android":"levelo://app?vid=93e83fb0-9475-4c14-89ce-189d23666de6","ios":"levelo://app?vid=93e83fb0-9475-4c14-89ce-189d23666de6"},"vehicle_type_id":"4","last_reported":1706645216,"current_range_meters":3200,"station_id":"ce4bgt92rcd13ifvqcf0","pricing_plan_id":"free"},{"bike_id":"88020db4-3cd0-4a44-ae34-22d03870e908","system_id":"levelo_inurba_marseille","lat":43.313571,"lon":5.384829,"is_reserved":false,"is_disabled":false,"rental_uris":{"android":"levelo://app?vid=88020db4-3cd0-4a44-ae34-22d03870e908","ios":"levelo://app?vid=88020db4-3cd0-4a44-ae34-22d03870e908"},"vehicle_type_id":"4","last_reported":1706645216,"current_range_meters":0,"station_id":"ce4bgt92rcd13ifvqcf0","pricing_plan_id":"free"},{"bike_id":"490060ee-60ab-4c13-9963-1ff7a1e21f30","system_id":"levelo_inurba_marseille","lat":43.313571,"lon":5.384829,"is_reserved":false,"is_disabled":false,"rental_uris":{"android":"levelo://app?vid=490060ee-60ab-4c13-9963-1ff7a1e21f30","ios":"levelo://app?vid=490060ee-60ab-4c13-9963-1ff7a1e21f30"},"vehicle_type_id":"4","last_reported":1706645216,"current_range_meters":18400,"station_id":"ce4bgt92rcd13ifvqcf0","pricing_plan_id":"free"},{"bike_id":"4fa5792f-5ff1-4142-9011-64799749ef0d","system_id":"levelo_inurba_marseille","lat":43.313571,"lon":5.384829,"is_reserved":false,"is_disabled":false,"rental_uris":{"android":"levelo://app?vid=4fa5792f-5ff1-4142-9011-64799749ef0d","ios":"levelo://app?vid=4fa5792f-5ff1-4142-9011-64799749ef0d"},"vehicle_type_id":"4","last_reported":1706645216,"current_range_meters":3600,"station_id":"ce4bgt92rcd13ifvqcf0","pricing_plan_id":"free"},{"bike_id":"97c179e6-8f43-4dcf-9d2b-634dcd15e6c9","system_id":"levelo_inurba_marseille","lat":43.313571,"lon":5.384829,"is_reserved":false,"is_disabled":false,"rental_uris":{"android":"levelo://app?vid=97c179e6-8f43-4dcf-9d2b-634dcd15e6c9","ios":"levelo://app?vid=97c179e6-8f43-4dcf-9d2b-634dcd15e6c9"},"vehicle_type_id":"4","last_reported":1706645216,"current_range_meters":1200,"station_id":"ce4bgt92rcd13ifvqcf0","pricing_plan_id":"free"},{"bike_id":"d1e58052-768b-446f-a6f7-3920b1d6d32e","system_id":"levelo_inurba_marseille","lat":43.313571,"lon":5.384829,"is_reserved":false,"is_disabled":false,"rental_uris":{"android":"levelo://app?vid=d1e58052-768b-446f-a6f7-3920b1d6d32e","ios":"levelo://app?vid=d1e58052-768b-446f-a6f7-3920b1d6d32e"},"vehicle_type_id":"4","last_reported":1706645216,"current_range_meters":29600,"station_id":"ce4bgt92rcd13ifvqcf0","pricing_plan_id":"free"},{"bike_id":"e2d0a3d4-e2a9-4dcc-99e6-eb940863c528","system_id":"levelo_inurba_marseille","lat":43.313624,"lon":5.384946,"is_reserved":false,"is_disabled":false,"rental_uris":{"android":"levelo://app?vid=e2d0a3d4-e2a9-4dcc-99e6-eb940863c528","ios":"levelo://app?vid=e2d0a3d4-e2a9-4dcc-99e6-eb940863c528"},"vehicle_type_id":"4","last_reported":1706645216,"current_range_meters":0,"station_id":"ce4bgt92rcd13ifvqcf0","pricing_plan_id":"free"},{"bike_id":"48cd1ab9-fc31-4452-b1a9-914d8dadb358","system_id":"levelo_inurba_marseille","lat":43.313571,"lon":5.384829,"is_reserved":false,"is_disabled":false,"rental_uris":{"android":"levelo://app?vid=48cd1ab9-fc31-4452-b1a9-914d8dadb358","ios":"levelo://app?vid=48cd1ab9-fc31-4452-b1a9-914d8dadb358"},"vehicle_type_id":"4","last_reported":1706645216,"current_range_meters":10400,"station_id":"ce4bgt92rcd13ifvqcf0","pricing_plan_id":"free"},{"bike_id":"39b64e8c-33e0-4494-94ef-e13787cc36b5","system_id":"levelo_inurba_marseille","lat":43.313571,"lon":5.384829,"is_reserved":false,"is_disabled":false,"rental_uris":{"android":"levelo://app?vid=39b64e8c-33e0-4494-94ef-e13787cc36b5","ios":"levelo://app?vid=39b64e8c-33e0-4494-94ef-e13787cc36b5"},"vehicle_type_id":"4","last_reported":1706645216,"current_range_meters":26400,"station_id":"ce4bgt92rcd13ifvqcf0","pricing_plan_id":"free"},{"bike_id":"ef7a8756-6b4f-42c1-a5d6-bfa566148bf7","system_id":"levelo_inurba_marseille","lat":43.299897,"lon":5.37192,"is_reserved":false,"is_disabled":false,"rental_uris":{"android":"levelo://app?vid=ef7a8756-6b4f-42c1-a5d6-bfa566148bf7","ios":"levelo://app?vid=ef7a8756-6b4f-42c1-a5d6-bfa566148bf7"},"vehicle_type_id":"4","last_reported":1706645216,"current_range_meters":0,"station_id":"ce4bgr92rcd13ifvqc7g","pricing_plan_id":"free"},{"bike_id":"298b3a3c-f213-4696-8193-0f3b64c1bea6","system_id":"levelo_inurba_marseille","lat":43.299222,"lon":5.365554,"is_reserved":false,"is_disabled":false,"rental_uris":{"android":"levelo://app?vid=298b3a3c-f213-4696-8193-0f3b64c1bea6","ios":"levelo://app?vid=298b3a3c-f213-4696-8193-0f3b64c1bea6"},"vehicle_type_id":"4","last_reported":1706645216,"current_range_meters":0,"station_id":"ce4bgm92rcd13ifvqbr0","pricing_plan_id":"free"},{"bike_id":"59bac424-8b4c-4311-98e5-fd7b0e68db73","system_id":"levelo_inurba_marseille","lat":43.3118,"lon":5.38714,"is_reserved":false,"is_disabled":false,"rental_uris":{"android":"levelo://app?vid=59bac424-8b4c-4311-98e5-fd7b0e68db73","ios":"levelo://app?vid=59bac424-8b4c-4311-98e5-fd7b0e68db73"},"vehicle_type_id":"4","last_reported":1706645216,"current_range_meters":3600,"station_id":"ce4bgv12rcd13ifvqcp0","pricing_plan_id":"free"},{"bike_id":"8071c376-a39d-498d-ab29-b015d0677246","system_id":"levelo_inurba_marseille","lat":43.311722,"lon":5.387247,"is_reserved":false,"is_disabled":false,"rental_uris":{"android":"levelo://app?vid=8071c376-a39d-498d-ab29-b015d0677246","ios":"levelo://app?vid=8071c376-a39d-498d-ab29-b015d0677246"},"vehicle_type_id":"4","last_reported":1706645216,"current_range_meters":6400,"station_id":"ce4bgv12rcd13ifvqcp0","pricing_plan_id":"free"},{"bike_id":"e6c8d308-a545-47ad-be3b-5bb7f6165b12","system_id":"levelo_inurba_marseille","lat":43.311722,"lon":5.387247,"is_reserved":false,"is_disabled":false,"rental_uris":{"android":"levelo://app?vid=e6c8d308-a545-47ad-be3b-5bb7f6165b12","ios":"levelo://app?vid=e6c8d308-a545-47ad-be3b-5bb7f6165b12"},"vehicle_type_id":"4","last_reported":1706645216,"current_range_meters":0,"station_id":"ce4bgv12rcd13ifvqcp0","pricing_plan_id":"free"},{"bike_id":"5eb2d574-b4eb-4a5c-9127-59f52688b205","system_id":"levelo_inurba_marseille","lat":43.311722,"lon":5.387247,"is_reserved":false,"is_disabled":false,"rental_uris":{"android":"levelo://app?vid=5eb2d574-b4eb-4a5c-9127-59f52688b205","ios":"levelo://app?vid=5eb2d574-b4eb-4a5c-9127-59f52688b205"},"vehicle_type_id":"4","last_reported":1706645216,"current_range_meters":4800,"station_id":"ce4bgv12rcd13ifvqcp0","pricing_plan_id":"free"},{"bike_id":"7e1736e7-1025-4ab9-ae4a-d2d952d38b22","system_id":"levelo_inurba_marseille","lat":43.297794,"lon":5.370888,"is_reserved":false,"is_disabled":false,"rental_uris":{"android":"levelo://app?vid=7e1736e7-1025-4ab9-ae4a-d2d952d38b22","ios":"levelo://app?vid=7e1736e7-1025-4ab9-ae4a-d2d952d38b22"},"vehicle_type_id":"4","last_reported":1706645216,"current_range_meters":5600,"station_id":"ce4bgop2rcd13ifvqc1g","pricing_plan_id":"free"},{"bike_id":"2f8f42c0-817f-4a71-af44-ca5542d95905","system_id":"levelo_inurba_marseille","lat":43.322872,"lon":5.382756,"is_reserved":false,"is_disabled":false,"rental_uris":{"android":"levelo://app?vid=2f8f42c0-817f-4a71-af44-ca5542d95905","ios":"levelo://app?vid=2f8f42c0-817f-4a71-af44-ca5542d95905"},"vehicle_type_id":"4","last_reported":1706645216,"current_range_meters":27200,"station_id":"ce4bhr12rcd13ifvqhqg","pricing_plan_id":"free"},{"bike_id":"b63cffa0-64af-40b8-a8ad-c056792f19ed","system_id":"levelo_inurba_marseille","lat":43.322872,"lon":5.382756,"is_reserved":false,"is_disabled":false,"rental_uris":{"android":"levelo://app?vid=b63cffa0-64af-40b8-a8ad-c056792f19ed","ios":"levelo://app?vid=b63cffa0-64af-40b8-a8ad-c056792f19ed"},"vehicle_type_id":"4","last_reported":1706645216,"current_range_meters":26000,"station_id":"ce4bhr12rcd13ifvqhqg","pricing_plan_id":"free"},{"bike_id":"7f20dc7e-badd-444e-a7c8-bf3a545cc809","system_id":"levelo_inurba_marseille","lat":43.322872,"lon":5.382756,"is_reserved":false,"is_disabled":false,"rental_uris":{"android":"levelo://app?vid=7f20dc7e-badd-444e-a7c8-bf3a545cc809","ios":"levelo://app?vid=7f20dc7e-badd-444e-a7c8-bf3a545cc809"},"vehicle_type_id":"4","last_reported":1706645216,"current_range_meters":23200,"station_id":"ce4bhr12rcd13ifvqhqg","pricing_plan_id":"free"},{"bike_id":"e53b96f6-0749-4e57-9ae0-506258818dab","system_id":"levelo_inurba_marseille","lat":43.322872,"lon":5.382756,"is_reserved":false,"is_disabled":false,"rental_uris":{"android":"levelo://app?vid=e53b96f6-0749-4e57-9ae0-506258818dab","ios":"levelo://app?vid=e53b96f6-0749-4e57-9ae0-506258818dab"},"vehicle_type_id":"4","last_reported":1706645216,"current_range_meters":16400,"station_id":"ce4bhr12rcd13ifvqhqg","pricing_plan_id":"free"},{"bike_id":"e9842c34-5cb2-47ba-87a1-99bf36004d12","system_id":"levelo_inurba_marseille","lat":43.32825,"lon":5.36677,"is_reserved":false,"is_disabled":false,"rental_uris":{"android":"levelo://app?vid=e9842c34-5cb2-47ba-87a1-99bf36004d12","ios":"levelo://app?vid=e9842c34-5cb2-47ba-87a1-99bf36004d12"},"vehicle_type_id":"4","last_reported":1706645216,"current_range_meters":0,"station_id":"ce4bhs92rcd13ifvqi0g","pricing_plan_id":"free"},{"bike_id":"5e0d7018-715e-4087-a2d6-cfa7ba43c5e5","system_id":"levelo_inurba_marseille","lat":43.328371,"lon":5.366909,"is_reserved":false,"is_disabled":false,"rental_uris":{"android":"levelo://app?vid=5e0d7018-715e-4087-a2d6-cfa7ba43c5e5","ios":"levelo://app?vid=5e0d7018-715e-4087-a2d6-cfa7ba43c5e5"},"vehicle_type_id":"4","last_reported":1706645216,"current_range_meters":16800,"station_id":"ce4bhs92rcd13ifvqi0g","pricing_plan_id":"free"},{"bike_id":"d90f0439-5933-4b4c-b7c8-2f019df210a9","system_id":"levelo_inurba_marseille","lat":43.328371,"lon":5.366912,"is_reserved":false,"is_disabled":false,"rental_uris":{"android":"levelo://app?vid=d90f0439-5933-4b4c-b7c8-2f019df210a9","ios":"levelo://app?vid=d90f0439-5933-4b4c-b7c8-2f019df210a9"},"vehicle_type_id":"4","last_reported":1706645216,"current_range_meters":10800,"station_id":"ce4bhs92rcd13ifvqi0g","pricing_plan_id":"free"},{"bike_id":"92589973-d956-4826-a1e1-8b958e0b4b1a","system_id":"levelo_inurba_marseille","lat":43.328371,"lon":5.366909,"is_reserved":false,"is_disabled":false,"rental_uris":{"android":"levelo://app?vid=92589973-d956-4826-a1e1-8b958e0b4b1a","ios":"levelo://app?vid=92589973-d956-4826-a1e1-8b958e0b4b1a"},"vehicle_type_id":"4","last_reported":1706645216,"current_range_meters":0,"station_id":"ce4bhs92rcd13ifvqi0g","pricing_plan_id":"free"},{"bike_id":"34cea9b2-a309-4dd4-ba89-8fef70654fcf","system_id":"levelo_inurba_marseille","lat":43.297163,"lon":5.365866,"is_reserved":false,"is_disabled":false,"rental_uris":{"android":"levelo://app?vid=34cea9b2-a309-4dd4-ba89-8fef70654fcf","ios":"levelo://app?vid=34cea9b2-a309-4dd4-ba89-8fef70654fcf"},"vehicle_type_id":"4","last_reported":1706645216,"current_range_meters":30800,"station_id":"ce4bgn12rcd13ifvqbt0","pricing_plan_id":"free"},{"bike_id":"51ef19b7-c4bd-4fa6-9a9c-73f1a11df217","system_id":"levelo_inurba_marseille","lat":43.29573,"lon":5.367355,"is_reserved":false,"is_disabled":false,"rental_uris":{"android":"levelo://app?vid=51ef19b7-c4bd-4fa6-9a9c-73f1a11df217","ios":"levelo://app?vid=51ef19b7-c4bd-4fa6-9a9c-73f1a11df217"},"vehicle_type_id":"4","last_reported":1706645216,"current_range_meters":23200,"station_id":"ce4bgph2rcd13ifvqc2g","pricing_plan_id":"free"},{"bike_id":"46e44568-0584-4b5a-86c9-83b5d0d4de6a","system_id":"levelo_inurba_marseille","lat":43.29573,"lon":5.367355,"is_reserved":false,"is_disabled":false,"rental_uris":{"android":"levelo://app?vid=46e44568-0584-4b5a-86c9-83b5d0d4de6a","ios":"levelo://app?vid=46e44568-0584-4b5a-86c9-83b5d0d4de6a"},"vehicle_type_id":"4","last_reported":1706645216,"current_range_meters":11600,"station_id":"ce4bgph2rcd13ifvqc2g","pricing_plan_id":"free"},{"bike_id":"3c9dc433-221c-4f7b-ac87-9fa7590b42d5","system_id":"levelo_inurba_marseille","lat":43.309589,"lon":5.390258,"is_reserved":false,"is_disabled":false,"rental_uris":{"android":"levelo://app?vid=3c9dc433-221c-4f7b-ac87-9fa7590b42d5","ios":"levelo://app?vid=3c9dc433-221c-4f7b-ac87-9fa7590b42d5"},"vehicle_type_id":"4","last_reported":1706645216,"current_range_meters":3200,"station_id":"ce4bgup2rcd13ifvqco0","pricing_plan_id":"free"},{"bike_id":"c59ed841-abe7-4720-b327-7957d5000d8d","system_id":"levelo_inurba_marseille","lat":43.309589,"lon":5.390258,"is_reserved":false,"is_disabled":false,"rental_uris":{"android":"levelo://app?vid=c59ed841-abe7-4720-b327-7957d5000d8d","ios":"levelo://app?vid=c59ed841-abe7-4720-b327-7957d5000d8d"},"vehicle_type_id":"4","last_reported":1706645216,"current_range_meters":22800,"station_id":"ce4bgup2rcd13ifvqco0","pricing_plan_id":"free"},{"bike_id":"b4056b27-919d-4dd0-9819-195ed5ce3d3c","system_id":"levelo_inurba_marseille","lat":43.317557,"lon":5.390173,"is_reserved":false,"is_disabled":false,"rental_uris":{"android":"levelo://app?vid=b4056b27-919d-4dd0-9819-195ed5ce3d3c","ios":"levelo://app?vid=b4056b27-919d-4dd0-9819-195ed5ce3d3c"},"vehicle_type_id":"4","last_reported":1706645216,"current_range_meters":14000,"station_id":"ce4bhqp2rcd13ifvqhng","pricing_plan_id":"free"},{"bike_id":"9eb1b6d6-dbfe-4a60-834c-58b63360e963","system_id":"levelo_inurba_marseille","lat":43.317557,"lon":5.390173,"is_reserved":false,"is_disabled":false,"rental_uris":{"android":"levelo://app?vid=9eb1b6d6-dbfe-4a60-834c-58b63360e963","ios":"levelo://app?vid=9eb1b6d6-dbfe-4a60-834c-58b63360e963"},"vehicle_type_id":"4","last_reported":1706645216,"current_range_meters":14400,"station_id":"ce4bhqp2rcd13ifvqhng","pricing_plan_id":"free"},{"bike_id":"2afff60c-069a-4b77-818a-939a3e857203","system_id":"levelo_inurba_marseille","lat":43.298037,"lon":5.381066,"is_reserved":false,"is_disabled":false,"rental_uris":{"android":"levelo://app?vid=2afff60c-069a-4b77-818a-939a3e857203","ios":"levelo://app?vid=2afff60c-069a-4b77-818a-939a3e857203"},"vehicle_type_id":"4","last_reported":1706645216,"current_range_meters":26800,"station_id":"ce4bgip2rcd13ifvqbb0","pricing_plan_id":"free"},{"bike_id":"a75a9c03-c10b-46ca-a6f1-f085c90bc0fa","system_id":"levelo_inurba_marseille","lat":43.295748,"lon":5.37522,"is_reserved":false,"is_disabled":false,"rental_uris":{"android":"levelo://app?vid=a75a9c03-c10b-46ca-a6f1-f085c90bc0fa","ios":"levelo://app?vid=a75a9c03-c10b-46ca-a6f1-f085c90bc0fa"},"vehicle_type_id":"4","last_reported":1706645216,"current_range_meters":0,"station_id":"ce4bgh92rcd13ifvqb50","pricing_plan_id":"free"},{"bike_id":"0d432734-f006-4d07-ba13-82a4ba93354b","system_id":"levelo_inurba_marseille","lat":43.295748,"lon":5.37522,"is_reserved":false,"is_disabled":false,"rental_uris":{"android":"levelo://app?vid=0d432734-f006-4d07-ba13-82a4ba93354b","ios":"levelo://app?vid=0d432734-f006-4d07-ba13-82a4ba93354b"},"vehicle_type_id":"4","last_reported":1706645216,"current_range_meters":0,"station_id":"ce4bgh92rcd13ifvqb50","pricing_plan_id":"free"},{"bike_id":"d3108bf6-7ce8-48de-ad1e-dc0c10918a31","system_id":"levelo_inurba_marseille","lat":43.298037,"lon":5.381066,"is_reserved":false,"is_disabled":false,"rental_uris":{"android":"levelo://app?vid=d3108bf6-7ce8-48de-ad1e-dc0c10918a31","ios":"levelo://app?vid=d3108bf6-7ce8-48de-ad1e-dc0c10918a31"},"vehicle_type_id":"4","last_reported":1706645216,"current_range_meters":18400,"station_id":"ce4bgip2rcd13ifvqbb0","pricing_plan_id":"free"},{"bike_id":"a7dd3c7c-eb0e-4c35-8700-4104e58ef327","system_id":"levelo_inurba_marseille","lat":43.299717,"lon":5.384845,"is_reserved":false,"is_disabled":false,"rental_uris":{"android":"levelo://app?vid=a7dd3c7c-eb0e-4c35-8700-4104e58ef327","ios":"levelo://app?vid=a7dd3c7c-eb0e-4c35-8700-4104e58ef327"},"vehicle_type_id":"4","last_reported":1706645216,"current_range_meters":400,"station_id":"ce4bgj92rcd13ifvqbd0","pricing_plan_id":"free"},{"bike_id":"2f5d7825-8644-496a-bd65-fe3aa7c12a39","system_id":"levelo_inurba_marseille","lat":43.299717,"lon":5.384845,"is_reserved":false,"is_disabled":false,"rental_uris":{"android":"levelo://app?vid=2f5d7825-8644-496a-bd65-fe3aa7c12a39","ios":"levelo://app?vid=2f5d7825-8644-496a-bd65-fe3aa7c12a39"},"vehicle_type_id":"4","last_reported":1706645216,"current_range_meters":17200,"station_id":"ce4bgj92rcd13ifvqbd0","pricing_plan_id":"free"},{"bike_id":"de25d637-84ec-4203-b892-3e1c2d7c4ddb","system_id":"levelo_inurba_marseille","lat":43.33171,"lon":5.364465,"is_reserved":false,"is_disabled":false,"rental_uris":{"android":"levelo://app?vid=de25d637-84ec-4203-b892-3e1c2d7c4ddb","ios":"levelo://app?vid=de25d637-84ec-4203-b892-3e1c2d7c4ddb"},"vehicle_type_id":"4","last_reported":1706645216,"current_range_meters":10800,"station_id":"","pricing_plan_id":"free"},{"bike_id":"b106b04c-a63a-459d-b4af-77ff59901bf1","system_id":"levelo_inurba_marseille","lat":43.29442,"lon":5.37443,"is_reserved":false,"is_disabled":false,"rental_uris":{"android":"levelo://app?vid=b106b04c-a63a-459d-b4af-77ff59901bf1","ios":"levelo://app?vid=b106b04c-a63a-459d-b4af-77ff59901bf1"},"vehicle_type_id":"4","last_reported":1706645216,"current_range_meters":4000,"station_id":"","pricing_plan_id":"free"},{"bike_id":"6dd568a9-d43e-44c6-8097-f7d631f4c20c","system_id":"levelo_inurba_marseille","lat":43.32367,"lon":5.388836,"is_reserved":false,"is_disabled":false,"rental_uris":{"android":"levelo://app?vid=6dd568a9-d43e-44c6-8097-f7d631f4c20c","ios":"levelo://app?vid=6dd568a9-d43e-44c6-8097-f7d631f4c20c"},"vehicle_type_id":"4","last_reported":1706645216,"current_range_meters":0,"station_id":"ce4bhqp2rcd13ifvqhog","pricing_plan_id":"free"},{"bike_id":"d8175a8b-5b56-49ff-9bc1-a58f9d1d0450","system_id":"levelo_inurba_marseille","lat":43.32367,"lon":5.388836,"is_reserved":false,"is_disabled":false,"rental_uris":{"android":"levelo://app?vid=d8175a8b-5b56-49ff-9bc1-a58f9d1d0450","ios":"levelo://app?vid=d8175a8b-5b56-49ff-9bc1-a58f9d1d0450"},"vehicle_type_id":"4","last_reported":1706645216,"current_range_meters":0,"station_id":"ce4bhqp2rcd13ifvqhog","pricing_plan_id":"free"},{"bike_id":"87c37e20-93d8-4821-b2fb-71a6c4f572ed","system_id":"levelo_inurba_marseille","lat":43.32364,"lon":5.38884,"is_reserved":false,"is_disabled":false,"rental_uris":{"android":"levelo://app?vid=87c37e20-93d8-4821-b2fb-71a6c4f572ed","ios":"levelo://app?vid=87c37e20-93d8-4821-b2fb-71a6c4f572ed"},"vehicle_type_id":"4","last_reported":1706645216,"current_range_meters":6400,"station_id":"ce4bhqp2rcd13ifvqhog","pricing_plan_id":"free"},{"bike_id":"899d0092-7653-45db-88aa-d3f5eb3a8508","system_id":"levelo_inurba_marseille","lat":43.32367,"lon":5.388836,"is_reserved":false,"is_disabled":false,"rental_uris":{"android":"levelo://app?vid=899d0092-7653-45db-88aa-d3f5eb3a8508","ios":"levelo://app?vid=899d0092-7653-45db-88aa-d3f5eb3a8508"},"vehicle_type_id":"4","last_reported":1706645216,"current_range_meters":11600,"station_id":"ce4bhqp2rcd13ifvqhog","pricing_plan_id":"free"},{"bike_id":"83c0514d-6600-43a3-932b-83517d92af33","system_id":"levelo_inurba_marseille","lat":43.32366,"lon":5.38885,"is_reserved":false,"is_disabled":false,"rental_uris":{"android":"levelo://app?vid=83c0514d-6600-43a3-932b-83517d92af33","ios":"levelo://app?vid=83c0514d-6600-43a3-932b-83517d92af33"},"vehicle_type_id":"4","last_reported":1706645216,"current_range_meters":0,"station_id":"ce4bhqp2rcd13ifvqhog","pricing_plan_id":"free"},{"bike_id":"3c96d003-da90-4e38-8c3d-c7f6eb2d3f3f","system_id":"levelo_inurba_marseille","lat":43.30191,"lon":5.38963,"is_reserved":false,"is_disabled":false,"rental_uris":{"android":"levelo://app?vid=3c96d003-da90-4e38-8c3d-c7f6eb2d3f3f","ios":"levelo://app?vid=3c96d003-da90-4e38-8c3d-c7f6eb2d3f3f"},"vehicle_type_id":"4","last_reported":1706645216,"current_range_meters":20800,"station_id":"","pricing_plan_id":"free"},{"bike_id":"42e1b826-7d18-4d6d-8399-50a5392000d1","system_id":"levelo_inurba_marseille","lat":43.32367,"lon":5.388836,"is_reserved":false,"is_disabled":false,"rental_uris":{"android":"levelo://app?vid=42e1b826-7d18-4d6d-8399-50a5392000d1","ios":"levelo://app?vid=42e1b826-7d18-4d6d-8399-50a5392000d1"},"vehicle_type_id":"4","last_reported":1706645216,"current_range_meters":1200,"station_id":"ce4bhqp2rcd13ifvqhog","pricing_plan_id":"free"},{"bike_id":"67cc158c-ec48-4504-835a-d11592fc516f","system_id":"levelo_inurba_marseille","lat":43.29278,"lon":5.36848,"is_reserved":false,"is_disabled":false,"rental_uris":{"android":"levelo://app?vid=67cc158c-ec48-4504-835a-d11592fc516f","ios":"levelo://app?vid=67cc158c-ec48-4504-835a-d11592fc516f"},"vehicle_type_id":"4","last_reported":1706645216,"current_range_meters":0,"station_id":"ce4bhbp2rcd13ifvqesg","pricing_plan_id":"free"},{"bike_id":"686e7106-5c96-4a2f-b8ba-508554e1fa37","system_id":"levelo_inurba_marseille","lat":43.293259,"lon":5.371586,"is_reserved":false,"is_disabled":false,"rental_uris":{"android":"levelo://app?vid=686e7106-5c96-4a2f-b8ba-508554e1fa37","ios":"levelo://app?vid=686e7106-5c96-4a2f-b8ba-508554e1fa37"},"vehicle_type_id":"4","last_reported":1706645216,"current_range_meters":12800,"station_id":"ce4bgh92rcd13ifvqb40","pricing_plan_id":"free"},{"bike_id":"78b3bdfa-e78a-4167-a5c7-efc96f8faea3","system_id":"levelo_inurba_marseille","lat":43.292749,"lon":5.368402,"is_reserved":false,"is_disabled":false,"rental_uris":{"android":"levelo://app?vid=78b3bdfa-e78a-4167-a5c7-efc96f8faea3","ios":"levelo://app?vid=78b3bdfa-e78a-4167-a5c7-efc96f8faea3"},"vehicle_type_id":"4","last_reported":1706645216,"current_range_meters":0,"station_id":"ce4bhbp2rcd13ifvqesg","pricing_plan_id":"free"},{"bike_id":"0a12cb02-f007-4865-be87-a7c97ad56b12","system_id":"levelo_inurba_marseille","lat":43.305994,"lon":5.393687,"is_reserved":false,"is_disabled":false,"rental_uris":{"android":"levelo://app?vid=0a12cb02-f007-4865-be87-a7c97ad56b12","ios":"levelo://app?vid=0a12cb02-f007-4865-be87-a7c97ad56b12"},"vehicle_type_id":"4","last_reported":1706645216,"current_range_meters":23200,"station_id":"ce4bh0p2rcd13ifvqd80","pricing_plan_id":"free"},{"bike_id":"b1d0bfe8-69a9-44f2-8423-e6ec7fecd921","system_id":"levelo_inurba_marseille","lat":43.293009,"lon":5.374584,"is_reserved":false,"is_disabled":false,"rental_uris":{"android":"levelo://app?vid=b1d0bfe8-69a9-44f2-8423-e6ec7fecd921","ios":"levelo://app?vid=b1d0bfe8-69a9-44f2-8423-e6ec7fecd921"},"vehicle_type_id":"4","last_reported":1706645216,"current_range_meters":4800,"station_id":"ce4bgi12rcd13ifvqb70","pricing_plan_id":"free"},{"bike_id":"1256ff53-5c13-4129-98ce-a1bfcf4d6ed8","system_id":"levelo_inurba_marseille","lat":43.305994,"lon":5.393687,"is_reserved":false,"is_disabled":false,"rental_uris":{"android":"levelo://app?vid=1256ff53-5c13-4129-98ce-a1bfcf4d6ed8","ios":"levelo://app?vid=1256ff53-5c13-4129-98ce-a1bfcf4d6ed8"},"vehicle_type_id":"4","last_reported":1706645216,"current_range_meters":5600,"station_id":"ce4bh0p2rcd13ifvqd80","pricing_plan_id":"free"},{"bike_id":"4626e6ac-09b7-416c-a843-d97da547a7ae","system_id":"levelo_inurba_marseille","lat":43.305994,"lon":5.393687,"is_reserved":false,"is_disabled":false,"rental_uris":{"android":"levelo://app?vid=4626e6ac-09b7-416c-a843-d97da547a7ae","ios":"levelo://app?vid=4626e6ac-09b7-416c-a843-d97da547a7ae"},"vehicle_type_id":"4","last_reported":1706645216,"current_range_meters":3600,"station_id":"ce4bh0p2rcd13ifvqd80","pricing_plan_id":"free"},{"bike_id":"829b9f2d-c9fe-48f3-8414-89a85cf973d7","system_id":"levelo_inurba_marseille","lat":43.305994,"lon":5.393687,"is_reserved":false,"is_disabled":false,"rental_uris":{"android":"levelo://app?vid=829b9f2d-c9fe-48f3-8414-89a85cf973d7","ios":"levelo://app?vid=829b9f2d-c9fe-48f3-8414-89a85cf973d7"},"vehicle_type_id":"4","last_reported":1706645216,"current_range_meters":400,"station_id":"ce4bh0p2rcd13ifvqd80","pricing_plan_id":"free"},{"bike_id":"16d59559-973c-4a85-8e35-4767d9a8e5c9","system_id":"levelo_inurba_marseille","lat":43.2936,"lon":5.37835,"is_reserved":false,"is_disabled":false,"rental_uris":{"android":"levelo://app?vid=16d59559-973c-4a85-8e35-4767d9a8e5c9","ios":"levelo://app?vid=16d59559-973c-4a85-8e35-4767d9a8e5c9"},"vehicle_type_id":"4","last_reported":1706645216,"current_range_meters":18800,"station_id":"ce4bgjh2rcd13ifvqbf0","pricing_plan_id":"free"},{"bike_id":"c97f7ddc-65d1-4db7-90a8-cc5f31be151e","system_id":"levelo_inurba_marseille","lat":43.293674,"lon":5.37862,"is_reserved":false,"is_disabled":false,"rental_uris":{"android":"levelo://app?vid=c97f7ddc-65d1-4db7-90a8-cc5f31be151e","ios":"levelo://app?vid=c97f7ddc-65d1-4db7-90a8-cc5f31be151e"},"vehicle_type_id":"4","last_reported":1706645216,"current_range_meters":0,"station_id":"ce4bgjh2rcd13ifvqbf0","pricing_plan_id":"free"},{"bike_id":"fea872b7-4be7-4d9c-a34c-6484f423d26c","system_id":"levelo_inurba_marseille","lat":43.2936,"lon":5.37835,"is_reserved":false,"is_disabled":false,"rental_uris":{"android":"levelo://app?vid=fea872b7-4be7-4d9c-a34c-6484f423d26c","ios":"levelo://app?vid=fea872b7-4be7-4d9c-a34c-6484f423d26c"},"vehicle_type_id":"4","last_reported":1706645216,"current_range_meters":5200,"station_id":"ce4bgjh2rcd13ifvqbf0","pricing_plan_id":"free"},{"bike_id":"b617523d-c8e7-42ff-b403-48a25baf0d44","system_id":"levelo_inurba_marseille","lat":43.2936,"lon":5.37835,"is_reserved":false,"is_disabled":false,"rental_uris":{"android":"levelo://app?vid=b617523d-c8e7-42ff-b403-48a25baf0d44","ios":"levelo://app?vid=b617523d-c8e7-42ff-b403-48a25baf0d44"},"vehicle_type_id":"4","last_reported":1706645216,"current_range_meters":10800,"station_id":"ce4bgjh2rcd13ifvqbf0","pricing_plan_id":"free"},{"bike_id":"5f80539c-73aa-4241-bb2f-fe6ab18de59f","system_id":"levelo_inurba_marseille","lat":43.2936,"lon":5.37835,"is_reserved":false,"is_disabled":false,"rental_uris":{"android":"levelo://app?vid=5f80539c-73aa-4241-bb2f-fe6ab18de59f","ios":"levelo://app?vid=5f80539c-73aa-4241-bb2f-fe6ab18de59f"},"vehicle_type_id":"4","last_reported":1706645216,"current_range_meters":400,"station_id":"ce4bgjh2rcd13ifvqbf0","pricing_plan_id":"free"},{"bike_id":"01a4bc0b-cda9-4e22-9d8d-a6b1f0abc01d","system_id":"levelo_inurba_marseille","lat":43.2936,"lon":5.37835,"is_reserved":false,"is_disabled":false,"rental_uris":{"android":"levelo://app?vid=01a4bc0b-cda9-4e22-9d8d-a6b1f0abc01d","ios":"levelo://app?vid=01a4bc0b-cda9-4e22-9d8d-a6b1f0abc01d"},"vehicle_type_id":"4","last_reported":1706645216,"current_range_meters":23600,"station_id":"ce4bgjh2rcd13ifvqbf0","pricing_plan_id":"free"},{"bike_id":"ea94f227-9972-4fa5-aead-e1014da3a35a","system_id":"levelo_inurba_marseille","lat":43.300956,"lon":5.390792,"is_reserved":false,"is_disabled":false,"rental_uris":{"android":"levelo://app?vid=ea94f227-9972-4fa5-aead-e1014da3a35a","ios":"levelo://app?vid=ea94f227-9972-4fa5-aead-e1014da3a35a"},"vehicle_type_id":"4","last_reported":1706645216,"current_range_meters":0,"station_id":"ce4bh192rcd13ifvqdb0","pricing_plan_id":"free"},{"bike_id":"1dd2a345-8186-4cea-ab20-c10a6d16cadb","system_id":"levelo_inurba_marseille","lat":43.30085,"lon":5.390856,"is_reserved":false,"is_disabled":false,"rental_uris":{"android":"levelo://app?vid=1dd2a345-8186-4cea-ab20-c10a6d16cadb","ios":"levelo://app?vid=1dd2a345-8186-4cea-ab20-c10a6d16cadb"},"vehicle_type_id":"4","last_reported":1706645216,"current_range_meters":26000,"station_id":"ce4bh192rcd13ifvqdb0","pricing_plan_id":"free"},{"bike_id":"1bae008f-956f-4ca3-b5e0-ff8d7cd209dc","system_id":"levelo_inurba_marseille","lat":43.30085,"lon":5.390856,"is_reserved":false,"is_disabled":false,"rental_uris":{"android":"levelo://app?vid=1bae008f-956f-4ca3-b5e0-ff8d7cd209dc","ios":"levelo://app?vid=1bae008f-956f-4ca3-b5e0-ff8d7cd209dc"},"vehicle_type_id":"4","last_reported":1706645216,"current_range_meters":0,"station_id":"ce4bh192rcd13ifvqdb0","pricing_plan_id":"free"},{"bike_id":"2a78772f-26cc-4a97-817a-b6b5501ac4fe","system_id":"levelo_inurba_marseille","lat":43.298764,"lon":5.388973,"is_reserved":false,"is_disabled":false,"rental_uris":{"android":"levelo://app?vid=2a78772f-26cc-4a97-817a-b6b5501ac4fe","ios":"levelo://app?vid=2a78772f-26cc-4a97-817a-b6b5501ac4fe"},"vehicle_type_id":"4","last_reported":1706645216,"current_range_meters":5200,"station_id":"ce4bh392rcd13ifvqdl0","pricing_plan_id":"free"},{"bike_id":"f9033368-117d-4b1e-93d3-f1ea43fd9de9","system_id":"levelo_inurba_marseille","lat":43.305994,"lon":5.393687,"is_reserved":false,"is_disabled":false,"rental_uris":{"android":"levelo://app?vid=f9033368-117d-4b1e-93d3-f1ea43fd9de9","ios":"levelo://app?vid=f9033368-117d-4b1e-93d3-f1ea43fd9de9"},"vehicle_type_id":"4","last_reported":1706645216,"current_range_meters":18000,"station_id":"ce4bh0p2rcd13ifvqd80","pricing_plan_id":"free"},{"bike_id":"047c76d8-f1a0-4e2b-b284-86d0d9bc05e9","system_id":"levelo_inurba_marseille","lat":43.291675,"lon":5.371583,"is_reserved":false,"is_disabled":false,"rental_uris":{"android":"levelo://app?vid=047c76d8-f1a0-4e2b-b284-86d0d9bc05e9","ios":"levelo://app?vid=047c76d8-f1a0-4e2b-b284-86d0d9bc05e9"},"vehicle_type_id":"4","last_reported":1706645216,"current_range_meters":1200,"station_id":"ce4bha92rcd13ifvqeh0","pricing_plan_id":"free"},{"bike_id":"b2e6472b-5c5f-419e-ac67-2f43a5eef617","system_id":"levelo_inurba_marseille","lat":43.298764,"lon":5.388973,"is_reserved":false,"is_disabled":false,"rental_uris":{"android":"levelo://app?vid=b2e6472b-5c5f-419e-ac67-2f43a5eef617","ios":"levelo://app?vid=b2e6472b-5c5f-419e-ac67-2f43a5eef617"},"vehicle_type_id":"4","last_reported":1706645216,"current_range_meters":2400,"station_id":"ce4bh392rcd13ifvqdl0","pricing_plan_id":"free"},{"bike_id":"bcc5c9fe-d4be-4df2-8400-4f0c82b8ef5a","system_id":"levelo_inurba_marseille","lat":43.291675,"lon":5.371583,"is_reserved":false,"is_disabled":false,"rental_uris":{"android":"levelo://app?vid=bcc5c9fe-d4be-4df2-8400-4f0c82b8ef5a","ios":"levelo://app?vid=bcc5c9fe-d4be-4df2-8400-4f0c82b8ef5a"},"vehicle_type_id":"4","last_reported":1706645216,"current_range_meters":6000,"station_id":"ce4bha92rcd13ifvqeh0","pricing_plan_id":"free"},{"bike_id":"f4872f85-8f08-4e89-94de-7dd25db02ccd","system_id":"levelo_inurba_marseille","lat":43.298764,"lon":5.388973,"is_reserved":false,"is_disabled":false,"rental_uris":{"android":"levelo://app?vid=f4872f85-8f08-4e89-94de-7dd25db02ccd","ios":"levelo://app?vid=f4872f85-8f08-4e89-94de-7dd25db02ccd"},"vehicle_type_id":"4","last_reported":1706645216,"current_range_meters":5600,"station_id":"ce4bh392rcd13ifvqdl0","pricing_plan_id":"free"},{"bike_id":"3356f17f-bae4-4f57-9821-7cd50568bfaa","system_id":"levelo_inurba_marseille","lat":43.298764,"lon":5.388973,"is_reserved":false,"is_disabled":false,"rental_uris":{"android":"levelo://app?vid=3356f17f-bae4-4f57-9821-7cd50568bfaa","ios":"levelo://app?vid=3356f17f-bae4-4f57-9821-7cd50568bfaa"},"vehicle_type_id":"4","last_reported":1706645216,"current_range_meters":28400,"station_id":"ce4bh392rcd13ifvqdl0","pricing_plan_id":"free"},{"bike_id":"688cddb3-1004-47ca-8999-d7e4ffbc91be","system_id":"levelo_inurba_marseille","lat":43.29879,"lon":5.3891,"is_reserved":false,"is_disabled":false,"rental_uris":{"android":"levelo://app?vid=688cddb3-1004-47ca-8999-d7e4ffbc91be","ios":"levelo://app?vid=688cddb3-1004-47ca-8999-d7e4ffbc91be"},"vehicle_type_id":"4","last_reported":1706645216,"current_range_meters":0,"station_id":"ce4bh392rcd13ifvqdl0","pricing_plan_id":"free"},{"bike_id":"610a5530-7630-477c-bd29-7fce92e37c84","system_id":"levelo_inurba_marseille","lat":43.291675,"lon":5.371583,"is_reserved":false,"is_disabled":false,"rental_uris":{"android":"levelo://app?vid=610a5530-7630-477c-bd29-7fce92e37c84","ios":"levelo://app?vid=610a5530-7630-477c-bd29-7fce92e37c84"},"vehicle_type_id":"4","last_reported":1706645216,"current_range_meters":9200,"station_id":"ce4bha92rcd13ifvqeh0","pricing_plan_id":"free"},{"bike_id":"4f3da293-0983-4112-a3f7-cd58ce1b9c2a","system_id":"levelo_inurba_marseille","lat":43.298764,"lon":5.388973,"is_reserved":false,"is_disabled":false,"rental_uris":{"android":"levelo://app?vid=4f3da293-0983-4112-a3f7-cd58ce1b9c2a","ios":"levelo://app?vid=4f3da293-0983-4112-a3f7-cd58ce1b9c2a"},"vehicle_type_id":"4","last_reported":1706645216,"current_range_meters":30800,"station_id":"ce4bh392rcd13ifvqdl0","pricing_plan_id":"free"},{"bike_id":"6f80d067-56c6-42b2-b0f2-cbef15d0fa47","system_id":"levelo_inurba_marseille","lat":43.291671,"lon":5.371575,"is_reserved":false,"is_disabled":false,"rental_uris":{"android":"levelo://app?vid=6f80d067-56c6-42b2-b0f2-cbef15d0fa47","ios":"levelo://app?vid=6f80d067-56c6-42b2-b0f2-cbef15d0fa47"},"vehicle_type_id":"4","last_reported":1706645216,"current_range_meters":22000,"station_id":"ce4bha92rcd13ifvqeh0","pricing_plan_id":"free"},{"bike_id":"bf2437d5-0648-40ea-b195-65e40bffa0d3","system_id":"levelo_inurba_marseille","lat":43.291675,"lon":5.371583,"is_reserved":false,"is_disabled":false,"rental_uris":{"android":"levelo://app?vid=bf2437d5-0648-40ea-b195-65e40bffa0d3","ios":"levelo://app?vid=bf2437d5-0648-40ea-b195-65e40bffa0d3"},"vehicle_type_id":"4","last_reported":1706645216,"current_range_meters":5600,"station_id":"ce4bha92rcd13ifvqeh0","pricing_plan_id":"free"},{"bike_id":"0db245c0-ca51-43d8-b50b-79ed91ded7d6","system_id":"levelo_inurba_marseille","lat":43.298764,"lon":5.388973,"is_reserved":false,"is_disabled":false,"rental_uris":{"android":"levelo://app?vid=0db245c0-ca51-43d8-b50b-79ed91ded7d6","ios":"levelo://app?vid=0db245c0-ca51-43d8-b50b-79ed91ded7d6"},"vehicle_type_id":"4","last_reported":1706645216,"current_range_meters":28400,"station_id":"ce4bh392rcd13ifvqdl0","pricing_plan_id":"free"},{"bike_id":"21d015e2-db24-4902-8b40-5a8765a0c54e","system_id":"levelo_inurba_marseille","lat":43.295196,"lon":5.39397,"is_reserved":false,"is_disabled":false,"rental_uris":{"android":"levelo://app?vid=21d015e2-db24-4902-8b40-5a8765a0c54e","ios":"levelo://app?vid=21d015e2-db24-4902-8b40-5a8765a0c54e"},"vehicle_type_id":"4","last_reported":1706645216,"current_range_meters":15200,"station_id":"ce4bh292rcd13ifvqdf0","pricing_plan_id":"free"},{"bike_id":"c6bbb307-40ce-4d17-bd61-1e147db096d4","system_id":"levelo_inurba_marseille","lat":43.29201,"lon":5.35798,"is_reserved":false,"is_disabled":false,"rental_uris":{"android":"levelo://app?vid=c6bbb307-40ce-4d17-bd61-1e147db096d4","ios":"levelo://app?vid=c6bbb307-40ce-4d17-bd61-1e147db096d4"},"vehicle_type_id":"4","last_reported":1706645216,"current_range_meters":0,"station_id":"ce4bhb12rcd13ifvqel0","pricing_plan_id":"free"},{"bike_id":"b674387c-dac7-4c72-8c60-5bdca13ab48d","system_id":"levelo_inurba_marseille","lat":43.31329,"lon":5.39685,"is_reserved":false,"is_disabled":false,"rental_uris":{"android":"levelo://app?vid=b674387c-dac7-4c72-8c60-5bdca13ab48d","ios":"levelo://app?vid=b674387c-dac7-4c72-8c60-5bdca13ab48d"},"vehicle_type_id":"4","last_reported":1706645216,"current_range_meters":0,"station_id":"ce4bgvp2rcd13ifvqcu0","pricing_plan_id":"free"},{"bike_id":"751d9503-550a-45bb-8373-25caab9ec8d7","system_id":"levelo_inurba_marseille","lat":43.313291,"lon":5.396838,"is_reserved":false,"is_disabled":false,"rental_uris":{"android":"levelo://app?vid=751d9503-550a-45bb-8373-25caab9ec8d7","ios":"levelo://app?vid=751d9503-550a-45bb-8373-25caab9ec8d7"},"vehicle_type_id":"4","last_reported":1706645216,"current_range_meters":17600,"station_id":"ce4bgvp2rcd13ifvqcu0","pricing_plan_id":"free"},{"bike_id":"7f6aa594-0861-4485-833e-2c96eb223d5a","system_id":"levelo_inurba_marseille","lat":43.313291,"lon":5.396838,"is_reserved":false,"is_disabled":false,"rental_uris":{"android":"levelo://app?vid=7f6aa594-0861-4485-833e-2c96eb223d5a","ios":"levelo://app?vid=7f6aa594-0861-4485-833e-2c96eb223d5a"},"vehicle_type_id":"4","last_reported":1706645216,"current_range_meters":18000,"station_id":"ce4bgvp2rcd13ifvqcu0","pricing_plan_id":"free"},{"bike_id":"9a015444-c4b0-41cf-b428-0705d5bd5a83","system_id":"levelo_inurba_marseille","lat":43.313291,"lon":5.396838,"is_reserved":false,"is_disabled":false,"rental_uris":{"android":"levelo://app?vid=9a015444-c4b0-41cf-b428-0705d5bd5a83","ios":"levelo://app?vid=9a015444-c4b0-41cf-b428-0705d5bd5a83"},"vehicle_type_id":"4","last_reported":1706645216,"current_range_meters":13600,"station_id":"ce4bgvp2rcd13ifvqcu0","pricing_plan_id":"free"},{"bike_id":"b62bcfa5-473d-4221-b143-66a964158134","system_id":"levelo_inurba_marseille","lat":43.31324,"lon":5.39695,"is_reserved":false,"is_disabled":false,"rental_uris":{"android":"levelo://app?vid=b62bcfa5-473d-4221-b143-66a964158134","ios":"levelo://app?vid=b62bcfa5-473d-4221-b143-66a964158134"},"vehicle_type_id":"4","last_reported":1706645216,"current_range_meters":2000,"station_id":"ce4bgvp2rcd13ifvqcu0","pricing_plan_id":"free"},{"bike_id":"ef62cf81-cc32-4f0e-bdf1-8a6a90e9453b","system_id":"levelo_inurba_marseille","lat":43.313291,"lon":5.396838,"is_reserved":false,"is_disabled":false,"rental_uris":{"android":"levelo://app?vid=ef62cf81-cc32-4f0e-bdf1-8a6a90e9453b","ios":"levelo://app?vid=ef62cf81-cc32-4f0e-bdf1-8a6a90e9453b"},"vehicle_type_id":"4","last_reported":1706645216,"current_range_meters":18000,"station_id":"ce4bgvp2rcd13ifvqcu0","pricing_plan_id":"free"},{"bike_id":"dacef0ad-9800-41af-828e-19ff6aaaffb4","system_id":"levelo_inurba_marseille","lat":43.313291,"lon":5.396838,"is_reserved":false,"is_disabled":false,"rental_uris":{"android":"levelo://app?vid=dacef0ad-9800-41af-828e-19ff6aaaffb4","ios":"levelo://app?vid=dacef0ad-9800-41af-828e-19ff6aaaffb4"},"vehicle_type_id":"4","last_reported":1706645216,"current_range_meters":29200,"station_id":"ce4bgvp2rcd13ifvqcu0","pricing_plan_id":"free"},{"bike_id":"0db4327a-f873-4b61-9e5d-93ba3c4b6379","system_id":"levelo_inurba_marseille","lat":43.313291,"lon":5.396838,"is_reserved":false,"is_disabled":false,"rental_uris":{"android":"levelo://app?vid=0db4327a-f873-4b61-9e5d-93ba3c4b6379","ios":"levelo://app?vid=0db4327a-f873-4b61-9e5d-93ba3c4b6379"},"vehicle_type_id":"4","last_reported":1706645216,"current_range_meters":0,"station_id":"ce4bgvp2rcd13ifvqcu0","pricing_plan_id":"free"},{"bike_id":"7f40c595-1c4f-4ac5-898c-e19e6e7abfa5","system_id":"levelo_inurba_marseille","lat":43.313291,"lon":5.396838,"is_reserved":false,"is_disabled":false,"rental_uris":{"android":"levelo://app?vid=7f40c595-1c4f-4ac5-898c-e19e6e7abfa5","ios":"levelo://app?vid=7f40c595-1c4f-4ac5-898c-e19e6e7abfa5"},"vehicle_type_id":"4","last_reported":1706645216,"current_range_meters":18000,"station_id":"ce4bgvp2rcd13ifvqcu0","pricing_plan_id":"free"},{"bike_id":"50abaccf-dd88-40c7-8675-0ffb04196c99","system_id":"levelo_inurba_marseille","lat":43.313291,"lon":5.396838,"is_reserved":false,"is_disabled":false,"rental_uris":{"android":"levelo://app?vid=50abaccf-dd88-40c7-8675-0ffb04196c99","ios":"levelo://app?vid=50abaccf-dd88-40c7-8675-0ffb04196c99"},"vehicle_type_id":"4","last_reported":1706645216,"current_range_meters":22000,"station_id":"ce4bgvp2rcd13ifvqcu0","pricing_plan_id":"free"},{"bike_id":"08c8936f-6282-4269-ac71-328472fd491d","system_id":"levelo_inurba_marseille","lat":43.313291,"lon":5.396838,"is_reserved":false,"is_disabled":false,"rental_uris":{"android":"levelo://app?vid=08c8936f-6282-4269-ac71-328472fd491d","ios":"levelo://app?vid=08c8936f-6282-4269-ac71-328472fd491d"},"vehicle_type_id":"4","last_reported":1706645216,"current_range_meters":31200,"station_id":"ce4bgvp2rcd13ifvqcu0","pricing_plan_id":"free"},{"bike_id":"961af791-ce80-4780-8123-07223dca3aae","system_id":"levelo_inurba_marseille","lat":43.313291,"lon":5.396838,"is_reserved":false,"is_disabled":false,"rental_uris":{"android":"levelo://app?vid=961af791-ce80-4780-8123-07223dca3aae","ios":"levelo://app?vid=961af791-ce80-4780-8123-07223dca3aae"},"vehicle_type_id":"4","last_reported":1706645216,"current_range_meters":14000,"station_id":"ce4bgvp2rcd13ifvqcu0","pricing_plan_id":"free"},{"bike_id":"1c9ce51b-33d4-41ff-a491-07c4b0b68cb0","system_id":"levelo_inurba_marseille","lat":43.31326,"lon":5.39698,"is_reserved":false,"is_disabled":false,"rental_uris":{"android":"levelo://app?vid=1c9ce51b-33d4-41ff-a491-07c4b0b68cb0","ios":"levelo://app?vid=1c9ce51b-33d4-41ff-a491-07c4b0b68cb0"},"vehicle_type_id":"4","last_reported":1706645216,"current_range_meters":5200,"station_id":"ce4bgvp2rcd13ifvqcu0","pricing_plan_id":"free"},{"bike_id":"1e9ebea3-1c90-403d-a389-255819a2c3df","system_id":"levelo_inurba_marseille","lat":43.30886,"lon":5.39652,"is_reserved":false,"is_disabled":false,"rental_uris":{"android":"levelo://app?vid=1e9ebea3-1c90-403d-a389-255819a2c3df","ios":"levelo://app?vid=1e9ebea3-1c90-403d-a389-255819a2c3df"},"vehicle_type_id":"4","last_reported":1706645216,"current_range_meters":0,"station_id":"ce4bh012rcd13ifvqcv0","pricing_plan_id":"free"},{"bike_id":"a81ffb1d-f7f4-41a9-a4d4-6a804b0f144a","system_id":"levelo_inurba_marseille","lat":43.313291,"lon":5.396838,"is_reserved":false,"is_disabled":false,"rental_uris":{"android":"levelo://app?vid=a81ffb1d-f7f4-41a9-a4d4-6a804b0f144a","ios":"levelo://app?vid=a81ffb1d-f7f4-41a9-a4d4-6a804b0f144a"},"vehicle_type_id":"4","last_reported":1706645216,"current_range_meters":18000,"station_id":"ce4bgvp2rcd13ifvqcu0","pricing_plan_id":"free"},{"bike_id":"fd032832-9814-42c3-abf6-948d3fd5d135","system_id":"levelo_inurba_marseille","lat":43.313291,"lon":5.396838,"is_reserved":false,"is_disabled":false,"rental_uris":{"android":"levelo://app?vid=fd032832-9814-42c3-abf6-948d3fd5d135","ios":"levelo://app?vid=fd032832-9814-42c3-abf6-948d3fd5d135"},"vehicle_type_id":"4","last_reported":1706645216,"current_range_meters":20800,"station_id":"ce4bgvp2rcd13ifvqcu0","pricing_plan_id":"free"},{"bike_id":"4970a1f1-2562-4cd9-ae69-8b029fbc1985","system_id":"levelo_inurba_marseille","lat":43.313291,"lon":5.396838,"is_reserved":false,"is_disabled":false,"rental_uris":{"android":"levelo://app?vid=4970a1f1-2562-4cd9-ae69-8b029fbc1985","ios":"levelo://app?vid=4970a1f1-2562-4cd9-ae69-8b029fbc1985"},"vehicle_type_id":"4","last_reported":1706645216,"current_range_meters":18400,"station_id":"ce4bgvp2rcd13ifvqcu0","pricing_plan_id":"free"},{"bike_id":"067a3f54-cdb1-4351-888c-7235aaac275f","system_id":"levelo_inurba_marseille","lat":43.313291,"lon":5.396838,"is_reserved":false,"is_disabled":false,"rental_uris":{"android":"levelo://app?vid=067a3f54-cdb1-4351-888c-7235aaac275f","ios":"levelo://app?vid=067a3f54-cdb1-4351-888c-7235aaac275f"},"vehicle_type_id":"4","last_reported":1706645216,"current_range_meters":6000,"station_id":"ce4bgvp2rcd13ifvqcu0","pricing_plan_id":"free"},{"bike_id":"33c94b88-26d4-4311-af85-1825f528c93a","system_id":"levelo_inurba_marseille","lat":43.3088,"lon":5.39651,"is_reserved":false,"is_disabled":false,"rental_uris":{"android":"levelo://app?vid=33c94b88-26d4-4311-af85-1825f528c93a","ios":"levelo://app?vid=33c94b88-26d4-4311-af85-1825f528c93a"},"vehicle_type_id":"4","last_reported":1706645216,"current_range_meters":12000,"station_id":"ce4bh012rcd13ifvqcv0","pricing_plan_id":"free"},{"bike_id":"0e939496-2def-4b51-b8a6-8154a39f3ea3","system_id":"levelo_inurba_marseille","lat":43.313291,"lon":5.396838,"is_reserved":false,"is_disabled":false,"rental_uris":{"android":"levelo://app?vid=0e939496-2def-4b51-b8a6-8154a39f3ea3","ios":"levelo://app?vid=0e939496-2def-4b51-b8a6-8154a39f3ea3"},"vehicle_type_id":"4","last_reported":1706645216,"current_range_meters":27600,"station_id":"ce4bgvp2rcd13ifvqcu0","pricing_plan_id":"free"},{"bike_id":"79a84e50-340f-4796-8e81-e36a91cc5577","system_id":"levelo_inurba_marseille","lat":43.309038,"lon":5.396546,"is_reserved":false,"is_disabled":false,"rental_uris":{"android":"levelo://app?vid=79a84e50-340f-4796-8e81-e36a91cc5577","ios":"levelo://app?vid=79a84e50-340f-4796-8e81-e36a91cc5577"},"vehicle_type_id":"4","last_reported":1706645216,"current_range_meters":14400,"station_id":"ce4bh012rcd13ifvqcv0","pricing_plan_id":"free"},{"bike_id":"0498f959-33ab-4cf6-a268-c8c1b960fc37","system_id":"levelo_inurba_marseille","lat":43.309038,"lon":5.396546,"is_reserved":false,"is_disabled":false,"rental_uris":{"android":"levelo://app?vid=0498f959-33ab-4cf6-a268-c8c1b960fc37","ios":"levelo://app?vid=0498f959-33ab-4cf6-a268-c8c1b960fc37"},"vehicle_type_id":"4","last_reported":1706645216,"current_range_meters":9600,"station_id":"ce4bh012rcd13ifvqcv0","pricing_plan_id":"free"},{"bike_id":"2ffc279e-2799-4474-8220-0a993408586f","system_id":"levelo_inurba_marseille","lat":43.313291,"lon":5.396838,"is_reserved":false,"is_disabled":false,"rental_uris":{"android":"levelo://app?vid=2ffc279e-2799-4474-8220-0a993408586f","ios":"levelo://app?vid=2ffc279e-2799-4474-8220-0a993408586f"},"vehicle_type_id":"4","last_reported":1706645216,"current_range_meters":31200,"station_id":"ce4bgvp2rcd13ifvqcu0","pricing_plan_id":"free"},{"bike_id":"3c4672c7-5915-4150-90ba-d91dd82427ee","system_id":"levelo_inurba_marseille","lat":43.30893,"lon":5.39655,"is_reserved":false,"is_disabled":false,"rental_uris":{"android":"levelo://app?vid=3c4672c7-5915-4150-90ba-d91dd82427ee","ios":"levelo://app?vid=3c4672c7-5915-4150-90ba-d91dd82427ee"},"vehicle_type_id":"4","last_reported":1706645216,"current_range_meters":0,"station_id":"ce4bh012rcd13ifvqcv0","pricing_plan_id":"free"},{"bike_id":"00d1de33-9991-4236-84b0-31936a458efe","system_id":"levelo_inurba_marseille","lat":43.313291,"lon":5.396838,"is_reserved":false,"is_disabled":false,"rental_uris":{"android":"levelo://app?vid=00d1de33-9991-4236-84b0-31936a458efe","ios":"levelo://app?vid=00d1de33-9991-4236-84b0-31936a458efe"},"vehicle_type_id":"4","last_reported":1706645216,"current_range_meters":4800,"station_id":"ce4bgvp2rcd13ifvqcu0","pricing_plan_id":"free"},{"bike_id":"96772678-d17a-43c2-a5f2-9de991a51cc0","system_id":"levelo_inurba_marseille","lat":43.308342,"lon":5.396408,"is_reserved":false,"is_disabled":false,"rental_uris":{"android":"levelo://app?vid=96772678-d17a-43c2-a5f2-9de991a51cc0","ios":"levelo://app?vid=96772678-d17a-43c2-a5f2-9de991a51cc0"},"vehicle_type_id":"4","last_reported":1706645216,"current_range_meters":25200,"station_id":"ce4bh012rcd13ifvqcv0","pricing_plan_id":"free"},{"bike_id":"feeb888a-249a-48c9-9c30-faafc06cbb32","system_id":"levelo_inurba_marseille","lat":43.313291,"lon":5.396838,"is_reserved":false,"is_disabled":false,"rental_uris":{"android":"levelo://app?vid=feeb888a-249a-48c9-9c30-faafc06cbb32","ios":"levelo://app?vid=feeb888a-249a-48c9-9c30-faafc06cbb32"},"vehicle_type_id":"4","last_reported":1706645216,"current_range_meters":17200,"station_id":"ce4bgvp2rcd13ifvqcu0","pricing_plan_id":"free"},{"bike_id":"6f5c9714-0235-4318-92c0-c0df621ff2bc","system_id":"levelo_inurba_marseille","lat":43.30886,"lon":5.39658,"is_reserved":false,"is_disabled":false,"rental_uris":{"android":"levelo://app?vid=6f5c9714-0235-4318-92c0-c0df621ff2bc","ios":"levelo://app?vid=6f5c9714-0235-4318-92c0-c0df621ff2bc"},"vehicle_type_id":"4","last_reported":1706645216,"current_range_meters":18400,"station_id":"ce4bh012rcd13ifvqcv0","pricing_plan_id":"free"},{"bike_id":"6c7e1c9a-57cb-4109-b0b9-8f343f78204f","system_id":"levelo_inurba_marseille","lat":43.30883,"lon":5.39658,"is_reserved":false,"is_disabled":false,"rental_uris":{"android":"levelo://app?vid=6c7e1c9a-57cb-4109-b0b9-8f343f78204f","ios":"levelo://app?vid=6c7e1c9a-57cb-4109-b0b9-8f343f78204f"},"vehicle_type_id":"4","last_reported":1706645216,"current_range_meters":800,"station_id":"ce4bh012rcd13ifvqcv0","pricing_plan_id":"free"},{"bike_id":"2e0c5069-3577-4b65-9bc2-e4d774d1fe84","system_id":"levelo_inurba_marseille","lat":43.309038,"lon":5.396546,"is_reserved":false,"is_disabled":false,"rental_uris":{"android":"levelo://app?vid=2e0c5069-3577-4b65-9bc2-e4d774d1fe84","ios":"levelo://app?vid=2e0c5069-3577-4b65-9bc2-e4d774d1fe84"},"vehicle_type_id":"4","last_reported":1706645216,"current_range_meters":18000,"station_id":"ce4bh012rcd13ifvqcv0","pricing_plan_id":"free"},{"bike_id":"1c2b602e-ccb8-4dbf-852b-b17293b6dcf6","system_id":"levelo_inurba_marseille","lat":43.29529,"lon":5.385581,"is_reserved":false,"is_disabled":false,"rental_uris":{"android":"levelo://app?vid=1c2b602e-ccb8-4dbf-852b-b17293b6dcf6","ios":"levelo://app?vid=1c2b602e-ccb8-4dbf-852b-b17293b6dcf6"},"vehicle_type_id":"4","last_reported":1706645216,"current_range_meters":6400,"station_id":"ce4bgih2rcd13ifvqba0","pricing_plan_id":"free"},{"bike_id":"30d409cb-c5ae-4460-a6e3-959aeaa6e2b2","system_id":"levelo_inurba_marseille","lat":43.29529,"lon":5.385581,"is_reserved":false,"is_disabled":false,"rental_uris":{"android":"levelo://app?vid=30d409cb-c5ae-4460-a6e3-959aeaa6e2b2","ios":"levelo://app?vid=30d409cb-c5ae-4460-a6e3-959aeaa6e2b2"},"vehicle_type_id":"4","last_reported":1706645216,"current_range_meters":28800,"station_id":"ce4bgih2rcd13ifvqba0","pricing_plan_id":"free"},{"bike_id":"a2c5a250-91bb-4fda-b81a-70a640a74588","system_id":"levelo_inurba_marseille","lat":43.29529,"lon":5.385581,"is_reserved":false,"is_disabled":false,"rental_uris":{"android":"levelo://app?vid=a2c5a250-91bb-4fda-b81a-70a640a74588","ios":"levelo://app?vid=a2c5a250-91bb-4fda-b81a-70a640a74588"},"vehicle_type_id":"4","last_reported":1706645216,"current_range_meters":8000,"station_id":"ce4bgih2rcd13ifvqba0","pricing_plan_id":"free"},{"bike_id":"8b48477a-e6c5-4213-8ec6-6cb2e4fa8c3a","system_id":"levelo_inurba_marseille","lat":43.29529,"lon":5.385581,"is_reserved":false,"is_disabled":false,"rental_uris":{"android":"levelo://app?vid=8b48477a-e6c5-4213-8ec6-6cb2e4fa8c3a","ios":"levelo://app?vid=8b48477a-e6c5-4213-8ec6-6cb2e4fa8c3a"},"vehicle_type_id":"4","last_reported":1706645216,"current_range_meters":23200,"station_id":"ce4bgih2rcd13ifvqba0","pricing_plan_id":"free"},{"bike_id":"331618fd-324b-4ba7-bd66-ff9a03634f5a","system_id":"levelo_inurba_marseille","lat":43.29529,"lon":5.385581,"is_reserved":false,"is_disabled":false,"rental_uris":{"android":"levelo://app?vid=331618fd-324b-4ba7-bd66-ff9a03634f5a","ios":"levelo://app?vid=331618fd-324b-4ba7-bd66-ff9a03634f5a"},"vehicle_type_id":"4","last_reported":1706645216,"current_range_meters":21600,"station_id":"ce4bgih2rcd13ifvqba0","pricing_plan_id":"free"},{"bike_id":"13faf5d4-9115-4c00-91ee-167af6d65fe3","system_id":"levelo_inurba_marseille","lat":43.290779,"lon":5.371482,"is_reserved":false,"is_disabled":false,"rental_uris":{"android":"levelo://app?vid=13faf5d4-9115-4c00-91ee-167af6d65fe3","ios":"levelo://app?vid=13faf5d4-9115-4c00-91ee-167af6d65fe3"},"vehicle_type_id":"4","last_reported":1706645216,"current_range_meters":18800,"station_id":"ce4bh5p2rcd13ifvqe4g","pricing_plan_id":"free"},{"bike_id":"3b80220f-58f7-45f2-88f8-fb654bb40f6c","system_id":"levelo_inurba_marseille","lat":43.290779,"lon":5.371482,"is_reserved":false,"is_disabled":false,"rental_uris":{"android":"levelo://app?vid=3b80220f-58f7-45f2-88f8-fb654bb40f6c","ios":"levelo://app?vid=3b80220f-58f7-45f2-88f8-fb654bb40f6c"},"vehicle_type_id":"4","last_reported":1706645216,"current_range_meters":23200,"station_id":"ce4bh5p2rcd13ifvqe4g","pricing_plan_id":"free"},{"bike_id":"bd209ed2-3e92-448c-9cb4-f7c93977760b","system_id":"levelo_inurba_marseille","lat":43.290779,"lon":5.371482,"is_reserved":false,"is_disabled":false,"rental_uris":{"android":"levelo://app?vid=bd209ed2-3e92-448c-9cb4-f7c93977760b","ios":"levelo://app?vid=bd209ed2-3e92-448c-9cb4-f7c93977760b"},"vehicle_type_id":"4","last_reported":1706645216,"current_range_meters":3200,"station_id":"ce4bh5p2rcd13ifvqe4g","pricing_plan_id":"free"},{"bike_id":"d8ec9cee-cd96-4d8e-9264-8ec7a647a7e2","system_id":"levelo_inurba_marseille","lat":43.290779,"lon":5.371482,"is_reserved":false,"is_disabled":false,"rental_uris":{"android":"levelo://app?vid=d8ec9cee-cd96-4d8e-9264-8ec7a647a7e2","ios":"levelo://app?vid=d8ec9cee-cd96-4d8e-9264-8ec7a647a7e2"},"vehicle_type_id":"4","last_reported":1706645216,"current_range_meters":7200,"station_id":"ce4bh5p2rcd13ifvqe4g","pricing_plan_id":"free"},{"bike_id":"ab99aca3-2390-44d4-8578-d623039345b1","system_id":"levelo_inurba_marseille","lat":43.290779,"lon":5.371482,"is_reserved":false,"is_disabled":false,"rental_uris":{"android":"levelo://app?vid=ab99aca3-2390-44d4-8578-d623039345b1","ios":"levelo://app?vid=ab99aca3-2390-44d4-8578-d623039345b1"},"vehicle_type_id":"4","last_reported":1706645216,"current_range_meters":11600,"station_id":"ce4bh5p2rcd13ifvqe4g","pricing_plan_id":"free"},{"bike_id":"7981674f-8f03-4f12-87ac-5e803884f790","system_id":"levelo_inurba_marseille","lat":43.290624,"lon":5.359245,"is_reserved":false,"is_disabled":false,"rental_uris":{"android":"levelo://app?vid=7981674f-8f03-4f12-87ac-5e803884f790","ios":"levelo://app?vid=7981674f-8f03-4f12-87ac-5e803884f790"},"vehicle_type_id":"4","last_reported":1706645216,"current_range_meters":7600,"station_id":"ce4bha92rcd13ifvqeg0","pricing_plan_id":"free"},{"bike_id":"5c4d6efe-afc3-40cd-8ed9-3225b7396029","system_id":"levelo_inurba_marseille","lat":43.302008,"lon":5.394694,"is_reserved":false,"is_disabled":false,"rental_uris":{"android":"levelo://app?vid=5c4d6efe-afc3-40cd-8ed9-3225b7396029","ios":"levelo://app?vid=5c4d6efe-afc3-40cd-8ed9-3225b7396029"},"vehicle_type_id":"4","last_reported":1706645216,"current_range_meters":26000,"station_id":"ce4bh0p2rcd13ifvqd70","pricing_plan_id":"free"},{"bike_id":"968fdc00-b9a2-4b76-a28f-cef0aa2741b0","system_id":"levelo_inurba_marseille","lat":43.302008,"lon":5.394694,"is_reserved":false,"is_disabled":false,"rental_uris":{"android":"levelo://app?vid=968fdc00-b9a2-4b76-a28f-cef0aa2741b0","ios":"levelo://app?vid=968fdc00-b9a2-4b76-a28f-cef0aa2741b0"},"vehicle_type_id":"4","last_reported":1706645216,"current_range_meters":3200,"station_id":"ce4bh0p2rcd13ifvqd70","pricing_plan_id":"free"},{"bike_id":"01531680-7662-4882-b578-583d70f908b3","system_id":"levelo_inurba_marseille","lat":43.290624,"lon":5.359245,"is_reserved":false,"is_disabled":false,"rental_uris":{"android":"levelo://app?vid=01531680-7662-4882-b578-583d70f908b3","ios":"levelo://app?vid=01531680-7662-4882-b578-583d70f908b3"},"vehicle_type_id":"4","last_reported":1706645216,"current_range_meters":20400,"station_id":"ce4bha92rcd13ifvqeg0","pricing_plan_id":"free"},{"bike_id":"f4114f7a-9904-4b6a-ae2a-31cef0a3d867","system_id":"levelo_inurba_marseille","lat":43.290624,"lon":5.359245,"is_reserved":false,"is_disabled":false,"rental_uris":{"android":"levelo://app?vid=f4114f7a-9904-4b6a-ae2a-31cef0a3d867","ios":"levelo://app?vid=f4114f7a-9904-4b6a-ae2a-31cef0a3d867"},"vehicle_type_id":"4","last_reported":1706645216,"current_range_meters":17200,"station_id":"ce4bha92rcd13ifvqeg0","pricing_plan_id":"free"},{"bike_id":"2c1e47ad-3478-424c-8c66-23a600b1f0dc","system_id":"levelo_inurba_marseille","lat":43.290441,"lon":5.359123,"is_reserved":false,"is_disabled":false,"rental_uris":{"android":"levelo://app?vid=2c1e47ad-3478-424c-8c66-23a600b1f0dc","ios":"levelo://app?vid=2c1e47ad-3478-424c-8c66-23a600b1f0dc"},"vehicle_type_id":"4","last_reported":1706645216,"current_range_meters":16800,"station_id":"","pricing_plan_id":"free"},{"bike_id":"5a206d5b-8699-4863-be5f-7f02e5b15273","system_id":"levelo_inurba_marseille","lat":43.29419,"lon":5.38626,"is_reserved":false,"is_disabled":false,"rental_uris":{"android":"levelo://app?vid=5a206d5b-8699-4863-be5f-7f02e5b15273","ios":"levelo://app?vid=5a206d5b-8699-4863-be5f-7f02e5b15273"},"vehicle_type_id":"4","last_reported":1706645216,"current_range_meters":0,"station_id":"ce4bh2h2rcd13ifvqdh0","pricing_plan_id":"free"},{"bike_id":"bbc681ce-26ae-41d2-a106-0d599b04fa35","system_id":"levelo_inurba_marseille","lat":43.2942,"lon":5.38633,"is_reserved":false,"is_disabled":false,"rental_uris":{"android":"levelo://app?vid=bbc681ce-26ae-41d2-a106-0d599b04fa35","ios":"levelo://app?vid=bbc681ce-26ae-41d2-a106-0d599b04fa35"},"vehicle_type_id":"4","last_reported":1706645216,"current_range_meters":6000,"station_id":"ce4bh2h2rcd13ifvqdh0","pricing_plan_id":"free"},{"bike_id":"c7d6043f-4882-424c-af0b-a23e50fd383f","system_id":"levelo_inurba_marseille","lat":43.289184,"lon":5.366408,"is_reserved":false,"is_disabled":false,"rental_uris":{"android":"levelo://app?vid=c7d6043f-4882-424c-af0b-a23e50fd383f","ios":"levelo://app?vid=c7d6043f-4882-424c-af0b-a23e50fd383f"},"vehicle_type_id":"4","last_reported":1706645216,"current_range_meters":11600,"station_id":"ce4bhap2rcd13ifvqek0","pricing_plan_id":"free"},{"bike_id":"e5ca439a-d083-485a-957b-99cc6d72b2c7","system_id":"levelo_inurba_marseille","lat":43.289184,"lon":5.366408,"is_reserved":false,"is_disabled":false,"rental_uris":{"android":"levelo://app?vid=e5ca439a-d083-485a-957b-99cc6d72b2c7","ios":"levelo://app?vid=e5ca439a-d083-485a-957b-99cc6d72b2c7"},"vehicle_type_id":"4","last_reported":1706645216,"current_range_meters":18400,"station_id":"ce4bhap2rcd13ifvqek0","pricing_plan_id":"free"},{"bike_id":"76a7ceae-72c0-4de1-8082-70f341cbfd13","system_id":"levelo_inurba_marseille","lat":43.289184,"lon":5.366408,"is_reserved":false,"is_disabled":false,"rental_uris":{"android":"levelo://app?vid=76a7ceae-72c0-4de1-8082-70f341cbfd13","ios":"levelo://app?vid=76a7ceae-72c0-4de1-8082-70f341cbfd13"},"vehicle_type_id":"4","last_reported":1706645216,"current_range_meters":7200,"station_id":"ce4bhap2rcd13ifvqek0","pricing_plan_id":"free"},{"bike_id":"7c8d0c4f-43bc-409d-822d-709d98054e51","system_id":"levelo_inurba_marseille","lat":43.289356,"lon":5.366441,"is_reserved":false,"is_disabled":false,"rental_uris":{"android":"levelo://app?vid=7c8d0c4f-43bc-409d-822d-709d98054e51","ios":"levelo://app?vid=7c8d0c4f-43bc-409d-822d-709d98054e51"},"vehicle_type_id":"4","last_reported":1706645216,"current_range_meters":0,"station_id":"ce4bhap2rcd13ifvqek0","pricing_plan_id":"free"},{"bike_id":"7dc3d1a6-3944-4cb2-8991-00a236fcb1af","system_id":"levelo_inurba_marseille","lat":43.289184,"lon":5.366408,"is_reserved":false,"is_disabled":false,"rental_uris":{"android":"levelo://app?vid=7dc3d1a6-3944-4cb2-8991-00a236fcb1af","ios":"levelo://app?vid=7dc3d1a6-3944-4cb2-8991-00a236fcb1af"},"vehicle_type_id":"4","last_reported":1706645216,"current_range_meters":0,"station_id":"ce4bhap2rcd13ifvqek0","pricing_plan_id":"free"},{"bike_id":"b1973c5b-c404-45d6-bd10-1f58827b3086","system_id":"levelo_inurba_marseille","lat":43.289184,"lon":5.366408,"is_reserved":false,"is_disabled":false,"rental_uris":{"android":"levelo://app?vid=b1973c5b-c404-45d6-bd10-1f58827b3086","ios":"levelo://app?vid=b1973c5b-c404-45d6-bd10-1f58827b3086"},"vehicle_type_id":"4","last_reported":1706645216,"current_range_meters":13600,"station_id":"ce4bhap2rcd13ifvqek0","pricing_plan_id":"free"},{"bike_id":"48bced11-bdf1-4560-8aa7-3961e75dd3b8","system_id":"levelo_inurba_marseille","lat":43.292642,"lon":5.384254,"is_reserved":false,"is_disabled":false,"rental_uris":{"android":"levelo://app?vid=48bced11-bdf1-4560-8aa7-3961e75dd3b8","ios":"levelo://app?vid=48bced11-bdf1-4560-8aa7-3961e75dd3b8"},"vehicle_type_id":"4","last_reported":1706645216,"current_range_meters":4400,"station_id":"ce4bh692rcd13ifvqea0","pricing_plan_id":"free"},{"bike_id":"42bf7cb0-1649-4c56-99f9-706ead73401a","system_id":"levelo_inurba_marseille","lat":43.304296,"lon":5.397513,"is_reserved":false,"is_disabled":false,"rental_uris":{"android":"levelo://app?vid=42bf7cb0-1649-4c56-99f9-706ead73401a","ios":"levelo://app?vid=42bf7cb0-1649-4c56-99f9-706ead73401a"},"vehicle_type_id":"4","last_reported":1706645216,"current_range_meters":0,"station_id":"ce4bh092rcd13ifvqd20","pricing_plan_id":"free"},{"bike_id":"9c74ffaf-3740-4d7a-816e-8f368a2781b3","system_id":"levelo_inurba_marseille","lat":43.292642,"lon":5.384254,"is_reserved":false,"is_disabled":false,"rental_uris":{"android":"levelo://app?vid=9c74ffaf-3740-4d7a-816e-8f368a2781b3","ios":"levelo://app?vid=9c74ffaf-3740-4d7a-816e-8f368a2781b3"},"vehicle_type_id":"4","last_reported":1706645216,"current_range_meters":4800,"station_id":"ce4bh692rcd13ifvqea0","pricing_plan_id":"free"},{"bike_id":"c9dc7985-dbdb-4057-826e-d60f215aa2d4","system_id":"levelo_inurba_marseille","lat":43.292644,"lon":5.384257,"is_reserved":false,"is_disabled":false,"rental_uris":{"android":"levelo://app?vid=c9dc7985-dbdb-4057-826e-d60f215aa2d4","ios":"levelo://app?vid=c9dc7985-dbdb-4057-826e-d60f215aa2d4"},"vehicle_type_id":"4","last_reported":1706645216,"current_range_meters":18000,"station_id":"ce4bh692rcd13ifvqea0","pricing_plan_id":"free"},{"bike_id":"eb4a57d8-5cac-4bbd-bd4c-38f62f8b5baf","system_id":"levelo_inurba_marseille","lat":43.292644,"lon":5.384257,"is_reserved":false,"is_disabled":false,"rental_uris":{"android":"levelo://app?vid=eb4a57d8-5cac-4bbd-bd4c-38f62f8b5baf","ios":"levelo://app?vid=eb4a57d8-5cac-4bbd-bd4c-38f62f8b5baf"},"vehicle_type_id":"4","last_reported":1706645216,"current_range_meters":5600,"station_id":"ce4bh692rcd13ifvqea0","pricing_plan_id":"free"},{"bike_id":"79120585-c964-4f97-94c4-dcc4f5d85f97","system_id":"levelo_inurba_marseille","lat":43.292644,"lon":5.384257,"is_reserved":false,"is_disabled":false,"rental_uris":{"android":"levelo://app?vid=79120585-c964-4f97-94c4-dcc4f5d85f97","ios":"levelo://app?vid=79120585-c964-4f97-94c4-dcc4f5d85f97"},"vehicle_type_id":"4","last_reported":1706645216,"current_range_meters":24400,"station_id":"ce4bh692rcd13ifvqea0","pricing_plan_id":"free"},{"bike_id":"0de4c791-5e8b-4e0f-b591-2d872fbb5316","system_id":"levelo_inurba_marseille","lat":43.304296,"lon":5.397513,"is_reserved":false,"is_disabled":false,"rental_uris":{"android":"levelo://app?vid=0de4c791-5e8b-4e0f-b591-2d872fbb5316","ios":"levelo://app?vid=0de4c791-5e8b-4e0f-b591-2d872fbb5316"},"vehicle_type_id":"4","last_reported":1706645216,"current_range_meters":22000,"station_id":"ce4bh092rcd13ifvqd20","pricing_plan_id":"free"},{"bike_id":"47c46e8c-0590-475c-bd7f-19a87d29a73a","system_id":"levelo_inurba_marseille","lat":43.290104,"lon":5.356111,"is_reserved":false,"is_disabled":false,"rental_uris":{"android":"levelo://app?vid=47c46e8c-0590-475c-bd7f-19a87d29a73a","ios":"levelo://app?vid=47c46e8c-0590-475c-bd7f-19a87d29a73a"},"vehicle_type_id":"4","last_reported":1706645216,"current_range_meters":18400,"station_id":"ce4bhb92rcd13ifvqen0","pricing_plan_id":"free"},{"bike_id":"4408c1ce-d9e2-4508-a05d-f803b169f825","system_id":"levelo_inurba_marseille","lat":43.290988,"lon":5.381195,"is_reserved":false,"is_disabled":false,"rental_uris":{"android":"levelo://app?vid=4408c1ce-d9e2-4508-a05d-f803b169f825","ios":"levelo://app?vid=4408c1ce-d9e2-4508-a05d-f803b169f825"},"vehicle_type_id":"4","last_reported":1706645216,"current_range_meters":0,"station_id":"ce4bh512rcd13ifvqe2g","pricing_plan_id":"free"},{"bike_id":"45c27a85-1e2f-4f26-a2da-7f8c52cc61ff","system_id":"levelo_inurba_marseille","lat":43.29098,"lon":5.38131,"is_reserved":false,"is_disabled":false,"rental_uris":{"android":"levelo://app?vid=45c27a85-1e2f-4f26-a2da-7f8c52cc61ff","ios":"levelo://app?vid=45c27a85-1e2f-4f26-a2da-7f8c52cc61ff"},"vehicle_type_id":"4","last_reported":1706645216,"current_range_meters":0,"station_id":"ce4bh512rcd13ifvqe2g","pricing_plan_id":"free"},{"bike_id":"3888f80c-9d5f-4485-9905-375e86c010c2","system_id":"levelo_inurba_marseille","lat":43.289743,"lon":5.378304,"is_reserved":false,"is_disabled":false,"rental_uris":{"android":"levelo://app?vid=3888f80c-9d5f-4485-9905-375e86c010c2","ios":"levelo://app?vid=3888f80c-9d5f-4485-9905-375e86c010c2"},"vehicle_type_id":"4","last_reported":1706645216,"current_range_meters":15600,"station_id":"ce4bh9p2rcd13ifvqed0","pricing_plan_id":"free"},{"bike_id":"ad423d89-78df-4a04-b307-b9edfd9aafed","system_id":"levelo_inurba_marseille","lat":43.289743,"lon":5.378304,"is_reserved":false,"is_disabled":false,"rental_uris":{"android":"levelo://app?vid=ad423d89-78df-4a04-b307-b9edfd9aafed","ios":"levelo://app?vid=ad423d89-78df-4a04-b307-b9edfd9aafed"},"vehicle_type_id":"4","last_reported":1706645216,"current_range_meters":0,"station_id":"ce4bh9p2rcd13ifvqed0","pricing_plan_id":"free"},{"bike_id":"ace9cfba-9681-4541-baa9-be25a65d97ca","system_id":"levelo_inurba_marseille","lat":43.297815,"lon":5.393548,"is_reserved":false,"is_disabled":false,"rental_uris":{"android":"levelo://app?vid=ace9cfba-9681-4541-baa9-be25a65d97ca","ios":"levelo://app?vid=ace9cfba-9681-4541-baa9-be25a65d97ca"},"vehicle_type_id":"4","last_reported":1706645216,"current_range_meters":16400,"station_id":"chh1huq6cuj3fo74tm60","pricing_plan_id":"free"},{"bike_id":"2dedfd13-52e7-4c5b-8fdd-249e93600b4e","system_id":"levelo_inurba_marseille","lat":43.29798,"lon":5.39342,"is_reserved":false,"is_disabled":false,"rental_uris":{"android":"levelo://app?vid=2dedfd13-52e7-4c5b-8fdd-249e93600b4e","ios":"levelo://app?vid=2dedfd13-52e7-4c5b-8fdd-249e93600b4e"},"vehicle_type_id":"4","last_reported":1706645216,"current_range_meters":29200,"station_id":"chh1huq6cuj3fo74tm60","pricing_plan_id":"free"},{"bike_id":"685ca185-e0a4-4ecc-8357-36a6deeb3ec3","system_id":"levelo_inurba_marseille","lat":43.29796,"lon":5.39341,"is_reserved":false,"is_disabled":false,"rental_uris":{"android":"levelo://app?vid=685ca185-e0a4-4ecc-8357-36a6deeb3ec3","ios":"levelo://app?vid=685ca185-e0a4-4ecc-8357-36a6deeb3ec3"},"vehicle_type_id":"4","last_reported":1706645216,"current_range_meters":22800,"station_id":"chh1huq6cuj3fo74tm60","pricing_plan_id":"free"},{"bike_id":"f33b4bb7-7bd1-4879-8f43-fe58797c302b","system_id":"levelo_inurba_marseille","lat":43.2979,"lon":5.393388,"is_reserved":false,"is_disabled":false,"rental_uris":{"android":"levelo://app?vid=f33b4bb7-7bd1-4879-8f43-fe58797c302b","ios":"levelo://app?vid=f33b4bb7-7bd1-4879-8f43-fe58797c302b"},"vehicle_type_id":"4","last_reported":1706645216,"current_range_meters":0,"station_id":"chh1huq6cuj3fo74tm60","pricing_plan_id":"free"},{"bike_id":"1cda45eb-e1de-4e0b-af66-aaf8b66fa953","system_id":"levelo_inurba_marseille","lat":43.297815,"lon":5.393548,"is_reserved":false,"is_disabled":false,"rental_uris":{"android":"levelo://app?vid=1cda45eb-e1de-4e0b-af66-aaf8b66fa953","ios":"levelo://app?vid=1cda45eb-e1de-4e0b-af66-aaf8b66fa953"},"vehicle_type_id":"4","last_reported":1706645216,"current_range_meters":27600,"station_id":"chh1huq6cuj3fo74tm60","pricing_plan_id":"free"},{"bike_id":"e1144728-6a9c-4115-bd68-fbc4cfbd5978","system_id":"levelo_inurba_marseille","lat":43.297815,"lon":5.393548,"is_reserved":false,"is_disabled":false,"rental_uris":{"android":"levelo://app?vid=e1144728-6a9c-4115-bd68-fbc4cfbd5978","ios":"levelo://app?vid=e1144728-6a9c-4115-bd68-fbc4cfbd5978"},"vehicle_type_id":"4","last_reported":1706645216,"current_range_meters":6800,"station_id":"chh1huq6cuj3fo74tm60","pricing_plan_id":"free"},{"bike_id":"0881d2d9-aeb8-4abf-ba78-43949cd6c0c2","system_id":"levelo_inurba_marseille","lat":43.29793,"lon":5.39351,"is_reserved":false,"is_disabled":false,"rental_uris":{"android":"levelo://app?vid=0881d2d9-aeb8-4abf-ba78-43949cd6c0c2","ios":"levelo://app?vid=0881d2d9-aeb8-4abf-ba78-43949cd6c0c2"},"vehicle_type_id":"4","last_reported":1706645216,"current_range_meters":31200,"station_id":"","pricing_plan_id":"free"},{"bike_id":"9c7a9839-bda3-4c8b-b68c-6ac3367bbc8e","system_id":"levelo_inurba_marseille","lat":43.330442,"lon":5.389148,"is_reserved":false,"is_disabled":false,"rental_uris":{"android":"levelo://app?vid=9c7a9839-bda3-4c8b-b68c-6ac3367bbc8e","ios":"levelo://app?vid=9c7a9839-bda3-4c8b-b68c-6ac3367bbc8e"},"vehicle_type_id":"4","last_reported":1706645216,"current_range_meters":25200,"station_id":"ce4bhr92rcd13ifvqhrg","pricing_plan_id":"free"},{"bike_id":"d974b025-d69c-4419-982e-056bf28a442c","system_id":"levelo_inurba_marseille","lat":43.29527,"lon":5.39033,"is_reserved":false,"is_disabled":false,"rental_uris":{"android":"levelo://app?vid=d974b025-d69c-4419-982e-056bf28a442c","ios":"levelo://app?vid=d974b025-d69c-4419-982e-056bf28a442c"},"vehicle_type_id":"4","last_reported":1706645216,"current_range_meters":6800,"station_id":"ce4bh3p2rcd13ifvqdp0","pricing_plan_id":"free"},{"bike_id":"54340ca4-c385-46ed-b279-556ae3d847cc","system_id":"levelo_inurba_marseille","lat":43.3302,"lon":5.39039,"is_reserved":false,"is_disabled":false,"rental_uris":{"android":"levelo://app?vid=54340ca4-c385-46ed-b279-556ae3d847cc","ios":"levelo://app?vid=54340ca4-c385-46ed-b279-556ae3d847cc"},"vehicle_type_id":"4","last_reported":1706645216,"current_range_meters":13600,"station_id":"ce4bhr92rcd13ifvqhrg","pricing_plan_id":"free"},{"bike_id":"e9727c13-2f65-483b-8647-4f0d87fc4df2","system_id":"levelo_inurba_marseille","lat":43.28977,"lon":5.37832,"is_reserved":false,"is_disabled":false,"rental_uris":{"android":"levelo://app?vid=e9727c13-2f65-483b-8647-4f0d87fc4df2","ios":"levelo://app?vid=e9727c13-2f65-483b-8647-4f0d87fc4df2"},"vehicle_type_id":"4","last_reported":1706645216,"current_range_meters":24400,"station_id":"ce4bh9p2rcd13ifvqed0","pricing_plan_id":"free"},{"bike_id":"00e8945e-979c-4cb2-bc51-ec09e93eb49e","system_id":"levelo_inurba_marseille","lat":43.28977,"lon":5.37834,"is_reserved":false,"is_disabled":false,"rental_uris":{"android":"levelo://app?vid=00e8945e-979c-4cb2-bc51-ec09e93eb49e","ios":"levelo://app?vid=00e8945e-979c-4cb2-bc51-ec09e93eb49e"},"vehicle_type_id":"4","last_reported":1706645216,"current_range_meters":20000,"station_id":"ce4bh9p2rcd13ifvqed0","pricing_plan_id":"free"},{"bike_id":"d886f36e-218b-497f-bf3c-7716ce70d8cc","system_id":"levelo_inurba_marseille","lat":43.33021,"lon":5.39044,"is_reserved":false,"is_disabled":false,"rental_uris":{"android":"levelo://app?vid=d886f36e-218b-497f-bf3c-7716ce70d8cc","ios":"levelo://app?vid=d886f36e-218b-497f-bf3c-7716ce70d8cc"},"vehicle_type_id":"4","last_reported":1706645216,"current_range_meters":3200,"station_id":"ce4bhr92rcd13ifvqhrg","pricing_plan_id":"free"},{"bike_id":"dc10f011-32d1-446a-8185-e3eedcce9c6e","system_id":"levelo_inurba_marseille","lat":43.297815,"lon":5.393548,"is_reserved":false,"is_disabled":false,"rental_uris":{"android":"levelo://app?vid=dc10f011-32d1-446a-8185-e3eedcce9c6e","ios":"levelo://app?vid=dc10f011-32d1-446a-8185-e3eedcce9c6e"},"vehicle_type_id":"4","last_reported":1706645216,"current_range_meters":25600,"station_id":"chh1huq6cuj3fo74tm60","pricing_plan_id":"free"},{"bike_id":"ff708cda-0d47-4a10-a7f9-fd329bffdc33","system_id":"levelo_inurba_marseille","lat":43.330442,"lon":5.389148,"is_reserved":false,"is_disabled":false,"rental_uris":{"android":"levelo://app?vid=ff708cda-0d47-4a10-a7f9-fd329bffdc33","ios":"levelo://app?vid=ff708cda-0d47-4a10-a7f9-fd329bffdc33"},"vehicle_type_id":"4","last_reported":1706645216,"current_range_meters":2800,"station_id":"ce4bhr92rcd13ifvqhrg","pricing_plan_id":"free"},{"bike_id":"c11dfe63-9dbc-402f-84ab-8b8317733a63","system_id":"levelo_inurba_marseille","lat":43.33024,"lon":5.39044,"is_reserved":false,"is_disabled":false,"rental_uris":{"android":"levelo://app?vid=c11dfe63-9dbc-402f-84ab-8b8317733a63","ios":"levelo://app?vid=c11dfe63-9dbc-402f-84ab-8b8317733a63"},"vehicle_type_id":"4","last_reported":1706645216,"current_range_meters":400,"station_id":"ce4bhr92rcd13ifvqhrg","pricing_plan_id":"free"},{"bike_id":"43244c99-5db6-42f7-9190-d887fb9e70d9","system_id":"levelo_inurba_marseille","lat":43.33028,"lon":5.39065,"is_reserved":false,"is_disabled":false,"rental_uris":{"android":"levelo://app?vid=43244c99-5db6-42f7-9190-d887fb9e70d9","ios":"levelo://app?vid=43244c99-5db6-42f7-9190-d887fb9e70d9"},"vehicle_type_id":"4","last_reported":1706645216,"current_range_meters":18400,"station_id":"ce4bhr92rcd13ifvqhrg","pricing_plan_id":"free"},{"bike_id":"8a0be387-e59a-4e28-b0df-7e795def2c7b","system_id":"levelo_inurba_marseille","lat":43.28856,"lon":5.358371,"is_reserved":false,"is_disabled":false,"rental_uris":{"android":"levelo://app?vid=8a0be387-e59a-4e28-b0df-7e795def2c7b","ios":"levelo://app?vid=8a0be387-e59a-4e28-b0df-7e795def2c7b"},"vehicle_type_id":"4","last_reported":1706645216,"current_range_meters":30400,"station_id":"ce4bhb12rcd13ifvqem0","pricing_plan_id":"free"},{"bike_id":"ff6936eb-b659-44d1-beff-23c802414e03","system_id":"levelo_inurba_marseille","lat":43.28856,"lon":5.358371,"is_reserved":false,"is_disabled":false,"rental_uris":{"android":"levelo://app?vid=ff6936eb-b659-44d1-beff-23c802414e03","ios":"levelo://app?vid=ff6936eb-b659-44d1-beff-23c802414e03"},"vehicle_type_id":"4","last_reported":1706645216,"current_range_meters":5600,"station_id":"ce4bhb12rcd13ifvqem0","pricing_plan_id":"free"},{"bike_id":"24bca81d-f76b-46b1-ad04-20c7073dfe30","system_id":"levelo_inurba_marseille","lat":43.28856,"lon":5.358371,"is_reserved":false,"is_disabled":false,"rental_uris":{"android":"levelo://app?vid=24bca81d-f76b-46b1-ad04-20c7073dfe30","ios":"levelo://app?vid=24bca81d-f76b-46b1-ad04-20c7073dfe30"},"vehicle_type_id":"4","last_reported":1706645216,"current_range_meters":27200,"station_id":"ce4bhb12rcd13ifvqem0","pricing_plan_id":"free"},{"bike_id":"69be143d-2d2b-4a08-a569-4d0efe66087e","system_id":"levelo_inurba_marseille","lat":43.28856,"lon":5.358371,"is_reserved":false,"is_disabled":false,"rental_uris":{"android":"levelo://app?vid=69be143d-2d2b-4a08-a569-4d0efe66087e","ios":"levelo://app?vid=69be143d-2d2b-4a08-a569-4d0efe66087e"},"vehicle_type_id":"4","last_reported":1706645216,"current_range_meters":18800,"station_id":"ce4bhb12rcd13ifvqem0","pricing_plan_id":"free"},{"bike_id":"70770ecd-216a-467f-8858-7aa6679f1335","system_id":"levelo_inurba_marseille","lat":43.28856,"lon":5.358371,"is_reserved":false,"is_disabled":false,"rental_uris":{"android":"levelo://app?vid=70770ecd-216a-467f-8858-7aa6679f1335","ios":"levelo://app?vid=70770ecd-216a-467f-8858-7aa6679f1335"},"vehicle_type_id":"4","last_reported":1706645216,"current_range_meters":18000,"station_id":"ce4bhb12rcd13ifvqem0","pricing_plan_id":"free"},{"bike_id":"6db454f5-9b5a-42d5-8e7e-cd67710e219d","system_id":"levelo_inurba_marseille","lat":43.28856,"lon":5.358371,"is_reserved":false,"is_disabled":false,"rental_uris":{"android":"levelo://app?vid=6db454f5-9b5a-42d5-8e7e-cd67710e219d","ios":"levelo://app?vid=6db454f5-9b5a-42d5-8e7e-cd67710e219d"},"vehicle_type_id":"4","last_reported":1706645216,"current_range_meters":0,"station_id":"ce4bhb12rcd13ifvqem0","pricing_plan_id":"free"},{"bike_id":"fbead97e-217a-40a6-89d2-77c35e008d0f","system_id":"levelo_inurba_marseille","lat":43.28856,"lon":5.358371,"is_reserved":false,"is_disabled":false,"rental_uris":{"android":"levelo://app?vid=fbead97e-217a-40a6-89d2-77c35e008d0f","ios":"levelo://app?vid=fbead97e-217a-40a6-89d2-77c35e008d0f"},"vehicle_type_id":"4","last_reported":1706645216,"current_range_meters":4800,"station_id":"ce4bhb12rcd13ifvqem0","pricing_plan_id":"free"},{"bike_id":"a410b630-21f0-488e-b5e2-14f05f8552fd","system_id":"levelo_inurba_marseille","lat":43.28856,"lon":5.358371,"is_reserved":false,"is_disabled":false,"rental_uris":{"android":"levelo://app?vid=a410b630-21f0-488e-b5e2-14f05f8552fd","ios":"levelo://app?vid=a410b630-21f0-488e-b5e2-14f05f8552fd"},"vehicle_type_id":"4","last_reported":1706645216,"current_range_meters":21600,"station_id":"ce4bhb12rcd13ifvqem0","pricing_plan_id":"free"},{"bike_id":"9008239d-ce45-46c2-8381-3c063bd03566","system_id":"levelo_inurba_marseille","lat":43.337414,"lon":5.374598,"is_reserved":false,"is_disabled":false,"rental_uris":{"android":"levelo://app?vid=9008239d-ce45-46c2-8381-3c063bd03566","ios":"levelo://app?vid=9008239d-ce45-46c2-8381-3c063bd03566"},"vehicle_type_id":"4","last_reported":1706645216,"current_range_meters":17200,"station_id":"","pricing_plan_id":"free"},{"bike_id":"5d865f24-c2c5-42a1-b882-c5b2acc26992","system_id":"levelo_inurba_marseille","lat":43.309371,"lon":5.401449,"is_reserved":false,"is_disabled":false,"rental_uris":{"android":"levelo://app?vid=5d865f24-c2c5-42a1-b882-c5b2acc26992","ios":"levelo://app?vid=5d865f24-c2c5-42a1-b882-c5b2acc26992"},"vehicle_type_id":"4","last_reported":1706645216,"current_range_meters":25600,"station_id":"ce4bgvp2rcd13ifvqct0","pricing_plan_id":"free"},{"bike_id":"ccd4d09d-aaef-44b5-8209-8a9183e20174","system_id":"levelo_inurba_marseille","lat":43.309371,"lon":5.401449,"is_reserved":false,"is_disabled":false,"rental_uris":{"android":"levelo://app?vid=ccd4d09d-aaef-44b5-8209-8a9183e20174","ios":"levelo://app?vid=ccd4d09d-aaef-44b5-8209-8a9183e20174"},"vehicle_type_id":"4","last_reported":1706645216,"current_range_meters":14400,"station_id":"ce4bgvp2rcd13ifvqct0","pricing_plan_id":"free"},{"bike_id":"9fa665cb-b57a-497b-914d-272056bde5b9","system_id":"levelo_inurba_marseille","lat":43.309371,"lon":5.401449,"is_reserved":false,"is_disabled":false,"rental_uris":{"android":"levelo://app?vid=9fa665cb-b57a-497b-914d-272056bde5b9","ios":"levelo://app?vid=9fa665cb-b57a-497b-914d-272056bde5b9"},"vehicle_type_id":"4","last_reported":1706645216,"current_range_meters":14400,"station_id":"ce4bgvp2rcd13ifvqct0","pricing_plan_id":"free"},{"bike_id":"caad8c37-fdb0-4dd8-9853-9a0b62c09b59","system_id":"levelo_inurba_marseille","lat":43.3093,"lon":5.40147,"is_reserved":false,"is_disabled":false,"rental_uris":{"android":"levelo://app?vid=caad8c37-fdb0-4dd8-9853-9a0b62c09b59","ios":"levelo://app?vid=caad8c37-fdb0-4dd8-9853-9a0b62c09b59"},"vehicle_type_id":"4","last_reported":1706645216,"current_range_meters":0,"station_id":"ce4bgvp2rcd13ifvqct0","pricing_plan_id":"free"},{"bike_id":"d56eddc5-3b96-4e84-b7f6-c2c3591a5c40","system_id":"levelo_inurba_marseille","lat":43.309371,"lon":5.401449,"is_reserved":false,"is_disabled":false,"rental_uris":{"android":"levelo://app?vid=d56eddc5-3b96-4e84-b7f6-c2c3591a5c40","ios":"levelo://app?vid=d56eddc5-3b96-4e84-b7f6-c2c3591a5c40"},"vehicle_type_id":"4","last_reported":1706645216,"current_range_meters":14000,"station_id":"ce4bgvp2rcd13ifvqct0","pricing_plan_id":"free"},{"bike_id":"e7f5de90-1e40-49b1-b842-fb030d7f55ee","system_id":"levelo_inurba_marseille","lat":43.3093,"lon":5.40156,"is_reserved":false,"is_disabled":false,"rental_uris":{"android":"levelo://app?vid=e7f5de90-1e40-49b1-b842-fb030d7f55ee","ios":"levelo://app?vid=e7f5de90-1e40-49b1-b842-fb030d7f55ee"},"vehicle_type_id":"4","last_reported":1706645216,"current_range_meters":0,"station_id":"ce4bgvp2rcd13ifvqct0","pricing_plan_id":"free"},{"bike_id":"66556c4f-8360-4ed4-a873-d2ad3978358d","system_id":"levelo_inurba_marseille","lat":43.306412,"lon":5.401035,"is_reserved":false,"is_disabled":false,"rental_uris":{"android":"levelo://app?vid=66556c4f-8360-4ed4-a873-d2ad3978358d","ios":"levelo://app?vid=66556c4f-8360-4ed4-a873-d2ad3978358d"},"vehicle_type_id":"4","last_reported":1706645216,"current_range_meters":17600,"station_id":"ce4bh112rcd13ifvqda0","pricing_plan_id":"free"},{"bike_id":"c3a3eb4a-b836-4652-9c3a-fdf607119e88","system_id":"levelo_inurba_marseille","lat":43.306412,"lon":5.401035,"is_reserved":false,"is_disabled":false,"rental_uris":{"android":"levelo://app?vid=c3a3eb4a-b836-4652-9c3a-fdf607119e88","ios":"levelo://app?vid=c3a3eb4a-b836-4652-9c3a-fdf607119e88"},"vehicle_type_id":"4","last_reported":1706645216,"current_range_meters":21200,"station_id":"ce4bh112rcd13ifvqda0","pricing_plan_id":"free"},{"bike_id":"9568d549-cf4a-4a77-847d-e813f0d6444b","system_id":"levelo_inurba_marseille","lat":43.30661,"lon":5.40087,"is_reserved":false,"is_disabled":false,"rental_uris":{"android":"levelo://app?vid=9568d549-cf4a-4a77-847d-e813f0d6444b","ios":"levelo://app?vid=9568d549-cf4a-4a77-847d-e813f0d6444b"},"vehicle_type_id":"4","last_reported":1706645216,"current_range_meters":400,"station_id":"ce4bh112rcd13ifvqda0","pricing_plan_id":"free"},{"bike_id":"b7d3b81d-d85a-44b5-a0c7-8f9c9f74639e","system_id":"levelo_inurba_marseille","lat":43.337587,"lon":5.374576,"is_reserved":false,"is_disabled":false,"rental_uris":{"android":"levelo://app?vid=b7d3b81d-d85a-44b5-a0c7-8f9c9f74639e","ios":"levelo://app?vid=b7d3b81d-d85a-44b5-a0c7-8f9c9f74639e"},"vehicle_type_id":"4","last_reported":1706645216,"current_range_meters":18400,"station_id":"","pricing_plan_id":"free"},{"bike_id":"8f471953-2835-4a95-a318-680b1fd9c1b1","system_id":"levelo_inurba_marseille","lat":43.309371,"lon":5.401449,"is_reserved":false,"is_disabled":false,"rental_uris":{"android":"levelo://app?vid=8f471953-2835-4a95-a318-680b1fd9c1b1","ios":"levelo://app?vid=8f471953-2835-4a95-a318-680b1fd9c1b1"},"vehicle_type_id":"4","last_reported":1706645216,"current_range_meters":18800,"station_id":"ce4bgvp2rcd13ifvqct0","pricing_plan_id":"free"},{"bike_id":"2fe24097-b1c2-4583-ba1f-cf8501171a4c","system_id":"levelo_inurba_marseille","lat":43.337546,"lon":5.374924,"is_reserved":false,"is_disabled":false,"rental_uris":{"android":"levelo://app?vid=2fe24097-b1c2-4583-ba1f-cf8501171a4c","ios":"levelo://app?vid=2fe24097-b1c2-4583-ba1f-cf8501171a4c"},"vehicle_type_id":"4","last_reported":1706645216,"current_range_meters":800,"station_id":"","pricing_plan_id":"free"},{"bike_id":"c3cd63fe-5554-4c50-99cb-63f2e7aa1aa3","system_id":"levelo_inurba_marseille","lat":43.306412,"lon":5.401035,"is_reserved":false,"is_disabled":false,"rental_uris":{"android":"levelo://app?vid=c3cd63fe-5554-4c50-99cb-63f2e7aa1aa3","ios":"levelo://app?vid=c3cd63fe-5554-4c50-99cb-63f2e7aa1aa3"},"vehicle_type_id":"4","last_reported":1706645216,"current_range_meters":11200,"station_id":"ce4bh112rcd13ifvqda0","pricing_plan_id":"free"},{"bike_id":"1facbbf3-baac-42f8-85eb-cb1e36f3e4b9","system_id":"levelo_inurba_marseille","lat":43.337576,"lon":5.374969,"is_reserved":false,"is_disabled":false,"rental_uris":{"android":"levelo://app?vid=1facbbf3-baac-42f8-85eb-cb1e36f3e4b9","ios":"levelo://app?vid=1facbbf3-baac-42f8-85eb-cb1e36f3e4b9"},"vehicle_type_id":"4","last_reported":1706645216,"current_range_meters":4000,"station_id":"","pricing_plan_id":"free"},{"bike_id":"12568932-a9a7-4d52-8b2c-668683b75358","system_id":"levelo_inurba_marseille","lat":43.337585,"lon":5.37494,"is_reserved":false,"is_disabled":false,"rental_uris":{"android":"levelo://app?vid=12568932-a9a7-4d52-8b2c-668683b75358","ios":"levelo://app?vid=12568932-a9a7-4d52-8b2c-668683b75358"},