{"last_updated":1775043753,"ttl":60,"version":"2.2","data":{"bikes":[{"bike_id":"aa0cc8df-20ab-4e27-aef8-77b280cc543b","system_id":"levelo_inurba_marseille","lat":43.2507,"lon":5.37499,"is_reserved":false,"is_disabled":false,"rental_uris":{"android":"levelo://app?vid=aa0cc8df-20ab-4e27-aef8-77b280cc543b","ios":"levelo://app?vid=aa0cc8df-20ab-4e27-aef8-77b280cc543b"},"vehicle_type_id":"4","last_reported":1775043753,"current_range_meters":2800,"station_id":"","pricing_plan_id":"cebpf4jnsgd1na2vs0mg"},{"bike_id":"516dc13e-98d2-4db1-9953-88b33774944d","system_id":"levelo_inurba_marseille","lat":43.29531,"lon":5.38663,"is_reserved":false,"is_disabled":false,"rental_uris":{"android":"levelo://app?vid=516dc13e-98d2-4db1-9953-88b33774944d","ios":"levelo://app?vid=516dc13e-98d2-4db1-9953-88b33774944d"},"vehicle_type_id":"4","last_reported":1775043753,"current_range_meters":2800,"station_id":"","pricing_plan_id":"cebpf4jnsgd1na2vs0mg"},{"bike_id":"b2d72fd8-9618-48b7-8f8f-0078908bfacf","system_id":"levelo_inurba_marseille","lat":43.30127,"lon":5.43093,"is_reserved":false,"is_disabled":false,"rental_uris":{"android":"levelo://app?vid=b2d72fd8-9618-48b7-8f8f-0078908bfacf","ios":"levelo://app?vid=b2d72fd8-9618-48b7-8f8f-0078908bfacf"},"vehicle_type_id":"4","last_reported":1775043753,"current_range_meters":2800,"station_id":"st_d3js3co5814s73ftftug","pricing_plan_id":"cebpf4jnsgd1na2vs0mg"},{"bike_id":"01415594-3fd5-465f-935f-4eb2534f65f1","system_id":"levelo_inurba_marseille","lat":43.30811,"lon":5.38151,"is_reserved":false,"is_disabled":false,"rental_uris":{"android":"levelo://app?vid=01415594-3fd5-465f-935f-4eb2534f65f1","ios":"levelo://app?vid=01415594-3fd5-465f-935f-4eb2534f65f1"},"vehicle_type_id":"4","last_reported":1775043753,"current_range_meters":2800,"station_id":"ce4bgt12rcd13ifvqce0","pricing_plan_id":"cebpf4jnsgd1na2vs0mg"},{"bike_id":"f9f946e8-c12d-448a-8b11-3824dfcbfc24","system_id":"levelo_inurba_marseille","lat":43.29791,"lon":5.39345,"is_reserved":false,"is_disabled":false,"rental_uris":{"android":"levelo://app?vid=f9f946e8-c12d-448a-8b11-3824dfcbfc24","ios":"levelo://app?vid=f9f946e8-c12d-448a-8b11-3824dfcbfc24"},"vehicle_type_id":"4","last_reported":1775043753,"current_range_meters":2800,"station_id":"chh1huq6cuj3fo74tm60","pricing_plan_id":"cebpf4jnsgd1na2vs0mg"},{"bike_id":"7fe8e952-362a-4fde-ad70-c2906a176dcf","system_id":"levelo_inurba_marseille","lat":43.29913,"lon":5.37472,"is_reserved":false,"is_disabled":false,"rental_uris":{"android":"levelo://app?vid=7fe8e952-362a-4fde-ad70-c2906a176dcf","ios":"levelo://app?vid=7fe8e952-362a-4fde-ad70-c2906a176dcf"},"vehicle_type_id":"4","last_reported":1775043753,"current_range_meters":2800,"station_id":"ce4bgjh2rcd13ifvqbg0","pricing_plan_id":"cebpf4jnsgd1na2vs0mg"},{"bike_id":"d803e2d9-9376-4f1f-85b0-c6f8e1eae86c","system_id":"levelo_inurba_marseille","lat":43.29909,"lon":5.43659,"is_reserved":false,"is_disabled":false,"rental_uris":{"android":"levelo://app?vid=d803e2d9-9376-4f1f-85b0-c6f8e1eae86c","ios":"levelo://app?vid=d803e2d9-9376-4f1f-85b0-c6f8e1eae86c"},"vehicle_type_id":"4","last_reported":1775043753,"current_range_meters":2800,"station_id":"ce4bhpp2rcd13ifvqhfg","pricing_plan_id":"cebpf4jnsgd1na2vs0mg"},{"bike_id":"bb9c9ce8-7ad8-4c58-9c75-429d43a3d175","system_id":"levelo_inurba_marseille","lat":43.24034,"lon":5.36232,"is_reserved":false,"is_disabled":false,"rental_uris":{"android":"levelo://app?vid=bb9c9ce8-7ad8-4c58-9c75-429d43a3d175","ios":"levelo://app?vid=bb9c9ce8-7ad8-4c58-9c75-429d43a3d175"},"vehicle_type_id":"4","last_reported":1775043753,"current_range_meters":2800,"station_id":"","pricing_plan_id":"cebpf4jnsgd1na2vs0mg"},{"bike_id":"1b6a734f-0c23-40f4-b2a6-4376dd8d57f0","system_id":"levelo_inurba_marseille","lat":43.23396,"lon":5.41218,"is_reserved":false,"is_disabled":false,"rental_uris":{"android":"levelo://app?vid=1b6a734f-0c23-40f4-b2a6-4376dd8d57f0","ios":"levelo://app?vid=1b6a734f-0c23-40f4-b2a6-4376dd8d57f0"},"vehicle_type_id":"4","last_reported":1775043753,"current_range_meters":2800,"station_id":"st_d75pvndhf9lc73cqq3eg","pricing_plan_id":"cebpf4jnsgd1na2vs0mg"},{"bike_id":"1e3daacc-0854-479e-911c-efb58c751300","system_id":"levelo_inurba_marseille","lat":43.29819,"lon":5.37131,"is_reserved":false,"is_disabled":false,"rental_uris":{"android":"levelo://app?vid=1e3daacc-0854-479e-911c-efb58c751300","ios":"levelo://app?vid=1e3daacc-0854-479e-911c-efb58c751300"},"vehicle_type_id":"4","last_reported":1775043753,"current_range_meters":2800,"station_id":"ce4bgop2rcd13ifvqc1g","pricing_plan_id":"cebpf4jnsgd1na2vs0mg"},{"bike_id":"8224fee4-1d52-4b11-b16a-70c5a6603dd7","system_id":"levelo_inurba_marseille","lat":43.28481,"lon":5.48386,"is_reserved":false,"is_disabled":false,"rental_uris":{"android":"levelo://app?vid=8224fee4-1d52-4b11-b16a-70c5a6603dd7","ios":"levelo://app?vid=8224fee4-1d52-4b11-b16a-70c5a6603dd7"},"vehicle_type_id":"4","last_reported":1775043753,"current_range_meters":2800,"station_id":"","pricing_plan_id":"cebpf4jnsgd1na2vs0mg"},{"bike_id":"de5ec2e7-0cbb-4570-bdcf-f4638bbde496","system_id":"levelo_inurba_marseille","lat":43.23906,"lon":5.37444,"is_reserved":false,"is_disabled":false,"rental_uris":{"android":"levelo://app?vid=de5ec2e7-0cbb-4570-bdcf-f4638bbde496","ios":"levelo://app?vid=de5ec2e7-0cbb-4570-bdcf-f4638bbde496"},"vehicle_type_id":"4","last_reported":1775043753,"current_range_meters":3200,"station_id":"st_d6sm7csbq4hs73f8fpjg","pricing_plan_id":"cebpf4jnsgd1na2vs0mg"},{"bike_id":"aff3ff3f-6b67-4330-8619-cb367673fc13","system_id":"levelo_inurba_marseille","lat":43.24408,"lon":5.37038,"is_reserved":false,"is_disabled":false,"rental_uris":{"android":"levelo://app?vid=aff3ff3f-6b67-4330-8619-cb367673fc13","ios":"levelo://app?vid=aff3ff3f-6b67-4330-8619-cb367673fc13"},"vehicle_type_id":"4","last_reported":1775043753,"current_range_meters":3200,"station_id":"ce4bhhh2rcd13ifvqfk0","pricing_plan_id":"cebpf4jnsgd1na2vs0mg"},{"bike_id":"3398a272-3388-4322-b7d1-4801a5bb8bb6","system_id":"levelo_inurba_marseille","lat":43.24547,"lon":5.39531,"is_reserved":false,"is_disabled":false,"rental_uris":{"android":"levelo://app?vid=3398a272-3388-4322-b7d1-4801a5bb8bb6","ios":"levelo://app?vid=3398a272-3388-4322-b7d1-4801a5bb8bb6"},"vehicle_type_id":"4","last_reported":1775043753,"current_range_meters":3200,"station_id":"ce4bhlp2rcd13ifvqgjg","pricing_plan_id":"cebpf4jnsgd1na2vs0mg"},{"bike_id":"e68525de-50e2-4ba8-bfc4-6f55e94035aa","system_id":"levelo_inurba_marseille","lat":43.29188,"lon":5.35796,"is_reserved":false,"is_disabled":false,"rental_uris":{"android":"levelo://app?vid=e68525de-50e2-4ba8-bfc4-6f55e94035aa","ios":"levelo://app?vid=e68525de-50e2-4ba8-bfc4-6f55e94035aa"},"vehicle_type_id":"4","last_reported":1775043753,"current_range_meters":3200,"station_id":"ce4bhb12rcd13ifvqel0","pricing_plan_id":"cebpf4jnsgd1na2vs0mg"},{"bike_id":"55f1e071-1199-4172-af4b-7b94ca26b9a9","system_id":"levelo_inurba_marseille","lat":43.30293,"lon":5.37688,"is_reserved":false,"is_disabled":false,"rental_uris":{"android":"levelo://app?vid=55f1e071-1199-4172-af4b-7b94ca26b9a9","ios":"levelo://app?vid=55f1e071-1199-4172-af4b-7b94ca26b9a9"},"vehicle_type_id":"4","last_reported":1775043753,"current_range_meters":3600,"station_id":"ce4bguh2rcd13ifvqcj0","pricing_plan_id":"cebpf4jnsgd1na2vs0mg"},{"bike_id":"e4956c66-fba0-45d5-a7d2-90ca01f34637","system_id":"levelo_inurba_marseille","lat":43.21745,"lon":5.34609,"is_reserved":false,"is_disabled":false,"rental_uris":{"android":"levelo://app?vid=e4956c66-fba0-45d5-a7d2-90ca01f34637","ios":"levelo://app?vid=e4956c66-fba0-45d5-a7d2-90ca01f34637"},"vehicle_type_id":"4","last_reported":1775043753,"current_range_meters":3600,"station_id":"st_cvj6r9ubvosntc0bgbag","pricing_plan_id":"cebpf4jnsgd1na2vs0mg"},{"bike_id":"9e8c35a2-3d4d-48a8-87e2-0775e9d3d581","system_id":"levelo_inurba_marseille","lat":43.27483,"lon":5.40814,"is_reserved":false,"is_disabled":false,"rental_uris":{"android":"levelo://app?vid=9e8c35a2-3d4d-48a8-87e2-0775e9d3d581","ios":"levelo://app?vid=9e8c35a2-3d4d-48a8-87e2-0775e9d3d581"},"vehicle_type_id":"4","last_reported":1775043753,"current_range_meters":3600,"station_id":"","pricing_plan_id":"cebpf4jnsgd1na2vs0mg"},{"bike_id":"b56e07c1-b812-4392-b509-22221252f482","system_id":"levelo_inurba_marseille","lat":43.28286,"lon":5.40795,"is_reserved":false,"is_disabled":false,"rental_uris":{"android":"levelo://app?vid=b56e07c1-b812-4392-b509-22221252f482","ios":"levelo://app?vid=b56e07c1-b812-4392-b509-22221252f482"},"vehicle_type_id":"4","last_reported":1775043753,"current_range_meters":3600,"station_id":"","pricing_plan_id":"cebpf4jnsgd1na2vs0mg"},{"bike_id":"910688a0-887d-4fa4-b0ea-1f6409f8dd81","system_id":"levelo_inurba_marseille","lat":43.282704,"lon":5.350617,"is_reserved":false,"is_disabled":false,"rental_uris":{"android":"levelo://app?vid=910688a0-887d-4fa4-b0ea-1f6409f8dd81","ios":"levelo://app?vid=910688a0-887d-4fa4-b0ea-1f6409f8dd81"},"vehicle_type_id":"4","last_reported":1775043753,"current_range_meters":3600,"station_id":"ce4bhbp2rcd13ifvqerg","pricing_plan_id":"cebpf4jnsgd1na2vs0mg"},{"bike_id":"05b700ea-9bbc-436d-9f8b-7ccf8feb86bf","system_id":"levelo_inurba_marseille","lat":43.2451,"lon":5.42513,"is_reserved":false,"is_disabled":false,"rental_uris":{"android":"levelo://app?vid=05b700ea-9bbc-436d-9f8b-7ccf8feb86bf","ios":"levelo://app?vid=05b700ea-9bbc-436d-9f8b-7ccf8feb86bf"},"vehicle_type_id":"4","last_reported":1775043753,"current_range_meters":3600,"station_id":"st_d4a3vfp97mjs738cd8kg","pricing_plan_id":"cebpf4jnsgd1na2vs0mg"},{"bike_id":"9da6f0a0-254f-4937-8243-355fe7b156df","system_id":"levelo_inurba_marseille","lat":43.2854,"lon":5.44097,"is_reserved":false,"is_disabled":false,"rental_uris":{"android":"levelo://app?vid=9da6f0a0-254f-4937-8243-355fe7b156df","ios":"levelo://app?vid=9da6f0a0-254f-4937-8243-355fe7b156df"},"vehicle_type_id":"4","last_reported":1775043753,"current_range_meters":3600,"station_id":"st_d3j3df2ikq2c7380ej80","pricing_plan_id":"cebpf4jnsgd1na2vs0mg"},{"bike_id":"17b1390e-1975-4df4-9653-8a9ba2d88726","system_id":"levelo_inurba_marseille","lat":43.28699,"lon":5.39989,"is_reserved":false,"is_disabled":false,"rental_uris":{"android":"levelo://app?vid=17b1390e-1975-4df4-9653-8a9ba2d88726","ios":"levelo://app?vid=17b1390e-1975-4df4-9653-8a9ba2d88726"},"vehicle_type_id":"4","last_reported":1775043753,"current_range_meters":3600,"station_id":"ce4bho92rcd13ifvqh3g","pricing_plan_id":"cebpf4jnsgd1na2vs0mg"},{"bike_id":"5f8ce50d-e59d-44ad-9646-24fed4114323","system_id":"levelo_inurba_marseille","lat":43.25251,"lon":5.38074,"is_reserved":false,"is_disabled":false,"rental_uris":{"android":"levelo://app?vid=5f8ce50d-e59d-44ad-9646-24fed4114323","ios":"levelo://app?vid=5f8ce50d-e59d-44ad-9646-24fed4114323"},"vehicle_type_id":"4","last_reported":1775043753,"current_range_meters":3600,"station_id":"","pricing_plan_id":"cebpf4jnsgd1na2vs0mg"},{"bike_id":"16325742-4c4a-44e6-9e30-796e74830dd3","system_id":"levelo_inurba_marseille","lat":43.2781,"lon":5.40704,"is_reserved":false,"is_disabled":false,"rental_uris":{"android":"levelo://app?vid=16325742-4c4a-44e6-9e30-796e74830dd3","ios":"levelo://app?vid=16325742-4c4a-44e6-9e30-796e74830dd3"},"vehicle_type_id":"4","last_reported":1775043753,"current_range_meters":3600,"station_id":"ce4bhnh2rcd13ifvqgtg","pricing_plan_id":"cebpf4jnsgd1na2vs0mg"},{"bike_id":"40cb7c20-581a-493c-aa58-c9321d5ce120","system_id":"levelo_inurba_marseille","lat":43.28571,"lon":5.44108,"is_reserved":false,"is_disabled":false,"rental_uris":{"android":"levelo://app?vid=40cb7c20-581a-493c-aa58-c9321d5ce120","ios":"levelo://app?vid=40cb7c20-581a-493c-aa58-c9321d5ce120"},"vehicle_type_id":"4","last_reported":1775043753,"current_range_meters":4000,"station_id":"st_d3j3df2ikq2c7380ej80","pricing_plan_id":"cebpf4jnsgd1na2vs0mg"},{"bike_id":"3681bea9-2900-445c-b2d4-06ae4cedc9b9","system_id":"levelo_inurba_marseille","lat":43.296,"lon":5.38086,"is_reserved":false,"is_disabled":true,"rental_uris":{"android":"levelo://app?vid=3681bea9-2900-445c-b2d4-06ae4cedc9b9","ios":"levelo://app?vid=3681bea9-2900-445c-b2d4-06ae4cedc9b9"},"vehicle_type_id":"4","last_reported":1775043753,"current_range_meters":4000,"station_id":"ce4bgl12rcd13ifvqbo0","pricing_plan_id":"cebpf4jnsgd1na2vs0mg"},{"bike_id":"4977f95e-718a-4120-8926-2364059fe1a3","system_id":"levelo_inurba_marseille","lat":43.27282,"lon":5.40162,"is_reserved":false,"is_disabled":false,"rental_uris":{"android":"levelo://app?vid=4977f95e-718a-4120-8926-2364059fe1a3","ios":"levelo://app?vid=4977f95e-718a-4120-8926-2364059fe1a3"},"vehicle_type_id":"4","last_reported":1775043753,"current_range_meters":4000,"station_id":"","pricing_plan_id":"cebpf4jnsgd1na2vs0mg"},{"bike_id":"ace2b5ee-1355-40d7-ba59-bba7c913ea22","system_id":"levelo_inurba_marseille","lat":43.337444,"lon":5.374475,"is_reserved":false,"is_disabled":true,"rental_uris":{"android":"levelo://app?vid=ace2b5ee-1355-40d7-ba59-bba7c913ea22","ios":"levelo://app?vid=ace2b5ee-1355-40d7-ba59-bba7c913ea22"},"vehicle_type_id":"4","last_reported":1775043753,"current_range_meters":4000,"station_id":"","pricing_plan_id":"cebpf4jnsgd1na2vs0mg"},{"bike_id":"ba34d955-cc87-4851-ad9f-25fd3e409ee9","system_id":"levelo_inurba_marseille","lat":43.26792,"lon":5.39408,"is_reserved":false,"is_disabled":false,"rental_uris":{"android":"levelo://app?vid=ba34d955-cc87-4851-ad9f-25fd3e409ee9","ios":"levelo://app?vid=ba34d955-cc87-4851-ad9f-25fd3e409ee9"},"vehicle_type_id":"4","last_reported":1775043753,"current_range_meters":4000,"station_id":"ce4bhh12rcd13ifvqfg0","pricing_plan_id":"cebpf4jnsgd1na2vs0mg"},{"bike_id":"aac1d201-4604-4928-a1e8-3a9c499870e7","system_id":"levelo_inurba_marseille","lat":43.24675,"lon":5.38909,"is_reserved":false,"is_disabled":false,"rental_uris":{"android":"levelo://app?vid=aac1d201-4604-4928-a1e8-3a9c499870e7","ios":"levelo://app?vid=aac1d201-4604-4928-a1e8-3a9c499870e7"},"vehicle_type_id":"4","last_reported":1775043753,"current_range_meters":4000,"station_id":"ce4bhg12rcd13ifvqf60","pricing_plan_id":"cebpf4jnsgd1na2vs0mg"},{"bike_id":"f1c7cedb-7ca6-425d-bb6e-eba3f64564e5","system_id":"levelo_inurba_marseille","lat":43.24186,"lon":5.39724,"is_reserved":false,"is_disabled":false,"rental_uris":{"android":"levelo://app?vid=f1c7cedb-7ca6-425d-bb6e-eba3f64564e5","ios":"levelo://app?vid=f1c7cedb-7ca6-425d-bb6e-eba3f64564e5"},"vehicle_type_id":"4","last_reported":1775043753,"current_range_meters":4000,"station_id":"ce4bhn12rcd13ifvqgpg","pricing_plan_id":"cebpf4jnsgd1na2vs0mg"},{"bike_id":"09fd0961-537f-4b10-9218-06513f653464","system_id":"levelo_inurba_marseille","lat":43.29158,"lon":5.42621,"is_reserved":false,"is_disabled":false,"rental_uris":{"android":"levelo://app?vid=09fd0961-537f-4b10-9218-06513f653464","ios":"levelo://app?vid=09fd0961-537f-4b10-9218-06513f653464"},"vehicle_type_id":"4","last_reported":1775043753,"current_range_meters":4000,"station_id":"","pricing_plan_id":"cebpf4jnsgd1na2vs0mg"},{"bike_id":"8b972516-364d-4c36-a2f6-f81da10bf5ee","system_id":"levelo_inurba_marseille","lat":43.30099,"lon":5.43098,"is_reserved":false,"is_disabled":false,"rental_uris":{"android":"levelo://app?vid=8b972516-364d-4c36-a2f6-f81da10bf5ee","ios":"levelo://app?vid=8b972516-364d-4c36-a2f6-f81da10bf5ee"},"vehicle_type_id":"4","last_reported":1775043753,"current_range_meters":4000,"station_id":"st_d3js3co5814s73ftftug","pricing_plan_id":"cebpf4jnsgd1na2vs0mg"},{"bike_id":"5594fef1-50b5-4719-8406-506999474c85","system_id":"levelo_inurba_marseille","lat":43.23068,"lon":5.355,"is_reserved":false,"is_disabled":false,"rental_uris":{"android":"levelo://app?vid=5594fef1-50b5-4719-8406-506999474c85","ios":"levelo://app?vid=5594fef1-50b5-4719-8406-506999474c85"},"vehicle_type_id":"4","last_reported":1775043753,"current_range_meters":4000,"station_id":"cpo3342slgdg3j2ifvpg","pricing_plan_id":"cebpf4jnsgd1na2vs0mg"},{"bike_id":"e5a7a53a-b267-4440-9c9f-66f6b2ca226b","system_id":"levelo_inurba_marseille","lat":43.29602,"lon":5.37193,"is_reserved":false,"is_disabled":false,"rental_uris":{"android":"levelo://app?vid=e5a7a53a-b267-4440-9c9f-66f6b2ca226b","ios":"levelo://app?vid=e5a7a53a-b267-4440-9c9f-66f6b2ca226b"},"vehicle_type_id":"4","last_reported":1775043753,"current_range_meters":4400,"station_id":"ce4bgnh2rcd13ifvqc0g","pricing_plan_id":"cebpf4jnsgd1na2vs0mg"},{"bike_id":"3a922081-a991-4b97-906e-7f7dba00403a","system_id":"levelo_inurba_marseille","lat":43.32353,"lon":5.36712,"is_reserved":false,"is_disabled":false,"rental_uris":{"android":"levelo://app?vid=3a922081-a991-4b97-906e-7f7dba00403a","ios":"levelo://app?vid=3a922081-a991-4b97-906e-7f7dba00403a"},"vehicle_type_id":"4","last_reported":1775043753,"current_range_meters":4400,"station_id":"ce4bhsh2rcd13ifvqi2g","pricing_plan_id":"cebpf4jnsgd1na2vs0mg"},{"bike_id":"53879992-769e-433a-9fe8-396906624217","system_id":"levelo_inurba_marseille","lat":43.24397,"lon":5.37055,"is_reserved":false,"is_disabled":false,"rental_uris":{"android":"levelo://app?vid=53879992-769e-433a-9fe8-396906624217","ios":"levelo://app?vid=53879992-769e-433a-9fe8-396906624217"},"vehicle_type_id":"4","last_reported":1775043753,"current_range_meters":4400,"station_id":"ce4bhhh2rcd13ifvqfk0","pricing_plan_id":"cebpf4jnsgd1na2vs0mg"},{"bike_id":"d3ee0dda-b558-4430-8d6e-5b3279bab0c0","system_id":"levelo_inurba_marseille","lat":43.29755,"lon":5.42777,"is_reserved":false,"is_disabled":false,"rental_uris":{"android":"levelo://app?vid=d3ee0dda-b558-4430-8d6e-5b3279bab0c0","ios":"levelo://app?vid=d3ee0dda-b558-4430-8d6e-5b3279bab0c0"},"vehicle_type_id":"4","last_reported":1775043753,"current_range_meters":4400,"station_id":"st_d3md5207bmas73dh9klg","pricing_plan_id":"cebpf4jnsgd1na2vs0mg"},{"bike_id":"9c1440ce-c955-43db-9800-7794805da744","system_id":"levelo_inurba_marseille","lat":43.23973,"lon":5.36671,"is_reserved":false,"is_disabled":false,"rental_uris":{"android":"levelo://app?vid=9c1440ce-c955-43db-9800-7794805da744","ios":"levelo://app?vid=9c1440ce-c955-43db-9800-7794805da744"},"vehicle_type_id":"4","last_reported":1775043753,"current_range_meters":4400,"station_id":"ce4bhi12rcd13ifvqfp0","pricing_plan_id":"cebpf4jnsgd1na2vs0mg"},{"bike_id":"895454a4-b2a9-4659-a69d-b068ca687ad0","system_id":"levelo_inurba_marseille","lat":43.29517,"lon":5.38547,"is_reserved":false,"is_disabled":true,"rental_uris":{"android":"levelo://app?vid=895454a4-b2a9-4659-a69d-b068ca687ad0","ios":"levelo://app?vid=895454a4-b2a9-4659-a69d-b068ca687ad0"},"vehicle_type_id":"4","last_reported":1775043753,"current_range_meters":4400,"station_id":"","pricing_plan_id":"cebpf4jnsgd1na2vs0mg"},{"bike_id":"0f2a0c24-473b-4afb-ada8-c7edfe8888ce","system_id":"levelo_inurba_marseille","lat":43.29855,"lon":5.36286,"is_reserved":false,"is_disabled":false,"rental_uris":{"android":"levelo://app?vid=0f2a0c24-473b-4afb-ada8-c7edfe8888ce","ios":"levelo://app?vid=0f2a0c24-473b-4afb-ada8-c7edfe8888ce"},"vehicle_type_id":"4","last_reported":1775043753,"current_range_meters":4400,"station_id":"ce4bgpp2rcd13ifvqc3g","pricing_plan_id":"cebpf4jnsgd1na2vs0mg"},{"bike_id":"2087d413-f15e-4f97-98f2-ae1153fc5db4","system_id":"levelo_inurba_marseille","lat":43.24417,"lon":5.3703,"is_reserved":false,"is_disabled":false,"rental_uris":{"android":"levelo://app?vid=2087d413-f15e-4f97-98f2-ae1153fc5db4","ios":"levelo://app?vid=2087d413-f15e-4f97-98f2-ae1153fc5db4"},"vehicle_type_id":"4","last_reported":1775043753,"current_range_meters":4400,"station_id":"ce4bhhh2rcd13ifvqfk0","pricing_plan_id":"cebpf4jnsgd1na2vs0mg"},{"bike_id":"08e71c86-43a8-4902-86cf-de3f77db33e6","system_id":"levelo_inurba_marseille","lat":43.29691,"lon":5.44437,"is_reserved":false,"is_disabled":false,"rental_uris":{"android":"levelo://app?vid=08e71c86-43a8-4902-86cf-de3f77db33e6","ios":"levelo://app?vid=08e71c86-43a8-4902-86cf-de3f77db33e6"},"vehicle_type_id":"4","last_reported":1775043753,"current_range_meters":4400,"station_id":"","pricing_plan_id":"cebpf4jnsgd1na2vs0mg"},{"bike_id":"0ebcc71a-1070-45ee-8791-56ad76c8f07f","system_id":"levelo_inurba_marseille","lat":43.26394,"lon":5.41069,"is_reserved":false,"is_disabled":false,"rental_uris":{"android":"levelo://app?vid=0ebcc71a-1070-45ee-8791-56ad76c8f07f","ios":"levelo://app?vid=0ebcc71a-1070-45ee-8791-56ad76c8f07f"},"vehicle_type_id":"4","last_reported":1775043753,"current_range_meters":4400,"station_id":"st_d4e5ca6na9uc73bfl5fg","pricing_plan_id":"cebpf4jnsgd1na2vs0mg"},{"bike_id":"6eab7b6b-53d1-4e72-8789-f597a7b08fa0","system_id":"levelo_inurba_marseille","lat":43.31724,"lon":5.42397,"is_reserved":false,"is_disabled":false,"rental_uris":{"android":"levelo://app?vid=6eab7b6b-53d1-4e72-8789-f597a7b08fa0","ios":"levelo://app?vid=6eab7b6b-53d1-4e72-8789-f597a7b08fa0"},"vehicle_type_id":"4","last_reported":1775043753,"current_range_meters":4400,"station_id":"ce4bhp92rcd13ifvqhbg","pricing_plan_id":"cebpf4jnsgd1na2vs0mg"},{"bike_id":"43e4bb96-0cd3-4e42-baf5-dd0ee842f69a","system_id":"levelo_inurba_marseille","lat":43.23795,"lon":5.36638,"is_reserved":false,"is_disabled":false,"rental_uris":{"android":"levelo://app?vid=43e4bb96-0cd3-4e42-baf5-dd0ee842f69a","ios":"levelo://app?vid=43e4bb96-0cd3-4e42-baf5-dd0ee842f69a"},"vehicle_type_id":"4","last_reported":1775043753,"current_range_meters":4400,"station_id":"st_d3nk18o9ro0c73en2l3g","pricing_plan_id":"cebpf4jnsgd1na2vs0mg"},{"bike_id":"37eb3fab-ef0c-4540-827a-5365245b083e","system_id":"levelo_inurba_marseille","lat":43.2496,"lon":5.40492,"is_reserved":false,"is_disabled":false,"rental_uris":{"android":"levelo://app?vid=37eb3fab-ef0c-4540-827a-5365245b083e","ios":"levelo://app?vid=37eb3fab-ef0c-4540-827a-5365245b083e"},"vehicle_type_id":"4","last_reported":1775043753,"current_range_meters":4400,"station_id":"st_d2ngiaodas8pm72gd1h0","pricing_plan_id":"cebpf4jnsgd1na2vs0mg"},{"bike_id":"9c014c21-0814-46e2-9079-4ed86b4000e6","system_id":"levelo_inurba_marseille","lat":43.23787,"lon":5.36636,"is_reserved":false,"is_disabled":false,"rental_uris":{"android":"levelo://app?vid=9c014c21-0814-46e2-9079-4ed86b4000e6","ios":"levelo://app?vid=9c014c21-0814-46e2-9079-4ed86b4000e6"},"vehicle_type_id":"4","last_reported":1775043753,"current_range_meters":4800,"station_id":"st_d3nk18o9ro0c73en2l3g","pricing_plan_id":"cebpf4jnsgd1na2vs0mg"},{"bike_id":"b1e9f130-d8ae-4858-bc10-b368a2ad0d85","system_id":"levelo_inurba_marseille","lat":43.28487,"lon":5.48403,"is_reserved":false,"is_disabled":false,"rental_uris":{"android":"levelo://app?vid=b1e9f130-d8ae-4858-bc10-b368a2ad0d85","ios":"levelo://app?vid=b1e9f130-d8ae-4858-bc10-b368a2ad0d85"},"vehicle_type_id":"4","last_reported":1775043753,"current_range_meters":4800,"station_id":"","pricing_plan_id":"cebpf4jnsgd1na2vs0mg"},{"bike_id":"b53f224e-5c2b-47b3-a19b-0c6884245c31","system_id":"levelo_inurba_marseille","lat":43.23974,"lon":5.36616,"is_reserved":false,"is_disabled":false,"rental_uris":{"android":"levelo://app?vid=b53f224e-5c2b-47b3-a19b-0c6884245c31","ios":"levelo://app?vid=b53f224e-5c2b-47b3-a19b-0c6884245c31"},"vehicle_type_id":"4","last_reported":1775043753,"current_range_meters":4800,"station_id":"ce4bhi12rcd13ifvqfp0","pricing_plan_id":"cebpf4jnsgd1na2vs0mg"},{"bike_id":"aa363bcf-731a-43c6-a6f8-7c62b12a1925","system_id":"levelo_inurba_marseille","lat":43.28435,"lon":5.34949,"is_reserved":false,"is_disabled":false,"rental_uris":{"android":"levelo://app?vid=aa363bcf-731a-43c6-a6f8-7c62b12a1925","ios":"levelo://app?vid=aa363bcf-731a-43c6-a6f8-7c62b12a1925"},"vehicle_type_id":"4","last_reported":1775043753,"current_range_meters":4800,"station_id":"ce4bhbh2rcd13ifvqepg","pricing_plan_id":"cebpf4jnsgd1na2vs0mg"},{"bike_id":"e002c70d-1313-4796-9df8-6df7706a9eb9","system_id":"levelo_inurba_marseille","lat":43.25093,"lon":5.39527,"is_reserved":false,"is_disabled":false,"rental_uris":{"android":"levelo://app?vid=e002c70d-1313-4796-9df8-6df7706a9eb9","ios":"levelo://app?vid=e002c70d-1313-4796-9df8-6df7706a9eb9"},"vehicle_type_id":"4","last_reported":1775043753,"current_range_meters":4800,"station_id":"ce4bhm12rcd13ifvqgkg","pricing_plan_id":"cebpf4jnsgd1na2vs0mg"},{"bike_id":"82ef25fe-ced1-4b2f-9f5f-f3e9366b70f0","system_id":"levelo_inurba_marseille","lat":43.28477,"lon":5.48395,"is_reserved":false,"is_disabled":false,"rental_uris":{"android":"levelo://app?vid=82ef25fe-ced1-4b2f-9f5f-f3e9366b70f0","ios":"levelo://app?vid=82ef25fe-ced1-4b2f-9f5f-f3e9366b70f0"},"vehicle_type_id":"4","last_reported":1775043753,"current_range_meters":4800,"station_id":"st_d3svhcjqgbts73a3dn0g","pricing_plan_id":"cebpf4jnsgd1na2vs0mg"},{"bike_id":"585f8b02-5ec4-46fd-b1e3-b36632c6ef1a","system_id":"levelo_inurba_marseille","lat":43.26196,"lon":5.37452,"is_reserved":false,"is_disabled":false,"rental_uris":{"android":"levelo://app?vid=585f8b02-5ec4-46fd-b1e3-b36632c6ef1a","ios":"levelo://app?vid=585f8b02-5ec4-46fd-b1e3-b36632c6ef1a"},"vehicle_type_id":"4","last_reported":1775043753,"current_range_meters":4800,"station_id":"ce4bhgp2rcd13ifvqfc0","pricing_plan_id":"cebpf4jnsgd1na2vs0mg"},{"bike_id":"220112ee-7160-43bb-8085-3a89f0835be2","system_id":"levelo_inurba_marseille","lat":43.2658,"lon":5.37307,"is_reserved":false,"is_disabled":false,"rental_uris":{"android":"levelo://app?vid=220112ee-7160-43bb-8085-3a89f0835be2","ios":"levelo://app?vid=220112ee-7160-43bb-8085-3a89f0835be2"},"vehicle_type_id":"4","last_reported":1775043753,"current_range_meters":4800,"station_id":"ce4bhg12rcd13ifvqf70","pricing_plan_id":"cebpf4jnsgd1na2vs0mg"},{"bike_id":"bb0d11db-19ae-4f1c-8146-45d8cf0530f7","system_id":"levelo_inurba_marseille","lat":43.337444,"lon":5.374475,"is_reserved":false,"is_disabled":true,"rental_uris":{"android":"levelo://app?vid=bb0d11db-19ae-4f1c-8146-45d8cf0530f7","ios":"levelo://app?vid=bb0d11db-19ae-4f1c-8146-45d8cf0530f7"},"vehicle_type_id":"4","last_reported":1775043753,"current_range_meters":4800,"station_id":"","pricing_plan_id":"cebpf4jnsgd1na2vs0mg"},{"bike_id":"cc257dcd-2363-441b-936d-b2f7c7c0d914","system_id":"levelo_inurba_marseille","lat":43.29577,"lon":5.39965,"is_reserved":false,"is_disabled":false,"rental_uris":{"android":"levelo://app?vid=cc257dcd-2363-441b-936d-b2f7c7c0d914","ios":"levelo://app?vid=cc257dcd-2363-441b-936d-b2f7c7c0d914"},"vehicle_type_id":"4","last_reported":1775043753,"current_range_meters":4800,"station_id":"ce4bh312rcd13ifvqdj0","pricing_plan_id":"cebpf4jnsgd1na2vs0mg"},{"bike_id":"a20f850c-d4ca-4157-bd3f-18fda064d36f","system_id":"levelo_inurba_marseille","lat":43.29529,"lon":5.38657,"is_reserved":false,"is_disabled":false,"rental_uris":{"android":"levelo://app?vid=a20f850c-d4ca-4157-bd3f-18fda064d36f","ios":"levelo://app?vid=a20f850c-d4ca-4157-bd3f-18fda064d36f"},"vehicle_type_id":"4","last_reported":1775043753,"current_range_meters":5600,"station_id":"","pricing_plan_id":"cebpf4jnsgd1na2vs0mg"},{"bike_id":"bcc288dd-6942-4899-95ee-d43aed6e21bd","system_id":"levelo_inurba_marseille","lat":43.31334,"lon":5.36717,"is_reserved":false,"is_disabled":false,"rental_uris":{"android":"levelo://app?vid=bcc288dd-6942-4899-95ee-d43aed6e21bd","ios":"levelo://app?vid=bcc288dd-6942-4899-95ee-d43aed6e21bd"},"vehicle_type_id":"4","last_reported":1775043753,"current_range_meters":5600,"station_id":"ce4bgr92rcd13ifvqc6g","pricing_plan_id":"cebpf4jnsgd1na2vs0mg"},{"bike_id":"fd8535af-5209-4b87-ba76-7ce9f7c8358b","system_id":"levelo_inurba_marseille","lat":43.23199,"lon":5.43693,"is_reserved":false,"is_disabled":false,"rental_uris":{"android":"levelo://app?vid=fd8535af-5209-4b87-ba76-7ce9f7c8358b","ios":"levelo://app?vid=fd8535af-5209-4b87-ba76-7ce9f7c8358b"},"vehicle_type_id":"4","last_reported":1775043753,"current_range_meters":5600,"station_id":"ce4bhmp2rcd13ifvqgog","pricing_plan_id":"cebpf4jnsgd1na2vs0mg"},{"bike_id":"c73b2d54-1c5e-4ebf-a8bb-db043ce42b90","system_id":"levelo_inurba_marseille","lat":43.2847,"lon":5.35886,"is_reserved":false,"is_disabled":true,"rental_uris":{"android":"levelo://app?vid=c73b2d54-1c5e-4ebf-a8bb-db043ce42b90","ios":"levelo://app?vid=c73b2d54-1c5e-4ebf-a8bb-db043ce42b90"},"vehicle_type_id":"4","last_reported":1775043753,"current_range_meters":5600,"station_id":"ce4bhah2rcd13ifvqei0","pricing_plan_id":"cebpf4jnsgd1na2vs0mg"},{"bike_id":"38fa3918-21fd-4e4d-a1bb-2cb71f51b7fa","system_id":"levelo_inurba_marseille","lat":43.30166,"lon":5.38096,"is_reserved":false,"is_disabled":false,"rental_uris":{"android":"levelo://app?vid=38fa3918-21fd-4e4d-a1bb-2cb71f51b7fa","ios":"levelo://app?vid=38fa3918-21fd-4e4d-a1bb-2cb71f51b7fa"},"vehicle_type_id":"4","last_reported":1775043753,"current_range_meters":5600,"station_id":"ce4bgjp2rcd13ifvqbh0","pricing_plan_id":"cebpf4jnsgd1na2vs0mg"},{"bike_id":"5a354721-9725-4059-b6ca-89e0df8dd9e6","system_id":"levelo_inurba_marseille","lat":43.290419,"lon":5.399652,"is_reserved":false,"is_disabled":false,"rental_uris":{"android":"levelo://app?vid=5a354721-9725-4059-b6ca-89e0df8dd9e6","ios":"levelo://app?vid=5a354721-9725-4059-b6ca-89e0df8dd9e6"},"vehicle_type_id":"4","last_reported":1775043753,"current_range_meters":5600,"station_id":"ce4bh392rcd13ifvqdm0","pricing_plan_id":"cebpf4jnsgd1na2vs0mg"},{"bike_id":"76cb063d-d528-4b85-bd1f-92cb87912c86","system_id":"levelo_inurba_marseille","lat":43.28368,"lon":5.39364,"is_reserved":false,"is_disabled":false,"rental_uris":{"android":"levelo://app?vid=76cb063d-d528-4b85-bd1f-92cb87912c86","ios":"levelo://app?vid=76cb063d-d528-4b85-bd1f-92cb87912c86"},"vehicle_type_id":"4","last_reported":1775043753,"current_range_meters":5600,"station_id":"","pricing_plan_id":"cebpf4jnsgd1na2vs0mg"},{"bike_id":"dd0c2c54-978e-49b8-89a3-9926153b6f8e","system_id":"levelo_inurba_marseille","lat":43.29891,"lon":5.43775,"is_reserved":false,"is_disabled":false,"rental_uris":{"android":"levelo://app?vid=dd0c2c54-978e-49b8-89a3-9926153b6f8e","ios":"levelo://app?vid=dd0c2c54-978e-49b8-89a3-9926153b6f8e"},"vehicle_type_id":"4","last_reported":1775043753,"current_range_meters":5600,"station_id":"","pricing_plan_id":"cebpf4jnsgd1na2vs0mg"},{"bike_id":"1f6bd616-f380-4630-a66b-f980a33e8714","system_id":"levelo_inurba_marseille","lat":43.31357,"lon":5.36686,"is_reserved":false,"is_disabled":false,"rental_uris":{"android":"levelo://app?vid=1f6bd616-f380-4630-a66b-f980a33e8714","ios":"levelo://app?vid=1f6bd616-f380-4630-a66b-f980a33e8714"},"vehicle_type_id":"4","last_reported":1775043753,"current_range_meters":5600,"station_id":"ce4bgr92rcd13ifvqc6g","pricing_plan_id":"cebpf4jnsgd1na2vs0mg"},{"bike_id":"10143625-4f1f-4b98-a23a-f0e119d830ff","system_id":"levelo_inurba_marseille","lat":43.24813,"lon":5.37455,"is_reserved":false,"is_disabled":false,"rental_uris":{"android":"levelo://app?vid=10143625-4f1f-4b98-a23a-f0e119d830ff","ios":"levelo://app?vid=10143625-4f1f-4b98-a23a-f0e119d830ff"},"vehicle_type_id":"4","last_reported":1775043753,"current_range_meters":5600,"station_id":"ce4bhgh2rcd13ifvqfb0","pricing_plan_id":"cebpf4jnsgd1na2vs0mg"},{"bike_id":"3419a408-ab31-43ef-b75c-92281255117d","system_id":"levelo_inurba_marseille","lat":43.26555,"lon":5.37296,"is_reserved":false,"is_disabled":false,"rental_uris":{"android":"levelo://app?vid=3419a408-ab31-43ef-b75c-92281255117d","ios":"levelo://app?vid=3419a408-ab31-43ef-b75c-92281255117d"},"vehicle_type_id":"4","last_reported":1775043753,"current_range_meters":5600,"station_id":"ce4bhg12rcd13ifvqf70","pricing_plan_id":"cebpf4jnsgd1na2vs0mg"},{"bike_id":"a5b21948-fcb5-4ade-bce3-37cd3c403d4c","system_id":"levelo_inurba_marseille","lat":43.23068,"lon":5.35514,"is_reserved":false,"is_disabled":false,"rental_uris":{"android":"levelo://app?vid=a5b21948-fcb5-4ade-bce3-37cd3c403d4c","ios":"levelo://app?vid=a5b21948-fcb5-4ade-bce3-37cd3c403d4c"},"vehicle_type_id":"4","last_reported":1775043753,"current_range_meters":5600,"station_id":"cpo3342slgdg3j2ifvpg","pricing_plan_id":"cebpf4jnsgd1na2vs0mg"},{"bike_id":"9413365a-3f56-4b1d-b117-b074e05b3240","system_id":"levelo_inurba_marseille","lat":43.31052,"lon":5.37164,"is_reserved":false,"is_disabled":false,"rental_uris":{"android":"levelo://app?vid=9413365a-3f56-4b1d-b117-b074e05b3240","ios":"levelo://app?vid=9413365a-3f56-4b1d-b117-b074e05b3240"},"vehicle_type_id":"4","last_reported":1775043753,"current_range_meters":5600,"station_id":"","pricing_plan_id":"cebpf4jnsgd1na2vs0mg"},{"bike_id":"2472a388-2ba6-406a-93b5-09de3d970e91","system_id":"levelo_inurba_marseille","lat":43.24392,"lon":5.37059,"is_reserved":false,"is_disabled":false,"rental_uris":{"android":"levelo://app?vid=2472a388-2ba6-406a-93b5-09de3d970e91","ios":"levelo://app?vid=2472a388-2ba6-406a-93b5-09de3d970e91"},"vehicle_type_id":"4","last_reported":1775043753,"current_range_meters":5600,"station_id":"ce4bhhh2rcd13ifvqfk0","pricing_plan_id":"cebpf4jnsgd1na2vs0mg"},{"bike_id":"ae252984-33f9-4582-8e8a-f420930221a8","system_id":"levelo_inurba_marseille","lat":43.29533,"lon":5.38656,"is_reserved":false,"is_disabled":false,"rental_uris":{"android":"levelo://app?vid=ae252984-33f9-4582-8e8a-f420930221a8","ios":"levelo://app?vid=ae252984-33f9-4582-8e8a-f420930221a8"},"vehicle_type_id":"4","last_reported":1775043753,"current_range_meters":5600,"station_id":"","pricing_plan_id":"cebpf4jnsgd1na2vs0mg"},{"bike_id":"6ecded90-e08a-42ec-a535-e9f406d9d027","system_id":"levelo_inurba_marseille","lat":43.24567,"lon":5.39396,"is_reserved":false,"is_disabled":false,"rental_uris":{"android":"levelo://app?vid=6ecded90-e08a-42ec-a535-e9f406d9d027","ios":"levelo://app?vid=6ecded90-e08a-42ec-a535-e9f406d9d027"},"vehicle_type_id":"4","last_reported":1775043753,"current_range_meters":5600,"station_id":"","pricing_plan_id":"cebpf4jnsgd1na2vs0mg"},{"bike_id":"fbb75834-f22e-4b0c-a13f-b3782403aa38","system_id":"levelo_inurba_marseille","lat":43.23971,"lon":5.36656,"is_reserved":false,"is_disabled":false,"rental_uris":{"android":"levelo://app?vid=fbb75834-f22e-4b0c-a13f-b3782403aa38","ios":"levelo://app?vid=fbb75834-f22e-4b0c-a13f-b3782403aa38"},"vehicle_type_id":"4","last_reported":1775043753,"current_range_meters":5600,"station_id":"ce4bhi12rcd13ifvqfp0","pricing_plan_id":"cebpf4jnsgd1na2vs0mg"},{"bike_id":"41f2d05d-5de5-4240-8492-08072a8e89cb","system_id":"levelo_inurba_marseille","lat":43.26562,"lon":5.37277,"is_reserved":false,"is_disabled":false,"rental_uris":{"android":"levelo://app?vid=41f2d05d-5de5-4240-8492-08072a8e89cb","ios":"levelo://app?vid=41f2d05d-5de5-4240-8492-08072a8e89cb"},"vehicle_type_id":"4","last_reported":1775043753,"current_range_meters":5600,"station_id":"ce4bhg12rcd13ifvqf70","pricing_plan_id":"cebpf4jnsgd1na2vs0mg"},{"bike_id":"ea3a296b-a9b2-4e1a-8c5c-2dcc4b99876f","system_id":"levelo_inurba_marseille","lat":43.23957,"lon":5.36628,"is_reserved":false,"is_disabled":false,"rental_uris":{"android":"levelo://app?vid=ea3a296b-a9b2-4e1a-8c5c-2dcc4b99876f","ios":"levelo://app?vid=ea3a296b-a9b2-4e1a-8c5c-2dcc4b99876f"},"vehicle_type_id":"4","last_reported":1775043753,"current_range_meters":5600,"station_id":"ce4bhi12rcd13ifvqfp0","pricing_plan_id":"cebpf4jnsgd1na2vs0mg"},{"bike_id":"b1d02504-2c4f-47d1-9d0a-aa3599012e9a","system_id":"levelo_inurba_marseille","lat":43.26817,"lon":5.40241,"is_reserved":false,"is_disabled":false,"rental_uris":{"android":"levelo://app?vid=b1d02504-2c4f-47d1-9d0a-aa3599012e9a","ios":"levelo://app?vid=b1d02504-2c4f-47d1-9d0a-aa3599012e9a"},"vehicle_type_id":"4","last_reported":1775043753,"current_range_meters":5600,"station_id":"ce501612rcd8frsf0b60","pricing_plan_id":"cebpf4jnsgd1na2vs0mg"},{"bike_id":"f16b5cd3-bbc5-4be5-8171-95842c0cc8e5","system_id":"levelo_inurba_marseille","lat":43.26676,"lon":5.38268,"is_reserved":false,"is_disabled":false,"rental_uris":{"android":"levelo://app?vid=f16b5cd3-bbc5-4be5-8171-95842c0cc8e5","ios":"levelo://app?vid=f16b5cd3-bbc5-4be5-8171-95842c0cc8e5"},"vehicle_type_id":"4","last_reported":1775043753,"current_range_meters":5600,"station_id":"ce4bhg92rcd13ifvqf90","pricing_plan_id":"cebpf4jnsgd1na2vs0mg"},{"bike_id":"2143be35-497d-4c7b-9f85-3e781cd61463","system_id":"levelo_inurba_marseille","lat":43.29899,"lon":5.43677,"is_reserved":false,"is_disabled":false,"rental_uris":{"android":"levelo://app?vid=2143be35-497d-4c7b-9f85-3e781cd61463","ios":"levelo://app?vid=2143be35-497d-4c7b-9f85-3e781cd61463"},"vehicle_type_id":"4","last_reported":1775043753,"current_range_meters":5600,"station_id":"ce4bhpp2rcd13ifvqhfg","pricing_plan_id":"cebpf4jnsgd1na2vs0mg"},{"bike_id":"b30474c6-10d5-47a6-9acc-a4af281f9552","system_id":"levelo_inurba_marseille","lat":43.24405,"lon":5.37063,"is_reserved":false,"is_disabled":false,"rental_uris":{"android":"levelo://app?vid=b30474c6-10d5-47a6-9acc-a4af281f9552","ios":"levelo://app?vid=b30474c6-10d5-47a6-9acc-a4af281f9552"},"vehicle_type_id":"4","last_reported":1775043753,"current_range_meters":5600,"station_id":"ce4bhhh2rcd13ifvqfk0","pricing_plan_id":"cebpf4jnsgd1na2vs0mg"},{"bike_id":"478a1a26-1887-4b3a-a1a1-d06b945da02b","system_id":"levelo_inurba_marseille","lat":43.24675,"lon":5.38135,"is_reserved":false,"is_disabled":false,"rental_uris":{"android":"levelo://app?vid=478a1a26-1887-4b3a-a1a1-d06b945da02b","ios":"levelo://app?vid=478a1a26-1887-4b3a-a1a1-d06b945da02b"},"vehicle_type_id":"4","last_reported":1775043753,"current_range_meters":5600,"station_id":"ce4bhih2rcd13ifvqfr0","pricing_plan_id":"cebpf4jnsgd1na2vs0mg"},{"bike_id":"6ec1889d-c43d-42d7-9ebb-6d09626d1897","system_id":"levelo_inurba_marseille","lat":43.24656,"lon":5.38919,"is_reserved":false,"is_disabled":false,"rental_uris":{"android":"levelo://app?vid=6ec1889d-c43d-42d7-9ebb-6d09626d1897","ios":"levelo://app?vid=6ec1889d-c43d-42d7-9ebb-6d09626d1897"},"vehicle_type_id":"4","last_reported":1775043753,"current_range_meters":6000,"station_id":"ce4bhg12rcd13ifvqf60","pricing_plan_id":"cebpf4jnsgd1na2vs0mg"},{"bike_id":"dfb946ce-fedb-4e12-8519-cb8fb15a5c14","system_id":"levelo_inurba_marseille","lat":43.24182,"lon":5.36382,"is_reserved":false,"is_disabled":false,"rental_uris":{"android":"levelo://app?vid=dfb946ce-fedb-4e12-8519-cb8fb15a5c14","ios":"levelo://app?vid=dfb946ce-fedb-4e12-8519-cb8fb15a5c14"},"vehicle_type_id":"4","last_reported":1775043753,"current_range_meters":6000,"station_id":"cpo36qri1sfpv3e86is0","pricing_plan_id":"cebpf4jnsgd1na2vs0mg"},{"bike_id":"54b32ec7-ddfd-41e6-ae23-087da91e8924","system_id":"levelo_inurba_marseille","lat":43.29898,"lon":5.43681,"is_reserved":false,"is_disabled":false,"rental_uris":{"android":"levelo://app?vid=54b32ec7-ddfd-41e6-ae23-087da91e8924","ios":"levelo://app?vid=54b32ec7-ddfd-41e6-ae23-087da91e8924"},"vehicle_type_id":"4","last_reported":1775043753,"current_range_meters":6000,"station_id":"ce4bhpp2rcd13ifvqhfg","pricing_plan_id":"cebpf4jnsgd1na2vs0mg"},{"bike_id":"97911566-b39d-4772-9786-37508c49e45f","system_id":"levelo_inurba_marseille","lat":43.2256,"lon":5.41636,"is_reserved":false,"is_disabled":false,"rental_uris":{"android":"levelo://app?vid=97911566-b39d-4772-9786-37508c49e45f","ios":"levelo://app?vid=97911566-b39d-4772-9786-37508c49e45f"},"vehicle_type_id":"4","last_reported":1775043753,"current_range_meters":6000,"station_id":"st_d2o4gvlbi1j2169b742g","pricing_plan_id":"cebpf4jnsgd1na2vs0mg"},{"bike_id":"435393ff-9e8e-4fa2-82a4-6ce12bbccbed","system_id":"levelo_inurba_marseille","lat":43.28477,"lon":5.48399,"is_reserved":false,"is_disabled":false,"rental_uris":{"android":"levelo://app?vid=435393ff-9e8e-4fa2-82a4-6ce12bbccbed","ios":"levelo://app?vid=435393ff-9e8e-4fa2-82a4-6ce12bbccbed"},"vehicle_type_id":"4","last_reported":1775043753,"current_range_meters":6000,"station_id":"st_d3svhcjqgbts73a3dn0g","pricing_plan_id":"cebpf4jnsgd1na2vs0mg"},{"bike_id":"fbd75474-1f9a-4a02-9372-b92d0ad7c424","system_id":"levelo_inurba_marseille","lat":43.2931,"lon":5.37177,"is_reserved":false,"is_disabled":false,"rental_uris":{"android":"levelo://app?vid=fbd75474-1f9a-4a02-9372-b92d0ad7c424","ios":"levelo://app?vid=fbd75474-1f9a-4a02-9372-b92d0ad7c424"},"vehicle_type_id":"4","last_reported":1775043753,"current_range_meters":6000,"station_id":"ce4bgh92rcd13ifvqb40","pricing_plan_id":"cebpf4jnsgd1na2vs0mg"},{"bike_id":"cf450e1b-8aa1-4d78-ac0a-8df926f4f821","system_id":"levelo_inurba_marseille","lat":43.24381,"lon":5.37052,"is_reserved":false,"is_disabled":false,"rental_uris":{"android":"levelo://app?vid=cf450e1b-8aa1-4d78-ac0a-8df926f4f821","ios":"levelo://app?vid=cf450e1b-8aa1-4d78-ac0a-8df926f4f821"},"vehicle_type_id":"4","last_reported":1775043753,"current_range_meters":6000,"station_id":"ce4bhhh2rcd13ifvqfk0","pricing_plan_id":"cebpf4jnsgd1na2vs0mg"},{"bike_id":"0f182db9-a1f9-46fd-9199-275e74a125d7","system_id":"levelo_inurba_marseille","lat":43.24169,"lon":5.36393,"is_reserved":false,"is_disabled":false,"rental_uris":{"android":"levelo://app?vid=0f182db9-a1f9-46fd-9199-275e74a125d7","ios":"levelo://app?vid=0f182db9-a1f9-46fd-9199-275e74a125d7"},"vehicle_type_id":"4","last_reported":1775043753,"current_range_meters":6000,"station_id":"cpo36qri1sfpv3e86is0","pricing_plan_id":"cebpf4jnsgd1na2vs0mg"},{"bike_id":"44f9d2b5-878b-45f7-83f0-9fe3de8ddc6b","system_id":"levelo_inurba_marseille","lat":43.30645,"lon":5.36569,"is_reserved":false,"is_disabled":false,"rental_uris":{"android":"levelo://app?vid=44f9d2b5-878b-45f7-83f0-9fe3de8ddc6b","ios":"levelo://app?vid=44f9d2b5-878b-45f7-83f0-9fe3de8ddc6b"},"vehicle_type_id":"4","last_reported":1775043753,"current_range_meters":6000,"station_id":"","pricing_plan_id":"cebpf4jnsgd1na2vs0mg"},{"bike_id":"c01d9e49-fff9-456c-8c86-45ce90e055c7","system_id":"levelo_inurba_marseille","lat":43.311525,"lon":5.367948,"is_reserved":false,"is_disabled":false,"rental_uris":{"android":"levelo://app?vid=c01d9e49-fff9-456c-8c86-45ce90e055c7","ios":"levelo://app?vid=c01d9e49-fff9-456c-8c86-45ce90e055c7"},"vehicle_type_id":"4","last_reported":1775043753,"current_range_meters":6000,"station_id":"ce4bgl92rcd13ifvqbq0","pricing_plan_id":"cebpf4jnsgd1na2vs0mg"},{"bike_id":"72509681-52aa-4782-9de0-820bb878387d","system_id":"levelo_inurba_marseille","lat":43.22562,"lon":5.41632,"is_reserved":false,"is_disabled":false,"rental_uris":{"android":"levelo://app?vid=72509681-52aa-4782-9de0-820bb878387d","ios":"levelo://app?vid=72509681-52aa-4782-9de0-820bb878387d"},"vehicle_type_id":"4","last_reported":1775043753,"current_range_meters":6000,"station_id":"st_d2o4gvlbi1j2169b742g","pricing_plan_id":"cebpf4jnsgd1na2vs0mg"},{"bike_id":"876a2a5f-7cae-43f6-a3ac-516af317e68f","system_id":"levelo_inurba_marseille","lat":43.28694,"lon":5.39993,"is_reserved":false,"is_disabled":false,"rental_uris":{"android":"levelo://app?vid=876a2a5f-7cae-43f6-a3ac-516af317e68f","ios":"levelo://app?vid=876a2a5f-7cae-43f6-a3ac-516af317e68f"},"vehicle_type_id":"4","last_reported":1775043753,"current_range_meters":6000,"station_id":"ce4bho92rcd13ifvqh3g","pricing_plan_id":"cebpf4jnsgd1na2vs0mg"},{"bike_id":"dbafccf7-0909-44bd-86f0-abe7aa0ed694","system_id":"levelo_inurba_marseille","lat":43.29517,"lon":5.43291,"is_reserved":false,"is_disabled":false,"rental_uris":{"android":"levelo://app?vid=dbafccf7-0909-44bd-86f0-abe7aa0ed694","ios":"levelo://app?vid=dbafccf7-0909-44bd-86f0-abe7aa0ed694"},"vehicle_type_id":"4","last_reported":1775043753,"current_range_meters":6400,"station_id":"st_d3j5ugp08ojc73fj9d10","pricing_plan_id":"cebpf4jnsgd1na2vs0mg"},{"bike_id":"8429f855-c4a0-4803-9ce7-0d1fb93dbfe8","system_id":"levelo_inurba_marseille","lat":43.28553,"lon":5.48333,"is_reserved":false,"is_disabled":false,"rental_uris":{"android":"levelo://app?vid=8429f855-c4a0-4803-9ce7-0d1fb93dbfe8","ios":"levelo://app?vid=8429f855-c4a0-4803-9ce7-0d1fb93dbfe8"},"vehicle_type_id":"4","last_reported":1775043753,"current_range_meters":6400,"station_id":"","pricing_plan_id":"cebpf4jnsgd1na2vs0mg"},{"bike_id":"1130d409-34d2-42ba-a5d5-ed99d6325005","system_id":"levelo_inurba_marseille","lat":43.21755,"lon":5.34601,"is_reserved":false,"is_disabled":false,"rental_uris":{"android":"levelo://app?vid=1130d409-34d2-42ba-a5d5-ed99d6325005","ios":"levelo://app?vid=1130d409-34d2-42ba-a5d5-ed99d6325005"},"vehicle_type_id":"4","last_reported":1775043753,"current_range_meters":6400,"station_id":"st_cvj6r9ubvosntc0bgbag","pricing_plan_id":"cebpf4jnsgd1na2vs0mg"},{"bike_id":"3fecce1e-883c-4fd2-ba0b-0827a7aa44bb","system_id":"levelo_inurba_marseille","lat":43.28267,"lon":5.35063,"is_reserved":false,"is_disabled":false,"rental_uris":{"android":"levelo://app?vid=3fecce1e-883c-4fd2-ba0b-0827a7aa44bb","ios":"levelo://app?vid=3fecce1e-883c-4fd2-ba0b-0827a7aa44bb"},"vehicle_type_id":"4","last_reported":1775043753,"current_range_meters":6400,"station_id":"ce4bhbp2rcd13ifvqerg","pricing_plan_id":"cebpf4jnsgd1na2vs0mg"},{"bike_id":"1fd14647-60cf-49f0-a971-843beb62395e","system_id":"levelo_inurba_marseille","lat":43.28532,"lon":5.44087,"is_reserved":false,"is_disabled":false,"rental_uris":{"android":"levelo://app?vid=1fd14647-60cf-49f0-a971-843beb62395e","ios":"levelo://app?vid=1fd14647-60cf-49f0-a971-843beb62395e"},"vehicle_type_id":"4","last_reported":1775043753,"current_range_meters":6400,"station_id":"st_d3j3df2ikq2c7380ej80","pricing_plan_id":"cebpf4jnsgd1na2vs0mg"},{"bike_id":"33f3c10f-22cd-4c73-a574-94b484b74c9e","system_id":"levelo_inurba_marseille","lat":43.28538,"lon":5.44103,"is_reserved":false,"is_disabled":false,"rental_uris":{"android":"levelo://app?vid=33f3c10f-22cd-4c73-a574-94b484b74c9e","ios":"levelo://app?vid=33f3c10f-22cd-4c73-a574-94b484b74c9e"},"vehicle_type_id":"4","last_reported":1775043753,"current_range_meters":6400,"station_id":"st_d3j3df2ikq2c7380ej80","pricing_plan_id":"cebpf4jnsgd1na2vs0mg"},{"bike_id":"685af4d4-e4d0-4349-969d-143645b07027","system_id":"levelo_inurba_marseille","lat":43.2721,"lon":5.39207,"is_reserved":false,"is_disabled":false,"rental_uris":{"android":"levelo://app?vid=685af4d4-e4d0-4349-969d-143645b07027","ios":"levelo://app?vid=685af4d4-e4d0-4349-969d-143645b07027"},"vehicle_type_id":"4","last_reported":1775043753,"current_range_meters":6400,"station_id":"ce4bhhp2rcd13ifvqfm0","pricing_plan_id":"cebpf4jnsgd1na2vs0mg"},{"bike_id":"58f34c6b-a86e-4e7a-8bcc-4b268f42924a","system_id":"levelo_inurba_marseille","lat":43.3226,"lon":5.37107,"is_reserved":false,"is_disabled":false,"rental_uris":{"android":"levelo://app?vid=58f34c6b-a86e-4e7a-8bcc-4b268f42924a","ios":"levelo://app?vid=58f34c6b-a86e-4e7a-8bcc-4b268f42924a"},"vehicle_type_id":"4","last_reported":1775043753,"current_range_meters":6400,"station_id":"","pricing_plan_id":"cebpf4jnsgd1na2vs0mg"},{"bike_id":"4f461c12-a839-4112-843e-a559d023da9c","system_id":"levelo_inurba_marseille","lat":43.21185,"lon":5.35078,"is_reserved":false,"is_disabled":false,"rental_uris":{"android":"levelo://app?vid=4f461c12-a839-4112-843e-a559d023da9c","ios":"levelo://app?vid=4f461c12-a839-4112-843e-a559d023da9c"},"vehicle_type_id":"4","last_reported":1775043753,"current_range_meters":6400,"station_id":"st_cvj6sg6p6f1abm77japg","pricing_plan_id":"cebpf4jnsgd1na2vs0mg"},{"bike_id":"fd3c99d1-464c-4730-861a-13ecaf9be51e","system_id":"levelo_inurba_marseille","lat":43.28271,"lon":5.35067,"is_reserved":false,"is_disabled":false,"rental_uris":{"android":"levelo://app?vid=fd3c99d1-464c-4730-861a-13ecaf9be51e","ios":"levelo://app?vid=fd3c99d1-464c-4730-861a-13ecaf9be51e"},"vehicle_type_id":"4","last_reported":1775043753,"current_range_meters":6400,"station_id":"ce4bhbp2rcd13ifvqerg","pricing_plan_id":"cebpf4jnsgd1na2vs0mg"},{"bike_id":"db9fa39f-e716-41ee-a186-2b7137071485","system_id":"levelo_inurba_marseille","lat":43.29595,"lon":5.36736,"is_reserved":false,"is_disabled":false,"rental_uris":{"android":"levelo://app?vid=db9fa39f-e716-41ee-a186-2b7137071485","ios":"levelo://app?vid=db9fa39f-e716-41ee-a186-2b7137071485"},"vehicle_type_id":"4","last_reported":1775043753,"current_range_meters":6800,"station_id":"ce4bgph2rcd13ifvqc2g","pricing_plan_id":"cebpf4jnsgd1na2vs0mg"},{"bike_id":"d5c0f6e3-c39b-45a3-85a0-808c871ef59c","system_id":"levelo_inurba_marseille","lat":43.24664,"lon":5.38158,"is_reserved":false,"is_disabled":false,"rental_uris":{"android":"levelo://app?vid=d5c0f6e3-c39b-45a3-85a0-808c871ef59c","ios":"levelo://app?vid=d5c0f6e3-c39b-45a3-85a0-808c871ef59c"},"vehicle_type_id":"4","last_reported":1775043753,"current_range_meters":6800,"station_id":"ce4bhih2rcd13ifvqfr0","pricing_plan_id":"cebpf4jnsgd1na2vs0mg"},{"bike_id":"da0afd96-2a67-48f8-a361-a442441100ab","system_id":"levelo_inurba_marseille","lat":43.30374,"lon":5.42453,"is_reserved":false,"is_disabled":false,"rental_uris":{"android":"levelo://app?vid=da0afd96-2a67-48f8-a361-a442441100ab","ios":"levelo://app?vid=da0afd96-2a67-48f8-a361-a442441100ab"},"vehicle_type_id":"4","last_reported":1775043753,"current_range_meters":6800,"station_id":"ce4bhoh2rcd13ifvqh6g","pricing_plan_id":"cebpf4jnsgd1na2vs0mg"},{"bike_id":"d41d5ff3-651c-4e70-8a12-e8a105b53c64","system_id":"levelo_inurba_marseille","lat":43.31601,"lon":5.44511,"is_reserved":false,"is_disabled":false,"rental_uris":{"android":"levelo://app?vid=d41d5ff3-651c-4e70-8a12-e8a105b53c64","ios":"levelo://app?vid=d41d5ff3-651c-4e70-8a12-e8a105b53c64"},"vehicle_type_id":"4","last_reported":1775043753,"current_range_meters":6800,"station_id":"","pricing_plan_id":"cebpf4jnsgd1na2vs0mg"},{"bike_id":"61dc7beb-63c5-45cd-906b-0925d0f5df41","system_id":"levelo_inurba_marseille","lat":43.2853,"lon":5.44096,"is_reserved":false,"is_disabled":false,"rental_uris":{"android":"levelo://app?vid=61dc7beb-63c5-45cd-906b-0925d0f5df41","ios":"levelo://app?vid=61dc7beb-63c5-45cd-906b-0925d0f5df41"},"vehicle_type_id":"4","last_reported":1775043753,"current_range_meters":6800,"station_id":"st_d3j3df2ikq2c7380ej80","pricing_plan_id":"cebpf4jnsgd1na2vs0mg"},{"bike_id":"15714c03-13ab-42fb-89b7-27c1224b43b6","system_id":"levelo_inurba_marseille","lat":43.30304,"lon":5.37663,"is_reserved":false,"is_disabled":false,"rental_uris":{"android":"levelo://app?vid=15714c03-13ab-42fb-89b7-27c1224b43b6","ios":"levelo://app?vid=15714c03-13ab-42fb-89b7-27c1224b43b6"},"vehicle_type_id":"4","last_reported":1775043753,"current_range_meters":6800,"station_id":"","pricing_plan_id":"cebpf4jnsgd1na2vs0mg"},{"bike_id":"4dc5e590-cebf-4591-86fa-2533cf011660","system_id":"levelo_inurba_marseille","lat":43.23967,"lon":5.36631,"is_reserved":false,"is_disabled":false,"rental_uris":{"android":"levelo://app?vid=4dc5e590-cebf-4591-86fa-2533cf011660","ios":"levelo://app?vid=4dc5e590-cebf-4591-86fa-2533cf011660"},"vehicle_type_id":"4","last_reported":1775043753,"current_range_meters":6800,"station_id":"ce4bhi12rcd13ifvqfp0","pricing_plan_id":"cebpf4jnsgd1na2vs0mg"},{"bike_id":"12b349ad-151f-48f1-8e40-9b31fb593ad9","system_id":"levelo_inurba_marseille","lat":43.29283,"lon":5.3685,"is_reserved":false,"is_disabled":false,"rental_uris":{"android":"levelo://app?vid=12b349ad-151f-48f1-8e40-9b31fb593ad9","ios":"levelo://app?vid=12b349ad-151f-48f1-8e40-9b31fb593ad9"},"vehicle_type_id":"4","last_reported":1775043753,"current_range_meters":6800,"station_id":"ce4bhbp2rcd13ifvqesg","pricing_plan_id":"cebpf4jnsgd1na2vs0mg"},{"bike_id":"751823b1-fecf-476f-a14d-b22ea92d3e4c","system_id":"levelo_inurba_marseille","lat":43.29181,"lon":5.42644,"is_reserved":false,"is_disabled":false,"rental_uris":{"android":"levelo://app?vid=751823b1-fecf-476f-a14d-b22ea92d3e4c","ios":"levelo://app?vid=751823b1-fecf-476f-a14d-b22ea92d3e4c"},"vehicle_type_id":"4","last_reported":1775043753,"current_range_meters":6800,"station_id":"","pricing_plan_id":"cebpf4jnsgd1na2vs0mg"},{"bike_id":"96f64e49-7ba9-4a9b-ae7d-7e7667644a85","system_id":"levelo_inurba_marseille","lat":43.232,"lon":5.3555,"is_reserved":false,"is_disabled":false,"rental_uris":{"android":"levelo://app?vid=96f64e49-7ba9-4a9b-ae7d-7e7667644a85","ios":"levelo://app?vid=96f64e49-7ba9-4a9b-ae7d-7e7667644a85"},"vehicle_type_id":"4","last_reported":1775043753,"current_range_meters":6800,"station_id":"ce4bhu92rcd13ifvqi70","pricing_plan_id":"cebpf4jnsgd1na2vs0mg"},{"bike_id":"333a339b-a965-44f4-82f3-17a0518601d7","system_id":"levelo_inurba_marseille","lat":43.24824,"lon":5.37434,"is_reserved":false,"is_disabled":false,"rental_uris":{"android":"levelo://app?vid=333a339b-a965-44f4-82f3-17a0518601d7","ios":"levelo://app?vid=333a339b-a965-44f4-82f3-17a0518601d7"},"vehicle_type_id":"4","last_reported":1775043753,"current_range_meters":6800,"station_id":"ce4bhgh2rcd13ifvqfb0","pricing_plan_id":"cebpf4jnsgd1na2vs0mg"},{"bike_id":"bd826534-26d9-4788-b984-c29b9a9d87e3","system_id":"levelo_inurba_marseille","lat":43.31688,"lon":5.40472,"is_reserved":false,"is_disabled":false,"rental_uris":{"android":"levelo://app?vid=bd826534-26d9-4788-b984-c29b9a9d87e3","ios":"levelo://app?vid=bd826534-26d9-4788-b984-c29b9a9d87e3"},"vehicle_type_id":"4","last_reported":1775043753,"current_range_meters":6800,"station_id":"ce4bh012rcd13ifvqd00","pricing_plan_id":"cebpf4jnsgd1na2vs0mg"},{"bike_id":"8fc970ee-a484-45a1-8680-8f7f28a23ddf","system_id":"levelo_inurba_marseille","lat":43.2175,"lon":5.34605,"is_reserved":false,"is_disabled":false,"rental_uris":{"android":"levelo://app?vid=8fc970ee-a484-45a1-8680-8f7f28a23ddf","ios":"levelo://app?vid=8fc970ee-a484-45a1-8680-8f7f28a23ddf"},"vehicle_type_id":"4","last_reported":1775043753,"current_range_meters":6800,"station_id":"st_cvj6r9ubvosntc0bgbag","pricing_plan_id":"cebpf4jnsgd1na2vs0mg"},{"bike_id":"eb168392-a120-432c-95f8-0710fc1ccfde","system_id":"levelo_inurba_marseille","lat":43.23186,"lon":5.35531,"is_reserved":false,"is_disabled":false,"rental_uris":{"android":"levelo://app?vid=eb168392-a120-432c-95f8-0710fc1ccfde","ios":"levelo://app?vid=eb168392-a120-432c-95f8-0710fc1ccfde"},"vehicle_type_id":"4","last_reported":1775043753,"current_range_meters":6800,"station_id":"ce4bhu92rcd13ifvqi70","pricing_plan_id":"cebpf4jnsgd1na2vs0mg"},{"bike_id":"e48449c9-7d13-4803-b2aa-7fb857c0a68c","system_id":"levelo_inurba_marseille","lat":43.24431,"lon":5.41587,"is_reserved":false,"is_disabled":false,"rental_uris":{"android":"levelo://app?vid=e48449c9-7d13-4803-b2aa-7fb857c0a68c","ios":"levelo://app?vid=e48449c9-7d13-4803-b2aa-7fb857c0a68c"},"vehicle_type_id":"4","last_reported":1775043753,"current_range_meters":7200,"station_id":"","pricing_plan_id":"cebpf4jnsgd1na2vs0mg"},{"bike_id":"140d59d9-5fe1-4f30-b8f2-8350c1b6a55b","system_id":"levelo_inurba_marseille","lat":43.28421,"lon":5.34997,"is_reserved":false,"is_disabled":false,"rental_uris":{"android":"levelo://app?vid=140d59d9-5fe1-4f30-b8f2-8350c1b6a55b","ios":"levelo://app?vid=140d59d9-5fe1-4f30-b8f2-8350c1b6a55b"},"vehicle_type_id":"4","last_reported":1775043753,"current_range_meters":7200,"station_id":"ce4bhbh2rcd13ifvqepg","pricing_plan_id":"cebpf4jnsgd1na2vs0mg"},{"bike_id":"3779fce9-2c24-4d4f-a0f7-bcfba516f403","system_id":"levelo_inurba_marseille","lat":43.21756,"lon":5.34584,"is_reserved":false,"is_disabled":false,"rental_uris":{"android":"levelo://app?vid=3779fce9-2c24-4d4f-a0f7-bcfba516f403","ios":"levelo://app?vid=3779fce9-2c24-4d4f-a0f7-bcfba516f403"},"vehicle_type_id":"4","last_reported":1775043753,"current_range_meters":7200,"station_id":"st_cvj6r9ubvosntc0bgbag","pricing_plan_id":"cebpf4jnsgd1na2vs0mg"},{"bike_id":"ace8d92c-665e-46a4-858d-e12872c8b9f0","system_id":"levelo_inurba_marseille","lat":43.28483,"lon":5.48391,"is_reserved":false,"is_disabled":false,"rental_uris":{"android":"levelo://app?vid=ace8d92c-665e-46a4-858d-e12872c8b9f0","ios":"levelo://app?vid=ace8d92c-665e-46a4-858d-e12872c8b9f0"},"vehicle_type_id":"4","last_reported":1775043753,"current_range_meters":7200,"station_id":"","pricing_plan_id":"cebpf4jnsgd1na2vs0mg"},{"bike_id":"0d0c8f03-48a7-4e97-9825-e79885ed278e","system_id":"levelo_inurba_marseille","lat":43.23054,"lon":5.35497,"is_reserved":false,"is_disabled":false,"rental_uris":{"android":"levelo://app?vid=0d0c8f03-48a7-4e97-9825-e79885ed278e","ios":"levelo://app?vid=0d0c8f03-48a7-4e97-9825-e79885ed278e"},"vehicle_type_id":"4","last_reported":1775043753,"current_range_meters":7200,"station_id":"cpo3342slgdg3j2ifvpg","pricing_plan_id":"cebpf4jnsgd1na2vs0mg"},{"bike_id":"a9616136-f3db-4e2d-951b-e20c22b73feb","system_id":"levelo_inurba_marseille","lat":43.24803,"lon":5.37452,"is_reserved":false,"is_disabled":false,"rental_uris":{"android":"levelo://app?vid=a9616136-f3db-4e2d-951b-e20c22b73feb","ios":"levelo://app?vid=a9616136-f3db-4e2d-951b-e20c22b73feb"},"vehicle_type_id":"4","last_reported":1775043753,"current_range_meters":7200,"station_id":"ce4bhgh2rcd13ifvqfb0","pricing_plan_id":"cebpf4jnsgd1na2vs0mg"},{"bike_id":"09aa731a-8441-4c11-850c-7a1c484d5628","system_id":"levelo_inurba_marseille","lat":43.30496,"lon":5.37826,"is_reserved":false,"is_disabled":false,"rental_uris":{"android":"levelo://app?vid=09aa731a-8441-4c11-850c-7a1c484d5628","ios":"levelo://app?vid=09aa731a-8441-4c11-850c-7a1c484d5628"},"vehicle_type_id":"4","last_reported":1775043753,"current_range_meters":7200,"station_id":"ce4bgup2rcd13ifvqcn0","pricing_plan_id":"cebpf4jnsgd1na2vs0mg"},{"bike_id":"e100bd93-1703-44b8-a832-5d7ea88fe7f4","system_id":"levelo_inurba_marseille","lat":43.24462,"lon":5.42549,"is_reserved":false,"is_disabled":false,"rental_uris":{"android":"levelo://app?vid=e100bd93-1703-44b8-a832-5d7ea88fe7f4","ios":"levelo://app?vid=e100bd93-1703-44b8-a832-5d7ea88fe7f4"},"vehicle_type_id":"4","last_reported":1775043753,"current_range_meters":7200,"station_id":"st_d4a3vfp97mjs738cd8kg","pricing_plan_id":"cebpf4jnsgd1na2vs0mg"},{"bike_id":"ac750519-69a1-4eac-846f-31128d535c20","system_id":"levelo_inurba_marseille","lat":43.24391,"lon":5.37052,"is_reserved":false,"is_disabled":false,"rental_uris":{"android":"levelo://app?vid=ac750519-69a1-4eac-846f-31128d535c20","ios":"levelo://app?vid=ac750519-69a1-4eac-846f-31128d535c20"},"vehicle_type_id":"4","last_reported":1775043753,"current_range_meters":7200,"station_id":"ce4bhhh2rcd13ifvqfk0","pricing_plan_id":"cebpf4jnsgd1na2vs0mg"},{"bike_id":"81b00432-51ba-4db2-9f54-2c041f2427bd","system_id":"levelo_inurba_marseille","lat":43.25009,"lon":5.38945,"is_reserved":false,"is_disabled":false,"rental_uris":{"android":"levelo://app?vid=81b00432-51ba-4db2-9f54-2c041f2427bd","ios":"levelo://app?vid=81b00432-51ba-4db2-9f54-2c041f2427bd"},"vehicle_type_id":"4","last_reported":1775043753,"current_range_meters":7200,"station_id":"ce4bhgp2rcd13ifvqfd0","pricing_plan_id":"cebpf4jnsgd1na2vs0mg"},{"bike_id":"839f391b-feab-427a-b17d-2d524e38c555","system_id":"levelo_inurba_marseille","lat":43.23789,"lon":5.36631,"is_reserved":false,"is_disabled":false,"rental_uris":{"android":"levelo://app?vid=839f391b-feab-427a-b17d-2d524e38c555","ios":"levelo://app?vid=839f391b-feab-427a-b17d-2d524e38c555"},"vehicle_type_id":"4","last_reported":1775043753,"current_range_meters":7200,"station_id":"st_d3nk18o9ro0c73en2l3g","pricing_plan_id":"cebpf4jnsgd1na2vs0mg"},{"bike_id":"9671d249-9488-4f85-a07d-d72a0209d94e","system_id":"levelo_inurba_marseille","lat":43.30155,"lon":5.38085,"is_reserved":false,"is_disabled":false,"rental_uris":{"android":"levelo://app?vid=9671d249-9488-4f85-a07d-d72a0209d94e","ios":"levelo://app?vid=9671d249-9488-4f85-a07d-d72a0209d94e"},"vehicle_type_id":"4","last_reported":1775043753,"current_range_meters":7200,"station_id":"ce4bgjp2rcd13ifvqbh0","pricing_plan_id":"cebpf4jnsgd1na2vs0mg"},{"bike_id":"00fccfce-bcae-4eeb-94c9-d763c7a116b6","system_id":"levelo_inurba_marseille","lat":43.30164,"lon":5.38091,"is_reserved":false,"is_disabled":false,"rental_uris":{"android":"levelo://app?vid=00fccfce-bcae-4eeb-94c9-d763c7a116b6","ios":"levelo://app?vid=00fccfce-bcae-4eeb-94c9-d763c7a116b6"},"vehicle_type_id":"4","last_reported":1775043753,"current_range_meters":7200,"station_id":"ce4bgjp2rcd13ifvqbh0","pricing_plan_id":"cebpf4jnsgd1na2vs0mg"},{"bike_id":"e1a367f1-e965-4b14-910c-035500053b1f","system_id":"levelo_inurba_marseille","lat":43.28411,"lon":5.34984,"is_reserved":false,"is_disabled":false,"rental_uris":{"android":"levelo://app?vid=e1a367f1-e965-4b14-910c-035500053b1f","ios":"levelo://app?vid=e1a367f1-e965-4b14-910c-035500053b1f"},"vehicle_type_id":"4","last_reported":1775043753,"current_range_meters":7200,"station_id":"ce4bhbh2rcd13ifvqepg","pricing_plan_id":"cebpf4jnsgd1na2vs0mg"},{"bike_id":"3010ca9d-c8fb-41d7-ace8-3104f4f63f5d","system_id":"levelo_inurba_marseille","lat":43.232,"lon":5.35556,"is_reserved":false,"is_disabled":false,"rental_uris":{"android":"levelo://app?vid=3010ca9d-c8fb-41d7-ace8-3104f4f63f5d","ios":"levelo://app?vid=3010ca9d-c8fb-41d7-ace8-3104f4f63f5d"},"vehicle_type_id":"4","last_reported":1775043753,"current_range_meters":7200,"station_id":"ce4bhu92rcd13ifvqi70","pricing_plan_id":"cebpf4jnsgd1na2vs0mg"},{"bike_id":"a15f4114-aaae-4758-a526-23144560e54e","system_id":"levelo_inurba_marseille","lat":43.30553,"lon":5.36686,"is_reserved":false,"is_disabled":false,"rental_uris":{"android":"levelo://app?vid=a15f4114-aaae-4758-a526-23144560e54e","ios":"levelo://app?vid=a15f4114-aaae-4758-a526-23144560e54e"},"vehicle_type_id":"4","last_reported":1775043753,"current_range_meters":7200,"station_id":"ce4bgrp2rcd13ifvqc9g","pricing_plan_id":"cebpf4jnsgd1na2vs0mg"},{"bike_id":"598a5c18-c5d5-4ac5-a2f5-980a9e3651a7","system_id":"levelo_inurba_marseille","lat":43.25861,"lon":5.39902,"is_reserved":false,"is_disabled":false,"rental_uris":{"android":"levelo://app?vid=598a5c18-c5d5-4ac5-a2f5-980a9e3651a7","ios":"levelo://app?vid=598a5c18-c5d5-4ac5-a2f5-980a9e3651a7"},"vehicle_type_id":"4","last_reported":1775043753,"current_range_meters":7200,"station_id":"ce4bhl92rcd13ifvqghg","pricing_plan_id":"cebpf4jnsgd1na2vs0mg"},{"bike_id":"b8a2350b-6879-4306-aba2-e2b0a3def655","system_id":"levelo_inurba_marseille","lat":43.28706,"lon":5.39987,"is_reserved":false,"is_disabled":false,"rental_uris":{"android":"levelo://app?vid=b8a2350b-6879-4306-aba2-e2b0a3def655","ios":"levelo://app?vid=b8a2350b-6879-4306-aba2-e2b0a3def655"},"vehicle_type_id":"4","last_reported":1775043753,"current_range_meters":7200,"station_id":"ce4bho92rcd13ifvqh3g","pricing_plan_id":"cebpf4jnsgd1na2vs0mg"},{"bike_id":"60f5c726-df58-408b-b64f-895541cbb220","system_id":"levelo_inurba_marseille","lat":43.25115,"lon":5.40328,"is_reserved":false,"is_disabled":false,"rental_uris":{"android":"levelo://app?vid=60f5c726-df58-408b-b64f-895541cbb220","ios":"levelo://app?vid=60f5c726-df58-408b-b64f-895541cbb220"},"vehicle_type_id":"4","last_reported":1775043753,"current_range_meters":7200,"station_id":"ce4bhlh2rcd13ifvqgig","pricing_plan_id":"cebpf4jnsgd1na2vs0mg"},{"bike_id":"7d221536-c309-4cb7-98fe-5bdf54751499","system_id":"levelo_inurba_marseille","lat":43.28479,"lon":5.48389,"is_reserved":false,"is_disabled":false,"rental_uris":{"android":"levelo://app?vid=7d221536-c309-4cb7-98fe-5bdf54751499","ios":"levelo://app?vid=7d221536-c309-4cb7-98fe-5bdf54751499"},"vehicle_type_id":"4","last_reported":1775043753,"current_range_meters":7200,"station_id":"","pricing_plan_id":"cebpf4jnsgd1na2vs0mg"},{"bike_id":"45c050e8-a329-47f8-a86f-69826197952f","system_id":"levelo_inurba_marseille","lat":43.24182,"lon":5.36406,"is_reserved":false,"is_disabled":false,"rental_uris":{"android":"levelo://app?vid=45c050e8-a329-47f8-a86f-69826197952f","ios":"levelo://app?vid=45c050e8-a329-47f8-a86f-69826197952f"},"vehicle_type_id":"4","last_reported":1775043753,"current_range_meters":7200,"station_id":"cpo36qri1sfpv3e86is0","pricing_plan_id":"cebpf4jnsgd1na2vs0mg"},{"bike_id":"437e4f3a-fe91-4ac4-a609-0c5a83e9fa75","system_id":"levelo_inurba_marseille","lat":43.31069,"lon":5.37178,"is_reserved":false,"is_disabled":false,"rental_uris":{"android":"levelo://app?vid=437e4f3a-fe91-4ac4-a609-0c5a83e9fa75","ios":"levelo://app?vid=437e4f3a-fe91-4ac4-a609-0c5a83e9fa75"},"vehicle_type_id":"4","last_reported":1775043753,"current_range_meters":7200,"station_id":"st_d4kl2rp97mjs73e7tdfg","pricing_plan_id":"cebpf4jnsgd1na2vs0mg"},{"bike_id":"0be0f331-343d-4e35-84d1-0c2a496d1cfe","system_id":"levelo_inurba_marseille","lat":43.31892,"lon":5.36815,"is_reserved":false,"is_disabled":false,"rental_uris":{"android":"levelo://app?vid=0be0f331-343d-4e35-84d1-0c2a496d1cfe","ios":"levelo://app?vid=0be0f331-343d-4e35-84d1-0c2a496d1cfe"},"vehicle_type_id":"4","last_reported":1775043753,"current_range_meters":7200,"station_id":"","pricing_plan_id":"cebpf4jnsgd1na2vs0mg"},{"bike_id":"f2a7e3a5-cac5-4b5c-9077-f8604e7b1b43","system_id":"levelo_inurba_marseille","lat":43.29166,"lon":5.42641,"is_reserved":false,"is_disabled":false,"rental_uris":{"android":"levelo://app?vid=f2a7e3a5-cac5-4b5c-9077-f8604e7b1b43","ios":"levelo://app?vid=f2a7e3a5-cac5-4b5c-9077-f8604e7b1b43"},"vehicle_type_id":"4","last_reported":1775043753,"current_range_meters":7200,"station_id":"","pricing_plan_id":"cebpf4jnsgd1na2vs0mg"},{"bike_id":"4f4ccab0-96eb-4736-9907-68e84a5a564c","system_id":"levelo_inurba_marseille","lat":43.29585,"lon":5.39952,"is_reserved":false,"is_disabled":false,"rental_uris":{"android":"levelo://app?vid=4f4ccab0-96eb-4736-9907-68e84a5a564c","ios":"levelo://app?vid=4f4ccab0-96eb-4736-9907-68e84a5a564c"},"vehicle_type_id":"4","last_reported":1775043753,"current_range_meters":7200,"station_id":"ce4bh312rcd13ifvqdj0","pricing_plan_id":"cebpf4jnsgd1na2vs0mg"},{"bike_id":"c7538b73-56d6-4272-970e-fef6ed4c69e9","system_id":"levelo_inurba_marseille","lat":43.29172,"lon":5.37161,"is_reserved":false,"is_disabled":false,"rental_uris":{"android":"levelo://app?vid=c7538b73-56d6-4272-970e-fef6ed4c69e9","ios":"levelo://app?vid=c7538b73-56d6-4272-970e-fef6ed4c69e9"},"vehicle_type_id":"4","last_reported":1775043753,"current_range_meters":7200,"station_id":"ce4bha92rcd13ifvqeh0","pricing_plan_id":"cebpf4jnsgd1na2vs0mg"},{"bike_id":"0fb57e09-b43b-4018-a68b-a36a0540a577","system_id":"levelo_inurba_marseille","lat":43.31335,"lon":5.36715,"is_reserved":false,"is_disabled":false,"rental_uris":{"android":"levelo://app?vid=0fb57e09-b43b-4018-a68b-a36a0540a577","ios":"levelo://app?vid=0fb57e09-b43b-4018-a68b-a36a0540a577"},"vehicle_type_id":"4","last_reported":1775043753,"current_range_meters":7200,"station_id":"ce4bgr92rcd13ifvqc6g","pricing_plan_id":"cebpf4jnsgd1na2vs0mg"},{"bike_id":"521fdd5c-22f2-444b-870e-16f0ca92be9e","system_id":"levelo_inurba_marseille","lat":43.29525,"lon":5.38653,"is_reserved":false,"is_disabled":false,"rental_uris":{"android":"levelo://app?vid=521fdd5c-22f2-444b-870e-16f0ca92be9e","ios":"levelo://app?vid=521fdd5c-22f2-444b-870e-16f0ca92be9e"},"vehicle_type_id":"4","last_reported":1775043753,"current_range_meters":8000,"station_id":"","pricing_plan_id":"cebpf4jnsgd1na2vs0mg"},{"bike_id":"d721da08-e802-47fb-be61-12b004eefc44","system_id":"levelo_inurba_marseille","lat":43.30505,"lon":5.37903,"is_reserved":false,"is_disabled":false,"rental_uris":{"android":"levelo://app?vid=d721da08-e802-47fb-be61-12b004eefc44","ios":"levelo://app?vid=d721da08-e802-47fb-be61-12b004eefc44"},"vehicle_type_id":"4","last_reported":1775043753,"current_range_meters":8000,"station_id":"ce4bgup2rcd13ifvqcn0","pricing_plan_id":"cebpf4jnsgd1na2vs0mg"},{"bike_id":"5ec0e63c-2322-472a-8f4c-53ae48c4857e","system_id":"levelo_inurba_marseille","lat":43.27964,"lon":5.38751,"is_reserved":false,"is_disabled":false,"rental_uris":{"android":"levelo://app?vid=5ec0e63c-2322-472a-8f4c-53ae48c4857e","ios":"levelo://app?vid=5ec0e63c-2322-472a-8f4c-53ae48c4857e"},"vehicle_type_id":"4","last_reported":1775043753,"current_range_meters":8000,"station_id":"ce4bhg12rcd13ifvqf80","pricing_plan_id":"cebpf4jnsgd1na2vs0mg"},{"bike_id":"982951ba-d1eb-42d4-bb65-5d98050aa6ef","system_id":"levelo_inurba_marseille","lat":43.28471,"lon":5.48383,"is_reserved":false,"is_disabled":false,"rental_uris":{"android":"levelo://app?vid=982951ba-d1eb-42d4-bb65-5d98050aa6ef","ios":"levelo://app?vid=982951ba-d1eb-42d4-bb65-5d98050aa6ef"},"vehicle_type_id":"4","last_reported":1775043753,"current_range_meters":8000,"station_id":"","pricing_plan_id":"cebpf4jnsgd1na2vs0mg"},{"bike_id":"9f379acd-775f-40aa-a2ad-0898810cd24c","system_id":"levelo_inurba_marseille","lat":43.24396,"lon":5.37064,"is_reserved":false,"is_disabled":false,"rental_uris":{"android":"levelo://app?vid=9f379acd-775f-40aa-a2ad-0898810cd24c","ios":"levelo://app?vid=9f379acd-775f-40aa-a2ad-0898810cd24c"},"vehicle_type_id":"4","last_reported":1775043753,"current_range_meters":8000,"station_id":"ce4bhhh2rcd13ifvqfk0","pricing_plan_id":"cebpf4jnsgd1na2vs0mg"},{"bike_id":"15627b94-0339-4aab-b936-c98235ca103a","system_id":"levelo_inurba_marseille","lat":43.23194,"lon":5.39962,"is_reserved":false,"is_disabled":true,"rental_uris":{"android":"levelo://app?vid=15627b94-0339-4aab-b936-c98235ca103a","ios":"levelo://app?vid=15627b94-0339-4aab-b936-c98235ca103a"},"vehicle_type_id":"4","last_reported":1775043753,"current_range_meters":8000,"station_id":"ce4bhn12rcd13ifvqgqg","pricing_plan_id":"cebpf4jnsgd1na2vs0mg"},{"bike_id":"13bdf853-afc2-4aaa-b17a-15283655f76c","system_id":"levelo_inurba_marseille","lat":43.25004,"lon":5.38938,"is_reserved":false,"is_disabled":false,"rental_uris":{"android":"levelo://app?vid=13bdf853-afc2-4aaa-b17a-15283655f76c","ios":"levelo://app?vid=13bdf853-afc2-4aaa-b17a-15283655f76c"},"vehicle_type_id":"4","last_reported":1775043753,"current_range_meters":8000,"station_id":"ce4bhgp2rcd13ifvqfd0","pricing_plan_id":"cebpf4jnsgd1na2vs0mg"},{"bike_id":"17987e54-a74f-4b58-9a2b-684ccc9cae15","system_id":"levelo_inurba_marseille","lat":43.30313,"lon":5.36887,"is_reserved":false,"is_disabled":false,"rental_uris":{"android":"levelo://app?vid=17987e54-a74f-4b58-9a2b-684ccc9cae15","ios":"levelo://app?vid=17987e54-a74f-4b58-9a2b-684ccc9cae15"},"vehicle_type_id":"4","last_reported":1775043753,"current_range_meters":8000,"station_id":"ce4bgqh2rcd13ifvqc5g","pricing_plan_id":"cebpf4jnsgd1na2vs0mg"},{"bike_id":"136be77c-8ecf-4b34-99a1-f2d58ee19609","system_id":"levelo_inurba_marseille","lat":43.28935,"lon":5.36651,"is_reserved":false,"is_disabled":false,"rental_uris":{"android":"levelo://app?vid=136be77c-8ecf-4b34-99a1-f2d58ee19609","ios":"levelo://app?vid=136be77c-8ecf-4b34-99a1-f2d58ee19609"},"vehicle_type_id":"4","last_reported":1775043753,"current_range_meters":8000,"station_id":"ce4bhap2rcd13ifvqek0","pricing_plan_id":"cebpf4jnsgd1na2vs0mg"},{"bike_id":"ddacb53e-55a3-4a67-a531-5d71504540ee","system_id":"levelo_inurba_marseille","lat":43.22562,"lon":5.41627,"is_reserved":false,"is_disabled":false,"rental_uris":{"android":"levelo://app?vid=ddacb53e-55a3-4a67-a531-5d71504540ee","ios":"levelo://app?vid=ddacb53e-55a3-4a67-a531-5d71504540ee"},"vehicle_type_id":"4","last_reported":1775043753,"current_range_meters":8000,"station_id":"st_d2o4gvlbi1j2169b742g","pricing_plan_id":"cebpf4jnsgd1na2vs0mg"},{"bike_id":"c46b9691-8495-4ec3-9b9e-c04c1003a346","system_id":"levelo_inurba_marseille","lat":43.28522,"lon":5.44111,"is_reserved":false,"is_disabled":false,"rental_uris":{"android":"levelo://app?vid=c46b9691-8495-4ec3-9b9e-c04c1003a346","ios":"levelo://app?vid=c46b9691-8495-4ec3-9b9e-c04c1003a346"},"vehicle_type_id":"4","last_reported":1775043753,"current_range_meters":8000,"station_id":"st_d3j3df2ikq2c7380ej80","pricing_plan_id":"cebpf4jnsgd1na2vs0mg"},{"bike_id":"6c3b2188-ad26-44f1-97bc-4de5c5fe5d74","system_id":"levelo_inurba_marseille","lat":43.28482,"lon":5.48396,"is_reserved":false,"is_disabled":false,"rental_uris":{"android":"levelo://app?vid=6c3b2188-ad26-44f1-97bc-4de5c5fe5d74","ios":"levelo://app?vid=6c3b2188-ad26-44f1-97bc-4de5c5fe5d74"},"vehicle_type_id":"4","last_reported":1775043753,"current_range_meters":8000,"station_id":"","pricing_plan_id":"cebpf4jnsgd1na2vs0mg"},{"bike_id":"be24bb4a-58db-43cf-8e97-2857e3936eda","system_id":"levelo_inurba_marseille","lat":43.24994,"lon":5.42395,"is_reserved":false,"is_disabled":false,"rental_uris":{"android":"levelo://app?vid=be24bb4a-58db-43cf-8e97-2857e3936eda","ios":"levelo://app?vid=be24bb4a-58db-43cf-8e97-2857e3936eda"},"vehicle_type_id":"4","last_reported":1775043753,"current_range_meters":8000,"station_id":"","pricing_plan_id":"cebpf4jnsgd1na2vs0mg"},{"bike_id":"61347705-ad09-4da0-88fd-36ae93b6cbe6","system_id":"levelo_inurba_marseille","lat":43.32366,"lon":5.36729,"is_reserved":false,"is_disabled":false,"rental_uris":{"android":"levelo://app?vid=61347705-ad09-4da0-88fd-36ae93b6cbe6","ios":"levelo://app?vid=61347705-ad09-4da0-88fd-36ae93b6cbe6"},"vehicle_type_id":"4","last_reported":1775043753,"current_range_meters":8000,"station_id":"ce4bhsh2rcd13ifvqi2g","pricing_plan_id":"cebpf4jnsgd1na2vs0mg"},{"bike_id":"7f77661e-8255-4bff-ae87-d0ced813db2a","system_id":"levelo_inurba_marseille","lat":43.24182,"lon":5.36363,"is_reserved":false,"is_disabled":false,"rental_uris":{"android":"levelo://app?vid=7f77661e-8255-4bff-ae87-d0ced813db2a","ios":"levelo://app?vid=7f77661e-8255-4bff-ae87-d0ced813db2a"},"vehicle_type_id":"4","last_reported":1775043753,"current_range_meters":8000,"station_id":"cpo36qri1sfpv3e86is0","pricing_plan_id":"cebpf4jnsgd1na2vs0mg"},{"bike_id":"7a9febe7-620f-4462-9b02-296688cd6146","system_id":"levelo_inurba_marseille","lat":43.29537,"lon":5.38545,"is_reserved":false,"is_disabled":false,"rental_uris":{"android":"levelo://app?vid=7a9febe7-620f-4462-9b02-296688cd6146","ios":"levelo://app?vid=7a9febe7-620f-4462-9b02-296688cd6146"},"vehicle_type_id":"4","last_reported":1775043753,"current_range_meters":8000,"station_id":"ce4bgih2rcd13ifvqba0","pricing_plan_id":"cebpf4jnsgd1na2vs0mg"},{"bike_id":"febd890f-8091-48ad-815e-abf0b801ed37","system_id":"levelo_inurba_marseille","lat":43.24411,"lon":5.37069,"is_reserved":false,"is_disabled":false,"rental_uris":{"android":"levelo://app?vid=febd890f-8091-48ad-815e-abf0b801ed37","ios":"levelo://app?vid=febd890f-8091-48ad-815e-abf0b801ed37"},"vehicle_type_id":"4","last_reported":1775043753,"current_range_meters":8000,"station_id":"ce4bhhh2rcd13ifvqfk0","pricing_plan_id":"cebpf4jnsgd1na2vs0mg"},{"bike_id":"32bbc785-7878-457c-9b63-c753cac045af","system_id":"levelo_inurba_marseille","lat":43.21759,"lon":5.34602,"is_reserved":false,"is_disabled":false,"rental_uris":{"android":"levelo://app?vid=32bbc785-7878-457c-9b63-c753cac045af","ios":"levelo://app?vid=32bbc785-7878-457c-9b63-c753cac045af"},"vehicle_type_id":"4","last_reported":1775043753,"current_range_meters":8000,"station_id":"st_cvj6r9ubvosntc0bgbag","pricing_plan_id":"cebpf4jnsgd1na2vs0mg"},{"bike_id":"b5edaea5-8eb8-41c5-a742-553f4edc3d5d","system_id":"levelo_inurba_marseille","lat":43.31354,"lon":5.36688,"is_reserved":false,"is_disabled":false,"rental_uris":{"android":"levelo://app?vid=b5edaea5-8eb8-41c5-a742-553f4edc3d5d","ios":"levelo://app?vid=b5edaea5-8eb8-41c5-a742-553f4edc3d5d"},"vehicle_type_id":"4","last_reported":1775043753,"current_range_meters":8000,"station_id":"ce4bgr92rcd13ifvqc6g","pricing_plan_id":"cebpf4jnsgd1na2vs0mg"},{"bike_id":"414e0a70-6dfc-4ae8-82b3-ec8ad75a8436","system_id":"levelo_inurba_marseille","lat":43.25581,"lon":5.38232,"is_reserved":false,"is_disabled":false,"rental_uris":{"android":"levelo://app?vid=414e0a70-6dfc-4ae8-82b3-ec8ad75a8436","ios":"levelo://app?vid=414e0a70-6dfc-4ae8-82b3-ec8ad75a8436"},"vehicle_type_id":"4","last_reported":1775043753,"current_range_meters":8000,"station_id":"ce4bhih2rcd13ifvqfs0","pricing_plan_id":"cebpf4jnsgd1na2vs0mg"},{"bike_id":"e5a8f0fe-4f81-4583-8229-e4afa1e27a12","system_id":"levelo_inurba_marseille","lat":43.30532,"lon":5.38421,"is_reserved":false,"is_disabled":false,"rental_uris":{"android":"levelo://app?vid=e5a8f0fe-4f81-4583-8229-e4afa1e27a12","ios":"levelo://app?vid=e5a8f0fe-4f81-4583-8229-e4afa1e27a12"},"vehicle_type_id":"4","last_reported":1775043753,"current_range_meters":8000,"station_id":"ce4bgg92rcd13ifvqb30","pricing_plan_id":"cebpf4jnsgd1na2vs0mg"},{"bike_id":"70b15db6-3217-4d89-ac61-5713567e98b7","system_id":"levelo_inurba_marseille","lat":43.31882,"lon":5.40008,"is_reserved":false,"is_disabled":false,"rental_uris":{"android":"levelo://app?vid=70b15db6-3217-4d89-ac61-5713567e98b7","ios":"levelo://app?vid=70b15db6-3217-4d89-ac61-5713567e98b7"},"vehicle_type_id":"4","last_reported":1775043753,"current_range_meters":8000,"station_id":"","pricing_plan_id":"cebpf4jnsgd1na2vs0mg"},{"bike_id":"2b49fafc-1982-406b-b509-135eb726e407","system_id":"levelo_inurba_marseille","lat":43.28529,"lon":5.44106,"is_reserved":false,"is_disabled":false,"rental_uris":{"android":"levelo://app?vid=2b49fafc-1982-406b-b509-135eb726e407","ios":"levelo://app?vid=2b49fafc-1982-406b-b509-135eb726e407"},"vehicle_type_id":"4","last_reported":1775043753,"current_range_meters":8000,"station_id":"st_d3j3df2ikq2c7380ej80","pricing_plan_id":"cebpf4jnsgd1na2vs0mg"},{"bike_id":"60302b5d-df5c-45a3-a2b0-7da1516d2ff3","system_id":"levelo_inurba_marseille","lat":43.31376,"lon":5.36654,"is_reserved":false,"is_disabled":false,"rental_uris":{"android":"levelo://app?vid=60302b5d-df5c-45a3-a2b0-7da1516d2ff3","ios":"levelo://app?vid=60302b5d-df5c-45a3-a2b0-7da1516d2ff3"},"vehicle_type_id":"4","last_reported":1775043753,"current_range_meters":8000,"station_id":"ce4bgr92rcd13ifvqc6g","pricing_plan_id":"cebpf4jnsgd1na2vs0mg"},{"bike_id":"34202a4d-30c4-4b01-92b6-12f62e5395d5","system_id":"levelo_inurba_marseille","lat":43.2496,"lon":5.40506,"is_reserved":false,"is_disabled":false,"rental_uris":{"android":"levelo://app?vid=34202a4d-30c4-4b01-92b6-12f62e5395d5","ios":"levelo://app?vid=34202a4d-30c4-4b01-92b6-12f62e5395d5"},"vehicle_type_id":"4","last_reported":1775043753,"current_range_meters":8000,"station_id":"st_d2ngiaodas8pm72gd1h0","pricing_plan_id":"cebpf4jnsgd1na2vs0mg"},{"bike_id":"bed085cd-e643-4cf8-a83c-4e3f37218df7","system_id":"levelo_inurba_marseille","lat":43.23129,"lon":5.40152,"is_reserved":false,"is_disabled":false,"rental_uris":{"android":"levelo://app?vid=bed085cd-e643-4cf8-a83c-4e3f37218df7","ios":"levelo://app?vid=bed085cd-e643-4cf8-a83c-4e3f37218df7"},"vehicle_type_id":"4","last_reported":1775043753,"current_range_meters":8000,"station_id":"","pricing_plan_id":"cebpf4jnsgd1na2vs0mg"},{"bike_id":"801e394f-075e-436d-a193-48f5477757ff","system_id":"levelo_inurba_marseille","lat":43.2466,"lon":5.38894,"is_reserved":false,"is_disabled":false,"rental_uris":{"android":"levelo://app?vid=801e394f-075e-436d-a193-48f5477757ff","ios":"levelo://app?vid=801e394f-075e-436d-a193-48f5477757ff"},"vehicle_type_id":"4","last_reported":1775043753,"current_range_meters":8000,"station_id":"ce4bhg12rcd13ifvqf60","pricing_plan_id":"cebpf4jnsgd1na2vs0mg"},{"bike_id":"1bfa51ce-78f3-4c67-be01-387854e4298a","system_id":"levelo_inurba_marseille","lat":43.29311,"lon":5.37187,"is_reserved":false,"is_disabled":true,"rental_uris":{"android":"levelo://app?vid=1bfa51ce-78f3-4c67-be01-387854e4298a","ios":"levelo://app?vid=1bfa51ce-78f3-4c67-be01-387854e4298a"},"vehicle_type_id":"4","last_reported":1775043753,"current_range_meters":8000,"station_id":"ce4bgh92rcd13ifvqb40","pricing_plan_id":"cebpf4jnsgd1na2vs0mg"},{"bike_id":"86f155e1-1ac1-445c-bbca-e5237a1a1a71","system_id":"levelo_inurba_marseille","lat":43.24383,"lon":5.3706,"is_reserved":false,"is_disabled":false,"rental_uris":{"android":"levelo://app?vid=86f155e1-1ac1-445c-bbca-e5237a1a1a71","ios":"levelo://app?vid=86f155e1-1ac1-445c-bbca-e5237a1a1a71"},"vehicle_type_id":"4","last_reported":1775043753,"current_range_meters":8000,"station_id":"ce4bhhh2rcd13ifvqfk0","pricing_plan_id":"cebpf4jnsgd1na2vs0mg"},{"bike_id":"14f413fc-be54-46a7-b4e2-1391a2b9e9a6","system_id":"levelo_inurba_marseille","lat":43.28671,"lon":5.3867,"is_reserved":false,"is_disabled":false,"rental_uris":{"android":"levelo://app?vid=14f413fc-be54-46a7-b4e2-1391a2b9e9a6","ios":"levelo://app?vid=14f413fc-be54-46a7-b4e2-1391a2b9e9a6"},"vehicle_type_id":"4","last_reported":1775043753,"current_range_meters":8000,"station_id":"ce4bh492rcd13ifvqdug","pricing_plan_id":"cebpf4jnsgd1na2vs0mg"},{"bike_id":"c267eaf3-200a-4a1c-8074-fa1f1a8154c6","system_id":"levelo_inurba_marseille","lat":43.21772,"lon":5.34578,"is_reserved":false,"is_disabled":false,"rental_uris":{"android":"levelo://app?vid=c267eaf3-200a-4a1c-8074-fa1f1a8154c6","ios":"levelo://app?vid=c267eaf3-200a-4a1c-8074-fa1f1a8154c6"},"vehicle_type_id":"4","last_reported":1775043753,"current_range_meters":8000,"station_id":"st_cvj6r9ubvosntc0bgbag","pricing_plan_id":"cebpf4jnsgd1na2vs0mg"},{"bike_id":"2c78b9d7-6797-4c09-ad87-2e1c14443b34","system_id":"levelo_inurba_marseille","lat":43.2859,"lon":5.42939,"is_reserved":false,"is_disabled":false,"rental_uris":{"android":"levelo://app?vid=2c78b9d7-6797-4c09-ad87-2e1c14443b34","ios":"levelo://app?vid=2c78b9d7-6797-4c09-ad87-2e1c14443b34"},"vehicle_type_id":"4","last_reported":1775043753,"current_range_meters":8000,"station_id":"","pricing_plan_id":"cebpf4jnsgd1na2vs0mg"},{"bike_id":"f56d7445-00a0-462a-9cac-ec053ad4a04e","system_id":"levelo_inurba_marseille","lat":43.31543,"lon":5.38068,"is_reserved":false,"is_disabled":true,"rental_uris":{"android":"levelo://app?vid=f56d7445-00a0-462a-9cac-ec053ad4a04e","ios":"levelo://app?vid=f56d7445-00a0-462a-9cac-ec053ad4a04e"},"vehicle_type_id":"4","last_reported":1775043753,"current_range_meters":8400,"station_id":"ce4bhsp2rcd13ifvqi50","pricing_plan_id":"cebpf4jnsgd1na2vs0mg"},{"bike_id":"a2eaa8fe-9ee3-4783-9910-a0708dc6938b","system_id":"levelo_inurba_marseille","lat":43.23062,"lon":5.35502,"is_reserved":false,"is_disabled":false,"rental_uris":{"android":"levelo://app?vid=a2eaa8fe-9ee3-4783-9910-a0708dc6938b","ios":"levelo://app?vid=a2eaa8fe-9ee3-4783-9910-a0708dc6938b"},"vehicle_type_id":"4","last_reported":1775043753,"current_range_meters":8400,"station_id":"cpo3342slgdg3j2ifvpg","pricing_plan_id":"cebpf4jnsgd1na2vs0mg"},{"bike_id":"ce8c76c9-8d46-40c8-b510-58f72cf4c10f","system_id":"levelo_inurba_marseille","lat":43.28419,"lon":5.35005,"is_reserved":false,"is_disabled":false,"rental_uris":{"android":"levelo://app?vid=ce8c76c9-8d46-40c8-b510-58f72cf4c10f","ios":"levelo://app?vid=ce8c76c9-8d46-40c8-b510-58f72cf4c10f"},"vehicle_type_id":"4","last_reported":1775043753,"current_range_meters":8400,"station_id":"ce4bhbh2rcd13ifvqepg","pricing_plan_id":"cebpf4jnsgd1na2vs0mg"},{"bike_id":"ba94dc01-239a-45b3-ab74-97fee97d11ad","system_id":"levelo_inurba_marseille","lat":43.292235,"lon":5.360517,"is_reserved":false,"is_disabled":false,"rental_uris":{"android":"levelo://app?vid=ba94dc01-239a-45b3-ab74-97fee97d11ad","ios":"levelo://app?vid=ba94dc01-239a-45b3-ab74-97fee97d11ad"},"vehicle_type_id":"4","last_reported":1775043753,"current_range_meters":8400,"station_id":"ce4bhbh2rcd13ifvqeqg","pricing_plan_id":"cebpf4jnsgd1na2vs0mg"},{"bike_id":"ac9cfb47-6491-4537-bdd0-177ab07e5667","system_id":"levelo_inurba_marseille","lat":43.31358,"lon":5.36701,"is_reserved":false,"is_disabled":false,"rental_uris":{"android":"levelo://app?vid=ac9cfb47-6491-4537-bdd0-177ab07e5667","ios":"levelo://app?vid=ac9cfb47-6491-4537-bdd0-177ab07e5667"},"vehicle_type_id":"4","last_reported":1775043753,"current_range_meters":8400,"station_id":"ce4bgr92rcd13ifvqc6g","pricing_plan_id":"cebpf4jnsgd1na2vs0mg"},{"bike_id":"68945dd7-fcc7-4d4c-a459-6c84a8a17358","system_id":"levelo_inurba_marseille","lat":43.23974,"lon":5.3661,"is_reserved":false,"is_disabled":false,"rental_uris":{"android":"levelo://app?vid=68945dd7-fcc7-4d4c-a459-6c84a8a17358","ios":"levelo://app?vid=68945dd7-fcc7-4d4c-a459-6c84a8a17358"},"vehicle_type_id":"4","last_reported":1775043753,"current_range_meters":8400,"station_id":"ce4bhi12rcd13ifvqfp0","pricing_plan_id":"cebpf4jnsgd1na2vs0mg"},{"bike_id":"19d804f8-e022-4728-979b-c94761dfb083","system_id":"levelo_inurba_marseille","lat":43.23787,"lon":5.36637,"is_reserved":false,"is_disabled":false,"rental_uris":{"android":"levelo://app?vid=19d804f8-e022-4728-979b-c94761dfb083","ios":"levelo://app?vid=19d804f8-e022-4728-979b-c94761dfb083"},"vehicle_type_id":"4","last_reported":1775043753,"current_range_meters":8400,"station_id":"st_d3nk18o9ro0c73en2l3g","pricing_plan_id":"cebpf4jnsgd1na2vs0mg"},{"bike_id":"9139abb1-4c46-4177-a461-e51c411e8289","system_id":"levelo_inurba_marseille","lat":43.24955,"lon":5.40494,"is_reserved":false,"is_disabled":false,"rental_uris":{"android":"levelo://app?vid=9139abb1-4c46-4177-a461-e51c411e8289","ios":"levelo://app?vid=9139abb1-4c46-4177-a461-e51c411e8289"},"vehicle_type_id":"4","last_reported":1775043753,"current_range_meters":8400,"station_id":"st_d2ngiaodas8pm72gd1h0","pricing_plan_id":"cebpf4jnsgd1na2vs0mg"},{"bike_id":"d5d3c35b-4420-4569-83eb-e2eef5fa6559","system_id":"levelo_inurba_marseille","lat":43.22561,"lon":5.4163,"is_reserved":false,"is_disabled":false,"rental_uris":{"android":"levelo://app?vid=d5d3c35b-4420-4569-83eb-e2eef5fa6559","ios":"levelo://app?vid=d5d3c35b-4420-4569-83eb-e2eef5fa6559"},"vehicle_type_id":"4","last_reported":1775043753,"current_range_meters":8400,"station_id":"st_d2o4gvlbi1j2169b742g","pricing_plan_id":"cebpf4jnsgd1na2vs0mg"},{"bike_id":"dfb8e7d1-0f05-4aa5-b223-3051cea400ea","system_id":"levelo_inurba_marseille","lat":43.2954,"lon":5.38553,"is_reserved":false,"is_disabled":false,"rental_uris":{"android":"levelo://app?vid=dfb8e7d1-0f05-4aa5-b223-3051cea400ea","ios":"levelo://app?vid=dfb8e7d1-0f05-4aa5-b223-3051cea400ea"},"vehicle_type_id":"4","last_reported":1775043753,"current_range_meters":8400,"station_id":"ce4bgih2rcd13ifvqba0","pricing_plan_id":"cebpf4jnsgd1na2vs0mg"},{"bike_id":"4a7848da-0238-4e80-97c3-8553a0c6d8f8","system_id":"levelo_inurba_marseille","lat":43.31688,"lon":5.40472,"is_reserved":false,"is_disabled":false,"rental_uris":{"android":"levelo://app?vid=4a7848da-0238-4e80-97c3-8553a0c6d8f8","ios":"levelo://app?vid=4a7848da-0238-4e80-97c3-8553a0c6d8f8"},"vehicle_type_id":"4","last_reported":1775043753,"current_range_meters":8400,"station_id":"ce4bh012rcd13ifvqd00","pricing_plan_id":"cebpf4jnsgd1na2vs0mg"},{"bike_id":"e125ec2c-c1f3-4f98-8302-6b86870eed3b","system_id":"levelo_inurba_marseille","lat":43.28637,"lon":5.3507,"is_reserved":false,"is_disabled":false,"rental_uris":{"android":"levelo://app?vid=e125ec2c-c1f3-4f98-8302-6b86870eed3b","ios":"levelo://app?vid=e125ec2c-c1f3-4f98-8302-6b86870eed3b"},"vehicle_type_id":"4","last_reported":1775043753,"current_range_meters":8400,"station_id":"ce4bhch2rcd13ifvqeug","pricing_plan_id":"cebpf4jnsgd1na2vs0mg"},{"bike_id":"a17dbbf9-2919-4aa7-a6bc-4d101b9dc30c","system_id":"levelo_inurba_marseille","lat":43.27532,"lon":5.40935,"is_reserved":false,"is_disabled":false,"rental_uris":{"android":"levelo://app?vid=a17dbbf9-2919-4aa7-a6bc-4d101b9dc30c","ios":"levelo://app?vid=a17dbbf9-2919-4aa7-a6bc-4d101b9dc30c"},"vehicle_type_id":"4","last_reported":1775043753,"current_range_meters":8400,"station_id":"","pricing_plan_id":"cebpf4jnsgd1na2vs0mg"},{"bike_id":"eb5ca31c-0cdd-4bd2-8ca1-4274e92c10bb","system_id":"levelo_inurba_marseille","lat":43.24185,"lon":5.39725,"is_reserved":false,"is_disabled":false,"rental_uris":{"android":"levelo://app?vid=eb5ca31c-0cdd-4bd2-8ca1-4274e92c10bb","ios":"levelo://app?vid=eb5ca31c-0cdd-4bd2-8ca1-4274e92c10bb"},"vehicle_type_id":"4","last_reported":1775043753,"current_range_meters":8400,"station_id":"ce4bhn12rcd13ifvqgpg","pricing_plan_id":"cebpf4jnsgd1na2vs0mg"},{"bike_id":"052f68eb-b3d2-4c29-a99d-37f9d3e34be6","system_id":"levelo_inurba_marseille","lat":43.24882,"lon":5.42629,"is_reserved":false,"is_disabled":false,"rental_uris":{"android":"levelo://app?vid=052f68eb-b3d2-4c29-a99d-37f9d3e34be6","ios":"levelo://app?vid=052f68eb-b3d2-4c29-a99d-37f9d3e34be6"},"vehicle_type_id":"4","last_reported":1775043753,"current_range_meters":8400,"station_id":"","pricing_plan_id":"cebpf4jnsgd1na2vs0mg"},{"bike_id":"781ce17c-2c8d-4171-9586-4c587f2fe3b9","system_id":"levelo_inurba_marseille","lat":43.28628,"lon":5.3506,"is_reserved":false,"is_disabled":false,"rental_uris":{"android":"levelo://app?vid=781ce17c-2c8d-4171-9586-4c587f2fe3b9","ios":"levelo://app?vid=781ce17c-2c8d-4171-9586-4c587f2fe3b9"},"vehicle_type_id":"4","last_reported":1775043753,"current_range_meters":8400,"station_id":"ce4bhch2rcd13ifvqeug","pricing_plan_id":"cebpf4jnsgd1na2vs0mg"},{"bike_id":"c1c3dbf1-4485-4a01-8aaf-18dfb1d75132","system_id":"levelo_inurba_marseille","lat":43.335418,"lon":5.374728,"is_reserved":false,"is_disabled":false,"rental_uris":{"android":"levelo://app?vid=c1c3dbf1-4485-4a01-8aaf-18dfb1d75132","ios":"levelo://app?vid=c1c3dbf1-4485-4a01-8aaf-18dfb1d75132"},"vehicle_type_id":"4","last_reported":1775043753,"current_range_meters":8400,"station_id":"st_d46tts09ee8s73dlu43g","pricing_plan_id":"cebpf4jnsgd1na2vs0mg"},{"bike_id":"6a5ff4a3-857d-4b5b-9a0e-b97eb89025bb","system_id":"levelo_inurba_marseille","lat":43.31348,"lon":5.36725,"is_reserved":false,"is_disabled":false,"rental_uris":{"android":"levelo://app?vid=6a5ff4a3-857d-4b5b-9a0e-b97eb89025bb","ios":"levelo://app?vid=6a5ff4a3-857d-4b5b-9a0e-b97eb89025bb"},"vehicle_type_id":"4","last_reported":1775043753,"current_range_meters":8400,"station_id":"ce4bgr92rcd13ifvqc6g","pricing_plan_id":"cebpf4jnsgd1na2vs0mg"},{"bike_id":"32ce32e5-a75e-4d33-a6a0-ddb258c2dd86","system_id":"levelo_inurba_marseille","lat":43.23908,"lon":5.37458,"is_reserved":false,"is_disabled":false,"rental_uris":{"android":"levelo://app?vid=32ce32e5-a75e-4d33-a6a0-ddb258c2dd86","ios":"levelo://app?vid=32ce32e5-a75e-4d33-a6a0-ddb258c2dd86"},"vehicle_type_id":"4","last_reported":1775043753,"current_range_meters":8400,"station_id":"st_d6sm7csbq4hs73f8fpjg","pricing_plan_id":"cebpf4jnsgd1na2vs0mg"},{"bike_id":"78151f0b-d096-4bc8-9d04-f28fec21246f","system_id":"levelo_inurba_marseille","lat":43.23189,"lon":5.39975,"is_reserved":false,"is_disabled":false,"rental_uris":{"android":"levelo://app?vid=78151f0b-d096-4bc8-9d04-f28fec21246f","ios":"levelo://app?vid=78151f0b-d096-4bc8-9d04-f28fec21246f"},"vehicle_type_id":"4","last_reported":1775043753,"current_range_meters":8800,"station_id":"ce4bhn12rcd13ifvqgqg","pricing_plan_id":"cebpf4jnsgd1na2vs0mg"},{"bike_id":"6beecd9d-c866-45e2-9c51-de9da3a2a002","system_id":"levelo_inurba_marseille","lat":43.29788,"lon":5.3809,"is_reserved":false,"is_disabled":false,"rental_uris":{"android":"levelo://app?vid=6beecd9d-c866-45e2-9c51-de9da3a2a002","ios":"levelo://app?vid=6beecd9d-c866-45e2-9c51-de9da3a2a002"},"vehicle_type_id":"4","last_reported":1775043753,"current_range_meters":8800,"station_id":"ce4bgip2rcd13ifvqbb0","pricing_plan_id":"cebpf4jnsgd1na2vs0mg"},{"bike_id":"62bf82c9-a7d6-485f-b660-bbbb2d4f54e9","system_id":"levelo_inurba_marseille","lat":43.2439,"lon":5.37046,"is_reserved":false,"is_disabled":false,"rental_uris":{"android":"levelo://app?vid=62bf82c9-a7d6-485f-b660-bbbb2d4f54e9","ios":"levelo://app?vid=62bf82c9-a7d6-485f-b660-bbbb2d4f54e9"},"vehicle_type_id":"4","last_reported":1775043753,"current_range_meters":8800,"station_id":"ce4bhhh2rcd13ifvqfk0","pricing_plan_id":"cebpf4jnsgd1na2vs0mg"},{"bike_id":"de3bdf23-33b1-4bf8-b651-d6927f99d5de","system_id":"levelo_inurba_marseille","lat":43.284087,"lon":5.349858,"is_reserved":false,"is_disabled":true,"rental_uris":{"android":"levelo://app?vid=de3bdf23-33b1-4bf8-b651-d6927f99d5de","ios":"levelo://app?vid=de3bdf23-33b1-4bf8-b651-d6927f99d5de"},"vehicle_type_id":"4","last_reported":1775043753,"current_range_meters":8800,"station_id":"ce4bhbh2rcd13ifvqepg","pricing_plan_id":"cebpf4jnsgd1na2vs0mg"},{"bike_id":"b9a2dc0a-a78c-4ec1-b214-1ebc47ea2ab0","system_id":"levelo_inurba_marseille","lat":43.22548,"lon":5.41646,"is_reserved":false,"is_disabled":false,"rental_uris":{"android":"levelo://app?vid=b9a2dc0a-a78c-4ec1-b214-1ebc47ea2ab0","ios":"levelo://app?vid=b9a2dc0a-a78c-4ec1-b214-1ebc47ea2ab0"},"vehicle_type_id":"4","last_reported":1775043753,"current_range_meters":8800,"station_id":"st_d2o4gvlbi1j2169b742g","pricing_plan_id":"cebpf4jnsgd1na2vs0mg"},{"bike_id":"6aee172d-0522-4ca5-bf94-26ba71758890","system_id":"levelo_inurba_marseille","lat":43.30927,"lon":5.41602,"is_reserved":false,"is_disabled":false,"rental_uris":{"android":"levelo://app?vid=6aee172d-0522-4ca5-bf94-26ba71758890","ios":"levelo://app?vid=6aee172d-0522-4ca5-bf94-26ba71758890"},"vehicle_type_id":"4","last_reported":1775043753,"current_range_meters":8800,"station_id":"","pricing_plan_id":"cebpf4jnsgd1na2vs0mg"},{"bike_id":"11d19dab-7798-472d-a3cd-c1ff1cf623a6","system_id":"levelo_inurba_marseille","lat":43.25033,"lon":5.38911,"is_reserved":false,"is_disabled":false,"rental_uris":{"android":"levelo://app?vid=11d19dab-7798-472d-a3cd-c1ff1cf623a6","ios":"levelo://app?vid=11d19dab-7798-472d-a3cd-c1ff1cf623a6"},"vehicle_type_id":"4","last_reported":1775043753,"current_range_meters":8800,"station_id":"ce4bhgp2rcd13ifvqfd0","pricing_plan_id":"cebpf4jnsgd1na2vs0mg"},{"bike_id":"e8023341-a62a-4136-b4dc-28e9b6f64e6b","system_id":"levelo_inurba_marseille","lat":43.29806,"lon":5.38112,"is_reserved":false,"is_disabled":false,"rental_uris":{"android":"levelo://app?vid=e8023341-a62a-4136-b4dc-28e9b6f64e6b","ios":"levelo://app?vid=e8023341-a62a-4136-b4dc-28e9b6f64e6b"},"vehicle_type_id":"4","last_reported":1775043753,"current_range_meters":8800,"station_id":"ce4bgip2rcd13ifvqbb0","pricing_plan_id":"cebpf4jnsgd1na2vs0mg"},{"bike_id":"bcbaa067-4c07-4344-83b9-a285410d555f","system_id":"levelo_inurba_marseille","lat":43.2828,"lon":5.35065,"is_reserved":false,"is_disabled":false,"rental_uris":{"android":"levelo://app?vid=bcbaa067-4c07-4344-83b9-a285410d555f","ios":"levelo://app?vid=bcbaa067-4c07-4344-83b9-a285410d555f"},"vehicle_type_id":"4","last_reported":1775043753,"current_range_meters":8800,"station_id":"ce4bhbp2rcd13ifvqerg","pricing_plan_id":"cebpf4jnsgd1na2vs0mg"},{"bike_id":"b149b05d-17dc-4174-91fd-6a2d9bb13c8f","system_id":"levelo_inurba_marseille","lat":43.31658,"lon":5.38133,"is_reserved":false,"is_disabled":false,"rental_uris":{"android":"levelo://app?vid=b149b05d-17dc-4174-91fd-6a2d9bb13c8f","ios":"levelo://app?vid=b149b05d-17dc-4174-91fd-6a2d9bb13c8f"},"vehicle_type_id":"4","last_reported":1775043753,"current_range_meters":8800,"station_id":"","pricing_plan_id":"cebpf4jnsgd1na2vs0mg"},{"bike_id":"28902c85-2ce9-4ec9-adfe-51cf4064fa09","system_id":"levelo_inurba_marseille","lat":43.28447,"lon":5.39206,"is_reserved":false,"is_disabled":true,"rental_uris":{"android":"levelo://app?vid=28902c85-2ce9-4ec9-adfe-51cf4064fa09","ios":"levelo://app?vid=28902c85-2ce9-4ec9-adfe-51cf4064fa09"},"vehicle_type_id":"4","last_reported":1775043753,"current_range_meters":8800,"station_id":"ce4bhoh2rcd13ifvqh5g","pricing_plan_id":"cebpf4jnsgd1na2vs0mg"},{"bike_id":"52b51d26-cc34-4127-a949-7cf526499d61","system_id":"levelo_inurba_marseille","lat":43.29634,"lon":5.3714,"is_reserved":false,"is_disabled":false,"rental_uris":{"android":"levelo://app?vid=52b51d26-cc34-4127-a949-7cf526499d61","ios":"levelo://app?vid=52b51d26-cc34-4127-a949-7cf526499d61"},"vehicle_type_id":"4","last_reported":1775043753,"current_range_meters":8800,"station_id":"ce4bgnh2rcd13ifvqc0g","pricing_plan_id":"cebpf4jnsgd1na2vs0mg"},{"bike_id":"17b8fc26-3ba8-4cf9-a457-0b2cc0ec871e","system_id":"levelo_inurba_marseille","lat":43.27483,"lon":5.41692,"is_reserved":false,"is_disabled":false,"rental_uris":{"android":"levelo://app?vid=17b8fc26-3ba8-4cf9-a457-0b2cc0ec871e","ios":"levelo://app?vid=17b8fc26-3ba8-4cf9-a457-0b2cc0ec871e"},"vehicle_type_id":"4","last_reported":1775043753,"current_range_meters":8800,"station_id":"","pricing_plan_id":"cebpf4jnsgd1na2vs0mg"},{"bike_id":"c333c2f7-2999-43ce-bdaf-ffb098139a66","system_id":"levelo_inurba_marseille","lat":43.22909,"lon":5.3541,"is_reserved":false,"is_disabled":false,"rental_uris":{"android":"levelo://app?vid=c333c2f7-2999-43ce-bdaf-ffb098139a66","ios":"levelo://app?vid=c333c2f7-2999-43ce-bdaf-ffb098139a66"},"vehicle_type_id":"4","last_reported":1775043753,"current_range_meters":8800,"station_id":"cpo3532slgdg3j2ikp40","pricing_plan_id":"cebpf4jnsgd1na2vs0mg"},{"bike_id":"e9b3f906-3c96-41d2-bde3-70019147dd95","system_id":"levelo_inurba_marseille","lat":43.22561,"lon":5.41642,"is_reserved":false,"is_disabled":false,"rental_uris":{"android":"levelo://app?vid=e9b3f906-3c96-41d2-bde3-70019147dd95","ios":"levelo://app?vid=e9b3f906-3c96-41d2-bde3-70019147dd95"},"vehicle_type_id":"4","last_reported":1775043753,"current_range_meters":8800,"station_id":"st_d2o4gvlbi1j2169b742g","pricing_plan_id":"cebpf4jnsgd1na2vs0mg"},{"bike_id":"2be64f19-432b-4d07-98a7-6e9bfd23e981","system_id":"levelo_inurba_marseille","lat":43.29782,"lon":5.42778,"is_reserved":false,"is_disabled":false,"rental_uris":{"android":"levelo://app?vid=2be64f19-432b-4d07-98a7-6e9bfd23e981","ios":"levelo://app?vid=2be64f19-432b-4d07-98a7-6e9bfd23e981"},"vehicle_type_id":"4","last_reported":1775043753,"current_range_meters":8800,"station_id":"st_d3md5207bmas73dh9klg","pricing_plan_id":"cebpf4jnsgd1na2vs0mg"},{"bike_id":"b8acc31c-8e82-4e01-a84e-0ccdc5227b32","system_id":"levelo_inurba_marseille","lat":43.31342,"lon":5.36712,"is_reserved":false,"is_disabled":false,"rental_uris":{"android":"levelo://app?vid=b8acc31c-8e82-4e01-a84e-0ccdc5227b32","ios":"levelo://app?vid=b8acc31c-8e82-4e01-a84e-0ccdc5227b32"},"vehicle_type_id":"4","last_reported":1775043753,"current_range_meters":8800,"station_id":"ce4bgr92rcd13ifvqc6g","pricing_plan_id":"cebpf4jnsgd1na2vs0mg"},{"bike_id":"a03b38c3-0cbd-4143-b398-c981b6d41a75","system_id":"levelo_inurba_marseille","lat":43.24402,"lon":5.37065,"is_reserved":false,"is_disabled":false,"rental_uris":{"android":"levelo://app?vid=a03b38c3-0cbd-4143-b398-c981b6d41a75","ios":"levelo://app?vid=a03b38c3-0cbd-4143-b398-c981b6d41a75"},"vehicle_type_id":"4","last_reported":1775043753,"current_range_meters":8800,"station_id":"ce4bhhh2rcd13ifvqfk0","pricing_plan_id":"cebpf4jnsgd1na2vs0mg"},{"bike_id":"0206ffc5-0182-40fd-8d99-4000e06086be","system_id":"levelo_inurba_marseille","lat":43.29524,"lon":5.38649,"is_reserved":false,"is_disabled":true,"rental_uris":{"android":"levelo://app?vid=0206ffc5-0182-40fd-8d99-4000e06086be","ios":"levelo://app?vid=0206ffc5-0182-40fd-8d99-4000e06086be"},"vehicle_type_id":"4","last_reported":1775043753,"current_range_meters":8800,"station_id":"","pricing_plan_id":"cebpf4jnsgd1na2vs0mg"},{"bike_id":"ab6820b4-6048-4ca4-901f-80cf07b1fc94","system_id":"levelo_inurba_marseille","lat":43.30296,"lon":5.3921,"is_reserved":false,"is_disabled":false,"rental_uris":{"android":"levelo://app?vid=ab6820b4-6048-4ca4-901f-80cf07b1fc94","ios":"levelo://app?vid=ab6820b4-6048-4ca4-901f-80cf07b1fc94"},"vehicle_type_id":"4","last_reported":1775043753,"current_range_meters":8800,"station_id":"ce4bgkh2rcd13ifvqbk0","pricing_plan_id":"cebpf4jnsgd1na2vs0mg"},{"bike_id":"8db50176-958b-458b-8131-d50d72167fe7","system_id":"levelo_inurba_marseille","lat":43.23911,"lon":5.3745,"is_reserved":false,"is_disabled":false,"rental_uris":{"android":"levelo://app?vid=8db50176-958b-458b-8131-d50d72167fe7","ios":"levelo://app?vid=8db50176-958b-458b-8131-d50d72167fe7"},"vehicle_type_id":"4","last_reported":1775043753,"current_range_meters":8800,"station_id":"st_d6sm7csbq4hs73f8fpjg","pricing_plan_id":"cebpf4jnsgd1na2vs0mg"},{"bike_id":"3384887c-08f0-4d50-8dbd-15e55466208d","system_id":"levelo_inurba_marseille","lat":43.31826,"lon":5.39021,"is_reserved":false,"is_disabled":false,"rental_uris":{"android":"levelo://app?vid=3384887c-08f0-4d50-8dbd-15e55466208d","ios":"levelo://app?vid=3384887c-08f0-4d50-8dbd-15e55466208d"},"vehicle_type_id":"4","last_reported":1775043753,"current_range_meters":8800,"station_id":"","pricing_plan_id":"cebpf4jnsgd1na2vs0mg"},{"bike_id":"6fadbbb9-4da1-42ad-ae40-f28f6580c112","system_id":"levelo_inurba_marseille","lat":43.30191,"lon":5.36618,"is_reserved":false,"is_disabled":false,"rental_uris":{"android":"levelo://app?vid=6fadbbb9-4da1-42ad-ae40-f28f6580c112","ios":"levelo://app?vid=6fadbbb9-4da1-42ad-ae40-f28f6580c112"},"vehicle_type_id":"4","last_reported":1775043753,"current_range_meters":8800,"station_id":"ce4bgrh2rcd13ifvqc8g","pricing_plan_id":"cebpf4jnsgd1na2vs0mg"},{"bike_id":"76b10d22-743e-445f-b0b5-60315e4670d4","system_id":"levelo_inurba_marseille","lat":43.30549,"lon":5.36517,"is_reserved":false,"is_disabled":false,"rental_uris":{"android":"levelo://app?vid=76b10d22-743e-445f-b0b5-60315e4670d4","ios":"levelo://app?vid=76b10d22-743e-445f-b0b5-60315e4670d4"},"vehicle_type_id":"4","last_reported":1775043753,"current_range_meters":8800,"station_id":"ce4bgs12rcd13ifvqcag","pricing_plan_id":"cebpf4jnsgd1na2vs0mg"},{"bike_id":"cce71867-af00-4efb-acca-1ad994ce58c1","system_id":"levelo_inurba_marseille","lat":43.33162,"lon":5.37692,"is_reserved":false,"is_disabled":false,"rental_uris":{"android":"levelo://app?vid=cce71867-af00-4efb-acca-1ad994ce58c1","ios":"levelo://app?vid=cce71867-af00-4efb-acca-1ad994ce58c1"},