{"last_updated":1759122617,"ttl":60,"version":"2.2","data":{"bikes":[{"bike_id":"526ff56e-4133-4e6a-ab7c-157894ef219a","system_id":"levelo_inurba_marseille","lat":43.21193,"lon":5.35088,"is_reserved":false,"is_disabled":true,"rental_uris":{"android":"levelo://app?vid=526ff56e-4133-4e6a-ab7c-157894ef219a","ios":"levelo://app?vid=526ff56e-4133-4e6a-ab7c-157894ef219a"},"vehicle_type_id":"4","last_reported":1759122617,"current_range_meters":2800,"station_id":"st_cvj6sg6p6f1abm77japg","pricing_plan_id":"cebpf4jnsgd1na2vs0mg"},{"bike_id":"aaea33e7-1c45-4329-a89d-2cf308055113","system_id":"levelo_inurba_marseille","lat":43.257218,"lon":5.411049,"is_reserved":false,"is_disabled":false,"rental_uris":{"android":"levelo://app?vid=aaea33e7-1c45-4329-a89d-2cf308055113","ios":"levelo://app?vid=aaea33e7-1c45-4329-a89d-2cf308055113"},"vehicle_type_id":"4","last_reported":1759122617,"current_range_meters":2800,"station_id":"","pricing_plan_id":"cebpf4jnsgd1na2vs0mg"},{"bike_id":"fbef676b-8f42-450e-b448-da45ad596c28","system_id":"levelo_inurba_marseille","lat":43.28378,"lon":5.3632,"is_reserved":false,"is_disabled":false,"rental_uris":{"android":"levelo://app?vid=fbef676b-8f42-450e-b448-da45ad596c28","ios":"levelo://app?vid=fbef676b-8f42-450e-b448-da45ad596c28"},"vehicle_type_id":"4","last_reported":1759122617,"current_range_meters":3200,"station_id":"","pricing_plan_id":"cebpf4jnsgd1na2vs0mg"},{"bike_id":"9bb4db31-0bf9-4171-bca1-76cb045f53a3","system_id":"levelo_inurba_marseille","lat":43.26924,"lon":5.389081,"is_reserved":false,"is_disabled":true,"rental_uris":{"android":"levelo://app?vid=9bb4db31-0bf9-4171-bca1-76cb045f53a3","ios":"levelo://app?vid=9bb4db31-0bf9-4171-bca1-76cb045f53a3"},"vehicle_type_id":"4","last_reported":1759122617,"current_range_meters":3600,"station_id":"ce4bhhh2rcd13ifvqfl0","pricing_plan_id":"cebpf4jnsgd1na2vs0mg"},{"bike_id":"9a819dc8-447d-4df7-8b5f-0b18332a26a7","system_id":"levelo_inurba_marseille","lat":43.32948,"lon":5.3757,"is_reserved":false,"is_disabled":true,"rental_uris":{"android":"levelo://app?vid=9a819dc8-447d-4df7-8b5f-0b18332a26a7","ios":"levelo://app?vid=9a819dc8-447d-4df7-8b5f-0b18332a26a7"},"vehicle_type_id":"4","last_reported":1759122617,"current_range_meters":3600,"station_id":"","pricing_plan_id":"cebpf4jnsgd1na2vs0mg"},{"bike_id":"28072a77-eefd-4cfa-bd68-7696e02f507d","system_id":"levelo_inurba_marseille","lat":43.32437,"lon":5.36871,"is_reserved":false,"is_disabled":false,"rental_uris":{"android":"levelo://app?vid=28072a77-eefd-4cfa-bd68-7696e02f507d","ios":"levelo://app?vid=28072a77-eefd-4cfa-bd68-7696e02f507d"},"vehicle_type_id":"4","last_reported":1759122617,"current_range_meters":4000,"station_id":"","pricing_plan_id":"cebpf4jnsgd1na2vs0mg"},{"bike_id":"01bf55f2-4ac6-46f6-8504-3267bf31e1a6","system_id":"levelo_inurba_marseille","lat":43.2973,"lon":5.381787,"is_reserved":false,"is_disabled":false,"rental_uris":{"android":"levelo://app?vid=01bf55f2-4ac6-46f6-8504-3267bf31e1a6","ios":"levelo://app?vid=01bf55f2-4ac6-46f6-8504-3267bf31e1a6"},"vehicle_type_id":"4","last_reported":1759122617,"current_range_meters":4000,"station_id":"","pricing_plan_id":"cebpf4jnsgd1na2vs0mg"},{"bike_id":"588bb5c6-d90f-4edd-b1de-2d2164a39c00","system_id":"levelo_inurba_marseille","lat":43.32913,"lon":5.39078,"is_reserved":false,"is_disabled":true,"rental_uris":{"android":"levelo://app?vid=588bb5c6-d90f-4edd-b1de-2d2164a39c00","ios":"levelo://app?vid=588bb5c6-d90f-4edd-b1de-2d2164a39c00"},"vehicle_type_id":"4","last_reported":1759122617,"current_range_meters":4400,"station_id":"","pricing_plan_id":"cebpf4jnsgd1na2vs0mg"},{"bike_id":"934ea1ec-b7f6-49a1-9efa-287317d4eb22","system_id":"levelo_inurba_marseille","lat":43.29048,"lon":5.35914,"is_reserved":false,"is_disabled":false,"rental_uris":{"android":"levelo://app?vid=934ea1ec-b7f6-49a1-9efa-287317d4eb22","ios":"levelo://app?vid=934ea1ec-b7f6-49a1-9efa-287317d4eb22"},"vehicle_type_id":"4","last_reported":1759122617,"current_range_meters":4800,"station_id":"","pricing_plan_id":"cebpf4jnsgd1na2vs0mg"},{"bike_id":"885d1f53-a034-4cd4-a3e0-b6f0951f5487","system_id":"levelo_inurba_marseille","lat":43.27055,"lon":5.40258,"is_reserved":false,"is_disabled":false,"rental_uris":{"android":"levelo://app?vid=885d1f53-a034-4cd4-a3e0-b6f0951f5487","ios":"levelo://app?vid=885d1f53-a034-4cd4-a3e0-b6f0951f5487"},"vehicle_type_id":"4","last_reported":1759122617,"current_range_meters":4800,"station_id":"ce4bhk92rcd13ifvqgc0","pricing_plan_id":"cebpf4jnsgd1na2vs0mg"},{"bike_id":"1cda9ce5-0ae6-414a-9759-0978b2bc1f8b","system_id":"levelo_inurba_marseille","lat":43.25116,"lon":5.40322,"is_reserved":false,"is_disabled":true,"rental_uris":{"android":"levelo://app?vid=1cda9ce5-0ae6-414a-9759-0978b2bc1f8b","ios":"levelo://app?vid=1cda9ce5-0ae6-414a-9759-0978b2bc1f8b"},"vehicle_type_id":"4","last_reported":1759122617,"current_range_meters":4800,"station_id":"ce4bhlh2rcd13ifvqgig","pricing_plan_id":"cebpf4jnsgd1na2vs0mg"},{"bike_id":"4431cbb7-14bd-49b3-b2b3-a9c49182888a","system_id":"levelo_inurba_marseille","lat":43.29734,"lon":5.38039,"is_reserved":false,"is_disabled":false,"rental_uris":{"android":"levelo://app?vid=4431cbb7-14bd-49b3-b2b3-a9c49182888a","ios":"levelo://app?vid=4431cbb7-14bd-49b3-b2b3-a9c49182888a"},"vehicle_type_id":"4","last_reported":1759122617,"current_range_meters":5600,"station_id":"","pricing_plan_id":"cebpf4jnsgd1na2vs0mg"},{"bike_id":"720623f7-9148-4a0e-ade4-a205c6fa44f0","system_id":"levelo_inurba_marseille","lat":43.28981,"lon":5.42919,"is_reserved":false,"is_disabled":false,"rental_uris":{"android":"levelo://app?vid=720623f7-9148-4a0e-ade4-a205c6fa44f0","ios":"levelo://app?vid=720623f7-9148-4a0e-ade4-a205c6fa44f0"},"vehicle_type_id":"4","last_reported":1759122617,"current_range_meters":6400,"station_id":"","pricing_plan_id":"cebpf4jnsgd1na2vs0mg"},{"bike_id":"3fd7c937-a838-4d6f-932e-9e3bccbc6d3b","system_id":"levelo_inurba_marseille","lat":43.29921,"lon":5.38223,"is_reserved":false,"is_disabled":false,"rental_uris":{"android":"levelo://app?vid=3fd7c937-a838-4d6f-932e-9e3bccbc6d3b","ios":"levelo://app?vid=3fd7c937-a838-4d6f-932e-9e3bccbc6d3b"},"vehicle_type_id":"4","last_reported":1759122617,"current_range_meters":6400,"station_id":"","pricing_plan_id":"cebpf4jnsgd1na2vs0mg"},{"bike_id":"0b10856b-3dad-4052-bc3a-2c17e6f16e23","system_id":"levelo_inurba_marseille","lat":43.27558,"lon":5.384,"is_reserved":false,"is_disabled":true,"rental_uris":{"android":"levelo://app?vid=0b10856b-3dad-4052-bc3a-2c17e6f16e23","ios":"levelo://app?vid=0b10856b-3dad-4052-bc3a-2c17e6f16e23"},"vehicle_type_id":"4","last_reported":1759122617,"current_range_meters":6800,"station_id":"ce4bhh92rcd13ifvqfi0","pricing_plan_id":"cebpf4jnsgd1na2vs0mg"},{"bike_id":"dc4883ea-8f06-44d1-8b3d-6660e39a87ec","system_id":"levelo_inurba_marseille","lat":43.229279,"lon":5.353733,"is_reserved":false,"is_disabled":true,"rental_uris":{"android":"levelo://app?vid=dc4883ea-8f06-44d1-8b3d-6660e39a87ec","ios":"levelo://app?vid=dc4883ea-8f06-44d1-8b3d-6660e39a87ec"},"vehicle_type_id":"4","last_reported":1759122617,"current_range_meters":6800,"station_id":"cpo3532slgdg3j2ikp40","pricing_plan_id":"cebpf4jnsgd1na2vs0mg"},{"bike_id":"f2fd2284-837d-45c8-8a92-163c2aa30979","system_id":"levelo_inurba_marseille","lat":43.269394,"lon":5.389303,"is_reserved":false,"is_disabled":true,"rental_uris":{"android":"levelo://app?vid=f2fd2284-837d-45c8-8a92-163c2aa30979","ios":"levelo://app?vid=f2fd2284-837d-45c8-8a92-163c2aa30979"},"vehicle_type_id":"4","last_reported":1759122617,"current_range_meters":6800,"station_id":"ce4bhhh2rcd13ifvqfl0","pricing_plan_id":"cebpf4jnsgd1na2vs0mg"},{"bike_id":"579526e6-1a96-4dcb-9bab-181bf678c4cb","system_id":"levelo_inurba_marseille","lat":43.241743,"lon":5.397269,"is_reserved":false,"is_disabled":true,"rental_uris":{"android":"levelo://app?vid=579526e6-1a96-4dcb-9bab-181bf678c4cb","ios":"levelo://app?vid=579526e6-1a96-4dcb-9bab-181bf678c4cb"},"vehicle_type_id":"4","last_reported":1759122617,"current_range_meters":6800,"station_id":"ce4bhn12rcd13ifvqgpg","pricing_plan_id":"cebpf4jnsgd1na2vs0mg"},{"bike_id":"695662ab-65fe-4c59-81b6-3dceb9f5066d","system_id":"levelo_inurba_marseille","lat":43.255788,"lon":5.382218,"is_reserved":false,"is_disabled":true,"rental_uris":{"android":"levelo://app?vid=695662ab-65fe-4c59-81b6-3dceb9f5066d","ios":"levelo://app?vid=695662ab-65fe-4c59-81b6-3dceb9f5066d"},"vehicle_type_id":"4","last_reported":1759122617,"current_range_meters":6800,"station_id":"ce4bhih2rcd13ifvqfs0","pricing_plan_id":"cebpf4jnsgd1na2vs0mg"},{"bike_id":"5365e873-98ea-45e2-9689-7e119051f22e","system_id":"levelo_inurba_marseille","lat":43.33107,"lon":5.35518,"is_reserved":false,"is_disabled":true,"rental_uris":{"android":"levelo://app?vid=5365e873-98ea-45e2-9689-7e119051f22e","ios":"levelo://app?vid=5365e873-98ea-45e2-9689-7e119051f22e"},"vehicle_type_id":"4","last_reported":1759122617,"current_range_meters":7200,"station_id":"","pricing_plan_id":"cebpf4jnsgd1na2vs0mg"},{"bike_id":"73b3665a-57bf-434c-89c5-90454bbc00d6","system_id":"levelo_inurba_marseille","lat":43.313241,"lon":5.397093,"is_reserved":false,"is_disabled":true,"rental_uris":{"android":"levelo://app?vid=73b3665a-57bf-434c-89c5-90454bbc00d6","ios":"levelo://app?vid=73b3665a-57bf-434c-89c5-90454bbc00d6"},"vehicle_type_id":"4","last_reported":1759122617,"current_range_meters":7200,"station_id":"ce4bgvp2rcd13ifvqcu0","pricing_plan_id":"cebpf4jnsgd1na2vs0mg"},{"bike_id":"ca6f8574-d4f3-418f-bcf3-31fa6bb405ad","system_id":"levelo_inurba_marseille","lat":43.29037,"lon":5.39958,"is_reserved":false,"is_disabled":false,"rental_uris":{"android":"levelo://app?vid=ca6f8574-d4f3-418f-bcf3-31fa6bb405ad","ios":"levelo://app?vid=ca6f8574-d4f3-418f-bcf3-31fa6bb405ad"},"vehicle_type_id":"4","last_reported":1759122617,"current_range_meters":7200,"station_id":"ce4bh392rcd13ifvqdm0","pricing_plan_id":"cebpf4jnsgd1na2vs0mg"},{"bike_id":"846b9ad1-a37c-4e96-83a1-cfe56d80f0d2","system_id":"levelo_inurba_marseille","lat":43.26264,"lon":5.39871,"is_reserved":false,"is_disabled":false,"rental_uris":{"android":"levelo://app?vid=846b9ad1-a37c-4e96-83a1-cfe56d80f0d2","ios":"levelo://app?vid=846b9ad1-a37c-4e96-83a1-cfe56d80f0d2"},"vehicle_type_id":"4","last_reported":1759122617,"current_range_meters":7200,"station_id":"","pricing_plan_id":"cebpf4jnsgd1na2vs0mg"},{"bike_id":"5ef3ee68-8154-4aee-bf86-06bab4b07ce2","system_id":"levelo_inurba_marseille","lat":43.23197,"lon":5.39992,"is_reserved":false,"is_disabled":false,"rental_uris":{"android":"levelo://app?vid=5ef3ee68-8154-4aee-bf86-06bab4b07ce2","ios":"levelo://app?vid=5ef3ee68-8154-4aee-bf86-06bab4b07ce2"},"vehicle_type_id":"4","last_reported":1759122617,"current_range_meters":8000,"station_id":"ce4bhn12rcd13ifvqgqg","pricing_plan_id":"cebpf4jnsgd1na2vs0mg"},{"bike_id":"096c311a-e31f-4e60-ab8c-de0b76354103","system_id":"levelo_inurba_marseille","lat":43.27174,"lon":5.410015,"is_reserved":false,"is_disabled":true,"rental_uris":{"android":"levelo://app?vid=096c311a-e31f-4e60-ab8c-de0b76354103","ios":"levelo://app?vid=096c311a-e31f-4e60-ab8c-de0b76354103"},"vehicle_type_id":"4","last_reported":1759122617,"current_range_meters":8000,"station_id":"ce4bhl12rcd13ifvqgf0","pricing_plan_id":"cebpf4jnsgd1na2vs0mg"},{"bike_id":"6d98ab21-1faa-4b15-97b2-a1dd6f53a5a7","system_id":"levelo_inurba_marseille","lat":43.274304,"lon":5.393732,"is_reserved":false,"is_disabled":true,"rental_uris":{"android":"levelo://app?vid=6d98ab21-1faa-4b15-97b2-a1dd6f53a5a7","ios":"levelo://app?vid=6d98ab21-1faa-4b15-97b2-a1dd6f53a5a7"},"vehicle_type_id":"4","last_reported":1759122617,"current_range_meters":8400,"station_id":"ce4bhdp2rcd13ifvqf20","pricing_plan_id":"cebpf4jnsgd1na2vs0mg"},{"bike_id":"4c02c545-ad59-45b1-9b9c-d3678a5922c7","system_id":"levelo_inurba_marseille","lat":43.337444,"lon":5.374475,"is_reserved":false,"is_disabled":false,"rental_uris":{"android":"levelo://app?vid=4c02c545-ad59-45b1-9b9c-d3678a5922c7","ios":"levelo://app?vid=4c02c545-ad59-45b1-9b9c-d3678a5922c7"},"vehicle_type_id":"4","last_reported":1759122617,"current_range_meters":8400,"station_id":"","pricing_plan_id":"cebpf4jnsgd1na2vs0mg"},{"bike_id":"c097f066-7651-435e-913f-a8a7838aba88","system_id":"levelo_inurba_marseille","lat":43.33722,"lon":5.37459,"is_reserved":false,"is_disabled":false,"rental_uris":{"android":"levelo://app?vid=c097f066-7651-435e-913f-a8a7838aba88","ios":"levelo://app?vid=c097f066-7651-435e-913f-a8a7838aba88"},"vehicle_type_id":"4","last_reported":1759122617,"current_range_meters":8400,"station_id":"","pricing_plan_id":"cebpf4jnsgd1na2vs0mg"},{"bike_id":"03350417-1098-4d6c-b8fe-9e64358744bf","system_id":"levelo_inurba_marseille","lat":43.33283,"lon":5.41276,"is_reserved":false,"is_disabled":false,"rental_uris":{"android":"levelo://app?vid=03350417-1098-4d6c-b8fe-9e64358744bf","ios":"levelo://app?vid=03350417-1098-4d6c-b8fe-9e64358744bf"},"vehicle_type_id":"4","last_reported":1759122617,"current_range_meters":8400,"station_id":"","pricing_plan_id":"cebpf4jnsgd1na2vs0mg"},{"bike_id":"3576b24b-8131-49c4-b329-1375f3d497dc","system_id":"levelo_inurba_marseille","lat":43.252359,"lon":5.425335,"is_reserved":false,"is_disabled":false,"rental_uris":{"android":"levelo://app?vid=3576b24b-8131-49c4-b329-1375f3d497dc","ios":"levelo://app?vid=3576b24b-8131-49c4-b329-1375f3d497dc"},"vehicle_type_id":"4","last_reported":1759122617,"current_range_meters":8400,"station_id":"","pricing_plan_id":"cebpf4jnsgd1na2vs0mg"},{"bike_id":"590f31e4-ebd8-4faa-a422-a8404dc10f30","system_id":"levelo_inurba_marseille","lat":43.30926,"lon":5.40169,"is_reserved":false,"is_disabled":true,"rental_uris":{"android":"levelo://app?vid=590f31e4-ebd8-4faa-a422-a8404dc10f30","ios":"levelo://app?vid=590f31e4-ebd8-4faa-a422-a8404dc10f30"},"vehicle_type_id":"4","last_reported":1759122617,"current_range_meters":8800,"station_id":"ce4bgvp2rcd13ifvqct0","pricing_plan_id":"cebpf4jnsgd1na2vs0mg"},{"bike_id":"99f8e706-cfb0-4eb6-929e-527298f2a0db","system_id":"levelo_inurba_marseille","lat":43.283487,"lon":5.376533,"is_reserved":false,"is_disabled":false,"rental_uris":{"android":"levelo://app?vid=99f8e706-cfb0-4eb6-929e-527298f2a0db","ios":"levelo://app?vid=99f8e706-cfb0-4eb6-929e-527298f2a0db"},"vehicle_type_id":"4","last_reported":1759122617,"current_range_meters":8800,"station_id":"","pricing_plan_id":"cebpf4jnsgd1na2vs0mg"},{"bike_id":"d16f46f5-3d43-4933-b088-bc397093924a","system_id":"levelo_inurba_marseille","lat":43.29867,"lon":5.36294,"is_reserved":false,"is_disabled":true,"rental_uris":{"android":"levelo://app?vid=d16f46f5-3d43-4933-b088-bc397093924a","ios":"levelo://app?vid=d16f46f5-3d43-4933-b088-bc397093924a"},"vehicle_type_id":"4","last_reported":1759122617,"current_range_meters":8800,"station_id":"ce4bgpp2rcd13ifvqc3g","pricing_plan_id":"cebpf4jnsgd1na2vs0mg"},{"bike_id":"c9916796-5f07-4d22-aceb-87882fb08ac5","system_id":"levelo_inurba_marseille","lat":43.305886,"lon":5.365586,"is_reserved":false,"is_disabled":false,"rental_uris":{"android":"levelo://app?vid=c9916796-5f07-4d22-aceb-87882fb08ac5","ios":"levelo://app?vid=c9916796-5f07-4d22-aceb-87882fb08ac5"},"vehicle_type_id":"4","last_reported":1759122617,"current_range_meters":9200,"station_id":"ce4bgs12rcd13ifvqcag","pricing_plan_id":"cebpf4jnsgd1na2vs0mg"},{"bike_id":"c5041f5b-ccde-4c5e-b304-c4a9fac0aa0f","system_id":"levelo_inurba_marseille","lat":43.29629,"lon":5.40593,"is_reserved":false,"is_disabled":false,"rental_uris":{"android":"levelo://app?vid=c5041f5b-ccde-4c5e-b304-c4a9fac0aa0f","ios":"levelo://app?vid=c5041f5b-ccde-4c5e-b304-c4a9fac0aa0f"},"vehicle_type_id":"4","last_reported":1759122617,"current_range_meters":9200,"station_id":"ce4bh0h2rcd13ifvqd60","pricing_plan_id":"cebpf4jnsgd1na2vs0mg"},{"bike_id":"7ac81eae-aed2-4f3f-a100-b35f399befc9","system_id":"levelo_inurba_marseille","lat":43.251173,"lon":5.403175,"is_reserved":false,"is_disabled":true,"rental_uris":{"android":"levelo://app?vid=7ac81eae-aed2-4f3f-a100-b35f399befc9","ios":"levelo://app?vid=7ac81eae-aed2-4f3f-a100-b35f399befc9"},"vehicle_type_id":"4","last_reported":1759122617,"current_range_meters":9200,"station_id":"ce4bhlh2rcd13ifvqgig","pricing_plan_id":"cebpf4jnsgd1na2vs0mg"},{"bike_id":"ee96a502-9b76-492e-840a-498b02aefe72","system_id":"levelo_inurba_marseille","lat":43.32357,"lon":5.39211,"is_reserved":false,"is_disabled":false,"rental_uris":{"android":"levelo://app?vid=ee96a502-9b76-492e-840a-498b02aefe72","ios":"levelo://app?vid=ee96a502-9b76-492e-840a-498b02aefe72"},"vehicle_type_id":"4","last_reported":1759122617,"current_range_meters":9200,"station_id":"","pricing_plan_id":"cebpf4jnsgd1na2vs0mg"},{"bike_id":"710dfcf0-04c4-4704-89b7-56dbb8103e66","system_id":"levelo_inurba_marseille","lat":43.29043,"lon":5.37172,"is_reserved":false,"is_disabled":true,"rental_uris":{"android":"levelo://app?vid=710dfcf0-04c4-4704-89b7-56dbb8103e66","ios":"levelo://app?vid=710dfcf0-04c4-4704-89b7-56dbb8103e66"},"vehicle_type_id":"4","last_reported":1759122617,"current_range_meters":9200,"station_id":"ce4bh5p2rcd13ifvqe4g","pricing_plan_id":"cebpf4jnsgd1na2vs0mg"},{"bike_id":"f62fe733-90ac-444a-a20a-73d227678ff7","system_id":"levelo_inurba_marseille","lat":43.29608,"lon":5.37708,"is_reserved":false,"is_disabled":true,"rental_uris":{"android":"levelo://app?vid=f62fe733-90ac-444a-a20a-73d227678ff7","ios":"levelo://app?vid=f62fe733-90ac-444a-a20a-73d227678ff7"},"vehicle_type_id":"4","last_reported":1759122617,"current_range_meters":9600,"station_id":"ce4bgi92rcd13ifvqb90","pricing_plan_id":"cebpf4jnsgd1na2vs0mg"},{"bike_id":"95bafeb0-6c7b-407a-a73b-a6569ff5cb66","system_id":"levelo_inurba_marseille","lat":43.33768,"lon":5.37456,"is_reserved":false,"is_disabled":false,"rental_uris":{"android":"levelo://app?vid=95bafeb0-6c7b-407a-a73b-a6569ff5cb66","ios":"levelo://app?vid=95bafeb0-6c7b-407a-a73b-a6569ff5cb66"},"vehicle_type_id":"4","last_reported":1759122617,"current_range_meters":9600,"station_id":"","pricing_plan_id":"cebpf4jnsgd1na2vs0mg"},{"bike_id":"dafbf689-a513-42ec-9ec6-4abecd3bdf78","system_id":"levelo_inurba_marseille","lat":43.241815,"lon":5.397275,"is_reserved":false,"is_disabled":false,"rental_uris":{"android":"levelo://app?vid=dafbf689-a513-42ec-9ec6-4abecd3bdf78","ios":"levelo://app?vid=dafbf689-a513-42ec-9ec6-4abecd3bdf78"},"vehicle_type_id":"4","last_reported":1759122617,"current_range_meters":9600,"station_id":"ce4bhn12rcd13ifvqgpg","pricing_plan_id":"cebpf4jnsgd1na2vs0mg"},{"bike_id":"8360fe96-8a6b-4a67-9ba4-0ef948b002e1","system_id":"levelo_inurba_marseille","lat":43.25011,"lon":5.38918,"is_reserved":false,"is_disabled":true,"rental_uris":{"android":"levelo://app?vid=8360fe96-8a6b-4a67-9ba4-0ef948b002e1","ios":"levelo://app?vid=8360fe96-8a6b-4a67-9ba4-0ef948b002e1"},"vehicle_type_id":"4","last_reported":1759122617,"current_range_meters":9600,"station_id":"ce4bhgp2rcd13ifvqfd0","pricing_plan_id":"cebpf4jnsgd1na2vs0mg"},{"bike_id":"bec98639-155a-4932-bb04-4a0aa081e953","system_id":"levelo_inurba_marseille","lat":43.29001,"lon":5.35621,"is_reserved":false,"is_disabled":false,"rental_uris":{"android":"levelo://app?vid=bec98639-155a-4932-bb04-4a0aa081e953","ios":"levelo://app?vid=bec98639-155a-4932-bb04-4a0aa081e953"},"vehicle_type_id":"4","last_reported":1759122617,"current_range_meters":9600,"station_id":"ce4bhb92rcd13ifvqen0","pricing_plan_id":"cebpf4jnsgd1na2vs0mg"},{"bike_id":"a2a842f6-fc46-40d7-b7a6-d9d5a8c99dfa","system_id":"levelo_inurba_marseille","lat":43.319977,"lon":5.381422,"is_reserved":false,"is_disabled":true,"rental_uris":{"android":"levelo://app?vid=a2a842f6-fc46-40d7-b7a6-d9d5a8c99dfa","ios":"levelo://app?vid=a2a842f6-fc46-40d7-b7a6-d9d5a8c99dfa"},"vehicle_type_id":"4","last_reported":1759122617,"current_range_meters":9600,"station_id":"ce4bhr12rcd13ifvqhpg","pricing_plan_id":"cebpf4jnsgd1na2vs0mg"},{"bike_id":"e3fe1c25-77d6-4c99-a172-35c670f24da9","system_id":"levelo_inurba_marseille","lat":43.28629,"lon":5.3511,"is_reserved":false,"is_disabled":true,"rental_uris":{"android":"levelo://app?vid=e3fe1c25-77d6-4c99-a172-35c670f24da9","ios":"levelo://app?vid=e3fe1c25-77d6-4c99-a172-35c670f24da9"},"vehicle_type_id":"4","last_reported":1759122617,"current_range_meters":9600,"station_id":"ce4bhch2rcd13ifvqeug","pricing_plan_id":"cebpf4jnsgd1na2vs0mg"},{"bike_id":"afb3a0b1-c807-4eff-8fb4-4964910f49c8","system_id":"levelo_inurba_marseille","lat":43.217443,"lon":5.346094,"is_reserved":false,"is_disabled":true,"rental_uris":{"android":"levelo://app?vid=afb3a0b1-c807-4eff-8fb4-4964910f49c8","ios":"levelo://app?vid=afb3a0b1-c807-4eff-8fb4-4964910f49c8"},"vehicle_type_id":"4","last_reported":1759122617,"current_range_meters":9600,"station_id":"st_cvj6r9ubvosntc0bgbag","pricing_plan_id":"cebpf4jnsgd1na2vs0mg"},{"bike_id":"258ab053-1083-4ca9-a32a-1e85f085fc22","system_id":"levelo_inurba_marseille","lat":43.337444,"lon":5.374475,"is_reserved":false,"is_disabled":false,"rental_uris":{"android":"levelo://app?vid=258ab053-1083-4ca9-a32a-1e85f085fc22","ios":"levelo://app?vid=258ab053-1083-4ca9-a32a-1e85f085fc22"},"vehicle_type_id":"4","last_reported":1759122617,"current_range_meters":9600,"station_id":"","pricing_plan_id":"cebpf4jnsgd1na2vs0mg"},{"bike_id":"8b353c9e-13c5-42ee-a76f-ccbd6269a3dc","system_id":"levelo_inurba_marseille","lat":43.30424,"lon":5.366666,"is_reserved":false,"is_disabled":false,"rental_uris":{"android":"levelo://app?vid=8b353c9e-13c5-42ee-a76f-ccbd6269a3dc","ios":"levelo://app?vid=8b353c9e-13c5-42ee-a76f-ccbd6269a3dc"},"vehicle_type_id":"4","last_reported":1759122617,"current_range_meters":10000,"station_id":"","pricing_plan_id":"cebpf4jnsgd1na2vs0mg"},{"bike_id":"84d84f4a-29f2-45a5-878f-bb4fd9d1de8b","system_id":"levelo_inurba_marseille","lat":43.30265,"lon":5.40096,"is_reserved":false,"is_disabled":false,"rental_uris":{"android":"levelo://app?vid=84d84f4a-29f2-45a5-878f-bb4fd9d1de8b","ios":"levelo://app?vid=84d84f4a-29f2-45a5-878f-bb4fd9d1de8b"},"vehicle_type_id":"4","last_reported":1759122617,"current_range_meters":10000,"station_id":"ce4bgvh2rcd13ifvqcs0","pricing_plan_id":"cebpf4jnsgd1na2vs0mg"},{"bike_id":"004a59ec-780e-41a4-8b58-43cf839178df","system_id":"levelo_inurba_marseille","lat":43.258649,"lon":5.399074,"is_reserved":false,"is_disabled":false,"rental_uris":{"android":"levelo://app?vid=004a59ec-780e-41a4-8b58-43cf839178df","ios":"levelo://app?vid=004a59ec-780e-41a4-8b58-43cf839178df"},"vehicle_type_id":"4","last_reported":1759122617,"current_range_meters":10000,"station_id":"ce4bhl92rcd13ifvqghg","pricing_plan_id":"cebpf4jnsgd1na2vs0mg"},{"bike_id":"f4c53ff4-73a4-4134-bb3f-bbf464878afb","system_id":"levelo_inurba_marseille","lat":43.241692,"lon":5.364,"is_reserved":false,"is_disabled":true,"rental_uris":{"android":"levelo://app?vid=f4c53ff4-73a4-4134-bb3f-bbf464878afb","ios":"levelo://app?vid=f4c53ff4-73a4-4134-bb3f-bbf464878afb"},"vehicle_type_id":"4","last_reported":1759122617,"current_range_meters":10000,"station_id":"cpo36qri1sfpv3e86is0","pricing_plan_id":"cebpf4jnsgd1na2vs0mg"},{"bike_id":"5fe7f407-3191-4d84-bcf8-5bce6d58e56d","system_id":"levelo_inurba_marseille","lat":43.22927,"lon":5.35395,"is_reserved":false,"is_disabled":false,"rental_uris":{"android":"levelo://app?vid=5fe7f407-3191-4d84-bcf8-5bce6d58e56d","ios":"levelo://app?vid=5fe7f407-3191-4d84-bcf8-5bce6d58e56d"},"vehicle_type_id":"4","last_reported":1759122617,"current_range_meters":10000,"station_id":"cpo3532slgdg3j2ikp40","pricing_plan_id":"cebpf4jnsgd1na2vs0mg"},{"bike_id":"5714f7ab-6932-4f9f-98d4-e0d81d9a0b30","system_id":"levelo_inurba_marseille","lat":43.24675,"lon":5.38176,"is_reserved":false,"is_disabled":false,"rental_uris":{"android":"levelo://app?vid=5714f7ab-6932-4f9f-98d4-e0d81d9a0b30","ios":"levelo://app?vid=5714f7ab-6932-4f9f-98d4-e0d81d9a0b30"},"vehicle_type_id":"4","last_reported":1759122617,"current_range_meters":10000,"station_id":"ce4bhih2rcd13ifvqfr0","pricing_plan_id":"cebpf4jnsgd1na2vs0mg"},{"bike_id":"a9f7f3ef-0730-4c02-a0ce-cef86cc09ab6","system_id":"levelo_inurba_marseille","lat":43.21751,"lon":5.34604,"is_reserved":false,"is_disabled":false,"rental_uris":{"android":"levelo://app?vid=a9f7f3ef-0730-4c02-a0ce-cef86cc09ab6","ios":"levelo://app?vid=a9f7f3ef-0730-4c02-a0ce-cef86cc09ab6"},"vehicle_type_id":"4","last_reported":1759122617,"current_range_meters":10000,"station_id":"st_cvj6r9ubvosntc0bgbag","pricing_plan_id":"cebpf4jnsgd1na2vs0mg"},{"bike_id":"79a5192a-a4a4-4f3f-bf10-cd478ca195ef","system_id":"levelo_inurba_marseille","lat":43.25823,"lon":5.39428,"is_reserved":false,"is_disabled":false,"rental_uris":{"android":"levelo://app?vid=79a5192a-a4a4-4f3f-bf10-cd478ca195ef","ios":"levelo://app?vid=79a5192a-a4a4-4f3f-bf10-cd478ca195ef"},"vehicle_type_id":"4","last_reported":1759122617,"current_range_meters":10000,"station_id":"ce4bhip2rcd13ifvqft0","pricing_plan_id":"cebpf4jnsgd1na2vs0mg"},{"bike_id":"2c6518be-b3f0-42d2-93c9-c1de9e54885f","system_id":"levelo_inurba_marseille","lat":43.29227,"lon":5.38219,"is_reserved":false,"is_disabled":false,"rental_uris":{"android":"levelo://app?vid=2c6518be-b3f0-42d2-93c9-c1de9e54885f","ios":"levelo://app?vid=2c6518be-b3f0-42d2-93c9-c1de9e54885f"},"vehicle_type_id":"4","last_reported":1759122617,"current_range_meters":10800,"station_id":"","pricing_plan_id":"cebpf4jnsgd1na2vs0mg"},{"bike_id":"3cb1dae7-6bcd-41e5-b1b7-c1d25c751a99","system_id":"levelo_inurba_marseille","lat":43.337635,"lon":5.374385,"is_reserved":false,"is_disabled":false,"rental_uris":{"android":"levelo://app?vid=3cb1dae7-6bcd-41e5-b1b7-c1d25c751a99","ios":"levelo://app?vid=3cb1dae7-6bcd-41e5-b1b7-c1d25c751a99"},"vehicle_type_id":"4","last_reported":1759122617,"current_range_meters":10800,"station_id":"","pricing_plan_id":"cebpf4jnsgd1na2vs0mg"},{"bike_id":"0c38051c-a803-44c4-90a1-151a4109583c","system_id":"levelo_inurba_marseille","lat":43.286538,"lon":5.386697,"is_reserved":false,"is_disabled":true,"rental_uris":{"android":"levelo://app?vid=0c38051c-a803-44c4-90a1-151a4109583c","ios":"levelo://app?vid=0c38051c-a803-44c4-90a1-151a4109583c"},"vehicle_type_id":"4","last_reported":1759122617,"current_range_meters":10800,"station_id":"ce4bh492rcd13ifvqdug","pricing_plan_id":"cebpf4jnsgd1na2vs0mg"},{"bike_id":"01e260f5-828c-4df2-9bc4-ca80e799f979","system_id":"levelo_inurba_marseille","lat":43.24167,"lon":5.36386,"is_reserved":false,"is_disabled":true,"rental_uris":{"android":"levelo://app?vid=01e260f5-828c-4df2-9bc4-ca80e799f979","ios":"levelo://app?vid=01e260f5-828c-4df2-9bc4-ca80e799f979"},"vehicle_type_id":"4","last_reported":1759122617,"current_range_meters":10800,"station_id":"cpo36qri1sfpv3e86is0","pricing_plan_id":"cebpf4jnsgd1na2vs0mg"},{"bike_id":"d58ddcbe-70d7-4259-abad-73cc43b8b8b9","system_id":"levelo_inurba_marseille","lat":43.230554,"lon":5.354825,"is_reserved":false,"is_disabled":true,"rental_uris":{"android":"levelo://app?vid=d58ddcbe-70d7-4259-abad-73cc43b8b8b9","ios":"levelo://app?vid=d58ddcbe-70d7-4259-abad-73cc43b8b8b9"},"vehicle_type_id":"4","last_reported":1759122617,"current_range_meters":10800,"station_id":"cpo3342slgdg3j2ifvpg","pricing_plan_id":"cebpf4jnsgd1na2vs0mg"},{"bike_id":"9863f45b-fcc0-4584-954e-456822c1e1e1","system_id":"levelo_inurba_marseille","lat":43.29282,"lon":5.40132,"is_reserved":false,"is_disabled":false,"rental_uris":{"android":"levelo://app?vid=9863f45b-fcc0-4584-954e-456822c1e1e1","ios":"levelo://app?vid=9863f45b-fcc0-4584-954e-456822c1e1e1"},"vehicle_type_id":"4","last_reported":1759122617,"current_range_meters":10800,"station_id":"ce4bh312rcd13ifvqdk0","pricing_plan_id":"cebpf4jnsgd1na2vs0mg"},{"bike_id":"1dad2113-89e2-44fc-a0b6-ddd6a09baff1","system_id":"levelo_inurba_marseille","lat":43.337444,"lon":5.374475,"is_reserved":false,"is_disabled":false,"rental_uris":{"android":"levelo://app?vid=1dad2113-89e2-44fc-a0b6-ddd6a09baff1","ios":"levelo://app?vid=1dad2113-89e2-44fc-a0b6-ddd6a09baff1"},"vehicle_type_id":"4","last_reported":1759122617,"current_range_meters":10800,"station_id":"","pricing_plan_id":"cebpf4jnsgd1na2vs0mg"},{"bike_id":"6f0c1749-517c-4897-91c9-50c589e202de","system_id":"levelo_inurba_marseille","lat":43.341363,"lon":5.409309,"is_reserved":false,"is_disabled":true,"rental_uris":{"android":"levelo://app?vid=6f0c1749-517c-4897-91c9-50c589e202de","ios":"levelo://app?vid=6f0c1749-517c-4897-91c9-50c589e202de"},"vehicle_type_id":"4","last_reported":1759122617,"current_range_meters":11200,"station_id":"ce4bhqh2rcd13ifvqhlg","pricing_plan_id":"cebpf4jnsgd1na2vs0mg"},{"bike_id":"20c1c77a-f4d0-45da-bf37-9dfdc8268d18","system_id":"levelo_inurba_marseille","lat":43.32004,"lon":5.38156,"is_reserved":false,"is_disabled":false,"rental_uris":{"android":"levelo://app?vid=20c1c77a-f4d0-45da-bf37-9dfdc8268d18","ios":"levelo://app?vid=20c1c77a-f4d0-45da-bf37-9dfdc8268d18"},"vehicle_type_id":"4","last_reported":1759122617,"current_range_meters":11200,"station_id":"ce4bhr12rcd13ifvqhpg","pricing_plan_id":"cebpf4jnsgd1na2vs0mg"},{"bike_id":"151d75a0-434c-41d6-a3a8-42bc6a9a604c","system_id":"levelo_inurba_marseille","lat":43.31757,"lon":5.39017,"is_reserved":false,"is_disabled":false,"rental_uris":{"android":"levelo://app?vid=151d75a0-434c-41d6-a3a8-42bc6a9a604c","ios":"levelo://app?vid=151d75a0-434c-41d6-a3a8-42bc6a9a604c"},"vehicle_type_id":"4","last_reported":1759122617,"current_range_meters":11200,"station_id":"ce4bgt92rcd13ifvqcf0","pricing_plan_id":"cebpf4jnsgd1na2vs0mg"},{"bike_id":"f3a4683d-f9e0-46bd-80f8-5d2e7081d7ad","system_id":"levelo_inurba_marseille","lat":43.24661,"lon":5.38197,"is_reserved":false,"is_disabled":false,"rental_uris":{"android":"levelo://app?vid=f3a4683d-f9e0-46bd-80f8-5d2e7081d7ad","ios":"levelo://app?vid=f3a4683d-f9e0-46bd-80f8-5d2e7081d7ad"},"vehicle_type_id":"4","last_reported":1759122617,"current_range_meters":11200,"station_id":"ce4bhih2rcd13ifvqfr0","pricing_plan_id":"cebpf4jnsgd1na2vs0mg"},{"bike_id":"946fa785-ee55-4fe8-a3f0-8dc88b65a494","system_id":"levelo_inurba_marseille","lat":43.30953,"lon":5.39049,"is_reserved":false,"is_disabled":false,"rental_uris":{"android":"levelo://app?vid=946fa785-ee55-4fe8-a3f0-8dc88b65a494","ios":"levelo://app?vid=946fa785-ee55-4fe8-a3f0-8dc88b65a494"},"vehicle_type_id":"4","last_reported":1759122617,"current_range_meters":11200,"station_id":"ce4bgup2rcd13ifvqco0","pricing_plan_id":"cebpf4jnsgd1na2vs0mg"},{"bike_id":"e7a07ee7-ff27-4e97-adec-6f7b9b9085bf","system_id":"levelo_inurba_marseille","lat":43.288637,"lon":5.425105,"is_reserved":false,"is_disabled":false,"rental_uris":{"android":"levelo://app?vid=e7a07ee7-ff27-4e97-adec-6f7b9b9085bf","ios":"levelo://app?vid=e7a07ee7-ff27-4e97-adec-6f7b9b9085bf"},"vehicle_type_id":"4","last_reported":1759122617,"current_range_meters":11200,"station_id":"st_d3b462108ojc7389ooeg","pricing_plan_id":"cebpf4jnsgd1na2vs0mg"},{"bike_id":"d7d09523-34bb-44d2-9695-02f0abea9b47","system_id":"levelo_inurba_marseille","lat":43.29742,"lon":5.37891,"is_reserved":false,"is_disabled":false,"rental_uris":{"android":"levelo://app?vid=d7d09523-34bb-44d2-9695-02f0abea9b47","ios":"levelo://app?vid=d7d09523-34bb-44d2-9695-02f0abea9b47"},"vehicle_type_id":"4","last_reported":1759122617,"current_range_meters":11200,"station_id":"","pricing_plan_id":"cebpf4jnsgd1na2vs0mg"},{"bike_id":"e5cca1d3-7b83-4815-adc1-45ead40eb28d","system_id":"levelo_inurba_marseille","lat":43.321122,"lon":5.367689,"is_reserved":false,"is_disabled":false,"rental_uris":{"android":"levelo://app?vid=e5cca1d3-7b83-4815-adc1-45ead40eb28d","ios":"levelo://app?vid=e5cca1d3-7b83-4815-adc1-45ead40eb28d"},"vehicle_type_id":"4","last_reported":1759122617,"current_range_meters":11200,"station_id":"ce4bhrh2rcd13ifvqhug","pricing_plan_id":"cebpf4jnsgd1na2vs0mg"},{"bike_id":"aef170f6-3306-46fe-9dab-25f26114ab13","system_id":"levelo_inurba_marseille","lat":43.323641,"lon":5.367604,"is_reserved":false,"is_disabled":false,"rental_uris":{"android":"levelo://app?vid=aef170f6-3306-46fe-9dab-25f26114ab13","ios":"levelo://app?vid=aef170f6-3306-46fe-9dab-25f26114ab13"},"vehicle_type_id":"4","last_reported":1759122617,"current_range_meters":11600,"station_id":"ce4bhsh2rcd13ifvqi2g","pricing_plan_id":"cebpf4jnsgd1na2vs0mg"},{"bike_id":"77ae77ab-7cba-4b17-98e3-f93e329a4e6a","system_id":"levelo_inurba_marseille","lat":43.292495,"lon":5.384358,"is_reserved":false,"is_disabled":true,"rental_uris":{"android":"levelo://app?vid=77ae77ab-7cba-4b17-98e3-f93e329a4e6a","ios":"levelo://app?vid=77ae77ab-7cba-4b17-98e3-f93e329a4e6a"},"vehicle_type_id":"4","last_reported":1759122617,"current_range_meters":11600,"station_id":"ce4bh692rcd13ifvqea0","pricing_plan_id":"cebpf4jnsgd1na2vs0mg"},{"bike_id":"35e8f722-b82a-4247-beb8-7e2827829ce6","system_id":"levelo_inurba_marseille","lat":43.32405,"lon":5.3911,"is_reserved":false,"is_disabled":false,"rental_uris":{"android":"levelo://app?vid=35e8f722-b82a-4247-beb8-7e2827829ce6","ios":"levelo://app?vid=35e8f722-b82a-4247-beb8-7e2827829ce6"},"vehicle_type_id":"4","last_reported":1759122617,"current_range_meters":11600,"station_id":"","pricing_plan_id":"cebpf4jnsgd1na2vs0mg"},{"bike_id":"02fb4eb6-9203-431e-bd5c-fe9dd3847cf2","system_id":"levelo_inurba_marseille","lat":43.24164,"lon":5.36407,"is_reserved":false,"is_disabled":false,"rental_uris":{"android":"levelo://app?vid=02fb4eb6-9203-431e-bd5c-fe9dd3847cf2","ios":"levelo://app?vid=02fb4eb6-9203-431e-bd5c-fe9dd3847cf2"},"vehicle_type_id":"4","last_reported":1759122617,"current_range_meters":11600,"station_id":"cpo36qri1sfpv3e86is0","pricing_plan_id":"cebpf4jnsgd1na2vs0mg"},{"bike_id":"e5378695-fba9-432a-9cfb-3b5b05e40fec","system_id":"levelo_inurba_marseille","lat":43.337986,"lon":5.374304,"is_reserved":false,"is_disabled":false,"rental_uris":{"android":"levelo://app?vid=e5378695-fba9-432a-9cfb-3b5b05e40fec","ios":"levelo://app?vid=e5378695-fba9-432a-9cfb-3b5b05e40fec"},"vehicle_type_id":"4","last_reported":1759122617,"current_range_meters":11600,"station_id":"","pricing_plan_id":"cebpf4jnsgd1na2vs0mg"},{"bike_id":"2d71e72b-83cb-41e4-8c85-beb4ca7e5637","system_id":"levelo_inurba_marseille","lat":43.25092,"lon":5.39511,"is_reserved":false,"is_disabled":false,"rental_uris":{"android":"levelo://app?vid=2d71e72b-83cb-41e4-8c85-beb4ca7e5637","ios":"levelo://app?vid=2d71e72b-83cb-41e4-8c85-beb4ca7e5637"},"vehicle_type_id":"4","last_reported":1759122617,"current_range_meters":12000,"station_id":"ce4bhm12rcd13ifvqgkg","pricing_plan_id":"cebpf4jnsgd1na2vs0mg"},{"bike_id":"01d71389-0b80-4650-affd-c19dc5c27b50","system_id":"levelo_inurba_marseille","lat":43.23963,"lon":5.36624,"is_reserved":false,"is_disabled":true,"rental_uris":{"android":"levelo://app?vid=01d71389-0b80-4650-affd-c19dc5c27b50","ios":"levelo://app?vid=01d71389-0b80-4650-affd-c19dc5c27b50"},"vehicle_type_id":"4","last_reported":1759122617,"current_range_meters":12000,"station_id":"ce4bhi12rcd13ifvqfp0","pricing_plan_id":"cebpf4jnsgd1na2vs0mg"},{"bike_id":"bbc8b167-1d94-4092-8f03-711a4a21523b","system_id":"levelo_inurba_marseille","lat":43.26215,"lon":5.3744,"is_reserved":false,"is_disabled":false,"rental_uris":{"android":"levelo://app?vid=bbc8b167-1d94-4092-8f03-711a4a21523b","ios":"levelo://app?vid=bbc8b167-1d94-4092-8f03-711a4a21523b"},"vehicle_type_id":"4","last_reported":1759122617,"current_range_meters":12000,"station_id":"ce4bhgp2rcd13ifvqfc0","pricing_plan_id":"cebpf4jnsgd1na2vs0mg"},{"bike_id":"2ed4d2cc-833b-4d37-9920-a90ef4f69d93","system_id":"levelo_inurba_marseille","lat":43.30142,"lon":5.38091,"is_reserved":false,"is_disabled":false,"rental_uris":{"android":"levelo://app?vid=2ed4d2cc-833b-4d37-9920-a90ef4f69d93","ios":"levelo://app?vid=2ed4d2cc-833b-4d37-9920-a90ef4f69d93"},"vehicle_type_id":"4","last_reported":1759122617,"current_range_meters":12400,"station_id":"ce4bgjp2rcd13ifvqbh0","pricing_plan_id":"cebpf4jnsgd1na2vs0mg"},{"bike_id":"b2a1aa6e-b2b9-4978-afe1-de5d46989748","system_id":"levelo_inurba_marseille","lat":43.265509,"lon":5.403213,"is_reserved":false,"is_disabled":false,"rental_uris":{"android":"levelo://app?vid=b2a1aa6e-b2b9-4978-afe1-de5d46989748","ios":"levelo://app?vid=b2a1aa6e-b2b9-4978-afe1-de5d46989748"},"vehicle_type_id":"4","last_reported":1759122617,"current_range_meters":12400,"station_id":"ce4bhmp2rcd13ifvqgng","pricing_plan_id":"cebpf4jnsgd1na2vs0mg"},{"bike_id":"73bbd8a8-62e4-4a7e-9641-f59dbff0423a","system_id":"levelo_inurba_marseille","lat":43.302129,"lon":5.394525,"is_reserved":false,"is_disabled":true,"rental_uris":{"android":"levelo://app?vid=73bbd8a8-62e4-4a7e-9641-f59dbff0423a","ios":"levelo://app?vid=73bbd8a8-62e4-4a7e-9641-f59dbff0423a"},"vehicle_type_id":"4","last_reported":1759122617,"current_range_meters":12400,"station_id":"ce4bh0p2rcd13ifvqd70","pricing_plan_id":"cebpf4jnsgd1na2vs0mg"},{"bike_id":"c8eb7660-6046-4e9c-8c85-8306cbdbfdf8","system_id":"levelo_inurba_marseille","lat":43.24666,"lon":5.4313,"is_reserved":false,"is_disabled":false,"rental_uris":{"android":"levelo://app?vid=c8eb7660-6046-4e9c-8c85-8306cbdbfdf8","ios":"levelo://app?vid=c8eb7660-6046-4e9c-8c85-8306cbdbfdf8"},"vehicle_type_id":"4","last_reported":1759122617,"current_range_meters":12400,"station_id":"st_d2m6c4gdas8pm72e190g","pricing_plan_id":"cebpf4jnsgd1na2vs0mg"},{"bike_id":"360c0746-c854-4629-884f-7c911de53d9d","system_id":"levelo_inurba_marseille","lat":43.32066,"lon":5.38518,"is_reserved":false,"is_disabled":true,"rental_uris":{"android":"levelo://app?vid=360c0746-c854-4629-884f-7c911de53d9d","ios":"levelo://app?vid=360c0746-c854-4629-884f-7c911de53d9d"},"vehicle_type_id":"4","last_reported":1759122617,"current_range_meters":12400,"station_id":"","pricing_plan_id":"cebpf4jnsgd1na2vs0mg"},{"bike_id":"f4bc1f7f-7210-48f7-a6c2-5bb4941ac693","system_id":"levelo_inurba_marseille","lat":43.2721,"lon":5.39195,"is_reserved":false,"is_disabled":true,"rental_uris":{"android":"levelo://app?vid=f4bc1f7f-7210-48f7-a6c2-5bb4941ac693","ios":"levelo://app?vid=f4bc1f7f-7210-48f7-a6c2-5bb4941ac693"},"vehicle_type_id":"4","last_reported":1759122617,"current_range_meters":12400,"station_id":"ce4bhhp2rcd13ifvqfm0","pricing_plan_id":"cebpf4jnsgd1na2vs0mg"},{"bike_id":"4822dd99-56ec-44f6-a9b9-ee0ae5dcc1bf","system_id":"levelo_inurba_marseille","lat":43.30009,"lon":5.39994,"is_reserved":false,"is_disabled":false,"rental_uris":{"android":"levelo://app?vid=4822dd99-56ec-44f6-a9b9-ee0ae5dcc1bf","ios":"levelo://app?vid=4822dd99-56ec-44f6-a9b9-ee0ae5dcc1bf"},"vehicle_type_id":"4","last_reported":1759122617,"current_range_meters":12400,"station_id":"ce4bh0h2rcd13ifvqd40","pricing_plan_id":"cebpf4jnsgd1na2vs0mg"},{"bike_id":"89fe513c-a434-4cf8-a56c-ee0844b2f3be","system_id":"levelo_inurba_marseille","lat":43.29973,"lon":5.38489,"is_reserved":false,"is_disabled":true,"rental_uris":{"android":"levelo://app?vid=89fe513c-a434-4cf8-a56c-ee0844b2f3be","ios":"levelo://app?vid=89fe513c-a434-4cf8-a56c-ee0844b2f3be"},"vehicle_type_id":"4","last_reported":1759122617,"current_range_meters":12400,"station_id":"ce4bgj92rcd13ifvqbd0","pricing_plan_id":"cebpf4jnsgd1na2vs0mg"},{"bike_id":"f060d515-f268-4371-95a2-f04eea0ad05f","system_id":"levelo_inurba_marseille","lat":43.24634,"lon":5.4315,"is_reserved":false,"is_disabled":false,"rental_uris":{"android":"levelo://app?vid=f060d515-f268-4371-95a2-f04eea0ad05f","ios":"levelo://app?vid=f060d515-f268-4371-95a2-f04eea0ad05f"},"vehicle_type_id":"4","last_reported":1759122617,"current_range_meters":12400,"station_id":"st_d2m6c4gdas8pm72e190g","pricing_plan_id":"cebpf4jnsgd1na2vs0mg"},{"bike_id":"098460e9-6b11-4f84-8036-b4cbefbd5d3c","system_id":"levelo_inurba_marseille","lat":43.257221,"lon":5.411059,"is_reserved":false,"is_disabled":false,"rental_uris":{"android":"levelo://app?vid=098460e9-6b11-4f84-8036-b4cbefbd5d3c","ios":"levelo://app?vid=098460e9-6b11-4f84-8036-b4cbefbd5d3c"},"vehicle_type_id":"4","last_reported":1759122617,"current_range_meters":12400,"station_id":"ce4bhkp2rcd13ifvqgd0","pricing_plan_id":"cebpf4jnsgd1na2vs0mg"},{"bike_id":"327c041e-5c9e-4b0d-a97c-a2dbaab036ae","system_id":"levelo_inurba_marseille","lat":43.32813,"lon":5.4113,"is_reserved":false,"is_disabled":false,"rental_uris":{"android":"levelo://app?vid=327c041e-5c9e-4b0d-a97c-a2dbaab036ae","ios":"levelo://app?vid=327c041e-5c9e-4b0d-a97c-a2dbaab036ae"},"vehicle_type_id":"4","last_reported":1759122617,"current_range_meters":12800,"station_id":"","pricing_plan_id":"cebpf4jnsgd1na2vs0mg"},{"bike_id":"db54ae1e-766a-4881-94b4-a4cf26d411ba","system_id":"levelo_inurba_marseille","lat":43.2925,"lon":5.38451,"is_reserved":false,"is_disabled":true,"rental_uris":{"android":"levelo://app?vid=db54ae1e-766a-4881-94b4-a4cf26d411ba","ios":"levelo://app?vid=db54ae1e-766a-4881-94b4-a4cf26d411ba"},"vehicle_type_id":"4","last_reported":1759122617,"current_range_meters":12800,"station_id":"ce4bh692rcd13ifvqea0","pricing_plan_id":"cebpf4jnsgd1na2vs0mg"},{"bike_id":"00330f80-eb21-4540-b39b-27e6dea1ab55","system_id":"levelo_inurba_marseille","lat":43.26214,"lon":5.40443,"is_reserved":false,"is_disabled":false,"rental_uris":{"android":"levelo://app?vid=00330f80-eb21-4540-b39b-27e6dea1ab55","ios":"levelo://app?vid=00330f80-eb21-4540-b39b-27e6dea1ab55"},"vehicle_type_id":"4","last_reported":1759122617,"current_range_meters":12800,"station_id":"ce4bhmh2rcd13ifvqgmg","pricing_plan_id":"cebpf4jnsgd1na2vs0mg"},{"bike_id":"e0e9194b-710d-4981-ad65-ba5929d7512b","system_id":"levelo_inurba_marseille","lat":43.306022,"lon":5.384559,"is_reserved":false,"is_disabled":false,"rental_uris":{"android":"levelo://app?vid=e0e9194b-710d-4981-ad65-ba5929d7512b","ios":"levelo://app?vid=e0e9194b-710d-4981-ad65-ba5929d7512b"},"vehicle_type_id":"4","last_reported":1759122617,"current_range_meters":12800,"station_id":"","pricing_plan_id":"cebpf4jnsgd1na2vs0mg"},{"bike_id":"3b530333-201c-4f53-a98d-ce6c8fa2e551","system_id":"levelo_inurba_marseille","lat":43.260279,"lon":5.375515,"is_reserved":false,"is_disabled":true,"rental_uris":{"android":"levelo://app?vid=3b530333-201c-4f53-a98d-ce6c8fa2e551","ios":"levelo://app?vid=3b530333-201c-4f53-a98d-ce6c8fa2e551"},"vehicle_type_id":"4","last_reported":1759122617,"current_range_meters":12800,"station_id":"ce4bhgh2rcd13ifvqfa0","pricing_plan_id":"cebpf4jnsgd1na2vs0mg"},{"bike_id":"80b98ce0-3233-47ce-84db-722943723d1e","system_id":"levelo_inurba_marseille","lat":43.269329,"lon":5.38928,"is_reserved":false,"is_disabled":false,"rental_uris":{"android":"levelo://app?vid=80b98ce0-3233-47ce-84db-722943723d1e","ios":"levelo://app?vid=80b98ce0-3233-47ce-84db-722943723d1e"},"vehicle_type_id":"4","last_reported":1759122617,"current_range_meters":12800,"station_id":"","pricing_plan_id":"cebpf4jnsgd1na2vs0mg"},{"bike_id":"bcfbf206-3f86-4df4-83ac-ffda040a1ccd","system_id":"levelo_inurba_marseille","lat":43.31357,"lon":5.38506,"is_reserved":false,"is_disabled":false,"rental_uris":{"android":"levelo://app?vid=bcfbf206-3f86-4df4-83ac-ffda040a1ccd","ios":"levelo://app?vid=bcfbf206-3f86-4df4-83ac-ffda040a1ccd"},"vehicle_type_id":"4","last_reported":1759122617,"current_range_meters":12800,"station_id":"ce4bgt92rcd13ifvqcf0","pricing_plan_id":"cebpf4jnsgd1na2vs0mg"},{"bike_id":"9c4235da-d3d0-4056-aa6b-c6aa6e8e7367","system_id":"levelo_inurba_marseille","lat":43.30709,"lon":5.37504,"is_reserved":false,"is_disabled":false,"rental_uris":{"android":"levelo://app?vid=9c4235da-d3d0-4056-aa6b-c6aa6e8e7367","ios":"levelo://app?vid=9c4235da-d3d0-4056-aa6b-c6aa6e8e7367"},"vehicle_type_id":"4","last_reported":1759122617,"current_range_meters":12800,"station_id":"","pricing_plan_id":"cebpf4jnsgd1na2vs0mg"},{"bike_id":"61c0094b-5f09-42e7-8b5a-c23013fadb5a","system_id":"levelo_inurba_marseille","lat":43.31112,"lon":5.37756,"is_reserved":false,"is_disabled":false,"rental_uris":{"android":"levelo://app?vid=61c0094b-5f09-42e7-8b5a-c23013fadb5a","ios":"levelo://app?vid=61c0094b-5f09-42e7-8b5a-c23013fadb5a"},"vehicle_type_id":"4","last_reported":1759122617,"current_range_meters":12800,"station_id":"ce4bgt92rcd13ifvqcg0","pricing_plan_id":"cebpf4jnsgd1na2vs0mg"},{"bike_id":"a1e2b7f3-f53e-4b6a-b8f1-27b0fbf9634d","system_id":"levelo_inurba_marseille","lat":43.31875,"lon":5.37317,"is_reserved":false,"is_disabled":false,"rental_uris":{"android":"levelo://app?vid=a1e2b7f3-f53e-4b6a-b8f1-27b0fbf9634d","ios":"levelo://app?vid=a1e2b7f3-f53e-4b6a-b8f1-27b0fbf9634d"},"vehicle_type_id":"4","last_reported":1759122617,"current_range_meters":13600,"station_id":"","pricing_plan_id":"cebpf4jnsgd1na2vs0mg"},{"bike_id":"1d65299e-cf34-435b-a60a-0ba0d66bcde6","system_id":"levelo_inurba_marseille","lat":43.28403,"lon":5.37507,"is_reserved":false,"is_disabled":true,"rental_uris":{"android":"levelo://app?vid=1d65299e-cf34-435b-a60a-0ba0d66bcde6","ios":"levelo://app?vid=1d65299e-cf34-435b-a60a-0ba0d66bcde6"},"vehicle_type_id":"4","last_reported":1759122617,"current_range_meters":13600,"station_id":"ce4bh412rcd13ifvqds0","pricing_plan_id":"cebpf4jnsgd1na2vs0mg"},{"bike_id":"25c434a4-2d78-4622-948f-1ba3f4bce0ee","system_id":"levelo_inurba_marseille","lat":43.30945,"lon":5.40066,"is_reserved":false,"is_disabled":false,"rental_uris":{"android":"levelo://app?vid=25c434a4-2d78-4622-948f-1ba3f4bce0ee","ios":"levelo://app?vid=25c434a4-2d78-4622-948f-1ba3f4bce0ee"},"vehicle_type_id":"4","last_reported":1759122617,"current_range_meters":13600,"station_id":"","pricing_plan_id":"cebpf4jnsgd1na2vs0mg"},{"bike_id":"1a8b372c-1d39-42d7-b89f-f7b43216ccd7","system_id":"levelo_inurba_marseille","lat":43.314145,"lon":5.384309,"is_reserved":false,"is_disabled":false,"rental_uris":{"android":"levelo://app?vid=1a8b372c-1d39-42d7-b89f-f7b43216ccd7","ios":"levelo://app?vid=1a8b372c-1d39-42d7-b89f-f7b43216ccd7"},"vehicle_type_id":"4","last_reported":1759122617,"current_range_meters":14000,"station_id":"","pricing_plan_id":"cebpf4jnsgd1na2vs0mg"},{"bike_id":"e48eb6de-f069-4709-924c-08384c1f854e","system_id":"levelo_inurba_marseille","lat":43.283647,"lon":5.380953,"is_reserved":false,"is_disabled":false,"rental_uris":{"android":"levelo://app?vid=e48eb6de-f069-4709-924c-08384c1f854e","ios":"levelo://app?vid=e48eb6de-f069-4709-924c-08384c1f854e"},"vehicle_type_id":"4","last_reported":1759122617,"current_range_meters":14400,"station_id":"ce4bh412rcd13ifvqdr0","pricing_plan_id":"cebpf4jnsgd1na2vs0mg"},{"bike_id":"f33a6420-5636-4172-af9f-5839b65d7156","system_id":"levelo_inurba_marseille","lat":43.35061,"lon":5.37648,"is_reserved":false,"is_disabled":false,"rental_uris":{"android":"levelo://app?vid=f33a6420-5636-4172-af9f-5839b65d7156","ios":"levelo://app?vid=f33a6420-5636-4172-af9f-5839b65d7156"},"vehicle_type_id":"4","last_reported":1759122617,"current_range_meters":14400,"station_id":"","pricing_plan_id":"cebpf4jnsgd1na2vs0mg"},{"bike_id":"a07a513e-e5a9-4481-8592-d991379bc662","system_id":"levelo_inurba_marseille","lat":43.33735,"lon":5.37481,"is_reserved":false,"is_disabled":false,"rental_uris":{"android":"levelo://app?vid=a07a513e-e5a9-4481-8592-d991379bc662","ios":"levelo://app?vid=a07a513e-e5a9-4481-8592-d991379bc662"},"vehicle_type_id":"4","last_reported":1759122617,"current_range_meters":14400,"station_id":"","pricing_plan_id":"cebpf4jnsgd1na2vs0mg"},{"bike_id":"71b2b05c-9ff1-4d57-a8f6-d481051c9a72","system_id":"levelo_inurba_marseille","lat":43.2953,"lon":5.38556,"is_reserved":false,"is_disabled":true,"rental_uris":{"android":"levelo://app?vid=71b2b05c-9ff1-4d57-a8f6-d481051c9a72","ios":"levelo://app?vid=71b2b05c-9ff1-4d57-a8f6-d481051c9a72"},"vehicle_type_id":"4","last_reported":1759122617,"current_range_meters":14800,"station_id":"ce4bgih2rcd13ifvqba0","pricing_plan_id":"cebpf4jnsgd1na2vs0mg"},{"bike_id":"72dfe78c-7413-46c8-9431-20c14760210e","system_id":"levelo_inurba_marseille","lat":43.257228,"lon":5.411149,"is_reserved":false,"is_disabled":false,"rental_uris":{"android":"levelo://app?vid=72dfe78c-7413-46c8-9431-20c14760210e","ios":"levelo://app?vid=72dfe78c-7413-46c8-9431-20c14760210e"},"vehicle_type_id":"4","last_reported":1759122617,"current_range_meters":14800,"station_id":"ce4bhkp2rcd13ifvqgd0","pricing_plan_id":"cebpf4jnsgd1na2vs0mg"},{"bike_id":"5184bf5b-3cc8-4111-8b99-b9c4fcc9d2b3","system_id":"levelo_inurba_marseille","lat":43.24187,"lon":5.39741,"is_reserved":false,"is_disabled":false,"rental_uris":{"android":"levelo://app?vid=5184bf5b-3cc8-4111-8b99-b9c4fcc9d2b3","ios":"levelo://app?vid=5184bf5b-3cc8-4111-8b99-b9c4fcc9d2b3"},"vehicle_type_id":"4","last_reported":1759122617,"current_range_meters":14800,"station_id":"ce4bhn12rcd13ifvqgpg","pricing_plan_id":"cebpf4jnsgd1na2vs0mg"},{"bike_id":"7dc10ae7-7366-4aef-afb3-946c513f88ef","system_id":"levelo_inurba_marseille","lat":43.27993,"lon":5.36409,"is_reserved":false,"is_disabled":false,"rental_uris":{"android":"levelo://app?vid=7dc10ae7-7366-4aef-afb3-946c513f88ef","ios":"levelo://app?vid=7dc10ae7-7366-4aef-afb3-946c513f88ef"},"vehicle_type_id":"4","last_reported":1759122617,"current_range_meters":14800,"station_id":"ce4bha12rcd13ifvqef0","pricing_plan_id":"cebpf4jnsgd1na2vs0mg"},{"bike_id":"8c986307-df22-41f8-9c2d-42ccabc665aa","system_id":"levelo_inurba_marseille","lat":43.30215,"lon":5.36606,"is_reserved":false,"is_disabled":false,"rental_uris":{"android":"levelo://app?vid=8c986307-df22-41f8-9c2d-42ccabc665aa","ios":"levelo://app?vid=8c986307-df22-41f8-9c2d-42ccabc665aa"},"vehicle_type_id":"4","last_reported":1759122617,"current_range_meters":14800,"station_id":"ce4bgrh2rcd13ifvqc8g","pricing_plan_id":"cebpf4jnsgd1na2vs0mg"},{"bike_id":"9f8016d4-7cfd-4da9-98fe-979484415ac7","system_id":"levelo_inurba_marseille","lat":43.30541,"lon":5.36709,"is_reserved":false,"is_disabled":false,"rental_uris":{"android":"levelo://app?vid=9f8016d4-7cfd-4da9-98fe-979484415ac7","ios":"levelo://app?vid=9f8016d4-7cfd-4da9-98fe-979484415ac7"},"vehicle_type_id":"4","last_reported":1759122617,"current_range_meters":14800,"station_id":"ce4bgrp2rcd13ifvqc9g","pricing_plan_id":"cebpf4jnsgd1na2vs0mg"},{"bike_id":"9e50a7a8-3461-435f-a364-2bec8eda7805","system_id":"levelo_inurba_marseille","lat":43.29194,"lon":5.3931,"is_reserved":false,"is_disabled":false,"rental_uris":{"android":"levelo://app?vid=9e50a7a8-3461-435f-a364-2bec8eda7805","ios":"levelo://app?vid=9e50a7a8-3461-435f-a364-2bec8eda7805"},"vehicle_type_id":"4","last_reported":1759122617,"current_range_meters":14800,"station_id":"ce4bh192rcd13ifvqdd0","pricing_plan_id":"cebpf4jnsgd1na2vs0mg"},{"bike_id":"ea59b303-6900-42ad-9e79-5b0f95bedd6c","system_id":"levelo_inurba_marseille","lat":43.30443,"lon":5.36901,"is_reserved":false,"is_disabled":false,"rental_uris":{"android":"levelo://app?vid=ea59b303-6900-42ad-9e79-5b0f95bedd6c","ios":"levelo://app?vid=ea59b303-6900-42ad-9e79-5b0f95bedd6c"},"vehicle_type_id":"4","last_reported":1759122617,"current_range_meters":14800,"station_id":"","pricing_plan_id":"cebpf4jnsgd1na2vs0mg"},{"bike_id":"876569c1-3c48-44d5-944b-d269a39dae22","system_id":"levelo_inurba_marseille","lat":43.310852,"lon":5.387667,"is_reserved":false,"is_disabled":false,"rental_uris":{"android":"levelo://app?vid=876569c1-3c48-44d5-944b-d269a39dae22","ios":"levelo://app?vid=876569c1-3c48-44d5-944b-d269a39dae22"},"vehicle_type_id":"4","last_reported":1759122617,"current_range_meters":14800,"station_id":"ce4bgv12rcd13ifvqcp0","pricing_plan_id":"cebpf4jnsgd1na2vs0mg"},{"bike_id":"c8d7f4fe-be5b-447b-ba1b-2244460fc221","system_id":"levelo_inurba_marseille","lat":43.24658,"lon":5.38901,"is_reserved":false,"is_disabled":false,"rental_uris":{"android":"levelo://app?vid=c8d7f4fe-be5b-447b-ba1b-2244460fc221","ios":"levelo://app?vid=c8d7f4fe-be5b-447b-ba1b-2244460fc221"},"vehicle_type_id":"4","last_reported":1759122617,"current_range_meters":14800,"station_id":"ce4bhg12rcd13ifvqf60","pricing_plan_id":"cebpf4jnsgd1na2vs0mg"},{"bike_id":"8c0227e3-55e8-4994-aa0c-9b6ee99b7e26","system_id":"levelo_inurba_marseille","lat":43.230484,"lon":5.354911,"is_reserved":false,"is_disabled":false,"rental_uris":{"android":"levelo://app?vid=8c0227e3-55e8-4994-aa0c-9b6ee99b7e26","ios":"levelo://app?vid=8c0227e3-55e8-4994-aa0c-9b6ee99b7e26"},"vehicle_type_id":"4","last_reported":1759122617,"current_range_meters":15200,"station_id":"cpo3342slgdg3j2ifvpg","pricing_plan_id":"cebpf4jnsgd1na2vs0mg"},{"bike_id":"c51fbb33-900f-4675-8834-a12c9a0124ab","system_id":"levelo_inurba_marseille","lat":43.28499,"lon":5.38538,"is_reserved":false,"is_disabled":false,"rental_uris":{"android":"levelo://app?vid=c51fbb33-900f-4675-8834-a12c9a0124ab","ios":"levelo://app?vid=c51fbb33-900f-4675-8834-a12c9a0124ab"},"vehicle_type_id":"4","last_reported":1759122617,"current_range_meters":14800,"station_id":"ce4bh8p2rcd13ifvqeb0","pricing_plan_id":"cebpf4jnsgd1na2vs0mg"},{"bike_id":"8ffac578-131d-4171-941b-d073a175c44c","system_id":"levelo_inurba_marseille","lat":43.26214,"lon":5.37435,"is_reserved":false,"is_disabled":true,"rental_uris":{"android":"levelo://app?vid=8ffac578-131d-4171-941b-d073a175c44c","ios":"levelo://app?vid=8ffac578-131d-4171-941b-d073a175c44c"},"vehicle_type_id":"4","last_reported":1759122617,"current_range_meters":15200,"station_id":"ce4bhgp2rcd13ifvqfc0","pricing_plan_id":"cebpf4jnsgd1na2vs0mg"},{"bike_id":"c627b34a-8e81-4438-af3b-4fd0aab1c160","system_id":"levelo_inurba_marseille","lat":43.29661,"lon":5.360031,"is_reserved":false,"is_disabled":false,"rental_uris":{"android":"levelo://app?vid=c627b34a-8e81-4438-af3b-4fd0aab1c160","ios":"levelo://app?vid=c627b34a-8e81-4438-af3b-4fd0aab1c160"},"vehicle_type_id":"4","last_reported":1759122617,"current_range_meters":15200,"station_id":"","pricing_plan_id":"cebpf4jnsgd1na2vs0mg"},{"bike_id":"a63906d9-70e3-4694-a19f-f783d775e9bb","system_id":"levelo_inurba_marseille","lat":43.31281,"lon":5.37391,"is_reserved":false,"is_disabled":false,"rental_uris":{"android":"levelo://app?vid=a63906d9-70e3-4694-a19f-f783d775e9bb","ios":"levelo://app?vid=a63906d9-70e3-4694-a19f-f783d775e9bb"},"vehicle_type_id":"4","last_reported":1759122617,"current_range_meters":15200,"station_id":"","pricing_plan_id":"cebpf4jnsgd1na2vs0mg"},{"bike_id":"0f1defd6-28dc-482d-bd65-8b7088004c74","system_id":"levelo_inurba_marseille","lat":43.323388,"lon":5.406156,"is_reserved":false,"is_disabled":false,"rental_uris":{"android":"levelo://app?vid=0f1defd6-28dc-482d-bd65-8b7088004c74","ios":"levelo://app?vid=0f1defd6-28dc-482d-bd65-8b7088004c74"},"vehicle_type_id":"4","last_reported":1759122617,"current_range_meters":15200,"station_id":"ce4bhq92rcd13ifvqhjg","pricing_plan_id":"cebpf4jnsgd1na2vs0mg"},{"bike_id":"e0c9644a-986d-48a4-b36f-34154318bed9","system_id":"levelo_inurba_marseille","lat":43.29789,"lon":5.39343,"is_reserved":false,"is_disabled":false,"rental_uris":{"android":"levelo://app?vid=e0c9644a-986d-48a4-b36f-34154318bed9","ios":"levelo://app?vid=e0c9644a-986d-48a4-b36f-34154318bed9"},"vehicle_type_id":"4","last_reported":1759122617,"current_range_meters":16000,"station_id":"chh1huq6cuj3fo74tm60","pricing_plan_id":"cebpf4jnsgd1na2vs0mg"},{"bike_id":"0030cf69-75f8-4719-a372-efc52bdb748a","system_id":"levelo_inurba_marseille","lat":43.32854,"lon":5.45364,"is_reserved":false,"is_disabled":false,"rental_uris":{"android":"levelo://app?vid=0030cf69-75f8-4719-a372-efc52bdb748a","ios":"levelo://app?vid=0030cf69-75f8-4719-a372-efc52bdb748a"},"vehicle_type_id":"4","last_reported":1759122617,"current_range_meters":16000,"station_id":"","pricing_plan_id":"cebpf4jnsgd1na2vs0mg"},{"bike_id":"15050491-6b73-4040-927e-c20245e5e504","system_id":"levelo_inurba_marseille","lat":43.29644,"lon":5.40603,"is_reserved":false,"is_disabled":false,"rental_uris":{"android":"levelo://app?vid=15050491-6b73-4040-927e-c20245e5e504","ios":"levelo://app?vid=15050491-6b73-4040-927e-c20245e5e504"},"vehicle_type_id":"4","last_reported":1759122617,"current_range_meters":16000,"station_id":"ce4bh0h2rcd13ifvqd60","pricing_plan_id":"cebpf4jnsgd1na2vs0mg"},{"bike_id":"88bab79e-f428-48c7-9fe8-35fa768316c1","system_id":"levelo_inurba_marseille","lat":43.323872,"lon":5.382115,"is_reserved":false,"is_disabled":false,"rental_uris":{"android":"levelo://app?vid=88bab79e-f428-48c7-9fe8-35fa768316c1","ios":"levelo://app?vid=88bab79e-f428-48c7-9fe8-35fa768316c1"},"vehicle_type_id":"4","last_reported":1759122617,"current_range_meters":16000,"station_id":"","pricing_plan_id":"cebpf4jnsgd1na2vs0mg"},{"bike_id":"59329793-70d7-4d38-8dc3-648c05dc1b0b","system_id":"levelo_inurba_marseille","lat":43.27674,"lon":5.38844,"is_reserved":false,"is_disabled":true,"rental_uris":{"android":"levelo://app?vid=59329793-70d7-4d38-8dc3-648c05dc1b0b","ios":"levelo://app?vid=59329793-70d7-4d38-8dc3-648c05dc1b0b"},"vehicle_type_id":"4","last_reported":1759122617,"current_range_meters":16000,"station_id":"ce4bhi12rcd13ifvqfo0","pricing_plan_id":"cebpf4jnsgd1na2vs0mg"},{"bike_id":"2c6c6f0f-0246-4f04-9f70-834792a2a1db","system_id":"levelo_inurba_marseille","lat":43.24678,"lon":5.38185,"is_reserved":false,"is_disabled":false,"rental_uris":{"android":"levelo://app?vid=2c6c6f0f-0246-4f04-9f70-834792a2a1db","ios":"levelo://app?vid=2c6c6f0f-0246-4f04-9f70-834792a2a1db"},"vehicle_type_id":"4","last_reported":1759122617,"current_range_meters":16000,"station_id":"ce4bhih2rcd13ifvqfr0","pricing_plan_id":"cebpf4jnsgd1na2vs0mg"},{"bike_id":"7f46228e-4ed4-4fb2-9b7c-2773cead13c2","system_id":"levelo_inurba_marseille","lat":43.240174,"lon":5.362763,"is_reserved":false,"is_disabled":true,"rental_uris":{"android":"levelo://app?vid=7f46228e-4ed4-4fb2-9b7c-2773cead13c2","ios":"levelo://app?vid=7f46228e-4ed4-4fb2-9b7c-2773cead13c2"},"vehicle_type_id":"4","last_reported":1759122617,"current_range_meters":16000,"station_id":"","pricing_plan_id":"cebpf4jnsgd1na2vs0mg"},{"bike_id":"10baf174-97c7-4514-95bf-33ba4deb3e4f","system_id":"levelo_inurba_marseille","lat":43.21206,"lon":5.35042,"is_reserved":false,"is_disabled":true,"rental_uris":{"android":"levelo://app?vid=10baf174-97c7-4514-95bf-33ba4deb3e4f","ios":"levelo://app?vid=10baf174-97c7-4514-95bf-33ba4deb3e4f"},"vehicle_type_id":"4","last_reported":1759122617,"current_range_meters":16000,"station_id":"st_cvj6sg6p6f1abm77japg","pricing_plan_id":"cebpf4jnsgd1na2vs0mg"},{"bike_id":"17acd36b-922d-41f1-92bd-e7371f34ed7b","system_id":"levelo_inurba_marseille","lat":43.279933,"lon":5.416369,"is_reserved":false,"is_disabled":false,"rental_uris":{"android":"levelo://app?vid=17acd36b-922d-41f1-92bd-e7371f34ed7b","ios":"levelo://app?vid=17acd36b-922d-41f1-92bd-e7371f34ed7b"},"vehicle_type_id":"4","last_reported":1759122617,"current_range_meters":16400,"station_id":"ce4bho12rcd13ifvqh1g","pricing_plan_id":"cebpf4jnsgd1na2vs0mg"},{"bike_id":"385fa573-6758-43e7-a2f4-f27be30ea572","system_id":"levelo_inurba_marseille","lat":43.3211,"lon":5.36794,"is_reserved":false,"is_disabled":false,"rental_uris":{"android":"levelo://app?vid=385fa573-6758-43e7-a2f4-f27be30ea572","ios":"levelo://app?vid=385fa573-6758-43e7-a2f4-f27be30ea572"},"vehicle_type_id":"4","last_reported":1759122617,"current_range_meters":16400,"station_id":"ce4bhrh2rcd13ifvqhug","pricing_plan_id":"cebpf4jnsgd1na2vs0mg"},{"bike_id":"1a04738a-bd05-4e7f-b716-ba8d78a51904","system_id":"levelo_inurba_marseille","lat":43.28701,"lon":5.39318,"is_reserved":false,"is_disabled":false,"rental_uris":{"android":"levelo://app?vid=1a04738a-bd05-4e7f-b716-ba8d78a51904","ios":"levelo://app?vid=1a04738a-bd05-4e7f-b716-ba8d78a51904"},"vehicle_type_id":"4","last_reported":1759122617,"current_range_meters":16400,"station_id":"","pricing_plan_id":"cebpf4jnsgd1na2vs0mg"},{"bike_id":"74740c07-c316-42fc-a49a-9ccd15d77945","system_id":"levelo_inurba_marseille","lat":43.3153,"lon":5.38036,"is_reserved":false,"is_disabled":false,"rental_uris":{"android":"levelo://app?vid=74740c07-c316-42fc-a49a-9ccd15d77945","ios":"levelo://app?vid=74740c07-c316-42fc-a49a-9ccd15d77945"},"vehicle_type_id":"4","last_reported":1759122617,"current_range_meters":16400,"station_id":"ce4bhsp2rcd13ifvqi50","pricing_plan_id":"cebpf4jnsgd1na2vs0mg"},{"bike_id":"8c47a03e-35ae-4760-9248-dee9cf6b3ab6","system_id":"levelo_inurba_marseille","lat":43.29278,"lon":5.40139,"is_reserved":false,"is_disabled":false,"rental_uris":{"android":"levelo://app?vid=8c47a03e-35ae-4760-9248-dee9cf6b3ab6","ios":"levelo://app?vid=8c47a03e-35ae-4760-9248-dee9cf6b3ab6"},"vehicle_type_id":"4","last_reported":1759122617,"current_range_meters":16400,"station_id":"ce4bh312rcd13ifvqdk0","pricing_plan_id":"cebpf4jnsgd1na2vs0mg"},{"bike_id":"aa123961-c527-4db0-9350-7d548f67905a","system_id":"levelo_inurba_marseille","lat":43.27946,"lon":5.38753,"is_reserved":false,"is_disabled":false,"rental_uris":{"android":"levelo://app?vid=aa123961-c527-4db0-9350-7d548f67905a","ios":"levelo://app?vid=aa123961-c527-4db0-9350-7d548f67905a"},"vehicle_type_id":"4","last_reported":1759122617,"current_range_meters":16400,"station_id":"ce4bh492rcd13ifvqdvg","pricing_plan_id":"cebpf4jnsgd1na2vs0mg"},{"bike_id":"ba1cfbb3-555c-4e6c-85db-b50e9395062e","system_id":"levelo_inurba_marseille","lat":43.246877,"lon":5.381936,"is_reserved":false,"is_disabled":false,"rental_uris":{"android":"levelo://app?vid=ba1cfbb3-555c-4e6c-85db-b50e9395062e","ios":"levelo://app?vid=ba1cfbb3-555c-4e6c-85db-b50e9395062e"},"vehicle_type_id":"4","last_reported":1759122617,"current_range_meters":16400,"station_id":"","pricing_plan_id":"cebpf4jnsgd1na2vs0mg"},{"bike_id":"d0cde996-d8fd-4985-97ed-e8d61198abb1","system_id":"levelo_inurba_marseille","lat":43.319924,"lon":5.381498,"is_reserved":false,"is_disabled":true,"rental_uris":{"android":"levelo://app?vid=d0cde996-d8fd-4985-97ed-e8d61198abb1","ios":"levelo://app?vid=d0cde996-d8fd-4985-97ed-e8d61198abb1"},"vehicle_type_id":"4","last_reported":1759122617,"current_range_meters":16400,"station_id":"ce4bhr12rcd13ifvqhpg","pricing_plan_id":"cebpf4jnsgd1na2vs0mg"},{"bike_id":"ce5e157e-4ef2-4c41-9b3b-54d3eecbfa45","system_id":"levelo_inurba_marseille","lat":43.225355,"lon":5.348444,"is_reserved":false,"is_disabled":false,"rental_uris":{"android":"levelo://app?vid=ce5e157e-4ef2-4c41-9b3b-54d3eecbfa45","ios":"levelo://app?vid=ce5e157e-4ef2-4c41-9b3b-54d3eecbfa45"},"vehicle_type_id":"4","last_reported":1759122617,"current_range_meters":16400,"station_id":"","pricing_plan_id":"cebpf4jnsgd1na2vs0mg"},{"bike_id":"aebf0e68-ba27-412a-9ce2-11cc42127dee","system_id":"levelo_inurba_marseille","lat":43.337444,"lon":5.374475,"is_reserved":false,"is_disabled":false,"rental_uris":{"android":"levelo://app?vid=aebf0e68-ba27-412a-9ce2-11cc42127dee","ios":"levelo://app?vid=aebf0e68-ba27-412a-9ce2-11cc42127dee"},"vehicle_type_id":"4","last_reported":1759122617,"current_range_meters":16400,"station_id":"","pricing_plan_id":"cebpf4jnsgd1na2vs0mg"},{"bike_id":"827282d4-045f-4fe0-9292-bc599fbf5e4c","system_id":"levelo_inurba_marseille","lat":43.337444,"lon":5.374475,"is_reserved":false,"is_disabled":false,"rental_uris":{"android":"levelo://app?vid=827282d4-045f-4fe0-9292-bc599fbf5e4c","ios":"levelo://app?vid=827282d4-045f-4fe0-9292-bc599fbf5e4c"},"vehicle_type_id":"4","last_reported":1759122617,"current_range_meters":16800,"station_id":"","pricing_plan_id":"cebpf4jnsgd1na2vs0mg"},{"bike_id":"78edd212-3bd8-4a45-bced-089e3907902a","system_id":"levelo_inurba_marseille","lat":43.3275,"lon":5.42378,"is_reserved":false,"is_disabled":false,"rental_uris":{"android":"levelo://app?vid=78edd212-3bd8-4a45-bced-089e3907902a","ios":"levelo://app?vid=78edd212-3bd8-4a45-bced-089e3907902a"},"vehicle_type_id":"4","last_reported":1759122617,"current_range_meters":16800,"station_id":"","pricing_plan_id":"cebpf4jnsgd1na2vs0mg"},{"bike_id":"50ca908d-e7e1-42d9-bd51-7899c211d657","system_id":"levelo_inurba_marseille","lat":43.258247,"lon":5.394357,"is_reserved":false,"is_disabled":false,"rental_uris":{"android":"levelo://app?vid=50ca908d-e7e1-42d9-bd51-7899c211d657","ios":"levelo://app?vid=50ca908d-e7e1-42d9-bd51-7899c211d657"},"vehicle_type_id":"4","last_reported":1759122617,"current_range_meters":16800,"station_id":"ce4bhip2rcd13ifvqft0","pricing_plan_id":"cebpf4jnsgd1na2vs0mg"},{"bike_id":"0c0074f9-f664-4d80-8ff5-a07456b7c708","system_id":"levelo_inurba_marseille","lat":43.30467,"lon":5.37918,"is_reserved":false,"is_disabled":false,"rental_uris":{"android":"levelo://app?vid=0c0074f9-f664-4d80-8ff5-a07456b7c708","ios":"levelo://app?vid=0c0074f9-f664-4d80-8ff5-a07456b7c708"},"vehicle_type_id":"4","last_reported":1759122617,"current_range_meters":16800,"station_id":"ce4bgup2rcd13ifvqcn0","pricing_plan_id":"cebpf4jnsgd1na2vs0mg"},{"bike_id":"8cbcf5e7-b804-4925-bbed-5f57e8580ccf","system_id":"levelo_inurba_marseille","lat":43.31519,"lon":5.36803,"is_reserved":false,"is_disabled":false,"rental_uris":{"android":"levelo://app?vid=8cbcf5e7-b804-4925-bbed-5f57e8580ccf","ios":"levelo://app?vid=8cbcf5e7-b804-4925-bbed-5f57e8580ccf"},"vehicle_type_id":"4","last_reported":1759122617,"current_range_meters":16800,"station_id":"","pricing_plan_id":"cebpf4jnsgd1na2vs0mg"},{"bike_id":"051eb41f-71c0-452f-8a8e-387b983bfecf","system_id":"levelo_inurba_marseille","lat":43.322187,"lon":5.369126,"is_reserved":false,"is_disabled":false,"rental_uris":{"android":"levelo://app?vid=051eb41f-71c0-452f-8a8e-387b983bfecf","ios":"levelo://app?vid=051eb41f-71c0-452f-8a8e-387b983bfecf"},"vehicle_type_id":"4","last_reported":1759122617,"current_range_meters":16800,"station_id":"","pricing_plan_id":"cebpf4jnsgd1na2vs0mg"},{"bike_id":"56d6a008-a903-4bd5-8ee3-1cec5d05c634","system_id":"levelo_inurba_marseille","lat":43.31749,"lon":5.39024,"is_reserved":false,"is_disabled":false,"rental_uris":{"android":"levelo://app?vid=56d6a008-a903-4bd5-8ee3-1cec5d05c634","ios":"levelo://app?vid=56d6a008-a903-4bd5-8ee3-1cec5d05c634"},"vehicle_type_id":"4","last_reported":1759122617,"current_range_meters":16800,"station_id":"ce4bhqp2rcd13ifvqhng","pricing_plan_id":"cebpf4jnsgd1na2vs0mg"},{"bike_id":"b90badd7-dcca-4568-a4d5-8c2465d93ad8","system_id":"levelo_inurba_marseille","lat":43.291986,"lon":5.393188,"is_reserved":false,"is_disabled":false,"rental_uris":{"android":"levelo://app?vid=b90badd7-dcca-4568-a4d5-8c2465d93ad8","ios":"levelo://app?vid=b90badd7-dcca-4568-a4d5-8c2465d93ad8"},"vehicle_type_id":"4","last_reported":1759122617,"current_range_meters":16800,"station_id":"ce4bh192rcd13ifvqdd0","pricing_plan_id":"cebpf4jnsgd1na2vs0mg"},{"bike_id":"196c7042-595c-4d52-898c-16ecaecb31aa","system_id":"levelo_inurba_marseille","lat":43.24815,"lon":5.37456,"is_reserved":false,"is_disabled":false,"rental_uris":{"android":"levelo://app?vid=196c7042-595c-4d52-898c-16ecaecb31aa","ios":"levelo://app?vid=196c7042-595c-4d52-898c-16ecaecb31aa"},"vehicle_type_id":"4","last_reported":1759122617,"current_range_meters":16800,"station_id":"ce4bhgh2rcd13ifvqfb0","pricing_plan_id":"cebpf4jnsgd1na2vs0mg"},{"bike_id":"0b228ae1-a233-4edc-a739-700c62a5dad9","system_id":"levelo_inurba_marseille","lat":43.30246,"lon":5.40055,"is_reserved":false,"is_disabled":true,"rental_uris":{"android":"levelo://app?vid=0b228ae1-a233-4edc-a739-700c62a5dad9","ios":"levelo://app?vid=0b228ae1-a233-4edc-a739-700c62a5dad9"},"vehicle_type_id":"4","last_reported":1759122617,"current_range_meters":16800,"station_id":"ce4bgvh2rcd13ifvqcs0","pricing_plan_id":"cebpf4jnsgd1na2vs0mg"},{"bike_id":"188e2615-7dfb-491c-9295-d87110844792","system_id":"levelo_inurba_marseille","lat":43.253329,"lon":5.421718,"is_reserved":false,"is_disabled":false,"rental_uris":{"android":"levelo://app?vid=188e2615-7dfb-491c-9295-d87110844792","ios":"levelo://app?vid=188e2615-7dfb-491c-9295-d87110844792"},"vehicle_type_id":"4","last_reported":1759122617,"current_range_meters":16800,"station_id":"st_d2m65c5bi1j21697t3ng","pricing_plan_id":"cebpf4jnsgd1na2vs0mg"},{"bike_id":"d42b5804-5f36-42b6-93da-0777870cd7f6","system_id":"levelo_inurba_marseille","lat":43.31327,"lon":5.3969,"is_reserved":false,"is_disabled":false,"rental_uris":{"android":"levelo://app?vid=d42b5804-5f36-42b6-93da-0777870cd7f6","ios":"levelo://app?vid=d42b5804-5f36-42b6-93da-0777870cd7f6"},"vehicle_type_id":"4","last_reported":1759122617,"current_range_meters":16800,"station_id":"ce4bgvp2rcd13ifvqcu0","pricing_plan_id":"cebpf4jnsgd1na2vs0mg"},{"bike_id":"f3ecd23d-7c2e-43ad-8b90-58bcb9bb49c5","system_id":"levelo_inurba_marseille","lat":43.30295,"lon":5.39211,"is_reserved":false,"is_disabled":false,"rental_uris":{"android":"levelo://app?vid=f3ecd23d-7c2e-43ad-8b90-58bcb9bb49c5","ios":"levelo://app?vid=f3ecd23d-7c2e-43ad-8b90-58bcb9bb49c5"},"vehicle_type_id":"4","last_reported":1759122617,"current_range_meters":16800,"station_id":"ce4bgkh2rcd13ifvqbk0","pricing_plan_id":"cebpf4jnsgd1na2vs0mg"},{"bike_id":"193df209-70b7-45f5-a947-30373800ac32","system_id":"levelo_inurba_marseille","lat":43.26943,"lon":5.40265,"is_reserved":false,"is_disabled":false,"rental_uris":{"android":"levelo://app?vid=193df209-70b7-45f5-a947-30373800ac32","ios":"levelo://app?vid=193df209-70b7-45f5-a947-30373800ac32"},"vehicle_type_id":"4","last_reported":1759122617,"current_range_meters":16800,"station_id":"cjm6bp8fraef2m0cb0m0","pricing_plan_id":"cebpf4jnsgd1na2vs0mg"},{"bike_id":"53e445d8-a3f1-42c4-9c47-70f78f8c528f","system_id":"levelo_inurba_marseille","lat":43.29257,"lon":5.367791,"is_reserved":false,"is_disabled":true,"rental_uris":{"android":"levelo://app?vid=53e445d8-a3f1-42c4-9c47-70f78f8c528f","ios":"levelo://app?vid=53e445d8-a3f1-42c4-9c47-70f78f8c528f"},"vehicle_type_id":"4","last_reported":1759122617,"current_range_meters":17200,"station_id":"","pricing_plan_id":"cebpf4jnsgd1na2vs0mg"},{"bike_id":"f4700d7c-c4f4-4346-88f1-31c5451190d1","system_id":"levelo_inurba_marseille","lat":43.29315,"lon":5.37163,"is_reserved":false,"is_disabled":true,"rental_uris":{"android":"levelo://app?vid=f4700d7c-c4f4-4346-88f1-31c5451190d1","ios":"levelo://app?vid=f4700d7c-c4f4-4346-88f1-31c5451190d1"},"vehicle_type_id":"4","last_reported":1759122617,"current_range_meters":17200,"station_id":"ce4bgh92rcd13ifvqb40","pricing_plan_id":"cebpf4jnsgd1na2vs0mg"},{"bike_id":"e1befcea-bc8b-4ca8-89f9-4617cc4c19be","system_id":"levelo_inurba_marseille","lat":43.29761,"lon":5.38884,"is_reserved":false,"is_disabled":false,"rental_uris":{"android":"levelo://app?vid=e1befcea-bc8b-4ca8-89f9-4617cc4c19be","ios":"levelo://app?vid=e1befcea-bc8b-4ca8-89f9-4617cc4c19be"},"vehicle_type_id":"4","last_reported":1759122617,"current_range_meters":17200,"station_id":"","pricing_plan_id":"cebpf4jnsgd1na2vs0mg"},{"bike_id":"ef283424-eb2d-486a-bb66-daba5845aaac","system_id":"levelo_inurba_marseille","lat":43.3013,"lon":5.38785,"is_reserved":false,"is_disabled":true,"rental_uris":{"android":"levelo://app?vid=ef283424-eb2d-486a-bb66-daba5845aaac","ios":"levelo://app?vid=ef283424-eb2d-486a-bb66-daba5845aaac"},"vehicle_type_id":"4","last_reported":1759122617,"current_range_meters":17200,"station_id":"ce4bghh2rcd13ifvqb60","pricing_plan_id":"cebpf4jnsgd1na2vs0mg"},{"bike_id":"5a915109-04f7-4d8f-a4b5-d66c9c44b349","system_id":"levelo_inurba_marseille","lat":43.29587,"lon":5.37785,"is_reserved":false,"is_disabled":true,"rental_uris":{"android":"levelo://app?vid=5a915109-04f7-4d8f-a4b5-d66c9c44b349","ios":"levelo://app?vid=5a915109-04f7-4d8f-a4b5-d66c9c44b349"},"vehicle_type_id":"4","last_reported":1759122617,"current_range_meters":17200,"station_id":"","pricing_plan_id":"cebpf4jnsgd1na2vs0mg"},{"bike_id":"f1dcce9c-2101-4453-b623-2ae74537708d","system_id":"levelo_inurba_marseille","lat":43.27213,"lon":5.392,"is_reserved":false,"is_disabled":true,"rental_uris":{"android":"levelo://app?vid=f1dcce9c-2101-4453-b623-2ae74537708d","ios":"levelo://app?vid=f1dcce9c-2101-4453-b623-2ae74537708d"},"vehicle_type_id":"4","last_reported":1759122617,"current_range_meters":17200,"station_id":"ce4bhhp2rcd13ifvqfm0","pricing_plan_id":"cebpf4jnsgd1na2vs0mg"},{"bike_id":"75ca829a-ee93-4ede-b3ba-45d993c38e92","system_id":"levelo_inurba_marseille","lat":43.257177,"lon":5.411111,"is_reserved":false,"is_disabled":false,"rental_uris":{"android":"levelo://app?vid=75ca829a-ee93-4ede-b3ba-45d993c38e92","ios":"levelo://app?vid=75ca829a-ee93-4ede-b3ba-45d993c38e92"},"vehicle_type_id":"4","last_reported":1759122617,"current_range_meters":17200,"station_id":"ce4bhkp2rcd13ifvqgd0","pricing_plan_id":"cebpf4jnsgd1na2vs0mg"},{"bike_id":"5597f8f1-cc16-4d91-800c-70712618e417","system_id":"levelo_inurba_marseille","lat":43.2797,"lon":5.38738,"is_reserved":false,"is_disabled":false,"rental_uris":{"android":"levelo://app?vid=5597f8f1-cc16-4d91-800c-70712618e417","ios":"levelo://app?vid=5597f8f1-cc16-4d91-800c-70712618e417"},"vehicle_type_id":"4","last_reported":1759122617,"current_range_meters":17200,"station_id":"ce4bhg12rcd13ifvqf80","pricing_plan_id":"cebpf4jnsgd1na2vs0mg"},{"bike_id":"99ce2063-5dfb-4ed3-a4a6-8fc3a54c4890","system_id":"levelo_inurba_marseille","lat":43.337444,"lon":5.374475,"is_reserved":false,"is_disabled":false,"rental_uris":{"android":"levelo://app?vid=99ce2063-5dfb-4ed3-a4a6-8fc3a54c4890","ios":"levelo://app?vid=99ce2063-5dfb-4ed3-a4a6-8fc3a54c4890"},"vehicle_type_id":"4","last_reported":1759122617,"current_range_meters":17200,"station_id":"","pricing_plan_id":"cebpf4jnsgd1na2vs0mg"},{"bike_id":"d3bb5c85-465c-46af-97e6-7e40fe2aa116","system_id":"levelo_inurba_marseille","lat":43.337444,"lon":5.374475,"is_reserved":false,"is_disabled":false,"rental_uris":{"android":"levelo://app?vid=d3bb5c85-465c-46af-97e6-7e40fe2aa116","ios":"levelo://app?vid=d3bb5c85-465c-46af-97e6-7e40fe2aa116"},"vehicle_type_id":"4","last_reported":1759122617,"current_range_meters":17600,"station_id":"ce4bh092rcd13ifvqd20","pricing_plan_id":"cebpf4jnsgd1na2vs0mg"},{"bike_id":"62bee7f0-9716-4562-bff6-9a8961078314","system_id":"levelo_inurba_marseille","lat":43.27077,"lon":5.40246,"is_reserved":false,"is_disabled":false,"rental_uris":{"android":"levelo://app?vid=62bee7f0-9716-4562-bff6-9a8961078314","ios":"levelo://app?vid=62bee7f0-9716-4562-bff6-9a8961078314"},"vehicle_type_id":"4","last_reported":1759122617,"current_range_meters":17600,"station_id":"ce4bhk92rcd13ifvqgc0","pricing_plan_id":"cebpf4jnsgd1na2vs0mg"},{"bike_id":"daf0ee8e-b1af-4e07-beea-72d6d6eaba49","system_id":"levelo_inurba_marseille","lat":43.28701,"lon":5.40021,"is_reserved":false,"is_disabled":false,"rental_uris":{"android":"levelo://app?vid=daf0ee8e-b1af-4e07-beea-72d6d6eaba49","ios":"levelo://app?vid=daf0ee8e-b1af-4e07-beea-72d6d6eaba49"},"vehicle_type_id":"4","last_reported":1759122617,"current_range_meters":17600,"station_id":"ce4bho92rcd13ifvqh3g","pricing_plan_id":"cebpf4jnsgd1na2vs0mg"},{"bike_id":"c622f243-50cc-4435-98ad-aaac51ff224a","system_id":"levelo_inurba_marseille","lat":43.337681,"lon":5.374399,"is_reserved":false,"is_disabled":false,"rental_uris":{"android":"levelo://app?vid=c622f243-50cc-4435-98ad-aaac51ff224a","ios":"levelo://app?vid=c622f243-50cc-4435-98ad-aaac51ff224a"},"vehicle_type_id":"4","last_reported":1759122617,"current_range_meters":17600,"station_id":"","pricing_plan_id":"cebpf4jnsgd1na2vs0mg"},{"bike_id":"728c4cae-8406-4c96-9634-fd0b4d57fc36","system_id":"levelo_inurba_marseille","lat":43.30277,"lon":5.37726,"is_reserved":false,"is_disabled":false,"rental_uris":{"android":"levelo://app?vid=728c4cae-8406-4c96-9634-fd0b4d57fc36","ios":"levelo://app?vid=728c4cae-8406-4c96-9634-fd0b4d57fc36"},"vehicle_type_id":"4","last_reported":1759122617,"current_range_meters":17600,"station_id":"ce4bguh2rcd13ifvqcj0","pricing_plan_id":"cebpf4jnsgd1na2vs0mg"},{"bike_id":"738a51a6-02d0-4def-8f3f-9c82f6a6dd05","system_id":"levelo_inurba_marseille","lat":43.32373,"lon":5.36742,"is_reserved":false,"is_disabled":false,"rental_uris":{"android":"levelo://app?vid=738a51a6-02d0-4def-8f3f-9c82f6a6dd05","ios":"levelo://app?vid=738a51a6-02d0-4def-8f3f-9c82f6a6dd05"},"vehicle_type_id":"4","last_reported":1759122617,"current_range_meters":17600,"station_id":"ce4bhsh2rcd13ifvqi2g","pricing_plan_id":"cebpf4jnsgd1na2vs0mg"},{"bike_id":"899af826-7c5d-4a2b-b0fd-d061ab2a7573","system_id":"levelo_inurba_marseille","lat":43.257157,"lon":5.41114,"is_reserved":false,"is_disabled":false,"rental_uris":{"android":"levelo://app?vid=899af826-7c5d-4a2b-b0fd-d061ab2a7573","ios":"levelo://app?vid=899af826-7c5d-4a2b-b0fd-d061ab2a7573"},"vehicle_type_id":"4","last_reported":1759122617,"current_range_meters":17600,"station_id":"ce4bhkp2rcd13ifvqgd0","pricing_plan_id":"cebpf4jnsgd1na2vs0mg"},{"bike_id":"800266a5-6e0e-4e42-b6cd-e2d94a1a9f46","system_id":"levelo_inurba_marseille","lat":43.26241,"lon":5.40491,"is_reserved":false,"is_disabled":false,"rental_uris":{"android":"levelo://app?vid=800266a5-6e0e-4e42-b6cd-e2d94a1a9f46","ios":"levelo://app?vid=800266a5-6e0e-4e42-b6cd-e2d94a1a9f46"},"vehicle_type_id":"4","last_reported":1759122617,"current_range_meters":17600,"station_id":"ce4bhmh2rcd13ifvqgmg","pricing_plan_id":"cebpf4jnsgd1na2vs0mg"},{"bike_id":"acd828ce-0fc4-45a0-856e-cb469e52f179","system_id":"levelo_inurba_marseille","lat":43.29774,"lon":5.39328,"is_reserved":false,"is_disabled":false,"rental_uris":{"android":"levelo://app?vid=acd828ce-0fc4-45a0-856e-cb469e52f179","ios":"levelo://app?vid=acd828ce-0fc4-45a0-856e-cb469e52f179"},"vehicle_type_id":"4","last_reported":1759122617,"current_range_meters":17600,"station_id":"chh1huq6cuj3fo74tm60","pricing_plan_id":"cebpf4jnsgd1na2vs0mg"},{"bike_id":"00b3c5d5-9ad5-4872-b372-089fa3a04914","system_id":"levelo_inurba_marseille","lat":43.286376,"lon":5.354934,"is_reserved":false,"is_disabled":false,"rental_uris":{"android":"levelo://app?vid=00b3c5d5-9ad5-4872-b372-089fa3a04914","ios":"levelo://app?vid=00b3c5d5-9ad5-4872-b372-089fa3a04914"},"vehicle_type_id":"4","last_reported":1759122617,"current_range_meters":17600,"station_id":"","pricing_plan_id":"cebpf4jnsgd1na2vs0mg"},{"bike_id":"56ca0258-bee9-4eb2-b3c5-63b5cd0b9e67","system_id":"levelo_inurba_marseille","lat":43.33737,"lon":5.37445,"is_reserved":false,"is_disabled":false,"rental_uris":{"android":"levelo://app?vid=56ca0258-bee9-4eb2-b3c5-63b5cd0b9e67","ios":"levelo://app?vid=56ca0258-bee9-4eb2-b3c5-63b5cd0b9e67"},"vehicle_type_id":"4","last_reported":1759122617,"current_range_meters":17600,"station_id":"","pricing_plan_id":"cebpf4jnsgd1na2vs0mg"},{"bike_id":"92662833-c6ac-4b02-b7df-1638b54b1972","system_id":"levelo_inurba_marseille","lat":43.33742,"lon":5.37449,"is_reserved":false,"is_disabled":false,"rental_uris":{"android":"levelo://app?vid=92662833-c6ac-4b02-b7df-1638b54b1972","ios":"levelo://app?vid=92662833-c6ac-4b02-b7df-1638b54b1972"},"vehicle_type_id":"4","last_reported":1759122617,"current_range_meters":17600,"station_id":"","pricing_plan_id":"cebpf4jnsgd1na2vs0mg"},{"bike_id":"f8d78e5f-60e1-4623-939f-49e76ff16505","system_id":"levelo_inurba_marseille","lat":43.33742,"lon":5.37448,"is_reserved":false,"is_disabled":false,"rental_uris":{"android":"levelo://app?vid=f8d78e5f-60e1-4623-939f-49e76ff16505","ios":"levelo://app?vid=f8d78e5f-60e1-4623-939f-49e76ff16505"},"vehicle_type_id":"4","last_reported":1759122617,"current_range_meters":17600,"station_id":"","pricing_plan_id":"cebpf4jnsgd1na2vs0mg"},{"bike_id":"d48aecbf-fbb8-4a01-989e-943a70b920d5","system_id":"levelo_inurba_marseille","lat":43.31332,"lon":5.37107,"is_reserved":false,"is_disabled":false,"rental_uris":{"android":"levelo://app?vid=d48aecbf-fbb8-4a01-989e-943a70b920d5","ios":"levelo://app?vid=d48aecbf-fbb8-4a01-989e-943a70b920d5"},"vehicle_type_id":"4","last_reported":1759122617,"current_range_meters":18000,"station_id":"","pricing_plan_id":"cebpf4jnsgd1na2vs0mg"},{"bike_id":"35674f30-45d2-4192-a400-f0f8445d4437","system_id":"levelo_inurba_marseille","lat":43.31067,"lon":5.40083,"is_reserved":false,"is_disabled":false,"rental_uris":{"android":"levelo://app?vid=35674f30-45d2-4192-a400-f0f8445d4437","ios":"levelo://app?vid=35674f30-45d2-4192-a400-f0f8445d4437"},"vehicle_type_id":"4","last_reported":1759122617,"current_range_meters":18000,"station_id":"","pricing_plan_id":"cebpf4jnsgd1na2vs0mg"},{"bike_id":"96520869-d013-4e0c-a355-f7bbd728ba84","system_id":"levelo_inurba_marseille","lat":43.32374,"lon":5.36756,"is_reserved":false,"is_disabled":false,"rental_uris":{"android":"levelo://app?vid=96520869-d013-4e0c-a355-f7bbd728ba84","ios":"levelo://app?vid=96520869-d013-4e0c-a355-f7bbd728ba84"},"vehicle_type_id":"4","last_reported":1759122617,"current_range_meters":18000,"station_id":"ce4bhsh2rcd13ifvqi2g","pricing_plan_id":"cebpf4jnsgd1na2vs0mg"},{"bike_id":"a05bd468-c6b8-49b8-ade3-15e52e32f754","system_id":"levelo_inurba_marseille","lat":43.24058,"lon":5.37771,"is_reserved":false,"is_disabled":false,"rental_uris":{"android":"levelo://app?vid=a05bd468-c6b8-49b8-ade3-15e52e32f754","ios":"levelo://app?vid=a05bd468-c6b8-49b8-ade3-15e52e32f754"},"vehicle_type_id":"4","last_reported":1759122617,"current_range_meters":18000,"station_id":"ce4bhnp2rcd13ifvqgvg","pricing_plan_id":"cebpf4jnsgd1na2vs0mg"},{"bike_id":"74898dc7-8c2d-4900-a548-e66777267953","system_id":"levelo_inurba_marseille","lat":43.27565,"lon":5.35944,"is_reserved":false,"is_disabled":false,"rental_uris":{"android":"levelo://app?vid=74898dc7-8c2d-4900-a548-e66777267953","ios":"levelo://app?vid=74898dc7-8c2d-4900-a548-e66777267953"},"vehicle_type_id":"4","last_reported":1759122617,"current_range_meters":18000,"station_id":"","pricing_plan_id":"cebpf4jnsgd1na2vs0mg"},{"bike_id":"6ca7f74e-0578-429c-8d66-5e02da2e17f6","system_id":"levelo_inurba_marseille","lat":43.30924,"lon":5.37253,"is_reserved":false,"is_disabled":false,"rental_uris":{"android":"levelo://app?vid=6ca7f74e-0578-429c-8d66-5e02da2e17f6","ios":"levelo://app?vid=6ca7f74e-0578-429c-8d66-5e02da2e17f6"},"vehicle_type_id":"4","last_reported":1759122617,"current_range_meters":18000,"station_id":"","pricing_plan_id":"cebpf4jnsgd1na2vs0mg"},{"bike_id":"09dc7070-767f-485c-8bab-bf9eefcad225","system_id":"levelo_inurba_marseille","lat":43.294504,"lon":5.380698,"is_reserved":false,"is_disabled":false,"rental_uris":{"android":"levelo://app?vid=09dc7070-767f-485c-8bab-bf9eefcad225","ios":"levelo://app?vid=09dc7070-767f-485c-8bab-bf9eefcad225"},"vehicle_type_id":"4","last_reported":1759122617,"current_range_meters":18000,"station_id":"","pricing_plan_id":"cebpf4jnsgd1na2vs0mg"},{"bike_id":"d02d0c4f-ab0c-416c-9396-9d6dddea1350","system_id":"levelo_inurba_marseille","lat":43.27327,"lon":5.39112,"is_reserved":false,"is_disabled":true,"rental_uris":{"android":"levelo://app?vid=d02d0c4f-ab0c-416c-9396-9d6dddea1350","ios":"levelo://app?vid=d02d0c4f-ab0c-416c-9396-9d6dddea1350"},"vehicle_type_id":"4","last_reported":1759122617,"current_range_meters":18000,"station_id":"ce4bhgp2rcd13ifvqfe0","pricing_plan_id":"cebpf4jnsgd1na2vs0mg"},{"bike_id":"9c4a7bdb-c552-4dfd-8efb-40b9e0b0b147","system_id":"levelo_inurba_marseille","lat":43.33769,"lon":5.37474,"is_reserved":false,"is_disabled":false,"rental_uris":{"android":"levelo://app?vid=9c4a7bdb-c552-4dfd-8efb-40b9e0b0b147","ios":"levelo://app?vid=9c4a7bdb-c552-4dfd-8efb-40b9e0b0b147"},"vehicle_type_id":"4","last_reported":1759122617,"current_range_meters":18000,"station_id":"","pricing_plan_id":"cebpf4jnsgd1na2vs0mg"},{"bike_id":"21e67860-dcbf-4ca6-a4ad-d174953310f3","system_id":"levelo_inurba_marseille","lat":43.278133,"lon":5.407173,"is_reserved":false,"is_disabled":false,"rental_uris":{"android":"levelo://app?vid=21e67860-dcbf-4ca6-a4ad-d174953310f3","ios":"levelo://app?vid=21e67860-dcbf-4ca6-a4ad-d174953310f3"},"vehicle_type_id":"4","last_reported":1759122617,"current_range_meters":18000,"station_id":"ce4bhnh2rcd13ifvqgtg","pricing_plan_id":"cebpf4jnsgd1na2vs0mg"},{"bike_id":"6a6c2a78-f766-494a-bfcb-1334d36e2ade","system_id":"levelo_inurba_marseille","lat":43.32114,"lon":5.36786,"is_reserved":false,"is_disabled":false,"rental_uris":{"android":"levelo://app?vid=6a6c2a78-f766-494a-bfcb-1334d36e2ade","ios":"levelo://app?vid=6a6c2a78-f766-494a-bfcb-1334d36e2ade"},"vehicle_type_id":"4","last_reported":1759122617,"current_range_meters":18000,"station_id":"ce4bhrh2rcd13ifvqhug","pricing_plan_id":"cebpf4jnsgd1na2vs0mg"},{"bike_id":"e304f583-af5b-4204-9160-8980a98fbc17","system_id":"levelo_inurba_marseille","lat":43.313283,"lon":5.396997,"is_reserved":false,"is_disabled":false,"rental_uris":{"android":"levelo://app?vid=e304f583-af5b-4204-9160-8980a98fbc17","ios":"levelo://app?vid=e304f583-af5b-4204-9160-8980a98fbc17"},"vehicle_type_id":"4","last_reported":1759122617,"current_range_meters":18000,"station_id":"ce4bgvp2rcd13ifvqcu0","pricing_plan_id":"cebpf4jnsgd1na2vs0mg"},{"bike_id":"c65d06cd-1e15-49c0-b9af-813ec3597c63","system_id":"levelo_inurba_marseille","lat":43.27077,"lon":5.4227,"is_reserved":false,"is_disabled":false,"rental_uris":{"android":"levelo://app?vid=c65d06cd-1e15-49c0-b9af-813ec3597c63","ios":"levelo://app?vid=c65d06cd-1e15-49c0-b9af-813ec3597c63"},"vehicle_type_id":"4","last_reported":1759122617,"current_range_meters":18000,"station_id":"ce4bhk92rcd13ifvqgb0","pricing_plan_id":"cebpf4jnsgd1na2vs0mg"},{"bike_id":"900af94b-c66c-4f64-bbf1-9ff7ccb66f8b","system_id":"levelo_inurba_marseille","lat":43.27207,"lon":5.39186,"is_reserved":false,"is_disabled":false,"rental_uris":{"android":"levelo://app?vid=900af94b-c66c-4f64-bbf1-9ff7ccb66f8b","ios":"levelo://app?vid=900af94b-c66c-4f64-bbf1-9ff7ccb66f8b"},"vehicle_type_id":"4","last_reported":1759122617,"current_range_meters":18000,"station_id":"ce4bhhp2rcd13ifvqfm0","pricing_plan_id":"cebpf4jnsgd1na2vs0mg"},{"bike_id":"4c656eee-fe64-47a4-ae47-e9dab2647a66","system_id":"levelo_inurba_marseille","lat":43.249494,"lon":5.404838,"is_reserved":false,"is_disabled":false,"rental_uris":{"android":"levelo://app?vid=4c656eee-fe64-47a4-ae47-e9dab2647a66","ios":"levelo://app?vid=4c656eee-fe64-47a4-ae47-e9dab2647a66"},"vehicle_type_id":"4","last_reported":1759122617,"current_range_meters":18000,"station_id":"st_d2ngiaodas8pm72gd1h0","pricing_plan_id":"cebpf4jnsgd1na2vs0mg"},{"bike_id":"472ee532-77ff-4d7d-8b4b-121f9de88fe6","system_id":"levelo_inurba_marseille","lat":43.24539,"lon":5.39521,"is_reserved":false,"is_disabled":true,"rental_uris":{"android":"levelo://app?vid=472ee532-77ff-4d7d-8b4b-121f9de88fe6","ios":"levelo://app?vid=472ee532-77ff-4d7d-8b4b-121f9de88fe6"},"vehicle_type_id":"4","last_reported":1759122617,"current_range_meters":18800,"station_id":"ce4bhlp2rcd13ifvqgjg","pricing_plan_id":"cebpf4jnsgd1na2vs0mg"},{"bike_id":"8bc36353-646c-4439-ad1a-e95eeebfd245","system_id":"levelo_inurba_marseille","lat":43.29529,"lon":5.39025,"is_reserved":false,"is_disabled":true,"rental_uris":{"android":"levelo://app?vid=8bc36353-646c-4439-ad1a-e95eeebfd245","ios":"levelo://app?vid=8bc36353-646c-4439-ad1a-e95eeebfd245"},"vehicle_type_id":"4","last_reported":1759122617,"current_range_meters":18800,"station_id":"ce4bh3p2rcd13ifvqdp0","pricing_plan_id":"cebpf4jnsgd1na2vs0mg"},{"bike_id":"c3c59d7f-11ff-40ef-acb2-26a025534524","system_id":"levelo_inurba_marseille","lat":43.28159,"lon":5.42643,"is_reserved":false,"is_disabled":false,"rental_uris":{"android":"levelo://app?vid=c3c59d7f-11ff-40ef-acb2-26a025534524","ios":"levelo://app?vid=c3c59d7f-11ff-40ef-acb2-26a025534524"},"vehicle_type_id":"4","last_reported":1759122617,"current_range_meters":18800,"station_id":"ce4bhnh2rcd13ifvqgug","pricing_plan_id":"cebpf4jnsgd1na2vs0mg"},{"bike_id":"390603f2-cb07-47f6-95ec-4470ea8b591b","system_id":"levelo_inurba_marseille","lat":43.299021,"lon":5.436646,"is_reserved":false,"is_disabled":true,"rental_uris":{"android":"levelo://app?vid=390603f2-cb07-47f6-95ec-4470ea8b591b","ios":"levelo://app?vid=390603f2-cb07-47f6-95ec-4470ea8b591b"},"vehicle_type_id":"4","last_reported":1759122617,"current_range_meters":18800,"station_id":"ce4bhpp2rcd13ifvqhfg","pricing_plan_id":"cebpf4jnsgd1na2vs0mg"},{"bike_id":"0d904205-eb06-4aaf-b9d0-044e6e0b5363","system_id":"levelo_inurba_marseille","lat":43.27925,"lon":5.39588,"is_reserved":false,"is_disabled":false,"rental_uris":{"android":"levelo://app?vid=0d904205-eb06-4aaf-b9d0-044e6e0b5363","ios":"levelo://app?vid=0d904205-eb06-4aaf-b9d0-044e6e0b5363"},"vehicle_type_id":"4","last_reported":1759122617,"current_range_meters":18800,"station_id":"ce4bhf92rcd13ifvqf40","pricing_plan_id":"cebpf4jnsgd1na2vs0mg"},{"bike_id":"3c87e70f-a488-4f94-a655-af84b8d478bf","system_id":"levelo_inurba_marseille","lat":43.28464,"lon":5.35904,"is_reserved":false,"is_disabled":true,"rental_uris":{"android":"levelo://app?vid=3c87e70f-a488-4f94-a655-af84b8d478bf","ios":"levelo://app?vid=3c87e70f-a488-4f94-a655-af84b8d478bf"},"vehicle_type_id":"4","last_reported":1759122617,"current_range_meters":18800,"station_id":"ce4bhah2rcd13ifvqei0","pricing_plan_id":"cebpf4jnsgd1na2vs0mg"},{"bike_id":"f44df0c8-3c0a-4103-982e-900169d96e81","system_id":"levelo_inurba_marseille","lat":43.32084,"lon":5.36817,"is_reserved":false,"is_disabled":false,"rental_uris":{"android":"levelo://app?vid=f44df0c8-3c0a-4103-982e-900169d96e81","ios":"levelo://app?vid=f44df0c8-3c0a-4103-982e-900169d96e81"},"vehicle_type_id":"4","last_reported":1759122617,"current_range_meters":18800,"station_id":"ce4bhrh2rcd13ifvqhug","pricing_plan_id":"cebpf4jnsgd1na2vs0mg"},{"bike_id":"13604148-437a-4148-9ed9-019ca4e03ec3","system_id":"levelo_inurba_marseille","lat":43.246407,"lon":5.431359,"is_reserved":false,"is_disabled":false,"rental_uris":{"android":"levelo://app?vid=13604148-437a-4148-9ed9-019ca4e03ec3","ios":"levelo://app?vid=13604148-437a-4148-9ed9-019ca4e03ec3"},"vehicle_type_id":"4","last_reported":1759122617,"current_range_meters":18800,"station_id":"st_d2m6c4gdas8pm72e190g","pricing_plan_id":"cebpf4jnsgd1na2vs0mg"},{"bike_id":"7c991596-eaae-4a4c-b44f-c1757e4ca672","system_id":"levelo_inurba_marseille","lat":43.30294,"lon":5.39224,"is_reserved":false,"is_disabled":false,"rental_uris":{"android":"levelo://app?vid=7c991596-eaae-4a4c-b44f-c1757e4ca672","ios":"levelo://app?vid=7c991596-eaae-4a4c-b44f-c1757e4ca672"},"vehicle_type_id":"4","last_reported":1759122617,"current_range_meters":18800,"station_id":"ce4bgkh2rcd13ifvqbk0","pricing_plan_id":"cebpf4jnsgd1na2vs0mg"},{"bike_id":"cae5b5fc-c152-4d9b-9b4f-86eecd41b424","system_id":"levelo_inurba_marseille","lat":43.24838,"lon":5.3745,"is_reserved":false,"is_disabled":false,"rental_uris":{"android":"levelo://app?vid=cae5b5fc-c152-4d9b-9b4f-86eecd41b424","ios":"levelo://app?vid=cae5b5fc-c152-4d9b-9b4f-86eecd41b424"},"vehicle_type_id":"4","last_reported":1759122617,"current_range_meters":19200,"station_id":"","pricing_plan_id":"cebpf4jnsgd1na2vs0mg"},{"bike_id":"b25b273f-bcd1-465a-881a-4217efd701cc","system_id":"levelo_inurba_marseille","lat":43.31109,"lon":5.37718,"is_reserved":false,"is_disabled":true,"rental_uris":{"android":"levelo://app?vid=b25b273f-bcd1-465a-881a-4217efd701cc","ios":"levelo://app?vid=b25b273f-bcd1-465a-881a-4217efd701cc"},"vehicle_type_id":"4","last_reported":1759122617,"current_range_meters":19200,"station_id":"ce4bgt92rcd13ifvqcg0","pricing_plan_id":"cebpf4jnsgd1na2vs0mg"},{"bike_id":"33c22d45-451e-4404-877b-8de38f6e4e67","system_id":"levelo_inurba_marseille","lat":43.298775,"lon":5.3765,"is_reserved":false,"is_disabled":true,"rental_uris":{"android":"levelo://app?vid=33c22d45-451e-4404-877b-8de38f6e4e67","ios":"levelo://app?vid=33c22d45-451e-4404-877b-8de38f6e4e67"},"vehicle_type_id":"4","last_reported":1759122617,"current_range_meters":19200,"station_id":"","pricing_plan_id":"cebpf4jnsgd1na2vs0mg"},{"bike_id":"af228331-4f65-4e3d-bc26-a6bde62a3636","system_id":"levelo_inurba_marseille","lat":43.3282,"lon":5.411302,"is_reserved":false,"is_disabled":false,"rental_uris":{"android":"levelo://app?vid=af228331-4f65-4e3d-bc26-a6bde62a3636","ios":"levelo://app?vid=af228331-4f65-4e3d-bc26-a6bde62a3636"},"vehicle_type_id":"4","last_reported":1759122617,"current_range_meters":19200,"station_id":"","pricing_plan_id":"cebpf4jnsgd1na2vs0mg"},{"bike_id":"22f7d1c6-b362-4b5d-89d5-bc00cbe70f31","system_id":"levelo_inurba_marseille","lat":43.246534,"lon":5.388933,"is_reserved":false,"is_disabled":false,"rental_uris":{"android":"levelo://app?vid=22f7d1c6-b362-4b5d-89d5-bc00cbe70f31","ios":"levelo://app?vid=22f7d1c6-b362-4b5d-89d5-bc00cbe70f31"},"vehicle_type_id":"4","last_reported":1759122617,"current_range_meters":19200,"station_id":"ce4bhg12rcd13ifvqf60","pricing_plan_id":"cebpf4jnsgd1na2vs0mg"},{"bike_id":"17bbf4dd-fba9-4826-8c7d-9be0609a6e2f","system_id":"levelo_inurba_marseille","lat":43.31144,"lon":5.377057,"is_reserved":false,"is_disabled":false,"rental_uris":{"android":"levelo://app?vid=17bbf4dd-fba9-4826-8c7d-9be0609a6e2f","ios":"levelo://app?vid=17bbf4dd-fba9-4826-8c7d-9be0609a6e2f"},"vehicle_type_id":"4","last_reported":1759122617,"current_range_meters":19200,"station_id":"","pricing_plan_id":"cebpf4jnsgd1na2vs0mg"},{"bike_id":"d2f46c9e-a53c-42a7-ad54-fd7c896f4565","system_id":"levelo_inurba_marseille","lat":43.33797,"lon":5.37428,"is_reserved":false,"is_disabled":false,"rental_uris":{"android":"levelo://app?vid=d2f46c9e-a53c-42a7-ad54-fd7c896f4565","ios":"levelo://app?vid=d2f46c9e-a53c-42a7-ad54-fd7c896f4565"},"vehicle_type_id":"4","last_reported":1759122617,"current_range_meters":19200,"station_id":"","pricing_plan_id":"cebpf4jnsgd1na2vs0mg"},{"bike_id":"c47f5c3e-1ff3-43b7-b740-1c081ef57305","system_id":"levelo_inurba_marseille","lat":43.296089,"lon":5.377258,"is_reserved":false,"is_disabled":true,"rental_uris":{"android":"levelo://app?vid=c47f5c3e-1ff3-43b7-b740-1c081ef57305","ios":"levelo://app?vid=c47f5c3e-1ff3-43b7-b740-1c081ef57305"},"vehicle_type_id":"4","last_reported":1759122617,"current_range_meters":19600,"station_id":"","pricing_plan_id":"cebpf4jnsgd1na2vs0mg"},{"bike_id":"fd2a5718-9cc7-49a8-8736-9d27562f8ced","system_id":"levelo_inurba_marseille","lat":43.25004,"lon":5.38929,"is_reserved":false,"is_disabled":true,"rental_uris":{"android":"levelo://app?vid=fd2a5718-9cc7-49a8-8736-9d27562f8ced","ios":"levelo://app?vid=fd2a5718-9cc7-49a8-8736-9d27562f8ced"},"vehicle_type_id":"4","last_reported":1759122617,"current_range_meters":19600,"station_id":"ce4bhgp2rcd13ifvqfd0","pricing_plan_id":"cebpf4jnsgd1na2vs0mg"},{"bike_id":"f77bd119-901c-46e7-a9b0-61ba46f59c2c","system_id":"levelo_inurba_marseille","lat":43.281187,"lon":5.378433,"is_reserved":false,"is_disabled":false,"rental_uris":{"android":"levelo://app?vid=f77bd119-901c-46e7-a9b0-61ba46f59c2c","ios":"levelo://app?vid=f77bd119-901c-46e7-a9b0-61ba46f59c2c"},"vehicle_type_id":"4","last_reported":1759122617,"current_range_meters":19600,"station_id":"ce4bha12rcd13ifvqee0","pricing_plan_id":"cebpf4jnsgd1na2vs0mg"},{"bike_id":"f9574d5b-4a67-43fc-9668-2c2e41a8a8b8","system_id":"levelo_inurba_marseille","lat":43.23149,"lon":5.43726,"is_reserved":false,"is_disabled":false,"rental_uris":{"android":"levelo://app?vid=f9574d5b-4a67-43fc-9668-2c2e41a8a8b8","ios":"levelo://app?vid=f9574d5b-4a67-43fc-9668-2c2e41a8a8b8"},"vehicle_type_id":"4","last_reported":1759122617,"current_range_meters":19600,"station_id":"ce4bhmp2rcd13ifvqgog","pricing_plan_id":"cebpf4jnsgd1na2vs0mg"},{"bike_id":"a8c43c4e-31eb-403a-b16c-7bd3c98f56d1","system_id":"levelo_inurba_marseille","lat":43.24966,"lon":5.40512,"is_reserved":false,"is_disabled":false,"rental_uris":{"android":"levelo://app?vid=a8c43c4e-31eb-403a-b16c-7bd3c98f56d1","ios":"levelo://app?vid=a8c43c4e-31eb-403a-b16c-7bd3c98f56d1"},"vehicle_type_id":"4","last_reported":1759122617,"current_range_meters":19600,"station_id":"st_d2ngiaodas8pm72gd1h0","pricing_plan_id":"cebpf4jnsgd1na2vs0mg"},{"bike_id":"eac8c59e-c0db-4bd6-80c4-c19e700001aa","system_id":"levelo_inurba_marseille","lat":43.314962,"lon":5.372902,"is_reserved":false,"is_disabled":false,"rental_uris":{"android":"levelo://app?vid=eac8c59e-c0db-4bd6-80c4-c19e700001aa","ios":"levelo://app?vid=eac8c59e-c0db-4bd6-80c4-c19e700001aa"},"vehicle_type_id":"4","last_reported":1759122617,"current_range_meters":19600,"station_id":"ce4bgt12rcd13ifvqcd0","pricing_plan_id":"cebpf4jnsgd1na2vs0mg"},{"bike_id":"f752559e-e357-41d0-b0e1-06afd32411be","system_id":"levelo_inurba_marseille","lat":43.27474,"lon":5.40787,"is_reserved":false,"is_disabled":false,"rental_uris":{"android":"levelo://app?vid=f752559e-e357-41d0-b0e1-06afd32411be","ios":"levelo://app?vid=f752559e-e357-41d0-b0e1-06afd32411be"},"vehicle_type_id":"4","last_reported":1759122617,"current_range_meters":19600,"station_id":"","pricing_plan_id":"cebpf4jnsgd1na2vs0mg"},{"bike_id":"3ca06ca4-078f-4612-a334-b5ecc9a0c906","system_id":"levelo_inurba_marseille","lat":43.24676,"lon":5.38175,"is_reserved":false,"is_disabled":false,"rental_uris":{"android":"levelo://app?vid=3ca06ca4-078f-4612-a334-b5ecc9a0c906","ios":"levelo://app?vid=3ca06ca4-078f-4612-a334-b5ecc9a0c906"},"vehicle_type_id":"4","last_reported":1759122617,"current_range_meters":19600,"station_id":"ce4bhih2rcd13ifvqfr0","pricing_plan_id":"cebpf4jnsgd1na2vs0mg"},{"bike_id":"d55a55dc-4b29-4c44-8b82-e09c04bbd661","system_id":"levelo_inurba_marseille","lat":43.29061,"lon":5.37158,"is_reserved":false,"is_disabled":true,"rental_uris":{"android":"levelo://app?vid=d55a55dc-4b29-4c44-8b82-e09c04bbd661","ios":"levelo://app?vid=d55a55dc-4b29-4c44-8b82-e09c04bbd661"},"vehicle_type_id":"4","last_reported":1759122617,"current_range_meters":19600,"station_id":"ce4bh5p2rcd13ifvqe4g","pricing_plan_id":"cebpf4jnsgd1na2vs0mg"},{"bike_id":"6ba46acf-6388-4bd2-98d0-9ed4eef9a32a","system_id":"levelo_inurba_marseille","lat":43.278486,"lon":5.384756,"is_reserved":false,"is_disabled":false,"rental_uris":{"android":"levelo://app?vid=6ba46acf-6388-4bd2-98d0-9ed4eef9a32a","ios":"levelo://app?vid=6ba46acf-6388-4bd2-98d0-9ed4eef9a32a"},"vehicle_type_id":"4","last_reported":1759122617,"current_range_meters":19600,"station_id":"","pricing_plan_id":"cebpf4jnsgd1na2vs0mg"},{"bike_id":"6c6b3348-b421-4e9e-983c-6addfd2f6988","system_id":"levelo_inurba_marseille","lat":43.28152,"lon":5.4074,"is_reserved":false,"is_disabled":false,"rental_uris":{"android":"levelo://app?vid=6c6b3348-b421-4e9e-983c-6addfd2f6988","ios":"levelo://app?vid=6c6b3348-b421-4e9e-983c-6addfd2f6988"},"vehicle_type_id":"4","last_reported":1759122617,"current_range_meters":19600,"station_id":"","pricing_plan_id":"cebpf4jnsgd1na2vs0mg"},{"bike_id":"96fbaa66-fa45-42fa-81bd-65bff72ecbba","system_id":"levelo_inurba_marseille","lat":43.27982,"lon":5.41647,"is_reserved":false,"is_disabled":true,"rental_uris":{"android":"levelo://app?vid=96fbaa66-fa45-42fa-81bd-65bff72ecbba","ios":"levelo://app?vid=96fbaa66-fa45-42fa-81bd-65bff72ecbba"},"vehicle_type_id":"4","last_reported":1759122617,"current_range_meters":19600,"station_id":"ce4bho12rcd13ifvqh1g","pricing_plan_id":"cebpf4jnsgd1na2vs0mg"},{"bike_id":"4e2ee3b3-fcd4-43bd-b317-5bb8528c47c2","system_id":"levelo_inurba_marseille","lat":43.27572,"lon":5.38398,"is_reserved":false,"is_disabled":true,"rental_uris":{"android":"levelo://app?vid=4e2ee3b3-fcd4-43bd-b317-5bb8528c47c2","ios":"levelo://app?vid=4e2ee3b3-fcd4-43bd-b317-5bb8528c47c2"},"vehicle_type_id":"4","last_reported":1759122617,"current_range_meters":19600,"station_id":"ce4bhh92rcd13ifvqfi0","pricing_plan_id":"cebpf4jnsgd1na2vs0mg"},{"bike_id":"8105eeef-5a4b-46b9-a2ef-666a8dda2a26","system_id":"levelo_inurba_marseille","lat":43.327063,"lon":5.383751,"is_reserved":false,"is_disabled":false,"rental_uris":{"android":"levelo://app?vid=8105eeef-5a4b-46b9-a2ef-666a8dda2a26","ios":"levelo://app?vid=8105eeef-5a4b-46b9-a2ef-666a8dda2a26"},"vehicle_type_id":"4","last_reported":1759122617,"current_range_meters":19600,"station_id":"","pricing_plan_id":"cebpf4jnsgd1na2vs0mg"},{"bike_id":"532c81c1-262f-4765-9688-5b47031218e7","system_id":"levelo_inurba_marseille","lat":43.26571,"lon":5.38999,"is_reserved":false,"is_disabled":false,"rental_uris":{"android":"levelo://app?vid=532c81c1-262f-4765-9688-5b47031218e7","ios":"levelo://app?vid=532c81c1-262f-4765-9688-5b47031218e7"},"vehicle_type_id":"4","last_reported":1759122617,"current_range_meters":19600,"station_id":"ce4bhe12rcd13ifvqf30","pricing_plan_id":"cebpf4jnsgd1na2vs0mg"},{"bike_id":"81725a3e-a105-45cb-b882-14f60da814f9","system_id":"levelo_inurba_marseille","lat":43.240697,"lon":5.37758,"is_reserved":false,"is_disabled":false,"rental_uris":{"android":"levelo://app?vid=81725a3e-a105-45cb-b882-14f60da814f9","ios":"levelo://app?vid=81725a3e-a105-45cb-b882-14f60da814f9"},"vehicle_type_id":"4","last_reported":1759122617,"current_range_meters":19600,"station_id":"ce4bhnp2rcd13ifvqgvg","pricing_plan_id":"cebpf4jnsgd1na2vs0mg"},{"bike_id":"63aa2455-2da3-4e9c-9e4e-54ed059c09ac","system_id":"levelo_inurba_marseille","lat":43.31556,"lon":5.38874,"is_reserved":false,"is_disabled":false,"rental_uris":{"android":"levelo://app?vid=63aa2455-2da3-4e9c-9e4e-54ed059c09ac","ios":"levelo://app?vid=63aa2455-2da3-4e9c-9e4e-54ed059c09ac"},