{"last_updated":1744578493,"ttl":60,"version":"2.2","data":{"bikes":[{"bike_id":"a2a6eda1-ec1f-4417-8501-d9764927b04f","system_id":"levelo_inurba_marseille","lat":43.29024,"lon":5.381325,"is_reserved":false,"is_disabled":false,"rental_uris":{"android":"levelo://app?vid=a2a6eda1-ec1f-4417-8501-d9764927b04f","ios":"levelo://app?vid=a2a6eda1-ec1f-4417-8501-d9764927b04f"},"vehicle_type_id":"4","last_reported":1744578493,"current_range_meters":2800,"station_id":"ce4bh4p2rcd13ifvqe1g","pricing_plan_id":"cebpf4jnsgd1na2vs0mg"},{"bike_id":"aa16bda0-1590-4a3d-b41b-a4de272b9da7","system_id":"levelo_inurba_marseille","lat":43.28938,"lon":5.36627,"is_reserved":false,"is_disabled":false,"rental_uris":{"android":"levelo://app?vid=aa16bda0-1590-4a3d-b41b-a4de272b9da7","ios":"levelo://app?vid=aa16bda0-1590-4a3d-b41b-a4de272b9da7"},"vehicle_type_id":"4","last_reported":1744578493,"current_range_meters":2800,"station_id":"ce4bhap2rcd13ifvqek0","pricing_plan_id":"cebpf4jnsgd1na2vs0mg"},{"bike_id":"1074a5be-9d1d-4ad6-95da-26234c98201e","system_id":"levelo_inurba_marseille","lat":43.29444,"lon":5.39745,"is_reserved":false,"is_disabled":false,"rental_uris":{"android":"levelo://app?vid=1074a5be-9d1d-4ad6-95da-26234c98201e","ios":"levelo://app?vid=1074a5be-9d1d-4ad6-95da-26234c98201e"},"vehicle_type_id":"4","last_reported":1744578493,"current_range_meters":3200,"station_id":"ce4bh3h2rcd13ifvqdo0","pricing_plan_id":"cebpf4jnsgd1na2vs0mg"},{"bike_id":"3438c5bd-1787-489f-9a0e-5eb33ff8500a","system_id":"levelo_inurba_marseille","lat":43.29561,"lon":5.42294,"is_reserved":false,"is_disabled":true,"rental_uris":{"android":"levelo://app?vid=3438c5bd-1787-489f-9a0e-5eb33ff8500a","ios":"levelo://app?vid=3438c5bd-1787-489f-9a0e-5eb33ff8500a"},"vehicle_type_id":"4","last_reported":1744578493,"current_range_meters":3600,"station_id":"ce4bhph2rcd13ifvqhdg","pricing_plan_id":"cebpf4jnsgd1na2vs0mg"},{"bike_id":"44faf0fe-b425-442a-93da-c7fc9219b599","system_id":"levelo_inurba_marseille","lat":43.28455,"lon":5.358845,"is_reserved":false,"is_disabled":false,"rental_uris":{"android":"levelo://app?vid=44faf0fe-b425-442a-93da-c7fc9219b599","ios":"levelo://app?vid=44faf0fe-b425-442a-93da-c7fc9219b599"},"vehicle_type_id":"4","last_reported":1744578493,"current_range_meters":4000,"station_id":"ce4bhah2rcd13ifvqei0","pricing_plan_id":"cebpf4jnsgd1na2vs0mg"},{"bike_id":"5a5f6957-f05c-4774-ad40-ebaa1ded1dd7","system_id":"levelo_inurba_marseille","lat":43.21745,"lon":5.34593,"is_reserved":false,"is_disabled":false,"rental_uris":{"android":"levelo://app?vid=5a5f6957-f05c-4774-ad40-ebaa1ded1dd7","ios":"levelo://app?vid=5a5f6957-f05c-4774-ad40-ebaa1ded1dd7"},"vehicle_type_id":"4","last_reported":1744578493,"current_range_meters":4000,"station_id":"st_cvj6r9ubvosntc0bgbag","pricing_plan_id":"cebpf4jnsgd1na2vs0mg"},{"bike_id":"4c893399-b4ed-40ed-a49f-713da320f269","system_id":"levelo_inurba_marseille","lat":43.29861,"lon":5.37841,"is_reserved":false,"is_disabled":false,"rental_uris":{"android":"levelo://app?vid=4c893399-b4ed-40ed-a49f-713da320f269","ios":"levelo://app?vid=4c893399-b4ed-40ed-a49f-713da320f269"},"vehicle_type_id":"4","last_reported":1744578493,"current_range_meters":4000,"station_id":"","pricing_plan_id":"cebpf4jnsgd1na2vs0mg"},{"bike_id":"0f48c7f2-d59a-4122-a677-fddbcba2ca7e","system_id":"levelo_inurba_marseille","lat":43.281586,"lon":5.425574,"is_reserved":false,"is_disabled":false,"rental_uris":{"android":"levelo://app?vid=0f48c7f2-d59a-4122-a677-fddbcba2ca7e","ios":"levelo://app?vid=0f48c7f2-d59a-4122-a677-fddbcba2ca7e"},"vehicle_type_id":"4","last_reported":1744578493,"current_range_meters":4000,"station_id":"ce4bhnh2rcd13ifvqgug","pricing_plan_id":"cebpf4jnsgd1na2vs0mg"},{"bike_id":"9d8aa566-2455-4400-8edb-3ef58d7b4459","system_id":"levelo_inurba_marseille","lat":43.33604,"lon":5.41037,"is_reserved":false,"is_disabled":false,"rental_uris":{"android":"levelo://app?vid=9d8aa566-2455-4400-8edb-3ef58d7b4459","ios":"levelo://app?vid=9d8aa566-2455-4400-8edb-3ef58d7b4459"},"vehicle_type_id":"4","last_reported":1744578493,"current_range_meters":4000,"station_id":"ce4bhqh2rcd13ifvqhmg","pricing_plan_id":"cebpf4jnsgd1na2vs0mg"},{"bike_id":"4001d2c3-0f56-43fb-bcbe-e2f5aeb7dcea","system_id":"levelo_inurba_marseille","lat":43.293513,"lon":5.386427,"is_reserved":false,"is_disabled":false,"rental_uris":{"android":"levelo://app?vid=4001d2c3-0f56-43fb-bcbe-e2f5aeb7dcea","ios":"levelo://app?vid=4001d2c3-0f56-43fb-bcbe-e2f5aeb7dcea"},"vehicle_type_id":"4","last_reported":1744578493,"current_range_meters":4400,"station_id":"ce4bh2h2rcd13ifvqdh0","pricing_plan_id":"cebpf4jnsgd1na2vs0mg"},{"bike_id":"e3828467-5145-4b40-a836-722c61030e40","system_id":"levelo_inurba_marseille","lat":43.28159,"lon":5.42648,"is_reserved":false,"is_disabled":true,"rental_uris":{"android":"levelo://app?vid=e3828467-5145-4b40-a836-722c61030e40","ios":"levelo://app?vid=e3828467-5145-4b40-a836-722c61030e40"},"vehicle_type_id":"4","last_reported":1744578493,"current_range_meters":4400,"station_id":"ce4bhnh2rcd13ifvqgug","pricing_plan_id":"cebpf4jnsgd1na2vs0mg"},{"bike_id":"ef291804-1477-432e-b153-82ea15725418","system_id":"levelo_inurba_marseille","lat":43.33742,"lon":5.37454,"is_reserved":false,"is_disabled":false,"rental_uris":{"android":"levelo://app?vid=ef291804-1477-432e-b153-82ea15725418","ios":"levelo://app?vid=ef291804-1477-432e-b153-82ea15725418"},"vehicle_type_id":"4","last_reported":1744578493,"current_range_meters":4800,"station_id":"","pricing_plan_id":"cebpf4jnsgd1na2vs0mg"},{"bike_id":"a2ccfbf7-8a0b-49de-8499-18c843f628a5","system_id":"levelo_inurba_marseille","lat":43.23191,"lon":5.35553,"is_reserved":false,"is_disabled":false,"rental_uris":{"android":"levelo://app?vid=a2ccfbf7-8a0b-49de-8499-18c843f628a5","ios":"levelo://app?vid=a2ccfbf7-8a0b-49de-8499-18c843f628a5"},"vehicle_type_id":"4","last_reported":1744578493,"current_range_meters":5600,"station_id":"ce4bhu92rcd13ifvqi70","pricing_plan_id":"cebpf4jnsgd1na2vs0mg"},{"bike_id":"bc2e8c18-b98f-489b-bc95-8e8ac613e02d","system_id":"levelo_inurba_marseille","lat":43.32659,"lon":5.40991,"is_reserved":false,"is_disabled":false,"rental_uris":{"android":"levelo://app?vid=bc2e8c18-b98f-489b-bc95-8e8ac613e02d","ios":"levelo://app?vid=bc2e8c18-b98f-489b-bc95-8e8ac613e02d"},"vehicle_type_id":"4","last_reported":1744578493,"current_range_meters":5600,"station_id":"ce4bhpp2rcd13ifvqhgg","pricing_plan_id":"cebpf4jnsgd1na2vs0mg"},{"bike_id":"d53356ed-34e7-4ce0-8d94-e073954cdd85","system_id":"levelo_inurba_marseille","lat":43.27056,"lon":5.40273,"is_reserved":false,"is_disabled":true,"rental_uris":{"android":"levelo://app?vid=d53356ed-34e7-4ce0-8d94-e073954cdd85","ios":"levelo://app?vid=d53356ed-34e7-4ce0-8d94-e073954cdd85"},"vehicle_type_id":"4","last_reported":1744578493,"current_range_meters":6000,"station_id":"ce4bhk92rcd13ifvqgc0","pricing_plan_id":"cebpf4jnsgd1na2vs0mg"},{"bike_id":"1130922e-9ccc-463b-9207-aadecd794edb","system_id":"levelo_inurba_marseille","lat":43.32002,"lon":5.38149,"is_reserved":false,"is_disabled":true,"rental_uris":{"android":"levelo://app?vid=1130922e-9ccc-463b-9207-aadecd794edb","ios":"levelo://app?vid=1130922e-9ccc-463b-9207-aadecd794edb"},"vehicle_type_id":"4","last_reported":1744578493,"current_range_meters":6000,"station_id":"ce4bhr12rcd13ifvqhpg","pricing_plan_id":"cebpf4jnsgd1na2vs0mg"},{"bike_id":"d8f603cd-3b83-4148-bab8-3a185ad2a59f","system_id":"levelo_inurba_marseille","lat":43.32416,"lon":5.3913,"is_reserved":false,"is_disabled":false,"rental_uris":{"android":"levelo://app?vid=d8f603cd-3b83-4148-bab8-3a185ad2a59f","ios":"levelo://app?vid=d8f603cd-3b83-4148-bab8-3a185ad2a59f"},"vehicle_type_id":"4","last_reported":1744578493,"current_range_meters":6400,"station_id":"","pricing_plan_id":"cebpf4jnsgd1na2vs0mg"},{"bike_id":"3e7a7ba1-44d6-46d6-9d3e-1ab5811b40e6","system_id":"levelo_inurba_marseille","lat":43.28881,"lon":5.45988,"is_reserved":false,"is_disabled":false,"rental_uris":{"android":"levelo://app?vid=3e7a7ba1-44d6-46d6-9d3e-1ab5811b40e6","ios":"levelo://app?vid=3e7a7ba1-44d6-46d6-9d3e-1ab5811b40e6"},"vehicle_type_id":"4","last_reported":1744578493,"current_range_meters":6400,"station_id":"","pricing_plan_id":"cebpf4jnsgd1na2vs0mg"},{"bike_id":"d3d40591-4ab6-47c0-858b-e2d1c8bbaff8","system_id":"levelo_inurba_marseille","lat":43.323398,"lon":5.40625,"is_reserved":false,"is_disabled":false,"rental_uris":{"android":"levelo://app?vid=d3d40591-4ab6-47c0-858b-e2d1c8bbaff8","ios":"levelo://app?vid=d3d40591-4ab6-47c0-858b-e2d1c8bbaff8"},"vehicle_type_id":"4","last_reported":1744578493,"current_range_meters":6400,"station_id":"ce4bhap2rcd13ifvqek0","pricing_plan_id":"cebpf4jnsgd1na2vs0mg"},{"bike_id":"c8907ab1-08e3-4e34-b765-678ded4dfd20","system_id":"levelo_inurba_marseille","lat":43.26233,"lon":5.40458,"is_reserved":false,"is_disabled":false,"rental_uris":{"android":"levelo://app?vid=c8907ab1-08e3-4e34-b765-678ded4dfd20","ios":"levelo://app?vid=c8907ab1-08e3-4e34-b765-678ded4dfd20"},"vehicle_type_id":"4","last_reported":1744578493,"current_range_meters":6400,"station_id":"ce4bhmh2rcd13ifvqgmg","pricing_plan_id":"cebpf4jnsgd1na2vs0mg"},{"bike_id":"65c6653a-7f75-4cb4-a9df-c7a7aada2976","system_id":"levelo_inurba_marseille","lat":43.31996,"lon":5.38163,"is_reserved":false,"is_disabled":false,"rental_uris":{"android":"levelo://app?vid=65c6653a-7f75-4cb4-a9df-c7a7aada2976","ios":"levelo://app?vid=65c6653a-7f75-4cb4-a9df-c7a7aada2976"},"vehicle_type_id":"4","last_reported":1744578493,"current_range_meters":6400,"station_id":"ce4bhr12rcd13ifvqhpg","pricing_plan_id":"cebpf4jnsgd1na2vs0mg"},{"bike_id":"5b77a833-8185-45c2-9fe3-07eb40df54ca","system_id":"levelo_inurba_marseille","lat":43.33995,"lon":5.38057,"is_reserved":false,"is_disabled":false,"rental_uris":{"android":"levelo://app?vid=5b77a833-8185-45c2-9fe3-07eb40df54ca","ios":"levelo://app?vid=5b77a833-8185-45c2-9fe3-07eb40df54ca"},"vehicle_type_id":"4","last_reported":1744578493,"current_range_meters":6400,"station_id":"","pricing_plan_id":"cebpf4jnsgd1na2vs0mg"},{"bike_id":"e6ca7883-bfc7-4d66-be13-ca69ff5a336a","system_id":"levelo_inurba_marseille","lat":43.28931,"lon":5.36425,"is_reserved":false,"is_disabled":false,"rental_uris":{"android":"levelo://app?vid=e6ca7883-bfc7-4d66-be13-ca69ff5a336a","ios":"levelo://app?vid=e6ca7883-bfc7-4d66-be13-ca69ff5a336a"},"vehicle_type_id":"4","last_reported":1744578493,"current_range_meters":6800,"station_id":"ce4bhc92rcd13ifvqetg","pricing_plan_id":"cebpf4jnsgd1na2vs0mg"},{"bike_id":"4a0973b0-92a0-41e8-9b0d-a99e944bafe0","system_id":"levelo_inurba_marseille","lat":43.34484,"lon":5.4127,"is_reserved":false,"is_disabled":false,"rental_uris":{"android":"levelo://app?vid=4a0973b0-92a0-41e8-9b0d-a99e944bafe0","ios":"levelo://app?vid=4a0973b0-92a0-41e8-9b0d-a99e944bafe0"},"vehicle_type_id":"4","last_reported":1744578493,"current_range_meters":6800,"station_id":"","pricing_plan_id":"cebpf4jnsgd1na2vs0mg"},{"bike_id":"0e7bf4ae-5aed-4055-a1f8-96debbb9847e","system_id":"levelo_inurba_marseille","lat":43.24179,"lon":5.36389,"is_reserved":false,"is_disabled":false,"rental_uris":{"android":"levelo://app?vid=0e7bf4ae-5aed-4055-a1f8-96debbb9847e","ios":"levelo://app?vid=0e7bf4ae-5aed-4055-a1f8-96debbb9847e"},"vehicle_type_id":"4","last_reported":1744578493,"current_range_meters":6800,"station_id":"cpo36qri1sfpv3e86is0","pricing_plan_id":"cebpf4jnsgd1na2vs0mg"},{"bike_id":"5828671f-786b-485a-ba33-9a6af36a4027","system_id":"levelo_inurba_marseille","lat":43.29971,"lon":5.38495,"is_reserved":false,"is_disabled":false,"rental_uris":{"android":"levelo://app?vid=5828671f-786b-485a-ba33-9a6af36a4027","ios":"levelo://app?vid=5828671f-786b-485a-ba33-9a6af36a4027"},"vehicle_type_id":"4","last_reported":1744578493,"current_range_meters":6800,"station_id":"ce4bgj92rcd13ifvqbd0","pricing_plan_id":"cebpf4jnsgd1na2vs0mg"},{"bike_id":"b7e965ff-4854-44fc-8e2a-103893462049","system_id":"levelo_inurba_marseille","lat":43.337444,"lon":5.374475,"is_reserved":false,"is_disabled":true,"rental_uris":{"android":"levelo://app?vid=b7e965ff-4854-44fc-8e2a-103893462049","ios":"levelo://app?vid=b7e965ff-4854-44fc-8e2a-103893462049"},"vehicle_type_id":"4","last_reported":1744578493,"current_range_meters":7200,"station_id":"","pricing_plan_id":"cebpf4jnsgd1na2vs0mg"},{"bike_id":"493cde9e-7859-4c26-a2e6-f744ee5d8553","system_id":"levelo_inurba_marseille","lat":43.31791,"lon":5.36519,"is_reserved":false,"is_disabled":false,"rental_uris":{"android":"levelo://app?vid=493cde9e-7859-4c26-a2e6-f744ee5d8553","ios":"levelo://app?vid=493cde9e-7859-4c26-a2e6-f744ee5d8553"},"vehicle_type_id":"4","last_reported":1744578493,"current_range_meters":7200,"station_id":"","pricing_plan_id":"cebpf4jnsgd1na2vs0mg"},{"bike_id":"97c5290c-6dcd-4f81-953a-f5953018fa5b","system_id":"levelo_inurba_marseille","lat":43.31035,"lon":5.37535,"is_reserved":false,"is_disabled":false,"rental_uris":{"android":"levelo://app?vid=97c5290c-6dcd-4f81-953a-f5953018fa5b","ios":"levelo://app?vid=97c5290c-6dcd-4f81-953a-f5953018fa5b"},"vehicle_type_id":"4","last_reported":1744578493,"current_range_meters":7200,"station_id":"","pricing_plan_id":"cebpf4jnsgd1na2vs0mg"},{"bike_id":"a97af672-b176-42f7-912b-8dfee7634705","system_id":"levelo_inurba_marseille","lat":43.30304,"lon":5.36898,"is_reserved":false,"is_disabled":false,"rental_uris":{"android":"levelo://app?vid=a97af672-b176-42f7-912b-8dfee7634705","ios":"levelo://app?vid=a97af672-b176-42f7-912b-8dfee7634705"},"vehicle_type_id":"4","last_reported":1744578493,"current_range_meters":8000,"station_id":"ce4bgqh2rcd13ifvqc5g","pricing_plan_id":"cebpf4jnsgd1na2vs0mg"},{"bike_id":"3d879ee9-2b57-4008-8ce2-6ed627e41336","system_id":"levelo_inurba_marseille","lat":43.31085,"lon":5.4243,"is_reserved":false,"is_disabled":false,"rental_uris":{"android":"levelo://app?vid=3d879ee9-2b57-4008-8ce2-6ed627e41336","ios":"levelo://app?vid=3d879ee9-2b57-4008-8ce2-6ed627e41336"},"vehicle_type_id":"4","last_reported":1744578493,"current_range_meters":8000,"station_id":"ce4bhp92rcd13ifvqhag","pricing_plan_id":"cebpf4jnsgd1na2vs0mg"},{"bike_id":"2f5bc015-0a98-4a0d-a50f-f7181e1d6abe","system_id":"levelo_inurba_marseille","lat":43.23398,"lon":5.41237,"is_reserved":false,"is_disabled":false,"rental_uris":{"android":"levelo://app?vid=2f5bc015-0a98-4a0d-a50f-f7181e1d6abe","ios":"levelo://app?vid=2f5bc015-0a98-4a0d-a50f-f7181e1d6abe"},"vehicle_type_id":"4","last_reported":1744578493,"current_range_meters":8000,"station_id":"","pricing_plan_id":"cebpf4jnsgd1na2vs0mg"},{"bike_id":"4f38e127-be9f-468e-8871-e9cd4f365dca","system_id":"levelo_inurba_marseille","lat":43.24687,"lon":5.41183,"is_reserved":false,"is_disabled":false,"rental_uris":{"android":"levelo://app?vid=4f38e127-be9f-468e-8871-e9cd4f365dca","ios":"levelo://app?vid=4f38e127-be9f-468e-8871-e9cd4f365dca"},"vehicle_type_id":"4","last_reported":1744578493,"current_range_meters":8000,"station_id":"","pricing_plan_id":"cebpf4jnsgd1na2vs0mg"},{"bike_id":"0b0e79a1-3ee0-40d2-9218-f9abb54568b9","system_id":"levelo_inurba_marseille","lat":43.29567,"lon":5.37505,"is_reserved":false,"is_disabled":false,"rental_uris":{"android":"levelo://app?vid=0b0e79a1-3ee0-40d2-9218-f9abb54568b9","ios":"levelo://app?vid=0b0e79a1-3ee0-40d2-9218-f9abb54568b9"},"vehicle_type_id":"4","last_reported":1744578493,"current_range_meters":8000,"station_id":"ce4bgh92rcd13ifvqb50","pricing_plan_id":"cebpf4jnsgd1na2vs0mg"},{"bike_id":"11aedf11-5405-4040-82d2-41cabf8c15f7","system_id":"levelo_inurba_marseille","lat":43.29569,"lon":5.37512,"is_reserved":false,"is_disabled":false,"rental_uris":{"android":"levelo://app?vid=11aedf11-5405-4040-82d2-41cabf8c15f7","ios":"levelo://app?vid=11aedf11-5405-4040-82d2-41cabf8c15f7"},"vehicle_type_id":"4","last_reported":1744578493,"current_range_meters":8000,"station_id":"ce4bgh92rcd13ifvqb50","pricing_plan_id":"cebpf4jnsgd1na2vs0mg"},{"bike_id":"3d16c2e3-7c12-4342-883a-029e0fc16b05","system_id":"levelo_inurba_marseille","lat":43.31016,"lon":5.37137,"is_reserved":false,"is_disabled":false,"rental_uris":{"android":"levelo://app?vid=3d16c2e3-7c12-4342-883a-029e0fc16b05","ios":"levelo://app?vid=3d16c2e3-7c12-4342-883a-029e0fc16b05"},"vehicle_type_id":"4","last_reported":1744578493,"current_range_meters":8000,"station_id":"","pricing_plan_id":"cebpf4jnsgd1na2vs0mg"},{"bike_id":"fe3d6e42-5076-494f-915f-43c55a9fdcc4","system_id":"levelo_inurba_marseille","lat":43.27057,"lon":5.42265,"is_reserved":false,"is_disabled":false,"rental_uris":{"android":"levelo://app?vid=fe3d6e42-5076-494f-915f-43c55a9fdcc4","ios":"levelo://app?vid=fe3d6e42-5076-494f-915f-43c55a9fdcc4"},"vehicle_type_id":"4","last_reported":1744578493,"current_range_meters":8000,"station_id":"ce4bhk92rcd13ifvqgb0","pricing_plan_id":"cebpf4jnsgd1na2vs0mg"},{"bike_id":"30cc8b33-f5d2-402b-bc22-73b6e88b3714","system_id":"levelo_inurba_marseille","lat":43.24661,"lon":5.38159,"is_reserved":false,"is_disabled":false,"rental_uris":{"android":"levelo://app?vid=30cc8b33-f5d2-402b-bc22-73b6e88b3714","ios":"levelo://app?vid=30cc8b33-f5d2-402b-bc22-73b6e88b3714"},"vehicle_type_id":"4","last_reported":1744578493,"current_range_meters":8000,"station_id":"ce4bhih2rcd13ifvqfr0","pricing_plan_id":"cebpf4jnsgd1na2vs0mg"},{"bike_id":"76450c2c-888f-4d08-a5c0-d825237615aa","system_id":"levelo_inurba_marseille","lat":43.27207,"lon":5.42329,"is_reserved":false,"is_disabled":false,"rental_uris":{"android":"levelo://app?vid=76450c2c-888f-4d08-a5c0-d825237615aa","ios":"levelo://app?vid=76450c2c-888f-4d08-a5c0-d825237615aa"},"vehicle_type_id":"4","last_reported":1744578493,"current_range_meters":8400,"station_id":"","pricing_plan_id":"cebpf4jnsgd1na2vs0mg"},{"bike_id":"f7843f46-58aa-4cf6-a1d0-1b94b16f71c2","system_id":"levelo_inurba_marseille","lat":43.298521,"lon":5.396732,"is_reserved":false,"is_disabled":false,"rental_uris":{"android":"levelo://app?vid=f7843f46-58aa-4cf6-a1d0-1b94b16f71c2","ios":"levelo://app?vid=f7843f46-58aa-4cf6-a1d0-1b94b16f71c2"},"vehicle_type_id":"4","last_reported":1744578493,"current_range_meters":8400,"station_id":"ce4bh0h2rcd13ifvqd50","pricing_plan_id":"cebpf4jnsgd1na2vs0mg"},{"bike_id":"6a36e1be-2c5b-4782-ad82-295976c1b92f","system_id":"levelo_inurba_marseille","lat":43.27813,"lon":5.40719,"is_reserved":false,"is_disabled":false,"rental_uris":{"android":"levelo://app?vid=6a36e1be-2c5b-4782-ad82-295976c1b92f","ios":"levelo://app?vid=6a36e1be-2c5b-4782-ad82-295976c1b92f"},"vehicle_type_id":"4","last_reported":1744578493,"current_range_meters":8400,"station_id":"ce4bhnh2rcd13ifvqgtg","pricing_plan_id":"cebpf4jnsgd1na2vs0mg"},{"bike_id":"49ee7a2d-b87d-42ef-bdb3-cf1b5b3fae9b","system_id":"levelo_inurba_marseille","lat":43.24174,"lon":5.364,"is_reserved":false,"is_disabled":false,"rental_uris":{"android":"levelo://app?vid=49ee7a2d-b87d-42ef-bdb3-cf1b5b3fae9b","ios":"levelo://app?vid=49ee7a2d-b87d-42ef-bdb3-cf1b5b3fae9b"},"vehicle_type_id":"4","last_reported":1744578493,"current_range_meters":8400,"station_id":"cpo36qri1sfpv3e86is0","pricing_plan_id":"cebpf4jnsgd1na2vs0mg"},{"bike_id":"72d5b35b-d2cf-4795-8bc6-32ef324514c0","system_id":"levelo_inurba_marseille","lat":43.27051,"lon":5.40257,"is_reserved":false,"is_disabled":false,"rental_uris":{"android":"levelo://app?vid=72d5b35b-d2cf-4795-8bc6-32ef324514c0","ios":"levelo://app?vid=72d5b35b-d2cf-4795-8bc6-32ef324514c0"},"vehicle_type_id":"4","last_reported":1744578493,"current_range_meters":8400,"station_id":"ce4bhk92rcd13ifvqgc0","pricing_plan_id":"cebpf4jnsgd1na2vs0mg"},{"bike_id":"eef662bd-49fa-4185-a5f5-5664aa402854","system_id":"levelo_inurba_marseille","lat":43.22931,"lon":5.35392,"is_reserved":false,"is_disabled":false,"rental_uris":{"android":"levelo://app?vid=eef662bd-49fa-4185-a5f5-5664aa402854","ios":"levelo://app?vid=eef662bd-49fa-4185-a5f5-5664aa402854"},"vehicle_type_id":"4","last_reported":1744578493,"current_range_meters":8400,"station_id":"cpo3532slgdg3j2ikp40","pricing_plan_id":"cebpf4jnsgd1na2vs0mg"},{"bike_id":"998bf81d-ad9f-4ed4-abc9-e0d2ed6ed276","system_id":"levelo_inurba_marseille","lat":43.23187,"lon":5.35587,"is_reserved":false,"is_disabled":true,"rental_uris":{"android":"levelo://app?vid=998bf81d-ad9f-4ed4-abc9-e0d2ed6ed276","ios":"levelo://app?vid=998bf81d-ad9f-4ed4-abc9-e0d2ed6ed276"},"vehicle_type_id":"4","last_reported":1744578493,"current_range_meters":8400,"station_id":"ce4bhu92rcd13ifvqi70","pricing_plan_id":"cebpf4jnsgd1na2vs0mg"},{"bike_id":"35ecc2f6-172a-4ce3-9aed-de9b6ffe156d","system_id":"levelo_inurba_marseille","lat":43.30534,"lon":5.36714,"is_reserved":false,"is_disabled":false,"rental_uris":{"android":"levelo://app?vid=35ecc2f6-172a-4ce3-9aed-de9b6ffe156d","ios":"levelo://app?vid=35ecc2f6-172a-4ce3-9aed-de9b6ffe156d"},"vehicle_type_id":"4","last_reported":1744578493,"current_range_meters":8000,"station_id":"ce4bgrp2rcd13ifvqc9g","pricing_plan_id":"cebpf4jnsgd1na2vs0mg"},{"bike_id":"6e2ac28e-dfb7-46b8-8016-b7ae92b2a4f0","system_id":"levelo_inurba_marseille","lat":43.28003,"lon":5.39987,"is_reserved":false,"is_disabled":false,"rental_uris":{"android":"levelo://app?vid=6e2ac28e-dfb7-46b8-8016-b7ae92b2a4f0","ios":"levelo://app?vid=6e2ac28e-dfb7-46b8-8016-b7ae92b2a4f0"},"vehicle_type_id":"4","last_reported":1744578493,"current_range_meters":8800,"station_id":"ce4bho92rcd13ifvqh4g","pricing_plan_id":"cebpf4jnsgd1na2vs0mg"},{"bike_id":"0c30a5d7-82b9-4bb2-9032-224893c69d2f","system_id":"levelo_inurba_marseille","lat":43.26499,"lon":5.39558,"is_reserved":false,"is_disabled":true,"rental_uris":{"android":"levelo://app?vid=0c30a5d7-82b9-4bb2-9032-224893c69d2f","ios":"levelo://app?vid=0c30a5d7-82b9-4bb2-9032-224893c69d2f"},"vehicle_type_id":"4","last_reported":1744578493,"current_range_meters":8800,"station_id":"ce4bhi12rcd13ifvqfq0","pricing_plan_id":"cebpf4jnsgd1na2vs0mg"},{"bike_id":"91fffdcd-2fa7-4f34-b242-95e7e93ac05b","system_id":"levelo_inurba_marseille","lat":43.26327,"lon":5.39766,"is_reserved":false,"is_disabled":false,"rental_uris":{"android":"levelo://app?vid=91fffdcd-2fa7-4f34-b242-95e7e93ac05b","ios":"levelo://app?vid=91fffdcd-2fa7-4f34-b242-95e7e93ac05b"},"vehicle_type_id":"4","last_reported":1744578493,"current_range_meters":8800,"station_id":"","pricing_plan_id":"cebpf4jnsgd1na2vs0mg"},{"bike_id":"f7cd819f-b752-47cc-848d-ff43c669ccb8","system_id":"levelo_inurba_marseille","lat":43.31005,"lon":5.4173,"is_reserved":false,"is_disabled":false,"rental_uris":{"android":"levelo://app?vid=f7cd819f-b752-47cc-848d-ff43c669ccb8","ios":"levelo://app?vid=f7cd819f-b752-47cc-848d-ff43c669ccb8"},"vehicle_type_id":"4","last_reported":1744578493,"current_range_meters":9200,"station_id":"","pricing_plan_id":"cebpf4jnsgd1na2vs0mg"},{"bike_id":"55c5494d-72ea-4c1d-8c6e-bb42b8df2455","system_id":"levelo_inurba_marseille","lat":43.28429,"lon":5.37534,"is_reserved":false,"is_disabled":false,"rental_uris":{"android":"levelo://app?vid=55c5494d-72ea-4c1d-8c6e-bb42b8df2455","ios":"levelo://app?vid=55c5494d-72ea-4c1d-8c6e-bb42b8df2455"},"vehicle_type_id":"4","last_reported":1744578493,"current_range_meters":38800,"station_id":"ce4bh412rcd13ifvqds0","pricing_plan_id":"cebpf4jnsgd1na2vs0mg"},{"bike_id":"82d38bd3-c046-4f55-aec8-4eb686f05e29","system_id":"levelo_inurba_marseille","lat":43.22924,"lon":5.35389,"is_reserved":false,"is_disabled":true,"rental_uris":{"android":"levelo://app?vid=82d38bd3-c046-4f55-aec8-4eb686f05e29","ios":"levelo://app?vid=82d38bd3-c046-4f55-aec8-4eb686f05e29"},"vehicle_type_id":"4","last_reported":1744578493,"current_range_meters":9200,"station_id":"cpo3532slgdg3j2ikp40","pricing_plan_id":"cebpf4jnsgd1na2vs0mg"},{"bike_id":"71d758d9-e1f9-440e-be18-d9a62c8ebcd3","system_id":"levelo_inurba_marseille","lat":43.27919,"lon":5.39585,"is_reserved":false,"is_disabled":false,"rental_uris":{"android":"levelo://app?vid=71d758d9-e1f9-440e-be18-d9a62c8ebcd3","ios":"levelo://app?vid=71d758d9-e1f9-440e-be18-d9a62c8ebcd3"},"vehicle_type_id":"4","last_reported":1744578493,"current_range_meters":9200,"station_id":"ce4bhf92rcd13ifvqf40","pricing_plan_id":"cebpf4jnsgd1na2vs0mg"},{"bike_id":"c127d1a8-0150-4856-a57b-18fd29314b2c","system_id":"levelo_inurba_marseille","lat":43.32495,"lon":5.36555,"is_reserved":false,"is_disabled":false,"rental_uris":{"android":"levelo://app?vid=c127d1a8-0150-4856-a57b-18fd29314b2c","ios":"levelo://app?vid=c127d1a8-0150-4856-a57b-18fd29314b2c"},"vehicle_type_id":"4","last_reported":1744578493,"current_range_meters":9200,"station_id":"ce4bhs12rcd13ifvqhvg","pricing_plan_id":"cebpf4jnsgd1na2vs0mg"},{"bike_id":"4d49d7bf-c387-4802-8134-39419f66ab07","system_id":"levelo_inurba_marseille","lat":43.25093,"lon":5.39518,"is_reserved":false,"is_disabled":false,"rental_uris":{"android":"levelo://app?vid=4d49d7bf-c387-4802-8134-39419f66ab07","ios":"levelo://app?vid=4d49d7bf-c387-4802-8134-39419f66ab07"},"vehicle_type_id":"4","last_reported":1744578493,"current_range_meters":9200,"station_id":"ce4bhm12rcd13ifvqgkg","pricing_plan_id":"cebpf4jnsgd1na2vs0mg"},{"bike_id":"efd328ca-f8bf-4550-bd94-c2fd75978f3c","system_id":"levelo_inurba_marseille","lat":43.33036,"lon":5.38079,"is_reserved":false,"is_disabled":false,"rental_uris":{"android":"levelo://app?vid=efd328ca-f8bf-4550-bd94-c2fd75978f3c","ios":"levelo://app?vid=efd328ca-f8bf-4550-bd94-c2fd75978f3c"},"vehicle_type_id":"4","last_reported":1744578493,"current_range_meters":9200,"station_id":"","pricing_plan_id":"cebpf4jnsgd1na2vs0mg"},{"bike_id":"e3033e51-0403-4e5c-9649-cc323385bf93","system_id":"levelo_inurba_marseille","lat":43.27488,"lon":5.4246,"is_reserved":false,"is_disabled":false,"rental_uris":{"android":"levelo://app?vid=e3033e51-0403-4e5c-9649-cc323385bf93","ios":"levelo://app?vid=e3033e51-0403-4e5c-9649-cc323385bf93"},"vehicle_type_id":"4","last_reported":1744578493,"current_range_meters":10000,"station_id":"ce4bhn92rcd13ifvqgrg","pricing_plan_id":"cebpf4jnsgd1na2vs0mg"},{"bike_id":"12aec038-db5e-4d5d-a5cf-e01dc2e28ea3","system_id":"levelo_inurba_marseille","lat":43.301151,"lon":5.404953,"is_reserved":false,"is_disabled":true,"rental_uris":{"android":"levelo://app?vid=12aec038-db5e-4d5d-a5cf-e01dc2e28ea3","ios":"levelo://app?vid=12aec038-db5e-4d5d-a5cf-e01dc2e28ea3"},"vehicle_type_id":"4","last_reported":1744578493,"current_range_meters":9600,"station_id":"","pricing_plan_id":"cebpf4jnsgd1na2vs0mg"},{"bike_id":"982bb1bc-457f-43d7-ae21-85035c856353","system_id":"levelo_inurba_marseille","lat":43.22488,"lon":5.34793,"is_reserved":false,"is_disabled":true,"rental_uris":{"android":"levelo://app?vid=982bb1bc-457f-43d7-ae21-85035c856353","ios":"levelo://app?vid=982bb1bc-457f-43d7-ae21-85035c856353"},"vehicle_type_id":"4","last_reported":1744578493,"current_range_meters":9600,"station_id":"st_cvj5dfep6f1abm77gieg","pricing_plan_id":"cebpf4jnsgd1na2vs0mg"},{"bike_id":"020e9999-d552-48d0-ae5f-b725af0dbea2","system_id":"levelo_inurba_marseille","lat":43.29909,"lon":5.437572,"is_reserved":false,"is_disabled":false,"rental_uris":{"android":"levelo://app?vid=020e9999-d552-48d0-ae5f-b725af0dbea2","ios":"levelo://app?vid=020e9999-d552-48d0-ae5f-b725af0dbea2"},"vehicle_type_id":"4","last_reported":1744578493,"current_range_meters":9600,"station_id":"","pricing_plan_id":"cebpf4jnsgd1na2vs0mg"},{"bike_id":"a3bf51d9-08b7-458c-9b6d-ef5680cc95d6","system_id":"levelo_inurba_marseille","lat":43.21749,"lon":5.34606,"is_reserved":false,"is_disabled":true,"rental_uris":{"android":"levelo://app?vid=a3bf51d9-08b7-458c-9b6d-ef5680cc95d6","ios":"levelo://app?vid=a3bf51d9-08b7-458c-9b6d-ef5680cc95d6"},"vehicle_type_id":"4","last_reported":1744578493,"current_range_meters":9600,"station_id":"st_cvj6r9ubvosntc0bgbag","pricing_plan_id":"cebpf4jnsgd1na2vs0mg"},{"bike_id":"2790b634-13eb-456b-ac36-4aa5af47fec0","system_id":"levelo_inurba_marseille","lat":43.2782,"lon":5.3921,"is_reserved":false,"is_disabled":false,"rental_uris":{"android":"levelo://app?vid=2790b634-13eb-456b-ac36-4aa5af47fec0","ios":"levelo://app?vid=2790b634-13eb-456b-ac36-4aa5af47fec0"},"vehicle_type_id":"4","last_reported":1744578493,"current_range_meters":9600,"station_id":"ce4bhjp2rcd13ifvqga0","pricing_plan_id":"cebpf4jnsgd1na2vs0mg"},{"bike_id":"f83701cd-3f27-46b4-ac98-4207eb020409","system_id":"levelo_inurba_marseille","lat":43.299364,"lon":5.386121,"is_reserved":false,"is_disabled":false,"rental_uris":{"android":"levelo://app?vid=f83701cd-3f27-46b4-ac98-4207eb020409","ios":"levelo://app?vid=f83701cd-3f27-46b4-ac98-4207eb020409"},"vehicle_type_id":"4","last_reported":1744578493,"current_range_meters":9600,"station_id":"ce4bgi92rcd13ifvqb90","pricing_plan_id":"cebpf4jnsgd1na2vs0mg"},{"bike_id":"83567ef6-3762-49b5-a856-7bc0d9276709","system_id":"levelo_inurba_marseille","lat":43.27828,"lon":5.39203,"is_reserved":false,"is_disabled":false,"rental_uris":{"android":"levelo://app?vid=83567ef6-3762-49b5-a856-7bc0d9276709","ios":"levelo://app?vid=83567ef6-3762-49b5-a856-7bc0d9276709"},"vehicle_type_id":"4","last_reported":1744578493,"current_range_meters":10000,"station_id":"ce4bhjp2rcd13ifvqga0","pricing_plan_id":"cebpf4jnsgd1na2vs0mg"},{"bike_id":"7f6c4363-715d-4f42-b9a9-3392906a5fa6","system_id":"levelo_inurba_marseille","lat":43.2465,"lon":5.38173,"is_reserved":false,"is_disabled":false,"rental_uris":{"android":"levelo://app?vid=7f6c4363-715d-4f42-b9a9-3392906a5fa6","ios":"levelo://app?vid=7f6c4363-715d-4f42-b9a9-3392906a5fa6"},"vehicle_type_id":"4","last_reported":1744578493,"current_range_meters":10000,"station_id":"ce4bhih2rcd13ifvqfr0","pricing_plan_id":"cebpf4jnsgd1na2vs0mg"},{"bike_id":"b5fb4d13-416d-4066-8be6-f74b0c1aab88","system_id":"levelo_inurba_marseille","lat":43.29006,"lon":5.356207,"is_reserved":false,"is_disabled":true,"rental_uris":{"android":"levelo://app?vid=b5fb4d13-416d-4066-8be6-f74b0c1aab88","ios":"levelo://app?vid=b5fb4d13-416d-4066-8be6-f74b0c1aab88"},"vehicle_type_id":"4","last_reported":1744578493,"current_range_meters":9600,"station_id":"ce4bhb92rcd13ifvqen0","pricing_plan_id":"cebpf4jnsgd1na2vs0mg"},{"bike_id":"b0c064f7-6710-4684-831e-3fb959bd9f3a","system_id":"levelo_inurba_marseille","lat":43.27946,"lon":5.41051,"is_reserved":false,"is_disabled":false,"rental_uris":{"android":"levelo://app?vid=b0c064f7-6710-4684-831e-3fb959bd9f3a","ios":"levelo://app?vid=b0c064f7-6710-4684-831e-3fb959bd9f3a"},"vehicle_type_id":"4","last_reported":1744578493,"current_range_meters":10000,"station_id":"ce4bhnp2rcd13ifvqh0g","pricing_plan_id":"cebpf4jnsgd1na2vs0mg"},{"bike_id":"5bd83869-317c-4f7d-93ed-182a084c5a24","system_id":"levelo_inurba_marseille","lat":43.25708,"lon":5.41087,"is_reserved":false,"is_disabled":false,"rental_uris":{"android":"levelo://app?vid=5bd83869-317c-4f7d-93ed-182a084c5a24","ios":"levelo://app?vid=5bd83869-317c-4f7d-93ed-182a084c5a24"},"vehicle_type_id":"4","last_reported":1744578493,"current_range_meters":10000,"station_id":"ce4bhkp2rcd13ifvqgd0","pricing_plan_id":"cebpf4jnsgd1na2vs0mg"},{"bike_id":"e5afee93-2191-4e03-8277-e3b90ad6fc7d","system_id":"levelo_inurba_marseille","lat":43.28474,"lon":5.38441,"is_reserved":false,"is_disabled":false,"rental_uris":{"android":"levelo://app?vid=e5afee93-2191-4e03-8277-e3b90ad6fc7d","ios":"levelo://app?vid=e5afee93-2191-4e03-8277-e3b90ad6fc7d"},"vehicle_type_id":"4","last_reported":1744578493,"current_range_meters":10000,"station_id":"ce4bh512rcd13ifvqe3g","pricing_plan_id":"cebpf4jnsgd1na2vs0mg"},{"bike_id":"b55dd5e7-54b2-4035-b945-7b626dd7afc7","system_id":"levelo_inurba_marseille","lat":43.27557,"lon":5.40879,"is_reserved":false,"is_disabled":false,"rental_uris":{"android":"levelo://app?vid=b55dd5e7-54b2-4035-b945-7b626dd7afc7","ios":"levelo://app?vid=b55dd5e7-54b2-4035-b945-7b626dd7afc7"},"vehicle_type_id":"4","last_reported":1744578493,"current_range_meters":10000,"station_id":"","pricing_plan_id":"cebpf4jnsgd1na2vs0mg"},{"bike_id":"b76b67d9-b90b-4796-a3a5-b2bb88b04ab1","system_id":"levelo_inurba_marseille","lat":43.29568,"lon":5.37516,"is_reserved":false,"is_disabled":false,"rental_uris":{"android":"levelo://app?vid=b76b67d9-b90b-4796-a3a5-b2bb88b04ab1","ios":"levelo://app?vid=b76b67d9-b90b-4796-a3a5-b2bb88b04ab1"},"vehicle_type_id":"4","last_reported":1744578493,"current_range_meters":10000,"station_id":"ce4bgh92rcd13ifvqb50","pricing_plan_id":"cebpf4jnsgd1na2vs0mg"},{"bike_id":"4bbe6e48-9bfa-4dec-aab0-5597477f7da1","system_id":"levelo_inurba_marseille","lat":43.32412,"lon":5.39141,"is_reserved":false,"is_disabled":false,"rental_uris":{"android":"levelo://app?vid=4bbe6e48-9bfa-4dec-aab0-5597477f7da1","ios":"levelo://app?vid=4bbe6e48-9bfa-4dec-aab0-5597477f7da1"},"vehicle_type_id":"4","last_reported":1744578493,"current_range_meters":10000,"station_id":"","pricing_plan_id":"cebpf4jnsgd1na2vs0mg"},{"bike_id":"ec11a430-d6a6-4fb1-888d-50c15aeee5db","system_id":"levelo_inurba_marseille","lat":43.29524,"lon":5.38546,"is_reserved":false,"is_disabled":false,"rental_uris":{"android":"levelo://app?vid=ec11a430-d6a6-4fb1-888d-50c15aeee5db","ios":"levelo://app?vid=ec11a430-d6a6-4fb1-888d-50c15aeee5db"},"vehicle_type_id":"4","last_reported":1744578493,"current_range_meters":10800,"station_id":"ce4bgih2rcd13ifvqba0","pricing_plan_id":"cebpf4jnsgd1na2vs0mg"},{"bike_id":"d8b9884b-4022-4710-9f87-50e0dbfd421d","system_id":"levelo_inurba_marseille","lat":43.2415,"lon":5.36393,"is_reserved":false,"is_disabled":false,"rental_uris":{"android":"levelo://app?vid=d8b9884b-4022-4710-9f87-50e0dbfd421d","ios":"levelo://app?vid=d8b9884b-4022-4710-9f87-50e0dbfd421d"},"vehicle_type_id":"4","last_reported":1744578493,"current_range_meters":10800,"station_id":"cpo36qri1sfpv3e86is0","pricing_plan_id":"cebpf4jnsgd1na2vs0mg"},{"bike_id":"d49ed5f3-63dd-41d8-a7c3-7b7860b035b1","system_id":"levelo_inurba_marseille","lat":43.24834,"lon":5.37472,"is_reserved":false,"is_disabled":true,"rental_uris":{"android":"levelo://app?vid=d49ed5f3-63dd-41d8-a7c3-7b7860b035b1","ios":"levelo://app?vid=d49ed5f3-63dd-41d8-a7c3-7b7860b035b1"},"vehicle_type_id":"4","last_reported":1744578493,"current_range_meters":10800,"station_id":"ce4bhgh2rcd13ifvqfb0","pricing_plan_id":"cebpf4jnsgd1na2vs0mg"},{"bike_id":"5591936e-ca63-41c7-89f3-9c9493c86f89","system_id":"levelo_inurba_marseille","lat":43.241714,"lon":5.363953,"is_reserved":false,"is_disabled":false,"rental_uris":{"android":"levelo://app?vid=5591936e-ca63-41c7-89f3-9c9493c86f89","ios":"levelo://app?vid=5591936e-ca63-41c7-89f3-9c9493c86f89"},"vehicle_type_id":"4","last_reported":1744578493,"current_range_meters":10800,"station_id":"cpo36qri1sfpv3e86is0","pricing_plan_id":"cebpf4jnsgd1na2vs0mg"},{"bike_id":"35bd4d02-fb6f-47e3-8b9b-a14059c8d044","system_id":"levelo_inurba_marseille","lat":43.2418,"lon":5.39723,"is_reserved":false,"is_disabled":false,"rental_uris":{"android":"levelo://app?vid=35bd4d02-fb6f-47e3-8b9b-a14059c8d044","ios":"levelo://app?vid=35bd4d02-fb6f-47e3-8b9b-a14059c8d044"},"vehicle_type_id":"4","last_reported":1744578493,"current_range_meters":10800,"station_id":"ce4bhn12rcd13ifvqgpg","pricing_plan_id":"cebpf4jnsgd1na2vs0mg"},{"bike_id":"eeecd2fe-6254-4002-abf4-dbb4c5b284dc","system_id":"levelo_inurba_marseille","lat":43.27968,"lon":5.41671,"is_reserved":false,"is_disabled":true,"rental_uris":{"android":"levelo://app?vid=eeecd2fe-6254-4002-abf4-dbb4c5b284dc","ios":"levelo://app?vid=eeecd2fe-6254-4002-abf4-dbb4c5b284dc"},"vehicle_type_id":"4","last_reported":1744578493,"current_range_meters":11200,"station_id":"ce4bho12rcd13ifvqh1g","pricing_plan_id":"cebpf4jnsgd1na2vs0mg"},{"bike_id":"0ceb1776-0c88-4ba3-9905-2f990572e867","system_id":"levelo_inurba_marseille","lat":43.30379,"lon":5.42479,"is_reserved":false,"is_disabled":false,"rental_uris":{"android":"levelo://app?vid=0ceb1776-0c88-4ba3-9905-2f990572e867","ios":"levelo://app?vid=0ceb1776-0c88-4ba3-9905-2f990572e867"},"vehicle_type_id":"4","last_reported":1744578493,"current_range_meters":11200,"station_id":"ce4bhoh2rcd13ifvqh6g","pricing_plan_id":"cebpf4jnsgd1na2vs0mg"},{"bike_id":"cec9fed2-74bc-4f07-a628-035c465b00b6","system_id":"levelo_inurba_marseille","lat":43.24179,"lon":5.39737,"is_reserved":false,"is_disabled":false,"rental_uris":{"android":"levelo://app?vid=cec9fed2-74bc-4f07-a628-035c465b00b6","ios":"levelo://app?vid=cec9fed2-74bc-4f07-a628-035c465b00b6"},"vehicle_type_id":"4","last_reported":1744578493,"current_range_meters":11200,"station_id":"ce4bhn12rcd13ifvqgpg","pricing_plan_id":"cebpf4jnsgd1na2vs0mg"},{"bike_id":"34f6756b-3176-41ae-9a17-73fda68b3b50","system_id":"levelo_inurba_marseille","lat":43.2894,"lon":5.3663,"is_reserved":false,"is_disabled":false,"rental_uris":{"android":"levelo://app?vid=34f6756b-3176-41ae-9a17-73fda68b3b50","ios":"levelo://app?vid=34f6756b-3176-41ae-9a17-73fda68b3b50"},"vehicle_type_id":"4","last_reported":1744578493,"current_range_meters":11200,"station_id":"ce4bhap2rcd13ifvqek0","pricing_plan_id":"cebpf4jnsgd1na2vs0mg"},{"bike_id":"e0c9e09f-8004-440c-8329-33dcb2098b13","system_id":"levelo_inurba_marseille","lat":43.28936,"lon":5.36396,"is_reserved":false,"is_disabled":false,"rental_uris":{"android":"levelo://app?vid=e0c9e09f-8004-440c-8329-33dcb2098b13","ios":"levelo://app?vid=e0c9e09f-8004-440c-8329-33dcb2098b13"},"vehicle_type_id":"4","last_reported":1744578493,"current_range_meters":11200,"station_id":"ce4bhc92rcd13ifvqetg","pricing_plan_id":"cebpf4jnsgd1na2vs0mg"},{"bike_id":"a8139af7-eaba-494d-bab6-f948d1d363c5","system_id":"levelo_inurba_marseille","lat":43.27834,"lon":5.39205,"is_reserved":false,"is_disabled":false,"rental_uris":{"android":"levelo://app?vid=a8139af7-eaba-494d-bab6-f948d1d363c5","ios":"levelo://app?vid=a8139af7-eaba-494d-bab6-f948d1d363c5"},"vehicle_type_id":"4","last_reported":1744578493,"current_range_meters":11200,"station_id":"ce4bhjp2rcd13ifvqga0","pricing_plan_id":"cebpf4jnsgd1na2vs0mg"},{"bike_id":"b3e64b14-29c8-4f32-9a7d-73acca2d0222","system_id":"levelo_inurba_marseille","lat":43.29048,"lon":5.39997,"is_reserved":false,"is_disabled":true,"rental_uris":{"android":"levelo://app?vid=b3e64b14-29c8-4f32-9a7d-73acca2d0222","ios":"levelo://app?vid=b3e64b14-29c8-4f32-9a7d-73acca2d0222"},"vehicle_type_id":"4","last_reported":1744578493,"current_range_meters":11200,"station_id":"ce4bh392rcd13ifvqdm0","pricing_plan_id":"cebpf4jnsgd1na2vs0mg"},{"bike_id":"8a6043a2-2245-4366-9dd8-85faf764f337","system_id":"levelo_inurba_marseille","lat":43.33744,"lon":5.39191,"is_reserved":false,"is_disabled":false,"rental_uris":{"android":"levelo://app?vid=8a6043a2-2245-4366-9dd8-85faf764f337","ios":"levelo://app?vid=8a6043a2-2245-4366-9dd8-85faf764f337"},"vehicle_type_id":"4","last_reported":1744578493,"current_range_meters":11200,"station_id":"ce4bhr92rcd13ifvqhsg","pricing_plan_id":"cebpf4jnsgd1na2vs0mg"},{"bike_id":"72ebdd68-4727-45bd-ae87-df9c54928155","system_id":"levelo_inurba_marseille","lat":43.32552,"lon":5.41066,"is_reserved":false,"is_disabled":false,"rental_uris":{"android":"levelo://app?vid=72ebdd68-4727-45bd-ae87-df9c54928155","ios":"levelo://app?vid=72ebdd68-4727-45bd-ae87-df9c54928155"},"vehicle_type_id":"4","last_reported":1744578493,"current_range_meters":11600,"station_id":"","pricing_plan_id":"cebpf4jnsgd1na2vs0mg"},{"bike_id":"103fb907-3aa0-4f1b-ba50-f374d9a45d27","system_id":"levelo_inurba_marseille","lat":43.28011,"lon":5.40016,"is_reserved":false,"is_disabled":false,"rental_uris":{"android":"levelo://app?vid=103fb907-3aa0-4f1b-ba50-f374d9a45d27","ios":"levelo://app?vid=103fb907-3aa0-4f1b-ba50-f374d9a45d27"},"vehicle_type_id":"4","last_reported":1744578493,"current_range_meters":11600,"station_id":"ce4bho92rcd13ifvqh4g","pricing_plan_id":"cebpf4jnsgd1na2vs0mg"},{"bike_id":"b685ddfd-dae1-4f83-8180-4c8c75cc6933","system_id":"levelo_inurba_marseille","lat":43.27987,"lon":5.400208,"is_reserved":false,"is_disabled":true,"rental_uris":{"android":"levelo://app?vid=b685ddfd-dae1-4f83-8180-4c8c75cc6933","ios":"levelo://app?vid=b685ddfd-dae1-4f83-8180-4c8c75cc6933"},"vehicle_type_id":"4","last_reported":1744578493,"current_range_meters":11600,"station_id":"ce4bho92rcd13ifvqh4g","pricing_plan_id":"cebpf4jnsgd1na2vs0mg"},{"bike_id":"7c3c7f97-c8ac-4fe5-9c23-7542e2489897","system_id":"levelo_inurba_marseille","lat":43.3122,"lon":5.3688,"is_reserved":false,"is_disabled":false,"rental_uris":{"android":"levelo://app?vid=7c3c7f97-c8ac-4fe5-9c23-7542e2489897","ios":"levelo://app?vid=7c3c7f97-c8ac-4fe5-9c23-7542e2489897"},"vehicle_type_id":"4","last_reported":1744578493,"current_range_meters":12000,"station_id":"ce4bgl92rcd13ifvqbq0","pricing_plan_id":"cebpf4jnsgd1na2vs0mg"},{"bike_id":"368d4567-767c-4eeb-afba-40b9b593ad1c","system_id":"levelo_inurba_marseille","lat":43.27099,"lon":5.42302,"is_reserved":false,"is_disabled":false,"rental_uris":{"android":"levelo://app?vid=368d4567-767c-4eeb-afba-40b9b593ad1c","ios":"levelo://app?vid=368d4567-767c-4eeb-afba-40b9b593ad1c"},"vehicle_type_id":"4","last_reported":1744578493,"current_range_meters":12000,"station_id":"ce4bhk92rcd13ifvqgb0","pricing_plan_id":"cebpf4jnsgd1na2vs0mg"},{"bike_id":"875cdfb1-03b8-462e-9cd3-93f394279551","system_id":"levelo_inurba_marseille","lat":43.29709,"lon":5.36601,"is_reserved":false,"is_disabled":false,"rental_uris":{"android":"levelo://app?vid=875cdfb1-03b8-462e-9cd3-93f394279551","ios":"levelo://app?vid=875cdfb1-03b8-462e-9cd3-93f394279551"},"vehicle_type_id":"4","last_reported":1744578493,"current_range_meters":12000,"station_id":"ce4bgn12rcd13ifvqbt0","pricing_plan_id":"cebpf4jnsgd1na2vs0mg"},{"bike_id":"6a003e47-a1cc-4c38-b762-6e37af426d05","system_id":"levelo_inurba_marseille","lat":43.32379,"lon":5.36756,"is_reserved":false,"is_disabled":false,"rental_uris":{"android":"levelo://app?vid=6a003e47-a1cc-4c38-b762-6e37af426d05","ios":"levelo://app?vid=6a003e47-a1cc-4c38-b762-6e37af426d05"},"vehicle_type_id":"4","last_reported":1744578493,"current_range_meters":12000,"station_id":"ce4bhsh2rcd13ifvqi2g","pricing_plan_id":"cebpf4jnsgd1na2vs0mg"},{"bike_id":"0d6889fd-fc28-4905-ae73-dde45f2ce921","system_id":"levelo_inurba_marseille","lat":43.24671,"lon":5.38156,"is_reserved":false,"is_disabled":false,"rental_uris":{"android":"levelo://app?vid=0d6889fd-fc28-4905-ae73-dde45f2ce921","ios":"levelo://app?vid=0d6889fd-fc28-4905-ae73-dde45f2ce921"},"vehicle_type_id":"4","last_reported":1744578493,"current_range_meters":12000,"station_id":"ce4bhih2rcd13ifvqfr0","pricing_plan_id":"cebpf4jnsgd1na2vs0mg"},{"bike_id":"c2cb3958-7559-4a88-b0ef-3968b9c869f6","system_id":"levelo_inurba_marseille","lat":43.295784,"lon":5.36736,"is_reserved":false,"is_disabled":false,"rental_uris":{"android":"levelo://app?vid=c2cb3958-7559-4a88-b0ef-3968b9c869f6","ios":"levelo://app?vid=c2cb3958-7559-4a88-b0ef-3968b9c869f6"},"vehicle_type_id":"4","last_reported":1744578493,"current_range_meters":12400,"station_id":"","pricing_plan_id":"cebpf4jnsgd1na2vs0mg"},{"bike_id":"2bb6b5da-a4a8-4544-9220-ce73d140bbc1","system_id":"levelo_inurba_marseille","lat":43.28444,"lon":5.39225,"is_reserved":false,"is_disabled":false,"rental_uris":{"android":"levelo://app?vid=2bb6b5da-a4a8-4544-9220-ce73d140bbc1","ios":"levelo://app?vid=2bb6b5da-a4a8-4544-9220-ce73d140bbc1"},"vehicle_type_id":"4","last_reported":1744578493,"current_range_meters":12400,"station_id":"ce4bhoh2rcd13ifvqh5g","pricing_plan_id":"cebpf4jnsgd1na2vs0mg"},{"bike_id":"ba0617bc-a737-4e7c-be8e-b25cef28a43b","system_id":"levelo_inurba_marseille","lat":43.30327,"lon":5.4042,"is_reserved":false,"is_disabled":false,"rental_uris":{"android":"levelo://app?vid=ba0617bc-a737-4e7c-be8e-b25cef28a43b","ios":"levelo://app?vid=ba0617bc-a737-4e7c-be8e-b25cef28a43b"},"vehicle_type_id":"4","last_reported":1744578493,"current_range_meters":12400,"station_id":"ce4bh012rcd13ifvqd10","pricing_plan_id":"cebpf4jnsgd1na2vs0mg"},{"bike_id":"cb918d5b-8793-4d93-bf83-5042608ad86c","system_id":"levelo_inurba_marseille","lat":43.33201,"lon":5.39567,"is_reserved":false,"is_disabled":false,"rental_uris":{"android":"levelo://app?vid=cb918d5b-8793-4d93-bf83-5042608ad86c","ios":"levelo://app?vid=cb918d5b-8793-4d93-bf83-5042608ad86c"},"vehicle_type_id":"4","last_reported":1744578493,"current_range_meters":12400,"station_id":"","pricing_plan_id":"cebpf4jnsgd1na2vs0mg"},{"bike_id":"df97563b-10e9-4661-ae58-a85f7eb87383","system_id":"levelo_inurba_marseille","lat":43.28719,"lon":5.36093,"is_reserved":false,"is_disabled":false,"rental_uris":{"android":"levelo://app?vid=df97563b-10e9-4661-ae58-a85f7eb87383","ios":"levelo://app?vid=df97563b-10e9-4661-ae58-a85f7eb87383"},"vehicle_type_id":"4","last_reported":1744578493,"current_range_meters":12000,"station_id":"cki0cbj6b192h4jlfktg","pricing_plan_id":"cebpf4jnsgd1na2vs0mg"},{"bike_id":"65f98b52-627f-4221-921f-c1d48e4da20d","system_id":"levelo_inurba_marseille","lat":43.21747,"lon":5.34593,"is_reserved":false,"is_disabled":false,"rental_uris":{"android":"levelo://app?vid=65f98b52-627f-4221-921f-c1d48e4da20d","ios":"levelo://app?vid=65f98b52-627f-4221-921f-c1d48e4da20d"},"vehicle_type_id":"4","last_reported":1744578493,"current_range_meters":12400,"station_id":"st_cvj6r9ubvosntc0bgbag","pricing_plan_id":"cebpf4jnsgd1na2vs0mg"},{"bike_id":"1fe08170-843a-4805-bdff-cc804c925b61","system_id":"levelo_inurba_marseille","lat":43.30468,"lon":5.38893,"is_reserved":false,"is_disabled":false,"rental_uris":{"android":"levelo://app?vid=1fe08170-843a-4805-bdff-cc804c925b61","ios":"levelo://app?vid=1fe08170-843a-4805-bdff-cc804c925b61"},"vehicle_type_id":"4","last_reported":1744578493,"current_range_meters":12400,"station_id":"ce4bgk12rcd13ifvqbi0","pricing_plan_id":"cebpf4jnsgd1na2vs0mg"},{"bike_id":"b22c52cf-8d34-4f5f-82e8-349789267ec5","system_id":"levelo_inurba_marseille","lat":43.29088,"lon":5.3815,"is_reserved":false,"is_disabled":false,"rental_uris":{"android":"levelo://app?vid=b22c52cf-8d34-4f5f-82e8-349789267ec5","ios":"levelo://app?vid=b22c52cf-8d34-4f5f-82e8-349789267ec5"},"vehicle_type_id":"4","last_reported":1744578493,"current_range_meters":12800,"station_id":"","pricing_plan_id":"cebpf4jnsgd1na2vs0mg"},{"bike_id":"fbcffd98-9af3-437e-a238-670cf1dcb555","system_id":"levelo_inurba_marseille","lat":43.2895,"lon":5.36628,"is_reserved":false,"is_disabled":true,"rental_uris":{"android":"levelo://app?vid=fbcffd98-9af3-437e-a238-670cf1dcb555","ios":"levelo://app?vid=fbcffd98-9af3-437e-a238-670cf1dcb555"},"vehicle_type_id":"4","last_reported":1744578493,"current_range_meters":12800,"station_id":"ce4bhap2rcd13ifvqek0","pricing_plan_id":"cebpf4jnsgd1na2vs0mg"},{"bike_id":"c2a31b7c-37b8-460a-a9ba-47af7e49c6b9","system_id":"levelo_inurba_marseille","lat":43.27506,"lon":5.42482,"is_reserved":false,"is_disabled":false,"rental_uris":{"android":"levelo://app?vid=c2a31b7c-37b8-460a-a9ba-47af7e49c6b9","ios":"levelo://app?vid=c2a31b7c-37b8-460a-a9ba-47af7e49c6b9"},"vehicle_type_id":"4","last_reported":1744578493,"current_range_meters":12800,"station_id":"ce4bhn92rcd13ifvqgrg","pricing_plan_id":"cebpf4jnsgd1na2vs0mg"},{"bike_id":"fd88b09a-f546-4194-b879-708f82b01a19","system_id":"levelo_inurba_marseille","lat":43.30929,"lon":5.40148,"is_reserved":false,"is_disabled":false,"rental_uris":{"android":"levelo://app?vid=fd88b09a-f546-4194-b879-708f82b01a19","ios":"levelo://app?vid=fd88b09a-f546-4194-b879-708f82b01a19"},"vehicle_type_id":"4","last_reported":1744578493,"current_range_meters":12800,"station_id":"ce4bgvp2rcd13ifvqct0","pricing_plan_id":"cebpf4jnsgd1na2vs0mg"},{"bike_id":"e6be24a9-462c-4d93-b7b5-635bacae826f","system_id":"levelo_inurba_marseille","lat":43.29905,"lon":5.4036,"is_reserved":false,"is_disabled":false,"rental_uris":{"android":"levelo://app?vid=e6be24a9-462c-4d93-b7b5-635bacae826f","ios":"levelo://app?vid=e6be24a9-462c-4d93-b7b5-635bacae826f"},"vehicle_type_id":"4","last_reported":1744578493,"current_range_meters":12800,"station_id":"","pricing_plan_id":"cebpf4jnsgd1na2vs0mg"},{"bike_id":"d7eac028-2fd0-4f39-be58-fbce5fdcab81","system_id":"levelo_inurba_marseille","lat":43.28421,"lon":5.34992,"is_reserved":false,"is_disabled":true,"rental_uris":{"android":"levelo://app?vid=d7eac028-2fd0-4f39-be58-fbce5fdcab81","ios":"levelo://app?vid=d7eac028-2fd0-4f39-be58-fbce5fdcab81"},"vehicle_type_id":"4","last_reported":1744578493,"current_range_meters":13600,"station_id":"ce4bhbh2rcd13ifvqepg","pricing_plan_id":"cebpf4jnsgd1na2vs0mg"},{"bike_id":"c5de9f04-a68c-4314-9995-789e3d717983","system_id":"levelo_inurba_marseille","lat":43.24391,"lon":5.37056,"is_reserved":false,"is_disabled":true,"rental_uris":{"android":"levelo://app?vid=c5de9f04-a68c-4314-9995-789e3d717983","ios":"levelo://app?vid=c5de9f04-a68c-4314-9995-789e3d717983"},"vehicle_type_id":"4","last_reported":1744578493,"current_range_meters":13600,"station_id":"ce4bhhh2rcd13ifvqfk0","pricing_plan_id":"cebpf4jnsgd1na2vs0mg"},{"bike_id":"e617923d-5e38-4ab5-9f0a-d006b9dcc88d","system_id":"levelo_inurba_marseille","lat":43.29445,"lon":5.38561,"is_reserved":false,"is_disabled":true,"rental_uris":{"android":"levelo://app?vid=e617923d-5e38-4ab5-9f0a-d006b9dcc88d","ios":"levelo://app?vid=e617923d-5e38-4ab5-9f0a-d006b9dcc88d"},"vehicle_type_id":"4","last_reported":1744578493,"current_range_meters":13600,"station_id":"ce4bh2h2rcd13ifvqdh0","pricing_plan_id":"cebpf4jnsgd1na2vs0mg"},{"bike_id":"cad1d6ba-44f5-40d3-9aa1-39f6be83068d","system_id":"levelo_inurba_marseille","lat":43.2547,"lon":5.37654,"is_reserved":false,"is_disabled":false,"rental_uris":{"android":"levelo://app?vid=cad1d6ba-44f5-40d3-9aa1-39f6be83068d","ios":"levelo://app?vid=cad1d6ba-44f5-40d3-9aa1-39f6be83068d"},"vehicle_type_id":"4","last_reported":1744578493,"current_range_meters":13600,"station_id":"ce4bhh12rcd13ifvqff0","pricing_plan_id":"cebpf4jnsgd1na2vs0mg"},{"bike_id":"36e38036-f767-4b78-bdb4-ad91dc519fe6","system_id":"levelo_inurba_marseille","lat":43.26951,"lon":5.40251,"is_reserved":false,"is_disabled":false,"rental_uris":{"android":"levelo://app?vid=36e38036-f767-4b78-bdb4-ad91dc519fe6","ios":"levelo://app?vid=36e38036-f767-4b78-bdb4-ad91dc519fe6"},"vehicle_type_id":"4","last_reported":1744578493,"current_range_meters":14000,"station_id":"cjm6bp8fraef2m0cb0m0","pricing_plan_id":"cebpf4jnsgd1na2vs0mg"},{"bike_id":"ccb89218-1760-4c33-987c-ea7c17bce33c","system_id":"levelo_inurba_marseille","lat":43.27946,"lon":5.4104,"is_reserved":false,"is_disabled":false,"rental_uris":{"android":"levelo://app?vid=ccb89218-1760-4c33-987c-ea7c17bce33c","ios":"levelo://app?vid=ccb89218-1760-4c33-987c-ea7c17bce33c"},"vehicle_type_id":"4","last_reported":1744578493,"current_range_meters":14000,"station_id":"ce4bhnp2rcd13ifvqh0g","pricing_plan_id":"cebpf4jnsgd1na2vs0mg"},{"bike_id":"67868cb0-fe57-4755-a0f4-83fc5971e42b","system_id":"levelo_inurba_marseille","lat":43.26809,"lon":5.40265,"is_reserved":false,"is_disabled":false,"rental_uris":{"android":"levelo://app?vid=67868cb0-fe57-4755-a0f4-83fc5971e42b","ios":"levelo://app?vid=67868cb0-fe57-4755-a0f4-83fc5971e42b"},"vehicle_type_id":"4","last_reported":1744578493,"current_range_meters":14000,"station_id":"ce501612rcd8frsf0b60","pricing_plan_id":"cebpf4jnsgd1na2vs0mg"},{"bike_id":"79e05f01-3e6d-42cc-915a-0b30913e821f","system_id":"levelo_inurba_marseille","lat":43.28939,"lon":5.36632,"is_reserved":false,"is_disabled":false,"rental_uris":{"android":"levelo://app?vid=79e05f01-3e6d-42cc-915a-0b30913e821f","ios":"levelo://app?vid=79e05f01-3e6d-42cc-915a-0b30913e821f"},"vehicle_type_id":"4","last_reported":1744578493,"current_range_meters":14000,"station_id":"ce4bhap2rcd13ifvqek0","pricing_plan_id":"cebpf4jnsgd1na2vs0mg"},{"bike_id":"646ead34-e10b-46e9-8b3e-bd0824039b67","system_id":"levelo_inurba_marseille","lat":43.28457,"lon":5.35892,"is_reserved":false,"is_disabled":false,"rental_uris":{"android":"levelo://app?vid=646ead34-e10b-46e9-8b3e-bd0824039b67","ios":"levelo://app?vid=646ead34-e10b-46e9-8b3e-bd0824039b67"},"vehicle_type_id":"4","last_reported":1744578493,"current_range_meters":14400,"station_id":"ce4bhah2rcd13ifvqei0","pricing_plan_id":"cebpf4jnsgd1na2vs0mg"},{"bike_id":"72795014-e60d-4831-88a1-e24f7bb1743d","system_id":"levelo_inurba_marseille","lat":43.32389,"lon":5.38997,"is_reserved":false,"is_disabled":false,"rental_uris":{"android":"levelo://app?vid=72795014-e60d-4831-88a1-e24f7bb1743d","ios":"levelo://app?vid=72795014-e60d-4831-88a1-e24f7bb1743d"},"vehicle_type_id":"4","last_reported":1744578493,"current_range_meters":14400,"station_id":"","pricing_plan_id":"cebpf4jnsgd1na2vs0mg"},{"bike_id":"229e8b04-963a-4bfa-a656-9fbbab07788e","system_id":"levelo_inurba_marseille","lat":43.31187,"lon":5.38703,"is_reserved":false,"is_disabled":true,"rental_uris":{"android":"levelo://app?vid=229e8b04-963a-4bfa-a656-9fbbab07788e","ios":"levelo://app?vid=229e8b04-963a-4bfa-a656-9fbbab07788e"},"vehicle_type_id":"4","last_reported":1744578493,"current_range_meters":14400,"station_id":"ce4bgv12rcd13ifvqcp0","pricing_plan_id":"cebpf4jnsgd1na2vs0mg"},{"bike_id":"bad792e9-9b55-4be6-a4fe-7ff5da3aeb0d","system_id":"levelo_inurba_marseille","lat":43.28687,"lon":5.38641,"is_reserved":false,"is_disabled":false,"rental_uris":{"android":"levelo://app?vid=bad792e9-9b55-4be6-a4fe-7ff5da3aeb0d","ios":"levelo://app?vid=bad792e9-9b55-4be6-a4fe-7ff5da3aeb0d"},"vehicle_type_id":"4","last_reported":1744578493,"current_range_meters":14800,"station_id":"ce4bh492rcd13ifvqdug","pricing_plan_id":"cebpf4jnsgd1na2vs0mg"},{"bike_id":"de8d5c1a-1250-4f12-9fd3-50d439019281","system_id":"levelo_inurba_marseille","lat":43.27919,"lon":5.39579,"is_reserved":false,"is_disabled":false,"rental_uris":{"android":"levelo://app?vid=de8d5c1a-1250-4f12-9fd3-50d439019281","ios":"levelo://app?vid=de8d5c1a-1250-4f12-9fd3-50d439019281"},"vehicle_type_id":"4","last_reported":1744578493,"current_range_meters":14800,"station_id":"ce4bhf92rcd13ifvqf40","pricing_plan_id":"cebpf4jnsgd1na2vs0mg"},{"bike_id":"1cbaa3db-a92e-4cdf-b9e0-b67adfaf68ac","system_id":"levelo_inurba_marseille","lat":43.29599,"lon":5.38107,"is_reserved":false,"is_disabled":false,"rental_uris":{"android":"levelo://app?vid=1cbaa3db-a92e-4cdf-b9e0-b67adfaf68ac","ios":"levelo://app?vid=1cbaa3db-a92e-4cdf-b9e0-b67adfaf68ac"},"vehicle_type_id":"4","last_reported":1744578493,"current_range_meters":14800,"station_id":"ce4bgl12rcd13ifvqbo0","pricing_plan_id":"cebpf4jnsgd1na2vs0mg"},{"bike_id":"94ebb454-9dc3-4e5a-a1c0-ae0c608bc7ee","system_id":"levelo_inurba_marseille","lat":43.27968,"lon":5.41665,"is_reserved":false,"is_disabled":true,"rental_uris":{"android":"levelo://app?vid=94ebb454-9dc3-4e5a-a1c0-ae0c608bc7ee","ios":"levelo://app?vid=94ebb454-9dc3-4e5a-a1c0-ae0c608bc7ee"},"vehicle_type_id":"4","last_reported":1744578493,"current_range_meters":15200,"station_id":"ce4bho12rcd13ifvqh1g","pricing_plan_id":"cebpf4jnsgd1na2vs0mg"},{"bike_id":"2551df23-46eb-4dc9-b328-33c9a95ff7ca","system_id":"levelo_inurba_marseille","lat":43.29198,"lon":5.36017,"is_reserved":false,"is_disabled":true,"rental_uris":{"android":"levelo://app?vid=2551df23-46eb-4dc9-b328-33c9a95ff7ca","ios":"levelo://app?vid=2551df23-46eb-4dc9-b328-33c9a95ff7ca"},"vehicle_type_id":"4","last_reported":1744578493,"current_range_meters":15200,"station_id":"ce4bhbh2rcd13ifvqeqg","pricing_plan_id":"cebpf4jnsgd1na2vs0mg"},{"bike_id":"f0385e84-8d17-4013-8846-de9b430b3e2d","system_id":"levelo_inurba_marseille","lat":43.26935,"lon":5.38917,"is_reserved":false,"is_disabled":false,"rental_uris":{"android":"levelo://app?vid=f0385e84-8d17-4013-8846-de9b430b3e2d","ios":"levelo://app?vid=f0385e84-8d17-4013-8846-de9b430b3e2d"},"vehicle_type_id":"4","last_reported":1744578493,"current_range_meters":15200,"station_id":"ce4bhhh2rcd13ifvqfl0","pricing_plan_id":"cebpf4jnsgd1na2vs0mg"},{"bike_id":"52d3d308-e59e-4870-aed9-efb75c1dadf3","system_id":"levelo_inurba_marseille","lat":43.29434,"lon":5.39755,"is_reserved":false,"is_disabled":false,"rental_uris":{"android":"levelo://app?vid=52d3d308-e59e-4870-aed9-efb75c1dadf3","ios":"levelo://app?vid=52d3d308-e59e-4870-aed9-efb75c1dadf3"},"vehicle_type_id":"4","last_reported":1744578493,"current_range_meters":16000,"station_id":"ce4bh3h2rcd13ifvqdo0","pricing_plan_id":"cebpf4jnsgd1na2vs0mg"},{"bike_id":"7193aa82-ba04-4e92-abdd-f3607143da05","system_id":"levelo_inurba_marseille","lat":43.2847,"lon":5.38459,"is_reserved":false,"is_disabled":false,"rental_uris":{"android":"levelo://app?vid=7193aa82-ba04-4e92-abdd-f3607143da05","ios":"levelo://app?vid=7193aa82-ba04-4e92-abdd-f3607143da05"},"vehicle_type_id":"4","last_reported":1744578493,"current_range_meters":16000,"station_id":"ce4bh512rcd13ifvqe3g","pricing_plan_id":"cebpf4jnsgd1na2vs0mg"},{"bike_id":"50f3a6ca-1b32-4e17-a21b-a50e16960e96","system_id":"levelo_inurba_marseille","lat":43.337766,"lon":5.374441,"is_reserved":false,"is_disabled":false,"rental_uris":{"android":"levelo://app?vid=50f3a6ca-1b32-4e17-a21b-a50e16960e96","ios":"levelo://app?vid=50f3a6ca-1b32-4e17-a21b-a50e16960e96"},"vehicle_type_id":"4","last_reported":1744578493,"current_range_meters":16000,"station_id":"","pricing_plan_id":"cebpf4jnsgd1na2vs0mg"},{"bike_id":"87860e21-55e7-4fbc-9c2a-2ce6f84f5a39","system_id":"levelo_inurba_marseille","lat":43.306464,"lon":5.401039,"is_reserved":false,"is_disabled":false,"rental_uris":{"android":"levelo://app?vid=87860e21-55e7-4fbc-9c2a-2ce6f84f5a39","ios":"levelo://app?vid=87860e21-55e7-4fbc-9c2a-2ce6f84f5a39"},"vehicle_type_id":"4","last_reported":1744578493,"current_range_meters":16000,"station_id":"ce4bh2h2rcd13ifvqdh0","pricing_plan_id":"cebpf4jnsgd1na2vs0mg"},{"bike_id":"8e5407fe-edb2-4801-9b74-ba6c1beb9f40","system_id":"levelo_inurba_marseille","lat":43.296,"lon":5.37696,"is_reserved":false,"is_disabled":false,"rental_uris":{"android":"levelo://app?vid=8e5407fe-edb2-4801-9b74-ba6c1beb9f40","ios":"levelo://app?vid=8e5407fe-edb2-4801-9b74-ba6c1beb9f40"},"vehicle_type_id":"4","last_reported":1744578493,"current_range_meters":16000,"station_id":"ce4bgi92rcd13ifvqb90","pricing_plan_id":"cebpf4jnsgd1na2vs0mg"},{"bike_id":"491f8d55-213a-4477-afe5-576efb509e41","system_id":"levelo_inurba_marseille","lat":43.30324,"lon":5.40441,"is_reserved":false,"is_disabled":false,"rental_uris":{"android":"levelo://app?vid=491f8d55-213a-4477-afe5-576efb509e41","ios":"levelo://app?vid=491f8d55-213a-4477-afe5-576efb509e41"},"vehicle_type_id":"4","last_reported":1744578493,"current_range_meters":16000,"station_id":"ce4bh012rcd13ifvqd10","pricing_plan_id":"cebpf4jnsgd1na2vs0mg"},{"bike_id":"117a0cd2-b6c8-4daa-a83c-7d7a73851f85","system_id":"levelo_inurba_marseille","lat":43.30919,"lon":5.40146,"is_reserved":false,"is_disabled":false,"rental_uris":{"android":"levelo://app?vid=117a0cd2-b6c8-4daa-a83c-7d7a73851f85","ios":"levelo://app?vid=117a0cd2-b6c8-4daa-a83c-7d7a73851f85"},"vehicle_type_id":"4","last_reported":1744578493,"current_range_meters":16400,"station_id":"ce4bgvp2rcd13ifvqct0","pricing_plan_id":"cebpf4jnsgd1na2vs0mg"},{"bike_id":"935a7e55-4cea-4394-8ed2-15f7e1ee706c","system_id":"levelo_inurba_marseille","lat":43.27275,"lon":5.43136,"is_reserved":false,"is_disabled":false,"rental_uris":{"android":"levelo://app?vid=935a7e55-4cea-4394-8ed2-15f7e1ee706c","ios":"levelo://app?vid=935a7e55-4cea-4394-8ed2-15f7e1ee706c"},"vehicle_type_id":"4","last_reported":1744578493,"current_range_meters":16400,"station_id":"","pricing_plan_id":"cebpf4jnsgd1na2vs0mg"},{"bike_id":"c2652164-c871-427c-840e-2dcb99169578","system_id":"levelo_inurba_marseille","lat":43.24659,"lon":5.38165,"is_reserved":false,"is_disabled":false,"rental_uris":{"android":"levelo://app?vid=c2652164-c871-427c-840e-2dcb99169578","ios":"levelo://app?vid=c2652164-c871-427c-840e-2dcb99169578"},"vehicle_type_id":"4","last_reported":1744578493,"current_range_meters":16400,"station_id":"ce4bhih2rcd13ifvqfr0","pricing_plan_id":"cebpf4jnsgd1na2vs0mg"},{"bike_id":"da48e56b-5b98-4592-a2ea-cf5907cac18b","system_id":"levelo_inurba_marseille","lat":43.337652,"lon":5.374374,"is_reserved":false,"is_disabled":false,"rental_uris":{"android":"levelo://app?vid=da48e56b-5b98-4592-a2ea-cf5907cac18b","ios":"levelo://app?vid=da48e56b-5b98-4592-a2ea-cf5907cac18b"},"vehicle_type_id":"4","last_reported":1744578493,"current_range_meters":16400,"station_id":"","pricing_plan_id":"cebpf4jnsgd1na2vs0mg"},{"bike_id":"6f9cf811-1927-4a51-a336-b458bdfafc6f","system_id":"levelo_inurba_marseille","lat":43.30002,"lon":5.38539,"is_reserved":false,"is_disabled":false,"rental_uris":{"android":"levelo://app?vid=6f9cf811-1927-4a51-a336-b458bdfafc6f","ios":"levelo://app?vid=6f9cf811-1927-4a51-a336-b458bdfafc6f"},"vehicle_type_id":"4","last_reported":1744578493,"current_range_meters":16400,"station_id":"","pricing_plan_id":"cebpf4jnsgd1na2vs0mg"},{"bike_id":"75172e39-a4c6-4697-ad6c-4725e23fc9a7","system_id":"levelo_inurba_marseille","lat":43.31036,"lon":5.37095,"is_reserved":false,"is_disabled":false,"rental_uris":{"android":"levelo://app?vid=75172e39-a4c6-4697-ad6c-4725e23fc9a7","ios":"levelo://app?vid=75172e39-a4c6-4697-ad6c-4725e23fc9a7"},"vehicle_type_id":"4","last_reported":1744578493,"current_range_meters":16400,"station_id":"","pricing_plan_id":"cebpf4jnsgd1na2vs0mg"},{"bike_id":"56856095-36d3-46e0-b9e2-f4569d6a9fd9","system_id":"levelo_inurba_marseille","lat":43.30933,"lon":5.40186,"is_reserved":false,"is_disabled":false,"rental_uris":{"android":"levelo://app?vid=56856095-36d3-46e0-b9e2-f4569d6a9fd9","ios":"levelo://app?vid=56856095-36d3-46e0-b9e2-f4569d6a9fd9"},"vehicle_type_id":"4","last_reported":1744578493,"current_range_meters":16400,"station_id":"ce4bgvp2rcd13ifvqct0","pricing_plan_id":"cebpf4jnsgd1na2vs0mg"},{"bike_id":"da27b599-cdb3-4198-b616-72f0b42a3ad1","system_id":"levelo_inurba_marseille","lat":43.27845,"lon":5.40726,"is_reserved":false,"is_disabled":false,"rental_uris":{"android":"levelo://app?vid=da27b599-cdb3-4198-b616-72f0b42a3ad1","ios":"levelo://app?vid=da27b599-cdb3-4198-b616-72f0b42a3ad1"},"vehicle_type_id":"4","last_reported":1744578493,"current_range_meters":16800,"station_id":"ce4bhnh2rcd13ifvqgtg","pricing_plan_id":"cebpf4jnsgd1na2vs0mg"},{"bike_id":"4c136dfa-4100-4342-869f-12101c9845be","system_id":"levelo_inurba_marseille","lat":43.29249,"lon":5.37622,"is_reserved":false,"is_disabled":false,"rental_uris":{"android":"levelo://app?vid=4c136dfa-4100-4342-869f-12101c9845be","ios":"levelo://app?vid=4c136dfa-4100-4342-869f-12101c9845be"},"vehicle_type_id":"4","last_reported":1744578493,"current_range_meters":16800,"station_id":"ce4bgi12rcd13ifvqb80","pricing_plan_id":"cebpf4jnsgd1na2vs0mg"},{"bike_id":"86ac3ad7-4349-4b45-82d1-b61ad882a2f6","system_id":"levelo_inurba_marseille","lat":43.21732,"lon":5.34605,"is_reserved":false,"is_disabled":true,"rental_uris":{"android":"levelo://app?vid=86ac3ad7-4349-4b45-82d1-b61ad882a2f6","ios":"levelo://app?vid=86ac3ad7-4349-4b45-82d1-b61ad882a2f6"},"vehicle_type_id":"4","last_reported":1744578493,"current_range_meters":16800,"station_id":"st_cvj6r9ubvosntc0bgbag","pricing_plan_id":"cebpf4jnsgd1na2vs0mg"},{"bike_id":"df49f249-4aa5-4aa6-9193-27ea889ed0d0","system_id":"levelo_inurba_marseille","lat":43.30415,"lon":5.389,"is_reserved":false,"is_disabled":true,"rental_uris":{"android":"levelo://app?vid=df49f249-4aa5-4aa6-9193-27ea889ed0d0","ios":"levelo://app?vid=df49f249-4aa5-4aa6-9193-27ea889ed0d0"},"vehicle_type_id":"4","last_reported":1744578493,"current_range_meters":17200,"station_id":"ce4bgk12rcd13ifvqbi0","pricing_plan_id":"cebpf4jnsgd1na2vs0mg"},{"bike_id":"10f9e84f-2f08-49b5-bb9a-785f0bd93774","system_id":"levelo_inurba_marseille","lat":43.27998,"lon":5.40006,"is_reserved":false,"is_disabled":false,"rental_uris":{"android":"levelo://app?vid=10f9e84f-2f08-49b5-bb9a-785f0bd93774","ios":"levelo://app?vid=10f9e84f-2f08-49b5-bb9a-785f0bd93774"},"vehicle_type_id":"4","last_reported":1744578493,"current_range_meters":17200,"station_id":"ce4bho92rcd13ifvqh4g","pricing_plan_id":"cebpf4jnsgd1na2vs0mg"},{"bike_id":"59c7d7f9-492d-4240-b3d4-e8d1015f1ebd","system_id":"levelo_inurba_marseille","lat":43.21735,"lon":5.34601,"is_reserved":false,"is_disabled":true,"rental_uris":{"android":"levelo://app?vid=59c7d7f9-492d-4240-b3d4-e8d1015f1ebd","ios":"levelo://app?vid=59c7d7f9-492d-4240-b3d4-e8d1015f1ebd"},"vehicle_type_id":"4","last_reported":1744578493,"current_range_meters":17600,"station_id":"st_cvj6r9ubvosntc0bgbag","pricing_plan_id":"cebpf4jnsgd1na2vs0mg"},{"bike_id":"216a8464-4ea5-4b56-8cd6-224becea39c4","system_id":"levelo_inurba_marseille","lat":43.2783,"lon":5.40697,"is_reserved":false,"is_disabled":false,"rental_uris":{"android":"levelo://app?vid=216a8464-4ea5-4b56-8cd6-224becea39c4","ios":"levelo://app?vid=216a8464-4ea5-4b56-8cd6-224becea39c4"},"vehicle_type_id":"4","last_reported":1744578493,"current_range_meters":17600,"station_id":"ce4bhnh2rcd13ifvqgtg","pricing_plan_id":"cebpf4jnsgd1na2vs0mg"},{"bike_id":"d7335d2c-886d-4292-821c-cb899eb6db6d","system_id":"levelo_inurba_marseille","lat":43.27831,"lon":5.39212,"is_reserved":false,"is_disabled":false,"rental_uris":{"android":"levelo://app?vid=d7335d2c-886d-4292-821c-cb899eb6db6d","ios":"levelo://app?vid=d7335d2c-886d-4292-821c-cb899eb6db6d"},"vehicle_type_id":"4","last_reported":1744578493,"current_range_meters":17600,"station_id":"ce4bhjp2rcd13ifvqga0","pricing_plan_id":"cebpf4jnsgd1na2vs0mg"},{"bike_id":"b49c1121-5d55-4c7f-88d1-ff91b8068054","system_id":"levelo_inurba_marseille","lat":43.29535,"lon":5.38551,"is_reserved":false,"is_disabled":false,"rental_uris":{"android":"levelo://app?vid=b49c1121-5d55-4c7f-88d1-ff91b8068054","ios":"levelo://app?vid=b49c1121-5d55-4c7f-88d1-ff91b8068054"},"vehicle_type_id":"4","last_reported":1744578493,"current_range_meters":17600,"station_id":"ce4bgih2rcd13ifvqba0","pricing_plan_id":"cebpf4jnsgd1na2vs0mg"},{"bike_id":"ef4c16b1-0848-446f-b859-777d81eb2e7e","system_id":"levelo_inurba_marseille","lat":43.29044,"lon":5.39988,"is_reserved":false,"is_disabled":false,"rental_uris":{"android":"levelo://app?vid=ef4c16b1-0848-446f-b859-777d81eb2e7e","ios":"levelo://app?vid=ef4c16b1-0848-446f-b859-777d81eb2e7e"},"vehicle_type_id":"4","last_reported":1744578493,"current_range_meters":17600,"station_id":"ce4bh392rcd13ifvqdm0","pricing_plan_id":"cebpf4jnsgd1na2vs0mg"},{"bike_id":"100ffc3b-ec42-4276-92c8-0034ad5d2420","system_id":"levelo_inurba_marseille","lat":43.26561,"lon":5.37291,"is_reserved":false,"is_disabled":false,"rental_uris":{"android":"levelo://app?vid=100ffc3b-ec42-4276-92c8-0034ad5d2420","ios":"levelo://app?vid=100ffc3b-ec42-4276-92c8-0034ad5d2420"},"vehicle_type_id":"4","last_reported":1744578493,"current_range_meters":17600,"station_id":"ce4bhg12rcd13ifvqf70","pricing_plan_id":"cebpf4jnsgd1na2vs0mg"},{"bike_id":"7397fdfe-7e90-496c-9947-80ce65e17a33","system_id":"levelo_inurba_marseille","lat":43.27822,"lon":5.39222,"is_reserved":false,"is_disabled":false,"rental_uris":{"android":"levelo://app?vid=7397fdfe-7e90-496c-9947-80ce65e17a33","ios":"levelo://app?vid=7397fdfe-7e90-496c-9947-80ce65e17a33"},"vehicle_type_id":"4","last_reported":1744578493,"current_range_meters":17600,"station_id":"ce4bhjp2rcd13ifvqga0","pricing_plan_id":"cebpf4jnsgd1na2vs0mg"},{"bike_id":"f92aa571-a3b5-4063-9c44-80d1db5d1a0f","system_id":"levelo_inurba_marseille","lat":43.31458,"lon":5.37377,"is_reserved":false,"is_disabled":false,"rental_uris":{"android":"levelo://app?vid=f92aa571-a3b5-4063-9c44-80d1db5d1a0f","ios":"levelo://app?vid=f92aa571-a3b5-4063-9c44-80d1db5d1a0f"},"vehicle_type_id":"4","last_reported":1744578493,"current_range_meters":17600,"station_id":"","pricing_plan_id":"cebpf4jnsgd1na2vs0mg"},{"bike_id":"27a55245-8dd2-4f1a-af63-95a9d7b71690","system_id":"levelo_inurba_marseille","lat":43.31095,"lon":5.37841,"is_reserved":false,"is_disabled":true,"rental_uris":{"android":"levelo://app?vid=27a55245-8dd2-4f1a-af63-95a9d7b71690","ios":"levelo://app?vid=27a55245-8dd2-4f1a-af63-95a9d7b71690"},"vehicle_type_id":"4","last_reported":1744578493,"current_range_meters":17600,"station_id":"","pricing_plan_id":"cebpf4jnsgd1na2vs0mg"},{"bike_id":"72ad346f-af5e-432a-a6d9-1168723b0f51","system_id":"levelo_inurba_marseille","lat":43.29788,"lon":5.40411,"is_reserved":false,"is_disabled":false,"rental_uris":{"android":"levelo://app?vid=72ad346f-af5e-432a-a6d9-1168723b0f51","ios":"levelo://app?vid=72ad346f-af5e-432a-a6d9-1168723b0f51"},"vehicle_type_id":"4","last_reported":1744578493,"current_range_meters":17600,"station_id":"ce4bh112rcd13ifvqd90","pricing_plan_id":"cebpf4jnsgd1na2vs0mg"},{"bike_id":"a6535ba8-9ced-4cad-b71b-a79f16af244f","system_id":"levelo_inurba_marseille","lat":43.24664,"lon":5.38143,"is_reserved":false,"is_disabled":false,"rental_uris":{"android":"levelo://app?vid=a6535ba8-9ced-4cad-b71b-a79f16af244f","ios":"levelo://app?vid=a6535ba8-9ced-4cad-b71b-a79f16af244f"},"vehicle_type_id":"4","last_reported":1744578493,"current_range_meters":18000,"station_id":"ce4bhih2rcd13ifvqfr0","pricing_plan_id":"cebpf4jnsgd1na2vs0mg"},{"bike_id":"8e84781a-82c3-4b14-a541-78f95f1999c0","system_id":"levelo_inurba_marseille","lat":43.27435,"lon":5.39366,"is_reserved":false,"is_disabled":true,"rental_uris":{"android":"levelo://app?vid=8e84781a-82c3-4b14-a541-78f95f1999c0","ios":"levelo://app?vid=8e84781a-82c3-4b14-a541-78f95f1999c0"},"vehicle_type_id":"4","last_reported":1744578493,"current_range_meters":18000,"station_id":"ce4bhdp2rcd13ifvqf20","pricing_plan_id":"cebpf4jnsgd1na2vs0mg"},{"bike_id":"fb13c941-1858-46a4-86ad-2a5e302996c3","system_id":"levelo_inurba_marseille","lat":43.25855,"lon":5.3992,"is_reserved":false,"is_disabled":true,"rental_uris":{"android":"levelo://app?vid=fb13c941-1858-46a4-86ad-2a5e302996c3","ios":"levelo://app?vid=fb13c941-1858-46a4-86ad-2a5e302996c3"},"vehicle_type_id":"4","last_reported":1744578493,"current_range_meters":18000,"station_id":"ce4bhl92rcd13ifvqghg","pricing_plan_id":"cebpf4jnsgd1na2vs0mg"},{"bike_id":"9cd0ddf0-46b2-485a-af47-3d5f76fa373f","system_id":"levelo_inurba_marseille","lat":43.33588,"lon":5.41022,"is_reserved":false,"is_disabled":false,"rental_uris":{"android":"levelo://app?vid=9cd0ddf0-46b2-485a-af47-3d5f76fa373f","ios":"levelo://app?vid=9cd0ddf0-46b2-485a-af47-3d5f76fa373f"},"vehicle_type_id":"4","last_reported":1744578493,"current_range_meters":18000,"station_id":"ce4bhqh2rcd13ifvqhmg","pricing_plan_id":"cebpf4jnsgd1na2vs0mg"},{"bike_id":"ac3c167b-6aff-4193-8f82-b9a885edc17c","system_id":"levelo_inurba_marseille","lat":43.28844,"lon":5.35866,"is_reserved":false,"is_disabled":false,"rental_uris":{"android":"levelo://app?vid=ac3c167b-6aff-4193-8f82-b9a885edc17c","ios":"levelo://app?vid=ac3c167b-6aff-4193-8f82-b9a885edc17c"},"vehicle_type_id":"4","last_reported":1744578493,"current_range_meters":18000,"station_id":"ce4bhb12rcd13ifvqem0","pricing_plan_id":"cebpf4jnsgd1na2vs0mg"},{"bike_id":"b456b85c-8928-4a5a-9171-1132c2572ebe","system_id":"levelo_inurba_marseille","lat":43.26788,"lon":5.40254,"is_reserved":false,"is_disabled":false,"rental_uris":{"android":"levelo://app?vid=b456b85c-8928-4a5a-9171-1132c2572ebe","ios":"levelo://app?vid=b456b85c-8928-4a5a-9171-1132c2572ebe"},"vehicle_type_id":"4","last_reported":1744578493,"current_range_meters":18800,"station_id":"ce501612rcd8frsf0b60","pricing_plan_id":"cebpf4jnsgd1na2vs0mg"},{"bike_id":"f6cce617-e152-479a-8309-73e97a57453c","system_id":"levelo_inurba_marseille","lat":43.33628,"lon":5.41017,"is_reserved":false,"is_disabled":false,"rental_uris":{"android":"levelo://app?vid=f6cce617-e152-479a-8309-73e97a57453c","ios":"levelo://app?vid=f6cce617-e152-479a-8309-73e97a57453c"},"vehicle_type_id":"4","last_reported":1744578493,"current_range_meters":18000,"station_id":"ce4bhqh2rcd13ifvqhmg","pricing_plan_id":"cebpf4jnsgd1na2vs0mg"},{"bike_id":"93152d5b-49ec-4d2d-86a9-edb72bdfe75c","system_id":"levelo_inurba_marseille","lat":43.23964,"lon":5.3663,"is_reserved":false,"is_disabled":false,"rental_uris":{"android":"levelo://app?vid=93152d5b-49ec-4d2d-86a9-edb72bdfe75c","ios":"levelo://app?vid=93152d5b-49ec-4d2d-86a9-edb72bdfe75c"},"vehicle_type_id":"4","last_reported":1744578493,"current_range_meters":18800,"station_id":"ce4bhi12rcd13ifvqfp0","pricing_plan_id":"cebpf4jnsgd1na2vs0mg"},{"bike_id":"8cbcc45e-ae23-4d17-8403-48353a1e0259","system_id":"levelo_inurba_marseille","lat":43.31165,"lon":5.38722,"is_reserved":false,"is_disabled":false,"rental_uris":{"android":"levelo://app?vid=8cbcc45e-ae23-4d17-8403-48353a1e0259","ios":"levelo://app?vid=8cbcc45e-ae23-4d17-8403-48353a1e0259"},"vehicle_type_id":"4","last_reported":1744578493,"current_range_meters":18000,"station_id":"ce4bgv12rcd13ifvqcp0","pricing_plan_id":"cebpf4jnsgd1na2vs0mg"},{"bike_id":"72ecbc85-7cd1-4418-be98-d8877b1e610a","system_id":"levelo_inurba_marseille","lat":43.28935,"lon":5.36636,"is_reserved":false,"is_disabled":false,"rental_uris":{"android":"levelo://app?vid=72ecbc85-7cd1-4418-be98-d8877b1e610a","ios":"levelo://app?vid=72ecbc85-7cd1-4418-be98-d8877b1e610a"},"vehicle_type_id":"4","last_reported":1744578493,"current_range_meters":18800,"station_id":"ce4bhap2rcd13ifvqek0","pricing_plan_id":"cebpf4jnsgd1na2vs0mg"},{"bike_id":"f22fa8dc-6557-4cde-88db-5208b495088a","system_id":"levelo_inurba_marseille","lat":43.24358,"lon":5.36331,"is_reserved":false,"is_disabled":false,"rental_uris":{"android":"levelo://app?vid=f22fa8dc-6557-4cde-88db-5208b495088a","ios":"levelo://app?vid=f22fa8dc-6557-4cde-88db-5208b495088a"},"vehicle_type_id":"4","last_reported":1744578493,"current_range_meters":18800,"station_id":"ce4bhi12rcd13ifvqfp0","pricing_plan_id":"cebpf4jnsgd1na2vs0mg"},{"bike_id":"a8791189-08ab-44ed-9124-c68d4aa71e0a","system_id":"levelo_inurba_marseille","lat":43.28724,"lon":5.39992,"is_reserved":false,"is_disabled":false,"rental_uris":{"android":"levelo://app?vid=a8791189-08ab-44ed-9124-c68d4aa71e0a","ios":"levelo://app?vid=a8791189-08ab-44ed-9124-c68d4aa71e0a"},"vehicle_type_id":"4","last_reported":1744578493,"current_range_meters":18800,"station_id":"ce4bho92rcd13ifvqh3g","pricing_plan_id":"cebpf4jnsgd1na2vs0mg"},{"bike_id":"09b589d2-0040-4dd5-90e6-463ba632e60e","system_id":"levelo_inurba_marseille","lat":43.288513,"lon":5.393012,"is_reserved":false,"is_disabled":false,"rental_uris":{"android":"levelo://app?vid=09b589d2-0040-4dd5-90e6-463ba632e60e","ios":"levelo://app?vid=09b589d2-0040-4dd5-90e6-463ba632e60e"},"vehicle_type_id":"4","last_reported":1744578493,"current_range_meters":18800,"station_id":"chh1huq6cuj3fo74tm60","pricing_plan_id":"cebpf4jnsgd1na2vs0mg"},{"bike_id":"d51571a7-f432-4df7-8067-78f9f25ed23a","system_id":"levelo_inurba_marseille","lat":43.28722,"lon":5.36083,"is_reserved":false,"is_disabled":false,"rental_uris":{"android":"levelo://app?vid=d51571a7-f432-4df7-8067-78f9f25ed23a","ios":"levelo://app?vid=d51571a7-f432-4df7-8067-78f9f25ed23a"},"vehicle_type_id":"4","last_reported":1744578493,"current_range_meters":19200,"station_id":"cki0cbj6b192h4jlfktg","pricing_plan_id":"cebpf4jnsgd1na2vs0mg"},{"bike_id":"3ca4383b-5bb4-4b5b-aa8b-2becb894db82","system_id":"levelo_inurba_marseille","lat":43.294174,"lon":5.386246,"is_reserved":false,"is_disabled":false,"rental_uris":{"android":"levelo://app?vid=3ca4383b-5bb4-4b5b-aa8b-2becb894db82","ios":"levelo://app?vid=3ca4383b-5bb4-4b5b-aa8b-2becb894db82"},"vehicle_type_id":"4","last_reported":1744578493,"current_range_meters":19200,"station_id":"ce4bghh2rcd13ifvqb60","pricing_plan_id":"cebpf4jnsgd1na2vs0mg"},{"bike_id":"407a54c4-ce42-4e1a-bc9b-9b8f2ef8a27a","system_id":"levelo_inurba_marseille","lat":43.32413,"lon":5.39122,"is_reserved":false,"is_disabled":false,"rental_uris":{"android":"levelo://app?vid=407a54c4-ce42-4e1a-bc9b-9b8f2ef8a27a","ios":"levelo://app?vid=407a54c4-ce42-4e1a-bc9b-9b8f2ef8a27a"},"vehicle_type_id":"4","last_reported":1744578493,"current_range_meters":19200,"station_id":"","pricing_plan_id":"cebpf4jnsgd1na2vs0mg"},{"bike_id":"626065a0-5dba-4dd3-94f8-76bb3800d58f","system_id":"levelo_inurba_marseille","lat":43.25736,"lon":5.41107,"is_reserved":false,"is_disabled":false,"rental_uris":{"android":"levelo://app?vid=626065a0-5dba-4dd3-94f8-76bb3800d58f","ios":"levelo://app?vid=626065a0-5dba-4dd3-94f8-76bb3800d58f"},"vehicle_type_id":"4","last_reported":1744578493,"current_range_meters":19200,"station_id":"ce4bhkp2rcd13ifvqgd0","pricing_plan_id":"cebpf4jnsgd1na2vs0mg"},{"bike_id":"a818834f-725d-4dbb-9bab-d3518b1b13c4","system_id":"levelo_inurba_marseille","lat":43.32361,"lon":5.36746,"is_reserved":false,"is_disabled":false,"rental_uris":{"android":"levelo://app?vid=a818834f-725d-4dbb-9bab-d3518b1b13c4","ios":"levelo://app?vid=a818834f-725d-4dbb-9bab-d3518b1b13c4"},"vehicle_type_id":"4","last_reported":1744578493,"current_range_meters":19200,"station_id":"ce4bhsh2rcd13ifvqi2g","pricing_plan_id":"cebpf4jnsgd1na2vs0mg"},{"bike_id":"7068e823-0ef7-4bec-9d46-9774d9ea3ba0","system_id":"levelo_inurba_marseille","lat":43.31478,"lon":5.37286,"is_reserved":false,"is_disabled":false,"rental_uris":{"android":"levelo://app?vid=7068e823-0ef7-4bec-9d46-9774d9ea3ba0","ios":"levelo://app?vid=7068e823-0ef7-4bec-9d46-9774d9ea3ba0"},"vehicle_type_id":"4","last_reported":1744578493,"current_range_meters":19200,"station_id":"ce4bgt12rcd13ifvqcd0","pricing_plan_id":"cebpf4jnsgd1na2vs0mg"},{"bike_id":"6dfb8f83-2530-4143-8ef5-449b76a9fef3","system_id":"levelo_inurba_marseille","lat":43.29197,"lon":5.393,"is_reserved":false,"is_disabled":false,"rental_uris":{"android":"levelo://app?vid=6dfb8f83-2530-4143-8ef5-449b76a9fef3","ios":"levelo://app?vid=6dfb8f83-2530-4143-8ef5-449b76a9fef3"},"vehicle_type_id":"4","last_reported":1744578493,"current_range_meters":19200,"station_id":"ce4bh192rcd13ifvqdd0","pricing_plan_id":"cebpf4jnsgd1na2vs0mg"},{"bike_id":"08e69920-6699-44a2-bf5e-065531bec167","system_id":"levelo_inurba_marseille","lat":43.29241,"lon":5.40178,"is_reserved":false,"is_disabled":true,"rental_uris":{"android":"levelo://app?vid=08e69920-6699-44a2-bf5e-065531bec167","ios":"levelo://app?vid=08e69920-6699-44a2-bf5e-065531bec167"},"vehicle_type_id":"4","last_reported":1744578493,"current_range_meters":19200,"station_id":"","pricing_plan_id":"cebpf4jnsgd1na2vs0mg"},{"bike_id":"56135a82-d19f-45ea-a72c-58b1131d0fcb","system_id":"levelo_inurba_marseille","lat":43.28112,"lon":5.3966,"is_reserved":false,"is_disabled":true,"rental_uris":{"android":"levelo://app?vid=56135a82-d19f-45ea-a72c-58b1131d0fcb","ios":"levelo://app?vid=56135a82-d19f-45ea-a72c-58b1131d0fcb"},"vehicle_type_id":"4","last_reported":1744578493,"current_range_meters":19200,"station_id":"ce4bho12rcd13ifvqh2g","pricing_plan_id":"cebpf4jnsgd1na2vs0mg"},{"bike_id":"851e381c-bf0e-4d6c-a285-aade0183be05","system_id":"levelo_inurba_marseille","lat":43.29506,"lon":5.37528,"is_reserved":false,"is_disabled":false,"rental_uris":{"android":"levelo://app?vid=851e381c-bf0e-4d6c-a285-aade0183be05","ios":"levelo://app?vid=851e381c-bf0e-4d6c-a285-aade0183be05"},"vehicle_type_id":"4","last_reported":1744578493,"current_range_meters":18800,"station_id":"ce4bgkp2rcd13ifvqbmg","pricing_plan_id":"cebpf4jnsgd1na2vs0mg"},{"bike_id":"89207559-af4d-4726-bcba-9f7bd8506ae9","system_id":"levelo_inurba_marseille","lat":43.27507,"lon":5.42466,"is_reserved":false,"is_disabled":false,"rental_uris":{"android":"levelo://app?vid=89207559-af4d-4726-bcba-9f7bd8506ae9","ios":"levelo://app?vid=89207559-af4d-4726-bcba-9f7bd8506ae9"},"vehicle_type_id":"4","last_reported":1744578493,"current_range_meters":19200,"station_id":"ce4bhn92rcd13ifvqgrg","pricing_plan_id":"cebpf4jnsgd1na2vs0mg"},{"bike_id":"468f8b85-c30d-4a82-a61b-d8ed9e522211","system_id":"levelo_inurba_marseille","lat":43.28458,"lon":5.35874,"is_reserved":false,"is_disabled":false,"rental_uris":{"android":"levelo://app?vid=468f8b85-c30d-4a82-a61b-d8ed9e522211","ios":"levelo://app?vid=468f8b85-c30d-4a82-a61b-d8ed9e522211"},"vehicle_type_id":"4","last_reported":1744578493,"current_range_meters":19600,"station_id":"ce4bhah2rcd13ifvqei0","pricing_plan_id":"cebpf4jnsgd1na2vs0mg"},{"bike_id":"e23c1586-efd0-4043-8e03-1ad9b7450b00","system_id":"levelo_inurba_marseille","lat":43.28671,"lon":5.3866,"is_reserved":false,"is_disabled":false,"rental_uris":{"android":"levelo://app?vid=e23c1586-efd0-4043-8e03-1ad9b7450b00","ios":"levelo://app?vid=e23c1586-efd0-4043-8e03-1ad9b7450b00"},"vehicle_type_id":"4","last_reported":1744578493,"current_range_meters":19600,"station_id":"ce4bh492rcd13ifvqdug","pricing_plan_id":"cebpf4jnsgd1na2vs0mg"},{"bike_id":"92acc3ad-3130-40c6-a9a1-3c9cc354f998","system_id":"levelo_inurba_marseille","lat":43.24402,"lon":5.37073,"is_reserved":false,"is_disabled":false,"rental_uris":{"android":"levelo://app?vid=92acc3ad-3130-40c6-a9a1-3c9cc354f998","ios":"levelo://app?vid=92acc3ad-3130-40c6-a9a1-3c9cc354f998"},"vehicle_type_id":"4","last_reported":1744578493,"current_range_meters":19600,"station_id":"ce4bhhh2rcd13ifvqfk0","pricing_plan_id":"cebpf4jnsgd1na2vs0mg"},{"bike_id":"a60d7b62-256e-4184-956a-1f073b4fcf42","system_id":"levelo_inurba_marseille","lat":43.29938,"lon":5.365399,"is_reserved":false,"is_disabled":false,"rental_uris":{"android":"levelo://app?vid=a60d7b62-256e-4184-956a-1f073b4fcf42","ios":"levelo://app?vid=a60d7b62-256e-4184-956a-1f073b4fcf42"},"vehicle_type_id":"4","last_reported":1744578493,"current_range_meters":19600,"station_id":"ce4bgm92rcd13ifvqbr0","pricing_plan_id":"cebpf4jnsgd1na2vs0mg"},{"bike_id":"d235a5d5-610a-44b9-8a52-85c55bfe72a6","system_id":"levelo_inurba_marseille","lat":43.28873,"lon":5.39283,"is_reserved":false,"is_disabled":false,"rental_uris":{"android":"levelo://app?vid=d235a5d5-610a-44b9-8a52-85c55bfe72a6","ios":"levelo://app?vid=d235a5d5-610a-44b9-8a52-85c55bfe72a6"},"vehicle_type_id":"4","last_reported":1744578493,"current_range_meters":19600,"station_id":"ce4bh2p2rcd13ifvqdi0","pricing_plan_id":"cebpf4jnsgd1na2vs0mg"},{"bike_id":"301f53d6-0a8d-48c7-b250-860880def1f4","system_id":"levelo_inurba_marseille","lat":43.31041,"lon":5.37106,"is_reserved":false,"is_disabled":false,"rental_uris":{"android":"levelo://app?vid=301f53d6-0a8d-48c7-b250-860880def1f4","ios":"levelo://app?vid=301f53d6-0a8d-48c7-b250-860880def1f4"},"vehicle_type_id":"4","last_reported":1744578493,"current_range_meters":20000,"station_id":"","pricing_plan_id":"cebpf4jnsgd1na2vs0mg"},{"bike_id":"9ccaf1e8-d14c-4218-be36-430bac425c11","system_id":"levelo_inurba_marseille","lat":43.30603,"lon":5.39359,"is_reserved":false,"is_disabled":true,"rental_uris":{"android":"levelo://app?vid=9ccaf1e8-d14c-4218-be36-430bac425c11","ios":"levelo://app?vid=9ccaf1e8-d14c-4218-be36-430bac425c11"},"vehicle_type_id":"4","last_reported":1744578493,"current_range_meters":20000,"station_id":"ce4bh0p2rcd13ifvqd80","pricing_plan_id":"cebpf4jnsgd1na2vs0mg"},{"bike_id":"ec55715f-50ef-4b62-b932-d89df8729be7","system_id":"levelo_inurba_marseille","lat":43.31598,"lon":5.38866,"is_reserved":false,"is_disabled":false,"rental_uris":{"android":"levelo://app?vid=ec55715f-50ef-4b62-b932-d89df8729be7","ios":"levelo://app?vid=ec55715f-50ef-4b62-b932-d89df8729be7"},"vehicle_type_id":"4","last_reported":1744578493,"current_range_meters":20000,"station_id":"","pricing_plan_id":"cebpf4jnsgd1na2vs0mg"},{"bike_id":"1ec17c17-7531-4815-89ab-3fa696b961e5","system_id":"levelo_inurba_marseille","lat":43.29629,"lon":5.40598,"is_reserved":false,"is_disabled":false,"rental_uris":{"android":"levelo://app?vid=1ec17c17-7531-4815-89ab-3fa696b961e5","ios":"levelo://app?vid=1ec17c17-7531-4815-89ab-3fa696b961e5"},"vehicle_type_id":"4","last_reported":1744578493,"current_range_meters":19600,"station_id":"ce4bh0h2rcd13ifvqd60","pricing_plan_id":"cebpf4jnsgd1na2vs0mg"},{"bike_id":"7c2a4588-bcf7-4c8d-b580-ff8de5ba6372","system_id":"levelo_inurba_marseille","lat":43.28726,"lon":5.39992,"is_reserved":false,"is_disabled":true,"rental_uris":{"android":"levelo://app?vid=7c2a4588-bcf7-4c8d-b580-ff8de5ba6372","ios":"levelo://app?vid=7c2a4588-bcf7-4c8d-b580-ff8de5ba6372"},"vehicle_type_id":"4","last_reported":1744578493,"current_range_meters":20000,"station_id":"ce4bho92rcd13ifvqh3g","pricing_plan_id":"cebpf4jnsgd1na2vs0mg"},{"bike_id":"86c06b03-5d3d-487a-bec3-c7d20381f28b","system_id":"levelo_inurba_marseille","lat":43.29025,"lon":5.38153,"is_reserved":false,"is_disabled":true,"rental_uris":{"android":"levelo://app?vid=86c06b03-5d3d-487a-bec3-c7d20381f28b","ios":"levelo://app?vid=86c06b03-5d3d-487a-bec3-c7d20381f28b"},"vehicle_type_id":"4","last_reported":1744578493,"current_range_meters":20000,"station_id":"ce4bh4p2rcd13ifvqe1g","pricing_plan_id":"cebpf4jnsgd1na2vs0mg"},{"bike_id":"f27f36b9-1bce-47fd-a43c-76ea52ae5f9a","system_id":"levelo_inurba_marseille","lat":43.29805,"lon":5.4041,"is_reserved":false,"is_disabled":false,"rental_uris":{"android":"levelo://app?vid=f27f36b9-1bce-47fd-a43c-76ea52ae5f9a","ios":"levelo://app?vid=f27f36b9-1bce-47fd-a43c-76ea52ae5f9a"},"vehicle_type_id":"4","last_reported":1744578493,"current_range_meters":20000,"station_id":"ce4bh112rcd13ifvqd90","pricing_plan_id":"cebpf4jnsgd1na2vs0mg"},{"bike_id":"86507adb-43c1-4a89-acc7-c74cd80a099f","system_id":"levelo_inurba_marseille","lat":43.23127,"lon":5.36665,"is_reserved":false,"is_disabled":false,"rental_uris":{"android":"levelo://app?vid=86507adb-43c1-4a89-acc7-c74cd80a099f","ios":"levelo://app?vid=86507adb-43c1-4a89-acc7-c74cd80a099f"},"vehicle_type_id":"4","last_reported":1744578493,"current_range_meters":20000,"station_id":"","pricing_plan_id":"cebpf4jnsgd1na2vs0mg"},{"bike_id":"fb699e76-3264-4e44-9571-0622c9467b82","system_id":"levelo_inurba_marseille","lat":43.2791,"lon":5.39581,"is_reserved":false,"is_disabled":false,"rental_uris":{"android":"levelo://app?vid=fb699e76-3264-4e44-9571-0622c9467b82","ios":"levelo://app?vid=fb699e76-3264-4e44-9571-0622c9467b82"},"vehicle_type_id":"4","last_reported":1744578493,"current_range_meters":20400,"station_id":"ce4bhf92rcd13ifvqf40","pricing_plan_id":"cebpf4jnsgd1na2vs0mg"},{"bike_id":"f7d1eee0-1715-419d-beac-1b98ec9e62ed","system_id":"levelo_inurba_marseille","lat":43.30958,"lon":5.39035,"is_reserved":false,"is_disabled":true,"rental_uris":{"android":"levelo://app?vid=f7d1eee0-1715-419d-beac-1b98ec9e62ed","ios":"levelo://app?vid=f7d1eee0-1715-419d-beac-1b98ec9e62ed"},"vehicle_type_id":"4","last_reported":1744578493,"current_range_meters":20000,"station_id":"ce4bgup2rcd13ifvqco0","pricing_plan_id":"cebpf4jnsgd1na2vs0mg"},{"bike_id":"bb35359e-3721-46df-9fce-d1af7b55b305","system_id":"levelo_inurba_marseille","lat":43.26468,"lon":5.39545,"is_reserved":false,"is_disabled":false,"rental_uris":{"android":"levelo://app?vid=bb35359e-3721-46df-9fce-d1af7b55b305","ios":"levelo://app?vid=bb35359e-3721-46df-9fce-d1af7b55b305"},"vehicle_type_id":"4","last_reported":1744578493,"current_range_meters":20400,"station_id":"ce4bhi12rcd13ifvqfq0","pricing_plan_id":"cebpf4jnsgd1na2vs0mg"},{"bike_id":"cbe9e82b-ad36-4a15-9c2e-e807ab4c6685","system_id":"levelo_inurba_marseille","lat":43.27626,"lon":5.36108,"is_reserved":false,"is_disabled":false,"rental_uris":{"android":"levelo://app?vid=cbe9e82b-ad36-4a15-9c2e-e807ab4c6685","ios":"levelo://app?vid=cbe9e82b-ad36-4a15-9c2e-e807ab4c6685"},"vehicle_type_id":"4","last_reported":1744578493,"current_range_meters":20400,"station_id":"ce4bgj92rcd13ifvqbe0","pricing_plan_id":"cebpf4jnsgd1na2vs0mg"},{"bike_id":"05ef945a-87ec-42f8-9aba-7b0a3ccc320a","system_id":"levelo_inurba_marseille","lat":43.31736,"lon":5.42395,"is_reserved":false,"is_disabled":false,"rental_uris":{"android":"levelo://app?vid=05ef945a-87ec-42f8-9aba-7b0a3ccc320a","ios":"levelo://app?vid=05ef945a-87ec-42f8-9aba-7b0a3ccc320a"},"vehicle_type_id":"4","last_reported":1744578493,"current_range_meters":20400,"station_id":"ce4bhp92rcd13ifvqhbg","pricing_plan_id":"cebpf4jnsgd1na2vs0mg"},{"bike_id":"730c5e85-5d7c-4ba0-bad9-be798910c304","system_id":"levelo_inurba_marseille","lat":43.29455,"lon":5.39753,"is_reserved":false,"is_disabled":false,"rental_uris":{"android":"levelo://app?vid=730c5e85-5d7c-4ba0-bad9-be798910c304","ios":"levelo://app?vid=730c5e85-5d7c-4ba0-bad9-be798910c304"},"vehicle_type_id":"4","last_reported":1744578493,"current_range_meters":20800,"station_id":"ce4bh3h2rcd13ifvqdo0","pricing_plan_id":"cebpf4jnsgd1na2vs0mg"},{"bike_id":"3959da4d-f3bf-4a20-b694-30f7fa214367","system_id":"levelo_inurba_marseille","lat":43.29416,"lon":5.38626,"is_reserved":false,"is_disabled":false,"rental_uris":{"android":"levelo://app?vid=3959da4d-f3bf-4a20-b694-30f7fa214367","ios":"levelo://app?vid=3959da4d-f3bf-4a20-b694-30f7fa214367"},"vehicle_type_id":"4","last_reported":1744578493,"current_range_meters":20800,"station_id":"","pricing_plan_id":"cebpf4jnsgd1na2vs0mg"},{"bike_id":"476d0257-7b02-4d8b-8040-e5e24ff70b45","system_id":"levelo_inurba_marseille","lat":43.29507,"lon":5.37526,"is_reserved":false,"is_disabled":false,"rental_uris":{"android":"levelo://app?vid=476d0257-7b02-4d8b-8040-e5e24ff70b45","ios":"levelo://app?vid=476d0257-7b02-4d8b-8040-e5e24ff70b45"},"vehicle_type_id":"4","last_reported":1744578493,"current_range_meters":20800,"station_id":"ce4bgkp2rcd13ifvqbmg","pricing_plan_id":"cebpf4jnsgd1na2vs0mg"},{"bike_id":"d5793323-971a-4f52-bf04-017cc0392d76","system_id":"levelo_inurba_marseille","lat":43.3033,"lon":5.40446,"is_reserved":false,"is_disabled":false,"rental_uris":{"android":"levelo://app?vid=d5793323-971a-4f52-bf04-017cc0392d76","ios":"levelo://app?vid=d5793323-971a-4f52-bf04-017cc0392d76"},"vehicle_type_id":"4","last_reported":1744578493,"current_range_meters":21600,"station_id":"ce4bh012rcd13ifvqd10","pricing_plan_id":"cebpf4jnsgd1na2vs0mg"},{"bike_id":"1db2c28a-e0ef-4f48-818f-eb01d86707b7","system_id":"levelo_inurba_marseille","lat":43.29266,"lon":5.40905,"is_reserved":false,"is_disabled":true,"rental_uris":{"android":"levelo://app?vid=1db2c28a-e0ef-4f48-818f-eb01d86707b7","ios":"levelo://app?vid=1db2c28a-e0ef-4f48-818f-eb01d86707b7"},"vehicle_type_id":"4","last_reported":1744578493,"current_range_meters":21600,"station_id":"ce4bh192rcd13ifvqdc0","pricing_plan_id":"cebpf4jnsgd1na2vs0mg"},{"bike_id":"88fc4a8d-1a2e-4531-87d0-92ccff3e157c","system_id":"levelo_inurba_marseille","lat":43.28574,"lon":5.39497,"is_reserved":false,"is_disabled":false,"rental_uris":{"android":"levelo://app?vid=88fc4a8d-1a2e-4531-87d0-92ccff3e157c","ios":"levelo://app?vid=88fc4a8d-1a2e-4531-87d0-92ccff3e157c"},"vehicle_type_id":"4","last_reported":1744578493,"current_range_meters":21600,"station_id":"ce4bh292rcd13ifvqdg0","pricing_plan_id":"cebpf4jnsgd1na2vs0mg"},{"bike_id":"3d4c51be-d9cb-4a82-931a-f438fc85b320","system_id":"levelo_inurba_marseille","lat":43.26935,"lon":5.38641,"is_reserved":false,"is_disabled":false,"rental_uris":{"android":"levelo://app?vid=3d4c51be-d9cb-4a82-931a-f438fc85b320","ios":"levelo://app?vid=3d4c51be-d9cb-4a82-931a-f438fc85b320"},"vehicle_type_id":"4","last_reported":1744578493,"current_range_meters":20800,"station_id":"ce4bhh92rcd13ifvqfh0","pricing_plan_id":"cebpf4jnsgd1na2vs0mg"},{"bike_id":"e951b6c2-47b9-4111-a7ec-03f8051784e9","system_id":"levelo_inurba_marseille","lat":43.25951,"lon":5.40899,"is_reserved":false,"is_disabled":false,"rental_uris":{"android":"levelo://app?vid=e951b6c2-47b9-4111-a7ec-03f8051784e9","ios":"levelo://app?vid=e951b6c2-47b9-4111-a7ec-03f8051784e9"},"vehicle_type_id":"4","last_reported":1744578493,"current_range_meters":21600,"station_id":"ce4bhm92rcd13ifvqglg","pricing_plan_id":"cebpf4jnsgd1na2vs0mg"},{"bike_id":"205a676e-388e-4b5d-b5d4-92bca6b76c07","system_id":"levelo_inurba_marseille","lat":43.31155,"lon":5.38016,"is_reserved":false,"is_disabled":false,"rental_uris":{"android":"levelo://app?vid=205a676e-388e-4b5d-b5d4-92bca6b76c07","ios":"levelo://app?vid=205a676e-388e-4b5d-b5d4-92bca6b76c07"},"vehicle_type_id":"4","last_reported":1744578493,"current_range_meters":21600,"station_id":"","pricing_plan_id":"cebpf4jnsgd1na2vs0mg"},{"bike_id":"2a008e6d-5711-4477-bd5b-4ac315bc28dc","system_id":"levelo_inurba_marseille","lat":43.29016,"lon":5.37549,"is_reserved":false,"is_disabled":true,"rental_uris":{"android":"levelo://app?vid=2a008e6d-5711-4477-bd5b-4ac315bc28dc","ios":"levelo://app?vid=2a008e6d-5711-4477-bd5b-4ac315bc28dc"},"vehicle_type_id":"4","last_reported":1744578493,"current_range_meters":22000,"station_id":"ce4bh692rcd13ifvqe90","pricing_plan_id":"cebpf4jnsgd1na2vs0mg"},{"bike_id":"b29efbe8-db41-498c-a99e-45a39795718c","system_id":"levelo_inurba_marseille","lat":43.33615,"lon":5.4104,"is_reserved":false,"is_disabled":false,"rental_uris":{"android":"levelo://app?vid=b29efbe8-db41-498c-a99e-45a39795718c","ios":"levelo://app?vid=b29efbe8-db41-498c-a99e-45a39795718c"},"vehicle_type_id":"4","last_reported":1744578493,"current_range_meters":22000,"station_id":"ce4bhqh2rcd13ifvqhmg","pricing_plan_id":"cebpf4jnsgd1na2vs0mg"},{"bike_id":"17eac8dc-4f38-4dfe-b351-de45fcef0301","system_id":"levelo_inurba_marseille","lat":43.27907,"lon":5.3958,"is_reserved":false,"is_disabled":false,"rental_uris":{"android":"levelo://app?vid=17eac8dc-4f38-4dfe-b351-de45fcef0301","ios":"levelo://app?vid=17eac8dc-4f38-4dfe-b351-de45fcef0301"},"vehicle_type_id":"4","last_reported":1744578493,"current_range_meters":22000,"station_id":"ce4bhf92rcd13ifvqf40","pricing_plan_id":"cebpf4jnsgd1na2vs0mg"},{"bike_id":"b0241d8a-fdde-4caa-af57-1cdd13db5b9a","system_id":"levelo_inurba_marseille","lat":43.297968,"lon":5.374727,"is_reserved":false,"is_disabled":false,"rental_uris":{"android":"levelo://app?vid=b0241d8a-fdde-4caa-af57-1cdd13db5b9a","ios":"levelo://app?vid=b0241d8a-fdde-4caa-af57-1cdd13db5b9a"},"vehicle_type_id":"4","last_reported":1744578493,"current_range_meters":21600,"station_id":"ce4bgrp2rcd13ifvqc9g","pricing_plan_id":"cebpf4jnsgd1na2vs0mg"},{"bike_id":"27d797c0-3c2d-4087-b048-f53676c6aea9","system_id":"levelo_inurba_marseille","lat":43.28729,"lon":5.36095,"is_reserved":false,"is_disabled":false,"rental_uris":{"android":"levelo://app?vid=27d797c0-3c2d-4087-b048-f53676c6aea9","ios":"levelo://app?vid=27d797c0-3c2d-4087-b048-f53676c6aea9"},"vehicle_type_id":"4","last_reported":1744578493,"current_range_meters":21600,"station_id":"cki0cbj6b192h4jlfktg","pricing_plan_id":"cebpf4jnsgd1na2vs0mg"},{"bike_id":"0c89cc46-3a4b-4000-b641-0c7712c59585","system_id":"levelo_inurba_marseille","lat":43.30914,"lon":5.37392,"is_reserved":false,"is_disabled":true,"rental_uris":{"android":"levelo://app?vid=0c89cc46-3a4b-4000-b641-0c7712c59585","ios":"levelo://app?vid=0c89cc46-3a4b-4000-b641-0c7712c59585"},"vehicle_type_id":"4","last_reported":1744578493,"current_range_meters":22000,"station_id":"","pricing_plan_id":"cebpf4jnsgd1na2vs0mg"},{"bike_id":"80f053ef-e33b-4a29-aa28-851a89dc91ac","system_id":"levelo_inurba_marseille","lat":43.28705,"lon":5.39982,"is_reserved":false,"is_disabled":false,"rental_uris":{"android":"levelo://app?vid=80f053ef-e33b-4a29-aa28-851a89dc91ac","ios":"levelo://app?vid=80f053ef-e33b-4a29-aa28-851a89dc91ac"},"vehicle_type_id":"4","last_reported":1744578493,"current_range_meters":22000,"station_id":"ce4bho92rcd13ifvqh3g","pricing_plan_id":"cebpf4jnsgd1na2vs0mg"},{"bike_id":"382a1a40-cce5-4bcf-8677-ad51fb5a2457","system_id":"levelo_inurba_marseille","lat":43.28849,"lon":5.39329,"is_reserved":false,"is_disabled":true,"rental_uris":{"android":"levelo://app?vid=382a1a40-cce5-4bcf-8677-ad51fb5a2457","ios":"levelo://app?vid=382a1a40-cce5-4bcf-8677-ad51fb5a2457"},"vehicle_type_id":"4","last_reported":1744578493,"current_range_meters":22000,"station_id":"ce4bh2p2rcd13ifvqdi0","pricing_plan_id":"cebpf4jnsgd1na2vs0mg"},{"bike_id":"1e8cc7af-6955-45de-96fb-b930b948e842","system_id":"levelo_inurba_marseille","lat":43.30593,"lon":5.3934,"is_reserved":false,"is_disabled":false,"rental_uris":{"android":"levelo://app?vid=1e8cc7af-6955-45de-96fb-b930b948e842","ios":"levelo://app?vid=1e8cc7af-6955-45de-96fb-b930b948e842"},"vehicle_type_id":"4","last_reported":1744578493,"current_range_meters":22400,"station_id":"ce4bh0p2rcd13ifvqd80","pricing_plan_id":"cebpf4jnsgd1na2vs0mg"},{"bike_id":"8ba8da06-09b4-4e35-9af5-e823a105a352","system_id":"levelo_inurba_marseille","lat":43.230529,"lon":5.35495,"is_reserved":false,"is_disabled":false,"rental_uris":{"android":"levelo://app?vid=8ba8da06-09b4-4e35-9af5-e823a105a352","ios":"levelo://app?vid=8ba8da06-09b4-4e35-9af5-e823a105a352"},"vehicle_type_id":"4","last_reported":1744578493,"current_range_meters":22400,"station_id":"cpo3342slgdg3j2ifvpg","pricing_plan_id":"cebpf4jnsgd1na2vs0mg"},{"bike_id":"7b373de9-a4fc-42ba-a0cd-5e438d52420c","system_id":"levelo_inurba_marseille","lat":43.27904,"lon":5.39575,"is_reserved":false,"is_disabled":false,"rental_uris":{"android":"levelo://app?vid=7b373de9-a4fc-42ba-a0cd-5e438d52420c","ios":"levelo://app?vid=7b373de9-a4fc-42ba-a0cd-5e438d52420c"},"vehicle_type_id":"4","last_reported":1744578493,"current_range_meters":22400,"station_id":"ce4bhf92rcd13ifvqf40","pricing_plan_id":"cebpf4jnsgd1na2vs0mg"},{"bike_id":"303a6347-0569-498e-99ae-d5c28526c63b","system_id":"levelo_inurba_marseille","lat":43.29034,"lon":5.39966,"is_reserved":false,"is_disabled":false,"rental_uris":{"android":"levelo://app?vid=303a6347-0569-498e-99ae-d5c28526c63b","ios":"levelo://app?vid=303a6347-0569-498e-99ae-d5c28526c63b"},"vehicle_type_id":"4","last_reported":1744578493,"current_range_meters":22400,"station_id":"ce4bh392rcd13ifvqdm0","pricing_plan_id":"cebpf4jnsgd1na2vs0mg"},{"bike_id":"d2d37f01-fa46-4fbc-a721-7789f4003663","system_id":"levelo_inurba_marseille","lat":43.24942,"lon":5.39016,"is_reserved":false,"is_disabled":false,"rental_uris":{"android":"levelo://app?vid=d2d37f01-fa46-4fbc-a721-7789f4003663","ios":"levelo://app?vid=d2d37f01-fa46-4fbc-a721-7789f4003663"},"vehicle_type_id":"4","last_reported":1744578493,"current_range_meters":22400,"station_id":"","pricing_plan_id":"cebpf4jnsgd1na2vs0mg"},{"bike_id":"0dee2647-dbc8-4ef0-a21d-3d8a32b1b049","system_id":"levelo_inurba_marseille","lat":43.29365,"lon":5.37845,"is_reserved":false,"is_disabled":false,"rental_uris":{"android":"levelo://app?vid=0dee2647-dbc8-4ef0-a21d-3d8a32b1b049","ios":"levelo://app?vid=0dee2647-dbc8-4ef0-a21d-3d8a32b1b049"},"vehicle_type_id":"4","last_reported":1744578493,"current_range_meters":22400,"station_id":"ce4bgjh2rcd13ifvqbf0","pricing_plan_id":"cebpf4jnsgd1na2vs0mg"},{"bike_id":"95c65c4e-3136-49d0-8cbf-79273800a322","system_id":"levelo_inurba_marseille","lat":43.3078,"lon":5.376435,"is_reserved":false,"is_disabled":false,"rental_uris":{"android":"levelo://app?vid=95c65c4e-3136-49d0-8cbf-79273800a322","ios":"levelo://app?vid=95c65c4e-3136-49d0-8cbf-79273800a322"},"vehicle_type_id":"4","last_reported":1744578493,"current_range_meters":22400,"station_id":"ce4bgv92rcd13ifvqcq0","pricing_plan_id":"cebpf4jnsgd1na2vs0mg"},{"bike_id":"7b98c8bb-62d9-4cd3-a36f-0a17b94f78cd","system_id":"levelo_inurba_marseille","lat":43.23482,"lon":5.38087,"is_reserved":false,"is_disabled":false,"rental_uris":{"android":"levelo://app?vid=7b98c8bb-62d9-4cd3-a36f-0a17b94f78cd","ios":"levelo://app?vid=7b98c8bb-62d9-4cd3-a36f-0a17b94f78cd"},"vehicle_type_id":"4","last_reported":1744578493,"current_range_meters":22400,"station_id":"","pricing_plan_id":"cebpf4jnsgd1na2vs0mg"},{"bike_id":"36c8e20b-456c-4361-b715-596ebc53f83c","system_id":"levelo_inurba_marseille","lat":43.28707,"lon":5.39981,"is_reserved":false,"is_disabled":false,"rental_uris":{"android":"levelo://app?vid=36c8e20b-456c-4361-b715-596ebc53f83c","ios":"levelo://app?vid=36c8e20b-456c-4361-b715-596ebc53f83c"},"vehicle_type_id":"4","last_reported":1744578493,"current_range_meters":22400,"station_id":"ce4bho92rcd13ifvqh3g","pricing_plan_id":"cebpf4jnsgd1na2vs0mg"},{"bike_id":"3c8eaf5c-f48a-4091-91c2-50f194b246d6","system_id":"levelo_inurba_marseille","lat":43.29284,"lon":5.40116,"is_reserved":false,"is_disabled":false,"rental_uris":{"android":"levelo://app?vid=3c8eaf5c-f48a-4091-91c2-50f194b246d6","ios":"levelo://app?vid=3c8eaf5c-f48a-4091-91c2-50f194b246d6"},"vehicle_type_id":"4","last_reported":1744578493,"current_range_meters":22000,"station_id":"ce4bh312rcd13ifvqdk0","pricing_plan_id":"cebpf4jnsgd1na2vs0mg"},{"bike_id":"bbaf0c83-6bba-46e5-8e6f-9127105744be","system_id":"levelo_inurba_marseille","lat":43.26819,"lon":5.40254,"is_reserved":false,"is_disabled":false,"rental_uris":{"android":"levelo://app?vid=bbaf0c83-6bba-46e5-8e6f-9127105744be","ios":"levelo://app?vid=bbaf0c83-6bba-46e5-8e6f-9127105744be"},"vehicle_type_id":"4","last_reported":1744578493,"current_range_meters":22800,"station_id":"ce501612rcd8frsf0b60","pricing_plan_id":"cebpf4jnsgd1na2vs0mg"},{"bike_id":"12fa8c2b-ae7c-4e8e-9096-066e0ad31116","system_id":"levelo_inurba_marseille","lat":43.28279,"lon":5.3506,"is_reserved":false,"is_disabled":false,"rental_uris":{"android":"levelo://app?vid=12fa8c2b-ae7c-4e8e-9096-066e0ad31116","ios":"levelo://app?vid=12fa8c2b-ae7c-4e8e-9096-066e0ad31116"},