{"last_updated":1741065008,"ttl":60,"version":"2.2","data":{"bikes":[{"bike_id":"e0fc8d54-7aea-4d6e-8fa8-926448c099ad","system_id":"levelo_inurba_marseille","lat":43.26046,"lon":5.39398,"is_reserved":false,"is_disabled":false,"rental_uris":{"android":"levelo://app?vid=e0fc8d54-7aea-4d6e-8fa8-926448c099ad","ios":"levelo://app?vid=e0fc8d54-7aea-4d6e-8fa8-926448c099ad"},"vehicle_type_id":"4","last_reported":1741065008,"current_range_meters":3200,"station_id":"ce4bhh92rcd13ifvqfj0","pricing_plan_id":"cebpf4jnsgd1na2vs0mg"},{"bike_id":"de12ae88-8a49-4127-a4ae-0c2d4331cb91","system_id":"levelo_inurba_marseille","lat":43.243919,"lon":5.370585,"is_reserved":false,"is_disabled":false,"rental_uris":{"android":"levelo://app?vid=de12ae88-8a49-4127-a4ae-0c2d4331cb91","ios":"levelo://app?vid=de12ae88-8a49-4127-a4ae-0c2d4331cb91"},"vehicle_type_id":"4","last_reported":1741065008,"current_range_meters":3600,"station_id":"ce4bhhh2rcd13ifvqfk0","pricing_plan_id":"cebpf4jnsgd1na2vs0mg"},{"bike_id":"c86d1b11-0279-493b-bb19-a442b89eceb2","system_id":"levelo_inurba_marseille","lat":43.31317,"lon":5.39702,"is_reserved":false,"is_disabled":false,"rental_uris":{"android":"levelo://app?vid=c86d1b11-0279-493b-bb19-a442b89eceb2","ios":"levelo://app?vid=c86d1b11-0279-493b-bb19-a442b89eceb2"},"vehicle_type_id":"4","last_reported":1741065008,"current_range_meters":3600,"station_id":"ce4bgvp2rcd13ifvqcu0","pricing_plan_id":"cebpf4jnsgd1na2vs0mg"},{"bike_id":"fd55ec61-ea03-4691-8f74-530e74ea7311","system_id":"levelo_inurba_marseille","lat":43.25002,"lon":5.38972,"is_reserved":false,"is_disabled":false,"rental_uris":{"android":"levelo://app?vid=fd55ec61-ea03-4691-8f74-530e74ea7311","ios":"levelo://app?vid=fd55ec61-ea03-4691-8f74-530e74ea7311"},"vehicle_type_id":"4","last_reported":1741065008,"current_range_meters":4000,"station_id":"ce4bhgp2rcd13ifvqfd0","pricing_plan_id":"cebpf4jnsgd1na2vs0mg"},{"bike_id":"face0865-d642-455a-b3a5-4e8ed90ff01b","system_id":"levelo_inurba_marseille","lat":43.25813,"lon":5.39444,"is_reserved":false,"is_disabled":true,"rental_uris":{"android":"levelo://app?vid=face0865-d642-455a-b3a5-4e8ed90ff01b","ios":"levelo://app?vid=face0865-d642-455a-b3a5-4e8ed90ff01b"},"vehicle_type_id":"4","last_reported":1741065008,"current_range_meters":4000,"station_id":"ce4bhip2rcd13ifvqft0","pricing_plan_id":"cebpf4jnsgd1na2vs0mg"},{"bike_id":"e7bf9aa4-ebab-4733-bd2d-62b9efb9b294","system_id":"levelo_inurba_marseille","lat":43.274926,"lon":5.424504,"is_reserved":false,"is_disabled":true,"rental_uris":{"android":"levelo://app?vid=e7bf9aa4-ebab-4733-bd2d-62b9efb9b294","ios":"levelo://app?vid=e7bf9aa4-ebab-4733-bd2d-62b9efb9b294"},"vehicle_type_id":"4","last_reported":1741065008,"current_range_meters":4400,"station_id":"ce4bhn92rcd13ifvqgrg","pricing_plan_id":"cebpf4jnsgd1na2vs0mg"},{"bike_id":"51dac736-e1f7-43ae-a021-5c1e738d6bef","system_id":"levelo_inurba_marseille","lat":43.288444,"lon":5.358346,"is_reserved":false,"is_disabled":true,"rental_uris":{"android":"levelo://app?vid=51dac736-e1f7-43ae-a021-5c1e738d6bef","ios":"levelo://app?vid=51dac736-e1f7-43ae-a021-5c1e738d6bef"},"vehicle_type_id":"4","last_reported":1741065008,"current_range_meters":4800,"station_id":"ce4bhb12rcd13ifvqem0","pricing_plan_id":"cebpf4jnsgd1na2vs0mg"},{"bike_id":"23c20c41-e8a4-4dc6-b7b9-05b6d6793f3e","system_id":"levelo_inurba_marseille","lat":43.2779,"lon":5.4072,"is_reserved":false,"is_disabled":false,"rental_uris":{"android":"levelo://app?vid=23c20c41-e8a4-4dc6-b7b9-05b6d6793f3e","ios":"levelo://app?vid=23c20c41-e8a4-4dc6-b7b9-05b6d6793f3e"},"vehicle_type_id":"4","last_reported":1741065008,"current_range_meters":4800,"station_id":"ce4bhnh2rcd13ifvqgtg","pricing_plan_id":"cebpf4jnsgd1na2vs0mg"},{"bike_id":"434a1347-b067-4ce3-a927-c237eb11cba8","system_id":"levelo_inurba_marseille","lat":43.29797,"lon":5.40428,"is_reserved":false,"is_disabled":false,"rental_uris":{"android":"levelo://app?vid=434a1347-b067-4ce3-a927-c237eb11cba8","ios":"levelo://app?vid=434a1347-b067-4ce3-a927-c237eb11cba8"},"vehicle_type_id":"4","last_reported":1741065008,"current_range_meters":5600,"station_id":"ce4bh112rcd13ifvqd90","pricing_plan_id":"cebpf4jnsgd1na2vs0mg"},{"bike_id":"5cd0c11b-f9d6-428f-9f34-0abc9c264bfe","system_id":"levelo_inurba_marseille","lat":43.279891,"lon":5.41663,"is_reserved":false,"is_disabled":false,"rental_uris":{"android":"levelo://app?vid=5cd0c11b-f9d6-428f-9f34-0abc9c264bfe","ios":"levelo://app?vid=5cd0c11b-f9d6-428f-9f34-0abc9c264bfe"},"vehicle_type_id":"4","last_reported":1741065008,"current_range_meters":5600,"station_id":"ce4bho12rcd13ifvqh1g","pricing_plan_id":"cebpf4jnsgd1na2vs0mg"},{"bike_id":"232499b3-0afe-409e-b179-d21bfa5b759f","system_id":"levelo_inurba_marseille","lat":43.27153,"lon":5.40977,"is_reserved":false,"is_disabled":false,"rental_uris":{"android":"levelo://app?vid=232499b3-0afe-409e-b179-d21bfa5b759f","ios":"levelo://app?vid=232499b3-0afe-409e-b179-d21bfa5b759f"},"vehicle_type_id":"4","last_reported":1741065008,"current_range_meters":5600,"station_id":"ce4bhl12rcd13ifvqgf0","pricing_plan_id":"cebpf4jnsgd1na2vs0mg"},{"bike_id":"9db49163-1bcf-4cb4-975b-b1e9ddf4e6d9","system_id":"levelo_inurba_marseille","lat":43.27163,"lon":5.41016,"is_reserved":false,"is_disabled":false,"rental_uris":{"android":"levelo://app?vid=9db49163-1bcf-4cb4-975b-b1e9ddf4e6d9","ios":"levelo://app?vid=9db49163-1bcf-4cb4-975b-b1e9ddf4e6d9"},"vehicle_type_id":"4","last_reported":1741065008,"current_range_meters":5600,"station_id":"ce4bhl12rcd13ifvqgf0","pricing_plan_id":"cebpf4jnsgd1na2vs0mg"},{"bike_id":"1621e0c3-0194-4d15-8a8b-87beecb39238","system_id":"levelo_inurba_marseille","lat":43.319941,"lon":5.381411,"is_reserved":false,"is_disabled":true,"rental_uris":{"android":"levelo://app?vid=1621e0c3-0194-4d15-8a8b-87beecb39238","ios":"levelo://app?vid=1621e0c3-0194-4d15-8a8b-87beecb39238"},"vehicle_type_id":"4","last_reported":1741065008,"current_range_meters":6000,"station_id":"ce4bhr12rcd13ifvqhpg","pricing_plan_id":"cebpf4jnsgd1na2vs0mg"},{"bike_id":"39417ca2-2175-48b1-b974-d12a550664e9","system_id":"levelo_inurba_marseille","lat":43.26941,"lon":5.38642,"is_reserved":false,"is_disabled":false,"rental_uris":{"android":"levelo://app?vid=39417ca2-2175-48b1-b974-d12a550664e9","ios":"levelo://app?vid=39417ca2-2175-48b1-b974-d12a550664e9"},"vehicle_type_id":"4","last_reported":1741065008,"current_range_meters":6000,"station_id":"ce4bhh92rcd13ifvqfh0","pricing_plan_id":"cebpf4jnsgd1na2vs0mg"},{"bike_id":"73681137-6538-4684-87ec-aa9b29720d1e","system_id":"levelo_inurba_marseille","lat":43.231984,"lon":5.35547,"is_reserved":false,"is_disabled":false,"rental_uris":{"android":"levelo://app?vid=73681137-6538-4684-87ec-aa9b29720d1e","ios":"levelo://app?vid=73681137-6538-4684-87ec-aa9b29720d1e"},"vehicle_type_id":"4","last_reported":1741065008,"current_range_meters":6000,"station_id":"ce4bhu92rcd13ifvqi70","pricing_plan_id":"cebpf4jnsgd1na2vs0mg"},{"bike_id":"93c78c45-afab-486c-8bef-c2b3d219a8cf","system_id":"levelo_inurba_marseille","lat":43.27032,"lon":5.42283,"is_reserved":false,"is_disabled":false,"rental_uris":{"android":"levelo://app?vid=93c78c45-afab-486c-8bef-c2b3d219a8cf","ios":"levelo://app?vid=93c78c45-afab-486c-8bef-c2b3d219a8cf"},"vehicle_type_id":"4","last_reported":1741065008,"current_range_meters":6000,"station_id":"ce4bhk92rcd13ifvqgb0","pricing_plan_id":"cebpf4jnsgd1na2vs0mg"},{"bike_id":"3df256a4-3af2-4e09-ac29-246774d99c68","system_id":"levelo_inurba_marseille","lat":43.23174,"lon":5.39958,"is_reserved":false,"is_disabled":false,"rental_uris":{"android":"levelo://app?vid=3df256a4-3af2-4e09-ac29-246774d99c68","ios":"levelo://app?vid=3df256a4-3af2-4e09-ac29-246774d99c68"},"vehicle_type_id":"4","last_reported":1741065008,"current_range_meters":6000,"station_id":"ce4bhn12rcd13ifvqgqg","pricing_plan_id":"cebpf4jnsgd1na2vs0mg"},{"bike_id":"339ea272-f25a-456c-877c-feadbff46552","system_id":"levelo_inurba_marseille","lat":43.2737,"lon":5.39325,"is_reserved":false,"is_disabled":false,"rental_uris":{"android":"levelo://app?vid=339ea272-f25a-456c-877c-feadbff46552","ios":"levelo://app?vid=339ea272-f25a-456c-877c-feadbff46552"},"vehicle_type_id":"4","last_reported":1741065008,"current_range_meters":6400,"station_id":"","pricing_plan_id":"cebpf4jnsgd1na2vs0mg"},{"bike_id":"9ee3d017-a864-4e85-a47f-e27d4c7b327f","system_id":"levelo_inurba_marseille","lat":43.27819,"lon":5.40732,"is_reserved":false,"is_disabled":false,"rental_uris":{"android":"levelo://app?vid=9ee3d017-a864-4e85-a47f-e27d4c7b327f","ios":"levelo://app?vid=9ee3d017-a864-4e85-a47f-e27d4c7b327f"},"vehicle_type_id":"4","last_reported":1741065008,"current_range_meters":6400,"station_id":"ce4bhnh2rcd13ifvqgtg","pricing_plan_id":"cebpf4jnsgd1na2vs0mg"},{"bike_id":"db4fc20d-ab97-4929-95e5-f6242e1f0965","system_id":"levelo_inurba_marseille","lat":43.25579,"lon":5.38255,"is_reserved":false,"is_disabled":false,"rental_uris":{"android":"levelo://app?vid=db4fc20d-ab97-4929-95e5-f6242e1f0965","ios":"levelo://app?vid=db4fc20d-ab97-4929-95e5-f6242e1f0965"},"vehicle_type_id":"4","last_reported":1741065008,"current_range_meters":6400,"station_id":"ce4bhih2rcd13ifvqfs0","pricing_plan_id":"cebpf4jnsgd1na2vs0mg"},{"bike_id":"2d4e1c3e-7392-4616-b3cf-646345a17bd5","system_id":"levelo_inurba_marseille","lat":43.29471,"lon":5.42361,"is_reserved":false,"is_disabled":true,"rental_uris":{"android":"levelo://app?vid=2d4e1c3e-7392-4616-b3cf-646345a17bd5","ios":"levelo://app?vid=2d4e1c3e-7392-4616-b3cf-646345a17bd5"},"vehicle_type_id":"4","last_reported":1741065008,"current_range_meters":6400,"station_id":"","pricing_plan_id":"cebpf4jnsgd1na2vs0mg"},{"bike_id":"782e68d0-a9b9-4d73-a27f-dd77eedae7e6","system_id":"levelo_inurba_marseille","lat":43.30414,"lon":5.41282,"is_reserved":false,"is_disabled":false,"rental_uris":{"android":"levelo://app?vid=782e68d0-a9b9-4d73-a27f-dd77eedae7e6","ios":"levelo://app?vid=782e68d0-a9b9-4d73-a27f-dd77eedae7e6"},"vehicle_type_id":"4","last_reported":1741065008,"current_range_meters":6400,"station_id":"ce4bhop2rcd13ifvqh8g","pricing_plan_id":"cebpf4jnsgd1na2vs0mg"},{"bike_id":"2daa11be-071f-479c-9bd0-92101cc53d8c","system_id":"levelo_inurba_marseille","lat":43.28066,"lon":5.39624,"is_reserved":false,"is_disabled":false,"rental_uris":{"android":"levelo://app?vid=2daa11be-071f-479c-9bd0-92101cc53d8c","ios":"levelo://app?vid=2daa11be-071f-479c-9bd0-92101cc53d8c"},"vehicle_type_id":"4","last_reported":1741065008,"current_range_meters":6400,"station_id":"ce4bho12rcd13ifvqh2g","pricing_plan_id":"cebpf4jnsgd1na2vs0mg"},{"bike_id":"55ea9caf-613b-4c31-ba2e-f6b9436a5dae","system_id":"levelo_inurba_marseille","lat":43.30878,"lon":5.39647,"is_reserved":false,"is_disabled":false,"rental_uris":{"android":"levelo://app?vid=55ea9caf-613b-4c31-ba2e-f6b9436a5dae","ios":"levelo://app?vid=55ea9caf-613b-4c31-ba2e-f6b9436a5dae"},"vehicle_type_id":"4","last_reported":1741065008,"current_range_meters":6400,"station_id":"ce4bh012rcd13ifvqcv0","pricing_plan_id":"cebpf4jnsgd1na2vs0mg"},{"bike_id":"ae32c428-8878-4011-9b36-3835e76dc85c","system_id":"levelo_inurba_marseille","lat":43.25163,"lon":5.37846,"is_reserved":false,"is_disabled":false,"rental_uris":{"android":"levelo://app?vid=ae32c428-8878-4011-9b36-3835e76dc85c","ios":"levelo://app?vid=ae32c428-8878-4011-9b36-3835e76dc85c"},"vehicle_type_id":"4","last_reported":1741065008,"current_range_meters":6400,"station_id":"","pricing_plan_id":"cebpf4jnsgd1na2vs0mg"},{"bike_id":"0a42b506-aec3-4369-808c-c91f0f7eb197","system_id":"levelo_inurba_marseille","lat":43.25576,"lon":5.38248,"is_reserved":false,"is_disabled":false,"rental_uris":{"android":"levelo://app?vid=0a42b506-aec3-4369-808c-c91f0f7eb197","ios":"levelo://app?vid=0a42b506-aec3-4369-808c-c91f0f7eb197"},"vehicle_type_id":"4","last_reported":1741065008,"current_range_meters":6400,"station_id":"ce4bhih2rcd13ifvqfs0","pricing_plan_id":"cebpf4jnsgd1na2vs0mg"},{"bike_id":"5de910b9-0982-426e-92ef-dce90a9b8ac0","system_id":"levelo_inurba_marseille","lat":43.29278,"lon":5.40126,"is_reserved":false,"is_disabled":false,"rental_uris":{"android":"levelo://app?vid=5de910b9-0982-426e-92ef-dce90a9b8ac0","ios":"levelo://app?vid=5de910b9-0982-426e-92ef-dce90a9b8ac0"},"vehicle_type_id":"4","last_reported":1741065008,"current_range_meters":6400,"station_id":"ce4bh312rcd13ifvqdk0","pricing_plan_id":"cebpf4jnsgd1na2vs0mg"},{"bike_id":"f381c9bd-14fa-41ab-b589-3ecebd6dfe48","system_id":"levelo_inurba_marseille","lat":43.32329,"lon":5.36769,"is_reserved":false,"is_disabled":false,"rental_uris":{"android":"levelo://app?vid=f381c9bd-14fa-41ab-b589-3ecebd6dfe48","ios":"levelo://app?vid=f381c9bd-14fa-41ab-b589-3ecebd6dfe48"},"vehicle_type_id":"4","last_reported":1741065008,"current_range_meters":6400,"station_id":"ce4bhsh2rcd13ifvqi2g","pricing_plan_id":"cebpf4jnsgd1na2vs0mg"},{"bike_id":"47764461-a083-4491-b7d7-d67e7951e162","system_id":"levelo_inurba_marseille","lat":43.25725,"lon":5.41093,"is_reserved":false,"is_disabled":false,"rental_uris":{"android":"levelo://app?vid=47764461-a083-4491-b7d7-d67e7951e162","ios":"levelo://app?vid=47764461-a083-4491-b7d7-d67e7951e162"},"vehicle_type_id":"4","last_reported":1741065008,"current_range_meters":6800,"station_id":"ce4bhkp2rcd13ifvqgd0","pricing_plan_id":"cebpf4jnsgd1na2vs0mg"},{"bike_id":"40323d2b-7fa4-44fa-8afd-3105efa74518","system_id":"levelo_inurba_marseille","lat":43.241701,"lon":5.39735,"is_reserved":false,"is_disabled":false,"rental_uris":{"android":"levelo://app?vid=40323d2b-7fa4-44fa-8afd-3105efa74518","ios":"levelo://app?vid=40323d2b-7fa4-44fa-8afd-3105efa74518"},"vehicle_type_id":"4","last_reported":1741065008,"current_range_meters":6800,"station_id":"ce4bhn12rcd13ifvqgpg","pricing_plan_id":"cebpf4jnsgd1na2vs0mg"},{"bike_id":"89cb348e-b4f6-4810-b86f-98d924074122","system_id":"levelo_inurba_marseille","lat":43.323664,"lon":5.388867,"is_reserved":false,"is_disabled":false,"rental_uris":{"android":"levelo://app?vid=89cb348e-b4f6-4810-b86f-98d924074122","ios":"levelo://app?vid=89cb348e-b4f6-4810-b86f-98d924074122"},"vehicle_type_id":"4","last_reported":1741065008,"current_range_meters":6800,"station_id":"ce4bhqp2rcd13ifvqhog","pricing_plan_id":"cebpf4jnsgd1na2vs0mg"},{"bike_id":"b7baf54f-5a7f-48ec-9282-59f318b50e79","system_id":"levelo_inurba_marseille","lat":43.29247,"lon":5.40954,"is_reserved":false,"is_disabled":false,"rental_uris":{"android":"levelo://app?vid=b7baf54f-5a7f-48ec-9282-59f318b50e79","ios":"levelo://app?vid=b7baf54f-5a7f-48ec-9282-59f318b50e79"},"vehicle_type_id":"4","last_reported":1741065008,"current_range_meters":6800,"station_id":"ce4bh192rcd13ifvqdc0","pricing_plan_id":"cebpf4jnsgd1na2vs0mg"},{"bike_id":"2ab11bbe-a968-4ea2-8a15-b47f3045ae38","system_id":"levelo_inurba_marseille","lat":43.231882,"lon":5.399903,"is_reserved":false,"is_disabled":false,"rental_uris":{"android":"levelo://app?vid=2ab11bbe-a968-4ea2-8a15-b47f3045ae38","ios":"levelo://app?vid=2ab11bbe-a968-4ea2-8a15-b47f3045ae38"},"vehicle_type_id":"4","last_reported":1741065008,"current_range_meters":6800,"station_id":"ce4bhn12rcd13ifvqgqg","pricing_plan_id":"cebpf4jnsgd1na2vs0mg"},{"bike_id":"31b2184d-2679-404d-b959-56eaf43114d2","system_id":"levelo_inurba_marseille","lat":43.26222,"lon":5.4047,"is_reserved":false,"is_disabled":false,"rental_uris":{"android":"levelo://app?vid=31b2184d-2679-404d-b959-56eaf43114d2","ios":"levelo://app?vid=31b2184d-2679-404d-b959-56eaf43114d2"},"vehicle_type_id":"4","last_reported":1741065008,"current_range_meters":6800,"station_id":"ce4bhmh2rcd13ifvqgmg","pricing_plan_id":"cebpf4jnsgd1na2vs0mg"},{"bike_id":"5da70b26-5045-4fcf-85cf-7f68a925e135","system_id":"levelo_inurba_marseille","lat":43.27966,"lon":5.41656,"is_reserved":false,"is_disabled":false,"rental_uris":{"android":"levelo://app?vid=5da70b26-5045-4fcf-85cf-7f68a925e135","ios":"levelo://app?vid=5da70b26-5045-4fcf-85cf-7f68a925e135"},"vehicle_type_id":"4","last_reported":1741065008,"current_range_meters":6800,"station_id":"ce4bho12rcd13ifvqh1g","pricing_plan_id":"cebpf4jnsgd1na2vs0mg"},{"bike_id":"9aa030fc-75b6-46d2-bc65-2c1c00869ae1","system_id":"levelo_inurba_marseille","lat":43.2507,"lon":5.39515,"is_reserved":false,"is_disabled":false,"rental_uris":{"android":"levelo://app?vid=9aa030fc-75b6-46d2-bc65-2c1c00869ae1","ios":"levelo://app?vid=9aa030fc-75b6-46d2-bc65-2c1c00869ae1"},"vehicle_type_id":"4","last_reported":1741065008,"current_range_meters":6800,"station_id":"ce4bhm12rcd13ifvqgkg","pricing_plan_id":"cebpf4jnsgd1na2vs0mg"},{"bike_id":"c82ed515-533d-442c-95f2-5ddb43b4dcca","system_id":"levelo_inurba_marseille","lat":43.291931,"lon":5.357968,"is_reserved":false,"is_disabled":false,"rental_uris":{"android":"levelo://app?vid=c82ed515-533d-442c-95f2-5ddb43b4dcca","ios":"levelo://app?vid=c82ed515-533d-442c-95f2-5ddb43b4dcca"},"vehicle_type_id":"4","last_reported":1741065008,"current_range_meters":6800,"station_id":"ce4bhb12rcd13ifvqel0","pricing_plan_id":"cebpf4jnsgd1na2vs0mg"},{"bike_id":"81550f35-e057-4f5f-85ab-a64f8f806073","system_id":"levelo_inurba_marseille","lat":43.28839,"lon":5.39303,"is_reserved":false,"is_disabled":false,"rental_uris":{"android":"levelo://app?vid=81550f35-e057-4f5f-85ab-a64f8f806073","ios":"levelo://app?vid=81550f35-e057-4f5f-85ab-a64f8f806073"},"vehicle_type_id":"4","last_reported":1741065008,"current_range_meters":7200,"station_id":"ce4bh2p2rcd13ifvqdi0","pricing_plan_id":"cebpf4jnsgd1na2vs0mg"},{"bike_id":"3d5c50e1-2bc4-477d-ab16-0b0d1c7d5d18","system_id":"levelo_inurba_marseille","lat":43.31277,"lon":5.40179,"is_reserved":false,"is_disabled":false,"rental_uris":{"android":"levelo://app?vid=3d5c50e1-2bc4-477d-ab16-0b0d1c7d5d18","ios":"levelo://app?vid=3d5c50e1-2bc4-477d-ab16-0b0d1c7d5d18"},"vehicle_type_id":"4","last_reported":1741065008,"current_range_meters":7200,"station_id":"ce4bh092rcd13ifvqd30","pricing_plan_id":"cebpf4jnsgd1na2vs0mg"},{"bike_id":"46e40ddf-4a7e-4aed-a8e5-35565d07529d","system_id":"levelo_inurba_marseille","lat":43.29274,"lon":5.40113,"is_reserved":false,"is_disabled":false,"rental_uris":{"android":"levelo://app?vid=46e40ddf-4a7e-4aed-a8e5-35565d07529d","ios":"levelo://app?vid=46e40ddf-4a7e-4aed-a8e5-35565d07529d"},"vehicle_type_id":"4","last_reported":1741065008,"current_range_meters":7200,"station_id":"ce4bh312rcd13ifvqdk0","pricing_plan_id":"cebpf4jnsgd1na2vs0mg"},{"bike_id":"daf50730-f3f3-401b-8a55-2d92d62983e4","system_id":"levelo_inurba_marseille","lat":43.27454,"lon":5.43514,"is_reserved":false,"is_disabled":false,"rental_uris":{"android":"levelo://app?vid=daf50730-f3f3-401b-8a55-2d92d62983e4","ios":"levelo://app?vid=daf50730-f3f3-401b-8a55-2d92d62983e4"},"vehicle_type_id":"4","last_reported":1741065008,"current_range_meters":7200,"station_id":"","pricing_plan_id":"cebpf4jnsgd1na2vs0mg"},{"bike_id":"c55f943c-a1f5-4b2f-86d0-ef3cfa5b4d57","system_id":"levelo_inurba_marseille","lat":43.25118,"lon":5.40318,"is_reserved":false,"is_disabled":false,"rental_uris":{"android":"levelo://app?vid=c55f943c-a1f5-4b2f-86d0-ef3cfa5b4d57","ios":"levelo://app?vid=c55f943c-a1f5-4b2f-86d0-ef3cfa5b4d57"},"vehicle_type_id":"4","last_reported":1741065008,"current_range_meters":7200,"station_id":"ce4bhlh2rcd13ifvqgig","pricing_plan_id":"cebpf4jnsgd1na2vs0mg"},{"bike_id":"fb971aeb-b114-4044-b8fd-9a7cf18c4741","system_id":"levelo_inurba_marseille","lat":43.3043,"lon":5.39748,"is_reserved":false,"is_disabled":false,"rental_uris":{"android":"levelo://app?vid=fb971aeb-b114-4044-b8fd-9a7cf18c4741","ios":"levelo://app?vid=fb971aeb-b114-4044-b8fd-9a7cf18c4741"},"vehicle_type_id":"4","last_reported":1741065008,"current_range_meters":7200,"station_id":"ce4bh092rcd13ifvqd20","pricing_plan_id":"cebpf4jnsgd1na2vs0mg"},{"bike_id":"76d154d9-de45-47c4-aa4e-ebc4dd631146","system_id":"levelo_inurba_marseille","lat":43.29257,"lon":5.37621,"is_reserved":false,"is_disabled":false,"rental_uris":{"android":"levelo://app?vid=76d154d9-de45-47c4-aa4e-ebc4dd631146","ios":"levelo://app?vid=76d154d9-de45-47c4-aa4e-ebc4dd631146"},"vehicle_type_id":"4","last_reported":1741065008,"current_range_meters":7200,"station_id":"ce4bgi12rcd13ifvqb80","pricing_plan_id":"cebpf4jnsgd1na2vs0mg"},{"bike_id":"f17ea63a-db17-447a-a811-21a7bc82155d","system_id":"levelo_inurba_marseille","lat":43.29269,"lon":5.3761,"is_reserved":false,"is_disabled":false,"rental_uris":{"android":"levelo://app?vid=f17ea63a-db17-447a-a811-21a7bc82155d","ios":"levelo://app?vid=f17ea63a-db17-447a-a811-21a7bc82155d"},"vehicle_type_id":"4","last_reported":1741065008,"current_range_meters":7200,"station_id":"ce4bgi12rcd13ifvqb80","pricing_plan_id":"cebpf4jnsgd1na2vs0mg"},{"bike_id":"69539ccb-ca63-4555-bd43-968ddad5c3c6","system_id":"levelo_inurba_marseille","lat":43.250058,"lon":5.389142,"is_reserved":false,"is_disabled":false,"rental_uris":{"android":"levelo://app?vid=69539ccb-ca63-4555-bd43-968ddad5c3c6","ios":"levelo://app?vid=69539ccb-ca63-4555-bd43-968ddad5c3c6"},"vehicle_type_id":"4","last_reported":1741065008,"current_range_meters":7200,"station_id":"ce4bhgp2rcd13ifvqfd0","pricing_plan_id":"cebpf4jnsgd1na2vs0mg"},{"bike_id":"254b9110-d484-442d-a415-ccf31a230f00","system_id":"levelo_inurba_marseille","lat":43.29901,"lon":5.43664,"is_reserved":false,"is_disabled":false,"rental_uris":{"android":"levelo://app?vid=254b9110-d484-442d-a415-ccf31a230f00","ios":"levelo://app?vid=254b9110-d484-442d-a415-ccf31a230f00"},"vehicle_type_id":"4","last_reported":1741065008,"current_range_meters":8000,"station_id":"ce4bhpp2rcd13ifvqhfg","pricing_plan_id":"cebpf4jnsgd1na2vs0mg"},{"bike_id":"b21e25bd-5fe3-4b4c-9515-724946c2cde8","system_id":"levelo_inurba_marseille","lat":43.284562,"lon":5.358906,"is_reserved":false,"is_disabled":false,"rental_uris":{"android":"levelo://app?vid=b21e25bd-5fe3-4b4c-9515-724946c2cde8","ios":"levelo://app?vid=b21e25bd-5fe3-4b4c-9515-724946c2cde8"},"vehicle_type_id":"4","last_reported":1741065008,"current_range_meters":8000,"station_id":"ce4bhah2rcd13ifvqei0","pricing_plan_id":"cebpf4jnsgd1na2vs0mg"},{"bike_id":"8ade5181-cd88-4ece-8534-46a6372826ef","system_id":"levelo_inurba_marseille","lat":43.276965,"lon":5.415441,"is_reserved":false,"is_disabled":false,"rental_uris":{"android":"levelo://app?vid=8ade5181-cd88-4ece-8534-46a6372826ef","ios":"levelo://app?vid=8ade5181-cd88-4ece-8534-46a6372826ef"},"vehicle_type_id":"4","last_reported":1741065008,"current_range_meters":8000,"station_id":"","pricing_plan_id":"cebpf4jnsgd1na2vs0mg"},{"bike_id":"c19d77a8-5520-45f7-9712-a3f89cb69d9f","system_id":"levelo_inurba_marseille","lat":43.28278,"lon":5.38921,"is_reserved":false,"is_disabled":false,"rental_uris":{"android":"levelo://app?vid=c19d77a8-5520-45f7-9712-a3f89cb69d9f","ios":"levelo://app?vid=c19d77a8-5520-45f7-9712-a3f89cb69d9f"},"vehicle_type_id":"4","last_reported":1741065008,"current_range_meters":8000,"station_id":"","pricing_plan_id":"cebpf4jnsgd1na2vs0mg"},{"bike_id":"f3cd6fd4-60b1-4d0a-8ba2-ff80b7f418e3","system_id":"levelo_inurba_marseille","lat":43.31166,"lon":5.38712,"is_reserved":false,"is_disabled":false,"rental_uris":{"android":"levelo://app?vid=f3cd6fd4-60b1-4d0a-8ba2-ff80b7f418e3","ios":"levelo://app?vid=f3cd6fd4-60b1-4d0a-8ba2-ff80b7f418e3"},"vehicle_type_id":"4","last_reported":1741065008,"current_range_meters":8000,"station_id":"ce4bgv12rcd13ifvqcp0","pricing_plan_id":"cebpf4jnsgd1na2vs0mg"},{"bike_id":"a195e6bc-b894-442a-bea7-6f9808515ae7","system_id":"levelo_inurba_marseille","lat":43.308816,"lon":5.396447,"is_reserved":false,"is_disabled":false,"rental_uris":{"android":"levelo://app?vid=a195e6bc-b894-442a-bea7-6f9808515ae7","ios":"levelo://app?vid=a195e6bc-b894-442a-bea7-6f9808515ae7"},"vehicle_type_id":"4","last_reported":1741065008,"current_range_meters":8000,"station_id":"ce4bh012rcd13ifvqcv0","pricing_plan_id":"cebpf4jnsgd1na2vs0mg"},{"bike_id":"90a47c55-7d0c-4b6b-94e5-81e21155469e","system_id":"levelo_inurba_marseille","lat":43.23134,"lon":5.43738,"is_reserved":false,"is_disabled":false,"rental_uris":{"android":"levelo://app?vid=90a47c55-7d0c-4b6b-94e5-81e21155469e","ios":"levelo://app?vid=90a47c55-7d0c-4b6b-94e5-81e21155469e"},"vehicle_type_id":"4","last_reported":1741065008,"current_range_meters":8000,"station_id":"ce4bhmp2rcd13ifvqgog","pricing_plan_id":"cebpf4jnsgd1na2vs0mg"},{"bike_id":"e41e0bb8-6c1c-4ce2-b18d-069e130ca183","system_id":"levelo_inurba_marseille","lat":43.23033,"lon":5.3551,"is_reserved":false,"is_disabled":false,"rental_uris":{"android":"levelo://app?vid=e41e0bb8-6c1c-4ce2-b18d-069e130ca183","ios":"levelo://app?vid=e41e0bb8-6c1c-4ce2-b18d-069e130ca183"},"vehicle_type_id":"4","last_reported":1741065008,"current_range_meters":8000,"station_id":"cpo3342slgdg3j2ifvpg","pricing_plan_id":"cebpf4jnsgd1na2vs0mg"},{"bike_id":"e5af46d8-756e-4b29-887f-202b12c3baa0","system_id":"levelo_inurba_marseille","lat":43.304201,"lon":5.412729,"is_reserved":false,"is_disabled":false,"rental_uris":{"android":"levelo://app?vid=e5af46d8-756e-4b29-887f-202b12c3baa0","ios":"levelo://app?vid=e5af46d8-756e-4b29-887f-202b12c3baa0"},"vehicle_type_id":"4","last_reported":1741065008,"current_range_meters":8000,"station_id":"ce4bhop2rcd13ifvqh8g","pricing_plan_id":"cebpf4jnsgd1na2vs0mg"},{"bike_id":"c8c30254-af6a-4a88-b0b6-9a3a52022bea","system_id":"levelo_inurba_marseille","lat":43.32419,"lon":5.42675,"is_reserved":false,"is_disabled":false,"rental_uris":{"android":"levelo://app?vid=c8c30254-af6a-4a88-b0b6-9a3a52022bea","ios":"levelo://app?vid=c8c30254-af6a-4a88-b0b6-9a3a52022bea"},"vehicle_type_id":"4","last_reported":1741065008,"current_range_meters":8400,"station_id":"","pricing_plan_id":"cebpf4jnsgd1na2vs0mg"},{"bike_id":"1a8af668-2d08-4b2d-a918-6d19270993f1","system_id":"levelo_inurba_marseille","lat":43.30886,"lon":5.39649,"is_reserved":false,"is_disabled":false,"rental_uris":{"android":"levelo://app?vid=1a8af668-2d08-4b2d-a918-6d19270993f1","ios":"levelo://app?vid=1a8af668-2d08-4b2d-a918-6d19270993f1"},"vehicle_type_id":"4","last_reported":1741065008,"current_range_meters":8400,"station_id":"ce4bh012rcd13ifvqcv0","pricing_plan_id":"cebpf4jnsgd1na2vs0mg"},{"bike_id":"ce8ef3d2-07e3-4512-8813-bcde53a01429","system_id":"levelo_inurba_marseille","lat":43.24138,"lon":5.36433,"is_reserved":false,"is_disabled":false,"rental_uris":{"android":"levelo://app?vid=ce8ef3d2-07e3-4512-8813-bcde53a01429","ios":"levelo://app?vid=ce8ef3d2-07e3-4512-8813-bcde53a01429"},"vehicle_type_id":"4","last_reported":1741065008,"current_range_meters":8400,"station_id":"cpo36qri1sfpv3e86is0","pricing_plan_id":"cebpf4jnsgd1na2vs0mg"},{"bike_id":"e1993c30-bf76-4bdd-b6e8-6751d5d1e137","system_id":"levelo_inurba_marseille","lat":43.28561,"lon":5.39504,"is_reserved":false,"is_disabled":false,"rental_uris":{"android":"levelo://app?vid=e1993c30-bf76-4bdd-b6e8-6751d5d1e137","ios":"levelo://app?vid=e1993c30-bf76-4bdd-b6e8-6751d5d1e137"},"vehicle_type_id":"4","last_reported":1741065008,"current_range_meters":8400,"station_id":"ce4bh292rcd13ifvqdg0","pricing_plan_id":"cebpf4jnsgd1na2vs0mg"},{"bike_id":"8a926c1c-bce9-43a8-b444-8cbd0ddeca91","system_id":"levelo_inurba_marseille","lat":43.337444,"lon":5.374475,"is_reserved":false,"is_disabled":true,"rental_uris":{"android":"levelo://app?vid=8a926c1c-bce9-43a8-b444-8cbd0ddeca91","ios":"levelo://app?vid=8a926c1c-bce9-43a8-b444-8cbd0ddeca91"},"vehicle_type_id":"4","last_reported":1741065008,"current_range_meters":8400,"station_id":"","pricing_plan_id":"cebpf4jnsgd1na2vs0mg"},{"bike_id":"b240d511-138a-48c0-af7a-005b95321099","system_id":"levelo_inurba_marseille","lat":43.27899,"lon":5.39605,"is_reserved":false,"is_disabled":false,"rental_uris":{"android":"levelo://app?vid=b240d511-138a-48c0-af7a-005b95321099","ios":"levelo://app?vid=b240d511-138a-48c0-af7a-005b95321099"},"vehicle_type_id":"4","last_reported":1741065008,"current_range_meters":8400,"station_id":"ce4bhf92rcd13ifvqf40","pricing_plan_id":"cebpf4jnsgd1na2vs0mg"},{"bike_id":"8853f3b9-20a3-4480-9c1d-81721e27d9f9","system_id":"levelo_inurba_marseille","lat":43.260638,"lon":5.393988,"is_reserved":false,"is_disabled":false,"rental_uris":{"android":"levelo://app?vid=8853f3b9-20a3-4480-9c1d-81721e27d9f9","ios":"levelo://app?vid=8853f3b9-20a3-4480-9c1d-81721e27d9f9"},"vehicle_type_id":"4","last_reported":1741065008,"current_range_meters":8400,"station_id":"ce4bhh92rcd13ifvqfj0","pricing_plan_id":"cebpf4jnsgd1na2vs0mg"},{"bike_id":"f71f9016-cd7a-4d2f-a244-6b67297b159e","system_id":"levelo_inurba_marseille","lat":43.279135,"lon":5.416677,"is_reserved":false,"is_disabled":false,"rental_uris":{"android":"levelo://app?vid=f71f9016-cd7a-4d2f-a244-6b67297b159e","ios":"levelo://app?vid=f71f9016-cd7a-4d2f-a244-6b67297b159e"},"vehicle_type_id":"4","last_reported":1741065008,"current_range_meters":8400,"station_id":"","pricing_plan_id":"cebpf4jnsgd1na2vs0mg"},{"bike_id":"48d33537-7de8-4746-9396-b1f5f4e83f13","system_id":"levelo_inurba_marseille","lat":43.24045,"lon":5.37766,"is_reserved":false,"is_disabled":false,"rental_uris":{"android":"levelo://app?vid=48d33537-7de8-4746-9396-b1f5f4e83f13","ios":"levelo://app?vid=48d33537-7de8-4746-9396-b1f5f4e83f13"},"vehicle_type_id":"4","last_reported":1741065008,"current_range_meters":8400,"station_id":"ce4bhnp2rcd13ifvqgvg","pricing_plan_id":"cebpf4jnsgd1na2vs0mg"},{"bike_id":"fcc1e2d7-d27d-4efa-925e-da5eb0b689fc","system_id":"levelo_inurba_marseille","lat":43.28097,"lon":5.37838,"is_reserved":false,"is_disabled":false,"rental_uris":{"android":"levelo://app?vid=fcc1e2d7-d27d-4efa-925e-da5eb0b689fc","ios":"levelo://app?vid=fcc1e2d7-d27d-4efa-925e-da5eb0b689fc"},"vehicle_type_id":"4","last_reported":1741065008,"current_range_meters":8400,"station_id":"ce4bha12rcd13ifvqee0","pricing_plan_id":"cebpf4jnsgd1na2vs0mg"},{"bike_id":"ffd5fa35-92ec-4cc7-9a87-e8633ad3e1d2","system_id":"levelo_inurba_marseille","lat":43.278178,"lon":5.407121,"is_reserved":false,"is_disabled":false,"rental_uris":{"android":"levelo://app?vid=ffd5fa35-92ec-4cc7-9a87-e8633ad3e1d2","ios":"levelo://app?vid=ffd5fa35-92ec-4cc7-9a87-e8633ad3e1d2"},"vehicle_type_id":"4","last_reported":1741065008,"current_range_meters":8400,"station_id":"ce4bhnh2rcd13ifvqgtg","pricing_plan_id":"cebpf4jnsgd1na2vs0mg"},{"bike_id":"4586ca83-2f5e-4b63-b2a9-29ed75f9f1db","system_id":"levelo_inurba_marseille","lat":43.28725,"lon":5.36093,"is_reserved":false,"is_disabled":false,"rental_uris":{"android":"levelo://app?vid=4586ca83-2f5e-4b63-b2a9-29ed75f9f1db","ios":"levelo://app?vid=4586ca83-2f5e-4b63-b2a9-29ed75f9f1db"},"vehicle_type_id":"4","last_reported":1741065008,"current_range_meters":8400,"station_id":"cki0cbj6b192h4jlfktg","pricing_plan_id":"cebpf4jnsgd1na2vs0mg"},{"bike_id":"54621c9d-624d-4cde-91dc-efca90547327","system_id":"levelo_inurba_marseille","lat":43.22923,"lon":5.35398,"is_reserved":false,"is_disabled":false,"rental_uris":{"android":"levelo://app?vid=54621c9d-624d-4cde-91dc-efca90547327","ios":"levelo://app?vid=54621c9d-624d-4cde-91dc-efca90547327"},"vehicle_type_id":"4","last_reported":1741065008,"current_range_meters":8400,"station_id":"cpo3532slgdg3j2ikp40","pricing_plan_id":"cebpf4jnsgd1na2vs0mg"},{"bike_id":"b53e751e-c2f6-4da9-aba0-fe23543b117d","system_id":"levelo_inurba_marseille","lat":43.28072,"lon":5.39649,"is_reserved":false,"is_disabled":false,"rental_uris":{"android":"levelo://app?vid=b53e751e-c2f6-4da9-aba0-fe23543b117d","ios":"levelo://app?vid=b53e751e-c2f6-4da9-aba0-fe23543b117d"},"vehicle_type_id":"4","last_reported":1741065008,"current_range_meters":8400,"station_id":"ce4bho12rcd13ifvqh2g","pricing_plan_id":"cebpf4jnsgd1na2vs0mg"},{"bike_id":"5f6058f8-17d6-41f9-bf21-73aab62a2071","system_id":"levelo_inurba_marseille","lat":43.25821,"lon":5.39432,"is_reserved":false,"is_disabled":false,"rental_uris":{"android":"levelo://app?vid=5f6058f8-17d6-41f9-bf21-73aab62a2071","ios":"levelo://app?vid=5f6058f8-17d6-41f9-bf21-73aab62a2071"},"vehicle_type_id":"4","last_reported":1741065008,"current_range_meters":8800,"station_id":"ce4bhip2rcd13ifvqft0","pricing_plan_id":"cebpf4jnsgd1na2vs0mg"},{"bike_id":"25430e09-75cf-47bc-9a97-d3cc6d2ee108","system_id":"levelo_inurba_marseille","lat":43.27961,"lon":5.38727,"is_reserved":false,"is_disabled":false,"rental_uris":{"android":"levelo://app?vid=25430e09-75cf-47bc-9a97-d3cc6d2ee108","ios":"levelo://app?vid=25430e09-75cf-47bc-9a97-d3cc6d2ee108"},"vehicle_type_id":"4","last_reported":1741065008,"current_range_meters":8800,"station_id":"ce4bhg12rcd13ifvqf80","pricing_plan_id":"cebpf4jnsgd1na2vs0mg"},{"bike_id":"71cd5d9d-c4a9-4d7f-b25c-bd7ceef0b27e","system_id":"levelo_inurba_marseille","lat":43.312847,"lon":5.377681,"is_reserved":false,"is_disabled":false,"rental_uris":{"android":"levelo://app?vid=71cd5d9d-c4a9-4d7f-b25c-bd7ceef0b27e","ios":"levelo://app?vid=71cd5d9d-c4a9-4d7f-b25c-bd7ceef0b27e"},"vehicle_type_id":"4","last_reported":1741065008,"current_range_meters":8800,"station_id":"","pricing_plan_id":"cebpf4jnsgd1na2vs0mg"},{"bike_id":"b9314492-a56a-4787-bda8-bd2f48e84ce6","system_id":"levelo_inurba_marseille","lat":43.26223,"lon":5.40451,"is_reserved":false,"is_disabled":false,"rental_uris":{"android":"levelo://app?vid=b9314492-a56a-4787-bda8-bd2f48e84ce6","ios":"levelo://app?vid=b9314492-a56a-4787-bda8-bd2f48e84ce6"},"vehicle_type_id":"4","last_reported":1741065008,"current_range_meters":8800,"station_id":"ce4bhmh2rcd13ifvqgmg","pricing_plan_id":"cebpf4jnsgd1na2vs0mg"},{"bike_id":"07f56688-c23f-4b0c-8af0-19bac8f9d72c","system_id":"levelo_inurba_marseille","lat":43.26198,"lon":5.3794,"is_reserved":false,"is_disabled":false,"rental_uris":{"android":"levelo://app?vid=07f56688-c23f-4b0c-8af0-19bac8f9d72c","ios":"levelo://app?vid=07f56688-c23f-4b0c-8af0-19bac8f9d72c"},"vehicle_type_id":"4","last_reported":1741065008,"current_range_meters":8800,"station_id":"ce4bhjp2rcd13ifvqg90","pricing_plan_id":"cebpf4jnsgd1na2vs0mg"},{"bike_id":"66f40a1c-7781-4ebb-9051-0263d44179e7","system_id":"levelo_inurba_marseille","lat":43.28725,"lon":5.36084,"is_reserved":false,"is_disabled":false,"rental_uris":{"android":"levelo://app?vid=66f40a1c-7781-4ebb-9051-0263d44179e7","ios":"levelo://app?vid=66f40a1c-7781-4ebb-9051-0263d44179e7"},"vehicle_type_id":"4","last_reported":1741065008,"current_range_meters":8800,"station_id":"cki0cbj6b192h4jlfktg","pricing_plan_id":"cebpf4jnsgd1na2vs0mg"},{"bike_id":"fa3d537e-b93a-4090-adb4-575e49ecf5b7","system_id":"levelo_inurba_marseille","lat":43.29737,"lon":5.37138,"is_reserved":false,"is_disabled":false,"rental_uris":{"android":"levelo://app?vid=fa3d537e-b93a-4090-adb4-575e49ecf5b7","ios":"levelo://app?vid=fa3d537e-b93a-4090-adb4-575e49ecf5b7"},"vehicle_type_id":"4","last_reported":1741065008,"current_range_meters":8800,"station_id":"","pricing_plan_id":"cebpf4jnsgd1na2vs0mg"},{"bike_id":"ee26afb6-ba4c-4dc4-8464-b764cc25857b","system_id":"levelo_inurba_marseille","lat":43.279481,"lon":5.410413,"is_reserved":false,"is_disabled":false,"rental_uris":{"android":"levelo://app?vid=ee26afb6-ba4c-4dc4-8464-b764cc25857b","ios":"levelo://app?vid=ee26afb6-ba4c-4dc4-8464-b764cc25857b"},"vehicle_type_id":"4","last_reported":1741065008,"current_range_meters":8800,"station_id":"ce4bhnp2rcd13ifvqh0g","pricing_plan_id":"cebpf4jnsgd1na2vs0mg"},{"bike_id":"9de31664-78c8-4270-8903-4906d276beb2","system_id":"levelo_inurba_marseille","lat":43.280819,"lon":5.39647,"is_reserved":false,"is_disabled":false,"rental_uris":{"android":"levelo://app?vid=9de31664-78c8-4270-8903-4906d276beb2","ios":"levelo://app?vid=9de31664-78c8-4270-8903-4906d276beb2"},"vehicle_type_id":"4","last_reported":1741065008,"current_range_meters":8800,"station_id":"ce4bho12rcd13ifvqh2g","pricing_plan_id":"cebpf4jnsgd1na2vs0mg"},{"bike_id":"8445baf1-babd-45fd-bde0-38bf964b444c","system_id":"levelo_inurba_marseille","lat":43.3116,"lon":5.38719,"is_reserved":false,"is_disabled":false,"rental_uris":{"android":"levelo://app?vid=8445baf1-babd-45fd-bde0-38bf964b444c","ios":"levelo://app?vid=8445baf1-babd-45fd-bde0-38bf964b444c"},"vehicle_type_id":"4","last_reported":1741065008,"current_range_meters":8800,"station_id":"ce4bgv12rcd13ifvqcp0","pricing_plan_id":"cebpf4jnsgd1na2vs0mg"},{"bike_id":"fee6dce1-b8a2-4279-9255-d458cb61e5b6","system_id":"levelo_inurba_marseille","lat":43.31476,"lon":5.37313,"is_reserved":false,"is_disabled":false,"rental_uris":{"android":"levelo://app?vid=fee6dce1-b8a2-4279-9255-d458cb61e5b6","ios":"levelo://app?vid=fee6dce1-b8a2-4279-9255-d458cb61e5b6"},"vehicle_type_id":"4","last_reported":1741065008,"current_range_meters":8800,"station_id":"ce4bgt12rcd13ifvqcd0","pricing_plan_id":"cebpf4jnsgd1na2vs0mg"},{"bike_id":"20f28f92-adf9-48e3-a33b-83ded65127c5","system_id":"levelo_inurba_marseille","lat":43.230624,"lon":5.354965,"is_reserved":false,"is_disabled":false,"rental_uris":{"android":"levelo://app?vid=20f28f92-adf9-48e3-a33b-83ded65127c5","ios":"levelo://app?vid=20f28f92-adf9-48e3-a33b-83ded65127c5"},"vehicle_type_id":"4","last_reported":1741065008,"current_range_meters":8800,"station_id":"cpo3342slgdg3j2ifvpg","pricing_plan_id":"cebpf4jnsgd1na2vs0mg"},{"bike_id":"dd1f8279-3140-4cc7-9d4f-2981bc73d236","system_id":"levelo_inurba_marseille","lat":43.323364,"lon":5.406354,"is_reserved":false,"is_disabled":false,"rental_uris":{"android":"levelo://app?vid=dd1f8279-3140-4cc7-9d4f-2981bc73d236","ios":"levelo://app?vid=dd1f8279-3140-4cc7-9d4f-2981bc73d236"},"vehicle_type_id":"4","last_reported":1741065008,"current_range_meters":9200,"station_id":"ce4bhq92rcd13ifvqhjg","pricing_plan_id":"cebpf4jnsgd1na2vs0mg"},{"bike_id":"1901130a-ffd5-42a0-b994-e2aa42548e35","system_id":"levelo_inurba_marseille","lat":43.26113,"lon":5.41482,"is_reserved":false,"is_disabled":false,"rental_uris":{"android":"levelo://app?vid=1901130a-ffd5-42a0-b994-e2aa42548e35","ios":"levelo://app?vid=1901130a-ffd5-42a0-b994-e2aa42548e35"},"vehicle_type_id":"4","last_reported":1741065008,"current_range_meters":9200,"station_id":"","pricing_plan_id":"cebpf4jnsgd1na2vs0mg"},{"bike_id":"442e17cf-9700-477c-a555-09fc8cf0081c","system_id":"levelo_inurba_marseille","lat":43.28456,"lon":5.35878,"is_reserved":false,"is_disabled":false,"rental_uris":{"android":"levelo://app?vid=442e17cf-9700-477c-a555-09fc8cf0081c","ios":"levelo://app?vid=442e17cf-9700-477c-a555-09fc8cf0081c"},"vehicle_type_id":"4","last_reported":1741065008,"current_range_meters":9200,"station_id":"ce4bhah2rcd13ifvqei0","pricing_plan_id":"cebpf4jnsgd1na2vs0mg"},{"bike_id":"853e9f93-6f18-4242-b269-d87025e7bb93","system_id":"levelo_inurba_marseille","lat":43.307263,"lon":5.371024,"is_reserved":false,"is_disabled":false,"rental_uris":{"android":"levelo://app?vid=853e9f93-6f18-4242-b269-d87025e7bb93","ios":"levelo://app?vid=853e9f93-6f18-4242-b269-d87025e7bb93"},"vehicle_type_id":"4","last_reported":1741065008,"current_range_meters":9200,"station_id":"","pricing_plan_id":"cebpf4jnsgd1na2vs0mg"},{"bike_id":"caedf473-9313-4874-87c8-230b4a1efdb8","system_id":"levelo_inurba_marseille","lat":43.32487,"lon":5.36565,"is_reserved":false,"is_disabled":false,"rental_uris":{"android":"levelo://app?vid=caedf473-9313-4874-87c8-230b4a1efdb8","ios":"levelo://app?vid=caedf473-9313-4874-87c8-230b4a1efdb8"},"vehicle_type_id":"4","last_reported":1741065008,"current_range_meters":9200,"station_id":"ce4bhs12rcd13ifvqhvg","pricing_plan_id":"cebpf4jnsgd1na2vs0mg"},{"bike_id":"0753ec27-48d6-4162-a59d-54d599fb737c","system_id":"levelo_inurba_marseille","lat":43.23189,"lon":5.39978,"is_reserved":false,"is_disabled":false,"rental_uris":{"android":"levelo://app?vid=0753ec27-48d6-4162-a59d-54d599fb737c","ios":"levelo://app?vid=0753ec27-48d6-4162-a59d-54d599fb737c"},"vehicle_type_id":"4","last_reported":1741065008,"current_range_meters":9200,"station_id":"ce4bhn12rcd13ifvqgqg","pricing_plan_id":"cebpf4jnsgd1na2vs0mg"},{"bike_id":"16d90626-06af-4b37-91ae-d8b6129ba1c9","system_id":"levelo_inurba_marseille","lat":43.30446,"lon":5.3974,"is_reserved":false,"is_disabled":false,"rental_uris":{"android":"levelo://app?vid=16d90626-06af-4b37-91ae-d8b6129ba1c9","ios":"levelo://app?vid=16d90626-06af-4b37-91ae-d8b6129ba1c9"},"vehicle_type_id":"4","last_reported":1741065008,"current_range_meters":9200,"station_id":"ce4bh092rcd13ifvqd20","pricing_plan_id":"cebpf4jnsgd1na2vs0mg"},{"bike_id":"64953142-7637-42b4-b0d1-c449e63f1db7","system_id":"levelo_inurba_marseille","lat":43.296333,"lon":5.360347,"is_reserved":false,"is_disabled":false,"rental_uris":{"android":"levelo://app?vid=64953142-7637-42b4-b0d1-c449e63f1db7","ios":"levelo://app?vid=64953142-7637-42b4-b0d1-c449e63f1db7"},"vehicle_type_id":"4","last_reported":1741065008,"current_range_meters":9200,"station_id":"","pricing_plan_id":"cebpf4jnsgd1na2vs0mg"},{"bike_id":"bba5c829-32fe-4a1d-9461-a852d59caa6b","system_id":"levelo_inurba_marseille","lat":43.28849,"lon":5.39329,"is_reserved":false,"is_disabled":true,"rental_uris":{"android":"levelo://app?vid=bba5c829-32fe-4a1d-9461-a852d59caa6b","ios":"levelo://app?vid=bba5c829-32fe-4a1d-9461-a852d59caa6b"},"vehicle_type_id":"4","last_reported":1741065008,"current_range_meters":9200,"station_id":"ce4bh2p2rcd13ifvqdi0","pricing_plan_id":"cebpf4jnsgd1na2vs0mg"},{"bike_id":"2ed2e3e7-e95c-4cb5-a2ea-92715e7ed6d7","system_id":"levelo_inurba_marseille","lat":43.28343,"lon":5.38103,"is_reserved":false,"is_disabled":false,"rental_uris":{"android":"levelo://app?vid=2ed2e3e7-e95c-4cb5-a2ea-92715e7ed6d7","ios":"levelo://app?vid=2ed2e3e7-e95c-4cb5-a2ea-92715e7ed6d7"},"vehicle_type_id":"4","last_reported":1741065008,"current_range_meters":9600,"station_id":"ce4bh412rcd13ifvqdr0","pricing_plan_id":"cebpf4jnsgd1na2vs0mg"},{"bike_id":"0b818497-4d97-451b-b637-cef3d02b5c9d","system_id":"levelo_inurba_marseille","lat":43.31703,"lon":5.43715,"is_reserved":false,"is_disabled":true,"rental_uris":{"android":"levelo://app?vid=0b818497-4d97-451b-b637-cef3d02b5c9d","ios":"levelo://app?vid=0b818497-4d97-451b-b637-cef3d02b5c9d"},"vehicle_type_id":"4","last_reported":1741065008,"current_range_meters":9600,"station_id":"ce4bhp92rcd13ifvqhcg","pricing_plan_id":"cebpf4jnsgd1na2vs0mg"},{"bike_id":"a18fece4-236b-4528-b0b9-389d2006a2ed","system_id":"levelo_inurba_marseille","lat":43.29419,"lon":5.40302,"is_reserved":false,"is_disabled":false,"rental_uris":{"android":"levelo://app?vid=a18fece4-236b-4528-b0b9-389d2006a2ed","ios":"levelo://app?vid=a18fece4-236b-4528-b0b9-389d2006a2ed"},"vehicle_type_id":"4","last_reported":1741065008,"current_range_meters":9600,"station_id":"","pricing_plan_id":"cebpf4jnsgd1na2vs0mg"},{"bike_id":"46a00d93-744e-4a3c-86cf-34f2867ddab7","system_id":"levelo_inurba_marseille","lat":43.30591,"lon":5.37214,"is_reserved":false,"is_disabled":false,"rental_uris":{"android":"levelo://app?vid=46a00d93-744e-4a3c-86cf-34f2867ddab7","ios":"levelo://app?vid=46a00d93-744e-4a3c-86cf-34f2867ddab7"},"vehicle_type_id":"4","last_reported":1741065008,"current_range_meters":9600,"station_id":"ce4bgqh2rcd13ifvqc4g","pricing_plan_id":"cebpf4jnsgd1na2vs0mg"},{"bike_id":"41ed89d3-77cd-4311-8513-748a0ca63c4f","system_id":"levelo_inurba_marseille","lat":43.21223,"lon":5.35289,"is_reserved":false,"is_disabled":false,"rental_uris":{"android":"levelo://app?vid=41ed89d3-77cd-4311-8513-748a0ca63c4f","ios":"levelo://app?vid=41ed89d3-77cd-4311-8513-748a0ca63c4f"},"vehicle_type_id":"4","last_reported":1741065008,"current_range_meters":9600,"station_id":"","pricing_plan_id":"cebpf4jnsgd1na2vs0mg"},{"bike_id":"9a386038-9cc6-4b52-b406-e6a33e3dcf23","system_id":"levelo_inurba_marseille","lat":43.28454,"lon":5.3588,"is_reserved":false,"is_disabled":false,"rental_uris":{"android":"levelo://app?vid=9a386038-9cc6-4b52-b406-e6a33e3dcf23","ios":"levelo://app?vid=9a386038-9cc6-4b52-b406-e6a33e3dcf23"},"vehicle_type_id":"4","last_reported":1741065008,"current_range_meters":9600,"station_id":"ce4bhah2rcd13ifvqei0","pricing_plan_id":"cebpf4jnsgd1na2vs0mg"},{"bike_id":"4ac02a66-da50-4129-b13c-39bc5c01eb98","system_id":"levelo_inurba_marseille","lat":43.30106,"lon":5.37407,"is_reserved":false,"is_disabled":false,"rental_uris":{"android":"levelo://app?vid=4ac02a66-da50-4129-b13c-39bc5c01eb98","ios":"levelo://app?vid=4ac02a66-da50-4129-b13c-39bc5c01eb98"},"vehicle_type_id":"4","last_reported":1741065008,"current_range_meters":9600,"station_id":"ce4bgs92rcd13ifvqcc0","pricing_plan_id":"cebpf4jnsgd1na2vs0mg"},{"bike_id":"4b8bcc6a-b1ee-4044-9ae8-7c00efea0717","system_id":"levelo_inurba_marseille","lat":43.28409,"lon":5.37512,"is_reserved":false,"is_disabled":false,"rental_uris":{"android":"levelo://app?vid=4b8bcc6a-b1ee-4044-9ae8-7c00efea0717","ios":"levelo://app?vid=4b8bcc6a-b1ee-4044-9ae8-7c00efea0717"},"vehicle_type_id":"4","last_reported":1741065008,"current_range_meters":9600,"station_id":"ce4bh412rcd13ifvqds0","pricing_plan_id":"cebpf4jnsgd1na2vs0mg"},{"bike_id":"362b2e41-0f7d-42ca-85b4-447baad17196","system_id":"levelo_inurba_marseille","lat":43.27184,"lon":5.41882,"is_reserved":false,"is_disabled":false,"rental_uris":{"android":"levelo://app?vid=362b2e41-0f7d-42ca-85b4-447baad17196","ios":"levelo://app?vid=362b2e41-0f7d-42ca-85b4-447baad17196"},"vehicle_type_id":"4","last_reported":1741065008,"current_range_meters":9600,"station_id":"","pricing_plan_id":"cebpf4jnsgd1na2vs0mg"},{"bike_id":"9de42f25-f760-4086-9a08-2934eee1b520","system_id":"levelo_inurba_marseille","lat":43.2126,"lon":5.35342,"is_reserved":false,"is_disabled":false,"rental_uris":{"android":"levelo://app?vid=9de42f25-f760-4086-9a08-2934eee1b520","ios":"levelo://app?vid=9de42f25-f760-4086-9a08-2934eee1b520"},"vehicle_type_id":"4","last_reported":1741065008,"current_range_meters":10000,"station_id":"","pricing_plan_id":"cebpf4jnsgd1na2vs0mg"},{"bike_id":"641bc30e-b086-411e-a196-950ba8189dd3","system_id":"levelo_inurba_marseille","lat":43.30322,"lon":5.40433,"is_reserved":false,"is_disabled":false,"rental_uris":{"android":"levelo://app?vid=641bc30e-b086-411e-a196-950ba8189dd3","ios":"levelo://app?vid=641bc30e-b086-411e-a196-950ba8189dd3"},"vehicle_type_id":"4","last_reported":1741065008,"current_range_meters":10000,"station_id":"ce4bh012rcd13ifvqd10","pricing_plan_id":"cebpf4jnsgd1na2vs0mg"},{"bike_id":"9c9f0913-f60e-48c1-a059-193d8823879b","system_id":"levelo_inurba_marseille","lat":43.291866,"lon":5.393333,"is_reserved":false,"is_disabled":false,"rental_uris":{"android":"levelo://app?vid=9c9f0913-f60e-48c1-a059-193d8823879b","ios":"levelo://app?vid=9c9f0913-f60e-48c1-a059-193d8823879b"},"vehicle_type_id":"4","last_reported":1741065008,"current_range_meters":10000,"station_id":"ce4bh192rcd13ifvqdd0","pricing_plan_id":"cebpf4jnsgd1na2vs0mg"},{"bike_id":"095be3af-e43e-4c12-8377-caa0ebb75794","system_id":"levelo_inurba_marseille","lat":43.28397,"lon":5.37544,"is_reserved":false,"is_disabled":false,"rental_uris":{"android":"levelo://app?vid=095be3af-e43e-4c12-8377-caa0ebb75794","ios":"levelo://app?vid=095be3af-e43e-4c12-8377-caa0ebb75794"},"vehicle_type_id":"4","last_reported":1741065008,"current_range_meters":10000,"station_id":"ce4bh412rcd13ifvqds0","pricing_plan_id":"cebpf4jnsgd1na2vs0mg"},{"bike_id":"36f40a18-1797-485d-9d52-f860a3297b44","system_id":"levelo_inurba_marseille","lat":43.29525,"lon":5.39409,"is_reserved":false,"is_disabled":false,"rental_uris":{"android":"levelo://app?vid=36f40a18-1797-485d-9d52-f860a3297b44","ios":"levelo://app?vid=36f40a18-1797-485d-9d52-f860a3297b44"},"vehicle_type_id":"4","last_reported":1741065008,"current_range_meters":10000,"station_id":"ce4bh292rcd13ifvqdf0","pricing_plan_id":"cebpf4jnsgd1na2vs0mg"},{"bike_id":"102de46f-1f3d-42c6-b125-cb45380886c0","system_id":"levelo_inurba_marseille","lat":43.28457,"lon":5.35894,"is_reserved":false,"is_disabled":false,"rental_uris":{"android":"levelo://app?vid=102de46f-1f3d-42c6-b125-cb45380886c0","ios":"levelo://app?vid=102de46f-1f3d-42c6-b125-cb45380886c0"},"vehicle_type_id":"4","last_reported":1741065008,"current_range_meters":10000,"station_id":"ce4bhah2rcd13ifvqei0","pricing_plan_id":"cebpf4jnsgd1na2vs0mg"},{"bike_id":"2fe8f916-4590-4cd4-978d-98051b849535","system_id":"levelo_inurba_marseille","lat":43.27981,"lon":5.41669,"is_reserved":false,"is_disabled":false,"rental_uris":{"android":"levelo://app?vid=2fe8f916-4590-4cd4-978d-98051b849535","ios":"levelo://app?vid=2fe8f916-4590-4cd4-978d-98051b849535"},"vehicle_type_id":"4","last_reported":1741065008,"current_range_meters":10800,"station_id":"ce4bho12rcd13ifvqh1g","pricing_plan_id":"cebpf4jnsgd1na2vs0mg"},{"bike_id":"e4e91370-e554-4387-b1fb-5ffddc6d4231","system_id":"levelo_inurba_marseille","lat":43.25788,"lon":5.39435,"is_reserved":false,"is_disabled":false,"rental_uris":{"android":"levelo://app?vid=e4e91370-e554-4387-b1fb-5ffddc6d4231","ios":"levelo://app?vid=e4e91370-e554-4387-b1fb-5ffddc6d4231"},"vehicle_type_id":"4","last_reported":1741065008,"current_range_meters":10800,"station_id":"ce4bhip2rcd13ifvqft0","pricing_plan_id":"cebpf4jnsgd1na2vs0mg"},{"bike_id":"37879935-4cf9-468e-9cee-d7233264c869","system_id":"levelo_inurba_marseille","lat":43.304186,"lon":5.397544,"is_reserved":false,"is_disabled":false,"rental_uris":{"android":"levelo://app?vid=37879935-4cf9-468e-9cee-d7233264c869","ios":"levelo://app?vid=37879935-4cf9-468e-9cee-d7233264c869"},"vehicle_type_id":"4","last_reported":1741065008,"current_range_meters":10800,"station_id":"ce4bh092rcd13ifvqd20","pricing_plan_id":"cebpf4jnsgd1na2vs0mg"},{"bike_id":"e29f86e8-2c96-484f-9c1f-a6eb3cd7348e","system_id":"levelo_inurba_marseille","lat":43.27989,"lon":5.4167,"is_reserved":false,"is_disabled":false,"rental_uris":{"android":"levelo://app?vid=e29f86e8-2c96-484f-9c1f-a6eb3cd7348e","ios":"levelo://app?vid=e29f86e8-2c96-484f-9c1f-a6eb3cd7348e"},"vehicle_type_id":"4","last_reported":1741065008,"current_range_meters":10800,"station_id":"ce4bho12rcd13ifvqh1g","pricing_plan_id":"cebpf4jnsgd1na2vs0mg"},{"bike_id":"32cac79a-bb75-480e-9e14-d7497b0ae56e","system_id":"levelo_inurba_marseille","lat":43.24994,"lon":5.38982,"is_reserved":false,"is_disabled":false,"rental_uris":{"android":"levelo://app?vid=32cac79a-bb75-480e-9e14-d7497b0ae56e","ios":"levelo://app?vid=32cac79a-bb75-480e-9e14-d7497b0ae56e"},"vehicle_type_id":"4","last_reported":1741065008,"current_range_meters":10800,"station_id":"","pricing_plan_id":"cebpf4jnsgd1na2vs0mg"},{"bike_id":"bce611a7-5044-470a-9dc2-ccdbc1151c5c","system_id":"levelo_inurba_marseille","lat":43.324804,"lon":5.365678,"is_reserved":false,"is_disabled":false,"rental_uris":{"android":"levelo://app?vid=bce611a7-5044-470a-9dc2-ccdbc1151c5c","ios":"levelo://app?vid=bce611a7-5044-470a-9dc2-ccdbc1151c5c"},"vehicle_type_id":"4","last_reported":1741065008,"current_range_meters":10800,"station_id":"ce4bhs12rcd13ifvqhvg","pricing_plan_id":"cebpf4jnsgd1na2vs0mg"},{"bike_id":"cb014a6b-6553-43cb-90ee-c6d22cf5883f","system_id":"levelo_inurba_marseille","lat":43.26072,"lon":5.39396,"is_reserved":false,"is_disabled":false,"rental_uris":{"android":"levelo://app?vid=cb014a6b-6553-43cb-90ee-c6d22cf5883f","ios":"levelo://app?vid=cb014a6b-6553-43cb-90ee-c6d22cf5883f"},"vehicle_type_id":"4","last_reported":1741065008,"current_range_meters":10800,"station_id":"ce4bhh92rcd13ifvqfj0","pricing_plan_id":"cebpf4jnsgd1na2vs0mg"},{"bike_id":"373d78c5-16bc-4095-9a66-2b440c99b361","system_id":"levelo_inurba_marseille","lat":43.278181,"lon":5.407031,"is_reserved":false,"is_disabled":false,"rental_uris":{"android":"levelo://app?vid=373d78c5-16bc-4095-9a66-2b440c99b361","ios":"levelo://app?vid=373d78c5-16bc-4095-9a66-2b440c99b361"},"vehicle_type_id":"4","last_reported":1741065008,"current_range_meters":11200,"station_id":"ce4bhnh2rcd13ifvqgtg","pricing_plan_id":"cebpf4jnsgd1na2vs0mg"},{"bike_id":"29c60754-9df2-4a82-8936-100fec420b4c","system_id":"levelo_inurba_marseille","lat":43.29882,"lon":5.39748,"is_reserved":false,"is_disabled":false,"rental_uris":{"android":"levelo://app?vid=29c60754-9df2-4a82-8936-100fec420b4c","ios":"levelo://app?vid=29c60754-9df2-4a82-8936-100fec420b4c"},"vehicle_type_id":"4","last_reported":1741065008,"current_range_meters":11200,"station_id":"ce4bh0h2rcd13ifvqd50","pricing_plan_id":"cebpf4jnsgd1na2vs0mg"},{"bike_id":"e7ec1ac1-2323-47bd-a2b5-7cd3afb282cf","system_id":"levelo_inurba_marseille","lat":43.26554,"lon":5.37286,"is_reserved":false,"is_disabled":false,"rental_uris":{"android":"levelo://app?vid=e7ec1ac1-2323-47bd-a2b5-7cd3afb282cf","ios":"levelo://app?vid=e7ec1ac1-2323-47bd-a2b5-7cd3afb282cf"},"vehicle_type_id":"4","last_reported":1741065008,"current_range_meters":11200,"station_id":"ce4bhg12rcd13ifvqf70","pricing_plan_id":"cebpf4jnsgd1na2vs0mg"},{"bike_id":"a5193847-231c-4c8c-b335-8579028b0ddd","system_id":"levelo_inurba_marseille","lat":43.27811,"lon":5.40709,"is_reserved":false,"is_disabled":false,"rental_uris":{"android":"levelo://app?vid=a5193847-231c-4c8c-b335-8579028b0ddd","ios":"levelo://app?vid=a5193847-231c-4c8c-b335-8579028b0ddd"},"vehicle_type_id":"4","last_reported":1741065008,"current_range_meters":11200,"station_id":"ce4bhnh2rcd13ifvqgtg","pricing_plan_id":"cebpf4jnsgd1na2vs0mg"},{"bike_id":"edbf45de-8c0c-4479-9d63-ef4b01957d93","system_id":"levelo_inurba_marseille","lat":43.28717,"lon":5.36089,"is_reserved":false,"is_disabled":false,"rental_uris":{"android":"levelo://app?vid=edbf45de-8c0c-4479-9d63-ef4b01957d93","ios":"levelo://app?vid=edbf45de-8c0c-4479-9d63-ef4b01957d93"},"vehicle_type_id":"4","last_reported":1741065008,"current_range_meters":11200,"station_id":"cki0cbj6b192h4jlfktg","pricing_plan_id":"cebpf4jnsgd1na2vs0mg"},{"bike_id":"e09dd725-3dd2-4788-b7e4-7ae67a6ccfcf","system_id":"levelo_inurba_marseille","lat":43.2884,"lon":5.39311,"is_reserved":false,"is_disabled":false,"rental_uris":{"android":"levelo://app?vid=e09dd725-3dd2-4788-b7e4-7ae67a6ccfcf","ios":"levelo://app?vid=e09dd725-3dd2-4788-b7e4-7ae67a6ccfcf"},"vehicle_type_id":"4","last_reported":1741065008,"current_range_meters":11200,"station_id":"ce4bh2p2rcd13ifvqdi0","pricing_plan_id":"cebpf4jnsgd1na2vs0mg"},{"bike_id":"ca062356-a8b7-4a61-8f3f-0e74b13a3ad4","system_id":"levelo_inurba_marseille","lat":43.31112,"lon":5.37776,"is_reserved":false,"is_disabled":false,"rental_uris":{"android":"levelo://app?vid=ca062356-a8b7-4a61-8f3f-0e74b13a3ad4","ios":"levelo://app?vid=ca062356-a8b7-4a61-8f3f-0e74b13a3ad4"},"vehicle_type_id":"4","last_reported":1741065008,"current_range_meters":11200,"station_id":"ce4bgt92rcd13ifvqcg0","pricing_plan_id":"cebpf4jnsgd1na2vs0mg"},{"bike_id":"d1b38336-63c7-4d2d-a2d6-75d4567269de","system_id":"levelo_inurba_marseille","lat":43.30937,"lon":5.40137,"is_reserved":false,"is_disabled":false,"rental_uris":{"android":"levelo://app?vid=d1b38336-63c7-4d2d-a2d6-75d4567269de","ios":"levelo://app?vid=d1b38336-63c7-4d2d-a2d6-75d4567269de"},"vehicle_type_id":"4","last_reported":1741065008,"current_range_meters":11200,"station_id":"ce4bgvp2rcd13ifvqct0","pricing_plan_id":"cebpf4jnsgd1na2vs0mg"},{"bike_id":"e5136b97-99d8-49fc-aff2-faca0326e8ae","system_id":"levelo_inurba_marseille","lat":43.279435,"lon":5.410411,"is_reserved":false,"is_disabled":false,"rental_uris":{"android":"levelo://app?vid=e5136b97-99d8-49fc-aff2-faca0326e8ae","ios":"levelo://app?vid=e5136b97-99d8-49fc-aff2-faca0326e8ae"},"vehicle_type_id":"4","last_reported":1741065008,"current_range_meters":11200,"station_id":"ce4bhnp2rcd13ifvqh0g","pricing_plan_id":"cebpf4jnsgd1na2vs0mg"},{"bike_id":"ed677855-22dc-4b23-b5ff-ce3196e85d7f","system_id":"levelo_inurba_marseille","lat":43.293233,"lon":5.386081,"is_reserved":false,"is_disabled":false,"rental_uris":{"android":"levelo://app?vid=ed677855-22dc-4b23-b5ff-ce3196e85d7f","ios":"levelo://app?vid=ed677855-22dc-4b23-b5ff-ce3196e85d7f"},"vehicle_type_id":"4","last_reported":1741065008,"current_range_meters":11600,"station_id":"","pricing_plan_id":"cebpf4jnsgd1na2vs0mg"},{"bike_id":"a4c3698b-40cd-4d33-a9d9-689474fbe572","system_id":"levelo_inurba_marseille","lat":43.30945,"lon":5.39052,"is_reserved":false,"is_disabled":false,"rental_uris":{"android":"levelo://app?vid=a4c3698b-40cd-4d33-a9d9-689474fbe572","ios":"levelo://app?vid=a4c3698b-40cd-4d33-a9d9-689474fbe572"},"vehicle_type_id":"4","last_reported":1741065008,"current_range_meters":11600,"station_id":"ce4bgup2rcd13ifvqco0","pricing_plan_id":"cebpf4jnsgd1na2vs0mg"},{"bike_id":"33d78023-4d5b-48ce-9665-2809bebb67ae","system_id":"levelo_inurba_marseille","lat":43.28457,"lon":5.35887,"is_reserved":false,"is_disabled":false,"rental_uris":{"android":"levelo://app?vid=33d78023-4d5b-48ce-9665-2809bebb67ae","ios":"levelo://app?vid=33d78023-4d5b-48ce-9665-2809bebb67ae"},"vehicle_type_id":"4","last_reported":1741065008,"current_range_meters":11600,"station_id":"ce4bhah2rcd13ifvqei0","pricing_plan_id":"cebpf4jnsgd1na2vs0mg"},{"bike_id":"355e1532-21c7-4584-bd3e-0af4695c627f","system_id":"levelo_inurba_marseille","lat":43.2841,"lon":5.34996,"is_reserved":false,"is_disabled":false,"rental_uris":{"android":"levelo://app?vid=355e1532-21c7-4584-bd3e-0af4695c627f","ios":"levelo://app?vid=355e1532-21c7-4584-bd3e-0af4695c627f"},"vehicle_type_id":"4","last_reported":1741065008,"current_range_meters":11600,"station_id":"ce4bhbh2rcd13ifvqepg","pricing_plan_id":"cebpf4jnsgd1na2vs0mg"},{"bike_id":"dd08d469-0e07-4995-a332-b3086215ce48","system_id":"levelo_inurba_marseille","lat":43.3095,"lon":5.390418,"is_reserved":false,"is_disabled":true,"rental_uris":{"android":"levelo://app?vid=dd08d469-0e07-4995-a332-b3086215ce48","ios":"levelo://app?vid=dd08d469-0e07-4995-a332-b3086215ce48"},"vehicle_type_id":"4","last_reported":1741065008,"current_range_meters":11600,"station_id":"ce4bgup2rcd13ifvqco0","pricing_plan_id":"cebpf4jnsgd1na2vs0mg"},{"bike_id":"fc538172-abdb-42d0-9e73-20cebfb49ebf","system_id":"levelo_inurba_marseille","lat":43.28414,"lon":5.37522,"is_reserved":false,"is_disabled":false,"rental_uris":{"android":"levelo://app?vid=fc538172-abdb-42d0-9e73-20cebfb49ebf","ios":"levelo://app?vid=fc538172-abdb-42d0-9e73-20cebfb49ebf"},"vehicle_type_id":"4","last_reported":1741065008,"current_range_meters":11600,"station_id":"ce4bh412rcd13ifvqds0","pricing_plan_id":"cebpf4jnsgd1na2vs0mg"},{"bike_id":"cb813df4-3836-4634-974a-d02d99a32d8a","system_id":"levelo_inurba_marseille","lat":43.32705,"lon":5.39232,"is_reserved":false,"is_disabled":false,"rental_uris":{"android":"levelo://app?vid=cb813df4-3836-4634-974a-d02d99a32d8a","ios":"levelo://app?vid=cb813df4-3836-4634-974a-d02d99a32d8a"},"vehicle_type_id":"4","last_reported":1741065008,"current_range_meters":12000,"station_id":"","pricing_plan_id":"cebpf4jnsgd1na2vs0mg"},{"bike_id":"6a2f443b-bc7f-4630-b851-1b63f59abf78","system_id":"levelo_inurba_marseille","lat":43.26051,"lon":5.39398,"is_reserved":false,"is_disabled":false,"rental_uris":{"android":"levelo://app?vid=6a2f443b-bc7f-4630-b851-1b63f59abf78","ios":"levelo://app?vid=6a2f443b-bc7f-4630-b851-1b63f59abf78"},"vehicle_type_id":"4","last_reported":1741065008,"current_range_meters":12000,"station_id":"ce4bhh92rcd13ifvqfj0","pricing_plan_id":"cebpf4jnsgd1na2vs0mg"},{"bike_id":"2e75e4e9-8c17-4333-9511-e3e2cb3711c0","system_id":"levelo_inurba_marseille","lat":43.30022,"lon":5.37549,"is_reserved":false,"is_disabled":false,"rental_uris":{"android":"levelo://app?vid=2e75e4e9-8c17-4333-9511-e3e2cb3711c0","ios":"levelo://app?vid=2e75e4e9-8c17-4333-9511-e3e2cb3711c0"},"vehicle_type_id":"4","last_reported":1741065008,"current_range_meters":12000,"station_id":"","pricing_plan_id":"cebpf4jnsgd1na2vs0mg"},{"bike_id":"8ebc6e1c-6208-4bf5-b9d5-2da131eee273","system_id":"levelo_inurba_marseille","lat":43.311656,"lon":5.387127,"is_reserved":false,"is_disabled":false,"rental_uris":{"android":"levelo://app?vid=8ebc6e1c-6208-4bf5-b9d5-2da131eee273","ios":"levelo://app?vid=8ebc6e1c-6208-4bf5-b9d5-2da131eee273"},"vehicle_type_id":"4","last_reported":1741065008,"current_range_meters":12000,"station_id":"ce4bgv12rcd13ifvqcp0","pricing_plan_id":"cebpf4jnsgd1na2vs0mg"},{"bike_id":"effacc5e-f84b-4144-996b-43f0d812e45f","system_id":"levelo_inurba_marseille","lat":43.26949,"lon":5.38633,"is_reserved":false,"is_disabled":false,"rental_uris":{"android":"levelo://app?vid=effacc5e-f84b-4144-996b-43f0d812e45f","ios":"levelo://app?vid=effacc5e-f84b-4144-996b-43f0d812e45f"},"vehicle_type_id":"4","last_reported":1741065008,"current_range_meters":12000,"station_id":"ce4bhh92rcd13ifvqfh0","pricing_plan_id":"cebpf4jnsgd1na2vs0mg"},{"bike_id":"44a7153b-0fd7-4509-836b-676bbf84fb06","system_id":"levelo_inurba_marseille","lat":43.231898,"lon":5.355531,"is_reserved":false,"is_disabled":false,"rental_uris":{"android":"levelo://app?vid=44a7153b-0fd7-4509-836b-676bbf84fb06","ios":"levelo://app?vid=44a7153b-0fd7-4509-836b-676bbf84fb06"},"vehicle_type_id":"4","last_reported":1741065008,"current_range_meters":12000,"station_id":"ce4bhu92rcd13ifvqi70","pricing_plan_id":"cebpf4jnsgd1na2vs0mg"},{"bike_id":"442bfba6-bd18-40c4-a34b-7d774854ee17","system_id":"levelo_inurba_marseille","lat":43.29254,"lon":5.37598,"is_reserved":false,"is_disabled":false,"rental_uris":{"android":"levelo://app?vid=442bfba6-bd18-40c4-a34b-7d774854ee17","ios":"levelo://app?vid=442bfba6-bd18-40c4-a34b-7d774854ee17"},"vehicle_type_id":"4","last_reported":1741065008,"current_range_meters":12400,"station_id":"ce4bgi12rcd13ifvqb80","pricing_plan_id":"cebpf4jnsgd1na2vs0mg"},{"bike_id":"ee1d2ad1-36ca-49dd-a328-f2a9a9994ecb","system_id":"levelo_inurba_marseille","lat":43.310875,"lon":5.381444,"is_reserved":false,"is_disabled":false,"rental_uris":{"android":"levelo://app?vid=ee1d2ad1-36ca-49dd-a328-f2a9a9994ecb","ios":"levelo://app?vid=ee1d2ad1-36ca-49dd-a328-f2a9a9994ecb"},"vehicle_type_id":"4","last_reported":1741065008,"current_range_meters":12400,"station_id":"","pricing_plan_id":"cebpf4jnsgd1na2vs0mg"},{"bike_id":"089251b4-101d-44dd-a4b2-0e114c7f8e04","system_id":"levelo_inurba_marseille","lat":43.30435,"lon":5.39757,"is_reserved":false,"is_disabled":false,"rental_uris":{"android":"levelo://app?vid=089251b4-101d-44dd-a4b2-0e114c7f8e04","ios":"levelo://app?vid=089251b4-101d-44dd-a4b2-0e114c7f8e04"},"vehicle_type_id":"4","last_reported":1741065008,"current_range_meters":12400,"station_id":"ce4bh092rcd13ifvqd20","pricing_plan_id":"cebpf4jnsgd1na2vs0mg"},{"bike_id":"169c0423-3ac6-4960-87a6-c18dbf839dcc","system_id":"levelo_inurba_marseille","lat":43.298786,"lon":5.39735,"is_reserved":false,"is_disabled":false,"rental_uris":{"android":"levelo://app?vid=169c0423-3ac6-4960-87a6-c18dbf839dcc","ios":"levelo://app?vid=169c0423-3ac6-4960-87a6-c18dbf839dcc"},"vehicle_type_id":"4","last_reported":1741065008,"current_range_meters":12400,"station_id":"ce4bh0h2rcd13ifvqd50","pricing_plan_id":"cebpf4jnsgd1na2vs0mg"},{"bike_id":"eb01ef88-05e0-4c7b-b2b2-90ea98a3b163","system_id":"levelo_inurba_marseille","lat":43.30237,"lon":5.40098,"is_reserved":false,"is_disabled":false,"rental_uris":{"android":"levelo://app?vid=eb01ef88-05e0-4c7b-b2b2-90ea98a3b163","ios":"levelo://app?vid=eb01ef88-05e0-4c7b-b2b2-90ea98a3b163"},"vehicle_type_id":"4","last_reported":1741065008,"current_range_meters":12400,"station_id":"ce4bgvh2rcd13ifvqcs0","pricing_plan_id":"cebpf4jnsgd1na2vs0mg"},{"bike_id":"ed7f448a-2ee8-49f9-aca5-39dcd6dc9acb","system_id":"levelo_inurba_marseille","lat":43.290366,"lon":5.359175,"is_reserved":false,"is_disabled":false,"rental_uris":{"android":"levelo://app?vid=ed7f448a-2ee8-49f9-aca5-39dcd6dc9acb","ios":"levelo://app?vid=ed7f448a-2ee8-49f9-aca5-39dcd6dc9acb"},"vehicle_type_id":"4","last_reported":1741065008,"current_range_meters":12400,"station_id":"ce4bha92rcd13ifvqeg0","pricing_plan_id":"cebpf4jnsgd1na2vs0mg"},{"bike_id":"9de8de23-382e-4035-b9d0-ffd8bcdb1f44","system_id":"levelo_inurba_marseille","lat":43.30817,"lon":5.43503,"is_reserved":false,"is_disabled":false,"rental_uris":{"android":"levelo://app?vid=9de8de23-382e-4035-b9d0-ffd8bcdb1f44","ios":"levelo://app?vid=9de8de23-382e-4035-b9d0-ffd8bcdb1f44"},"vehicle_type_id":"4","last_reported":1741065008,"current_range_meters":12400,"station_id":"ce4bhph2rcd13ifvqheg","pricing_plan_id":"cebpf4jnsgd1na2vs0mg"},{"bike_id":"474b314c-3a52-4e17-bbda-10f41385b1a6","system_id":"levelo_inurba_marseille","lat":43.30609,"lon":5.3721,"is_reserved":false,"is_disabled":false,"rental_uris":{"android":"levelo://app?vid=474b314c-3a52-4e17-bbda-10f41385b1a6","ios":"levelo://app?vid=474b314c-3a52-4e17-bbda-10f41385b1a6"},"vehicle_type_id":"4","last_reported":1741065008,"current_range_meters":12400,"station_id":"ce4bgqh2rcd13ifvqc4g","pricing_plan_id":"cebpf4jnsgd1na2vs0mg"},{"bike_id":"4ced6644-ce8d-40ca-9170-d9cd2beeedb6","system_id":"levelo_inurba_marseille","lat":43.304227,"lon":5.397516,"is_reserved":false,"is_disabled":false,"rental_uris":{"android":"levelo://app?vid=4ced6644-ce8d-40ca-9170-d9cd2beeedb6","ios":"levelo://app?vid=4ced6644-ce8d-40ca-9170-d9cd2beeedb6"},"vehicle_type_id":"4","last_reported":1741065008,"current_range_meters":12800,"station_id":"ce4bh092rcd13ifvqd20","pricing_plan_id":"cebpf4jnsgd1na2vs0mg"},{"bike_id":"2a73bee1-ecae-487e-abe1-b632005b8e15","system_id":"levelo_inurba_marseille","lat":43.270511,"lon":5.402649,"is_reserved":false,"is_disabled":false,"rental_uris":{"android":"levelo://app?vid=2a73bee1-ecae-487e-abe1-b632005b8e15","ios":"levelo://app?vid=2a73bee1-ecae-487e-abe1-b632005b8e15"},"vehicle_type_id":"4","last_reported":1741065008,"current_range_meters":12800,"station_id":"ce4bhk92rcd13ifvqgc0","pricing_plan_id":"cebpf4jnsgd1na2vs0mg"},{"bike_id":"7cea7b38-f7a0-4e92-8d25-24dec4d43a08","system_id":"levelo_inurba_marseille","lat":43.26683,"lon":5.382685,"is_reserved":false,"is_disabled":true,"rental_uris":{"android":"levelo://app?vid=7cea7b38-f7a0-4e92-8d25-24dec4d43a08","ios":"levelo://app?vid=7cea7b38-f7a0-4e92-8d25-24dec4d43a08"},"vehicle_type_id":"4","last_reported":1741065008,"current_range_meters":12800,"station_id":"ce4bhg92rcd13ifvqf90","pricing_plan_id":"cebpf4jnsgd1na2vs0mg"},{"bike_id":"a9e4db3f-a424-4a70-bbb1-9ffa5bd94433","system_id":"levelo_inurba_marseille","lat":43.323663,"lon":5.388966,"is_reserved":false,"is_disabled":false,"rental_uris":{"android":"levelo://app?vid=a9e4db3f-a424-4a70-bbb1-9ffa5bd94433","ios":"levelo://app?vid=a9e4db3f-a424-4a70-bbb1-9ffa5bd94433"},"vehicle_type_id":"4","last_reported":1741065008,"current_range_meters":12800,"station_id":"ce4bhqp2rcd13ifvqhog","pricing_plan_id":"cebpf4jnsgd1na2vs0mg"},{"bike_id":"443a506e-3487-4634-8f70-3912280dd197","system_id":"levelo_inurba_marseille","lat":43.28428,"lon":5.37497,"is_reserved":false,"is_disabled":false,"rental_uris":{"android":"levelo://app?vid=443a506e-3487-4634-8f70-3912280dd197","ios":"levelo://app?vid=443a506e-3487-4634-8f70-3912280dd197"},"vehicle_type_id":"4","last_reported":1741065008,"current_range_meters":12800,"station_id":"ce4bh412rcd13ifvqds0","pricing_plan_id":"cebpf4jnsgd1na2vs0mg"},{"bike_id":"a672a65c-d1fc-4716-9934-f7368b43bb6f","system_id":"levelo_inurba_marseille","lat":43.28413,"lon":5.375177,"is_reserved":false,"is_disabled":false,"rental_uris":{"android":"levelo://app?vid=a672a65c-d1fc-4716-9934-f7368b43bb6f","ios":"levelo://app?vid=a672a65c-d1fc-4716-9934-f7368b43bb6f"},"vehicle_type_id":"4","last_reported":1741065008,"current_range_meters":12800,"station_id":"ce4bh412rcd13ifvqds0","pricing_plan_id":"cebpf4jnsgd1na2vs0mg"},{"bike_id":"2458e0f1-a8b2-4533-b3c9-d2a934eb6fd5","system_id":"levelo_inurba_marseille","lat":43.28835,"lon":5.35845,"is_reserved":false,"is_disabled":false,"rental_uris":{"android":"levelo://app?vid=2458e0f1-a8b2-4533-b3c9-d2a934eb6fd5","ios":"levelo://app?vid=2458e0f1-a8b2-4533-b3c9-d2a934eb6fd5"},"vehicle_type_id":"4","last_reported":1741065008,"current_range_meters":13600,"station_id":"ce4bhb12rcd13ifvqem0","pricing_plan_id":"cebpf4jnsgd1na2vs0mg"},{"bike_id":"9e4f53fe-e434-44c9-a146-29f149bf6c3f","system_id":"levelo_inurba_marseille","lat":43.241734,"lon":5.397329,"is_reserved":false,"is_disabled":false,"rental_uris":{"android":"levelo://app?vid=9e4f53fe-e434-44c9-a146-29f149bf6c3f","ios":"levelo://app?vid=9e4f53fe-e434-44c9-a146-29f149bf6c3f"},"vehicle_type_id":"4","last_reported":1741065008,"current_range_meters":13600,"station_id":"ce4bhn12rcd13ifvqgpg","pricing_plan_id":"cebpf4jnsgd1na2vs0mg"},{"bike_id":"a2e9312b-d692-42a0-9823-fe0aab56075b","system_id":"levelo_inurba_marseille","lat":43.2314,"lon":5.43719,"is_reserved":false,"is_disabled":false,"rental_uris":{"android":"levelo://app?vid=a2e9312b-d692-42a0-9823-fe0aab56075b","ios":"levelo://app?vid=a2e9312b-d692-42a0-9823-fe0aab56075b"},"vehicle_type_id":"4","last_reported":1741065008,"current_range_meters":13600,"station_id":"ce4bhmp2rcd13ifvqgog","pricing_plan_id":"cebpf4jnsgd1na2vs0mg"},{"bike_id":"4f6a53e2-adc0-4f21-a484-100d8eb7192f","system_id":"levelo_inurba_marseille","lat":43.27816,"lon":5.40713,"is_reserved":false,"is_disabled":false,"rental_uris":{"android":"levelo://app?vid=4f6a53e2-adc0-4f21-a484-100d8eb7192f","ios":"levelo://app?vid=4f6a53e2-adc0-4f21-a484-100d8eb7192f"},"vehicle_type_id":"4","last_reported":1741065008,"current_range_meters":13600,"station_id":"ce4bhnh2rcd13ifvqgtg","pricing_plan_id":"cebpf4jnsgd1na2vs0mg"},{"bike_id":"fe65d165-e4f8-45e4-b0cc-6ba4a385c0db","system_id":"levelo_inurba_marseille","lat":43.292508,"lon":5.376334,"is_reserved":false,"is_disabled":false,"rental_uris":{"android":"levelo://app?vid=fe65d165-e4f8-45e4-b0cc-6ba4a385c0db","ios":"levelo://app?vid=fe65d165-e4f8-45e4-b0cc-6ba4a385c0db"},"vehicle_type_id":"4","last_reported":1741065008,"current_range_meters":14000,"station_id":"ce4bgi12rcd13ifvqb80","pricing_plan_id":"cebpf4jnsgd1na2vs0mg"},{"bike_id":"8308f0f0-12de-4cec-8d2c-136fe01cb28b","system_id":"levelo_inurba_marseille","lat":43.30527,"lon":5.36708,"is_reserved":false,"is_disabled":false,"rental_uris":{"android":"levelo://app?vid=8308f0f0-12de-4cec-8d2c-136fe01cb28b","ios":"levelo://app?vid=8308f0f0-12de-4cec-8d2c-136fe01cb28b"},"vehicle_type_id":"4","last_reported":1741065008,"current_range_meters":9200,"station_id":"ce4bgrp2rcd13ifvqc9g","pricing_plan_id":"cebpf4jnsgd1na2vs0mg"},{"bike_id":"e0bbd19f-dbed-424f-998c-e43cb85c9ec3","system_id":"levelo_inurba_marseille","lat":43.24161,"lon":5.36404,"is_reserved":false,"is_disabled":false,"rental_uris":{"android":"levelo://app?vid=e0bbd19f-dbed-424f-998c-e43cb85c9ec3","ios":"levelo://app?vid=e0bbd19f-dbed-424f-998c-e43cb85c9ec3"},"vehicle_type_id":"4","last_reported":1741065008,"current_range_meters":14000,"station_id":"cpo36qri1sfpv3e86is0","pricing_plan_id":"cebpf4jnsgd1na2vs0mg"},{"bike_id":"cfd37df0-b1c6-4f94-a627-4f20422c897a","system_id":"levelo_inurba_marseille","lat":43.276995,"lon":5.415414,"is_reserved":false,"is_disabled":false,"rental_uris":{"android":"levelo://app?vid=cfd37df0-b1c6-4f94-a627-4f20422c897a","ios":"levelo://app?vid=cfd37df0-b1c6-4f94-a627-4f20422c897a"},"vehicle_type_id":"4","last_reported":1741065008,"current_range_meters":14000,"station_id":"","pricing_plan_id":"cebpf4jnsgd1na2vs0mg"},{"bike_id":"bc389614-a1bd-4bd1-ae6c-15acadf8db1a","system_id":"levelo_inurba_marseille","lat":43.28311,"lon":5.43245,"is_reserved":false,"is_disabled":false,"rental_uris":{"android":"levelo://app?vid=bc389614-a1bd-4bd1-ae6c-15acadf8db1a","ios":"levelo://app?vid=bc389614-a1bd-4bd1-ae6c-15acadf8db1a"},"vehicle_type_id":"4","last_reported":1741065008,"current_range_meters":14400,"station_id":"","pricing_plan_id":"cebpf4jnsgd1na2vs0mg"},{"bike_id":"d7ef5145-0bca-4f45-a0cf-6b1d49f6690d","system_id":"levelo_inurba_marseille","lat":43.313864,"lon":5.391867,"is_reserved":false,"is_disabled":false,"rental_uris":{"android":"levelo://app?vid=d7ef5145-0bca-4f45-a0cf-6b1d49f6690d","ios":"levelo://app?vid=d7ef5145-0bca-4f45-a0cf-6b1d49f6690d"},"vehicle_type_id":"4","last_reported":1741065008,"current_range_meters":14400,"station_id":"","pricing_plan_id":"cebpf4jnsgd1na2vs0mg"},{"bike_id":"38f37a23-5169-4d18-ab25-4dff16ba5bae","system_id":"levelo_inurba_marseille","lat":43.28604,"lon":5.37069,"is_reserved":false,"is_disabled":false,"rental_uris":{"android":"levelo://app?vid=38f37a23-5169-4d18-ab25-4dff16ba5bae","ios":"levelo://app?vid=38f37a23-5169-4d18-ab25-4dff16ba5bae"},"vehicle_type_id":"4","last_reported":1741065008,"current_range_meters":14400,"station_id":"ce4bht12rcd13ifvqi60","pricing_plan_id":"cebpf4jnsgd1na2vs0mg"},{"bike_id":"a701abf8-3ece-4dc1-a4be-d00e444adcf7","system_id":"levelo_inurba_marseille","lat":43.25571,"lon":5.38252,"is_reserved":false,"is_disabled":false,"rental_uris":{"android":"levelo://app?vid=a701abf8-3ece-4dc1-a4be-d00e444adcf7","ios":"levelo://app?vid=a701abf8-3ece-4dc1-a4be-d00e444adcf7"},"vehicle_type_id":"4","last_reported":1741065008,"current_range_meters":14400,"station_id":"ce4bhih2rcd13ifvqfs0","pricing_plan_id":"cebpf4jnsgd1na2vs0mg"},{"bike_id":"81feccab-f4e0-464a-a8fb-d5d3cb5e3510","system_id":"levelo_inurba_marseille","lat":43.304253,"lon":5.397349,"is_reserved":false,"is_disabled":false,"rental_uris":{"android":"levelo://app?vid=81feccab-f4e0-464a-a8fb-d5d3cb5e3510","ios":"levelo://app?vid=81feccab-f4e0-464a-a8fb-d5d3cb5e3510"},"vehicle_type_id":"4","last_reported":1741065008,"current_range_meters":14800,"station_id":"ce4bh092rcd13ifvqd20","pricing_plan_id":"cebpf4jnsgd1na2vs0mg"},{"bike_id":"dc7ff41a-bd66-48fb-95fc-dadc422033f1","system_id":"levelo_inurba_marseille","lat":43.28079,"lon":5.39663,"is_reserved":false,"is_disabled":false,"rental_uris":{"android":"levelo://app?vid=dc7ff41a-bd66-48fb-95fc-dadc422033f1","ios":"levelo://app?vid=dc7ff41a-bd66-48fb-95fc-dadc422033f1"},"vehicle_type_id":"4","last_reported":1741065008,"current_range_meters":14800,"station_id":"ce4bho12rcd13ifvqh2g","pricing_plan_id":"cebpf4jnsgd1na2vs0mg"},{"bike_id":"096a4bf9-e472-45d7-828b-5ce3fa44291b","system_id":"levelo_inurba_marseille","lat":43.28652,"lon":5.36358,"is_reserved":false,"is_disabled":false,"rental_uris":{"android":"levelo://app?vid=096a4bf9-e472-45d7-828b-5ce3fa44291b","ios":"levelo://app?vid=096a4bf9-e472-45d7-828b-5ce3fa44291b"},"vehicle_type_id":"4","last_reported":1741065008,"current_range_meters":14800,"station_id":"ce4bhah2rcd13ifvqej0","pricing_plan_id":"cebpf4jnsgd1na2vs0mg"},{"bike_id":"f83a09a1-05e9-4f34-b3b0-a301d7d23141","system_id":"levelo_inurba_marseille","lat":43.29303,"lon":5.42713,"is_reserved":false,"is_disabled":false,"rental_uris":{"android":"levelo://app?vid=f83a09a1-05e9-4f34-b3b0-a301d7d23141","ios":"levelo://app?vid=f83a09a1-05e9-4f34-b3b0-a301d7d23141"},"vehicle_type_id":"4","last_reported":1741065008,"current_range_meters":14800,"station_id":"","pricing_plan_id":"cebpf4jnsgd1na2vs0mg"},{"bike_id":"642c7792-3e94-4263-87b3-9666d4f3535e","system_id":"levelo_inurba_marseille","lat":43.25485,"lon":5.37663,"is_reserved":false,"is_disabled":false,"rental_uris":{"android":"levelo://app?vid=642c7792-3e94-4263-87b3-9666d4f3535e","ios":"levelo://app?vid=642c7792-3e94-4263-87b3-9666d4f3535e"},"vehicle_type_id":"4","last_reported":1741065008,"current_range_meters":14800,"station_id":"ce4bhh12rcd13ifvqff0","pricing_plan_id":"cebpf4jnsgd1na2vs0mg"},{"bike_id":"811bf25c-9b41-4fd0-9c9f-36e1e5f39574","system_id":"levelo_inurba_marseille","lat":43.284568,"lon":5.358868,"is_reserved":false,"is_disabled":false,"rental_uris":{"android":"levelo://app?vid=811bf25c-9b41-4fd0-9c9f-36e1e5f39574","ios":"levelo://app?vid=811bf25c-9b41-4fd0-9c9f-36e1e5f39574"},"vehicle_type_id":"4","last_reported":1741065008,"current_range_meters":15200,"station_id":"ce4bhah2rcd13ifvqei0","pricing_plan_id":"cebpf4jnsgd1na2vs0mg"},{"bike_id":"b579293e-a70a-4d49-92be-7c642d91f6bb","system_id":"levelo_inurba_marseille","lat":43.31175,"lon":5.38736,"is_reserved":false,"is_disabled":false,"rental_uris":{"android":"levelo://app?vid=b579293e-a70a-4d49-92be-7c642d91f6bb","ios":"levelo://app?vid=b579293e-a70a-4d49-92be-7c642d91f6bb"},"vehicle_type_id":"4","last_reported":1741065008,"current_range_meters":15200,"station_id":"ce4bgv12rcd13ifvqcp0","pricing_plan_id":"cebpf4jnsgd1na2vs0mg"},{"bike_id":"2f3067f0-7bbc-458f-8e14-d4bc08996548","system_id":"levelo_inurba_marseille","lat":43.29213,"lon":5.36063,"is_reserved":false,"is_disabled":false,"rental_uris":{"android":"levelo://app?vid=2f3067f0-7bbc-458f-8e14-d4bc08996548","ios":"levelo://app?vid=2f3067f0-7bbc-458f-8e14-d4bc08996548"},"vehicle_type_id":"4","last_reported":1741065008,"current_range_meters":15200,"station_id":"ce4bhbh2rcd13ifvqeqg","pricing_plan_id":"cebpf4jnsgd1na2vs0mg"},{"bike_id":"51f6f578-8898-487a-9da7-ff3d6d379d1b","system_id":"levelo_inurba_marseille","lat":43.32082,"lon":5.36784,"is_reserved":false,"is_disabled":false,"rental_uris":{"android":"levelo://app?vid=51f6f578-8898-487a-9da7-ff3d6d379d1b","ios":"levelo://app?vid=51f6f578-8898-487a-9da7-ff3d6d379d1b"},"vehicle_type_id":"4","last_reported":1741065008,"current_range_meters":15200,"station_id":"ce4bhrh2rcd13ifvqhug","pricing_plan_id":"cebpf4jnsgd1na2vs0mg"},{"bike_id":"2794b7ee-440f-40dd-a289-07e4cc003e94","system_id":"levelo_inurba_marseille","lat":43.3111,"lon":5.37778,"is_reserved":false,"is_disabled":false,"rental_uris":{"android":"levelo://app?vid=2794b7ee-440f-40dd-a289-07e4cc003e94","ios":"levelo://app?vid=2794b7ee-440f-40dd-a289-07e4cc003e94"},"vehicle_type_id":"4","last_reported":1741065008,"current_range_meters":15200,"station_id":"ce4bgt92rcd13ifvqcg0","pricing_plan_id":"cebpf4jnsgd1na2vs0mg"},{"bike_id":"9fec91bd-d7aa-4149-bd43-cd46ffb8d0a9","system_id":"levelo_inurba_marseille","lat":43.29188,"lon":5.39318,"is_reserved":false,"is_disabled":false,"rental_uris":{"android":"levelo://app?vid=9fec91bd-d7aa-4149-bd43-cd46ffb8d0a9","ios":"levelo://app?vid=9fec91bd-d7aa-4149-bd43-cd46ffb8d0a9"},"vehicle_type_id":"4","last_reported":1741065008,"current_range_meters":15200,"station_id":"ce4bh192rcd13ifvqdd0","pricing_plan_id":"cebpf4jnsgd1na2vs0mg"},{"bike_id":"72eb316f-b406-4368-b692-99c81bec4002","system_id":"levelo_inurba_marseille","lat":43.30404,"lon":5.41296,"is_reserved":false,"is_disabled":true,"rental_uris":{"android":"levelo://app?vid=72eb316f-b406-4368-b692-99c81bec4002","ios":"levelo://app?vid=72eb316f-b406-4368-b692-99c81bec4002"},"vehicle_type_id":"4","last_reported":1741065008,"current_range_meters":16000,"station_id":"ce4bhop2rcd13ifvqh8g","pricing_plan_id":"cebpf4jnsgd1na2vs0mg"},{"bike_id":"f5d03e38-8747-43a5-8d83-d39dec3eb5c5","system_id":"levelo_inurba_marseille","lat":43.286619,"lon":5.363458,"is_reserved":false,"is_disabled":false,"rental_uris":{"android":"levelo://app?vid=f5d03e38-8747-43a5-8d83-d39dec3eb5c5","ios":"levelo://app?vid=f5d03e38-8747-43a5-8d83-d39dec3eb5c5"},"vehicle_type_id":"4","last_reported":1741065008,"current_range_meters":16000,"station_id":"","pricing_plan_id":"cebpf4jnsgd1na2vs0mg"},{"bike_id":"7b666837-cc3e-4351-806a-7fe04083b529","system_id":"levelo_inurba_marseille","lat":43.323632,"lon":5.388879,"is_reserved":false,"is_disabled":false,"rental_uris":{"android":"levelo://app?vid=7b666837-cc3e-4351-806a-7fe04083b529","ios":"levelo://app?vid=7b666837-cc3e-4351-806a-7fe04083b529"},"vehicle_type_id":"4","last_reported":1741065008,"current_range_meters":16000,"station_id":"ce4bhqp2rcd13ifvqhog","pricing_plan_id":"cebpf4jnsgd1na2vs0mg"},{"bike_id":"0f921424-afa4-4686-90b3-7f97a03d67ae","system_id":"levelo_inurba_marseille","lat":43.31052,"lon":5.38358,"is_reserved":false,"is_disabled":false,"rental_uris":{"android":"levelo://app?vid=0f921424-afa4-4686-90b3-7f97a03d67ae","ios":"levelo://app?vid=0f921424-afa4-4686-90b3-7f97a03d67ae"},"vehicle_type_id":"4","last_reported":1741065008,"current_range_meters":16000,"station_id":"ce4bgv92rcd13ifvqcr0","pricing_plan_id":"cebpf4jnsgd1na2vs0mg"},{"bike_id":"746fd962-f6f9-4941-83ba-433d3b12a1cc","system_id":"levelo_inurba_marseille","lat":43.292542,"lon":5.376164,"is_reserved":false,"is_disabled":false,"rental_uris":{"android":"levelo://app?vid=746fd962-f6f9-4941-83ba-433d3b12a1cc","ios":"levelo://app?vid=746fd962-f6f9-4941-83ba-433d3b12a1cc"},"vehicle_type_id":"4","last_reported":1741065008,"current_range_meters":16000,"station_id":"ce4bgi12rcd13ifvqb80","pricing_plan_id":"cebpf4jnsgd1na2vs0mg"},{"bike_id":"e6ce3260-6e42-4334-a434-b7f25aa0a5bb","system_id":"levelo_inurba_marseille","lat":43.318738,"lon":5.379252,"is_reserved":false,"is_disabled":false,"rental_uris":{"android":"levelo://app?vid=e6ce3260-6e42-4334-a434-b7f25aa0a5bb","ios":"levelo://app?vid=e6ce3260-6e42-4334-a434-b7f25aa0a5bb"},"vehicle_type_id":"4","last_reported":1741065008,"current_range_meters":16000,"station_id":"","pricing_plan_id":"cebpf4jnsgd1na2vs0mg"},{"bike_id":"fb442df0-4591-499a-ab4c-321abd668e0e","system_id":"levelo_inurba_marseille","lat":43.2827,"lon":5.35081,"is_reserved":false,"is_disabled":false,"rental_uris":{"android":"levelo://app?vid=fb442df0-4591-499a-ab4c-321abd668e0e","ios":"levelo://app?vid=fb442df0-4591-499a-ab4c-321abd668e0e"},"vehicle_type_id":"4","last_reported":1741065008,"current_range_meters":16000,"station_id":"ce4bhbp2rcd13ifvqerg","pricing_plan_id":"cebpf4jnsgd1na2vs0mg"},{"bike_id":"954be03c-bedc-4d79-b23c-ddf297b60e57","system_id":"levelo_inurba_marseille","lat":43.25074,"lon":5.39534,"is_reserved":false,"is_disabled":false,"rental_uris":{"android":"levelo://app?vid=954be03c-bedc-4d79-b23c-ddf297b60e57","ios":"levelo://app?vid=954be03c-bedc-4d79-b23c-ddf297b60e57"},"vehicle_type_id":"4","last_reported":1741065008,"current_range_meters":16000,"station_id":"ce4bhm12rcd13ifvqgkg","pricing_plan_id":"cebpf4jnsgd1na2vs0mg"},{"bike_id":"71e7e831-7788-449a-bf40-47f97d1d588c","system_id":"levelo_inurba_marseille","lat":43.320609,"lon":5.409938,"is_reserved":false,"is_disabled":false,"rental_uris":{"android":"levelo://app?vid=71e7e831-7788-449a-bf40-47f97d1d588c","ios":"levelo://app?vid=71e7e831-7788-449a-bf40-47f97d1d588c"},"vehicle_type_id":"4","last_reported":1741065008,"current_range_meters":16000,"station_id":"","pricing_plan_id":"cebpf4jnsgd1na2vs0mg"},{"bike_id":"a2b9d686-216a-4f50-ae4b-e7710a444cd6","system_id":"levelo_inurba_marseille","lat":43.25007,"lon":5.38915,"is_reserved":false,"is_disabled":false,"rental_uris":{"android":"levelo://app?vid=a2b9d686-216a-4f50-ae4b-e7710a444cd6","ios":"levelo://app?vid=a2b9d686-216a-4f50-ae4b-e7710a444cd6"},"vehicle_type_id":"4","last_reported":1741065008,"current_range_meters":16000,"station_id":"ce4bhgp2rcd13ifvqfd0","pricing_plan_id":"cebpf4jnsgd1na2vs0mg"},{"bike_id":"7f7e1c62-8591-4bd5-b418-84accf5550de","system_id":"levelo_inurba_marseille","lat":43.29802,"lon":5.40252,"is_reserved":false,"is_disabled":false,"rental_uris":{"android":"levelo://app?vid=7f7e1c62-8591-4bd5-b418-84accf5550de","ios":"levelo://app?vid=7f7e1c62-8591-4bd5-b418-84accf5550de"},"vehicle_type_id":"4","last_reported":1741065008,"current_range_meters":16000,"station_id":"","pricing_plan_id":"cebpf4jnsgd1na2vs0mg"},{"bike_id":"95b3e919-4fbc-4512-83db-4e0e404f4f62","system_id":"levelo_inurba_marseille","lat":43.33024,"lon":5.39074,"is_reserved":false,"is_disabled":false,"rental_uris":{"android":"levelo://app?vid=95b3e919-4fbc-4512-83db-4e0e404f4f62","ios":"levelo://app?vid=95b3e919-4fbc-4512-83db-4e0e404f4f62"},"vehicle_type_id":"4","last_reported":1741065008,"current_range_meters":16000,"station_id":"ce4bhr92rcd13ifvqhrg","pricing_plan_id":"cebpf4jnsgd1na2vs0mg"},{"bike_id":"f9399c72-5c7c-4b08-ab63-acba36776af1","system_id":"levelo_inurba_marseille","lat":43.284087,"lon":5.375257,"is_reserved":false,"is_disabled":false,"rental_uris":{"android":"levelo://app?vid=f9399c72-5c7c-4b08-ab63-acba36776af1","ios":"levelo://app?vid=f9399c72-5c7c-4b08-ab63-acba36776af1"},"vehicle_type_id":"4","last_reported":1741065008,"current_range_meters":16400,"station_id":"ce4bh412rcd13ifvqds0","pricing_plan_id":"cebpf4jnsgd1na2vs0mg"},{"bike_id":"526f4f9d-8c74-4c28-a37f-a1f42b8a281d","system_id":"levelo_inurba_marseille","lat":43.28577,"lon":5.37071,"is_reserved":false,"is_disabled":false,"rental_uris":{"android":"levelo://app?vid=526f4f9d-8c74-4c28-a37f-a1f42b8a281d","ios":"levelo://app?vid=526f4f9d-8c74-4c28-a37f-a1f42b8a281d"},"vehicle_type_id":"4","last_reported":1741065008,"current_range_meters":16400,"station_id":"ce4bht12rcd13ifvqi60","pricing_plan_id":"cebpf4jnsgd1na2vs0mg"},{"bike_id":"47ca7176-dcba-4b9e-8dbb-e2bb239319ab","system_id":"levelo_inurba_marseille","lat":43.31429,"lon":5.38598,"is_reserved":false,"is_disabled":false,"rental_uris":{"android":"levelo://app?vid=47ca7176-dcba-4b9e-8dbb-e2bb239319ab","ios":"levelo://app?vid=47ca7176-dcba-4b9e-8dbb-e2bb239319ab"},"vehicle_type_id":"4","last_reported":1741065008,"current_range_meters":16400,"station_id":"","pricing_plan_id":"cebpf4jnsgd1na2vs0mg"},{"bike_id":"cfb79c28-2385-459b-9ebc-a306ff70636d","system_id":"levelo_inurba_marseille","lat":43.270664,"lon":5.422779,"is_reserved":false,"is_disabled":false,"rental_uris":{"android":"levelo://app?vid=cfb79c28-2385-459b-9ebc-a306ff70636d","ios":"levelo://app?vid=cfb79c28-2385-459b-9ebc-a306ff70636d"},"vehicle_type_id":"4","last_reported":1741065008,"current_range_meters":16400,"station_id":"ce4bhk92rcd13ifvqgb0","pricing_plan_id":"cebpf4jnsgd1na2vs0mg"},{"bike_id":"428ddc3d-05a8-4b76-b027-89ba3c31dbda","system_id":"levelo_inurba_marseille","lat":43.255748,"lon":5.382433,"is_reserved":false,"is_disabled":false,"rental_uris":{"android":"levelo://app?vid=428ddc3d-05a8-4b76-b027-89ba3c31dbda","ios":"levelo://app?vid=428ddc3d-05a8-4b76-b027-89ba3c31dbda"},"vehicle_type_id":"4","last_reported":1741065008,"current_range_meters":16400,"station_id":"ce4bhih2rcd13ifvqfs0","pricing_plan_id":"cebpf4jnsgd1na2vs0mg"},{"bike_id":"8ef12c96-4a02-4ab6-af53-ca8fd7864c6a","system_id":"levelo_inurba_marseille","lat":43.309565,"lon":5.390081,"is_reserved":false,"is_disabled":false,"rental_uris":{"android":"levelo://app?vid=8ef12c96-4a02-4ab6-af53-ca8fd7864c6a","ios":"levelo://app?vid=8ef12c96-4a02-4ab6-af53-ca8fd7864c6a"},"vehicle_type_id":"4","last_reported":1741065008,"current_range_meters":16400,"station_id":"ce4bgup2rcd13ifvqco0","pricing_plan_id":"cebpf4jnsgd1na2vs0mg"},{"bike_id":"985d2fa7-01f5-44f0-8aae-9e1fc7712f86","system_id":"levelo_inurba_marseille","lat":43.29252,"lon":5.37612,"is_reserved":false,"is_disabled":false,"rental_uris":{"android":"levelo://app?vid=985d2fa7-01f5-44f0-8aae-9e1fc7712f86","ios":"levelo://app?vid=985d2fa7-01f5-44f0-8aae-9e1fc7712f86"},"vehicle_type_id":"4","last_reported":1741065008,"current_range_meters":16400,"station_id":"ce4bgi12rcd13ifvqb80","pricing_plan_id":"cebpf4jnsgd1na2vs0mg"},{"bike_id":"cf947015-5435-411e-b787-33b824bbdfb2","system_id":"levelo_inurba_marseille","lat":43.3235,"lon":5.38897,"is_reserved":false,"is_disabled":false,"rental_uris":{"android":"levelo://app?vid=cf947015-5435-411e-b787-33b824bbdfb2","ios":"levelo://app?vid=cf947015-5435-411e-b787-33b824bbdfb2"},"vehicle_type_id":"4","last_reported":1741065008,"current_range_meters":16400,"station_id":"ce4bhqp2rcd13ifvqhog","pricing_plan_id":"cebpf4jnsgd1na2vs0mg"},{"bike_id":"95d7778b-2b79-4249-abba-96e616b8ac44","system_id":"levelo_inurba_marseille","lat":43.304302,"lon":5.397499,"is_reserved":false,"is_disabled":false,"rental_uris":{"android":"levelo://app?vid=95d7778b-2b79-4249-abba-96e616b8ac44","ios":"levelo://app?vid=95d7778b-2b79-4249-abba-96e616b8ac44"},"vehicle_type_id":"4","last_reported":1741065008,"current_range_meters":16400,"station_id":"ce4bh092rcd13ifvqd20","pricing_plan_id":"cebpf4jnsgd1na2vs0mg"},{"bike_id":"3e925b0e-6733-433e-a32e-494b1720606b","system_id":"levelo_inurba_marseille","lat":43.308033,"lon":5.381587,"is_reserved":false,"is_disabled":false,"rental_uris":{"android":"levelo://app?vid=3e925b0e-6733-433e-a32e-494b1720606b","ios":"levelo://app?vid=3e925b0e-6733-433e-a32e-494b1720606b"},"vehicle_type_id":"4","last_reported":1741065008,"current_range_meters":16400,"station_id":"ce4bgt12rcd13ifvqce0","pricing_plan_id":"cebpf4jnsgd1na2vs0mg"},{"bike_id":"4f22ed03-3f01-49f0-87ec-77cf8c324e7e","system_id":"levelo_inurba_marseille","lat":43.309998,"lon":5.384516,"is_reserved":false,"is_disabled":false,"rental_uris":{"android":"levelo://app?vid=4f22ed03-3f01-49f0-87ec-77cf8c324e7e","ios":"levelo://app?vid=4f22ed03-3f01-49f0-87ec-77cf8c324e7e"},"vehicle_type_id":"4","last_reported":1741065008,"current_range_meters":16800,"station_id":"","pricing_plan_id":"cebpf4jnsgd1na2vs0mg"},{"bike_id":"b61de86e-763a-4c41-8050-2a3cc34c0988","system_id":"levelo_inurba_marseille","lat":43.30599,"lon":5.37217,"is_reserved":false,"is_disabled":false,"rental_uris":{"android":"levelo://app?vid=b61de86e-763a-4c41-8050-2a3cc34c0988","ios":"levelo://app?vid=b61de86e-763a-4c41-8050-2a3cc34c0988"},"vehicle_type_id":"4","last_reported":1741065008,"current_range_meters":16800,"station_id":"ce4bgqh2rcd13ifvqc4g","pricing_plan_id":"cebpf4jnsgd1na2vs0mg"},{"bike_id":"13b1630c-5e74-4cfd-83cc-1cf9628086bc","system_id":"levelo_inurba_marseille","lat":43.28452,"lon":5.35903,"is_reserved":false,"is_disabled":false,"rental_uris":{"android":"levelo://app?vid=13b1630c-5e74-4cfd-83cc-1cf9628086bc","ios":"levelo://app?vid=13b1630c-5e74-4cfd-83cc-1cf9628086bc"},"vehicle_type_id":"4","last_reported":1741065008,"current_range_meters":16800,"station_id":"ce4bhah2rcd13ifvqei0","pricing_plan_id":"cebpf4jnsgd1na2vs0mg"},{"bike_id":"0ec27d6f-b876-4c34-ba71-7d1aea070692","system_id":"levelo_inurba_marseille","lat":43.28092,"lon":5.39668,"is_reserved":false,"is_disabled":false,"rental_uris":{"android":"levelo://app?vid=0ec27d6f-b876-4c34-ba71-7d1aea070692","ios":"levelo://app?vid=0ec27d6f-b876-4c34-ba71-7d1aea070692"},"vehicle_type_id":"4","last_reported":1741065008,"current_range_meters":16800,"station_id":"ce4bho12rcd13ifvqh2g","pricing_plan_id":"cebpf4jnsgd1na2vs0mg"},{"bike_id":"e5e10333-14b5-4cd3-83e1-2adeb14fe709","system_id":"levelo_inurba_marseille","lat":43.28571,"lon":5.39496,"is_reserved":false,"is_disabled":false,"rental_uris":{"android":"levelo://app?vid=e5e10333-14b5-4cd3-83e1-2adeb14fe709","ios":"levelo://app?vid=e5e10333-14b5-4cd3-83e1-2adeb14fe709"},"vehicle_type_id":"4","last_reported":1741065008,"current_range_meters":16800,"station_id":"ce4bh292rcd13ifvqdg0","pricing_plan_id":"cebpf4jnsgd1na2vs0mg"},{"bike_id":"7cd5e07c-ad2a-4af8-99d9-77c41335ce79","system_id":"levelo_inurba_marseille","lat":43.24157,"lon":5.36406,"is_reserved":false,"is_disabled":false,"rental_uris":{"android":"levelo://app?vid=7cd5e07c-ad2a-4af8-99d9-77c41335ce79","ios":"levelo://app?vid=7cd5e07c-ad2a-4af8-99d9-77c41335ce79"},"vehicle_type_id":"4","last_reported":1741065008,"current_range_meters":16800,"station_id":"cpo36qri1sfpv3e86is0","pricing_plan_id":"cebpf4jnsgd1na2vs0mg"},{"bike_id":"afb56fc1-0a52-48dd-8451-90adf393ee15","system_id":"levelo_inurba_marseille","lat":43.28857,"lon":5.393121,"is_reserved":false,"is_disabled":false,"rental_uris":{"android":"levelo://app?vid=afb56fc1-0a52-48dd-8451-90adf393ee15","ios":"levelo://app?vid=afb56fc1-0a52-48dd-8451-90adf393ee15"},"vehicle_type_id":"4","last_reported":1741065008,"current_range_meters":16800,"station_id":"ce4bh2p2rcd13ifvqdi0","pricing_plan_id":"cebpf4jnsgd1na2vs0mg"},{"bike_id":"d571166c-77a4-4a91-b051-9cc34ad31336","system_id":"levelo_inurba_marseille","lat":43.30174,"lon":5.3934,"is_reserved":false,"is_disabled":false,"rental_uris":{"android":"levelo://app?vid=d571166c-77a4-4a91-b051-9cc34ad31336","ios":"levelo://app?vid=d571166c-77a4-4a91-b051-9cc34ad31336"},"vehicle_type_id":"4","last_reported":1741065008,"current_range_meters":16800,"station_id":"","pricing_plan_id":"cebpf4jnsgd1na2vs0mg"},{"bike_id":"03d5bd23-db2c-4a3d-9573-a1403447f741","system_id":"levelo_inurba_marseille","lat":43.27818,"lon":5.40689,"is_reserved":false,"is_disabled":false,"rental_uris":{"android":"levelo://app?vid=03d5bd23-db2c-4a3d-9573-a1403447f741","ios":"levelo://app?vid=03d5bd23-db2c-4a3d-9573-a1403447f741"},"vehicle_type_id":"4","last_reported":1741065008,"current_range_meters":16800,"station_id":"ce4bhnh2rcd13ifvqgtg","pricing_plan_id":"cebpf4jnsgd1na2vs0mg"},{"bike_id":"2d874c5e-182d-451e-a14f-2936f1e1d544","system_id":"levelo_inurba_marseille","lat":43.29259,"lon":5.40921,"is_reserved":false,"is_disabled":false,"rental_uris":{"android":"levelo://app?vid=2d874c5e-182d-451e-a14f-2936f1e1d544","ios":"levelo://app?vid=2d874c5e-182d-451e-a14f-2936f1e1d544"},"vehicle_type_id":"4","last_reported":1741065008,"current_range_meters":16800,"station_id":"ce4bh192rcd13ifvqdc0","pricing_plan_id":"cebpf4jnsgd1na2vs0mg"},{"bike_id":"0ba22404-67c9-4eb7-9136-36c97968d0b2","system_id":"levelo_inurba_marseille","lat":43.28579,"lon":5.39486,"is_reserved":false,"is_disabled":false,"rental_uris":{"android":"levelo://app?vid=0ba22404-67c9-4eb7-9136-36c97968d0b2","ios":"levelo://app?vid=0ba22404-67c9-4eb7-9136-36c97968d0b2"},"vehicle_type_id":"4","last_reported":1741065008,"current_range_meters":16800,"station_id":"ce4bh292rcd13ifvqdg0","pricing_plan_id":"cebpf4jnsgd1na2vs0mg"},{"bike_id":"b80cbd13-a968-4a3e-a1cc-9ee6fb7b0c92","system_id":"levelo_inurba_marseille","lat":43.28029,"lon":5.36943,"is_reserved":false,"is_disabled":true,"rental_uris":{"android":"levelo://app?vid=b80cbd13-a968-4a3e-a1cc-9ee6fb7b0c92","ios":"levelo://app?vid=b80cbd13-a968-4a3e-a1cc-9ee6fb7b0c92"},"vehicle_type_id":"4","last_reported":1741065008,"current_range_meters":16800,"station_id":"ce4bha12rcd13ifvqef0","pricing_plan_id":"cebpf4jnsgd1na2vs0mg"},{"bike_id":"dfe0f8e4-f5d4-4a79-9b64-260d70e4c2be","system_id":"levelo_inurba_marseille","lat":43.313246,"lon":5.396975,"is_reserved":false,"is_disabled":false,"rental_uris":{"android":"levelo://app?vid=dfe0f8e4-f5d4-4a79-9b64-260d70e4c2be","ios":"levelo://app?vid=dfe0f8e4-f5d4-4a79-9b64-260d70e4c2be"},"vehicle_type_id":"4","last_reported":1741065008,"current_range_meters":17200,"station_id":"ce4bgvp2rcd13ifvqcu0","pricing_plan_id":"cebpf4jnsgd1na2vs0mg"},{"bike_id":"e14ef293-eb82-44d0-8012-6fe5ab3c92d9","system_id":"levelo_inurba_marseille","lat":43.260253,"lon":5.375507,"is_reserved":false,"is_disabled":false,"rental_uris":{"android":"levelo://app?vid=e14ef293-eb82-44d0-8012-6fe5ab3c92d9","ios":"levelo://app?vid=e14ef293-eb82-44d0-8012-6fe5ab3c92d9"},"vehicle_type_id":"4","last_reported":1741065008,"current_range_meters":17200,"station_id":"ce4bhgh2rcd13ifvqfa0","pricing_plan_id":"cebpf4jnsgd1na2vs0mg"},{"bike_id":"cff839e9-cfc6-4fd9-84f5-77e40b37580c","system_id":"levelo_inurba_marseille","lat":43.23827,"lon":5.37628,"is_reserved":false,"is_disabled":false,"rental_uris":{"android":"levelo://app?vid=cff839e9-cfc6-4fd9-84f5-77e40b37580c","ios":"levelo://app?vid=cff839e9-cfc6-4fd9-84f5-77e40b37580c"},"vehicle_type_id":"4","last_reported":1741065008,"current_range_meters":17200,"station_id":"","pricing_plan_id":"cebpf4jnsgd1na2vs0mg"},{"bike_id":"19927819-4488-4fee-bee2-a2a35891795f","system_id":"levelo_inurba_marseille","lat":43.284053,"lon":5.375191,"is_reserved":false,"is_disabled":true,"rental_uris":{"android":"levelo://app?vid=19927819-4488-4fee-bee2-a2a35891795f","ios":"levelo://app?vid=19927819-4488-4fee-bee2-a2a35891795f"},"vehicle_type_id":"4","last_reported":1741065008,"current_range_meters":17200,"station_id":"ce4bh412rcd13ifvqds0","pricing_plan_id":"cebpf4jnsgd1na2vs0mg"},{"bike_id":"e96e0c5f-d0e5-478b-b4aa-43a39d7ff26e","system_id":"levelo_inurba_marseille","lat":43.323597,"lon":5.367687,"is_reserved":false,"is_disabled":false,"rental_uris":{"android":"levelo://app?vid=e96e0c5f-d0e5-478b-b4aa-43a39d7ff26e","ios":"levelo://app?vid=e96e0c5f-d0e5-478b-b4aa-43a39d7ff26e"},"vehicle_type_id":"4","last_reported":1741065008,"current_range_meters":17200,"station_id":"ce4bhsh2rcd13ifvqi2g","pricing_plan_id":"cebpf4jnsgd1na2vs0mg"},{"bike_id":"0798275a-ebea-47ce-84e9-db2a1c955ac9","system_id":"levelo_inurba_marseille","lat":43.29579,"lon":5.38702,"is_reserved":false,"is_disabled":false,"rental_uris":{"android":"levelo://app?vid=0798275a-ebea-47ce-84e9-db2a1c955ac9","ios":"levelo://app?vid=0798275a-ebea-47ce-84e9-db2a1c955ac9"},"vehicle_type_id":"4","last_reported":1741065008,"current_range_meters":17200,"station_id":"","pricing_plan_id":"cebpf4jnsgd1na2vs0mg"},{"bike_id":"a97c7e93-7e5d-44cd-9648-a62234ae51ba","system_id":"levelo_inurba_marseille","lat":43.305933,"lon":5.372142,"is_reserved":false,"is_disabled":false,"rental_uris":{"android":"levelo://app?vid=a97c7e93-7e5d-44cd-9648-a62234ae51ba","ios":"levelo://app?vid=a97c7e93-7e5d-44cd-9648-a62234ae51ba"},"vehicle_type_id":"4","last_reported":1741065008,"current_range_meters":17200,"station_id":"ce4bgqh2rcd13ifvqc4g","pricing_plan_id":"cebpf4jnsgd1na2vs0mg"},{"bike_id":"c32f0fb3-9a9c-4f87-82c0-7c4aa19cb97e","system_id":"levelo_inurba_marseille","lat":43.28451,"lon":5.358854,"is_reserved":false,"is_disabled":false,"rental_uris":{"android":"levelo://app?vid=c32f0fb3-9a9c-4f87-82c0-7c4aa19cb97e","ios":"levelo://app?vid=c32f0fb3-9a9c-4f87-82c0-7c4aa19cb97e"},"vehicle_type_id":"4","last_reported":1741065008,"current_range_meters":17600,"station_id":"ce4bhah2rcd13ifvqei0","pricing_plan_id":"cebpf4jnsgd1na2vs0mg"},{"bike_id":"75b2f01b-8abe-4cdc-b90e-57d73a0ef659","system_id":"levelo_inurba_marseille","lat":43.2894,"lon":5.36634,"is_reserved":false,"is_disabled":true,"rental_uris":{"android":"levelo://app?vid=75b2f01b-8abe-4cdc-b90e-57d73a0ef659","ios":"levelo://app?vid=75b2f01b-8abe-4cdc-b90e-57d73a0ef659"},"vehicle_type_id":"4","last_reported":1741065008,"current_range_meters":17600,"station_id":"ce4bhap2rcd13ifvqek0","pricing_plan_id":"cebpf4jnsgd1na2vs0mg"},{"bike_id":"3eee0dc5-ae82-4a87-84bd-e56ec3329485","system_id":"levelo_inurba_marseille","lat":43.24626,"lon":5.38897,"is_reserved":false,"is_disabled":false,"rental_uris":{"android":"levelo://app?vid=3eee0dc5-ae82-4a87-84bd-e56ec3329485","ios":"levelo://app?vid=3eee0dc5-ae82-4a87-84bd-e56ec3329485"},"vehicle_type_id":"4","last_reported":1741065008,"current_range_meters":17600,"station_id":"ce4bhg12rcd13ifvqf60","pricing_plan_id":"cebpf4jnsgd1na2vs0mg"},{"bike_id":"d0c1d623-11ab-4348-95de-20d490237449","system_id":"levelo_inurba_marseille","lat":43.30944,"lon":5.39037,"is_reserved":false,"is_disabled":false,"rental_uris":{"android":"levelo://app?vid=d0c1d623-11ab-4348-95de-20d490237449","ios":"levelo://app?vid=d0c1d623-11ab-4348-95de-20d490237449"},"vehicle_type_id":"4","last_reported":1741065008,"current_range_meters":17600,"station_id":"ce4bgup2rcd13ifvqco0","pricing_plan_id":"cebpf4jnsgd1na2vs0mg"},{"bike_id":"7ad449bc-99c2-472f-b781-ad26766d1190","system_id":"levelo_inurba_marseille","lat":43.26057,"lon":5.39403,"is_reserved":false,"is_disabled":false,"rental_uris":{"android":"levelo://app?vid=7ad449bc-99c2-472f-b781-ad26766d1190","ios":"levelo://app?vid=7ad449bc-99c2-472f-b781-ad26766d1190"},"vehicle_type_id":"4","last_reported":1741065008,"current_range_meters":17600,"station_id":"ce4bhh92rcd13ifvqfj0","pricing_plan_id":"cebpf4jnsgd1na2vs0mg"},{"bike_id":"fa005133-6c44-4383-bcee-bb6e6314ea35","system_id":"levelo_inurba_marseille","lat":43.28664,"lon":5.36341,"is_reserved":false,"is_disabled":false,"rental_uris":{"android":"levelo://app?vid=fa005133-6c44-4383-bcee-bb6e6314ea35","ios":"levelo://app?vid=fa005133-6c44-4383-bcee-bb6e6314ea35"},"vehicle_type_id":"4","last_reported":1741065008,"current_range_meters":17600,"station_id":"ce4bhah2rcd13ifvqej0","pricing_plan_id":"cebpf4jnsgd1na2vs0mg"},{"bike_id":"31d12a73-0bdf-44ae-a9d6-e9e89fc98019","system_id":"levelo_inurba_marseille","lat":43.26021,"lon":5.37581,"is_reserved":false,"is_disabled":true,"rental_uris":{"android":"levelo://app?vid=31d12a73-0bdf-44ae-a9d6-e9e89fc98019","ios":"levelo://app?vid=31d12a73-0bdf-44ae-a9d6-e9e89fc98019"},"vehicle_type_id":"4","last_reported":1741065008,"current_range_meters":17600,"station_id":"ce4bhgh2rcd13ifvqfa0","pricing_plan_id":"cebpf4jnsgd1na2vs0mg"},{"bike_id":"631cf633-3786-4152-bfc4-a564708e22fd","system_id":"levelo_inurba_marseille","lat":43.284496,"lon":5.358843,"is_reserved":false,"is_disabled":false,"rental_uris":{"android":"levelo://app?vid=631cf633-3786-4152-bfc4-a564708e22fd","ios":"levelo://app?vid=631cf633-3786-4152-bfc4-a564708e22fd"},"vehicle_type_id":"4","last_reported":1741065008,"current_range_meters":17600,"station_id":"ce4bhah2rcd13ifvqei0","pricing_plan_id":"cebpf4jnsgd1na2vs0mg"},{"bike_id":"f587eca0-3c84-43be-bf0b-92ceb8a8daab","system_id":"levelo_inurba_marseille","lat":43.30602,"lon":5.37216,"is_reserved":false,"is_disabled":false,"rental_uris":{"android":"levelo://app?vid=f587eca0-3c84-43be-bf0b-92ceb8a8daab","ios":"levelo://app?vid=f587eca0-3c84-43be-bf0b-92ceb8a8daab"},"vehicle_type_id":"4","last_reported":1741065008,"current_range_meters":18000,"station_id":"ce4bgqh2rcd13ifvqc4g","pricing_plan_id":"cebpf4jnsgd1na2vs0mg"},