{"last_updated":1704395120,"ttl":30,"version":"2.2","data":{"bikes":[{"bike_id":"3f1a173d-3fce-46e0-b9c4-0a97d03975d8","system_id":"levelo_inurba_marseille","lat":43.314811,"lon":5.373103,"is_reserved":false,"is_disabled":false,"rental_uris":{"android":"levelo://app?vid=3f1a173d-3fce-46e0-b9c4-0a97d03975d8","ios":"levelo://app?vid=3f1a173d-3fce-46e0-b9c4-0a97d03975d8"},"vehicle_type_id":"4","last_reported":1704395121,"current_range_meters":20800,"station_id":"ce4bgt12rcd13ifvqcd0","pricing_plan_id":"free"},{"bike_id":"22133c19-5c56-47f7-a129-77a2305d9a45","system_id":"levelo_inurba_marseille","lat":43.314811,"lon":5.373103,"is_reserved":false,"is_disabled":false,"rental_uris":{"android":"levelo://app?vid=22133c19-5c56-47f7-a129-77a2305d9a45","ios":"levelo://app?vid=22133c19-5c56-47f7-a129-77a2305d9a45"},"vehicle_type_id":"4","last_reported":1704395121,"current_range_meters":6000,"station_id":"ce4bgt12rcd13ifvqcd0","pricing_plan_id":"free"},{"bike_id":"aed15c81-6fc4-4623-93fd-58380d778062","system_id":"levelo_inurba_marseille","lat":43.314811,"lon":5.373104,"is_reserved":false,"is_disabled":false,"rental_uris":{"android":"levelo://app?vid=aed15c81-6fc4-4623-93fd-58380d778062","ios":"levelo://app?vid=aed15c81-6fc4-4623-93fd-58380d778062"},"vehicle_type_id":"4","last_reported":1704395121,"current_range_meters":4800,"station_id":"ce4bgt12rcd13ifvqcd0","pricing_plan_id":"free"},{"bike_id":"3e634fac-c915-4a68-904c-2d86e3d27a05","system_id":"levelo_inurba_marseille","lat":43.309039,"lon":5.371797,"is_reserved":false,"is_disabled":false,"rental_uris":{"android":"levelo://app?vid=3e634fac-c915-4a68-904c-2d86e3d27a05","ios":"levelo://app?vid=3e634fac-c915-4a68-904c-2d86e3d27a05"},"vehicle_type_id":"4","last_reported":1704395121,"current_range_meters":1200,"station_id":"ce4bguh2rcd13ifvqckg","pricing_plan_id":"free"},{"bike_id":"85fefc4f-2dbd-4739-b3d9-4e29450fd55b","system_id":"levelo_inurba_marseille","lat":43.309039,"lon":5.371797,"is_reserved":false,"is_disabled":false,"rental_uris":{"android":"levelo://app?vid=85fefc4f-2dbd-4739-b3d9-4e29450fd55b","ios":"levelo://app?vid=85fefc4f-2dbd-4739-b3d9-4e29450fd55b"},"vehicle_type_id":"4","last_reported":1704395121,"current_range_meters":2000,"station_id":"ce4bguh2rcd13ifvqckg","pricing_plan_id":"free"},{"bike_id":"38736f01-1cdb-4efa-bd91-23fae2b6608f","system_id":"levelo_inurba_marseille","lat":43.309039,"lon":5.371797,"is_reserved":false,"is_disabled":false,"rental_uris":{"android":"levelo://app?vid=38736f01-1cdb-4efa-bd91-23fae2b6608f","ios":"levelo://app?vid=38736f01-1cdb-4efa-bd91-23fae2b6608f"},"vehicle_type_id":"4","last_reported":1704395121,"current_range_meters":29600,"station_id":"ce4bguh2rcd13ifvqckg","pricing_plan_id":"free"},{"bike_id":"4573ad02-fe87-446b-a714-a0405b396b0f","system_id":"levelo_inurba_marseille","lat":43.305975,"lon":5.372114,"is_reserved":false,"is_disabled":false,"rental_uris":{"android":"levelo://app?vid=4573ad02-fe87-446b-a714-a0405b396b0f","ios":"levelo://app?vid=4573ad02-fe87-446b-a714-a0405b396b0f"},"vehicle_type_id":"4","last_reported":1704395121,"current_range_meters":0,"station_id":"ce4bgqh2rcd13ifvqc4g","pricing_plan_id":"free"},{"bike_id":"8f20fd1d-4b5f-4b10-8a6e-fe021223b97b","system_id":"levelo_inurba_marseille","lat":43.308323,"lon":5.376578,"is_reserved":false,"is_disabled":false,"rental_uris":{"android":"levelo://app?vid=8f20fd1d-4b5f-4b10-8a6e-fe021223b97b","ios":"levelo://app?vid=8f20fd1d-4b5f-4b10-8a6e-fe021223b97b"},"vehicle_type_id":"4","last_reported":1704395121,"current_range_meters":8000,"station_id":"ce4bgv92rcd13ifvqcq0","pricing_plan_id":"free"},{"bike_id":"c4e90871-bb94-4085-82dc-ccbd997a22ca","system_id":"levelo_inurba_marseille","lat":43.31529,"lon":5.37899,"is_reserved":false,"is_disabled":false,"rental_uris":{"android":"levelo://app?vid=c4e90871-bb94-4085-82dc-ccbd997a22ca","ios":"levelo://app?vid=c4e90871-bb94-4085-82dc-ccbd997a22ca"},"vehicle_type_id":"4","last_reported":1704395121,"current_range_meters":18000,"station_id":"","pricing_plan_id":"free"},{"bike_id":"b2f736b9-5add-4644-b351-74e3e3aa3500","system_id":"levelo_inurba_marseille","lat":43.31539,"lon":5.38024,"is_reserved":false,"is_disabled":false,"rental_uris":{"android":"levelo://app?vid=b2f736b9-5add-4644-b351-74e3e3aa3500","ios":"levelo://app?vid=b2f736b9-5add-4644-b351-74e3e3aa3500"},"vehicle_type_id":"4","last_reported":1704395121,"current_range_meters":22400,"station_id":"ce4bhsp2rcd13ifvqi50","pricing_plan_id":"free"},{"bike_id":"4ae849f3-4dd9-49d7-b4ab-7662c01baa87","system_id":"levelo_inurba_marseille","lat":43.308012,"lon":5.381511,"is_reserved":false,"is_disabled":false,"rental_uris":{"android":"levelo://app?vid=4ae849f3-4dd9-49d7-b4ab-7662c01baa87","ios":"levelo://app?vid=4ae849f3-4dd9-49d7-b4ab-7662c01baa87"},"vehicle_type_id":"4","last_reported":1704395121,"current_range_meters":12400,"station_id":"ce4bgt12rcd13ifvqce0","pricing_plan_id":"free"},{"bike_id":"275c26d3-ae78-4dfd-8ae5-9ea38bca16b8","system_id":"levelo_inurba_marseille","lat":43.313717,"lon":5.383228,"is_reserved":false,"is_disabled":false,"rental_uris":{"android":"levelo://app?vid=275c26d3-ae78-4dfd-8ae5-9ea38bca16b8","ios":"levelo://app?vid=275c26d3-ae78-4dfd-8ae5-9ea38bca16b8"},"vehicle_type_id":"4","last_reported":1704395121,"current_range_meters":0,"station_id":"","pricing_plan_id":"free"},{"bike_id":"013cbfbc-c69b-405c-b170-86bd90d850f6","system_id":"levelo_inurba_marseille","lat":43.304606,"lon":5.379026,"is_reserved":false,"is_disabled":false,"rental_uris":{"android":"levelo://app?vid=013cbfbc-c69b-405c-b170-86bd90d850f6","ios":"levelo://app?vid=013cbfbc-c69b-405c-b170-86bd90d850f6"},"vehicle_type_id":"4","last_reported":1704395121,"current_range_meters":14000,"station_id":"ce4bgup2rcd13ifvqcn0","pricing_plan_id":"free"},{"bike_id":"d9e7b2c9-3fe5-4642-84bc-fbb3e5d6faec","system_id":"levelo_inurba_marseille","lat":43.324771,"lon":5.36557,"is_reserved":false,"is_disabled":false,"rental_uris":{"android":"levelo://app?vid=d9e7b2c9-3fe5-4642-84bc-fbb3e5d6faec","ios":"levelo://app?vid=d9e7b2c9-3fe5-4642-84bc-fbb3e5d6faec"},"vehicle_type_id":"4","last_reported":1704395121,"current_range_meters":19600,"station_id":"ce4bhs12rcd13ifvqhvg","pricing_plan_id":"free"},{"bike_id":"2f0863a1-116f-4a28-8132-69ea747fe013","system_id":"levelo_inurba_marseille","lat":43.301429,"lon":5.37413,"is_reserved":false,"is_disabled":false,"rental_uris":{"android":"levelo://app?vid=2f0863a1-116f-4a28-8132-69ea747fe013","ios":"levelo://app?vid=2f0863a1-116f-4a28-8132-69ea747fe013"},"vehicle_type_id":"4","last_reported":1704395121,"current_range_meters":14000,"station_id":"ce4bgs92rcd13ifvqcc0","pricing_plan_id":"free"},{"bike_id":"d7dea04c-b16e-44ab-89dd-805311b9280c","system_id":"levelo_inurba_marseille","lat":43.31993,"lon":5.3814,"is_reserved":false,"is_disabled":false,"rental_uris":{"android":"levelo://app?vid=d7dea04c-b16e-44ab-89dd-805311b9280c","ios":"levelo://app?vid=d7dea04c-b16e-44ab-89dd-805311b9280c"},"vehicle_type_id":"4","last_reported":1704395121,"current_range_meters":28800,"station_id":"ce4bhr12rcd13ifvqhpg","pricing_plan_id":"free"},{"bike_id":"f1da3a94-215d-4501-8200-3cdba5d93b71","system_id":"levelo_inurba_marseille","lat":43.31989,"lon":5.38154,"is_reserved":false,"is_disabled":false,"rental_uris":{"android":"levelo://app?vid=f1da3a94-215d-4501-8200-3cdba5d93b71","ios":"levelo://app?vid=f1da3a94-215d-4501-8200-3cdba5d93b71"},"vehicle_type_id":"4","last_reported":1704395121,"current_range_meters":26400,"station_id":"ce4bhr12rcd13ifvqhpg","pricing_plan_id":"free"},{"bike_id":"a8f66612-75a3-4ac8-abc1-61ed5d7e6452","system_id":"levelo_inurba_marseille","lat":43.31997,"lon":5.38153,"is_reserved":false,"is_disabled":false,"rental_uris":{"android":"levelo://app?vid=a8f66612-75a3-4ac8-abc1-61ed5d7e6452","ios":"levelo://app?vid=a8f66612-75a3-4ac8-abc1-61ed5d7e6452"},"vehicle_type_id":"4","last_reported":1704395121,"current_range_meters":0,"station_id":"ce4bhr12rcd13ifvqhpg","pricing_plan_id":"free"},{"bike_id":"f1339662-51db-4ceb-9d62-c7891632b9a2","system_id":"levelo_inurba_marseille","lat":43.31998,"lon":5.38153,"is_reserved":false,"is_disabled":false,"rental_uris":{"android":"levelo://app?vid=f1339662-51db-4ceb-9d62-c7891632b9a2","ios":"levelo://app?vid=f1339662-51db-4ceb-9d62-c7891632b9a2"},"vehicle_type_id":"4","last_reported":1704395121,"current_range_meters":29600,"station_id":"ce4bhr12rcd13ifvqhpg","pricing_plan_id":"free"},{"bike_id":"23e89972-cae0-4778-963a-5139eaa2874c","system_id":"levelo_inurba_marseille","lat":43.31997,"lon":5.38159,"is_reserved":false,"is_disabled":false,"rental_uris":{"android":"levelo://app?vid=23e89972-cae0-4778-963a-5139eaa2874c","ios":"levelo://app?vid=23e89972-cae0-4778-963a-5139eaa2874c"},"vehicle_type_id":"4","last_reported":1704395121,"current_range_meters":10000,"station_id":"ce4bhr12rcd13ifvqhpg","pricing_plan_id":"free"},{"bike_id":"17504bde-947a-4cd6-98b3-9a4c66aca99b","system_id":"levelo_inurba_marseille","lat":43.313827,"lon":5.385007,"is_reserved":false,"is_disabled":false,"rental_uris":{"android":"levelo://app?vid=17504bde-947a-4cd6-98b3-9a4c66aca99b","ios":"levelo://app?vid=17504bde-947a-4cd6-98b3-9a4c66aca99b"},"vehicle_type_id":"4","last_reported":1704395121,"current_range_meters":12400,"station_id":"ce4bgt92rcd13ifvqcf0","pricing_plan_id":"free"},{"bike_id":"ef6aa804-79f3-4f8a-aa93-904f0117c587","system_id":"levelo_inurba_marseille","lat":43.31373,"lon":5.38502,"is_reserved":false,"is_disabled":false,"rental_uris":{"android":"levelo://app?vid=ef6aa804-79f3-4f8a-aa93-904f0117c587","ios":"levelo://app?vid=ef6aa804-79f3-4f8a-aa93-904f0117c587"},"vehicle_type_id":"4","last_reported":1704395121,"current_range_meters":0,"station_id":"ce4bgt92rcd13ifvqcf0","pricing_plan_id":"free"},{"bike_id":"ccb15be2-893e-41e6-8e03-ca9d80ffe2ed","system_id":"levelo_inurba_marseille","lat":43.299724,"lon":5.371829,"is_reserved":false,"is_disabled":false,"rental_uris":{"android":"levelo://app?vid=ccb15be2-893e-41e6-8e03-ca9d80ffe2ed","ios":"levelo://app?vid=ccb15be2-893e-41e6-8e03-ca9d80ffe2ed"},"vehicle_type_id":"4","last_reported":1704395121,"current_range_meters":0,"station_id":"ce4bgr92rcd13ifvqc7g","pricing_plan_id":"free"},{"bike_id":"cc480a11-c117-4982-8d62-4b3f2223c728","system_id":"levelo_inurba_marseille","lat":43.299724,"lon":5.371829,"is_reserved":false,"is_disabled":false,"rental_uris":{"android":"levelo://app?vid=cc480a11-c117-4982-8d62-4b3f2223c728","ios":"levelo://app?vid=cc480a11-c117-4982-8d62-4b3f2223c728"},"vehicle_type_id":"4","last_reported":1704395121,"current_range_meters":14400,"station_id":"ce4bgr92rcd13ifvqc7g","pricing_plan_id":"free"},{"bike_id":"b22604ec-0c4b-41b4-a20e-38add68f7682","system_id":"levelo_inurba_marseille","lat":43.325657,"lon":5.374774,"is_reserved":false,"is_disabled":false,"rental_uris":{"android":"levelo://app?vid=b22604ec-0c4b-41b4-a20e-38add68f7682","ios":"levelo://app?vid=b22604ec-0c4b-41b4-a20e-38add68f7682"},"vehicle_type_id":"4","last_reported":1704395121,"current_range_meters":21200,"station_id":"","pricing_plan_id":"free"},{"bike_id":"41427138-dfb3-4ecb-90d4-69847c6ffe9d","system_id":"levelo_inurba_marseille","lat":43.298433,"lon":5.362774,"is_reserved":false,"is_disabled":false,"rental_uris":{"android":"levelo://app?vid=41427138-dfb3-4ecb-90d4-69847c6ffe9d","ios":"levelo://app?vid=41427138-dfb3-4ecb-90d4-69847c6ffe9d"},"vehicle_type_id":"4","last_reported":1704395121,"current_range_meters":18000,"station_id":"ce4bgpp2rcd13ifvqc3g","pricing_plan_id":"free"},{"bike_id":"db98d7e5-a9b6-4e39-a0e4-90cf5065276d","system_id":"levelo_inurba_marseille","lat":43.311687,"lon":5.386947,"is_reserved":false,"is_disabled":false,"rental_uris":{"android":"levelo://app?vid=db98d7e5-a9b6-4e39-a0e4-90cf5065276d","ios":"levelo://app?vid=db98d7e5-a9b6-4e39-a0e4-90cf5065276d"},"vehicle_type_id":"4","last_reported":1704395121,"current_range_meters":0,"station_id":"ce4bgv12rcd13ifvqcp0","pricing_plan_id":"free"},{"bike_id":"eff3ee2c-5c0b-4ead-a762-529cb32fe243","system_id":"levelo_inurba_marseille","lat":43.298433,"lon":5.362774,"is_reserved":false,"is_disabled":false,"rental_uris":{"android":"levelo://app?vid=eff3ee2c-5c0b-4ead-a762-529cb32fe243","ios":"levelo://app?vid=eff3ee2c-5c0b-4ead-a762-529cb32fe243"},"vehicle_type_id":"4","last_reported":1704395121,"current_range_meters":22000,"station_id":"ce4bgpp2rcd13ifvqc3g","pricing_plan_id":"free"},{"bike_id":"483f6fa2-2de2-4f49-9b86-4157edd6bcb4","system_id":"levelo_inurba_marseille","lat":43.305308,"lon":5.38429,"is_reserved":false,"is_disabled":false,"rental_uris":{"android":"levelo://app?vid=483f6fa2-2de2-4f49-9b86-4157edd6bcb4","ios":"levelo://app?vid=483f6fa2-2de2-4f49-9b86-4157edd6bcb4"},"vehicle_type_id":"4","last_reported":1704395121,"current_range_meters":9600,"station_id":"ce4bgg92rcd13ifvqb30","pricing_plan_id":"free"},{"bike_id":"7080c167-5dfa-48cb-97a3-d7664cb9349c","system_id":"levelo_inurba_marseille","lat":43.298433,"lon":5.362774,"is_reserved":false,"is_disabled":false,"rental_uris":{"android":"levelo://app?vid=7080c167-5dfa-48cb-97a3-d7664cb9349c","ios":"levelo://app?vid=7080c167-5dfa-48cb-97a3-d7664cb9349c"},"vehicle_type_id":"4","last_reported":1704395121,"current_range_meters":24000,"station_id":"ce4bgpp2rcd13ifvqc3g","pricing_plan_id":"free"},{"bike_id":"bd7b91ae-0566-4b2e-8963-dd574b3bf9ad","system_id":"levelo_inurba_marseille","lat":43.311722,"lon":5.387247,"is_reserved":false,"is_disabled":false,"rental_uris":{"android":"levelo://app?vid=bd7b91ae-0566-4b2e-8963-dd574b3bf9ad","ios":"levelo://app?vid=bd7b91ae-0566-4b2e-8963-dd574b3bf9ad"},"vehicle_type_id":"4","last_reported":1704395121,"current_range_meters":22000,"station_id":"ce4bgv12rcd13ifvqcp0","pricing_plan_id":"free"},{"bike_id":"42417447-5269-42ab-b331-b7ee94937d8f","system_id":"levelo_inurba_marseille","lat":43.311722,"lon":5.387247,"is_reserved":false,"is_disabled":false,"rental_uris":{"android":"levelo://app?vid=42417447-5269-42ab-b331-b7ee94937d8f","ios":"levelo://app?vid=42417447-5269-42ab-b331-b7ee94937d8f"},"vehicle_type_id":"4","last_reported":1704395121,"current_range_meters":10400,"station_id":"ce4bgv12rcd13ifvqcp0","pricing_plan_id":"free"},{"bike_id":"cd7a5cb6-c67d-4300-8e23-6b829555bedd","system_id":"levelo_inurba_marseille","lat":43.311722,"lon":5.387247,"is_reserved":false,"is_disabled":false,"rental_uris":{"android":"levelo://app?vid=cd7a5cb6-c67d-4300-8e23-6b829555bedd","ios":"levelo://app?vid=cd7a5cb6-c67d-4300-8e23-6b829555bedd"},"vehicle_type_id":"4","last_reported":1704395121,"current_range_meters":30800,"station_id":"ce4bgv12rcd13ifvqcp0","pricing_plan_id":"free"},{"bike_id":"0bc7ad39-3608-4c43-89ec-85133441f01f","system_id":"levelo_inurba_marseille","lat":43.322872,"lon":5.382756,"is_reserved":false,"is_disabled":false,"rental_uris":{"android":"levelo://app?vid=0bc7ad39-3608-4c43-89ec-85133441f01f","ios":"levelo://app?vid=0bc7ad39-3608-4c43-89ec-85133441f01f"},"vehicle_type_id":"4","last_reported":1704395121,"current_range_meters":14800,"station_id":"ce4bhr12rcd13ifvqhqg","pricing_plan_id":"free"},{"bike_id":"4c685cb6-62c0-4268-8ed5-b01f21429f68","system_id":"levelo_inurba_marseille","lat":43.322872,"lon":5.382756,"is_reserved":false,"is_disabled":false,"rental_uris":{"android":"levelo://app?vid=4c685cb6-62c0-4268-8ed5-b01f21429f68","ios":"levelo://app?vid=4c685cb6-62c0-4268-8ed5-b01f21429f68"},"vehicle_type_id":"4","last_reported":1704395121,"current_range_meters":7200,"station_id":"ce4bhr12rcd13ifvqhqg","pricing_plan_id":"free"},{"bike_id":"f53e7a9d-7ee6-4428-85bd-3db5d7cc3975","system_id":"levelo_inurba_marseille","lat":43.322872,"lon":5.382756,"is_reserved":false,"is_disabled":false,"rental_uris":{"android":"levelo://app?vid=f53e7a9d-7ee6-4428-85bd-3db5d7cc3975","ios":"levelo://app?vid=f53e7a9d-7ee6-4428-85bd-3db5d7cc3975"},"vehicle_type_id":"4","last_reported":1704395121,"current_range_meters":31600,"station_id":"ce4bhr12rcd13ifvqhqg","pricing_plan_id":"free"},{"bike_id":"7e69bdeb-fe69-4483-8ee7-88c81ad264d9","system_id":"levelo_inurba_marseille","lat":43.322872,"lon":5.382756,"is_reserved":false,"is_disabled":false,"rental_uris":{"android":"levelo://app?vid=7e69bdeb-fe69-4483-8ee7-88c81ad264d9","ios":"levelo://app?vid=7e69bdeb-fe69-4483-8ee7-88c81ad264d9"},"vehicle_type_id":"4","last_reported":1704395121,"current_range_meters":27200,"station_id":"ce4bhr12rcd13ifvqhqg","pricing_plan_id":"free"},{"bike_id":"a6953f89-b867-47c2-a99f-949ca50d8a77","system_id":"levelo_inurba_marseille","lat":43.32825,"lon":5.36675,"is_reserved":false,"is_disabled":false,"rental_uris":{"android":"levelo://app?vid=a6953f89-b867-47c2-a99f-949ca50d8a77","ios":"levelo://app?vid=a6953f89-b867-47c2-a99f-949ca50d8a77"},"vehicle_type_id":"4","last_reported":1704395121,"current_range_meters":16000,"station_id":"ce4bhs92rcd13ifvqi0g","pricing_plan_id":"free"},{"bike_id":"1bb80286-6712-4d1f-985b-6846055ae321","system_id":"levelo_inurba_marseille","lat":43.328371,"lon":5.366909,"is_reserved":false,"is_disabled":false,"rental_uris":{"android":"levelo://app?vid=1bb80286-6712-4d1f-985b-6846055ae321","ios":"levelo://app?vid=1bb80286-6712-4d1f-985b-6846055ae321"},"vehicle_type_id":"4","last_reported":1704395121,"current_range_meters":400,"station_id":"ce4bhs92rcd13ifvqi0g","pricing_plan_id":"free"},{"bike_id":"40547a36-645f-4cc6-8bf9-232a8ea96bf6","system_id":"levelo_inurba_marseille","lat":43.328371,"lon":5.366909,"is_reserved":false,"is_disabled":false,"rental_uris":{"android":"levelo://app?vid=40547a36-645f-4cc6-8bf9-232a8ea96bf6","ios":"levelo://app?vid=40547a36-645f-4cc6-8bf9-232a8ea96bf6"},"vehicle_type_id":"4","last_reported":1704395121,"current_range_meters":8400,"station_id":"ce4bhs92rcd13ifvqi0g","pricing_plan_id":"free"},{"bike_id":"53ddec21-813d-487a-90c5-75b0ffb959af","system_id":"levelo_inurba_marseille","lat":43.328371,"lon":5.366909,"is_reserved":false,"is_disabled":false,"rental_uris":{"android":"levelo://app?vid=53ddec21-813d-487a-90c5-75b0ffb959af","ios":"levelo://app?vid=53ddec21-813d-487a-90c5-75b0ffb959af"},"vehicle_type_id":"4","last_reported":1704395121,"current_range_meters":26400,"station_id":"ce4bhs92rcd13ifvqi0g","pricing_plan_id":"free"},{"bike_id":"95e60a05-c3f6-42d6-b8d8-8e09a3364abf","system_id":"levelo_inurba_marseille","lat":43.328371,"lon":5.366909,"is_reserved":false,"is_disabled":false,"rental_uris":{"android":"levelo://app?vid=95e60a05-c3f6-42d6-b8d8-8e09a3364abf","ios":"levelo://app?vid=95e60a05-c3f6-42d6-b8d8-8e09a3364abf"},"vehicle_type_id":"4","last_reported":1704395121,"current_range_meters":11600,"station_id":"ce4bhs92rcd13ifvqi0g","pricing_plan_id":"free"},{"bike_id":"461bd4a8-8c0a-40b2-b31e-18ea9f3d52c1","system_id":"levelo_inurba_marseille","lat":43.297163,"lon":5.365866,"is_reserved":false,"is_disabled":false,"rental_uris":{"android":"levelo://app?vid=461bd4a8-8c0a-40b2-b31e-18ea9f3d52c1","ios":"levelo://app?vid=461bd4a8-8c0a-40b2-b31e-18ea9f3d52c1"},"vehicle_type_id":"4","last_reported":1704395121,"current_range_meters":26400,"station_id":"ce4bgn12rcd13ifvqbt0","pricing_plan_id":"free"},{"bike_id":"4d6cbba3-2e55-4f7b-870f-2fed43f3ec1c","system_id":"levelo_inurba_marseille","lat":43.328358,"lon":5.366923,"is_reserved":false,"is_disabled":false,"rental_uris":{"android":"levelo://app?vid=4d6cbba3-2e55-4f7b-870f-2fed43f3ec1c","ios":"levelo://app?vid=4d6cbba3-2e55-4f7b-870f-2fed43f3ec1c"},"vehicle_type_id":"4","last_reported":1704395121,"current_range_meters":15200,"station_id":"ce4bhs92rcd13ifvqi0g","pricing_plan_id":"free"},{"bike_id":"f5ea3807-e68f-4271-ac0f-f937744bc55a","system_id":"levelo_inurba_marseille","lat":43.297163,"lon":5.365866,"is_reserved":false,"is_disabled":false,"rental_uris":{"android":"levelo://app?vid=f5ea3807-e68f-4271-ac0f-f937744bc55a","ios":"levelo://app?vid=f5ea3807-e68f-4271-ac0f-f937744bc55a"},"vehicle_type_id":"4","last_reported":1704395121,"current_range_meters":10800,"station_id":"ce4bgn12rcd13ifvqbt0","pricing_plan_id":"free"},{"bike_id":"370cccf7-c9ba-46c2-819b-c8e8cacc4c21","system_id":"levelo_inurba_marseille","lat":43.3277,"lon":5.37458,"is_reserved":false,"is_disabled":false,"rental_uris":{"android":"levelo://app?vid=370cccf7-c9ba-46c2-819b-c8e8cacc4c21","ios":"levelo://app?vid=370cccf7-c9ba-46c2-819b-c8e8cacc4c21"},"vehicle_type_id":"4","last_reported":1704395121,"current_range_meters":0,"station_id":"","pricing_plan_id":"free"},{"bike_id":"d3661675-ef34-4363-8f5c-3f830c1dd761","system_id":"levelo_inurba_marseille","lat":43.296079,"lon":5.367919,"is_reserved":false,"is_disabled":false,"rental_uris":{"android":"levelo://app?vid=d3661675-ef34-4363-8f5c-3f830c1dd761","ios":"levelo://app?vid=d3661675-ef34-4363-8f5c-3f830c1dd761"},"vehicle_type_id":"4","last_reported":1704395121,"current_range_meters":20800,"station_id":"ce4bgph2rcd13ifvqc2g","pricing_plan_id":"free"},{"bike_id":"42672ba1-1b6e-4b97-8e9f-22a1eb2cb4dc","system_id":"levelo_inurba_marseille","lat":43.30947,"lon":5.3903,"is_reserved":false,"is_disabled":false,"rental_uris":{"android":"levelo://app?vid=42672ba1-1b6e-4b97-8e9f-22a1eb2cb4dc","ios":"levelo://app?vid=42672ba1-1b6e-4b97-8e9f-22a1eb2cb4dc"},"vehicle_type_id":"4","last_reported":1704395121,"current_range_meters":12800,"station_id":"ce4bgup2rcd13ifvqco0","pricing_plan_id":"free"},{"bike_id":"5364ff76-1469-4e41-a001-3ec425a93233","system_id":"levelo_inurba_marseille","lat":43.317557,"lon":5.390173,"is_reserved":false,"is_disabled":false,"rental_uris":{"android":"levelo://app?vid=5364ff76-1469-4e41-a001-3ec425a93233","ios":"levelo://app?vid=5364ff76-1469-4e41-a001-3ec425a93233"},"vehicle_type_id":"4","last_reported":1704395121,"current_range_meters":22800,"station_id":"ce4bhqp2rcd13ifvqhng","pricing_plan_id":"free"},{"bike_id":"d60802d6-4f47-444a-b234-883690eec05b","system_id":"levelo_inurba_marseille","lat":43.33062,"lon":5.3627,"is_reserved":false,"is_disabled":false,"rental_uris":{"android":"levelo://app?vid=d60802d6-4f47-444a-b234-883690eec05b","ios":"levelo://app?vid=d60802d6-4f47-444a-b234-883690eec05b"},"vehicle_type_id":"4","last_reported":1704395121,"current_range_meters":7200,"station_id":"","pricing_plan_id":"free"},{"bike_id":"25c07937-f4ed-4cbf-8d6f-351c57451056","system_id":"levelo_inurba_marseille","lat":43.29608,"lon":5.37713,"is_reserved":false,"is_disabled":false,"rental_uris":{"android":"levelo://app?vid=25c07937-f4ed-4cbf-8d6f-351c57451056","ios":"levelo://app?vid=25c07937-f4ed-4cbf-8d6f-351c57451056"},"vehicle_type_id":"4","last_reported":1704395121,"current_range_meters":0,"station_id":"ce4bgi92rcd13ifvqb90","pricing_plan_id":"free"},{"bike_id":"21be94b6-01ea-4792-958a-4127bca5014e","system_id":"levelo_inurba_marseille","lat":43.299724,"lon":5.384848,"is_reserved":false,"is_disabled":false,"rental_uris":{"android":"levelo://app?vid=21be94b6-01ea-4792-958a-4127bca5014e","ios":"levelo://app?vid=21be94b6-01ea-4792-958a-4127bca5014e"},"vehicle_type_id":"4","last_reported":1704395121,"current_range_meters":16000,"station_id":"ce4bgj92rcd13ifvqbd0","pricing_plan_id":"free"},{"bike_id":"f0b6d312-75a1-4871-81db-471b59b9d449","system_id":"levelo_inurba_marseille","lat":43.295279,"lon":5.375048,"is_reserved":false,"is_disabled":false,"rental_uris":{"android":"levelo://app?vid=f0b6d312-75a1-4871-81db-471b59b9d449","ios":"levelo://app?vid=f0b6d312-75a1-4871-81db-471b59b9d449"},"vehicle_type_id":"4","last_reported":1704395121,"current_range_meters":28800,"station_id":"ce4bgkp2rcd13ifvqbmg","pricing_plan_id":"free"},{"bike_id":"e0021f43-de18-4772-bbd0-459c38734811","system_id":"levelo_inurba_marseille","lat":43.323633,"lon":5.38882,"is_reserved":false,"is_disabled":false,"rental_uris":{"android":"levelo://app?vid=e0021f43-de18-4772-bbd0-459c38734811","ios":"levelo://app?vid=e0021f43-de18-4772-bbd0-459c38734811"},"vehicle_type_id":"4","last_reported":1704395121,"current_range_meters":8800,"station_id":"ce4bhqp2rcd13ifvqhog","pricing_plan_id":"free"},{"bike_id":"e872454e-6410-4348-8fa2-0074c9698d1c","system_id":"levelo_inurba_marseille","lat":43.29601,"lon":5.381084,"is_reserved":false,"is_disabled":false,"rental_uris":{"android":"levelo://app?vid=e872454e-6410-4348-8fa2-0074c9698d1c","ios":"levelo://app?vid=e872454e-6410-4348-8fa2-0074c9698d1c"},"vehicle_type_id":"4","last_reported":1704395121,"current_range_meters":18400,"station_id":"ce4bgl12rcd13ifvqbo0","pricing_plan_id":"free"},{"bike_id":"aa3a694c-fc56-4ddf-ba29-25d009ca8206","system_id":"levelo_inurba_marseille","lat":43.29601,"lon":5.381084,"is_reserved":false,"is_disabled":false,"rental_uris":{"android":"levelo://app?vid=aa3a694c-fc56-4ddf-ba29-25d009ca8206","ios":"levelo://app?vid=aa3a694c-fc56-4ddf-ba29-25d009ca8206"},"vehicle_type_id":"4","last_reported":1704395121,"current_range_meters":24800,"station_id":"ce4bgl12rcd13ifvqbo0","pricing_plan_id":"free"},{"bike_id":"3843a7b3-72a8-4d76-8a20-877164fb00ad","system_id":"levelo_inurba_marseille","lat":43.292749,"lon":5.368402,"is_reserved":false,"is_disabled":false,"rental_uris":{"android":"levelo://app?vid=3843a7b3-72a8-4d76-8a20-877164fb00ad","ios":"levelo://app?vid=3843a7b3-72a8-4d76-8a20-877164fb00ad"},"vehicle_type_id":"4","last_reported":1704395121,"current_range_meters":14400,"station_id":"ce4bhbp2rcd13ifvqesg","pricing_plan_id":"free"},{"bike_id":"022b9adc-7b52-4e73-921e-89cfc53bdd44","system_id":"levelo_inurba_marseille","lat":43.292749,"lon":5.368402,"is_reserved":false,"is_disabled":false,"rental_uris":{"android":"levelo://app?vid=022b9adc-7b52-4e73-921e-89cfc53bdd44","ios":"levelo://app?vid=022b9adc-7b52-4e73-921e-89cfc53bdd44"},"vehicle_type_id":"4","last_reported":1704395121,"current_range_meters":0,"station_id":"ce4bhbp2rcd13ifvqesg","pricing_plan_id":"free"},{"bike_id":"69c8ad45-a664-4080-90e1-a51d45160154","system_id":"levelo_inurba_marseille","lat":43.293009,"lon":5.374584,"is_reserved":false,"is_disabled":false,"rental_uris":{"android":"levelo://app?vid=69c8ad45-a664-4080-90e1-a51d45160154","ios":"levelo://app?vid=69c8ad45-a664-4080-90e1-a51d45160154"},"vehicle_type_id":"4","last_reported":1704395121,"current_range_meters":0,"station_id":"ce4bgi12rcd13ifvqb70","pricing_plan_id":"free"},{"bike_id":"8765d45c-da9f-4938-8f29-93dabf1a0d7a","system_id":"levelo_inurba_marseille","lat":43.293009,"lon":5.374584,"is_reserved":false,"is_disabled":false,"rental_uris":{"android":"levelo://app?vid=8765d45c-da9f-4938-8f29-93dabf1a0d7a","ios":"levelo://app?vid=8765d45c-da9f-4938-8f29-93dabf1a0d7a"},"vehicle_type_id":"4","last_reported":1704395121,"current_range_meters":22800,"station_id":"ce4bgi12rcd13ifvqb70","pricing_plan_id":"free"},{"bike_id":"42bc875d-a402-4b91-a239-8cebe4020d10","system_id":"levelo_inurba_marseille","lat":43.293009,"lon":5.374584,"is_reserved":false,"is_disabled":false,"rental_uris":{"android":"levelo://app?vid=42bc875d-a402-4b91-a239-8cebe4020d10","ios":"levelo://app?vid=42bc875d-a402-4b91-a239-8cebe4020d10"},"vehicle_type_id":"4","last_reported":1704395121,"current_range_meters":31200,"station_id":"ce4bgi12rcd13ifvqb70","pricing_plan_id":"free"},{"bike_id":"3ec552fc-16ba-4149-9192-cde847b7c085","system_id":"levelo_inurba_marseille","lat":43.2936,"lon":5.37835,"is_reserved":false,"is_disabled":false,"rental_uris":{"android":"levelo://app?vid=3ec552fc-16ba-4149-9192-cde847b7c085","ios":"levelo://app?vid=3ec552fc-16ba-4149-9192-cde847b7c085"},"vehicle_type_id":"4","last_reported":1704395121,"current_range_meters":13200,"station_id":"ce4bgjh2rcd13ifvqbf0","pricing_plan_id":"free"},{"bike_id":"31dac812-94da-48b0-9cbe-280b5e99958c","system_id":"levelo_inurba_marseille","lat":43.292311,"lon":5.360731,"is_reserved":false,"is_disabled":false,"rental_uris":{"android":"levelo://app?vid=31dac812-94da-48b0-9cbe-280b5e99958c","ios":"levelo://app?vid=31dac812-94da-48b0-9cbe-280b5e99958c"},"vehicle_type_id":"4","last_reported":1704395121,"current_range_meters":16400,"station_id":"ce4bhbh2rcd13ifvqeqg","pricing_plan_id":"free"},{"bike_id":"65be5836-8ab2-482b-b2be-0334332708bb","system_id":"levelo_inurba_marseille","lat":43.294162,"lon":5.386292,"is_reserved":false,"is_disabled":false,"rental_uris":{"android":"levelo://app?vid=65be5836-8ab2-482b-b2be-0334332708bb","ios":"levelo://app?vid=65be5836-8ab2-482b-b2be-0334332708bb"},"vehicle_type_id":"4","last_reported":1704395121,"current_range_meters":0,"station_id":"ce4bh2h2rcd13ifvqdh0","pricing_plan_id":"free"},{"bike_id":"c5768c66-e567-46a5-878a-12383ebba57a","system_id":"levelo_inurba_marseille","lat":43.311632,"lon":5.396083,"is_reserved":false,"is_disabled":false,"rental_uris":{"android":"levelo://app?vid=c5768c66-e567-46a5-878a-12383ebba57a","ios":"levelo://app?vid=c5768c66-e567-46a5-878a-12383ebba57a"},"vehicle_type_id":"4","last_reported":1704395121,"current_range_meters":7600,"station_id":"","pricing_plan_id":"free"},{"bike_id":"d012e41d-0735-464b-80f5-6300e9bd1f76","system_id":"levelo_inurba_marseille","lat":43.2988,"lon":5.38907,"is_reserved":false,"is_disabled":false,"rental_uris":{"android":"levelo://app?vid=d012e41d-0735-464b-80f5-6300e9bd1f76","ios":"levelo://app?vid=d012e41d-0735-464b-80f5-6300e9bd1f76"},"vehicle_type_id":"4","last_reported":1704395121,"current_range_meters":15200,"station_id":"","pricing_plan_id":"free"},{"bike_id":"3ce33d4f-7591-481c-b379-4f4bfaf5279b","system_id":"levelo_inurba_marseille","lat":43.291675,"lon":5.371583,"is_reserved":false,"is_disabled":false,"rental_uris":{"android":"levelo://app?vid=3ce33d4f-7591-481c-b379-4f4bfaf5279b","ios":"levelo://app?vid=3ce33d4f-7591-481c-b379-4f4bfaf5279b"},"vehicle_type_id":"4","last_reported":1704395121,"current_range_meters":18800,"station_id":"ce4bha92rcd13ifvqeh0","pricing_plan_id":"free"},{"bike_id":"24cbf9e7-5b61-4294-a89d-92c524778687","system_id":"levelo_inurba_marseille","lat":43.29163,"lon":5.37161,"is_reserved":false,"is_disabled":false,"rental_uris":{"android":"levelo://app?vid=24cbf9e7-5b61-4294-a89d-92c524778687","ios":"levelo://app?vid=24cbf9e7-5b61-4294-a89d-92c524778687"},"vehicle_type_id":"4","last_reported":1704395121,"current_range_meters":25200,"station_id":"ce4bha92rcd13ifvqeh0","pricing_plan_id":"free"},{"bike_id":"b25ee30a-6ad7-4df0-821d-dde140def72f","system_id":"levelo_inurba_marseille","lat":43.291671,"lon":5.371575,"is_reserved":false,"is_disabled":false,"rental_uris":{"android":"levelo://app?vid=b25ee30a-6ad7-4df0-821d-dde140def72f","ios":"levelo://app?vid=b25ee30a-6ad7-4df0-821d-dde140def72f"},"vehicle_type_id":"4","last_reported":1704395121,"current_range_meters":2000,"station_id":"ce4bha92rcd13ifvqeh0","pricing_plan_id":"free"},{"bike_id":"b3f8a61a-364d-4f0e-ad6f-9906372f2dbf","system_id":"levelo_inurba_marseille","lat":43.291671,"lon":5.371575,"is_reserved":false,"is_disabled":false,"rental_uris":{"android":"levelo://app?vid=b3f8a61a-364d-4f0e-ad6f-9906372f2dbf","ios":"levelo://app?vid=b3f8a61a-364d-4f0e-ad6f-9906372f2dbf"},"vehicle_type_id":"4","last_reported":1704395121,"current_range_meters":25600,"station_id":"ce4bha92rcd13ifvqeh0","pricing_plan_id":"free"},{"bike_id":"6ef6db72-779e-4209-a286-2dda96846da5","system_id":"levelo_inurba_marseille","lat":43.313291,"lon":5.396838,"is_reserved":false,"is_disabled":false,"rental_uris":{"android":"levelo://app?vid=6ef6db72-779e-4209-a286-2dda96846da5","ios":"levelo://app?vid=6ef6db72-779e-4209-a286-2dda96846da5"},"vehicle_type_id":"4","last_reported":1704395121,"current_range_meters":21600,"station_id":"ce4bgvp2rcd13ifvqcu0","pricing_plan_id":"free"},{"bike_id":"6e6aea2e-6746-425e-ae3f-e73f5c833249","system_id":"levelo_inurba_marseille","lat":43.313291,"lon":5.396838,"is_reserved":false,"is_disabled":false,"rental_uris":{"android":"levelo://app?vid=6e6aea2e-6746-425e-ae3f-e73f5c833249","ios":"levelo://app?vid=6e6aea2e-6746-425e-ae3f-e73f5c833249"},"vehicle_type_id":"4","last_reported":1704395121,"current_range_meters":29600,"station_id":"ce4bgvp2rcd13ifvqcu0","pricing_plan_id":"free"},{"bike_id":"76cd2679-6a3d-4a00-8fe2-53d47fffa510","system_id":"levelo_inurba_marseille","lat":43.309047,"lon":5.396551,"is_reserved":false,"is_disabled":false,"rental_uris":{"android":"levelo://app?vid=76cd2679-6a3d-4a00-8fe2-53d47fffa510","ios":"levelo://app?vid=76cd2679-6a3d-4a00-8fe2-53d47fffa510"},"vehicle_type_id":"4","last_reported":1704395121,"current_range_meters":9600,"station_id":"ce4bh012rcd13ifvqcv0","pricing_plan_id":"free"},{"bike_id":"1bb5b44e-8135-4eed-8e0d-96b161fbe2e7","system_id":"levelo_inurba_marseille","lat":43.309047,"lon":5.396551,"is_reserved":false,"is_disabled":false,"rental_uris":{"android":"levelo://app?vid=1bb5b44e-8135-4eed-8e0d-96b161fbe2e7","ios":"levelo://app?vid=1bb5b44e-8135-4eed-8e0d-96b161fbe2e7"},"vehicle_type_id":"4","last_reported":1704395121,"current_range_meters":20400,"station_id":"ce4bh012rcd13ifvqcv0","pricing_plan_id":"free"},{"bike_id":"ff5b9743-d87c-46c3-b94b-957aa3927e6c","system_id":"levelo_inurba_marseille","lat":43.313291,"lon":5.396838,"is_reserved":false,"is_disabled":false,"rental_uris":{"android":"levelo://app?vid=ff5b9743-d87c-46c3-b94b-957aa3927e6c","ios":"levelo://app?vid=ff5b9743-d87c-46c3-b94b-957aa3927e6c"},"vehicle_type_id":"4","last_reported":1704395121,"current_range_meters":1200,"station_id":"ce4bgvp2rcd13ifvqcu0","pricing_plan_id":"free"},{"bike_id":"74cfa131-7ff6-4ea6-a5e0-3feb6166db52","system_id":"levelo_inurba_marseille","lat":43.309047,"lon":5.396551,"is_reserved":false,"is_disabled":false,"rental_uris":{"android":"levelo://app?vid=74cfa131-7ff6-4ea6-a5e0-3feb6166db52","ios":"levelo://app?vid=74cfa131-7ff6-4ea6-a5e0-3feb6166db52"},"vehicle_type_id":"4","last_reported":1704395121,"current_range_meters":8400,"station_id":"ce4bh012rcd13ifvqcv0","pricing_plan_id":"free"},{"bike_id":"50958556-5743-43a2-bf6e-a96f7c88d7a3","system_id":"levelo_inurba_marseille","lat":43.309038,"lon":5.396546,"is_reserved":false,"is_disabled":false,"rental_uris":{"android":"levelo://app?vid=50958556-5743-43a2-bf6e-a96f7c88d7a3","ios":"levelo://app?vid=50958556-5743-43a2-bf6e-a96f7c88d7a3"},"vehicle_type_id":"4","last_reported":1704395121,"current_range_meters":11600,"station_id":"ce4bh012rcd13ifvqcv0","pricing_plan_id":"free"},{"bike_id":"4d75aa5b-49a4-430d-8f7a-2c3b330826a7","system_id":"levelo_inurba_marseille","lat":43.313291,"lon":5.396838,"is_reserved":false,"is_disabled":false,"rental_uris":{"android":"levelo://app?vid=4d75aa5b-49a4-430d-8f7a-2c3b330826a7","ios":"levelo://app?vid=4d75aa5b-49a4-430d-8f7a-2c3b330826a7"},"vehicle_type_id":"4","last_reported":1704395121,"current_range_meters":22400,"station_id":"ce4bgvp2rcd13ifvqcu0","pricing_plan_id":"free"},{"bike_id":"a753388a-0e85-430d-8610-c9b31a3b5a6d","system_id":"levelo_inurba_marseille","lat":43.309038,"lon":5.396546,"is_reserved":false,"is_disabled":false,"rental_uris":{"android":"levelo://app?vid=a753388a-0e85-430d-8610-c9b31a3b5a6d","ios":"levelo://app?vid=a753388a-0e85-430d-8610-c9b31a3b5a6d"},"vehicle_type_id":"4","last_reported":1704395121,"current_range_meters":0,"station_id":"ce4bh012rcd13ifvqcv0","pricing_plan_id":"free"},{"bike_id":"11ebe11d-5eb5-4ea1-b905-a6590a77e53b","system_id":"levelo_inurba_marseille","lat":43.313291,"lon":5.396838,"is_reserved":false,"is_disabled":false,"rental_uris":{"android":"levelo://app?vid=11ebe11d-5eb5-4ea1-b905-a6590a77e53b","ios":"levelo://app?vid=11ebe11d-5eb5-4ea1-b905-a6590a77e53b"},"vehicle_type_id":"4","last_reported":1704395121,"current_range_meters":23200,"station_id":"ce4bgvp2rcd13ifvqcu0","pricing_plan_id":"free"},{"bike_id":"5ebab81c-726c-4c7d-adb4-882019490576","system_id":"levelo_inurba_marseille","lat":43.313291,"lon":5.396838,"is_reserved":false,"is_disabled":false,"rental_uris":{"android":"levelo://app?vid=5ebab81c-726c-4c7d-adb4-882019490576","ios":"levelo://app?vid=5ebab81c-726c-4c7d-adb4-882019490576"},"vehicle_type_id":"4","last_reported":1704395121,"current_range_meters":28400,"station_id":"ce4bgvp2rcd13ifvqcu0","pricing_plan_id":"free"},{"bike_id":"a1d4d6a9-131c-4e2d-8a0e-6c2a2e0e9747","system_id":"levelo_inurba_marseille","lat":43.313291,"lon":5.396838,"is_reserved":false,"is_disabled":false,"rental_uris":{"android":"levelo://app?vid=a1d4d6a9-131c-4e2d-8a0e-6c2a2e0e9747","ios":"levelo://app?vid=a1d4d6a9-131c-4e2d-8a0e-6c2a2e0e9747"},"vehicle_type_id":"4","last_reported":1704395121,"current_range_meters":17200,"station_id":"ce4bgvp2rcd13ifvqcu0","pricing_plan_id":"free"},{"bike_id":"31374201-e7bc-46e6-aaab-97b2318c8d02","system_id":"levelo_inurba_marseille","lat":43.309038,"lon":5.396546,"is_reserved":false,"is_disabled":false,"rental_uris":{"android":"levelo://app?vid=31374201-e7bc-46e6-aaab-97b2318c8d02","ios":"levelo://app?vid=31374201-e7bc-46e6-aaab-97b2318c8d02"},"vehicle_type_id":"4","last_reported":1704395121,"current_range_meters":13200,"station_id":"ce4bh012rcd13ifvqcv0","pricing_plan_id":"free"},{"bike_id":"a30ab2b9-d1da-4d38-9e85-f0d4ef57bea0","system_id":"levelo_inurba_marseille","lat":43.309038,"lon":5.396546,"is_reserved":false,"is_disabled":false,"rental_uris":{"android":"levelo://app?vid=a30ab2b9-d1da-4d38-9e85-f0d4ef57bea0","ios":"levelo://app?vid=a30ab2b9-d1da-4d38-9e85-f0d4ef57bea0"},"vehicle_type_id":"4","last_reported":1704395121,"current_range_meters":20400,"station_id":"ce4bh012rcd13ifvqcv0","pricing_plan_id":"free"},{"bike_id":"66d8f7ad-719a-499d-acd6-21d9f9724ee3","system_id":"levelo_inurba_marseille","lat":43.309047,"lon":5.396551,"is_reserved":false,"is_disabled":false,"rental_uris":{"android":"levelo://app?vid=66d8f7ad-719a-499d-acd6-21d9f9724ee3","ios":"levelo://app?vid=66d8f7ad-719a-499d-acd6-21d9f9724ee3"},"vehicle_type_id":"4","last_reported":1704395121,"current_range_meters":10000,"station_id":"ce4bh012rcd13ifvqcv0","pricing_plan_id":"free"},{"bike_id":"d870183d-edd2-443b-8023-0ed33540355a","system_id":"levelo_inurba_marseille","lat":43.309047,"lon":5.396551,"is_reserved":false,"is_disabled":false,"rental_uris":{"android":"levelo://app?vid=d870183d-edd2-443b-8023-0ed33540355a","ios":"levelo://app?vid=d870183d-edd2-443b-8023-0ed33540355a"},"vehicle_type_id":"4","last_reported":1704395121,"current_range_meters":13600,"station_id":"ce4bh012rcd13ifvqcv0","pricing_plan_id":"free"},{"bike_id":"0bf07b9a-e59c-4c73-88ed-bced5c2f015a","system_id":"levelo_inurba_marseille","lat":43.29529,"lon":5.385581,"is_reserved":false,"is_disabled":false,"rental_uris":{"android":"levelo://app?vid=0bf07b9a-e59c-4c73-88ed-bced5c2f015a","ios":"levelo://app?vid=0bf07b9a-e59c-4c73-88ed-bced5c2f015a"},"vehicle_type_id":"4","last_reported":1704395121,"current_range_meters":800,"station_id":"ce4bgih2rcd13ifvqba0","pricing_plan_id":"free"},{"bike_id":"4a9311c4-4db5-4367-b1f7-d435bd185033","system_id":"levelo_inurba_marseille","lat":43.33273,"lon":5.37989,"is_reserved":false,"is_disabled":false,"rental_uris":{"android":"levelo://app?vid=4a9311c4-4db5-4367-b1f7-d435bd185033","ios":"levelo://app?vid=4a9311c4-4db5-4367-b1f7-d435bd185033"},"vehicle_type_id":"4","last_reported":1704395121,"current_range_meters":5600,"station_id":"","pricing_plan_id":"free"},{"bike_id":"2f43a160-7cfe-45a9-bff6-1783f30a7ede","system_id":"levelo_inurba_marseille","lat":43.290779,"lon":5.371482,"is_reserved":false,"is_disabled":false,"rental_uris":{"android":"levelo://app?vid=2f43a160-7cfe-45a9-bff6-1783f30a7ede","ios":"levelo://app?vid=2f43a160-7cfe-45a9-bff6-1783f30a7ede"},"vehicle_type_id":"4","last_reported":1704395121,"current_range_meters":12800,"station_id":"ce4bh5p2rcd13ifvqe4g","pricing_plan_id":"free"},{"bike_id":"e2968eb1-9b4d-4db0-8c07-cbde0187b00a","system_id":"levelo_inurba_marseille","lat":43.294153,"lon":5.386305,"is_reserved":false,"is_disabled":false,"rental_uris":{"android":"levelo://app?vid=e2968eb1-9b4d-4db0-8c07-cbde0187b00a","ios":"levelo://app?vid=e2968eb1-9b4d-4db0-8c07-cbde0187b00a"},"vehicle_type_id":"4","last_reported":1704395121,"current_range_meters":0,"station_id":"ce4bh2h2rcd13ifvqdh0","pricing_plan_id":"free"},{"bike_id":"75a2a315-195d-49c4-b60f-bce0afa3c69b","system_id":"levelo_inurba_marseille","lat":43.28943,"lon":5.36639,"is_reserved":false,"is_disabled":false,"rental_uris":{"android":"levelo://app?vid=75a2a315-195d-49c4-b60f-bce0afa3c69b","ios":"levelo://app?vid=75a2a315-195d-49c4-b60f-bce0afa3c69b"},"vehicle_type_id":"4","last_reported":1704395121,"current_range_meters":20400,"station_id":"ce4bhap2rcd13ifvqek0","pricing_plan_id":"free"},{"bike_id":"7a87e663-60ad-4c93-b245-01789ae6a739","system_id":"levelo_inurba_marseille","lat":43.289184,"lon":5.366408,"is_reserved":false,"is_disabled":false,"rental_uris":{"android":"levelo://app?vid=7a87e663-60ad-4c93-b245-01789ae6a739","ios":"levelo://app?vid=7a87e663-60ad-4c93-b245-01789ae6a739"},"vehicle_type_id":"4","last_reported":1704395121,"current_range_meters":21200,"station_id":"ce4bhap2rcd13ifvqek0","pricing_plan_id":"free"},{"bike_id":"4d9d8050-3cc8-44a3-81b1-67d6cd92e692","system_id":"levelo_inurba_marseille","lat":43.289184,"lon":5.366408,"is_reserved":false,"is_disabled":false,"rental_uris":{"android":"levelo://app?vid=4d9d8050-3cc8-44a3-81b1-67d6cd92e692","ios":"levelo://app?vid=4d9d8050-3cc8-44a3-81b1-67d6cd92e692"},"vehicle_type_id":"4","last_reported":1704395121,"current_range_meters":10000,"station_id":"ce4bhap2rcd13ifvqek0","pricing_plan_id":"free"},{"bike_id":"42a2cc3e-5bb4-4712-946a-a221c380c889","system_id":"levelo_inurba_marseille","lat":43.295169,"lon":5.390426,"is_reserved":false,"is_disabled":false,"rental_uris":{"android":"levelo://app?vid=42a2cc3e-5bb4-4712-946a-a221c380c889","ios":"levelo://app?vid=42a2cc3e-5bb4-4712-946a-a221c380c889"},"vehicle_type_id":"4","last_reported":1704395121,"current_range_meters":10000,"station_id":"ce4bh3p2rcd13ifvqdp0","pricing_plan_id":"free"},{"bike_id":"abff31a0-75d9-4e3c-b21d-249f0fe16922","system_id":"levelo_inurba_marseille","lat":43.289184,"lon":5.366408,"is_reserved":false,"is_disabled":false,"rental_uris":{"android":"levelo://app?vid=abff31a0-75d9-4e3c-b21d-249f0fe16922","ios":"levelo://app?vid=abff31a0-75d9-4e3c-b21d-249f0fe16922"},"vehicle_type_id":"4","last_reported":1704395121,"current_range_meters":14800,"station_id":"ce4bhap2rcd13ifvqek0","pricing_plan_id":"free"},{"bike_id":"8e9c12a8-de2b-426f-b84d-d80d883be573","system_id":"levelo_inurba_marseille","lat":43.289468,"lon":5.363719,"is_reserved":false,"is_disabled":false,"rental_uris":{"android":"levelo://app?vid=8e9c12a8-de2b-426f-b84d-d80d883be573","ios":"levelo://app?vid=8e9c12a8-de2b-426f-b84d-d80d883be573"},"vehicle_type_id":"4","last_reported":1704395121,"current_range_meters":8800,"station_id":"ce4bhc92rcd13ifvqetg","pricing_plan_id":"free"},{"bike_id":"e455a49f-88f4-41da-939f-615544c806a4","system_id":"levelo_inurba_marseille","lat":43.292644,"lon":5.384257,"is_reserved":false,"is_disabled":false,"rental_uris":{"android":"levelo://app?vid=e455a49f-88f4-41da-939f-615544c806a4","ios":"levelo://app?vid=e455a49f-88f4-41da-939f-615544c806a4"},"vehicle_type_id":"4","last_reported":1704395121,"current_range_meters":6000,"station_id":"ce4bh692rcd13ifvqea0","pricing_plan_id":"free"},{"bike_id":"7840b54a-9627-47e9-92a8-ce8ed077e23a","system_id":"levelo_inurba_marseille","lat":43.292642,"lon":5.384254,"is_reserved":false,"is_disabled":false,"rental_uris":{"android":"levelo://app?vid=7840b54a-9627-47e9-92a8-ce8ed077e23a","ios":"levelo://app?vid=7840b54a-9627-47e9-92a8-ce8ed077e23a"},"vehicle_type_id":"4","last_reported":1704395121,"current_range_meters":15600,"station_id":"ce4bh692rcd13ifvqea0","pricing_plan_id":"free"},{"bike_id":"13f4da64-e3c1-4a0e-b684-d3a3ba417704","system_id":"levelo_inurba_marseille","lat":43.292642,"lon":5.384254,"is_reserved":false,"is_disabled":false,"rental_uris":{"android":"levelo://app?vid=13f4da64-e3c1-4a0e-b684-d3a3ba417704","ios":"levelo://app?vid=13f4da64-e3c1-4a0e-b684-d3a3ba417704"},"vehicle_type_id":"4","last_reported":1704395121,"current_range_meters":6800,"station_id":"ce4bh692rcd13ifvqea0","pricing_plan_id":"free"},{"bike_id":"9435232b-39f7-424d-8d06-78402e3fa216","system_id":"levelo_inurba_marseille","lat":43.290995,"lon":5.381361,"is_reserved":false,"is_disabled":false,"rental_uris":{"android":"levelo://app?vid=9435232b-39f7-424d-8d06-78402e3fa216","ios":"levelo://app?vid=9435232b-39f7-424d-8d06-78402e3fa216"},"vehicle_type_id":"4","last_reported":1704395121,"current_range_meters":12800,"station_id":"ce4bh512rcd13ifvqe2g","pricing_plan_id":"free"},{"bike_id":"e0645ca8-39c6-4745-bc29-134fbb1ea40f","system_id":"levelo_inurba_marseille","lat":43.290995,"lon":5.381361,"is_reserved":false,"is_disabled":false,"rental_uris":{"android":"levelo://app?vid=e0645ca8-39c6-4745-bc29-134fbb1ea40f","ios":"levelo://app?vid=e0645ca8-39c6-4745-bc29-134fbb1ea40f"},"vehicle_type_id":"4","last_reported":1704395121,"current_range_meters":4400,"station_id":"ce4bh512rcd13ifvqe2g","pricing_plan_id":"free"},{"bike_id":"f6ea19a4-5247-4d72-b65e-55422a9433c1","system_id":"levelo_inurba_marseille","lat":43.297815,"lon":5.393548,"is_reserved":false,"is_disabled":false,"rental_uris":{"android":"levelo://app?vid=f6ea19a4-5247-4d72-b65e-55422a9433c1","ios":"levelo://app?vid=f6ea19a4-5247-4d72-b65e-55422a9433c1"},"vehicle_type_id":"4","last_reported":1704395121,"current_range_meters":23200,"station_id":"chh1huq6cuj3fo74tm60","pricing_plan_id":"free"},{"bike_id":"32230324-0f77-491c-8408-723fc6d44383","system_id":"levelo_inurba_marseille","lat":43.295169,"lon":5.390426,"is_reserved":false,"is_disabled":false,"rental_uris":{"android":"levelo://app?vid=32230324-0f77-491c-8408-723fc6d44383","ios":"levelo://app?vid=32230324-0f77-491c-8408-723fc6d44383"},"vehicle_type_id":"4","last_reported":1704395121,"current_range_meters":0,"station_id":"ce4bh3p2rcd13ifvqdp0","pricing_plan_id":"free"},{"bike_id":"b4dc5f58-d698-47e4-9d04-a65a1aac924a","system_id":"levelo_inurba_marseille","lat":43.330442,"lon":5.389148,"is_reserved":false,"is_disabled":false,"rental_uris":{"android":"levelo://app?vid=b4dc5f58-d698-47e4-9d04-a65a1aac924a","ios":"levelo://app?vid=b4dc5f58-d698-47e4-9d04-a65a1aac924a"},"vehicle_type_id":"4","last_reported":1704395121,"current_range_meters":8000,"station_id":"ce4bhr92rcd13ifvqhrg","pricing_plan_id":"free"},{"bike_id":"a4544299-4117-4ba4-98ad-2dcd1cebe1e8","system_id":"levelo_inurba_marseille","lat":43.330442,"lon":5.389148,"is_reserved":false,"is_disabled":false,"rental_uris":{"android":"levelo://app?vid=a4544299-4117-4ba4-98ad-2dcd1cebe1e8","ios":"levelo://app?vid=a4544299-4117-4ba4-98ad-2dcd1cebe1e8"},"vehicle_type_id":"4","last_reported":1704395121,"current_range_meters":19200,"station_id":"ce4bhr92rcd13ifvqhrg","pricing_plan_id":"free"},{"bike_id":"a023d84b-11ca-49dd-9d6c-50372e788579","system_id":"levelo_inurba_marseille","lat":43.330442,"lon":5.389148,"is_reserved":false,"is_disabled":false,"rental_uris":{"android":"levelo://app?vid=a023d84b-11ca-49dd-9d6c-50372e788579","ios":"levelo://app?vid=a023d84b-11ca-49dd-9d6c-50372e788579"},"vehicle_type_id":"4","last_reported":1704395121,"current_range_meters":13600,"station_id":"ce4bhr92rcd13ifvqhrg","pricing_plan_id":"free"},{"bike_id":"7da19f74-ba7f-4bc9-841b-f11c963d1d8f","system_id":"levelo_inurba_marseille","lat":43.330442,"lon":5.389148,"is_reserved":false,"is_disabled":false,"rental_uris":{"android":"levelo://app?vid=7da19f74-ba7f-4bc9-841b-f11c963d1d8f","ios":"levelo://app?vid=7da19f74-ba7f-4bc9-841b-f11c963d1d8f"},"vehicle_type_id":"4","last_reported":1704395121,"current_range_meters":3600,"station_id":"ce4bhr92rcd13ifvqhrg","pricing_plan_id":"free"},{"bike_id":"a45508dc-3e20-4dc2-a3f2-c48092cac22d","system_id":"levelo_inurba_marseille","lat":43.330442,"lon":5.389148,"is_reserved":false,"is_disabled":false,"rental_uris":{"android":"levelo://app?vid=a45508dc-3e20-4dc2-a3f2-c48092cac22d","ios":"levelo://app?vid=a45508dc-3e20-4dc2-a3f2-c48092cac22d"},"vehicle_type_id":"4","last_reported":1704395121,"current_range_meters":30000,"station_id":"ce4bhr92rcd13ifvqhrg","pricing_plan_id":"free"},{"bike_id":"3537c72e-affb-4603-a0d4-44c57db301e5","system_id":"levelo_inurba_marseille","lat":43.330442,"lon":5.389148,"is_reserved":false,"is_disabled":false,"rental_uris":{"android":"levelo://app?vid=3537c72e-affb-4603-a0d4-44c57db301e5","ios":"levelo://app?vid=3537c72e-affb-4603-a0d4-44c57db301e5"},"vehicle_type_id":"4","last_reported":1704395121,"current_range_meters":25200,"station_id":"ce4bhr92rcd13ifvqhrg","pricing_plan_id":"free"},{"bike_id":"9c1b0148-8d75-4d47-a70e-457918051f4c","system_id":"levelo_inurba_marseille","lat":43.290094,"lon":5.381264,"is_reserved":false,"is_disabled":false,"rental_uris":{"android":"levelo://app?vid=9c1b0148-8d75-4d47-a70e-457918051f4c","ios":"levelo://app?vid=9c1b0148-8d75-4d47-a70e-457918051f4c"},"vehicle_type_id":"4","last_reported":1704395121,"current_range_meters":20800,"station_id":"ce4bh4p2rcd13ifvqe1g","pricing_plan_id":"free"},{"bike_id":"d61fef7e-74e2-4e8e-b691-888d899d0715","system_id":"levelo_inurba_marseille","lat":43.28856,"lon":5.358371,"is_reserved":false,"is_disabled":false,"rental_uris":{"android":"levelo://app?vid=d61fef7e-74e2-4e8e-b691-888d899d0715","ios":"levelo://app?vid=d61fef7e-74e2-4e8e-b691-888d899d0715"},"vehicle_type_id":"4","last_reported":1704395121,"current_range_meters":13200,"station_id":"ce4bhb12rcd13ifvqem0","pricing_plan_id":"free"},{"bike_id":"a882c849-12ab-4c3b-a5b0-7aef18c9bf37","system_id":"levelo_inurba_marseille","lat":43.290345,"lon":5.38646,"is_reserved":false,"is_disabled":false,"rental_uris":{"android":"levelo://app?vid=a882c849-12ab-4c3b-a5b0-7aef18c9bf37","ios":"levelo://app?vid=a882c849-12ab-4c3b-a5b0-7aef18c9bf37"},"vehicle_type_id":"4","last_reported":1704395121,"current_range_meters":25200,"station_id":"ce4bh4p2rcd13ifvqe0g","pricing_plan_id":"free"},{"bike_id":"3eee5431-37d0-42e3-ad80-0678ee5aba09","system_id":"levelo_inurba_marseille","lat":43.312609,"lon":5.401662,"is_reserved":false,"is_disabled":false,"rental_uris":{"android":"levelo://app?vid=3eee5431-37d0-42e3-ad80-0678ee5aba09","ios":"levelo://app?vid=3eee5431-37d0-42e3-ad80-0678ee5aba09"},"vehicle_type_id":"4","last_reported":1704395121,"current_range_meters":22000,"station_id":"ce4bh092rcd13ifvqd30","pricing_plan_id":"free"},{"bike_id":"b1f85b16-0aa9-4f72-8f1e-5042af9339aa","system_id":"levelo_inurba_marseille","lat":43.289184,"lon":5.366408,"is_reserved":false,"is_disabled":false,"rental_uris":{"android":"levelo://app?vid=b1f85b16-0aa9-4f72-8f1e-5042af9339aa","ios":"levelo://app?vid=b1f85b16-0aa9-4f72-8f1e-5042af9339aa"},"vehicle_type_id":"4","last_reported":1704395121,"current_range_meters":0,"station_id":"ce4bhap2rcd13ifvqek0","pricing_plan_id":"free"},{"bike_id":"cd17642c-aa95-4461-9b5c-dd710a418ce9","system_id":"levelo_inurba_marseille","lat":43.309371,"lon":5.401449,"is_reserved":false,"is_disabled":false,"rental_uris":{"android":"levelo://app?vid=cd17642c-aa95-4461-9b5c-dd710a418ce9","ios":"levelo://app?vid=cd17642c-aa95-4461-9b5c-dd710a418ce9"},"vehicle_type_id":"4","last_reported":1704395121,"current_range_meters":0,"station_id":"ce4bgvp2rcd13ifvqct0","pricing_plan_id":"free"},{"bike_id":"a38cb2cd-211a-406b-a45d-b2390548c22c","system_id":"levelo_inurba_marseille","lat":43.33753,"lon":5.37482,"is_reserved":false,"is_disabled":false,"rental_uris":{"android":"levelo://app?vid=a38cb2cd-211a-406b-a45d-b2390548c22c","ios":"levelo://app?vid=a38cb2cd-211a-406b-a45d-b2390548c22c"},"vehicle_type_id":"4","last_reported":1704395121,"current_range_meters":25200,"station_id":"","pricing_plan_id":"free"},{"bike_id":"40d6b8c5-27d8-4481-b128-bf329c9da903","system_id":"levelo_inurba_marseille","lat":43.30642,"lon":5.401031,"is_reserved":false,"is_disabled":false,"rental_uris":{"android":"levelo://app?vid=40d6b8c5-27d8-4481-b128-bf329c9da903","ios":"levelo://app?vid=40d6b8c5-27d8-4481-b128-bf329c9da903"},"vehicle_type_id":"4","last_reported":1704395121,"current_range_meters":9600,"station_id":"ce4bh112rcd13ifvqda0","pricing_plan_id":"free"},{"bike_id":"b452f7e8-ed22-45d9-8724-60c770f6087b","system_id":"levelo_inurba_marseille","lat":43.33769,"lon":5.37419,"is_reserved":false,"is_disabled":false,"rental_uris":{"android":"levelo://app?vid=b452f7e8-ed22-45d9-8724-60c770f6087b","ios":"levelo://app?vid=b452f7e8-ed22-45d9-8724-60c770f6087b"},"vehicle_type_id":"4","last_reported":1704395121,"current_range_meters":30000,"station_id":"","pricing_plan_id":"free"},{"bike_id":"38de82ba-9a22-4d1d-b18c-123321c3e8fe","system_id":"levelo_inurba_marseille","lat":43.33765,"lon":5.37485,"is_reserved":false,"is_disabled":false,"rental_uris":{"android":"levelo://app?vid=38de82ba-9a22-4d1d-b18c-123321c3e8fe","ios":"levelo://app?vid=38de82ba-9a22-4d1d-b18c-123321c3e8fe"},"vehicle_type_id":"4","last_reported":1704395121,"current_range_meters":28000,"station_id":"","pricing_plan_id":"free"},{"bike_id":"b1c951bc-6966-4ae7-9ac1-8c9537ff9829","system_id":"levelo_inurba_marseille","lat":43.301117,"lon":5.398795,"is_reserved":false,"is_disabled":false,"rental_uris":{"android":"levelo://app?vid=b1c951bc-6966-4ae7-9ac1-8c9537ff9829","ios":"levelo://app?vid=b1c951bc-6966-4ae7-9ac1-8c9537ff9829"},"vehicle_type_id":"4","last_reported":1704395121,"current_range_meters":3200,"station_id":"ce4bh0h2rcd13ifvqd40","pricing_plan_id":"free"},{"bike_id":"88b992ac-b851-4370-a5e1-696a7c2459ce","system_id":"levelo_inurba_marseille","lat":43.30131,"lon":5.398763,"is_reserved":false,"is_disabled":false,"rental_uris":{"android":"levelo://app?vid=88b992ac-b851-4370-a5e1-696a7c2459ce","ios":"levelo://app?vid=88b992ac-b851-4370-a5e1-696a7c2459ce"},"vehicle_type_id":"4","last_reported":1704395121,"current_range_meters":0,"station_id":"ce4bh0h2rcd13ifvqd40","pricing_plan_id":"free"},{"bike_id":"20fdb9d6-1928-4223-8066-e1e0e4b4026f","system_id":"levelo_inurba_marseille","lat":43.301117,"lon":5.398795,"is_reserved":false,"is_disabled":false,"rental_uris":{"android":"levelo://app?vid=20fdb9d6-1928-4223-8066-e1e0e4b4026f","ios":"levelo://app?vid=20fdb9d6-1928-4223-8066-e1e0e4b4026f"},"vehicle_type_id":"4","last_reported":1704395121,"current_range_meters":10800,"station_id":"ce4bh0h2rcd13ifvqd40","pricing_plan_id":"free"},{"bike_id":"e68e8b33-eb11-4b9d-a5c9-6babad66f539","system_id":"levelo_inurba_marseille","lat":43.28727,"lon":5.36078,"is_reserved":false,"is_disabled":false,"rental_uris":{"android":"levelo://app?vid=e68e8b33-eb11-4b9d-a5c9-6babad66f539","ios":"levelo://app?vid=e68e8b33-eb11-4b9d-a5c9-6babad66f539"},"vehicle_type_id":"4","last_reported":1704395121,"current_range_meters":25200,"station_id":"cki0cbj6b192h4jlfktg","pricing_plan_id":"free"},{"bike_id":"91f047d9-5543-43fb-992f-dcaca5f05d0a","system_id":"levelo_inurba_marseille","lat":43.28727,"lon":5.36078,"is_reserved":false,"is_disabled":false,"rental_uris":{"android":"levelo://app?vid=91f047d9-5543-43fb-992f-dcaca5f05d0a","ios":"levelo://app?vid=91f047d9-5543-43fb-992f-dcaca5f05d0a"},"vehicle_type_id":"4","last_reported":1704395121,"current_range_meters":21600,"station_id":"cki0cbj6b192h4jlfktg","pricing_plan_id":"free"},{"bike_id":"bc31ec8c-1bd2-44a6-a5a3-18703ab7909f","system_id":"levelo_inurba_marseille","lat":43.28727,"lon":5.36078,"is_reserved":false,"is_disabled":false,"rental_uris":{"android":"levelo://app?vid=bc31ec8c-1bd2-44a6-a5a3-18703ab7909f","ios":"levelo://app?vid=bc31ec8c-1bd2-44a6-a5a3-18703ab7909f"},"vehicle_type_id":"4","last_reported":1704395121,"current_range_meters":20800,"station_id":"cki0cbj6b192h4jlfktg","pricing_plan_id":"free"},{"bike_id":"cfc5d20c-e68d-4511-b4b7-1a84e959c9ad","system_id":"levelo_inurba_marseille","lat":43.286591,"lon":5.363346,"is_reserved":false,"is_disabled":false,"rental_uris":{"android":"levelo://app?vid=cfc5d20c-e68d-4511-b4b7-1a84e959c9ad","ios":"levelo://app?vid=cfc5d20c-e68d-4511-b4b7-1a84e959c9ad"},"vehicle_type_id":"4","last_reported":1704395121,"current_range_meters":31600,"station_id":"ce4bhah2rcd13ifvqej0","pricing_plan_id":"free"},{"bike_id":"4274818b-f38d-425f-b32e-71037e60ba1b","system_id":"levelo_inurba_marseille","lat":43.286591,"lon":5.363346,"is_reserved":false,"is_disabled":false,"rental_uris":{"android":"levelo://app?vid=4274818b-f38d-425f-b32e-71037e60ba1b","ios":"levelo://app?vid=4274818b-f38d-425f-b32e-71037e60ba1b"},"vehicle_type_id":"4","last_reported":1704395121,"current_range_meters":0,"station_id":"ce4bhah2rcd13ifvqej0","pricing_plan_id":"free"},{"bike_id":"0502a116-55ba-455a-8d75-a1c6ff274e8b","system_id":"levelo_inurba_marseille","lat":43.286961,"lon":5.373785,"is_reserved":false,"is_disabled":false,"rental_uris":{"android":"levelo://app?vid=0502a116-55ba-455a-8d75-a1c6ff274e8b","ios":"levelo://app?vid=0502a116-55ba-455a-8d75-a1c6ff274e8b"},"vehicle_type_id":"4","last_reported":1704395121,"current_range_meters":23200,"station_id":"ce4bh3p2rcd13ifvqdq0","pricing_plan_id":"free"},{"bike_id":"77f8a728-a701-4754-a5ef-a42cc1e6e28d","system_id":"levelo_inurba_marseille","lat":43.286591,"lon":5.363346,"is_reserved":false,"is_disabled":false,"rental_uris":{"android":"levelo://app?vid=77f8a728-a701-4754-a5ef-a42cc1e6e28d","ios":"levelo://app?vid=77f8a728-a701-4754-a5ef-a42cc1e6e28d"},"vehicle_type_id":"4","last_reported":1704395121,"current_range_meters":2400,"station_id":"ce4bhah2rcd13ifvqej0","pricing_plan_id":"free"},{"bike_id":"92375804-6874-48c8-bdb5-c66bd9867904","system_id":"levelo_inurba_marseille","lat":43.295196,"lon":5.39397,"is_reserved":false,"is_disabled":false,"rental_uris":{"android":"levelo://app?vid=92375804-6874-48c8-bdb5-c66bd9867904","ios":"levelo://app?vid=92375804-6874-48c8-bdb5-c66bd9867904"},"vehicle_type_id":"4","last_reported":1704395121,"current_range_meters":6800,"station_id":"ce4bh292rcd13ifvqdf0","pricing_plan_id":"free"},{"bike_id":"7c0a673a-159b-472a-a406-c0be3a9d7f30","system_id":"levelo_inurba_marseille","lat":43.290345,"lon":5.38646,"is_reserved":false,"is_disabled":false,"rental_uris":{"android":"levelo://app?vid=7c0a673a-159b-472a-a406-c0be3a9d7f30","ios":"levelo://app?vid=7c0a673a-159b-472a-a406-c0be3a9d7f30"},"vehicle_type_id":"4","last_reported":1704395121,"current_range_meters":11200,"station_id":"ce4bh4p2rcd13ifvqe0g","pricing_plan_id":"free"},{"bike_id":"432a7e90-b3dd-4002-8b26-9b5eba82e0ad","system_id":"levelo_inurba_marseille","lat":43.290331,"lon":5.386415,"is_reserved":false,"is_disabled":false,"rental_uris":{"android":"levelo://app?vid=432a7e90-b3dd-4002-8b26-9b5eba82e0ad","ios":"levelo://app?vid=432a7e90-b3dd-4002-8b26-9b5eba82e0ad"},"vehicle_type_id":"4","last_reported":1704395121,"current_range_meters":0,"station_id":"ce4bh4p2rcd13ifvqe0g","pricing_plan_id":"free"},{"bike_id":"2dfc78c4-bde6-40bb-b9dd-346600f91667","system_id":"levelo_inurba_marseille","lat":43.290336,"lon":5.386425,"is_reserved":false,"is_disabled":false,"rental_uris":{"android":"levelo://app?vid=2dfc78c4-bde6-40bb-b9dd-346600f91667","ios":"levelo://app?vid=2dfc78c4-bde6-40bb-b9dd-346600f91667"},"vehicle_type_id":"4","last_reported":1704395121,"current_range_meters":13200,"station_id":"ce4bh4p2rcd13ifvqe0g","pricing_plan_id":"free"},{"bike_id":"1bb56f2c-c2e7-432f-ac33-bb78aa08c4aa","system_id":"levelo_inurba_marseille","lat":43.290345,"lon":5.38646,"is_reserved":false,"is_disabled":false,"rental_uris":{"android":"levelo://app?vid=1bb56f2c-c2e7-432f-ac33-bb78aa08c4aa","ios":"levelo://app?vid=1bb56f2c-c2e7-432f-ac33-bb78aa08c4aa"},"vehicle_type_id":"4","last_reported":1704395121,"current_range_meters":28800,"station_id":"ce4bh4p2rcd13ifvqe0g","pricing_plan_id":"free"},{"bike_id":"47812b97-1b00-46b7-8ee4-88199cb6cb7b","system_id":"levelo_inurba_marseille","lat":43.290345,"lon":5.38646,"is_reserved":false,"is_disabled":false,"rental_uris":{"android":"levelo://app?vid=47812b97-1b00-46b7-8ee4-88199cb6cb7b","ios":"levelo://app?vid=47812b97-1b00-46b7-8ee4-88199cb6cb7b"},"vehicle_type_id":"4","last_reported":1704395121,"current_range_meters":22400,"station_id":"ce4bh4p2rcd13ifvqe0g","pricing_plan_id":"free"},{"bike_id":"69c3200a-aab4-4316-9a3a-42488d441609","system_id":"levelo_inurba_marseille","lat":43.289307,"lon":5.38406,"is_reserved":false,"is_disabled":false,"rental_uris":{"android":"levelo://app?vid=69c3200a-aab4-4316-9a3a-42488d441609","ios":"levelo://app?vid=69c3200a-aab4-4316-9a3a-42488d441609"},"vehicle_type_id":"4","last_reported":1704395121,"current_range_meters":24800,"station_id":"ce4bh612rcd13ifvqe6g","pricing_plan_id":"free"},{"bike_id":"3e88ab37-e587-49ef-a3c4-3cd4aecaf977","system_id":"levelo_inurba_marseille","lat":43.290336,"lon":5.386425,"is_reserved":false,"is_disabled":false,"rental_uris":{"android":"levelo://app?vid=3e88ab37-e587-49ef-a3c4-3cd4aecaf977","ios":"levelo://app?vid=3e88ab37-e587-49ef-a3c4-3cd4aecaf977"},"vehicle_type_id":"4","last_reported":1704395121,"current_range_meters":18400,"station_id":"ce4bh4p2rcd13ifvqe0g","pricing_plan_id":"free"},{"bike_id":"be00269d-fb13-4481-ae38-9ac9f9b029bb","system_id":"levelo_inurba_marseille","lat":43.290336,"lon":5.386425,"is_reserved":false,"is_disabled":false,"rental_uris":{"android":"levelo://app?vid=be00269d-fb13-4481-ae38-9ac9f9b029bb","ios":"levelo://app?vid=be00269d-fb13-4481-ae38-9ac9f9b029bb"},"vehicle_type_id":"4","last_reported":1704395121,"current_range_meters":22000,"station_id":"ce4bh4p2rcd13ifvqe0g","pricing_plan_id":"free"},{"bike_id":"0b2e4cda-a050-4604-93e2-98f30b757693","system_id":"levelo_inurba_marseille","lat":43.286039,"lon":5.370679,"is_reserved":false,"is_disabled":false,"rental_uris":{"android":"levelo://app?vid=0b2e4cda-a050-4604-93e2-98f30b757693","ios":"levelo://app?vid=0b2e4cda-a050-4604-93e2-98f30b757693"},"vehicle_type_id":"4","last_reported":1704395121,"current_range_meters":31200,"station_id":"ce4bht12rcd13ifvqi60","pricing_plan_id":"free"},{"bike_id":"43fa715b-0b8c-4853-9980-29bfa9807e84","system_id":"levelo_inurba_marseille","lat":43.286039,"lon":5.370679,"is_reserved":false,"is_disabled":false,"rental_uris":{"android":"levelo://app?vid=43fa715b-0b8c-4853-9980-29bfa9807e84","ios":"levelo://app?vid=43fa715b-0b8c-4853-9980-29bfa9807e84"},"vehicle_type_id":"4","last_reported":1704395121,"current_range_meters":10000,"station_id":"ce4bht12rcd13ifvqi60","pricing_plan_id":"free"},{"bike_id":"22e31fce-81e3-46e7-ab6a-8d79127e3499","system_id":"levelo_inurba_marseille","lat":43.286039,"lon":5.370679,"is_reserved":false,"is_disabled":false,"rental_uris":{"android":"levelo://app?vid=22e31fce-81e3-46e7-ab6a-8d79127e3499","ios":"levelo://app?vid=22e31fce-81e3-46e7-ab6a-8d79127e3499"},"vehicle_type_id":"4","last_reported":1704395121,"current_range_meters":0,"station_id":"ce4bht12rcd13ifvqi60","pricing_plan_id":"free"},{"bike_id":"b2a3e926-b52e-422b-9e76-8d2db9e89d9d","system_id":"levelo_inurba_marseille","lat":43.287184,"lon":5.37937,"is_reserved":false,"is_disabled":false,"rental_uris":{"android":"levelo://app?vid=b2a3e926-b52e-422b-9e76-8d2db9e89d9d","ios":"levelo://app?vid=b2a3e926-b52e-422b-9e76-8d2db9e89d9d"},"vehicle_type_id":"4","last_reported":1704395121,"current_range_meters":0,"station_id":"ce4bh9p2rcd13ifvqec0","pricing_plan_id":"free"},{"bike_id":"c2d5d676-e201-4e85-a04d-d3f8e6b27576","system_id":"levelo_inurba_marseille","lat":43.294314,"lon":5.397498,"is_reserved":false,"is_disabled":false,"rental_uris":{"android":"levelo://app?vid=c2d5d676-e201-4e85-a04d-d3f8e6b27576","ios":"levelo://app?vid=c2d5d676-e201-4e85-a04d-d3f8e6b27576"},"vehicle_type_id":"4","last_reported":1704395121,"current_range_meters":20400,"station_id":"ce4bh3h2rcd13ifvqdo0","pricing_plan_id":"free"},{"bike_id":"56d25f7c-47ff-4b0c-b048-cc16a6bc744e","system_id":"levelo_inurba_marseille","lat":43.284534,"lon":5.358662,"is_reserved":false,"is_disabled":false,"rental_uris":{"android":"levelo://app?vid=56d25f7c-47ff-4b0c-b048-cc16a6bc744e","ios":"levelo://app?vid=56d25f7c-47ff-4b0c-b048-cc16a6bc744e"},"vehicle_type_id":"4","last_reported":1704395121,"current_range_meters":0,"station_id":"ce4bhah2rcd13ifvqei0","pricing_plan_id":"free"},{"bike_id":"793267e8-24d6-4090-a587-f68ed3078d2b","system_id":"levelo_inurba_marseille","lat":43.294314,"lon":5.397498,"is_reserved":false,"is_disabled":false,"rental_uris":{"android":"levelo://app?vid=793267e8-24d6-4090-a587-f68ed3078d2b","ios":"levelo://app?vid=793267e8-24d6-4090-a587-f68ed3078d2b"},"vehicle_type_id":"4","last_reported":1704395121,"current_range_meters":27600,"station_id":"ce4bh3h2rcd13ifvqdo0","pricing_plan_id":"free"},{"bike_id":"3f2d67b5-1b70-4dca-a662-d18b710194fe","system_id":"levelo_inurba_marseille","lat":43.29834,"lon":5.40157,"is_reserved":false,"is_disabled":false,"rental_uris":{"android":"levelo://app?vid=3f2d67b5-1b70-4dca-a662-d18b710194fe","ios":"levelo://app?vid=3f2d67b5-1b70-4dca-a662-d18b710194fe"},"vehicle_type_id":"4","last_reported":1704395121,"current_range_meters":12000,"station_id":"","pricing_plan_id":"free"},{"bike_id":"f2e6e3eb-ffa9-4b77-9582-9a471f01ac0a","system_id":"levelo_inurba_marseille","lat":43.284084,"lon":5.375188,"is_reserved":false,"is_disabled":false,"rental_uris":{"android":"levelo://app?vid=f2e6e3eb-ffa9-4b77-9582-9a471f01ac0a","ios":"levelo://app?vid=f2e6e3eb-ffa9-4b77-9582-9a471f01ac0a"},"vehicle_type_id":"4","last_reported":1704395121,"current_range_meters":22400,"station_id":"ce4bh412rcd13ifvqds0","pricing_plan_id":"free"},{"bike_id":"acc693d8-08a2-4ff7-9d20-89e89d9170f6","system_id":"levelo_inurba_marseille","lat":43.283998,"lon":5.375062,"is_reserved":false,"is_disabled":false,"rental_uris":{"android":"levelo://app?vid=acc693d8-08a2-4ff7-9d20-89e89d9170f6","ios":"levelo://app?vid=acc693d8-08a2-4ff7-9d20-89e89d9170f6"},"vehicle_type_id":"4","last_reported":1704395121,"current_range_meters":11600,"station_id":"ce4bh412rcd13ifvqds0","pricing_plan_id":"free"},{"bike_id":"8ae0a585-6388-4c3c-be4e-6a32dc022a5f","system_id":"levelo_inurba_marseille","lat":43.283998,"lon":5.375062,"is_reserved":false,"is_disabled":false,"rental_uris":{"android":"levelo://app?vid=8ae0a585-6388-4c3c-be4e-6a32dc022a5f","ios":"levelo://app?vid=8ae0a585-6388-4c3c-be4e-6a32dc022a5f"},"vehicle_type_id":"4","last_reported":1704395121,"current_range_meters":25200,"station_id":"ce4bh412rcd13ifvqds0","pricing_plan_id":"free"},{"bike_id":"a4073dcf-86d5-4e5c-a12d-6de5153114ee","system_id":"levelo_inurba_marseille","lat":43.33717,"lon":5.391857,"is_reserved":false,"is_disabled":false,"rental_uris":{"android":"levelo://app?vid=a4073dcf-86d5-4e5c-a12d-6de5153114ee","ios":"levelo://app?vid=a4073dcf-86d5-4e5c-a12d-6de5153114ee"},"vehicle_type_id":"4","last_reported":1704395121,"current_range_meters":16800,"station_id":"ce4bhr92rcd13ifvqhsg","pricing_plan_id":"free"},{"bike_id":"7c541abb-d6ab-44bb-8f56-76c8e19e3cb9","system_id":"levelo_inurba_marseille","lat":43.284793,"lon":5.384119,"is_reserved":false,"is_disabled":false,"rental_uris":{"android":"levelo://app?vid=7c541abb-d6ab-44bb-8f56-76c8e19e3cb9","ios":"levelo://app?vid=7c541abb-d6ab-44bb-8f56-76c8e19e3cb9"},"vehicle_type_id":"4","last_reported":1704395121,"current_range_meters":19200,"station_id":"ce4bh512rcd13ifvqe3g","pricing_plan_id":"free"},{"bike_id":"6423c0bf-66d6-45cd-b109-6d0bc3509364","system_id":"levelo_inurba_marseille","lat":43.284787,"lon":5.384116,"is_reserved":false,"is_disabled":false,"rental_uris":{"android":"levelo://app?vid=6423c0bf-66d6-45cd-b109-6d0bc3509364","ios":"levelo://app?vid=6423c0bf-66d6-45cd-b109-6d0bc3509364"},"vehicle_type_id":"4","last_reported":1704395121,"current_range_meters":6800,"station_id":"ce4bh512rcd13ifvqe3g","pricing_plan_id":"free"},{"bike_id":"66950deb-269c-4cc8-bdc9-d48ccaed59bf","system_id":"levelo_inurba_marseille","lat":43.288501,"lon":5.393087,"is_reserved":false,"is_disabled":false,"rental_uris":{"android":"levelo://app?vid=66950deb-269c-4cc8-bdc9-d48ccaed59bf","ios":"levelo://app?vid=66950deb-269c-4cc8-bdc9-d48ccaed59bf"},"vehicle_type_id":"4","last_reported":1704395121,"current_range_meters":25600,"station_id":"ce4bh2p2rcd13ifvqdi0","pricing_plan_id":"free"},{"bike_id":"14ba4211-d58f-477d-b003-4dda34f764c9","system_id":"levelo_inurba_marseille","lat":43.283494,"lon":5.380945,"is_reserved":false,"is_disabled":false,"rental_uris":{"android":"levelo://app?vid=14ba4211-d58f-477d-b003-4dda34f764c9","ios":"levelo://app?vid=14ba4211-d58f-477d-b003-4dda34f764c9"},"vehicle_type_id":"4","last_reported":1704395121,"current_range_meters":26800,"station_id":"ce4bh412rcd13ifvqdr0","pricing_plan_id":"free"},{"bike_id":"c60d2147-e9df-4a5d-a980-f89eb1a1f011","system_id":"levelo_inurba_marseille","lat":43.283494,"lon":5.380945,"is_reserved":false,"is_disabled":false,"rental_uris":{"android":"levelo://app?vid=c60d2147-e9df-4a5d-a980-f89eb1a1f011","ios":"levelo://app?vid=c60d2147-e9df-4a5d-a980-f89eb1a1f011"},"vehicle_type_id":"4","last_reported":1704395121,"current_range_meters":6000,"station_id":"ce4bh412rcd13ifvqdr0","pricing_plan_id":"free"},{"bike_id":"cfa4b69c-ae8d-4310-83fe-799c1b5c4922","system_id":"levelo_inurba_marseille","lat":43.283494,"lon":5.380945,"is_reserved":false,"is_disabled":false,"rental_uris":{"android":"levelo://app?vid=cfa4b69c-ae8d-4310-83fe-799c1b5c4922","ios":"levelo://app?vid=cfa4b69c-ae8d-4310-83fe-799c1b5c4922"},"vehicle_type_id":"4","last_reported":1704395121,"current_range_meters":6800,"station_id":"ce4bh412rcd13ifvqdr0","pricing_plan_id":"free"},{"bike_id":"af7d2541-38b6-468a-8a6b-c0a40b5ff026","system_id":"levelo_inurba_marseille","lat":43.283494,"lon":5.380945,"is_reserved":false,"is_disabled":false,"rental_uris":{"android":"levelo://app?vid=af7d2541-38b6-468a-8a6b-c0a40b5ff026","ios":"levelo://app?vid=af7d2541-38b6-468a-8a6b-c0a40b5ff026"},"vehicle_type_id":"4","last_reported":1704395121,"current_range_meters":19600,"station_id":"ce4bh412rcd13ifvqdr0","pricing_plan_id":"free"},{"bike_id":"cb8555a2-ea41-4047-94ed-557e9f6768c8","system_id":"levelo_inurba_marseille","lat":43.283483,"lon":5.381123,"is_reserved":false,"is_disabled":false,"rental_uris":{"android":"levelo://app?vid=cb8555a2-ea41-4047-94ed-557e9f6768c8","ios":"levelo://app?vid=cb8555a2-ea41-4047-94ed-557e9f6768c8"},"vehicle_type_id":"4","last_reported":1704395121,"current_range_meters":27200,"station_id":"ce4bh412rcd13ifvqdr0","pricing_plan_id":"free"},{"bike_id":"4003d8e2-dadd-4f78-a5f3-8055ef502859","system_id":"levelo_inurba_marseille","lat":43.292724,"lon":5.401131,"is_reserved":false,"is_disabled":false,"rental_uris":{"android":"levelo://app?vid=4003d8e2-dadd-4f78-a5f3-8055ef502859","ios":"levelo://app?vid=4003d8e2-dadd-4f78-a5f3-8055ef502859"},"vehicle_type_id":"4","last_reported":1704395121,"current_range_meters":31200,"station_id":"ce4bh312rcd13ifvqdk0","pricing_plan_id":"free"},{"bike_id":"85e184fa-ad87-4c80-a6fb-d14e27d1c18d","system_id":"levelo_inurba_marseille","lat":43.282754,"lon":5.350519,"is_reserved":false,"is_disabled":false,"rental_uris":{"android":"levelo://app?vid=85e184fa-ad87-4c80-a6fb-d14e27d1c18d","ios":"levelo://app?vid=85e184fa-ad87-4c80-a6fb-d14e27d1c18d"},"vehicle_type_id":"4","last_reported":1704395121,"current_range_meters":400,"station_id":"ce4bhbp2rcd13ifvqerg","pricing_plan_id":"free"},{"bike_id":"3c160641-e165-4938-836e-6fe9ff3cffda","system_id":"levelo_inurba_marseille","lat":43.282754,"lon":5.350519,"is_reserved":false,"is_disabled":false,"rental_uris":{"android":"levelo://app?vid=3c160641-e165-4938-836e-6fe9ff3cffda","ios":"levelo://app?vid=3c160641-e165-4938-836e-6fe9ff3cffda"},"vehicle_type_id":"4","last_reported":1704395121,"current_range_meters":19200,"station_id":"ce4bhbp2rcd13ifvqerg","pricing_plan_id":"free"},{"bike_id":"1e512842-e678-47b1-b3ed-8ae67f067268","system_id":"levelo_inurba_marseille","lat":43.28027,"lon":5.36941,"is_reserved":false,"is_disabled":false,"rental_uris":{"android":"levelo://app?vid=1e512842-e678-47b1-b3ed-8ae67f067268","ios":"levelo://app?vid=1e512842-e678-47b1-b3ed-8ae67f067268"},"vehicle_type_id":"4","last_reported":1704395121,"current_range_meters":2800,"station_id":"ce4bha12rcd13ifvqef0","pricing_plan_id":"free"},{"bike_id":"9acae8c5-8533-4506-af76-9bff47318092","system_id":"levelo_inurba_marseille","lat":43.281044,"lon":5.378308,"is_reserved":false,"is_disabled":false,"rental_uris":{"android":"levelo://app?vid=9acae8c5-8533-4506-af76-9bff47318092","ios":"levelo://app?vid=9acae8c5-8533-4506-af76-9bff47318092"},"vehicle_type_id":"4","last_reported":1704395121,"current_range_meters":8000,"station_id":"ce4bha12rcd13ifvqee0","pricing_plan_id":"free"},{"bike_id":"87dfbe24-3e8e-4291-b222-9fa7b3b23b5b","system_id":"levelo_inurba_marseille","lat":43.296355,"lon":5.40602,"is_reserved":false,"is_disabled":false,"rental_uris":{"android":"levelo://app?vid=87dfbe24-3e8e-4291-b222-9fa7b3b23b5b","ios":"levelo://app?vid=87dfbe24-3e8e-4291-b222-9fa7b3b23b5b"},"vehicle_type_id":"4","last_reported":1704395121,"current_range_meters":15600,"station_id":"ce4bh0h2rcd13ifvqd60","pricing_plan_id":"free"},{"bike_id":"6fe6461c-75fb-448d-bafa-b1b41ac5c0a0","system_id":"levelo_inurba_marseille","lat":43.28573,"lon":5.394992,"is_reserved":false,"is_disabled":false,"rental_uris":{"android":"levelo://app?vid=6fe6461c-75fb-448d-bafa-b1b41ac5c0a0","ios":"levelo://app?vid=6fe6461c-75fb-448d-bafa-b1b41ac5c0a0"},"vehicle_type_id":"4","last_reported":1704395121,"current_range_meters":8800,"station_id":"ce4bh292rcd13ifvqdg0","pricing_plan_id":"free"},{"bike_id":"aa4dea84-3662-4565-8c9a-09915cc31f4c","system_id":"levelo_inurba_marseille","lat":43.28573,"lon":5.394992,"is_reserved":false,"is_disabled":false,"rental_uris":{"android":"levelo://app?vid=aa4dea84-3662-4565-8c9a-09915cc31f4c","ios":"levelo://app?vid=aa4dea84-3662-4565-8c9a-09915cc31f4c"},"vehicle_type_id":"4","last_reported":1704395121,"current_range_meters":27600,"station_id":"ce4bh292rcd13ifvqdg0","pricing_plan_id":"free"},{"bike_id":"325f6f8c-2213-4e81-973f-175d4daec63f","system_id":"levelo_inurba_marseille","lat":43.28573,"lon":5.394992,"is_reserved":false,"is_disabled":false,"rental_uris":{"android":"levelo://app?vid=325f6f8c-2213-4e81-973f-175d4daec63f","ios":"levelo://app?vid=325f6f8c-2213-4e81-973f-175d4daec63f"},"vehicle_type_id":"4","last_reported":1704395121,"current_range_meters":16800,"station_id":"ce4bh292rcd13ifvqdg0","pricing_plan_id":"free"},{"bike_id":"71b7cb96-ba4b-4d86-9237-dfba3843d2b3","system_id":"levelo_inurba_marseille","lat":43.326605,"lon":5.409903,"is_reserved":false,"is_disabled":false,"rental_uris":{"android":"levelo://app?vid=71b7cb96-ba4b-4d86-9237-dfba3843d2b3","ios":"levelo://app?vid=71b7cb96-ba4b-4d86-9237-dfba3843d2b3"},"vehicle_type_id":"4","last_reported":1704395121,"current_range_meters":16000,"station_id":"ce4bhpp2rcd13ifvqhgg","pricing_plan_id":"free"},{"bike_id":"437c640e-bc46-4d9a-9834-1cd2afab615c","system_id":"levelo_inurba_marseille","lat":43.326605,"lon":5.409903,"is_reserved":false,"is_disabled":false,"rental_uris":{"android":"levelo://app?vid=437c640e-bc46-4d9a-9834-1cd2afab615c","ios":"levelo://app?vid=437c640e-bc46-4d9a-9834-1cd2afab615c"},"vehicle_type_id":"4","last_reported":1704395121,"current_range_meters":26400,"station_id":"ce4bhpp2rcd13ifvqhgg","pricing_plan_id":"free"},{"bike_id":"504fe98b-b144-48fd-bf41-b2ae8e95acbe","system_id":"levelo_inurba_marseille","lat":43.304188,"lon":5.412904,"is_reserved":false,"is_disabled":false,"rental_uris":{"android":"levelo://app?vid=504fe98b-b144-48fd-bf41-b2ae8e95acbe","ios":"levelo://app?vid=504fe98b-b144-48fd-bf41-b2ae8e95acbe"},"vehicle_type_id":"4","last_reported":1704395121,"current_range_meters":2000,"station_id":"ce4bhop2rcd13ifvqh8g","pricing_plan_id":"free"},{"bike_id":"46303ef5-7520-46c9-816a-394746a7ba24","system_id":"levelo_inurba_marseille","lat":43.287154,"lon":5.399979,"is_reserved":false,"is_disabled":false,"rental_uris":{"android":"levelo://app?vid=46303ef5-7520-46c9-816a-394746a7ba24","ios":"levelo://app?vid=46303ef5-7520-46c9-816a-394746a7ba24"},"vehicle_type_id":"4","last_reported":1704395121,"current_range_meters":4800,"station_id":"ce4bho92rcd13ifvqh3g","pricing_plan_id":"free"},{"bike_id":"b1139589-1054-4899-ad5a-2679b09d8a5a","system_id":"levelo_inurba_marseille","lat":43.287154,"lon":5.399979,"is_reserved":false,"is_disabled":false,"rental_uris":{"android":"levelo://app?vid=b1139589-1054-4899-ad5a-2679b09d8a5a","ios":"levelo://app?vid=b1139589-1054-4899-ad5a-2679b09d8a5a"},"vehicle_type_id":"4","last_reported":1704395121,"current_range_meters":6000,"station_id":"ce4bho92rcd13ifvqh3g","pricing_plan_id":"free"},{"bike_id":"c529d1e1-d554-41c7-b1d7-3436da867a38","system_id":"levelo_inurba_marseille","lat":43.287154,"lon":5.399979,"is_reserved":false,"is_disabled":false,"rental_uris":{"android":"levelo://app?vid=c529d1e1-d554-41c7-b1d7-3436da867a38","ios":"levelo://app?vid=c529d1e1-d554-41c7-b1d7-3436da867a38"},"vehicle_type_id":"4","last_reported":1704395121,"current_range_meters":31200,"station_id":"ce4bho92rcd13ifvqh3g","pricing_plan_id":"free"},{"bike_id":"35c2c384-5277-46fe-af8c-850c19a9e507","system_id":"levelo_inurba_marseille","lat":43.287154,"lon":5.399979,"is_reserved":false,"is_disabled":false,"rental_uris":{"android":"levelo://app?vid=35c2c384-5277-46fe-af8c-850c19a9e507","ios":"levelo://app?vid=35c2c384-5277-46fe-af8c-850c19a9e507"},"vehicle_type_id":"4","last_reported":1704395121,"current_range_meters":14800,"station_id":"ce4bho92rcd13ifvqh3g","pricing_plan_id":"free"},{"bike_id":"17f7d508-5bc1-419c-929a-6544186a4109","system_id":"levelo_inurba_marseille","lat":43.28698,"lon":5.39981,"is_reserved":false,"is_disabled":false,"rental_uris":{"android":"levelo://app?vid=17f7d508-5bc1-419c-929a-6544186a4109","ios":"levelo://app?vid=17f7d508-5bc1-419c-929a-6544186a4109"},"vehicle_type_id":"4","last_reported":1704395121,"current_range_meters":24400,"station_id":"ce4bho92rcd13ifvqh3g","pricing_plan_id":"free"},{"bike_id":"641ad07e-e4f4-4c35-b836-7044ea9004d5","system_id":"levelo_inurba_marseille","lat":43.287154,"lon":5.399979,"is_reserved":false,"is_disabled":false,"rental_uris":{"android":"levelo://app?vid=641ad07e-e4f4-4c35-b836-7044ea9004d5","ios":"levelo://app?vid=641ad07e-e4f4-4c35-b836-7044ea9004d5"},"vehicle_type_id":"4","last_reported":1704395121,"current_range_meters":20000,"station_id":"ce4bho92rcd13ifvqh3g","pricing_plan_id":"free"},{"bike_id":"7e9154d5-dd49-45da-af73-5e69a0f05404","system_id":"levelo_inurba_marseille","lat":43.28693,"lon":5.39982,"is_reserved":false,"is_disabled":false,"rental_uris":{"android":"levelo://app?vid=7e9154d5-dd49-45da-af73-5e69a0f05404","ios":"levelo://app?vid=7e9154d5-dd49-45da-af73-5e69a0f05404"},"vehicle_type_id":"4","last_reported":1704395121,"current_range_meters":26400,"station_id":"ce4bho92rcd13ifvqh3g","pricing_plan_id":"free"},{"bike_id":"08155ff4-c214-4001-92ed-097b8cffce39","system_id":"levelo_inurba_marseille","lat":43.320045,"lon":5.415046,"is_reserved":false,"is_disabled":false,"rental_uris":{"android":"levelo://app?vid=08155ff4-c214-4001-92ed-097b8cffce39","ios":"levelo://app?vid=08155ff4-c214-4001-92ed-097b8cffce39"},"vehicle_type_id":"4","last_reported":1704395121,"current_range_meters":18000,"station_id":"ce4bhq92rcd13ifvqhkg","pricing_plan_id":"free"},{"bike_id":"50a2065a-fe18-4aa2-ad97-f81cc06b5fd2","system_id":"levelo_inurba_marseille","lat":43.320045,"lon":5.415048,"is_reserved":false,"is_disabled":false,"rental_uris":{"android":"levelo://app?vid=50a2065a-fe18-4aa2-ad97-f81cc06b5fd2","ios":"levelo://app?vid=50a2065a-fe18-4aa2-ad97-f81cc06b5fd2"},"vehicle_type_id":"4","last_reported":1704395121,"current_range_meters":23200,"station_id":"ce4bhq92rcd13ifvqhkg","pricing_plan_id":"free"},{"bike_id":"628b292e-043f-4834-9e12-e1d8a7d4533a","system_id":"levelo_inurba_marseille","lat":43.279687,"lon":5.387318,"is_reserved":false,"is_disabled":false,"rental_uris":{"android":"levelo://app?vid=628b292e-043f-4834-9e12-e1d8a7d4533a","ios":"levelo://app?vid=628b292e-043f-4834-9e12-e1d8a7d4533a"},"vehicle_type_id":"4","last_reported":1704395121,"current_range_meters":0,"station_id":"ce4bhg12rcd13ifvqf80","pricing_plan_id":"free"},{"bike_id":"ca80aa51-e76a-4435-b4a0-2c6ed02bfabc","system_id":"levelo_inurba_marseille","lat":43.320045,"lon":5.415046,"is_reserved":false,"is_disabled":false,"rental_uris":{"android":"levelo://app?vid=ca80aa51-e76a-4435-b4a0-2c6ed02bfabc","ios":"levelo://app?vid=ca80aa51-e76a-4435-b4a0-2c6ed02bfabc"},"vehicle_type_id":"4","last_reported":1704395121,"current_range_meters":14800,"station_id":"ce4bhq92rcd13ifvqhkg","pricing_plan_id":"free"},{"bike_id":"0297f83b-a409-4eb7-9a88-61074f0f5b13","system_id":"levelo_inurba_marseille","lat":43.292571,"lon":5.409107,"is_reserved":false,"is_disabled":false,"rental_uris":{"android":"levelo://app?vid=0297f83b-a409-4eb7-9a88-61074f0f5b13","ios":"levelo://app?vid=0297f83b-a409-4eb7-9a88-61074f0f5b13"},"vehicle_type_id":"4","last_reported":1704395121,"current_range_meters":7200,"station_id":"ce4bh192rcd13ifvqdc0","pricing_plan_id":"free"},{"bike_id":"dc19599c-7008-4ee2-ab5e-72acec6650f4","system_id":"levelo_inurba_marseille","lat":43.292571,"lon":5.409107,"is_reserved":false,"is_disabled":false,"rental_uris":{"android":"levelo://app?vid=dc19599c-7008-4ee2-ab5e-72acec6650f4","ios":"levelo://app?vid=dc19599c-7008-4ee2-ab5e-72acec6650f4"},"vehicle_type_id":"4","last_reported":1704395121,"current_range_meters":4400,"station_id":"ce4bh192rcd13ifvqdc0","pricing_plan_id":"free"},{"bike_id":"cae3c3ae-103b-46a0-8a34-edd370a57287","system_id":"levelo_inurba_marseille","lat":43.292571,"lon":5.409107,"is_reserved":false,"is_disabled":false,"rental_uris":{"android":"levelo://app?vid=cae3c3ae-103b-46a0-8a34-edd370a57287","ios":"levelo://app?vid=cae3c3ae-103b-46a0-8a34-edd370a57287"},"vehicle_type_id":"4","last_reported":1704395121,"current_range_meters":10400,"station_id":"ce4bh192rcd13ifvqdc0","pricing_plan_id":"free"},{"bike_id":"d3f25bcc-da64-44bb-8495-bf854b2f447f","system_id":"levelo_inurba_marseille","lat":43.324362,"lon":5.416554,"is_reserved":false,"is_disabled":false,"rental_uris":{"android":"levelo://app?vid=d3f25bcc-da64-44bb-8495-bf854b2f447f","ios":"levelo://app?vid=d3f25bcc-da64-44bb-8495-bf854b2f447f"},"vehicle_type_id":"4","last_reported":1704395121,"current_range_meters":16800,"station_id":"","pricing_plan_id":"free"},{"bike_id":"1a7ca003-801f-4e65-8066-36f4d36a2fc1","system_id":"levelo_inurba_marseille","lat":43.278401,"lon":5.392152,"is_reserved":false,"is_disabled":false,"rental_uris":{"android":"levelo://app?vid=1a7ca003-801f-4e65-8066-36f4d36a2fc1","ios":"levelo://app?vid=1a7ca003-801f-4e65-8066-36f4d36a2fc1"},"vehicle_type_id":"4","last_reported":1704395121,"current_range_meters":400,"station_id":"ce4bhjp2rcd13ifvqga0","pricing_plan_id":"free"},{"bike_id":"70d43b24-a3bc-40d7-9264-c30eed0c2ed8","system_id":"levelo_inurba_marseille","lat":43.280784,"lon":5.396622,"is_reserved":false,"is_disabled":false,"rental_uris":{"android":"levelo://app?vid=70d43b24-a3bc-40d7-9264-c30eed0c2ed8","ios":"levelo://app?vid=70d43b24-a3bc-40d7-9264-c30eed0c2ed8"},"vehicle_type_id":"4","last_reported":1704395121,"current_range_meters":6000,"station_id":"ce4bho12rcd13ifvqh2g","pricing_plan_id":"free"},{"bike_id":"d9e5b746-cc8b-49a6-a930-7634632938dd","system_id":"levelo_inurba_marseille","lat":43.303837,"lon":5.418724,"is_reserved":false,"is_disabled":false,"rental_uris":{"android":"levelo://app?vid=d9e5b746-cc8b-49a6-a930-7634632938dd","ios":"levelo://app?vid=d9e5b746-cc8b-49a6-a930-7634632938dd"},"vehicle_type_id":"4","last_reported":1704395121,"current_range_meters":29200,"station_id":"ce4bhop2rcd13ifvqh7g","pricing_plan_id":"free"},{"bike_id":"562e82c7-a7b0-44ea-a23e-310679c7b889","system_id":"levelo_inurba_marseille","lat":43.303837,"lon":5.418724,"is_reserved":false,"is_disabled":false,"rental_uris":{"android":"levelo://app?vid=562e82c7-a7b0-44ea-a23e-310679c7b889","ios":"levelo://app?vid=562e82c7-a7b0-44ea-a23e-310679c7b889"},"vehicle_type_id":"4","last_reported":1704395121,"current_range_meters":14800,"station_id":"ce4bhop2rcd13ifvqh7g","pricing_plan_id":"free"},{"bike_id":"0892d35a-7e73-4e98-9820-6b31b73793f5","system_id":"levelo_inurba_marseille","lat":43.303837,"lon":5.418724,"is_reserved":false,"is_disabled":false,"rental_uris":{"android":"levelo://app?vid=0892d35a-7e73-4e98-9820-6b31b73793f5","ios":"levelo://app?vid=0892d35a-7e73-4e98-9820-6b31b73793f5"},"vehicle_type_id":"4","last_reported":1704395121,"current_range_meters":14000,"station_id":"ce4bhop2rcd13ifvqh7g","pricing_plan_id":"free"},{"bike_id":"4968d964-3344-4faa-ab99-7ab716c4dba7","system_id":"levelo_inurba_marseille","lat":43.278401,"lon":5.392152,"is_reserved":false,"is_disabled":false,"rental_uris":{"android":"levelo://app?vid=4968d964-3344-4faa-ab99-7ab716c4dba7","ios":"levelo://app?vid=4968d964-3344-4faa-ab99-7ab716c4dba7"},"vehicle_type_id":"4","last_reported":1704395121,"current_range_meters":21200,"station_id":"ce4bhjp2rcd13ifvqga0","pricing_plan_id":"free"},{"bike_id":"498cf589-2e0d-4fd1-a30c-2d0dba323d29","system_id":"levelo_inurba_marseille","lat":43.243884,"lon":5.370737,"is_reserved":false,"is_disabled":false,"rental_uris":{"android":"levelo://app?vid=498cf589-2e0d-4fd1-a30c-2d0dba323d29","ios":"levelo://app?vid=498cf589-2e0d-4fd1-a30c-2d0dba323d29"},"vehicle_type_id":"4","last_reported":1704395121,"current_range_meters":13600,"station_id":"ce4bhhh2rcd13ifvqfk0","pricing_plan_id":"free"},{"bike_id":"4f0711dd-915f-4271-b28b-c5a497837f1d","system_id":"levelo_inurba_marseille","lat":43.317121,"lon":5.423936,"is_reserved":false,"is_disabled":false,"rental_uris":{"android":"levelo://app?vid=4f0711dd-915f-4271-b28b-c5a497837f1d","ios":"levelo://app?vid=4f0711dd-915f-4271-b28b-c5a497837f1d"},"vehicle_type_id":"4","last_reported":1704395121,"current_range_meters":15200,"station_id":"ce4bhp92rcd13ifvqhbg","pricing_plan_id":"free"},{"bike_id":"31d59614-a4d9-44ab-a8f8-9f8f40d1aa74","system_id":"levelo_inurba_marseille","lat":43.310785,"lon":5.424305,"is_reserved":false,"is_disabled":false,"rental_uris":{"android":"levelo://app?vid=31d59614-a4d9-44ab-a8f8-9f8f40d1aa74","ios":"levelo://app?vid=31d59614-a4d9-44ab-a8f8-9f8f40d1aa74"},"vehicle_type_id":"4","last_reported":1704395121,"current_range_meters":15600,"station_id":"ce4bhp92rcd13ifvqhag","pricing_plan_id":"free"},{"bike_id":"7e20e46a-cb6e-4167-bfe5-1fdd3fcf844f","system_id":"levelo_inurba_marseille","lat":43.317139,"lon":5.424041,"is_reserved":false,"is_disabled":false,"rental_uris":{"android":"levelo://app?vid=7e20e46a-cb6e-4167-bfe5-1fdd3fcf844f","ios":"levelo://app?vid=7e20e46a-cb6e-4167-bfe5-1fdd3fcf844f"},"vehicle_type_id":"4","last_reported":1704395121,"current_range_meters":0,"station_id":"ce4bhp92rcd13ifvqhbg","pricing_plan_id":"free"},{"bike_id":"0da002aa-e94e-4088-bfa7-721f81141552","system_id":"levelo_inurba_marseille","lat":43.304096,"lon":5.425385,"is_reserved":false,"is_disabled":false,"rental_uris":{"android":"levelo://app?vid=0da002aa-e94e-4088-bfa7-721f81141552","ios":"levelo://app?vid=0da002aa-e94e-4088-bfa7-721f81141552"},"vehicle_type_id":"4","last_reported":1704395121,"current_range_meters":21600,"station_id":"ce4bhoh2rcd13ifvqh6g","pricing_plan_id":"free"},{"bike_id":"8ea0424e-40c3-4a88-8cd8-5d9e80dd11af","system_id":"levelo_inurba_marseille","lat":43.304088,"lon":5.425388,"is_reserved":false,"is_disabled":false,"rental_uris":{"android":"levelo://app?vid=8ea0424e-40c3-4a88-8cd8-5d9e80dd11af","ios":"levelo://app?vid=8ea0424e-40c3-4a88-8cd8-5d9e80dd11af"},"vehicle_type_id":"4","last_reported":1704395121,"current_range_meters":17600,"station_id":"ce4bhoh2rcd13ifvqh6g","pricing_plan_id":"free"},{"bike_id":"b15bf62a-b098-415b-99c2-f75370f251fa","system_id":"levelo_inurba_marseille","lat":43.295511,"lon":5.422926,"is_reserved":false,"is_disabled":false,"rental_uris":{"android":"levelo://app?vid=b15bf62a-b098-415b-99c2-f75370f251fa","ios":"levelo://app?vid=b15bf62a-b098-415b-99c2-f75370f251fa"},"vehicle_type_id":"4","last_reported":1704395121,"current_range_meters":6400,"station_id":"ce4bhph2rcd13ifvqhdg","pricing_plan_id":"free"},{"bike_id":"d7fccfb7-0193-4ebf-8d3d-fc1f71b2c14c","system_id":"levelo_inurba_marseille","lat":43.295511,"lon":5.422926,"is_reserved":false,"is_disabled":false,"rental_uris":{"android":"levelo://app?vid=d7fccfb7-0193-4ebf-8d3d-fc1f71b2c14c","ios":"levelo://app?vid=d7fccfb7-0193-4ebf-8d3d-fc1f71b2c14c"},"vehicle_type_id":"4","last_reported":1704395121,"current_range_meters":15600,"station_id":"ce4bhph2rcd13ifvqhdg","pricing_plan_id":"free"},{"bike_id":"73af8d5c-f512-4ab5-b9eb-03c462f5bd8d","system_id":"levelo_inurba_marseille","lat":43.295511,"lon":5.422926,"is_reserved":false,"is_disabled":false,"rental_uris":{"android":"levelo://app?vid=73af8d5c-f512-4ab5-b9eb-03c462f5bd8d","ios":"levelo://app?vid=73af8d5c-f512-4ab5-b9eb-03c462f5bd8d"},"vehicle_type_id":"4","last_reported":1704395121,"current_range_meters":2400,"station_id":"ce4bhph2rcd13ifvqhdg","pricing_plan_id":"free"},{"bike_id":"ecc5cb6a-46da-49af-a9ca-62fe3c772c06","system_id":"levelo_inurba_marseille","lat":43.272124,"lon":5.391768,"is_reserved":false,"is_disabled":false,"rental_uris":{"android":"levelo://app?vid=ecc5cb6a-46da-49af-a9ca-62fe3c772c06","ios":"levelo://app?vid=ecc5cb6a-46da-49af-a9ca-62fe3c772c06"},"vehicle_type_id":"4","last_reported":1704395121,"current_range_meters":15600,"station_id":"ce4bhhp2rcd13ifvqfm0","pricing_plan_id":"free"},{"bike_id":"b202a7fa-34da-41ad-bda9-5676f3291552","system_id":"levelo_inurba_marseille","lat":43.278128,"lon":5.407195,"is_reserved":false,"is_disabled":false,"rental_uris":{"android":"levelo://app?vid=b202a7fa-34da-41ad-bda9-5676f3291552","ios":"levelo://app?vid=b202a7fa-34da-41ad-bda9-5676f3291552"},"vehicle_type_id":"4","last_reported":1704395121,"current_range_meters":30400,"station_id":"ce4bhnh2rcd13ifvqgtg","pricing_plan_id":"free"},{"bike_id":"551af9f4-6a9b-4035-9c1f-9fbcfbeead6a","system_id":"levelo_inurba_marseille","lat":43.278128,"lon":5.407195,"is_reserved":false,"is_disabled":false,"rental_uris":{"android":"levelo://app?vid=551af9f4-6a9b-4035-9c1f-9fbcfbeead6a","ios":"levelo://app?vid=551af9f4-6a9b-4035-9c1f-9fbcfbeead6a"},"vehicle_type_id":"4","last_reported":1704395121,"current_range_meters":13600,"station_id":"ce4bhnh2rcd13ifvqgtg","pricing_plan_id":"free"},{"bike_id":"21a74610-979a-4a47-9fa8-93a4cc4a4591","system_id":"levelo_inurba_marseille","lat":43.269467,"lon":5.386439,"is_reserved":false,"is_disabled":false,"rental_uris":{"android":"levelo://app?vid=21a74610-979a-4a47-9fa8-93a4cc4a4591","ios":"levelo://app?vid=21a74610-979a-4a47-9fa8-93a4cc4a4591"},"vehicle_type_id":"4","last_reported":1704395121,"current_range_meters":25200,"station_id":"ce4bhh92rcd13ifvqfh0","pricing_plan_id":"free"},{"bike_id":"c0ebb3a5-c1c6-4909-996e-a93d8520c0b3","system_id":"levelo_inurba_marseille","lat":43.269467,"lon":5.386439,"is_reserved":false,"is_disabled":false,"rental_uris":{"android":"levelo://app?vid=c0ebb3a5-c1c6-4909-996e-a93d8520c0b3","ios":"levelo://app?vid=c0ebb3a5-c1c6-4909-996e-a93d8520c0b3"},"vehicle_type_id":"4","last_reported":1704395121,"current_range_meters":27600,"station_id":"ce4bhh92rcd13ifvqfh0","pricing_plan_id":"free"},{"bike_id":"ac3d661a-cbf2-44ff-907f-235d7eed0137","system_id":"levelo_inurba_marseille","lat":43.279465,"lon":5.410561,"is_reserved":false,"is_disabled":false,"rental_uris":{"android":"levelo://app?vid=ac3d661a-cbf2-44ff-907f-235d7eed0137","ios":"levelo://app?vid=ac3d661a-cbf2-44ff-907f-235d7eed0137"},"vehicle_type_id":"4","last_reported":1704395121,"current_range_meters":23200,"station_id":"ce4bhnp2rcd13ifvqh0g","pricing_plan_id":"free"},{"bike_id":"bf900065-dd17-4f2a-9b81-7e5780a341db","system_id":"levelo_inurba_marseille","lat":43.269319,"lon":5.389397,"is_reserved":false,"is_disabled":false,"rental_uris":{"android":"levelo://app?vid=bf900065-dd17-4f2a-9b81-7e5780a341db","ios":"levelo://app?vid=bf900065-dd17-4f2a-9b81-7e5780a341db"},"vehicle_type_id":"4","last_reported":1704395121,"current_range_meters":6000,"station_id":"ce4bhhh2rcd13ifvqfl0","pricing_plan_id":"free"},{"bike_id":"d9cc128a-6d5d-4e16-999a-74f1cac285f7","system_id":"levelo_inurba_marseille","lat":43.250966,"lon":5.395186,"is_reserved":false,"is_disabled":false,"rental_uris":{"android":"levelo://app?vid=d9cc128a-6d5d-4e16-999a-74f1cac285f7","ios":"levelo://app?vid=d9cc128a-6d5d-4e16-999a-74f1cac285f7"},"vehicle_type_id":"4","last_reported":1704395121,"current_range_meters":30000,"station_id":"ce4bhm12rcd13ifvqgkg","pricing_plan_id":"free"},{"bike_id":"0c1c8853-e817-4a81-8915-f8e9ca17a06b","system_id":"levelo_inurba_marseille","lat":43.26681,"lon":5.382694,"is_reserved":false,"is_disabled":false,"rental_uris":{"android":"levelo://app?vid=0c1c8853-e817-4a81-8915-f8e9ca17a06b","ios":"levelo://app?vid=0c1c8853-e817-4a81-8915-f8e9ca17a06b"},"vehicle_type_id":"4","last_reported":1704395121,"current_range_meters":15200,"station_id":"ce4bhg92rcd13ifvqf90","pricing_plan_id":"free"},{"bike_id":"efd959c6-aa55-4971-8e4b-58f77f7bb6f8","system_id":"levelo_inurba_marseille","lat":43.26681,"lon":5.382694,"is_reserved":false,"is_disabled":false,"rental_uris":{"android":"levelo://app?vid=efd959c6-aa55-4971-8e4b-58f77f7bb6f8","ios":"levelo://app?vid=efd959c6-aa55-4971-8e4b-58f77f7bb6f8"},"vehicle_type_id":"4","last_reported":1704395121,"current_range_meters":28000,"station_id":"ce4bhg92rcd13ifvqf90","pricing_plan_id":"free"},{"bike_id":"987bf580-fb6c-487e-9b17-96b5c56337a3","system_id":"levelo_inurba_marseille","lat":43.26681,"lon":5.382694,"is_reserved":false,"is_disabled":false,"rental_uris":{"android":"levelo://app?vid=987bf580-fb6c-487e-9b17-96b5c56337a3","ios":"levelo://app?vid=987bf580-fb6c-487e-9b17-96b5c56337a3"},"vehicle_type_id":"4","last_reported":1704395121,"current_range_meters":25200,"station_id":"ce4bhg92rcd13ifvqf90","pricing_plan_id":"free"},{"bike_id":"e12bb222-5d03-4331-8ab8-df4ad96dc0cb","system_id":"levelo_inurba_marseille","lat":43.27996,"lon":5.416624,"is_reserved":false,"is_disabled":false,"rental_uris":{"android":"levelo://app?vid=e12bb222-5d03-4331-8ab8-df4ad96dc0cb","ios":"levelo://app?vid=e12bb222-5d03-4331-8ab8-df4ad96dc0cb"},"vehicle_type_id":"4","last_reported":1704395121,"current_range_meters":2800,"station_id":"ce4bho12rcd13ifvqh1g","pricing_plan_id":"free"},{"bike_id":"51b92d93-2084-4847-8d6d-88b5504cf01a","system_id":"levelo_inurba_marseille","lat":43.26949,"lon":5.40262,"is_reserved":false,"is_disabled":false,"rental_uris":{"android":"levelo://app?vid=51b92d93-2084-4847-8d6d-88b5504cf01a","ios":"levelo://app?vid=51b92d93-2084-4847-8d6d-88b5504cf01a"},"vehicle_type_id":"4","last_reported":1704395121,"current_range_meters":11200,"station_id":"cjm6bp8fraef2m0cb0m0","pricing_plan_id":"free"},{"bike_id":"4603f9ec-c78b-4c1b-9ad3-56a46f57026d","system_id":"levelo_inurba_marseille","lat":43.271388,"lon":5.409269,"is_reserved":false,"is_disabled":false,"rental_uris":{"android":"levelo://app?vid=4603f9ec-c78b-4c1b-9ad3-56a46f57026d","ios":"levelo://app?vid=4603f9ec-c78b-4c1b-9ad3-56a46f57026d"},"vehicle_type_id":"4","last_reported":1704395121,"current_range_meters":28400,"station_id":"ce4bhl12rcd13ifvqgf0","pricing_plan_id":"free"},{"bike_id":"0d102da3-fd59-40f5-977c-de2ac98eb30d","system_id":"levelo_inurba_marseille","lat":43.271388,"lon":5.409269,"is_reserved":false,"is_disabled":false,"rental_uris":{"android":"levelo://app?vid=0d102da3-fd59-40f5-977c-de2ac98eb30d","ios":"levelo://app?vid=0d102da3-fd59-40f5-977c-de2ac98eb30d"},"vehicle_type_id":"4","last_reported":1704395121,"current_range_meters":7200,"station_id":"ce4bhl12rcd13ifvqgf0","pricing_plan_id":"free"},{"bike_id":"364704e7-b155-406c-976a-bc0438f041ee","system_id":"levelo_inurba_marseille","lat":43.27173,"lon":5.40988,"is_reserved":false,"is_disabled":false,"rental_uris":{"android":"levelo://app?vid=364704e7-b155-406c-976a-bc0438f041ee","ios":"levelo://app?vid=364704e7-b155-406c-976a-bc0438f041ee"},"vehicle_type_id":"4","last_reported":1704395121,"current_range_meters":0,"station_id":"ce4bhl12rcd13ifvqgf0","pricing_plan_id":"free"},{"bike_id":"6ded9338-5e61-42b7-a58c-c7d92ad324b4","system_id":"levelo_inurba_marseille","lat":43.27169,"lon":5.4099,"is_reserved":false,"is_disabled":false,"rental_uris":{"android":"levelo://app?vid=6ded9338-5e61-42b7-a58c-c7d92ad324b4","ios":"levelo://app?vid=6ded9338-5e61-42b7-a58c-c7d92ad324b4"},"vehicle_type_id":"4","last_reported":1704395121,"current_range_meters":0,"station_id":"ce4bhl12rcd13ifvqgf0","pricing_plan_id":"free"},{"bike_id":"24bdd6dc-bef3-4595-9e07-20613bf0fa19","system_id":"levelo_inurba_marseille","lat":43.27171,"lon":5.40994,"is_reserved":false,"is_disabled":false,"rental_uris":{"android":"levelo://app?vid=24bdd6dc-bef3-4595-9e07-20613bf0fa19","ios":"levelo://app?vid=24bdd6dc-bef3-4595-9e07-20613bf0fa19"},"vehicle_type_id":"4","last_reported":1704395121,"current_range_meters":27600,"station_id":"ce4bhl12rcd13ifvqgf0","pricing_plan_id":"free"},{"bike_id":"c3fb3728-1f5d-4f33-80f7-b644b22c1108","system_id":"levelo_inurba_marseille","lat":43.267959,"lon":5.402687,"is_reserved":false,"is_disabled":false,"rental_uris":{"android":"levelo://app?vid=c3fb3728-1f5d-4f33-80f7-b644b22c1108","ios":"levelo://app?vid=c3fb3728-1f5d-4f33-80f7-b644b22c1108"},"vehicle_type_id":"4","last_reported":1704395121,"current_range_meters":8800,"station_id":"ce501612rcd8frsf0b60","pricing_plan_id":"free"},{"bike_id":"dfaee2cb-1b98-4215-b17c-82acc3e92180","system_id":"levelo_inurba_marseille","lat":43.31735,"lon":5.43793,"is_reserved":false,"is_disabled":false,"rental_uris":{"android":"levelo://app?vid=dfaee2cb-1b98-4215-b17c-82acc3e92180","ios":"levelo://app?vid=dfaee2cb-1b98-4215-b17c-82acc3e92180"},"vehicle_type_id":"4","last_reported":1704395121,"current_range_meters":2000,"station_id":"","pricing_plan_id":"free"},{"bike_id":"500134c5-a511-431e-a2d2-0e064ba4d912","system_id":"levelo_inurba_marseille","lat":43.31733,"lon":5.437957,"is_reserved":false,"is_disabled":false,"rental_uris":{"android":"levelo://app?vid=500134c5-a511-431e-a2d2-0e064ba4d912","ios":"levelo://app?vid=500134c5-a511-431e-a2d2-0e064ba4d912"},"vehicle_type_id":"4","last_reported":1704395121,"current_range_meters":25200,"station_id":"","pricing_plan_id":"free"},{"bike_id":"e95fb841-fd29-469e-ab34-ff0efd5b203c","system_id":"levelo_inurba_marseille","lat":43.31744,"lon":5.43798,"is_reserved":false,"is_disabled":false,"rental_uris":{"android":"levelo://app?vid=e95fb841-fd29-469e-ab34-ff0efd5b203c","ios":"levelo://app?vid=e95fb841-fd29-469e-ab34-ff0efd5b203c"},"vehicle_type_id":"4","last_reported":1704395121,"current_range_meters":30400,"station_id":"","pricing_plan_id":"free"},{"bike_id":"102bbcc6-4654-44af-90cb-5f3f1c275486","system_id":"levelo_inurba_marseille","lat":43.2651,"lon":5.39469,"is_reserved":false,"is_disabled":false,"rental_uris":{"android":"levelo://app?vid=102bbcc6-4654-44af-90cb-5f3f1c275486","ios":"levelo://app?vid=102bbcc6-4654-44af-90cb-5f3f1c275486"},"vehicle_type_id":"4","last_reported":1704395121,"current_range_meters":6400,"station_id":"ce4bhi12rcd13ifvqfq0","pricing_plan_id":"free"},{"bike_id":"69bfbae1-0795-4565-a827-fff79dc85ee7","system_id":"levelo_inurba_marseille","lat":43.2651,"lon":5.39469,"is_reserved":false,"is_disabled":false,"rental_uris":{"android":"levelo://app?vid=69bfbae1-0795-4565-a827-fff79dc85ee7","ios":"levelo://app?vid=69bfbae1-0795-4565-a827-fff79dc85ee7"},"vehicle_type_id":"4","last_reported":1704395121,"current_range_meters":30400,"station_id":"ce4bhi12rcd13ifvqfq0","pricing_plan_id":"free"},{"bike_id":"707f349e-5f9c-442c-a253-fddd6514426e","system_id":"levelo_inurba_marseille","lat":43.2651,"lon":5.39469,"is_reserved":false,"is_disabled":false,"rental_uris":{"android":"levelo://app?vid=707f349e-5f9c-442c-a253-fddd6514426e","ios":"levelo://app?vid=707f349e-5f9c-442c-a253-fddd6514426e"},"vehicle_type_id":"4","last_reported":1704395121,"current_range_meters":5600,"station_id":"ce4bhi12rcd13ifvqfq0","pricing_plan_id":"free"},{"bike_id":"0523d8d5-98df-42c4-ac36-98ac503981f3","system_id":"levelo_inurba_marseille","lat":43.2651,"lon":5.39469,"is_reserved":false,"is_disabled":false,"rental_uris":{"android":"levelo://app?vid=0523d8d5-98df-42c4-ac36-98ac503981f3","ios":"levelo://app?vid=0523d8d5-98df-42c4-ac36-98ac503981f3"},"vehicle_type_id":"4","last_reported":1704395121,"current_range_meters":16400,"station_id":"ce4bhi12rcd13ifvqfq0","pricing_plan_id":"free"},{"bike_id":"a3e23cf7-e570-425e-b91b-cdbed986480d","system_id":"levelo_inurba_marseille","lat":43.298768,"lon":5.43643,"is_reserved":false,"is_disabled":false,"rental_uris":{"android":"levelo://app?vid=a3e23cf7-e570-425e-b91b-cdbed986480d","ios":"levelo://app?vid=a3e23cf7-e570-425e-b91b-cdbed986480d"},