{"last_updated":1753200871,"ttl":60,"version":"2.2","data":{"bikes":[{"bike_id":"50179da7-9038-4eb9-9c19-56479df72a4f","system_id":"levelo_inurba_marseille","lat":43.2706,"lon":5.40261,"is_reserved":false,"is_disabled":false,"rental_uris":{"android":"levelo://app?vid=50179da7-9038-4eb9-9c19-56479df72a4f","ios":"levelo://app?vid=50179da7-9038-4eb9-9c19-56479df72a4f"},"vehicle_type_id":"4","last_reported":1753200871,"current_range_meters":4800,"station_id":"ce4bhk92rcd13ifvqgc0","pricing_plan_id":"cebpf4jnsgd1na2vs0mg"},{"bike_id":"36679474-040a-4b90-b97b-cf25b7bce81c","system_id":"levelo_inurba_marseille","lat":43.28277,"lon":5.35064,"is_reserved":false,"is_disabled":false,"rental_uris":{"android":"levelo://app?vid=36679474-040a-4b90-b97b-cf25b7bce81c","ios":"levelo://app?vid=36679474-040a-4b90-b97b-cf25b7bce81c"},"vehicle_type_id":"4","last_reported":1753200871,"current_range_meters":2800,"station_id":"ce4bhbp2rcd13ifvqerg","pricing_plan_id":"cebpf4jnsgd1na2vs0mg"},{"bike_id":"1657b298-0a9e-4b6b-aebb-5504944c0643","system_id":"levelo_inurba_marseille","lat":43.239633,"lon":5.366284,"is_reserved":false,"is_disabled":false,"rental_uris":{"android":"levelo://app?vid=1657b298-0a9e-4b6b-aebb-5504944c0643","ios":"levelo://app?vid=1657b298-0a9e-4b6b-aebb-5504944c0643"},"vehicle_type_id":"4","last_reported":1753200871,"current_range_meters":2800,"station_id":"ce4bhi12rcd13ifvqfp0","pricing_plan_id":"cebpf4jnsgd1na2vs0mg"},{"bike_id":"a2ee1723-3861-4217-a589-b5ed0e82e44a","system_id":"levelo_inurba_marseille","lat":43.24651,"lon":5.38173,"is_reserved":false,"is_disabled":false,"rental_uris":{"android":"levelo://app?vid=a2ee1723-3861-4217-a589-b5ed0e82e44a","ios":"levelo://app?vid=a2ee1723-3861-4217-a589-b5ed0e82e44a"},"vehicle_type_id":"4","last_reported":1753200871,"current_range_meters":2800,"station_id":"ce4bhih2rcd13ifvqfr0","pricing_plan_id":"cebpf4jnsgd1na2vs0mg"},{"bike_id":"61b57b03-9d69-4f1d-8c61-02663b682476","system_id":"levelo_inurba_marseille","lat":43.30361,"lon":5.42481,"is_reserved":false,"is_disabled":true,"rental_uris":{"android":"levelo://app?vid=61b57b03-9d69-4f1d-8c61-02663b682476","ios":"levelo://app?vid=61b57b03-9d69-4f1d-8c61-02663b682476"},"vehicle_type_id":"4","last_reported":1753200871,"current_range_meters":2800,"station_id":"ce4bhoh2rcd13ifvqh6g","pricing_plan_id":"cebpf4jnsgd1na2vs0mg"},{"bike_id":"67e7d2c8-def5-4a08-b57b-74447432a055","system_id":"levelo_inurba_marseille","lat":43.29273,"lon":5.40121,"is_reserved":false,"is_disabled":false,"rental_uris":{"android":"levelo://app?vid=67e7d2c8-def5-4a08-b57b-74447432a055","ios":"levelo://app?vid=67e7d2c8-def5-4a08-b57b-74447432a055"},"vehicle_type_id":"4","last_reported":1753200871,"current_range_meters":2800,"station_id":"ce4bh312rcd13ifvqdk0","pricing_plan_id":"cebpf4jnsgd1na2vs0mg"},{"bike_id":"2d14f003-b7aa-43d4-a9fc-63b26b2cedf9","system_id":"levelo_inurba_marseille","lat":43.29518,"lon":5.38188,"is_reserved":false,"is_disabled":false,"rental_uris":{"android":"levelo://app?vid=2d14f003-b7aa-43d4-a9fc-63b26b2cedf9","ios":"levelo://app?vid=2d14f003-b7aa-43d4-a9fc-63b26b2cedf9"},"vehicle_type_id":"4","last_reported":1753200871,"current_range_meters":3200,"station_id":"","pricing_plan_id":"cebpf4jnsgd1na2vs0mg"},{"bike_id":"7c413a69-0fe2-4e94-8f79-2b897eb1f8b0","system_id":"levelo_inurba_marseille","lat":43.21756,"lon":5.34597,"is_reserved":false,"is_disabled":false,"rental_uris":{"android":"levelo://app?vid=7c413a69-0fe2-4e94-8f79-2b897eb1f8b0","ios":"levelo://app?vid=7c413a69-0fe2-4e94-8f79-2b897eb1f8b0"},"vehicle_type_id":"4","last_reported":1753200871,"current_range_meters":3200,"station_id":"st_cvj6r9ubvosntc0bgbag","pricing_plan_id":"cebpf4jnsgd1na2vs0mg"},{"bike_id":"a8940b1c-affd-4fbf-87c9-389fa79405a9","system_id":"levelo_inurba_marseille","lat":43.31069,"lon":5.38353,"is_reserved":false,"is_disabled":false,"rental_uris":{"android":"levelo://app?vid=a8940b1c-affd-4fbf-87c9-389fa79405a9","ios":"levelo://app?vid=a8940b1c-affd-4fbf-87c9-389fa79405a9"},"vehicle_type_id":"4","last_reported":1753200871,"current_range_meters":3200,"station_id":"ce4bgv92rcd13ifvqcr0","pricing_plan_id":"cebpf4jnsgd1na2vs0mg"},{"bike_id":"0972721d-7a76-4f4c-9789-021b2e691cd1","system_id":"levelo_inurba_marseille","lat":43.29787,"lon":5.38081,"is_reserved":false,"is_disabled":false,"rental_uris":{"android":"levelo://app?vid=0972721d-7a76-4f4c-9789-021b2e691cd1","ios":"levelo://app?vid=0972721d-7a76-4f4c-9789-021b2e691cd1"},"vehicle_type_id":"4","last_reported":1753200871,"current_range_meters":2800,"station_id":"ce4bgip2rcd13ifvqbb0","pricing_plan_id":"cebpf4jnsgd1na2vs0mg"},{"bike_id":"69fd7cd7-ae3e-469c-859b-6956f12f3482","system_id":"levelo_inurba_marseille","lat":43.30314,"lon":5.36898,"is_reserved":false,"is_disabled":false,"rental_uris":{"android":"levelo://app?vid=69fd7cd7-ae3e-469c-859b-6956f12f3482","ios":"levelo://app?vid=69fd7cd7-ae3e-469c-859b-6956f12f3482"},"vehicle_type_id":"4","last_reported":1753200871,"current_range_meters":3600,"station_id":"ce4bgqh2rcd13ifvqc5g","pricing_plan_id":"cebpf4jnsgd1na2vs0mg"},{"bike_id":"8ba1024d-2df0-41e5-95d7-bfea0506b679","system_id":"levelo_inurba_marseille","lat":43.289362,"lon":5.366477,"is_reserved":false,"is_disabled":false,"rental_uris":{"android":"levelo://app?vid=8ba1024d-2df0-41e5-95d7-bfea0506b679","ios":"levelo://app?vid=8ba1024d-2df0-41e5-95d7-bfea0506b679"},"vehicle_type_id":"4","last_reported":1753200871,"current_range_meters":3600,"station_id":"ce4bhap2rcd13ifvqek0","pricing_plan_id":"cebpf4jnsgd1na2vs0mg"},{"bike_id":"654bfc0c-10ff-4f33-b35d-d82117698f1e","system_id":"levelo_inurba_marseille","lat":43.27371,"lon":5.36251,"is_reserved":false,"is_disabled":false,"rental_uris":{"android":"levelo://app?vid=654bfc0c-10ff-4f33-b35d-d82117698f1e","ios":"levelo://app?vid=654bfc0c-10ff-4f33-b35d-d82117698f1e"},"vehicle_type_id":"4","last_reported":1753200871,"current_range_meters":4000,"station_id":"ce4bhbh2rcd13ifvqeo0","pricing_plan_id":"cebpf4jnsgd1na2vs0mg"},{"bike_id":"debcab84-58fa-48d4-a233-19008c91cfd9","system_id":"levelo_inurba_marseille","lat":43.29085,"lon":5.3815,"is_reserved":false,"is_disabled":false,"rental_uris":{"android":"levelo://app?vid=debcab84-58fa-48d4-a233-19008c91cfd9","ios":"levelo://app?vid=debcab84-58fa-48d4-a233-19008c91cfd9"},"vehicle_type_id":"4","last_reported":1753200871,"current_range_meters":4000,"station_id":"ce4bh512rcd13ifvqe2g","pricing_plan_id":"cebpf4jnsgd1na2vs0mg"},{"bike_id":"e4eea83f-ecd8-4381-8c4d-d3bf76179505","system_id":"levelo_inurba_marseille","lat":43.29097,"lon":5.3813,"is_reserved":false,"is_disabled":false,"rental_uris":{"android":"levelo://app?vid=e4eea83f-ecd8-4381-8c4d-d3bf76179505","ios":"levelo://app?vid=e4eea83f-ecd8-4381-8c4d-d3bf76179505"},"vehicle_type_id":"4","last_reported":1753200871,"current_range_meters":4400,"station_id":"ce4bh512rcd13ifvqe2g","pricing_plan_id":"cebpf4jnsgd1na2vs0mg"},{"bike_id":"40987d7b-a9ae-46a8-82c6-90636659c21d","system_id":"levelo_inurba_marseille","lat":43.29241,"lon":5.3845,"is_reserved":false,"is_disabled":false,"rental_uris":{"android":"levelo://app?vid=40987d7b-a9ae-46a8-82c6-90636659c21d","ios":"levelo://app?vid=40987d7b-a9ae-46a8-82c6-90636659c21d"},"vehicle_type_id":"4","last_reported":1753200871,"current_range_meters":4400,"station_id":"ce4bh692rcd13ifvqea0","pricing_plan_id":"cebpf4jnsgd1na2vs0mg"},{"bike_id":"bffbd0d7-de13-449a-9f15-c43925042301","system_id":"levelo_inurba_marseille","lat":43.29006,"lon":5.35619,"is_reserved":false,"is_disabled":false,"rental_uris":{"android":"levelo://app?vid=bffbd0d7-de13-449a-9f15-c43925042301","ios":"levelo://app?vid=bffbd0d7-de13-449a-9f15-c43925042301"},"vehicle_type_id":"4","last_reported":1753200871,"current_range_meters":4400,"station_id":"ce4bhb92rcd13ifvqen0","pricing_plan_id":"cebpf4jnsgd1na2vs0mg"},{"bike_id":"0d6cba82-d9bc-48b7-9998-faabe790dfb6","system_id":"levelo_inurba_marseille","lat":43.28938,"lon":5.36412,"is_reserved":false,"is_disabled":false,"rental_uris":{"android":"levelo://app?vid=0d6cba82-d9bc-48b7-9998-faabe790dfb6","ios":"levelo://app?vid=0d6cba82-d9bc-48b7-9998-faabe790dfb6"},"vehicle_type_id":"4","last_reported":1753200871,"current_range_meters":4400,"station_id":"ce4bhc92rcd13ifvqetg","pricing_plan_id":"cebpf4jnsgd1na2vs0mg"},{"bike_id":"b93ecc39-9dfb-48eb-b7fd-2ba6943e6a55","system_id":"levelo_inurba_marseille","lat":43.30286,"lon":5.37703,"is_reserved":false,"is_disabled":false,"rental_uris":{"android":"levelo://app?vid=b93ecc39-9dfb-48eb-b7fd-2ba6943e6a55","ios":"levelo://app?vid=b93ecc39-9dfb-48eb-b7fd-2ba6943e6a55"},"vehicle_type_id":"4","last_reported":1753200871,"current_range_meters":4800,"station_id":"ce4bguh2rcd13ifvqcj0","pricing_plan_id":"cebpf4jnsgd1na2vs0mg"},{"bike_id":"72246788-dcbe-4a61-92de-c623bc135220","system_id":"levelo_inurba_marseille","lat":43.21743,"lon":5.34602,"is_reserved":false,"is_disabled":false,"rental_uris":{"android":"levelo://app?vid=72246788-dcbe-4a61-92de-c623bc135220","ios":"levelo://app?vid=72246788-dcbe-4a61-92de-c623bc135220"},"vehicle_type_id":"4","last_reported":1753200871,"current_range_meters":4800,"station_id":"st_cvj6r9ubvosntc0bgbag","pricing_plan_id":"cebpf4jnsgd1na2vs0mg"},{"bike_id":"ca13589e-9878-4b48-91a0-b7c226772472","system_id":"levelo_inurba_marseille","lat":43.24069,"lon":5.37768,"is_reserved":false,"is_disabled":false,"rental_uris":{"android":"levelo://app?vid=ca13589e-9878-4b48-91a0-b7c226772472","ios":"levelo://app?vid=ca13589e-9878-4b48-91a0-b7c226772472"},"vehicle_type_id":"4","last_reported":1753200871,"current_range_meters":5600,"station_id":"ce4bhnp2rcd13ifvqgvg","pricing_plan_id":"cebpf4jnsgd1na2vs0mg"},{"bike_id":"e1638866-782b-4a4e-8223-ae8616d5cf70","system_id":"levelo_inurba_marseille","lat":43.2512,"lon":5.40317,"is_reserved":false,"is_disabled":false,"rental_uris":{"android":"levelo://app?vid=e1638866-782b-4a4e-8223-ae8616d5cf70","ios":"levelo://app?vid=e1638866-782b-4a4e-8223-ae8616d5cf70"},"vehicle_type_id":"4","last_reported":1753200871,"current_range_meters":5600,"station_id":"ce4bhlh2rcd13ifvqgig","pricing_plan_id":"cebpf4jnsgd1na2vs0mg"},{"bike_id":"87f34e31-5472-47a9-8eee-0cdbd50c7bb2","system_id":"levelo_inurba_marseille","lat":43.311924,"lon":5.38729,"is_reserved":false,"is_disabled":false,"rental_uris":{"android":"levelo://app?vid=87f34e31-5472-47a9-8eee-0cdbd50c7bb2","ios":"levelo://app?vid=87f34e31-5472-47a9-8eee-0cdbd50c7bb2"},"vehicle_type_id":"4","last_reported":1753200871,"current_range_meters":5600,"station_id":"ce4bgv12rcd13ifvqcp0","pricing_plan_id":"cebpf4jnsgd1na2vs0mg"},{"bike_id":"f68e5de7-58a9-4ee6-a613-ffb7a5544cef","system_id":"levelo_inurba_marseille","lat":43.27803,"lon":5.35505,"is_reserved":false,"is_disabled":false,"rental_uris":{"android":"levelo://app?vid=f68e5de7-58a9-4ee6-a613-ffb7a5544cef","ios":"levelo://app?vid=f68e5de7-58a9-4ee6-a613-ffb7a5544cef"},"vehicle_type_id":"4","last_reported":1753200871,"current_range_meters":6000,"station_id":"","pricing_plan_id":"cebpf4jnsgd1na2vs0mg"},{"bike_id":"7198cdb1-18fd-43c3-9066-f03c9ff068f0","system_id":"levelo_inurba_marseille","lat":43.29257,"lon":5.38437,"is_reserved":false,"is_disabled":false,"rental_uris":{"android":"levelo://app?vid=7198cdb1-18fd-43c3-9066-f03c9ff068f0","ios":"levelo://app?vid=7198cdb1-18fd-43c3-9066-f03c9ff068f0"},"vehicle_type_id":"4","last_reported":1753200871,"current_range_meters":6000,"station_id":"ce4bh692rcd13ifvqea0","pricing_plan_id":"cebpf4jnsgd1na2vs0mg"},{"bike_id":"4e3bd6d3-a255-4b8d-a143-3ad74693df98","system_id":"levelo_inurba_marseille","lat":43.31268,"lon":5.40162,"is_reserved":false,"is_disabled":false,"rental_uris":{"android":"levelo://app?vid=4e3bd6d3-a255-4b8d-a143-3ad74693df98","ios":"levelo://app?vid=4e3bd6d3-a255-4b8d-a143-3ad74693df98"},"vehicle_type_id":"4","last_reported":1753200871,"current_range_meters":6000,"station_id":"ce4bh092rcd13ifvqd30","pricing_plan_id":"cebpf4jnsgd1na2vs0mg"},{"bike_id":"1fd5b0cc-36e0-4305-89c0-2977ed60545e","system_id":"levelo_inurba_marseille","lat":43.28408,"lon":5.37524,"is_reserved":false,"is_disabled":false,"rental_uris":{"android":"levelo://app?vid=1fd5b0cc-36e0-4305-89c0-2977ed60545e","ios":"levelo://app?vid=1fd5b0cc-36e0-4305-89c0-2977ed60545e"},"vehicle_type_id":"4","last_reported":1753200871,"current_range_meters":6000,"station_id":"ce4bh412rcd13ifvqds0","pricing_plan_id":"cebpf4jnsgd1na2vs0mg"},{"bike_id":"424fcc19-7b68-4f77-bedb-443415bc50c9","system_id":"levelo_inurba_marseille","lat":43.29001,"lon":5.35615,"is_reserved":false,"is_disabled":false,"rental_uris":{"android":"levelo://app?vid=424fcc19-7b68-4f77-bedb-443415bc50c9","ios":"levelo://app?vid=424fcc19-7b68-4f77-bedb-443415bc50c9"},"vehicle_type_id":"4","last_reported":1753200871,"current_range_meters":6400,"station_id":"ce4bhb92rcd13ifvqen0","pricing_plan_id":"cebpf4jnsgd1na2vs0mg"},{"bike_id":"d22eaafd-550d-4c90-8271-baa493fc9f01","system_id":"levelo_inurba_marseille","lat":43.29514,"lon":5.39052,"is_reserved":false,"is_disabled":false,"rental_uris":{"android":"levelo://app?vid=d22eaafd-550d-4c90-8271-baa493fc9f01","ios":"levelo://app?vid=d22eaafd-550d-4c90-8271-baa493fc9f01"},"vehicle_type_id":"4","last_reported":1753200871,"current_range_meters":6400,"station_id":"ce4bh3p2rcd13ifvqdp0","pricing_plan_id":"cebpf4jnsgd1na2vs0mg"},{"bike_id":"9e0587bc-5559-4743-983c-54703b1525bd","system_id":"levelo_inurba_marseille","lat":43.29264,"lon":5.37632,"is_reserved":false,"is_disabled":false,"rental_uris":{"android":"levelo://app?vid=9e0587bc-5559-4743-983c-54703b1525bd","ios":"levelo://app?vid=9e0587bc-5559-4743-983c-54703b1525bd"},"vehicle_type_id":"4","last_reported":1753200871,"current_range_meters":6800,"station_id":"ce4bgi12rcd13ifvqb80","pricing_plan_id":"cebpf4jnsgd1na2vs0mg"},{"bike_id":"c3765af9-85d2-4553-894e-5f550ffeb1e2","system_id":"levelo_inurba_marseille","lat":43.29432,"lon":5.39742,"is_reserved":false,"is_disabled":false,"rental_uris":{"android":"levelo://app?vid=c3765af9-85d2-4553-894e-5f550ffeb1e2","ios":"levelo://app?vid=c3765af9-85d2-4553-894e-5f550ffeb1e2"},"vehicle_type_id":"4","last_reported":1753200871,"current_range_meters":7200,"station_id":"ce4bh3h2rcd13ifvqdo0","pricing_plan_id":"cebpf4jnsgd1na2vs0mg"},{"bike_id":"3163fd38-1898-47b2-b400-8accba88e703","system_id":"levelo_inurba_marseille","lat":43.297068,"lon":5.366111,"is_reserved":false,"is_disabled":false,"rental_uris":{"android":"levelo://app?vid=3163fd38-1898-47b2-b400-8accba88e703","ios":"levelo://app?vid=3163fd38-1898-47b2-b400-8accba88e703"},"vehicle_type_id":"4","last_reported":1753200871,"current_range_meters":7200,"station_id":"ce4bgn12rcd13ifvqbt0","pricing_plan_id":"cebpf4jnsgd1na2vs0mg"},{"bike_id":"ccf13aa7-715a-45ae-9e3e-e92ec8ac037b","system_id":"levelo_inurba_marseille","lat":43.28611,"lon":5.35107,"is_reserved":false,"is_disabled":false,"rental_uris":{"android":"levelo://app?vid=ccf13aa7-715a-45ae-9e3e-e92ec8ac037b","ios":"levelo://app?vid=ccf13aa7-715a-45ae-9e3e-e92ec8ac037b"},"vehicle_type_id":"4","last_reported":1753200871,"current_range_meters":8000,"station_id":"ce4bhch2rcd13ifvqeug","pricing_plan_id":"cebpf4jnsgd1na2vs0mg"},{"bike_id":"6e502309-de0d-4066-bc01-97e29b166aaa","system_id":"levelo_inurba_marseille","lat":43.28346,"lon":5.38086,"is_reserved":false,"is_disabled":false,"rental_uris":{"android":"levelo://app?vid=6e502309-de0d-4066-bc01-97e29b166aaa","ios":"levelo://app?vid=6e502309-de0d-4066-bc01-97e29b166aaa"},"vehicle_type_id":"4","last_reported":1753200871,"current_range_meters":8000,"station_id":"ce4bh412rcd13ifvqdr0","pricing_plan_id":"cebpf4jnsgd1na2vs0mg"},{"bike_id":"fafb6ebb-ff37-475b-a8b1-6ca1ac79f6a9","system_id":"levelo_inurba_marseille","lat":43.25123,"lon":5.40316,"is_reserved":false,"is_disabled":false,"rental_uris":{"android":"levelo://app?vid=fafb6ebb-ff37-475b-a8b1-6ca1ac79f6a9","ios":"levelo://app?vid=fafb6ebb-ff37-475b-a8b1-6ca1ac79f6a9"},"vehicle_type_id":"4","last_reported":1753200871,"current_range_meters":8000,"station_id":"ce4bhlh2rcd13ifvqgig","pricing_plan_id":"cebpf4jnsgd1na2vs0mg"},{"bike_id":"35c82fc0-6bcc-439b-9f9e-0aee957b190b","system_id":"levelo_inurba_marseille","lat":43.28422,"lon":5.34988,"is_reserved":false,"is_disabled":false,"rental_uris":{"android":"levelo://app?vid=35c82fc0-6bcc-439b-9f9e-0aee957b190b","ios":"levelo://app?vid=35c82fc0-6bcc-439b-9f9e-0aee957b190b"},"vehicle_type_id":"4","last_reported":1753200871,"current_range_meters":8000,"station_id":"ce4bhbh2rcd13ifvqepg","pricing_plan_id":"cebpf4jnsgd1na2vs0mg"},{"bike_id":"39772d83-ed7f-4238-befb-f48acb41a4e1","system_id":"levelo_inurba_marseille","lat":43.21767,"lon":5.34592,"is_reserved":false,"is_disabled":false,"rental_uris":{"android":"levelo://app?vid=39772d83-ed7f-4238-befb-f48acb41a4e1","ios":"levelo://app?vid=39772d83-ed7f-4238-befb-f48acb41a4e1"},"vehicle_type_id":"4","last_reported":1753200871,"current_range_meters":8000,"station_id":"st_cvj6r9ubvosntc0bgbag","pricing_plan_id":"cebpf4jnsgd1na2vs0mg"},{"bike_id":"374764e9-1483-4c39-a939-2017d46b717a","system_id":"levelo_inurba_marseille","lat":43.280393,"lon":5.35004,"is_reserved":false,"is_disabled":false,"rental_uris":{"android":"levelo://app?vid=374764e9-1483-4c39-a939-2017d46b717a","ios":"levelo://app?vid=374764e9-1483-4c39-a939-2017d46b717a"},"vehicle_type_id":"4","last_reported":1753200871,"current_range_meters":8000,"station_id":"","pricing_plan_id":"cebpf4jnsgd1na2vs0mg"},{"bike_id":"10ac8e92-8301-432f-b313-9963a82ddc04","system_id":"levelo_inurba_marseille","lat":43.28411,"lon":5.34995,"is_reserved":false,"is_disabled":false,"rental_uris":{"android":"levelo://app?vid=10ac8e92-8301-432f-b313-9963a82ddc04","ios":"levelo://app?vid=10ac8e92-8301-432f-b313-9963a82ddc04"},"vehicle_type_id":"4","last_reported":1753200871,"current_range_meters":8000,"station_id":"ce4bhbh2rcd13ifvqepg","pricing_plan_id":"cebpf4jnsgd1na2vs0mg"},{"bike_id":"90d5041f-b3e1-44c4-8ffb-29cac5cde8f2","system_id":"levelo_inurba_marseille","lat":43.28492,"lon":5.38416,"is_reserved":false,"is_disabled":false,"rental_uris":{"android":"levelo://app?vid=90d5041f-b3e1-44c4-8ffb-29cac5cde8f2","ios":"levelo://app?vid=90d5041f-b3e1-44c4-8ffb-29cac5cde8f2"},"vehicle_type_id":"4","last_reported":1753200871,"current_range_meters":8400,"station_id":"ce4bh512rcd13ifvqe3g","pricing_plan_id":"cebpf4jnsgd1na2vs0mg"},{"bike_id":"030ab143-f6c7-48f5-b52d-fd13a1f5c2df","system_id":"levelo_inurba_marseille","lat":43.292664,"lon":5.384518,"is_reserved":false,"is_disabled":false,"rental_uris":{"android":"levelo://app?vid=030ab143-f6c7-48f5-b52d-fd13a1f5c2df","ios":"levelo://app?vid=030ab143-f6c7-48f5-b52d-fd13a1f5c2df"},"vehicle_type_id":"4","last_reported":1753200871,"current_range_meters":8400,"station_id":"ce4bh692rcd13ifvqea0","pricing_plan_id":"cebpf4jnsgd1na2vs0mg"},{"bike_id":"e68363c5-0e3c-4612-bc72-b712b6ae55ed","system_id":"levelo_inurba_marseille","lat":43.28415,"lon":5.34984,"is_reserved":false,"is_disabled":false,"rental_uris":{"android":"levelo://app?vid=e68363c5-0e3c-4612-bc72-b712b6ae55ed","ios":"levelo://app?vid=e68363c5-0e3c-4612-bc72-b712b6ae55ed"},"vehicle_type_id":"4","last_reported":1753200871,"current_range_meters":6800,"station_id":"ce4bhbh2rcd13ifvqepg","pricing_plan_id":"cebpf4jnsgd1na2vs0mg"},{"bike_id":"42413a25-16d1-4419-b44a-45580e0c6ac6","system_id":"levelo_inurba_marseille","lat":43.282171,"lon":5.395775,"is_reserved":false,"is_disabled":false,"rental_uris":{"android":"levelo://app?vid=42413a25-16d1-4419-b44a-45580e0c6ac6","ios":"levelo://app?vid=42413a25-16d1-4419-b44a-45580e0c6ac6"},"vehicle_type_id":"4","last_reported":1753200871,"current_range_meters":8800,"station_id":"","pricing_plan_id":"cebpf4jnsgd1na2vs0mg"},{"bike_id":"255dda78-97ea-40ef-983f-8c63dd973e68","system_id":"levelo_inurba_marseille","lat":43.28954,"lon":5.36393,"is_reserved":false,"is_disabled":false,"rental_uris":{"android":"levelo://app?vid=255dda78-97ea-40ef-983f-8c63dd973e68","ios":"levelo://app?vid=255dda78-97ea-40ef-983f-8c63dd973e68"},"vehicle_type_id":"4","last_reported":1753200871,"current_range_meters":8800,"station_id":"ce4bhc92rcd13ifvqetg","pricing_plan_id":"cebpf4jnsgd1na2vs0mg"},{"bike_id":"b1146126-6f17-44b2-b377-c992a3989c79","system_id":"levelo_inurba_marseille","lat":43.25875,"lon":5.39895,"is_reserved":false,"is_disabled":false,"rental_uris":{"android":"levelo://app?vid=b1146126-6f17-44b2-b377-c992a3989c79","ios":"levelo://app?vid=b1146126-6f17-44b2-b377-c992a3989c79"},"vehicle_type_id":"4","last_reported":1753200871,"current_range_meters":8800,"station_id":"ce4bhl92rcd13ifvqghg","pricing_plan_id":"cebpf4jnsgd1na2vs0mg"},{"bike_id":"e6bf8dc9-965b-46c9-bb57-c89af739f3c5","system_id":"levelo_inurba_marseille","lat":43.31272,"lon":5.40167,"is_reserved":false,"is_disabled":false,"rental_uris":{"android":"levelo://app?vid=e6bf8dc9-965b-46c9-bb57-c89af739f3c5","ios":"levelo://app?vid=e6bf8dc9-965b-46c9-bb57-c89af739f3c5"},"vehicle_type_id":"4","last_reported":1753200871,"current_range_meters":8800,"station_id":"ce4bh092rcd13ifvqd30","pricing_plan_id":"cebpf4jnsgd1na2vs0mg"},{"bike_id":"930626ec-86b9-47e5-be79-afe64ed1d679","system_id":"levelo_inurba_marseille","lat":43.27939,"lon":5.4105,"is_reserved":false,"is_disabled":false,"rental_uris":{"android":"levelo://app?vid=930626ec-86b9-47e5-be79-afe64ed1d679","ios":"levelo://app?vid=930626ec-86b9-47e5-be79-afe64ed1d679"},"vehicle_type_id":"4","last_reported":1753200871,"current_range_meters":9200,"station_id":"ce4bhnp2rcd13ifvqh0g","pricing_plan_id":"cebpf4jnsgd1na2vs0mg"},{"bike_id":"88e297d1-7945-40aa-99cd-66a3e327fbab","system_id":"levelo_inurba_marseille","lat":43.28458,"lon":5.35891,"is_reserved":false,"is_disabled":false,"rental_uris":{"android":"levelo://app?vid=88e297d1-7945-40aa-99cd-66a3e327fbab","ios":"levelo://app?vid=88e297d1-7945-40aa-99cd-66a3e327fbab"},"vehicle_type_id":"4","last_reported":1753200871,"current_range_meters":9200,"station_id":"ce4bhah2rcd13ifvqei0","pricing_plan_id":"cebpf4jnsgd1na2vs0mg"},{"bike_id":"3b7181ea-5d3a-45c5-b42b-53c72962b3ee","system_id":"levelo_inurba_marseille","lat":43.22328,"lon":5.34626,"is_reserved":false,"is_disabled":false,"rental_uris":{"android":"levelo://app?vid=3b7181ea-5d3a-45c5-b42b-53c72962b3ee","ios":"levelo://app?vid=3b7181ea-5d3a-45c5-b42b-53c72962b3ee"},"vehicle_type_id":"4","last_reported":1753200871,"current_range_meters":9200,"station_id":"","pricing_plan_id":"cebpf4jnsgd1na2vs0mg"},{"bike_id":"e92c4e48-798e-41db-9f9c-2306e7b553b9","system_id":"levelo_inurba_marseille","lat":43.29284,"lon":5.36851,"is_reserved":false,"is_disabled":false,"rental_uris":{"android":"levelo://app?vid=e92c4e48-798e-41db-9f9c-2306e7b553b9","ios":"levelo://app?vid=e92c4e48-798e-41db-9f9c-2306e7b553b9"},"vehicle_type_id":"4","last_reported":1753200871,"current_range_meters":9200,"station_id":"ce4bhbp2rcd13ifvqesg","pricing_plan_id":"cebpf4jnsgd1na2vs0mg"},{"bike_id":"378d9ac0-c2b4-4789-8668-a1649f09ba9b","system_id":"levelo_inurba_marseille","lat":43.23192,"lon":5.35557,"is_reserved":false,"is_disabled":false,"rental_uris":{"android":"levelo://app?vid=378d9ac0-c2b4-4789-8668-a1649f09ba9b","ios":"levelo://app?vid=378d9ac0-c2b4-4789-8668-a1649f09ba9b"},"vehicle_type_id":"4","last_reported":1753200871,"current_range_meters":9200,"station_id":"ce4bhu92rcd13ifvqi70","pricing_plan_id":"cebpf4jnsgd1na2vs0mg"},{"bike_id":"dcf17eec-38a9-45a4-aaec-96c5cad75a4a","system_id":"levelo_inurba_marseille","lat":43.28944,"lon":5.39639,"is_reserved":false,"is_disabled":true,"rental_uris":{"android":"levelo://app?vid=dcf17eec-38a9-45a4-aaec-96c5cad75a4a","ios":"levelo://app?vid=dcf17eec-38a9-45a4-aaec-96c5cad75a4a"},"vehicle_type_id":"4","last_reported":1753200871,"current_range_meters":9600,"station_id":"ce4bh3h2rcd13ifvqdn0","pricing_plan_id":"cebpf4jnsgd1na2vs0mg"},{"bike_id":"2791a1cf-f8f1-4674-9084-f245d5cf3114","system_id":"levelo_inurba_marseille","lat":43.28417,"lon":5.34986,"is_reserved":false,"is_disabled":false,"rental_uris":{"android":"levelo://app?vid=2791a1cf-f8f1-4674-9084-f245d5cf3114","ios":"levelo://app?vid=2791a1cf-f8f1-4674-9084-f245d5cf3114"},"vehicle_type_id":"4","last_reported":1753200871,"current_range_meters":9600,"station_id":"ce4bhbh2rcd13ifvqepg","pricing_plan_id":"cebpf4jnsgd1na2vs0mg"},{"bike_id":"d85ec1a9-8ce8-4582-866f-e81b8010795f","system_id":"levelo_inurba_marseille","lat":43.282744,"lon":5.350748,"is_reserved":false,"is_disabled":false,"rental_uris":{"android":"levelo://app?vid=d85ec1a9-8ce8-4582-866f-e81b8010795f","ios":"levelo://app?vid=d85ec1a9-8ce8-4582-866f-e81b8010795f"},"vehicle_type_id":"4","last_reported":1753200871,"current_range_meters":9600,"station_id":"ce4bhbp2rcd13ifvqerg","pricing_plan_id":"cebpf4jnsgd1na2vs0mg"},{"bike_id":"fc90b9d7-bbef-4a09-b47b-5433b515fc4c","system_id":"levelo_inurba_marseille","lat":43.28613,"lon":5.37078,"is_reserved":false,"is_disabled":false,"rental_uris":{"android":"levelo://app?vid=fc90b9d7-bbef-4a09-b47b-5433b515fc4c","ios":"levelo://app?vid=fc90b9d7-bbef-4a09-b47b-5433b515fc4c"},"vehicle_type_id":"4","last_reported":1753200871,"current_range_meters":9600,"station_id":"ce4bht12rcd13ifvqi60","pricing_plan_id":"cebpf4jnsgd1na2vs0mg"},{"bike_id":"3003df9c-7e41-4757-8f7e-5621dac17212","system_id":"levelo_inurba_marseille","lat":43.28413,"lon":5.37523,"is_reserved":false,"is_disabled":false,"rental_uris":{"android":"levelo://app?vid=3003df9c-7e41-4757-8f7e-5621dac17212","ios":"levelo://app?vid=3003df9c-7e41-4757-8f7e-5621dac17212"},"vehicle_type_id":"4","last_reported":1753200871,"current_range_meters":9600,"station_id":"ce4bh412rcd13ifvqds0","pricing_plan_id":"cebpf4jnsgd1na2vs0mg"},{"bike_id":"02f62ba6-cb19-48be-956f-a91e18589f34","system_id":"levelo_inurba_marseille","lat":43.28287,"lon":5.35064,"is_reserved":false,"is_disabled":false,"rental_uris":{"android":"levelo://app?vid=02f62ba6-cb19-48be-956f-a91e18589f34","ios":"levelo://app?vid=02f62ba6-cb19-48be-956f-a91e18589f34"},"vehicle_type_id":"4","last_reported":1753200871,"current_range_meters":10000,"station_id":"ce4bhbp2rcd13ifvqerg","pricing_plan_id":"cebpf4jnsgd1na2vs0mg"},{"bike_id":"6fa33b56-a966-4269-8145-08113ba51afe","system_id":"levelo_inurba_marseille","lat":43.28409,"lon":5.34986,"is_reserved":false,"is_disabled":false,"rental_uris":{"android":"levelo://app?vid=6fa33b56-a966-4269-8145-08113ba51afe","ios":"levelo://app?vid=6fa33b56-a966-4269-8145-08113ba51afe"},"vehicle_type_id":"4","last_reported":1753200871,"current_range_meters":10800,"station_id":"ce4bhbh2rcd13ifvqepg","pricing_plan_id":"cebpf4jnsgd1na2vs0mg"},{"bike_id":"0f348c3a-9c1f-4c70-9e20-f575459bb753","system_id":"levelo_inurba_marseille","lat":43.282685,"lon":5.350588,"is_reserved":false,"is_disabled":false,"rental_uris":{"android":"levelo://app?vid=0f348c3a-9c1f-4c70-9e20-f575459bb753","ios":"levelo://app?vid=0f348c3a-9c1f-4c70-9e20-f575459bb753"},"vehicle_type_id":"4","last_reported":1753200871,"current_range_meters":10800,"station_id":"ce4bhbp2rcd13ifvqerg","pricing_plan_id":"cebpf4jnsgd1na2vs0mg"},{"bike_id":"20a281eb-353f-4ce3-be36-127a9ce94c34","system_id":"levelo_inurba_marseille","lat":43.24803,"lon":5.37456,"is_reserved":false,"is_disabled":false,"rental_uris":{"android":"levelo://app?vid=20a281eb-353f-4ce3-be36-127a9ce94c34","ios":"levelo://app?vid=20a281eb-353f-4ce3-be36-127a9ce94c34"},"vehicle_type_id":"4","last_reported":1753200871,"current_range_meters":11200,"station_id":"ce4bhgh2rcd13ifvqfb0","pricing_plan_id":"cebpf4jnsgd1na2vs0mg"},{"bike_id":"fb2b2945-d0ca-4e5e-8c1a-0e9891681402","system_id":"levelo_inurba_marseille","lat":43.239614,"lon":5.366225,"is_reserved":false,"is_disabled":false,"rental_uris":{"android":"levelo://app?vid=fb2b2945-d0ca-4e5e-8c1a-0e9891681402","ios":"levelo://app?vid=fb2b2945-d0ca-4e5e-8c1a-0e9891681402"},"vehicle_type_id":"4","last_reported":1753200871,"current_range_meters":11200,"station_id":"","pricing_plan_id":"cebpf4jnsgd1na2vs0mg"},{"bike_id":"35e21b68-dd22-402a-9212-e65e4af59d59","system_id":"levelo_inurba_marseille","lat":43.28259,"lon":5.350641,"is_reserved":false,"is_disabled":false,"rental_uris":{"android":"levelo://app?vid=35e21b68-dd22-402a-9212-e65e4af59d59","ios":"levelo://app?vid=35e21b68-dd22-402a-9212-e65e4af59d59"},"vehicle_type_id":"4","last_reported":1753200871,"current_range_meters":8800,"station_id":"ce4bhbp2rcd13ifvqerg","pricing_plan_id":"cebpf4jnsgd1na2vs0mg"},{"bike_id":"aed47e46-a072-4e8e-8266-c7af20f03ed8","system_id":"levelo_inurba_marseille","lat":43.284641,"lon":5.34978,"is_reserved":false,"is_disabled":false,"rental_uris":{"android":"levelo://app?vid=aed47e46-a072-4e8e-8266-c7af20f03ed8","ios":"levelo://app?vid=aed47e46-a072-4e8e-8266-c7af20f03ed8"},"vehicle_type_id":"4","last_reported":1753200871,"current_range_meters":11600,"station_id":"","pricing_plan_id":"cebpf4jnsgd1na2vs0mg"},{"bike_id":"93a8b295-0442-42cd-9a09-5ad251943cf6","system_id":"levelo_inurba_marseille","lat":43.28424,"lon":5.34993,"is_reserved":false,"is_disabled":false,"rental_uris":{"android":"levelo://app?vid=93a8b295-0442-42cd-9a09-5ad251943cf6","ios":"levelo://app?vid=93a8b295-0442-42cd-9a09-5ad251943cf6"},"vehicle_type_id":"4","last_reported":1753200871,"current_range_meters":11600,"station_id":"ce4bhbh2rcd13ifvqepg","pricing_plan_id":"cebpf4jnsgd1na2vs0mg"},{"bike_id":"50e2b739-6333-4f3a-902e-13106daae8e4","system_id":"levelo_inurba_marseille","lat":43.24156,"lon":5.364,"is_reserved":false,"is_disabled":false,"rental_uris":{"android":"levelo://app?vid=50e2b739-6333-4f3a-902e-13106daae8e4","ios":"levelo://app?vid=50e2b739-6333-4f3a-902e-13106daae8e4"},"vehicle_type_id":"4","last_reported":1753200871,"current_range_meters":11600,"station_id":"cpo36qri1sfpv3e86is0","pricing_plan_id":"cebpf4jnsgd1na2vs0mg"},{"bike_id":"49b89f8a-7097-42b0-8a5b-a589863bccbe","system_id":"levelo_inurba_marseille","lat":43.28355,"lon":5.38108,"is_reserved":false,"is_disabled":false,"rental_uris":{"android":"levelo://app?vid=49b89f8a-7097-42b0-8a5b-a589863bccbe","ios":"levelo://app?vid=49b89f8a-7097-42b0-8a5b-a589863bccbe"},"vehicle_type_id":"4","last_reported":1753200871,"current_range_meters":12000,"station_id":"ce4bh412rcd13ifvqdr0","pricing_plan_id":"cebpf4jnsgd1na2vs0mg"},{"bike_id":"a1e7fec9-9fec-4e35-ba20-000439584863","system_id":"levelo_inurba_marseille","lat":43.30429,"lon":5.39758,"is_reserved":false,"is_disabled":false,"rental_uris":{"android":"levelo://app?vid=a1e7fec9-9fec-4e35-ba20-000439584863","ios":"levelo://app?vid=a1e7fec9-9fec-4e35-ba20-000439584863"},"vehicle_type_id":"4","last_reported":1753200871,"current_range_meters":12000,"station_id":"ce4bh092rcd13ifvqd20","pricing_plan_id":"cebpf4jnsgd1na2vs0mg"},{"bike_id":"9a5932be-b66c-473f-88d5-fbef78784b37","system_id":"levelo_inurba_marseille","lat":43.29803,"lon":5.38095,"is_reserved":false,"is_disabled":false,"rental_uris":{"android":"levelo://app?vid=9a5932be-b66c-473f-88d5-fbef78784b37","ios":"levelo://app?vid=9a5932be-b66c-473f-88d5-fbef78784b37"},"vehicle_type_id":"4","last_reported":1753200871,"current_range_meters":12000,"station_id":"ce4bgip2rcd13ifvqbb0","pricing_plan_id":"cebpf4jnsgd1na2vs0mg"},{"bike_id":"14bfe123-f8e8-44fc-bbe3-440808c69a8b","system_id":"levelo_inurba_marseille","lat":43.284221,"lon":5.349897,"is_reserved":false,"is_disabled":false,"rental_uris":{"android":"levelo://app?vid=14bfe123-f8e8-44fc-bbe3-440808c69a8b","ios":"levelo://app?vid=14bfe123-f8e8-44fc-bbe3-440808c69a8b"},"vehicle_type_id":"4","last_reported":1753200871,"current_range_meters":12000,"station_id":"ce4bhbh2rcd13ifvqepg","pricing_plan_id":"cebpf4jnsgd1na2vs0mg"},{"bike_id":"a5f1f0d6-c678-45f4-9b29-96eaa29a3e36","system_id":"levelo_inurba_marseille","lat":43.25136,"lon":5.373399,"is_reserved":false,"is_disabled":false,"rental_uris":{"android":"levelo://app?vid=a5f1f0d6-c678-45f4-9b29-96eaa29a3e36","ios":"levelo://app?vid=a5f1f0d6-c678-45f4-9b29-96eaa29a3e36"},"vehicle_type_id":"4","last_reported":1753200871,"current_range_meters":12000,"station_id":"","pricing_plan_id":"cebpf4jnsgd1na2vs0mg"},{"bike_id":"005dc092-8f02-4036-b843-760f496a3752","system_id":"levelo_inurba_marseille","lat":43.29725,"lon":5.37692,"is_reserved":false,"is_disabled":false,"rental_uris":{"android":"levelo://app?vid=005dc092-8f02-4036-b843-760f496a3752","ios":"levelo://app?vid=005dc092-8f02-4036-b843-760f496a3752"},"vehicle_type_id":"4","last_reported":1753200871,"current_range_meters":12400,"station_id":"ce4bgkh2rcd13ifvqbl0","pricing_plan_id":"cebpf4jnsgd1na2vs0mg"},{"bike_id":"0082530e-bede-4c25-a59b-99f14518d4f6","system_id":"levelo_inurba_marseille","lat":43.32352,"lon":5.36725,"is_reserved":false,"is_disabled":false,"rental_uris":{"android":"levelo://app?vid=0082530e-bede-4c25-a59b-99f14518d4f6","ios":"levelo://app?vid=0082530e-bede-4c25-a59b-99f14518d4f6"},"vehicle_type_id":"4","last_reported":1753200871,"current_range_meters":12400,"station_id":"ce4bhsh2rcd13ifvqi2g","pricing_plan_id":"cebpf4jnsgd1na2vs0mg"},{"bike_id":"06410ab7-646b-4a92-8c67-9be9379422d4","system_id":"levelo_inurba_marseille","lat":43.3304,"lon":5.41296,"is_reserved":false,"is_disabled":false,"rental_uris":{"android":"levelo://app?vid=06410ab7-646b-4a92-8c67-9be9379422d4","ios":"levelo://app?vid=06410ab7-646b-4a92-8c67-9be9379422d4"},"vehicle_type_id":"4","last_reported":1753200871,"current_range_meters":12400,"station_id":"","pricing_plan_id":"cebpf4jnsgd1na2vs0mg"},{"bike_id":"971327d4-c2d7-4a55-aedc-2eddc9a01337","system_id":"levelo_inurba_marseille","lat":43.28482,"lon":5.38576,"is_reserved":false,"is_disabled":false,"rental_uris":{"android":"levelo://app?vid=971327d4-c2d7-4a55-aedc-2eddc9a01337","ios":"levelo://app?vid=971327d4-c2d7-4a55-aedc-2eddc9a01337"},"vehicle_type_id":"4","last_reported":1753200871,"current_range_meters":12400,"station_id":"ce4bh8p2rcd13ifvqeb0","pricing_plan_id":"cebpf4jnsgd1na2vs0mg"},{"bike_id":"a193284f-229d-4111-9241-d6b3f2881149","system_id":"levelo_inurba_marseille","lat":43.3025,"lon":5.40077,"is_reserved":false,"is_disabled":false,"rental_uris":{"android":"levelo://app?vid=a193284f-229d-4111-9241-d6b3f2881149","ios":"levelo://app?vid=a193284f-229d-4111-9241-d6b3f2881149"},"vehicle_type_id":"4","last_reported":1753200871,"current_range_meters":12000,"station_id":"ce4bgvh2rcd13ifvqcs0","pricing_plan_id":"cebpf4jnsgd1na2vs0mg"},{"bike_id":"b2cde23e-f061-454e-9280-8b07da9edd7e","system_id":"levelo_inurba_marseille","lat":43.240692,"lon":5.377619,"is_reserved":false,"is_disabled":false,"rental_uris":{"android":"levelo://app?vid=b2cde23e-f061-454e-9280-8b07da9edd7e","ios":"levelo://app?vid=b2cde23e-f061-454e-9280-8b07da9edd7e"},"vehicle_type_id":"4","last_reported":1753200871,"current_range_meters":12400,"station_id":"ce4bhnp2rcd13ifvqgvg","pricing_plan_id":"cebpf4jnsgd1na2vs0mg"},{"bike_id":"04e433b1-332e-4339-8955-3721a3e6b4d8","system_id":"levelo_inurba_marseille","lat":43.27618,"lon":5.36105,"is_reserved":false,"is_disabled":false,"rental_uris":{"android":"levelo://app?vid=04e433b1-332e-4339-8955-3721a3e6b4d8","ios":"levelo://app?vid=04e433b1-332e-4339-8955-3721a3e6b4d8"},"vehicle_type_id":"4","last_reported":1753200871,"current_range_meters":12400,"station_id":"ce4bgj92rcd13ifvqbe0","pricing_plan_id":"cebpf4jnsgd1na2vs0mg"},{"bike_id":"22b096f1-4711-4f5c-94b9-dc8e63fba6f4","system_id":"levelo_inurba_marseille","lat":43.309487,"lon":5.39038,"is_reserved":false,"is_disabled":false,"rental_uris":{"android":"levelo://app?vid=22b096f1-4711-4f5c-94b9-dc8e63fba6f4","ios":"levelo://app?vid=22b096f1-4711-4f5c-94b9-dc8e63fba6f4"},"vehicle_type_id":"4","last_reported":1753200871,"current_range_meters":20000,"station_id":"ce4bgup2rcd13ifvqco0","pricing_plan_id":"cebpf4jnsgd1na2vs0mg"},{"bike_id":"365bc9b2-68bd-4764-ad7a-4ff9aa780715","system_id":"levelo_inurba_marseille","lat":43.29903,"lon":5.43672,"is_reserved":false,"is_disabled":false,"rental_uris":{"android":"levelo://app?vid=365bc9b2-68bd-4764-ad7a-4ff9aa780715","ios":"levelo://app?vid=365bc9b2-68bd-4764-ad7a-4ff9aa780715"},"vehicle_type_id":"4","last_reported":1753200871,"current_range_meters":12800,"station_id":"ce4bhpp2rcd13ifvqhfg","pricing_plan_id":"cebpf4jnsgd1na2vs0mg"},{"bike_id":"c05f8a9b-b11a-421b-bf54-758864ba593c","system_id":"levelo_inurba_marseille","lat":43.25934,"lon":5.40909,"is_reserved":false,"is_disabled":true,"rental_uris":{"android":"levelo://app?vid=c05f8a9b-b11a-421b-bf54-758864ba593c","ios":"levelo://app?vid=c05f8a9b-b11a-421b-bf54-758864ba593c"},"vehicle_type_id":"4","last_reported":1753200871,"current_range_meters":12800,"station_id":"ce4bhm92rcd13ifvqglg","pricing_plan_id":"cebpf4jnsgd1na2vs0mg"},{"bike_id":"3ed68220-ecae-4fa8-a35b-b52fb92ee1d2","system_id":"levelo_inurba_marseille","lat":43.30887,"lon":5.39651,"is_reserved":false,"is_disabled":false,"rental_uris":{"android":"levelo://app?vid=3ed68220-ecae-4fa8-a35b-b52fb92ee1d2","ios":"levelo://app?vid=3ed68220-ecae-4fa8-a35b-b52fb92ee1d2"},"vehicle_type_id":"4","last_reported":1753200871,"current_range_meters":12800,"station_id":"ce4bh012rcd13ifvqcv0","pricing_plan_id":"cebpf4jnsgd1na2vs0mg"},{"bike_id":"384590fd-ad19-4c17-9c3a-f767105276bc","system_id":"levelo_inurba_marseille","lat":43.32657,"lon":5.40987,"is_reserved":false,"is_disabled":false,"rental_uris":{"android":"levelo://app?vid=384590fd-ad19-4c17-9c3a-f767105276bc","ios":"levelo://app?vid=384590fd-ad19-4c17-9c3a-f767105276bc"},"vehicle_type_id":"4","last_reported":1753200871,"current_range_meters":12800,"station_id":"ce4bhpp2rcd13ifvqhgg","pricing_plan_id":"cebpf4jnsgd1na2vs0mg"},{"bike_id":"27d356a8-a524-44ee-999c-cdee9783dcf1","system_id":"levelo_inurba_marseille","lat":43.30385,"lon":5.42511,"is_reserved":false,"is_disabled":false,"rental_uris":{"android":"levelo://app?vid=27d356a8-a524-44ee-999c-cdee9783dcf1","ios":"levelo://app?vid=27d356a8-a524-44ee-999c-cdee9783dcf1"},"vehicle_type_id":"4","last_reported":1753200871,"current_range_meters":13600,"station_id":"ce4bhoh2rcd13ifvqh6g","pricing_plan_id":"cebpf4jnsgd1na2vs0mg"},{"bike_id":"79b507a4-6b69-4862-bc07-d60efb691c7d","system_id":"levelo_inurba_marseille","lat":43.28485,"lon":5.38536,"is_reserved":false,"is_disabled":false,"rental_uris":{"android":"levelo://app?vid=79b507a4-6b69-4862-bc07-d60efb691c7d","ios":"levelo://app?vid=79b507a4-6b69-4862-bc07-d60efb691c7d"},"vehicle_type_id":"4","last_reported":1753200871,"current_range_meters":13600,"station_id":"","pricing_plan_id":"cebpf4jnsgd1na2vs0mg"},{"bike_id":"186b2307-f55e-4348-b7e7-71175327b30a","system_id":"levelo_inurba_marseille","lat":43.30782,"lon":5.37651,"is_reserved":false,"is_disabled":false,"rental_uris":{"android":"levelo://app?vid=186b2307-f55e-4348-b7e7-71175327b30a","ios":"levelo://app?vid=186b2307-f55e-4348-b7e7-71175327b30a"},"vehicle_type_id":"4","last_reported":1753200871,"current_range_meters":12800,"station_id":"ce4bgv92rcd13ifvqcq0","pricing_plan_id":"cebpf4jnsgd1na2vs0mg"},{"bike_id":"4622107a-7f7f-4cc3-a1e3-817835e97873","system_id":"levelo_inurba_marseille","lat":43.29518,"lon":5.3903,"is_reserved":false,"is_disabled":false,"rental_uris":{"android":"levelo://app?vid=4622107a-7f7f-4cc3-a1e3-817835e97873","ios":"levelo://app?vid=4622107a-7f7f-4cc3-a1e3-817835e97873"},"vehicle_type_id":"4","last_reported":1753200871,"current_range_meters":13600,"station_id":"ce4bh3p2rcd13ifvqdp0","pricing_plan_id":"cebpf4jnsgd1na2vs0mg"},{"bike_id":"4ac849dd-e365-4829-9665-c592ad80fa6c","system_id":"levelo_inurba_marseille","lat":43.2175,"lon":5.34603,"is_reserved":false,"is_disabled":false,"rental_uris":{"android":"levelo://app?vid=4ac849dd-e365-4829-9665-c592ad80fa6c","ios":"levelo://app?vid=4ac849dd-e365-4829-9665-c592ad80fa6c"},"vehicle_type_id":"4","last_reported":1753200871,"current_range_meters":13600,"station_id":"st_cvj6r9ubvosntc0bgbag","pricing_plan_id":"cebpf4jnsgd1na2vs0mg"},{"bike_id":"e5dd0c4f-dad7-44fe-a879-9ad92af07c45","system_id":"levelo_inurba_marseille","lat":43.30534,"lon":5.36701,"is_reserved":false,"is_disabled":false,"rental_uris":{"android":"levelo://app?vid=e5dd0c4f-dad7-44fe-a879-9ad92af07c45","ios":"levelo://app?vid=e5dd0c4f-dad7-44fe-a879-9ad92af07c45"},"vehicle_type_id":"4","last_reported":1753200871,"current_range_meters":13600,"station_id":"ce4bgrp2rcd13ifvqc9g","pricing_plan_id":"cebpf4jnsgd1na2vs0mg"},{"bike_id":"196b925a-7672-4015-a1b2-9018af000a49","system_id":"levelo_inurba_marseille","lat":43.28664,"lon":5.38671,"is_reserved":false,"is_disabled":false,"rental_uris":{"android":"levelo://app?vid=196b925a-7672-4015-a1b2-9018af000a49","ios":"levelo://app?vid=196b925a-7672-4015-a1b2-9018af000a49"},"vehicle_type_id":"4","last_reported":1753200871,"current_range_meters":13600,"station_id":"ce4bh492rcd13ifvqdug","pricing_plan_id":"cebpf4jnsgd1na2vs0mg"},{"bike_id":"cc2a6e87-1462-429b-9768-9ea116c09bd0","system_id":"levelo_inurba_marseille","lat":43.33605,"lon":5.41035,"is_reserved":false,"is_disabled":false,"rental_uris":{"android":"levelo://app?vid=cc2a6e87-1462-429b-9768-9ea116c09bd0","ios":"levelo://app?vid=cc2a6e87-1462-429b-9768-9ea116c09bd0"},"vehicle_type_id":"4","last_reported":1753200871,"current_range_meters":13600,"station_id":"ce4bhqh2rcd13ifvqhmg","pricing_plan_id":"cebpf4jnsgd1na2vs0mg"},{"bike_id":"d9438eb8-ff5e-42f7-858b-99f1cb744856","system_id":"levelo_inurba_marseille","lat":43.28616,"lon":5.3511,"is_reserved":false,"is_disabled":false,"rental_uris":{"android":"levelo://app?vid=d9438eb8-ff5e-42f7-858b-99f1cb744856","ios":"levelo://app?vid=d9438eb8-ff5e-42f7-858b-99f1cb744856"},"vehicle_type_id":"4","last_reported":1753200871,"current_range_meters":14000,"station_id":"ce4bhch2rcd13ifvqeug","pricing_plan_id":"cebpf4jnsgd1na2vs0mg"},{"bike_id":"511189d2-bbee-4099-b3f3-4ad0f476e4aa","system_id":"levelo_inurba_marseille","lat":43.28413,"lon":5.37508,"is_reserved":false,"is_disabled":false,"rental_uris":{"android":"levelo://app?vid=511189d2-bbee-4099-b3f3-4ad0f476e4aa","ios":"levelo://app?vid=511189d2-bbee-4099-b3f3-4ad0f476e4aa"},"vehicle_type_id":"4","last_reported":1753200871,"current_range_meters":14000,"station_id":"ce4bh412rcd13ifvqds0","pricing_plan_id":"cebpf4jnsgd1na2vs0mg"},{"bike_id":"50e13176-795f-40f8-a3b9-3705c424cbc5","system_id":"levelo_inurba_marseille","lat":43.25602,"lon":5.38243,"is_reserved":false,"is_disabled":false,"rental_uris":{"android":"levelo://app?vid=50e13176-795f-40f8-a3b9-3705c424cbc5","ios":"levelo://app?vid=50e13176-795f-40f8-a3b9-3705c424cbc5"},"vehicle_type_id":"4","last_reported":1753200871,"current_range_meters":14000,"station_id":"ce4bhh12rcd13ifvqff0","pricing_plan_id":"cebpf4jnsgd1na2vs0mg"},{"bike_id":"f799a0a5-38ae-4f37-b027-b565774461b5","system_id":"levelo_inurba_marseille","lat":43.29262,"lon":5.38434,"is_reserved":false,"is_disabled":false,"rental_uris":{"android":"levelo://app?vid=f799a0a5-38ae-4f37-b027-b565774461b5","ios":"levelo://app?vid=f799a0a5-38ae-4f37-b027-b565774461b5"},"vehicle_type_id":"4","last_reported":1753200871,"current_range_meters":14000,"station_id":"ce4bh692rcd13ifvqea0","pricing_plan_id":"cebpf4jnsgd1na2vs0mg"},{"bike_id":"05d42747-d0a7-485b-804a-c208d042127e","system_id":"levelo_inurba_marseille","lat":43.24165,"lon":5.36405,"is_reserved":false,"is_disabled":false,"rental_uris":{"android":"levelo://app?vid=05d42747-d0a7-485b-804a-c208d042127e","ios":"levelo://app?vid=05d42747-d0a7-485b-804a-c208d042127e"},"vehicle_type_id":"4","last_reported":1753200871,"current_range_meters":14000,"station_id":"cpo36qri1sfpv3e86is0","pricing_plan_id":"cebpf4jnsgd1na2vs0mg"},{"bike_id":"c4b38904-35eb-4ffb-9c29-fbf244899888","system_id":"levelo_inurba_marseille","lat":43.28278,"lon":5.35065,"is_reserved":false,"is_disabled":false,"rental_uris":{"android":"levelo://app?vid=c4b38904-35eb-4ffb-9c29-fbf244899888","ios":"levelo://app?vid=c4b38904-35eb-4ffb-9c29-fbf244899888"},"vehicle_type_id":"4","last_reported":1753200871,"current_range_meters":14400,"station_id":"ce4bhbp2rcd13ifvqerg","pricing_plan_id":"cebpf4jnsgd1na2vs0mg"},{"bike_id":"89e5300e-f524-48d1-8669-762241baab60","system_id":"levelo_inurba_marseille","lat":43.22926,"lon":5.35383,"is_reserved":false,"is_disabled":false,"rental_uris":{"android":"levelo://app?vid=89e5300e-f524-48d1-8669-762241baab60","ios":"levelo://app?vid=89e5300e-f524-48d1-8669-762241baab60"},"vehicle_type_id":"4","last_reported":1753200871,"current_range_meters":14400,"station_id":"cpo3532slgdg3j2ikp40","pricing_plan_id":"cebpf4jnsgd1na2vs0mg"},{"bike_id":"55b6484b-daf5-484f-9ed9-0bd61933048f","system_id":"levelo_inurba_marseille","lat":43.29208,"lon":5.35792,"is_reserved":false,"is_disabled":false,"rental_uris":{"android":"levelo://app?vid=55b6484b-daf5-484f-9ed9-0bd61933048f","ios":"levelo://app?vid=55b6484b-daf5-484f-9ed9-0bd61933048f"},"vehicle_type_id":"4","last_reported":1753200871,"current_range_meters":14400,"station_id":"ce4bhb12rcd13ifvqel0","pricing_plan_id":"cebpf4jnsgd1na2vs0mg"},{"bike_id":"c9dbd36b-479c-4a5c-b200-3aa7673340d9","system_id":"levelo_inurba_marseille","lat":43.241448,"lon":5.363743,"is_reserved":false,"is_disabled":false,"rental_uris":{"android":"levelo://app?vid=c9dbd36b-479c-4a5c-b200-3aa7673340d9","ios":"levelo://app?vid=c9dbd36b-479c-4a5c-b200-3aa7673340d9"},"vehicle_type_id":"4","last_reported":1753200871,"current_range_meters":14400,"station_id":"","pricing_plan_id":"cebpf4jnsgd1na2vs0mg"},{"bike_id":"491c730a-83e0-4164-8e95-51c05bace714","system_id":"levelo_inurba_marseille","lat":43.284785,"lon":5.385604,"is_reserved":false,"is_disabled":false,"rental_uris":{"android":"levelo://app?vid=491c730a-83e0-4164-8e95-51c05bace714","ios":"levelo://app?vid=491c730a-83e0-4164-8e95-51c05bace714"},"vehicle_type_id":"4","last_reported":1753200871,"current_range_meters":14400,"station_id":"ce4bh8p2rcd13ifvqeb0","pricing_plan_id":"cebpf4jnsgd1na2vs0mg"},{"bike_id":"f3b52797-52c0-4f08-b705-8cb190cf0cdc","system_id":"levelo_inurba_marseille","lat":43.2783,"lon":5.39202,"is_reserved":false,"is_disabled":false,"rental_uris":{"android":"levelo://app?vid=f3b52797-52c0-4f08-b705-8cb190cf0cdc","ios":"levelo://app?vid=f3b52797-52c0-4f08-b705-8cb190cf0cdc"},"vehicle_type_id":"4","last_reported":1753200871,"current_range_meters":14400,"station_id":"ce4bhjp2rcd13ifvqga0","pricing_plan_id":"cebpf4jnsgd1na2vs0mg"},{"bike_id":"9e35f87b-92fc-4ad1-8892-b7e25a0e8789","system_id":"levelo_inurba_marseille","lat":43.2582,"lon":5.39438,"is_reserved":false,"is_disabled":false,"rental_uris":{"android":"levelo://app?vid=9e35f87b-92fc-4ad1-8892-b7e25a0e8789","ios":"levelo://app?vid=9e35f87b-92fc-4ad1-8892-b7e25a0e8789"},"vehicle_type_id":"4","last_reported":1753200871,"current_range_meters":14800,"station_id":"ce4bhih2rcd13ifvqfr0","pricing_plan_id":"cebpf4jnsgd1na2vs0mg"},{"bike_id":"fd75d7fc-c1af-48f5-88a2-7b3023bfcc30","system_id":"levelo_inurba_marseille","lat":43.225075,"lon":5.347874,"is_reserved":false,"is_disabled":false,"rental_uris":{"android":"levelo://app?vid=fd75d7fc-c1af-48f5-88a2-7b3023bfcc30","ios":"levelo://app?vid=fd75d7fc-c1af-48f5-88a2-7b3023bfcc30"},"vehicle_type_id":"4","last_reported":1753200871,"current_range_meters":14800,"station_id":"st_cvj5dfep6f1abm77gieg","pricing_plan_id":"cebpf4jnsgd1na2vs0mg"},{"bike_id":"b8157e49-d09e-4d5e-90fd-5d667c09b9a5","system_id":"levelo_inurba_marseille","lat":43.29058,"lon":5.3717,"is_reserved":false,"is_disabled":true,"rental_uris":{"android":"levelo://app?vid=b8157e49-d09e-4d5e-90fd-5d667c09b9a5","ios":"levelo://app?vid=b8157e49-d09e-4d5e-90fd-5d667c09b9a5"},"vehicle_type_id":"4","last_reported":1753200871,"current_range_meters":14800,"station_id":"ce4bgh92rcd13ifvqb40","pricing_plan_id":"cebpf4jnsgd1na2vs0mg"},{"bike_id":"85b65ca0-7365-40fb-8905-5a0638bc8593","system_id":"levelo_inurba_marseille","lat":43.229191,"lon":5.353791,"is_reserved":false,"is_disabled":false,"rental_uris":{"android":"levelo://app?vid=85b65ca0-7365-40fb-8905-5a0638bc8593","ios":"levelo://app?vid=85b65ca0-7365-40fb-8905-5a0638bc8593"},"vehicle_type_id":"4","last_reported":1753200871,"current_range_meters":14800,"station_id":"cpo3532slgdg3j2ikp40","pricing_plan_id":"cebpf4jnsgd1na2vs0mg"},{"bike_id":"07b740e5-afa4-41a5-8d7b-b166e6337c3e","system_id":"levelo_inurba_marseille","lat":43.26209,"lon":5.37444,"is_reserved":false,"is_disabled":false,"rental_uris":{"android":"levelo://app?vid=07b740e5-afa4-41a5-8d7b-b166e6337c3e","ios":"levelo://app?vid=07b740e5-afa4-41a5-8d7b-b166e6337c3e"},"vehicle_type_id":"4","last_reported":1753200871,"current_range_meters":14800,"station_id":"ce4bhgp2rcd13ifvqfc0","pricing_plan_id":"cebpf4jnsgd1na2vs0mg"},{"bike_id":"953e5f2c-8a6f-4b00-9835-8fcc6c8fdbc7","system_id":"levelo_inurba_marseille","lat":43.26208,"lon":5.37929,"is_reserved":false,"is_disabled":false,"rental_uris":{"android":"levelo://app?vid=953e5f2c-8a6f-4b00-9835-8fcc6c8fdbc7","ios":"levelo://app?vid=953e5f2c-8a6f-4b00-9835-8fcc6c8fdbc7"},"vehicle_type_id":"4","last_reported":1753200871,"current_range_meters":14800,"station_id":"ce4bhjp2rcd13ifvqg90","pricing_plan_id":"cebpf4jnsgd1na2vs0mg"},{"bike_id":"56d29d7b-0840-4d8c-8300-f08d40064ddb","system_id":"levelo_inurba_marseille","lat":43.22516,"lon":5.34771,"is_reserved":false,"is_disabled":false,"rental_uris":{"android":"levelo://app?vid=56d29d7b-0840-4d8c-8300-f08d40064ddb","ios":"levelo://app?vid=56d29d7b-0840-4d8c-8300-f08d40064ddb"},"vehicle_type_id":"4","last_reported":1753200871,"current_range_meters":14800,"station_id":"st_cvj5dfep6f1abm77gieg","pricing_plan_id":"cebpf4jnsgd1na2vs0mg"},{"bike_id":"aa5097b6-6968-4aec-b711-e7780938924b","system_id":"levelo_inurba_marseille","lat":43.32966,"lon":5.35898,"is_reserved":false,"is_disabled":false,"rental_uris":{"android":"levelo://app?vid=aa5097b6-6968-4aec-b711-e7780938924b","ios":"levelo://app?vid=aa5097b6-6968-4aec-b711-e7780938924b"},"vehicle_type_id":"4","last_reported":1753200871,"current_range_meters":14800,"station_id":"","pricing_plan_id":"cebpf4jnsgd1na2vs0mg"},{"bike_id":"7d2e5486-3a14-4be4-8a25-3496eb4f1965","system_id":"levelo_inurba_marseille","lat":43.29583,"lon":5.37506,"is_reserved":false,"is_disabled":false,"rental_uris":{"android":"levelo://app?vid=7d2e5486-3a14-4be4-8a25-3496eb4f1965","ios":"levelo://app?vid=7d2e5486-3a14-4be4-8a25-3496eb4f1965"},"vehicle_type_id":"4","last_reported":1753200871,"current_range_meters":15200,"station_id":"ce4bgh92rcd13ifvqb50","pricing_plan_id":"cebpf4jnsgd1na2vs0mg"},{"bike_id":"3c21b9e1-b296-4844-a6d5-b8d19c7f36c9","system_id":"levelo_inurba_marseille","lat":43.29197,"lon":5.38459,"is_reserved":false,"is_disabled":false,"rental_uris":{"android":"levelo://app?vid=3c21b9e1-b296-4844-a6d5-b8d19c7f36c9","ios":"levelo://app?vid=3c21b9e1-b296-4844-a6d5-b8d19c7f36c9"},"vehicle_type_id":"4","last_reported":1753200871,"current_range_meters":15200,"station_id":"","pricing_plan_id":"cebpf4jnsgd1na2vs0mg"},{"bike_id":"1e6792f6-e23b-4a70-9f0d-cfc180638578","system_id":"levelo_inurba_marseille","lat":43.27413,"lon":5.39416,"is_reserved":false,"is_disabled":false,"rental_uris":{"android":"levelo://app?vid=1e6792f6-e23b-4a70-9f0d-cfc180638578","ios":"levelo://app?vid=1e6792f6-e23b-4a70-9f0d-cfc180638578"},"vehicle_type_id":"4","last_reported":1753200871,"current_range_meters":15200,"station_id":"ce4bhgp2rcd13ifvqfe0","pricing_plan_id":"cebpf4jnsgd1na2vs0mg"},{"bike_id":"9d2f03b8-9bb2-4a34-8e28-df3c917e7b90","system_id":"levelo_inurba_marseille","lat":43.24387,"lon":5.3707,"is_reserved":false,"is_disabled":false,"rental_uris":{"android":"levelo://app?vid=9d2f03b8-9bb2-4a34-8e28-df3c917e7b90","ios":"levelo://app?vid=9d2f03b8-9bb2-4a34-8e28-df3c917e7b90"},"vehicle_type_id":"4","last_reported":1753200871,"current_range_meters":16000,"station_id":"ce4bhhh2rcd13ifvqfk0","pricing_plan_id":"cebpf4jnsgd1na2vs0mg"},{"bike_id":"e98317a9-59d1-4035-a22a-3f15a041ffdf","system_id":"levelo_inurba_marseille","lat":43.24653,"lon":5.38178,"is_reserved":false,"is_disabled":false,"rental_uris":{"android":"levelo://app?vid=e98317a9-59d1-4035-a22a-3f15a041ffdf","ios":"levelo://app?vid=e98317a9-59d1-4035-a22a-3f15a041ffdf"},"vehicle_type_id":"4","last_reported":1753200871,"current_range_meters":16000,"station_id":"ce4bhih2rcd13ifvqfr0","pricing_plan_id":"cebpf4jnsgd1na2vs0mg"},{"bike_id":"f7d24d79-fb73-44fe-a579-eccbe39a5e1e","system_id":"levelo_inurba_marseille","lat":43.24185,"lon":5.36393,"is_reserved":false,"is_disabled":false,"rental_uris":{"android":"levelo://app?vid=f7d24d79-fb73-44fe-a579-eccbe39a5e1e","ios":"levelo://app?vid=f7d24d79-fb73-44fe-a579-eccbe39a5e1e"},"vehicle_type_id":"4","last_reported":1753200871,"current_range_meters":16000,"station_id":"cpo36qri1sfpv3e86is0","pricing_plan_id":"cebpf4jnsgd1na2vs0mg"},{"bike_id":"a08dfd63-fca8-4db3-a935-3512aac7f22b","system_id":"levelo_inurba_marseille","lat":43.21781,"lon":5.34572,"is_reserved":false,"is_disabled":false,"rental_uris":{"android":"levelo://app?vid=a08dfd63-fca8-4db3-a935-3512aac7f22b","ios":"levelo://app?vid=a08dfd63-fca8-4db3-a935-3512aac7f22b"},"vehicle_type_id":"4","last_reported":1753200871,"current_range_meters":16000,"station_id":"","pricing_plan_id":"cebpf4jnsgd1na2vs0mg"},{"bike_id":"05787956-4b12-416c-9083-173a29f02362","system_id":"levelo_inurba_marseille","lat":43.268,"lon":5.40271,"is_reserved":false,"is_disabled":false,"rental_uris":{"android":"levelo://app?vid=05787956-4b12-416c-9083-173a29f02362","ios":"levelo://app?vid=05787956-4b12-416c-9083-173a29f02362"},"vehicle_type_id":"4","last_reported":1753200871,"current_range_meters":16000,"station_id":"ce501612rcd8frsf0b60","pricing_plan_id":"cebpf4jnsgd1na2vs0mg"},{"bike_id":"87a25bf9-60ea-48cf-a8dd-7937449bef54","system_id":"levelo_inurba_marseille","lat":43.23064,"lon":5.35493,"is_reserved":false,"is_disabled":false,"rental_uris":{"android":"levelo://app?vid=87a25bf9-60ea-48cf-a8dd-7937449bef54","ios":"levelo://app?vid=87a25bf9-60ea-48cf-a8dd-7937449bef54"},"vehicle_type_id":"4","last_reported":1753200871,"current_range_meters":16000,"station_id":"cpo3342slgdg3j2ifvpg","pricing_plan_id":"cebpf4jnsgd1na2vs0mg"},{"bike_id":"28125d48-8856-49cb-9163-ca8d87a75b5a","system_id":"levelo_inurba_marseille","lat":43.29514,"lon":5.39404,"is_reserved":false,"is_disabled":false,"rental_uris":{"android":"levelo://app?vid=28125d48-8856-49cb-9163-ca8d87a75b5a","ios":"levelo://app?vid=28125d48-8856-49cb-9163-ca8d87a75b5a"},"vehicle_type_id":"4","last_reported":1753200871,"current_range_meters":15200,"station_id":"ce4bh292rcd13ifvqdf0","pricing_plan_id":"cebpf4jnsgd1na2vs0mg"},{"bike_id":"5624f2b1-f105-4dbc-b632-d2910f97b1d5","system_id":"levelo_inurba_marseille","lat":43.28414,"lon":5.34982,"is_reserved":false,"is_disabled":false,"rental_uris":{"android":"levelo://app?vid=5624f2b1-f105-4dbc-b632-d2910f97b1d5","ios":"levelo://app?vid=5624f2b1-f105-4dbc-b632-d2910f97b1d5"},"vehicle_type_id":"4","last_reported":1753200871,"current_range_meters":16000,"station_id":"ce4bhbh2rcd13ifvqepg","pricing_plan_id":"cebpf4jnsgd1na2vs0mg"},{"bike_id":"9b588286-6435-4c69-8e0c-33192cc3fcbf","system_id":"levelo_inurba_marseille","lat":43.29038,"lon":5.37549,"is_reserved":false,"is_disabled":true,"rental_uris":{"android":"levelo://app?vid=9b588286-6435-4c69-8e0c-33192cc3fcbf","ios":"levelo://app?vid=9b588286-6435-4c69-8e0c-33192cc3fcbf"},"vehicle_type_id":"4","last_reported":1753200871,"current_range_meters":16000,"station_id":"ce4bh692rcd13ifvqe90","pricing_plan_id":"cebpf4jnsgd1na2vs0mg"},{"bike_id":"c774f4c2-bc5f-4cf6-9563-a432097878f3","system_id":"levelo_inurba_marseille","lat":43.29203,"lon":5.35794,"is_reserved":false,"is_disabled":false,"rental_uris":{"android":"levelo://app?vid=c774f4c2-bc5f-4cf6-9563-a432097878f3","ios":"levelo://app?vid=c774f4c2-bc5f-4cf6-9563-a432097878f3"},"vehicle_type_id":"4","last_reported":1753200871,"current_range_meters":16000,"station_id":"ce4bhb12rcd13ifvqel0","pricing_plan_id":"cebpf4jnsgd1na2vs0mg"},{"bike_id":"e44893bb-5cdf-4921-b4e8-39ee578180a1","system_id":"levelo_inurba_marseille","lat":43.24087,"lon":5.37746,"is_reserved":false,"is_disabled":false,"rental_uris":{"android":"levelo://app?vid=e44893bb-5cdf-4921-b4e8-39ee578180a1","ios":"levelo://app?vid=e44893bb-5cdf-4921-b4e8-39ee578180a1"},"vehicle_type_id":"4","last_reported":1753200871,"current_range_meters":16000,"station_id":"ce4bhnp2rcd13ifvqgvg","pricing_plan_id":"cebpf4jnsgd1na2vs0mg"},{"bike_id":"378081ab-5f85-4a71-925f-1647d5a34761","system_id":"levelo_inurba_marseille","lat":43.243896,"lon":5.370643,"is_reserved":false,"is_disabled":false,"rental_uris":{"android":"levelo://app?vid=378081ab-5f85-4a71-925f-1647d5a34761","ios":"levelo://app?vid=378081ab-5f85-4a71-925f-1647d5a34761"},"vehicle_type_id":"4","last_reported":1753200871,"current_range_meters":16400,"station_id":"ce4bhhh2rcd13ifvqfk0","pricing_plan_id":"cebpf4jnsgd1na2vs0mg"},{"bike_id":"d3eea4a0-76ba-4059-ba6b-c1ecd6270925","system_id":"levelo_inurba_marseille","lat":43.21194,"lon":5.35062,"is_reserved":false,"is_disabled":false,"rental_uris":{"android":"levelo://app?vid=d3eea4a0-76ba-4059-ba6b-c1ecd6270925","ios":"levelo://app?vid=d3eea4a0-76ba-4059-ba6b-c1ecd6270925"},"vehicle_type_id":"4","last_reported":1753200871,"current_range_meters":16400,"station_id":"st_cvj6sg6p6f1abm77japg","pricing_plan_id":"cebpf4jnsgd1na2vs0mg"},{"bike_id":"ac8e9c29-da4c-4750-9710-c604ddb582df","system_id":"levelo_inurba_marseille","lat":43.247996,"lon":5.37419,"is_reserved":false,"is_disabled":false,"rental_uris":{"android":"levelo://app?vid=ac8e9c29-da4c-4750-9710-c604ddb582df","ios":"levelo://app?vid=ac8e9c29-da4c-4750-9710-c604ddb582df"},"vehicle_type_id":"4","last_reported":1753200871,"current_range_meters":16400,"station_id":"ce4bhgh2rcd13ifvqfb0","pricing_plan_id":"cebpf4jnsgd1na2vs0mg"},{"bike_id":"ad0ea0a3-dcb7-43e3-9fa1-f3ef6a5c8d3b","system_id":"levelo_inurba_marseille","lat":43.28408,"lon":5.34994,"is_reserved":false,"is_disabled":false,"rental_uris":{"android":"levelo://app?vid=ad0ea0a3-dcb7-43e3-9fa1-f3ef6a5c8d3b","ios":"levelo://app?vid=ad0ea0a3-dcb7-43e3-9fa1-f3ef6a5c8d3b"},"vehicle_type_id":"4","last_reported":1753200871,"current_range_meters":16400,"station_id":"ce4bhbh2rcd13ifvqepg","pricing_plan_id":"cebpf4jnsgd1na2vs0mg"},{"bike_id":"768a6774-6f88-4d8b-b7a7-29c2587ddd57","system_id":"levelo_inurba_marseille","lat":43.271733,"lon":5.409975,"is_reserved":false,"is_disabled":false,"rental_uris":{"android":"levelo://app?vid=768a6774-6f88-4d8b-b7a7-29c2587ddd57","ios":"levelo://app?vid=768a6774-6f88-4d8b-b7a7-29c2587ddd57"},"vehicle_type_id":"4","last_reported":1753200871,"current_range_meters":16400,"station_id":"","pricing_plan_id":"cebpf4jnsgd1na2vs0mg"},{"bike_id":"afc26442-53d0-4144-87cc-dc108f90753d","system_id":"levelo_inurba_marseille","lat":43.26061,"lon":5.39399,"is_reserved":false,"is_disabled":false,"rental_uris":{"android":"levelo://app?vid=afc26442-53d0-4144-87cc-dc108f90753d","ios":"levelo://app?vid=afc26442-53d0-4144-87cc-dc108f90753d"},"vehicle_type_id":"4","last_reported":1753200871,"current_range_meters":16400,"station_id":"ce4bhh92rcd13ifvqfj0","pricing_plan_id":"cebpf4jnsgd1na2vs0mg"},{"bike_id":"fe50cf1d-fc61-4e48-98f2-ea42037cc2b3","system_id":"levelo_inurba_marseille","lat":43.229245,"lon":5.353726,"is_reserved":false,"is_disabled":false,"rental_uris":{"android":"levelo://app?vid=fe50cf1d-fc61-4e48-98f2-ea42037cc2b3","ios":"levelo://app?vid=fe50cf1d-fc61-4e48-98f2-ea42037cc2b3"},"vehicle_type_id":"4","last_reported":1753200871,"current_range_meters":16400,"station_id":"cpo3532slgdg3j2ikp40","pricing_plan_id":"cebpf4jnsgd1na2vs0mg"},{"bike_id":"194e348e-1696-4be5-b40d-bcccaabbbbd9","system_id":"levelo_inurba_marseille","lat":43.28301,"lon":5.3506,"is_reserved":false,"is_disabled":false,"rental_uris":{"android":"levelo://app?vid=194e348e-1696-4be5-b40d-bcccaabbbbd9","ios":"levelo://app?vid=194e348e-1696-4be5-b40d-bcccaabbbbd9"},"vehicle_type_id":"4","last_reported":1753200871,"current_range_meters":16800,"station_id":"ce4bhbp2rcd13ifvqerg","pricing_plan_id":"cebpf4jnsgd1na2vs0mg"},{"bike_id":"911c3e66-c4b4-4e9c-bf6d-21f121179e38","system_id":"levelo_inurba_marseille","lat":43.29917,"lon":5.37972,"is_reserved":false,"is_disabled":false,"rental_uris":{"android":"levelo://app?vid=911c3e66-c4b4-4e9c-bf6d-21f121179e38","ios":"levelo://app?vid=911c3e66-c4b4-4e9c-bf6d-21f121179e38"},"vehicle_type_id":"4","last_reported":1753200871,"current_range_meters":16800,"station_id":"","pricing_plan_id":"cebpf4jnsgd1na2vs0mg"},{"bike_id":"ec910f04-e530-40d1-846f-ecd82660f6e3","system_id":"levelo_inurba_marseille","lat":43.25728,"lon":5.41106,"is_reserved":false,"is_disabled":false,"rental_uris":{"android":"levelo://app?vid=ec910f04-e530-40d1-846f-ecd82660f6e3","ios":"levelo://app?vid=ec910f04-e530-40d1-846f-ecd82660f6e3"},"vehicle_type_id":"4","last_reported":1753200871,"current_range_meters":16800,"station_id":"ce4bhkp2rcd13ifvqgd0","pricing_plan_id":"cebpf4jnsgd1na2vs0mg"},{"bike_id":"ee5b3c26-9f03-4693-8484-d66daff728e8","system_id":"levelo_inurba_marseille","lat":43.323573,"lon":5.367594,"is_reserved":false,"is_disabled":false,"rental_uris":{"android":"levelo://app?vid=ee5b3c26-9f03-4693-8484-d66daff728e8","ios":"levelo://app?vid=ee5b3c26-9f03-4693-8484-d66daff728e8"},"vehicle_type_id":"4","last_reported":1753200871,"current_range_meters":16800,"station_id":"ce4bhsh2rcd13ifvqi2g","pricing_plan_id":"cebpf4jnsgd1na2vs0mg"},{"bike_id":"d6d71e64-13b7-486f-8d67-6dc921d44f67","system_id":"levelo_inurba_marseille","lat":43.28264,"lon":5.35076,"is_reserved":false,"is_disabled":false,"rental_uris":{"android":"levelo://app?vid=d6d71e64-13b7-486f-8d67-6dc921d44f67","ios":"levelo://app?vid=d6d71e64-13b7-486f-8d67-6dc921d44f67"},"vehicle_type_id":"4","last_reported":1753200871,"current_range_meters":16800,"station_id":"ce4bhbp2rcd13ifvqerg","pricing_plan_id":"cebpf4jnsgd1na2vs0mg"},{"bike_id":"4be8ab13-53fe-4991-84b7-8c8e15d8b8c8","system_id":"levelo_inurba_marseille","lat":43.28424,"lon":5.34978,"is_reserved":false,"is_disabled":false,"rental_uris":{"android":"levelo://app?vid=4be8ab13-53fe-4991-84b7-8c8e15d8b8c8","ios":"levelo://app?vid=4be8ab13-53fe-4991-84b7-8c8e15d8b8c8"},"vehicle_type_id":"4","last_reported":1753200871,"current_range_meters":16800,"station_id":"ce4bhbh2rcd13ifvqepg","pricing_plan_id":"cebpf4jnsgd1na2vs0mg"},{"bike_id":"da0b0435-2490-4de3-90b7-9272c1f058bc","system_id":"levelo_inurba_marseille","lat":43.2784,"lon":5.39199,"is_reserved":false,"is_disabled":false,"rental_uris":{"android":"levelo://app?vid=da0b0435-2490-4de3-90b7-9272c1f058bc","ios":"levelo://app?vid=da0b0435-2490-4de3-90b7-9272c1f058bc"},"vehicle_type_id":"4","last_reported":1753200871,"current_range_meters":16800,"station_id":"ce4bhjp2rcd13ifvqga0","pricing_plan_id":"cebpf4jnsgd1na2vs0mg"},{"bike_id":"c1c37b7a-aa87-45b4-810a-8d10d556adb4","system_id":"levelo_inurba_marseille","lat":43.24807,"lon":5.37454,"is_reserved":false,"is_disabled":false,"rental_uris":{"android":"levelo://app?vid=c1c37b7a-aa87-45b4-810a-8d10d556adb4","ios":"levelo://app?vid=c1c37b7a-aa87-45b4-810a-8d10d556adb4"},"vehicle_type_id":"4","last_reported":1753200871,"current_range_meters":16800,"station_id":"ce4bhgh2rcd13ifvqfb0","pricing_plan_id":"cebpf4jnsgd1na2vs0mg"},{"bike_id":"bf4e0a49-8520-460e-ba2b-d0e2bbac72dd","system_id":"levelo_inurba_marseille","lat":43.29529,"lon":5.38551,"is_reserved":false,"is_disabled":false,"rental_uris":{"android":"levelo://app?vid=bf4e0a49-8520-460e-ba2b-d0e2bbac72dd","ios":"levelo://app?vid=bf4e0a49-8520-460e-ba2b-d0e2bbac72dd"},"vehicle_type_id":"4","last_reported":1753200871,"current_range_meters":16800,"station_id":"ce4bgih2rcd13ifvqba0","pricing_plan_id":"cebpf4jnsgd1na2vs0mg"},{"bike_id":"4c2bc5e7-6a42-4d07-bc9a-b62c82a4a428","system_id":"levelo_inurba_marseille","lat":43.28446,"lon":5.39195,"is_reserved":false,"is_disabled":false,"rental_uris":{"android":"levelo://app?vid=4c2bc5e7-6a42-4d07-bc9a-b62c82a4a428","ios":"levelo://app?vid=4c2bc5e7-6a42-4d07-bc9a-b62c82a4a428"},"vehicle_type_id":"4","last_reported":1753200871,"current_range_meters":16800,"station_id":"ce4bhoh2rcd13ifvqh5g","pricing_plan_id":"cebpf4jnsgd1na2vs0mg"},{"bike_id":"346abcc8-80c9-4201-b75d-8f3129cd5b7c","system_id":"levelo_inurba_marseille","lat":43.29646,"lon":5.40597,"is_reserved":false,"is_disabled":false,"rental_uris":{"android":"levelo://app?vid=346abcc8-80c9-4201-b75d-8f3129cd5b7c","ios":"levelo://app?vid=346abcc8-80c9-4201-b75d-8f3129cd5b7c"},"vehicle_type_id":"4","last_reported":1753200871,"current_range_meters":16800,"station_id":"ce4bh0h2rcd13ifvqd60","pricing_plan_id":"cebpf4jnsgd1na2vs0mg"},{"bike_id":"293e6c00-edfe-447b-896f-64397c6e60ca","system_id":"levelo_inurba_marseille","lat":43.309291,"lon":5.401385,"is_reserved":false,"is_disabled":false,"rental_uris":{"android":"levelo://app?vid=293e6c00-edfe-447b-896f-64397c6e60ca","ios":"levelo://app?vid=293e6c00-edfe-447b-896f-64397c6e60ca"},"vehicle_type_id":"4","last_reported":1753200871,"current_range_meters":16800,"station_id":"ce4bgvp2rcd13ifvqct0","pricing_plan_id":"cebpf4jnsgd1na2vs0mg"},{"bike_id":"cc926983-7496-48df-9677-b8723ddc96b9","system_id":"levelo_inurba_marseille","lat":43.229565,"lon":5.353981,"is_reserved":false,"is_disabled":false,"rental_uris":{"android":"levelo://app?vid=cc926983-7496-48df-9677-b8723ddc96b9","ios":"levelo://app?vid=cc926983-7496-48df-9677-b8723ddc96b9"},"vehicle_type_id":"4","last_reported":1753200871,"current_range_meters":17200,"station_id":"cpo3532slgdg3j2ikp40","pricing_plan_id":"cebpf4jnsgd1na2vs0mg"},{"bike_id":"9a143ed1-a3c7-421c-a22c-84e79d27e230","system_id":"levelo_inurba_marseille","lat":43.284214,"lon":5.349973,"is_reserved":false,"is_disabled":true,"rental_uris":{"android":"levelo://app?vid=9a143ed1-a3c7-421c-a22c-84e79d27e230","ios":"levelo://app?vid=9a143ed1-a3c7-421c-a22c-84e79d27e230"},"vehicle_type_id":"4","last_reported":1753200871,"current_range_meters":17200,"station_id":"ce4bhbh2rcd13ifvqepg","pricing_plan_id":"cebpf4jnsgd1na2vs0mg"},{"bike_id":"fe07410f-2ac3-4d42-a644-c798c7a25a84","system_id":"levelo_inurba_marseille","lat":43.26571,"lon":5.372879,"is_reserved":false,"is_disabled":false,"rental_uris":{"android":"levelo://app?vid=fe07410f-2ac3-4d42-a644-c798c7a25a84","ios":"levelo://app?vid=fe07410f-2ac3-4d42-a644-c798c7a25a84"},"vehicle_type_id":"4","last_reported":1753200871,"current_range_meters":17200,"station_id":"","pricing_plan_id":"cebpf4jnsgd1na2vs0mg"},{"bike_id":"9a93e0b1-9129-4302-a042-b77b94831fea","system_id":"levelo_inurba_marseille","lat":43.27177,"lon":5.40993,"is_reserved":false,"is_disabled":false,"rental_uris":{"android":"levelo://app?vid=9a93e0b1-9129-4302-a042-b77b94831fea","ios":"levelo://app?vid=9a93e0b1-9129-4302-a042-b77b94831fea"},"vehicle_type_id":"4","last_reported":1753200871,"current_range_meters":17200,"station_id":"ce4bhl12rcd13ifvqgf0","pricing_plan_id":"cebpf4jnsgd1na2vs0mg"},{"bike_id":"6093672b-1e9a-4299-b920-36e4f293a348","system_id":"levelo_inurba_marseille","lat":43.22919,"lon":5.353756,"is_reserved":false,"is_disabled":false,"rental_uris":{"android":"levelo://app?vid=6093672b-1e9a-4299-b920-36e4f293a348","ios":"levelo://app?vid=6093672b-1e9a-4299-b920-36e4f293a348"},"vehicle_type_id":"4","last_reported":1753200871,"current_range_meters":17600,"station_id":"cpo3532slgdg3j2ikp40","pricing_plan_id":"cebpf4jnsgd1na2vs0mg"},{"bike_id":"0d4c840a-e458-46b4-85bd-82e8352f18e3","system_id":"levelo_inurba_marseille","lat":43.28354,"lon":5.38107,"is_reserved":false,"is_disabled":false,"rental_uris":{"android":"levelo://app?vid=0d4c840a-e458-46b4-85bd-82e8352f18e3","ios":"levelo://app?vid=0d4c840a-e458-46b4-85bd-82e8352f18e3"},"vehicle_type_id":"4","last_reported":1753200871,"current_range_meters":17600,"station_id":"ce4bh412rcd13ifvqdr0","pricing_plan_id":"cebpf4jnsgd1na2vs0mg"},{"bike_id":"7132ba12-3116-41a6-97c6-88da4fcbe25e","system_id":"levelo_inurba_marseille","lat":43.29922,"lon":5.37473,"is_reserved":false,"is_disabled":false,"rental_uris":{"android":"levelo://app?vid=7132ba12-3116-41a6-97c6-88da4fcbe25e","ios":"levelo://app?vid=7132ba12-3116-41a6-97c6-88da4fcbe25e"},"vehicle_type_id":"4","last_reported":1753200871,"current_range_meters":16800,"station_id":"ce4bgjh2rcd13ifvqbg0","pricing_plan_id":"cebpf4jnsgd1na2vs0mg"},{"bike_id":"1a2751da-031a-4246-8d2c-dd848ee0e802","system_id":"levelo_inurba_marseille","lat":43.295415,"lon":5.385468,"is_reserved":false,"is_disabled":true,"rental_uris":{"android":"levelo://app?vid=1a2751da-031a-4246-8d2c-dd848ee0e802","ios":"levelo://app?vid=1a2751da-031a-4246-8d2c-dd848ee0e802"},"vehicle_type_id":"4","last_reported":1753200871,"current_range_meters":17600,"station_id":"ce4bgih2rcd13ifvqba0","pricing_plan_id":"cebpf4jnsgd1na2vs0mg"},{"bike_id":"fb81ee79-6688-4d05-be53-1ac881d0c7b8","system_id":"levelo_inurba_marseille","lat":43.23201,"lon":5.35545,"is_reserved":false,"is_disabled":false,"rental_uris":{"android":"levelo://app?vid=fb81ee79-6688-4d05-be53-1ac881d0c7b8","ios":"levelo://app?vid=fb81ee79-6688-4d05-be53-1ac881d0c7b8"},"vehicle_type_id":"4","last_reported":1753200871,"current_range_meters":17600,"station_id":"ce4bhu92rcd13ifvqi70","pricing_plan_id":"cebpf4jnsgd1na2vs0mg"},{"bike_id":"0fd917a8-14f6-407a-869a-f2bb55164eac","system_id":"levelo_inurba_marseille","lat":43.28615,"lon":5.35106,"is_reserved":false,"is_disabled":false,"rental_uris":{"android":"levelo://app?vid=0fd917a8-14f6-407a-869a-f2bb55164eac","ios":"levelo://app?vid=0fd917a8-14f6-407a-869a-f2bb55164eac"},"vehicle_type_id":"4","last_reported":1753200871,"current_range_meters":17600,"station_id":"ce4bhch2rcd13ifvqeug","pricing_plan_id":"cebpf4jnsgd1na2vs0mg"},{"bike_id":"06bbc116-405a-426f-8a45-4d95b56fd453","system_id":"levelo_inurba_marseille","lat":43.307894,"lon":5.37643,"is_reserved":false,"is_disabled":false,"rental_uris":{"android":"levelo://app?vid=06bbc116-405a-426f-8a45-4d95b56fd453","ios":"levelo://app?vid=06bbc116-405a-426f-8a45-4d95b56fd453"},"vehicle_type_id":"4","last_reported":1753200871,"current_range_meters":17600,"station_id":"ce4bgv92rcd13ifvqcq0","pricing_plan_id":"cebpf4jnsgd1na2vs0mg"},{"bike_id":"7b9c440f-78d9-418c-870d-f7d6374fd626","system_id":"levelo_inurba_marseille","lat":43.24077,"lon":5.37758,"is_reserved":false,"is_disabled":false,"rental_uris":{"android":"levelo://app?vid=7b9c440f-78d9-418c-870d-f7d6374fd626","ios":"levelo://app?vid=7b9c440f-78d9-418c-870d-f7d6374fd626"},"vehicle_type_id":"4","last_reported":1753200871,"current_range_meters":17600,"station_id":"ce4bhnp2rcd13ifvqgvg","pricing_plan_id":"cebpf4jnsgd1na2vs0mg"},{"bike_id":"5984b2a9-df08-472f-9972-51a1ce9935d3","system_id":"levelo_inurba_marseille","lat":43.21754,"lon":5.34596,"is_reserved":false,"is_disabled":false,"rental_uris":{"android":"levelo://app?vid=5984b2a9-df08-472f-9972-51a1ce9935d3","ios":"levelo://app?vid=5984b2a9-df08-472f-9972-51a1ce9935d3"},"vehicle_type_id":"4","last_reported":1753200871,"current_range_meters":17600,"station_id":"st_cvj6r9ubvosntc0bgbag","pricing_plan_id":"cebpf4jnsgd1na2vs0mg"},{"bike_id":"378529d2-baf2-47df-b557-10b4b0fca26c","system_id":"levelo_inurba_marseille","lat":43.32366,"lon":5.38886,"is_reserved":false,"is_disabled":false,"rental_uris":{"android":"levelo://app?vid=378529d2-baf2-47df-b557-10b4b0fca26c","ios":"levelo://app?vid=378529d2-baf2-47df-b557-10b4b0fca26c"},"vehicle_type_id":"4","last_reported":1753200871,"current_range_meters":18000,"station_id":"ce4bhqp2rcd13ifvqhog","pricing_plan_id":"cebpf4jnsgd1na2vs0mg"},{"bike_id":"0b79a07d-7d12-4808-bc19-d353ecd13a5f","system_id":"levelo_inurba_marseille","lat":43.28444,"lon":5.39181,"is_reserved":false,"is_disabled":false,"rental_uris":{"android":"levelo://app?vid=0b79a07d-7d12-4808-bc19-d353ecd13a5f","ios":"levelo://app?vid=0b79a07d-7d12-4808-bc19-d353ecd13a5f"},"vehicle_type_id":"4","last_reported":1753200871,"current_range_meters":18000,"station_id":"ce4bhoh2rcd13ifvqh5g","pricing_plan_id":"cebpf4jnsgd1na2vs0mg"},{"bike_id":"e3a9e6d1-788b-4774-babe-289560a0bee7","system_id":"levelo_inurba_marseille","lat":43.29964,"lon":5.37433,"is_reserved":false,"is_disabled":false,"rental_uris":{"android":"levelo://app?vid=e3a9e6d1-788b-4774-babe-289560a0bee7","ios":"levelo://app?vid=e3a9e6d1-788b-4774-babe-289560a0bee7"},"vehicle_type_id":"4","last_reported":1753200871,"current_range_meters":18000,"station_id":"","pricing_plan_id":"cebpf4jnsgd1na2vs0mg"},{"bike_id":"2926e178-6436-4ad4-a9a0-63631e890abe","system_id":"levelo_inurba_marseille","lat":43.21772,"lon":5.34614,"is_reserved":false,"is_disabled":false,"rental_uris":{"android":"levelo://app?vid=2926e178-6436-4ad4-a9a0-63631e890abe","ios":"levelo://app?vid=2926e178-6436-4ad4-a9a0-63631e890abe"},"vehicle_type_id":"4","last_reported":1753200871,"current_range_meters":18000,"station_id":"st_cvj6r9ubvosntc0bgbag","pricing_plan_id":"cebpf4jnsgd1na2vs0mg"},{"bike_id":"ded11646-09b7-4dbc-8f9e-7334ebbd506e","system_id":"levelo_inurba_marseille","lat":43.28289,"lon":5.35061,"is_reserved":false,"is_disabled":false,"rental_uris":{"android":"levelo://app?vid=ded11646-09b7-4dbc-8f9e-7334ebbd506e","ios":"levelo://app?vid=ded11646-09b7-4dbc-8f9e-7334ebbd506e"},"vehicle_type_id":"4","last_reported":1753200871,"current_range_meters":18000,"station_id":"ce4bhbp2rcd13ifvqerg","pricing_plan_id":"cebpf4jnsgd1na2vs0mg"},{"bike_id":"d509b331-e799-4503-90e7-40b1e687c26f","system_id":"levelo_inurba_marseille","lat":43.286099,"lon":5.370681,"is_reserved":false,"is_disabled":true,"rental_uris":{"android":"levelo://app?vid=d509b331-e799-4503-90e7-40b1e687c26f","ios":"levelo://app?vid=d509b331-e799-4503-90e7-40b1e687c26f"},"vehicle_type_id":"4","last_reported":1753200871,"current_range_meters":18000,"station_id":"ce4bht12rcd13ifvqi60","pricing_plan_id":"cebpf4jnsgd1na2vs0mg"},{"bike_id":"9402b10c-2b01-46a3-a2c1-446fe5032735","system_id":"levelo_inurba_marseille","lat":43.30427,"lon":5.38889,"is_reserved":false,"is_disabled":false,"rental_uris":{"android":"levelo://app?vid=9402b10c-2b01-46a3-a2c1-446fe5032735","ios":"levelo://app?vid=9402b10c-2b01-46a3-a2c1-446fe5032735"},"vehicle_type_id":"4","last_reported":1753200871,"current_range_meters":18000,"station_id":"ce4bgk12rcd13ifvqbi0","pricing_plan_id":"cebpf4jnsgd1na2vs0mg"},{"bike_id":"a0964b67-cb13-4464-8cad-a0b67ae9e9f6","system_id":"levelo_inurba_marseille","lat":43.28615,"lon":5.35107,"is_reserved":false,"is_disabled":false,"rental_uris":{"android":"levelo://app?vid=a0964b67-cb13-4464-8cad-a0b67ae9e9f6","ios":"levelo://app?vid=a0964b67-cb13-4464-8cad-a0b67ae9e9f6"},"vehicle_type_id":"4","last_reported":1753200871,"current_range_meters":18000,"station_id":"ce4bhch2rcd13ifvqeug","pricing_plan_id":"cebpf4jnsgd1na2vs0mg"},{"bike_id":"a1b0b122-6e21-4460-9358-18ef2a002ce1","system_id":"levelo_inurba_marseille","lat":43.28433,"lon":5.34991,"is_reserved":false,"is_disabled":false,"rental_uris":{"android":"levelo://app?vid=a1b0b122-6e21-4460-9358-18ef2a002ce1","ios":"levelo://app?vid=a1b0b122-6e21-4460-9358-18ef2a002ce1"},"vehicle_type_id":"4","last_reported":1753200871,"current_range_meters":18000,"station_id":"ce4bhbh2rcd13ifvqepg","pricing_plan_id":"cebpf4jnsgd1na2vs0mg"},{"bike_id":"911c78cb-34d5-44b1-a60e-8e3e2bb9a5f4","system_id":"levelo_inurba_marseille","lat":43.24175,"lon":5.36392,"is_reserved":false,"is_disabled":false,"rental_uris":{"android":"levelo://app?vid=911c78cb-34d5-44b1-a60e-8e3e2bb9a5f4","ios":"levelo://app?vid=911c78cb-34d5-44b1-a60e-8e3e2bb9a5f4"},"vehicle_type_id":"4","last_reported":1753200871,"current_range_meters":18000,"station_id":"cpo36qri1sfpv3e86is0","pricing_plan_id":"cebpf4jnsgd1na2vs0mg"},{"bike_id":"5b47a81d-ead0-4c4b-8864-c63aeb4bcd3d","system_id":"levelo_inurba_marseille","lat":43.21202,"lon":5.35082,"is_reserved":false,"is_disabled":false,"rental_uris":{"android":"levelo://app?vid=5b47a81d-ead0-4c4b-8864-c63aeb4bcd3d","ios":"levelo://app?vid=5b47a81d-ead0-4c4b-8864-c63aeb4bcd3d"},"vehicle_type_id":"4","last_reported":1753200871,"current_range_meters":18000,"station_id":"st_cvj6sg6p6f1abm77japg","pricing_plan_id":"cebpf4jnsgd1na2vs0mg"},{"bike_id":"0328809f-87e4-43d4-9881-2db7d232e7fc","system_id":"levelo_inurba_marseille","lat":43.28952,"lon":5.36635,"is_reserved":false,"is_disabled":false,"rental_uris":{"android":"levelo://app?vid=0328809f-87e4-43d4-9881-2db7d232e7fc","ios":"levelo://app?vid=0328809f-87e4-43d4-9881-2db7d232e7fc"},"vehicle_type_id":"4","last_reported":1753200871,"current_range_meters":18000,"station_id":"ce4bhap2rcd13ifvqek0","pricing_plan_id":"cebpf4jnsgd1na2vs0mg"},{"bike_id":"833d8f61-77eb-475e-8ba6-a91135181fb3","system_id":"levelo_inurba_marseille","lat":43.306026,"lon":5.372303,"is_reserved":false,"is_disabled":false,"rental_uris":{"android":"levelo://app?vid=833d8f61-77eb-475e-8ba6-a91135181fb3","ios":"levelo://app?vid=833d8f61-77eb-475e-8ba6-a91135181fb3"},"vehicle_type_id":"4","last_reported":1753200871,"current_range_meters":16800,"station_id":"","pricing_plan_id":"cebpf4jnsgd1na2vs0mg"},{"bike_id":"248219e7-14bb-4f0e-9e02-0501bea0b7b4","system_id":"levelo_inurba_marseille","lat":43.24163,"lon":5.36393,"is_reserved":false,"is_disabled":false,"rental_uris":{"android":"levelo://app?vid=248219e7-14bb-4f0e-9e02-0501bea0b7b4","ios":"levelo://app?vid=248219e7-14bb-4f0e-9e02-0501bea0b7b4"},"vehicle_type_id":"4","last_reported":1753200871,"current_range_meters":18800,"station_id":"cpo36qri1sfpv3e86is0","pricing_plan_id":"cebpf4jnsgd1na2vs0mg"},{"bike_id":"51593316-4f03-44e2-abd7-ee8c01ff92cb","system_id":"levelo_inurba_marseille","lat":43.29568,"lon":5.37529,"is_reserved":false,"is_disabled":false,"rental_uris":{"android":"levelo://app?vid=51593316-4f03-44e2-abd7-ee8c01ff92cb","ios":"levelo://app?vid=51593316-4f03-44e2-abd7-ee8c01ff92cb"},"vehicle_type_id":"4","last_reported":1753200871,"current_range_meters":18800,"station_id":"ce4bgh92rcd13ifvqb50","pricing_plan_id":"cebpf4jnsgd1na2vs0mg"},{"bike_id":"77921e54-6424-4880-a6f5-99e5abf910d6","system_id":"levelo_inurba_marseille","lat":43.28621,"lon":5.35114,"is_reserved":false,"is_disabled":false,"rental_uris":{"android":"levelo://app?vid=77921e54-6424-4880-a6f5-99e5abf910d6","ios":"levelo://app?vid=77921e54-6424-4880-a6f5-99e5abf910d6"},"vehicle_type_id":"4","last_reported":1753200871,"current_range_meters":18800,"station_id":"ce4bhch2rcd13ifvqeug","pricing_plan_id":"cebpf4jnsgd1na2vs0mg"},{"bike_id":"4355f60b-bb67-4c5e-a729-7d6782d7e997","system_id":"levelo_inurba_marseille","lat":43.27949,"lon":5.41049,"is_reserved":false,"is_disabled":false,"rental_uris":{"android":"levelo://app?vid=4355f60b-bb67-4c5e-a729-7d6782d7e997","ios":"levelo://app?vid=4355f60b-bb67-4c5e-a729-7d6782d7e997"},"vehicle_type_id":"4","last_reported":1753200871,"current_range_meters":18800,"station_id":"ce4bhnp2rcd13ifvqh0g","pricing_plan_id":"cebpf4jnsgd1na2vs0mg"},{"bike_id":"0a31c565-a90f-415d-9e93-7130d07c50d8","system_id":"levelo_inurba_marseille","lat":43.29433,"lon":5.39755,"is_reserved":false,"is_disabled":false,"rental_uris":{"android":"levelo://app?vid=0a31c565-a90f-415d-9e93-7130d07c50d8","ios":"levelo://app?vid=0a31c565-a90f-415d-9e93-7130d07c50d8"},"vehicle_type_id":"4","last_reported":1753200871,"current_range_meters":19200,"station_id":"ce4bh3h2rcd13ifvqdo0","pricing_plan_id":"cebpf4jnsgd1na2vs0mg"},{"bike_id":"9b3bc160-f51b-4823-99cc-fac83e31e09e","system_id":"levelo_inurba_marseille","lat":43.32133,"lon":5.36737,"is_reserved":false,"is_disabled":false,"rental_uris":{"android":"levelo://app?vid=9b3bc160-f51b-4823-99cc-fac83e31e09e","ios":"levelo://app?vid=9b3bc160-f51b-4823-99cc-fac83e31e09e"},"vehicle_type_id":"4","last_reported":1753200871,"current_range_meters":19200,"station_id":"ce4bhrh2rcd13ifvqhug","pricing_plan_id":"cebpf4jnsgd1na2vs0mg"},{"bike_id":"4f1dd806-4cc0-4731-a103-d84b6076bb8f","system_id":"levelo_inurba_marseille","lat":43.255818,"lon":5.382371,"is_reserved":false,"is_disabled":true,"rental_uris":{"android":"levelo://app?vid=4f1dd806-4cc0-4731-a103-d84b6076bb8f","ios":"levelo://app?vid=4f1dd806-4cc0-4731-a103-d84b6076bb8f"},"vehicle_type_id":"4","last_reported":1753200871,"current_range_meters":19200,"station_id":"ce4bhih2rcd13ifvqfs0","pricing_plan_id":"cebpf4jnsgd1na2vs0mg"},{"bike_id":"c56f2a38-58de-4a8a-a716-51848ac364fc","system_id":"levelo_inurba_marseille","lat":43.28952,"lon":5.36631,"is_reserved":false,"is_disabled":false,"rental_uris":{"android":"levelo://app?vid=c56f2a38-58de-4a8a-a716-51848ac364fc","ios":"levelo://app?vid=c56f2a38-58de-4a8a-a716-51848ac364fc"},"vehicle_type_id":"4","last_reported":1753200871,"current_range_meters":19200,"station_id":"ce4bhap2rcd13ifvqek0","pricing_plan_id":"cebpf4jnsgd1na2vs0mg"},{"bike_id":"87efb87e-9c1b-48bc-9816-65bf93d44e2c","system_id":"levelo_inurba_marseille","lat":43.276176,"lon":5.361005,"is_reserved":false,"is_disabled":false,"rental_uris":{"android":"levelo://app?vid=87efb87e-9c1b-48bc-9816-65bf93d44e2c","ios":"levelo://app?vid=87efb87e-9c1b-48bc-9816-65bf93d44e2c"},"vehicle_type_id":"4","last_reported":1753200871,"current_range_meters":19200,"station_id":"","pricing_plan_id":"cebpf4jnsgd1na2vs0mg"},{"bike_id":"23c29e00-ece7-4cf5-8159-4b8848728223","system_id":"levelo_inurba_marseille","lat":43.28416,"lon":5.34991,"is_reserved":false,"is_disabled":false,"rental_uris":{"android":"levelo://app?vid=23c29e00-ece7-4cf5-8159-4b8848728223","ios":"levelo://app?vid=23c29e00-ece7-4cf5-8159-4b8848728223"},"vehicle_type_id":"4","last_reported":1753200871,"current_range_meters":19200,"station_id":"ce4bhbh2rcd13ifvqepg","pricing_plan_id":"cebpf4jnsgd1na2vs0mg"},{"bike_id":"6e609a8e-a24c-4763-a552-bc09931144e6","system_id":"levelo_inurba_marseille","lat":43.28614,"lon":5.35107,"is_reserved":false,"is_disabled":false,"rental_uris":{"android":"levelo://app?vid=6e609a8e-a24c-4763-a552-bc09931144e6","ios":"levelo://app?vid=6e609a8e-a24c-4763-a552-bc09931144e6"},"vehicle_type_id":"4","last_reported":1753200871,"current_range_meters":19200,"station_id":"ce4bhch2rcd13ifvqeug","pricing_plan_id":"cebpf4jnsgd1na2vs0mg"},{"bike_id":"957634bc-79de-4b4c-b452-d0169c4affe9","system_id":"levelo_inurba_marseille","lat":43.32368,"lon":5.36769,"is_reserved":false,"is_disabled":false,"rental_uris":{"android":"levelo://app?vid=957634bc-79de-4b4c-b452-d0169c4affe9","ios":"levelo://app?vid=957634bc-79de-4b4c-b452-d0169c4affe9"},"vehicle_type_id":"4","last_reported":1753200871,"current_range_meters":19200,"station_id":"ce4bhsh2rcd13ifvqi2g","pricing_plan_id":"cebpf4jnsgd1na2vs0mg"},{"bike_id":"06101cf9-8ecc-4c54-9850-330545d2ec08","system_id":"levelo_inurba_marseille","lat":43.30796,"lon":5.379577,"is_reserved":false,"is_disabled":false,"rental_uris":{"android":"levelo://app?vid=06101cf9-8ecc-4c54-9850-330545d2ec08","ios":"levelo://app?vid=06101cf9-8ecc-4c54-9850-330545d2ec08"},"vehicle_type_id":"4","last_reported":1753200871,"current_range_meters":19200,"station_id":"","pricing_plan_id":"cebpf4jnsgd1na2vs0mg"},{"bike_id":"3a41e442-1812-4e9c-9a4b-c952397c9da2","system_id":"levelo_inurba_marseille","lat":43.28419,"lon":5.34981,"is_reserved":false,"is_disabled":false,"rental_uris":{"android":"levelo://app?vid=3a41e442-1812-4e9c-9a4b-c952397c9da2","ios":"levelo://app?vid=3a41e442-1812-4e9c-9a4b-c952397c9da2"},"vehicle_type_id":"4","last_reported":1753200871,"current_range_meters":19200,"station_id":"ce4bhbh2rcd13ifvqepg","pricing_plan_id":"cebpf4jnsgd1na2vs0mg"},{"bike_id":"1037e2b0-5159-4ab5-8ab8-3ca01c76ac4b","system_id":"levelo_inurba_marseille","lat":43.21753,"lon":5.34604,"is_reserved":false,"is_disabled":false,"rental_uris":{"android":"levelo://app?vid=1037e2b0-5159-4ab5-8ab8-3ca01c76ac4b","ios":"levelo://app?vid=1037e2b0-5159-4ab5-8ab8-3ca01c76ac4b"},"vehicle_type_id":"4","last_reported":1753200871,"current_range_meters":19200,"station_id":"st_cvj6r9ubvosntc0bgbag","pricing_plan_id":"cebpf4jnsgd1na2vs0mg"},{"bike_id":"0ca6f583-a23b-4be9-851f-9cc10ae96118","system_id":"levelo_inurba_marseille","lat":43.29714,"lon":5.36617,"is_reserved":false,"is_disabled":false,"rental_uris":{"android":"levelo://app?vid=0ca6f583-a23b-4be9-851f-9cc10ae96118","ios":"levelo://app?vid=0ca6f583-a23b-4be9-851f-9cc10ae96118"},"vehicle_type_id":"4","last_reported":1753200871,"current_range_meters":18800,"station_id":"ce4bgn12rcd13ifvqbt0","pricing_plan_id":"cebpf4jnsgd1na2vs0mg"},{"bike_id":"4fd2ce6e-422e-48af-9a87-09d327424c2e","system_id":"levelo_inurba_marseille","lat":43.27611,"lon":5.36076,"is_reserved":false,"is_disabled":false,"rental_uris":{"android":"levelo://app?vid=4fd2ce6e-422e-48af-9a87-09d327424c2e","ios":"levelo://app?vid=4fd2ce6e-422e-48af-9a87-09d327424c2e"},"vehicle_type_id":"4","last_reported":1753200871,"current_range_meters":19200,"station_id":"ce4bgj92rcd13ifvqbe0","pricing_plan_id":"cebpf4jnsgd1na2vs0mg"},{"bike_id":"b8bfa5de-b4d6-4d38-8e40-510ea441fe00","system_id":"levelo_inurba_marseille","lat":43.28419,"lon":5.34994,"is_reserved":false,"is_disabled":false,"rental_uris":{"android":"levelo://app?vid=b8bfa5de-b4d6-4d38-8e40-510ea441fe00","ios":"levelo://app?vid=b8bfa5de-b4d6-4d38-8e40-510ea441fe00"},"vehicle_type_id":"4","last_reported":1753200871,"current_range_meters":19200,"station_id":"ce4bhbh2rcd13ifvqepg","pricing_plan_id":"cebpf4jnsgd1na2vs0mg"},{"bike_id":"9bb5d30e-7a3b-416b-8265-fcc7d15a3375","system_id":"levelo_inurba_marseille","lat":43.28411,"lon":5.34987,"is_reserved":false,"is_disabled":false,"rental_uris":{"android":"levelo://app?vid=9bb5d30e-7a3b-416b-8265-fcc7d15a3375","ios":"levelo://app?vid=9bb5d30e-7a3b-416b-8265-fcc7d15a3375"},"vehicle_type_id":"4","last_reported":1753200871,"current_range_meters":19200,"station_id":"ce4bhbh2rcd13ifvqepg","pricing_plan_id":"cebpf4jnsgd1na2vs0mg"},{"bike_id":"93465bdd-4abf-4ccb-8da0-23e9f169a90b","system_id":"levelo_inurba_marseille","lat":43.2926,"lon":5.38434,"is_reserved":false,"is_disabled":false,"rental_uris":{"android":"levelo://app?vid=93465bdd-4abf-4ccb-8da0-23e9f169a90b","ios":"levelo://app?vid=93465bdd-4abf-4ccb-8da0-23e9f169a90b"},"vehicle_type_id":"4","last_reported":1753200871,"current_range_meters":19200,"station_id":"ce4bh692rcd13ifvqea0","pricing_plan_id":"cebpf4jnsgd1na2vs0mg"},{"bike_id":"8639fd84-c349-4ade-9679-6910fe2cbb0b","system_id":"levelo_inurba_marseille","lat":43.2175,"lon":5.34617,"is_reserved":false,"is_disabled":false,"rental_uris":{"android":"levelo://app?vid=8639fd84-c349-4ade-9679-6910fe2cbb0b","ios":"levelo://app?vid=8639fd84-c349-4ade-9679-6910fe2cbb0b"},"vehicle_type_id":"4","last_reported":1753200871,"current_range_meters":19200,"station_id":"st_cvj6r9ubvosntc0bgbag","pricing_plan_id":"cebpf4jnsgd1na2vs0mg"},{"bike_id":"0a7e2862-d8ec-4c77-89d9-cfcdd51f8d75","system_id":"levelo_inurba_marseille","lat":43.32873,"lon":5.36695,"is_reserved":false,"is_disabled":false,"rental_uris":{"android":"levelo://app?vid=0a7e2862-d8ec-4c77-89d9-cfcdd51f8d75","ios":"levelo://app?vid=0a7e2862-d8ec-4c77-89d9-cfcdd51f8d75"},"vehicle_type_id":"4","last_reported":1753200871,"current_range_meters":19200,"station_id":"","pricing_plan_id":"cebpf4jnsgd1na2vs0mg"},{"bike_id":"c850df63-8d8b-490d-a711-4a05d01b3fff","system_id":"levelo_inurba_marseille","lat":43.28415,"lon":5.34989,"is_reserved":false,"is_disabled":false,"rental_uris":{"android":"levelo://app?vid=c850df63-8d8b-490d-a711-4a05d01b3fff","ios":"levelo://app?vid=c850df63-8d8b-490d-a711-4a05d01b3fff"},"vehicle_type_id":"4","last_reported":1753200871,"current_range_meters":19200,"station_id":"ce4bhbh2rcd13ifvqepg","pricing_plan_id":"cebpf4jnsgd1na2vs0mg"},{"bike_id":"9c1505ba-52a0-40bc-b3d7-6c6ccfaca658","system_id":"levelo_inurba_marseille","lat":43.30557,"lon":5.36539,"is_reserved":false,"is_disabled":false,"rental_uris":{"android":"levelo://app?vid=9c1505ba-52a0-40bc-b3d7-6c6ccfaca658","ios":"levelo://app?vid=9c1505ba-52a0-40bc-b3d7-6c6ccfaca658"},"vehicle_type_id":"4","last_reported":1753200871,"current_range_meters":19600,"station_id":"ce4bgs12rcd13ifvqcag","pricing_plan_id":"cebpf4jnsgd1na2vs0mg"},{"bike_id":"ed189939-8cb6-4782-929d-f2f7add8d8c9","system_id":"levelo_inurba_marseille","lat":43.31063,"lon":5.38354,"is_reserved":false,"is_disabled":true,"rental_uris":{"android":"levelo://app?vid=ed189939-8cb6-4782-929d-f2f7add8d8c9","ios":"levelo://app?vid=ed189939-8cb6-4782-929d-f2f7add8d8c9"},"vehicle_type_id":"4","last_reported":1753200871,"current_range_meters":19600,"station_id":"ce4bgv92rcd13ifvqcr0","pricing_plan_id":"cebpf4jnsgd1na2vs0mg"},{"bike_id":"4b7b5be6-0a5b-41a1-8516-a13df95ad868","system_id":"levelo_inurba_marseille","lat":43.33752,"lon":5.37448,"is_reserved":false,"is_disabled":false,"rental_uris":{"android":"levelo://app?vid=4b7b5be6-0a5b-41a1-8516-a13df95ad868","ios":"levelo://app?vid=4b7b5be6-0a5b-41a1-8516-a13df95ad868"},"vehicle_type_id":"4","last_reported":1753200871,"current_range_meters":19600,"station_id":"","pricing_plan_id":"cebpf4jnsgd1na2vs0mg"},{"bike_id":"e9f9fe3d-d6bd-4a90-bca6-3c47d534a57f","system_id":"levelo_inurba_marseille","lat":43.29529,"lon":5.38546,"is_reserved":false,"is_disabled":false,"rental_uris":{"android":"levelo://app?vid=e9f9fe3d-d6bd-4a90-bca6-3c47d534a57f","ios":"levelo://app?vid=e9f9fe3d-d6bd-4a90-bca6-3c47d534a57f"},"vehicle_type_id":"4","last_reported":1753200871,"current_range_meters":19600,"station_id":"ce4bgih2rcd13ifvqba0","pricing_plan_id":"cebpf4jnsgd1na2vs0mg"},{"bike_id":"c5ce9bfa-a6cc-4751-b6a3-d2d039a381bd","system_id":"levelo_inurba_marseille","lat":43.305454,"lon":5.365472,"is_reserved":false,"is_disabled":false,"rental_uris":{"android":"levelo://app?vid=c5ce9bfa-a6cc-4751-b6a3-d2d039a381bd","ios":"levelo://app?vid=c5ce9bfa-a6cc-4751-b6a3-d2d039a381bd"},"vehicle_type_id":"4","last_reported":1753200871,"current_range_meters":19600,"station_id":"ce4bgs12rcd13ifvqcag","pricing_plan_id":"cebpf4jnsgd1na2vs0mg"},{"bike_id":"b4d43cab-4ae3-4609-9073-07b858511944","system_id":"levelo_inurba_marseille","lat":43.27375,"lon":5.36262,"is_reserved":false,"is_disabled":false,"rental_uris":{"android":"levelo://app?vid=b4d43cab-4ae3-4609-9073-07b858511944","ios":"levelo://app?vid=b4d43cab-4ae3-4609-9073-07b858511944"},"vehicle_type_id":"4","last_reported":1753200871,"current_range_meters":19600,"station_id":"ce4bhbh2rcd13ifvqeo0","pricing_plan_id":"cebpf4jnsgd1na2vs0mg"},{"bike_id":"81e1daaa-8d5a-4a10-a626-eecfbb8a516e","system_id":"levelo_inurba_marseille","lat":43.29878,"lon":5.38893,"is_reserved":false,"is_disabled":false,"rental_uris":{"android":"levelo://app?vid=81e1daaa-8d5a-4a10-a626-eecfbb8a516e","ios":"levelo://app?vid=81e1daaa-8d5a-4a10-a626-eecfbb8a516e"},"vehicle_type_id":"4","last_reported":1753200871,"current_range_meters":19600,"station_id":"ce4bh392rcd13ifvqdl0","pricing_plan_id":"cebpf4jnsgd1na2vs0mg"},{"bike_id":"d55a2ddc-341f-4068-b232-60c29c0ca49f","system_id":"levelo_inurba_marseille","lat":43.24811,"lon":5.37459,"is_reserved":false,"is_disabled":false,"rental_uris":{"android":"levelo://app?vid=d55a2ddc-341f-4068-b232-60c29c0ca49f","ios":"levelo://app?vid=d55a2ddc-341f-4068-b232-60c29c0ca49f"},"vehicle_type_id":"4","last_reported":1753200871,"current_range_meters":19600,"station_id":"ce4bhgh2rcd13ifvqfb0","pricing_plan_id":"cebpf4jnsgd1na2vs0mg"},{"bike_id":"7c4ba253-d22a-46ba-8c57-cfbff953410f","system_id":"levelo_inurba_marseille","lat":43.262098,"lon":5.374381,"is_reserved":false,"is_disabled":false,"rental_uris":{"android":"levelo://app?vid=7c4ba253-d22a-46ba-8c57-cfbff953410f","ios":"levelo://app?vid=7c4ba253-d22a-46ba-8c57-cfbff953410f"},"vehicle_type_id":"4","last_reported":1753200871,"current_range_meters":19600,"station_id":"ce4bhgp2rcd13ifvqfc0","pricing_plan_id":"cebpf4jnsgd1na2vs0mg"},{"bike_id":"4f4d2c97-613c-4453-b9b5-2d9a5b09a687","system_id":"levelo_inurba_marseille","lat":43.231908,"lon":5.355659,"is_reserved":false,"is_disabled":false,"rental_uris":{"android":"levelo://app?vid=4f4d2c97-613c-4453-b9b5-2d9a5b09a687","ios":"levelo://app?vid=4f4d2c97-613c-4453-b9b5-2d9a5b09a687"},"vehicle_type_id":"4","last_reported":1753200871,"current_range_meters":20000,"station_id":"ce4bhu92rcd13ifvqi70","pricing_plan_id":"cebpf4jnsgd1na2vs0mg"},{"bike_id":"bfa5cd92-f491-45a0-95fe-6103d1bc2ff3","system_id":"levelo_inurba_marseille","lat":43.28431,"lon":5.34989,"is_reserved":false,"is_disabled":false,"rental_uris":{"android":"levelo://app?vid=bfa5cd92-f491-45a0-95fe-6103d1bc2ff3","ios":"levelo://app?vid=bfa5cd92-f491-45a0-95fe-6103d1bc2ff3"},"vehicle_type_id":"4","last_reported":1753200871,"current_range_meters":20000,"station_id":"ce4bhbh2rcd13ifvqepg","pricing_plan_id":"cebpf4jnsgd1na2vs0mg"},{"bike_id":"907c703a-360b-430b-b5f6-27d4a94dfb29","system_id":"levelo_inurba_marseille","lat":43.28614,"lon":5.35103,"is_reserved":false,"is_disabled":false,"rental_uris":{"android":"levelo://app?vid=907c703a-360b-430b-b5f6-27d4a94dfb29","ios":"levelo://app?vid=907c703a-360b-430b-b5f6-27d4a94dfb29"},"vehicle_type_id":"4","last_reported":1753200871,"current_range_meters":20000,"station_id":"ce4bhch2rcd13ifvqeug","pricing_plan_id":"cebpf4jnsgd1na2vs0mg"},{"bike_id":"5e02988e-7d55-4766-a24e-5a79183357cb","system_id":"levelo_inurba_marseille","lat":43.21193,"lon":5.35079,"is_reserved":false,"is_disabled":false,"rental_uris":{"android":"levelo://app?vid=5e02988e-7d55-4766-a24e-5a79183357cb","ios":"levelo://app?vid=5e02988e-7d55-4766-a24e-5a79183357cb"},"vehicle_type_id":"4","last_reported":1753200871,"current_range_meters":20000,"station_id":"st_cvj6sg6p6f1abm77japg","pricing_plan_id":"cebpf4jnsgd1na2vs0mg"},{"bike_id":"ec6ea80c-5222-4033-ae54-b25fd0d9a2b0","system_id":"levelo_inurba_marseille","lat":43.286188,"lon":5.351036,"is_reserved":false,"is_disabled":false,"rental_uris":{"android":"levelo://app?vid=ec6ea80c-5222-4033-ae54-b25fd0d9a2b0","ios":"levelo://app?vid=ec6ea80c-5222-4033-ae54-b25fd0d9a2b0"},"vehicle_type_id":"4","last_reported":1753200871,"current_range_meters":20400,"station_id":"ce4bhch2rcd13ifvqeug","pricing_plan_id":"cebpf4jnsgd1na2vs0mg"},{"bike_id":"b5ce8d93-17c0-45a5-b2b1-eefce45c2d79","system_id":"levelo_inurba_marseille","lat":43.31808,"lon":5.43526,"is_reserved":false,"is_disabled":false,"rental_uris":{"android":"levelo://app?vid=b5ce8d93-17c0-45a5-b2b1-eefce45c2d79","ios":"levelo://app?vid=b5ce8d93-17c0-45a5-b2b1-eefce45c2d79"},"vehicle_type_id":"4","last_reported":1753200871,"current_range_meters":20000,"station_id":"","pricing_plan_id":"cebpf4jnsgd1na2vs0mg"},{"bike_id":"6bb1f31c-9335-4f39-9585-31374a4775f9","system_id":"levelo_inurba_marseille","lat":43.3255,"lon":5.3791,"is_reserved":false,"is_disabled":false,"rental_uris":{"android":"levelo://app?vid=6bb1f31c-9335-4f39-9585-31374a4775f9","ios":"levelo://app?vid=6bb1f31c-9335-4f39-9585-31374a4775f9"},"vehicle_type_id":"4","last_reported":1753200871,"current_range_meters":20000,"station_id":"","pricing_plan_id":"cebpf4jnsgd1na2vs0mg"},{"bike_id":"cfed53e2-d654-44d0-8e43-dfb8c467d23e","system_id":"levelo_inurba_marseille","lat":43.24811,"lon":5.37464,"is_reserved":false,"is_disabled":false,"rental_uris":{"android":"levelo://app?vid=cfed53e2-d654-44d0-8e43-dfb8c467d23e","ios":"levelo://app?vid=cfed53e2-d654-44d0-8e43-dfb8c467d23e"},"vehicle_type_id":"4","last_reported":1753200871,"current_range_meters":20000,"station_id":"ce4bhgh2rcd13ifvqfb0","pricing_plan_id":"cebpf4jnsgd1na2vs0mg"},{"bike_id":"a0de01aa-cd68-4a4d-8bab-65fa167b8610","system_id":"levelo_inurba_marseille","lat":43.23203,"lon":5.35561,"is_reserved":false,"is_disabled":false,"rental_uris":{"android":"levelo://app?vid=a0de01aa-cd68-4a4d-8bab-65fa167b8610","ios":"levelo://app?vid=a0de01aa-cd68-4a4d-8bab-65fa167b8610"},"vehicle_type_id":"4","last_reported":1753200871,"current_range_meters":20000,"station_id":"ce4bhu92rcd13ifvqi70","pricing_plan_id":"cebpf4jnsgd1na2vs0mg"},{"bike_id":"8955f49a-eeae-42e1-be3e-ee792f26129f","system_id":"levelo_inurba_marseille","lat":43.26567,"lon":5.39014,"is_reserved":false,"is_disabled":false,"rental_uris":{"android":"levelo://app?vid=8955f49a-eeae-42e1-be3e-ee792f26129f","ios":"levelo://app?vid=8955f49a-eeae-42e1-be3e-ee792f26129f"},"vehicle_type_id":"4","last_reported":1753200871,"current_range_meters":20000,"station_id":"ce4bhe12rcd13ifvqf30","pricing_plan_id":"cebpf4jnsgd1na2vs0mg"},{"bike_id":"9ce312f1-cb07-4159-91d6-c11a68a5ee71","system_id":"levelo_inurba_marseille","lat":43.21191,"lon":5.35075,"is_reserved":false,"is_disabled":false,"rental_uris":{"android":"levelo://app?vid=9ce312f1-cb07-4159-91d6-c11a68a5ee71","ios":"levelo://app?vid=9ce312f1-cb07-4159-91d6-c11a68a5ee71"},"vehicle_type_id":"4","last_reported":1753200871,"current_range_meters":20000,"station_id":"st_cvj6sg6p6f1abm77japg","pricing_plan_id":"cebpf4jnsgd1na2vs0mg"},{"bike_id":"5852fb24-002a-478f-8f94-97d04ec82aee","system_id":"levelo_inurba_marseille","lat":43.29239,"lon":5.36035,"is_reserved":false,"is_disabled":false,"rental_uris":{"android":"levelo://app?vid=5852fb24-002a-478f-8f94-97d04ec82aee","ios":"levelo://app?vid=5852fb24-002a-478f-8f94-97d04ec82aee"},"vehicle_type_id":"4","last_reported":1753200871,"current_range_meters":20400,"station_id":"ce4bhbh2rcd13ifvqeqg","pricing_plan_id":"cebpf4jnsgd1na2vs0mg"},{"bike_id":"b220b67f-ca48-464c-9282-68e481b9e412","system_id":"levelo_inurba_marseille","lat":43.28861,"lon":5.35836,"is_reserved":false,"is_disabled":false,"rental_uris":{"android":"levelo://app?vid=b220b67f-ca48-464c-9282-68e481b9e412","ios":"levelo://app?vid=b220b67f-ca48-464c-9282-68e481b9e412"},"vehicle_type_id":"4","last_reported":1753200871,"current_range_meters":20400,"station_id":"ce4bhb12rcd13ifvqem0","pricing_plan_id":"cebpf4jnsgd1na2vs0mg"},{"bike_id":"0c45d676-e37f-4325-ad3e-812573525baf","system_id":"levelo_inurba_marseille","lat":43.31731,"lon":5.42405,"is_reserved":false,"is_disabled":false,"rental_uris":{"android":"levelo://app?vid=0c45d676-e37f-4325-ad3e-812573525baf","ios":"levelo://app?vid=0c45d676-e37f-4325-ad3e-812573525baf"},"vehicle_type_id":"4","last_reported":1753200871,"current_range_meters":20000,"station_id":"ce4bhp92rcd13ifvqhbg","pricing_plan_id":"cebpf4jnsgd1na2vs0mg"},{"bike_id":"df1abf48-7452-4644-804a-d51ca4f8f139","system_id":"levelo_inurba_marseille","lat":43.21748,"lon":5.34625,"is_reserved":false,"is_disabled":false,"rental_uris":{"android":"levelo://app?vid=df1abf48-7452-4644-804a-d51ca4f8f139","ios":"levelo://app?vid=df1abf48-7452-4644-804a-d51ca4f8f139"},"vehicle_type_id":"4","last_reported":1753200871,"current_range_meters":20400,"station_id":"st_cvj6r9ubvosntc0bgbag","pricing_plan_id":"cebpf4jnsgd1na2vs0mg"},{"bike_id":"58df5641-dcdb-485a-8cef-b0aa098d89db","system_id":"levelo_inurba_marseille","lat":43.29267,"lon":5.38437,"is_reserved":false,"is_disabled":false,"rental_uris":{"android":"levelo://app?vid=58df5641-dcdb-485a-8cef-b0aa098d89db","ios":"levelo://app?vid=58df5641-dcdb-485a-8cef-b0aa098d89db"},"vehicle_type_id":"4","last_reported":1753200871,"current_range_meters":20400,"station_id":"ce4bh692rcd13ifvqea0","pricing_plan_id":"cebpf4jnsgd1na2vs0mg"},{"bike_id":"89189fda-93a8-47ed-8ade-0aa9bd47bc1d","system_id":"levelo_inurba_marseille","lat":43.24076,"lon":5.37762,"is_reserved":false,"is_disabled":false,"rental_uris":{"android":"levelo://app?vid=89189fda-93a8-47ed-8ade-0aa9bd47bc1d","ios":"levelo://app?vid=89189fda-93a8-47ed-8ade-0aa9bd47bc1d"},"vehicle_type_id":"4","last_reported":1753200871,"current_range_meters":20400,"station_id":"ce4bhnp2rcd13ifvqgvg","pricing_plan_id":"cebpf4jnsgd1na2vs0mg"},{"bike_id":"99e4e805-7ddc-4b17-9781-dc6bd3fc1ac3","system_id":"levelo_inurba_marseille","lat":43.2862,"lon":5.35112,"is_reserved":false,"is_disabled":false,"rental_uris":{"android":"levelo://app?vid=99e4e805-7ddc-4b17-9781-dc6bd3fc1ac3","ios":"levelo://app?vid=99e4e805-7ddc-4b17-9781-dc6bd3fc1ac3"},"vehicle_type_id":"4","last_reported":1753200871,"current_range_meters":20400,"station_id":"ce4bhch2rcd13ifvqeug","pricing_plan_id":"cebpf4jnsgd1na2vs0mg"},{"bike_id":"6c242a4a-6008-4408-bfe3-1b0d35f6b39c","system_id":"levelo_inurba_marseille","lat":43.28284,"lon":5.35067,"is_reserved":false,"is_disabled":false,"rental_uris":{"android":"levelo://app?vid=6c242a4a-6008-4408-bfe3-1b0d35f6b39c","ios":"levelo://app?vid=6c242a4a-6008-4408-bfe3-1b0d35f6b39c"},"vehicle_type_id":"4","last_reported":1753200871,"current_range_meters":20400,"station_id":"ce4bhbp2rcd13ifvqerg","pricing_plan_id":"cebpf4jnsgd1na2vs0mg"},{"bike_id":"70d4c4f0-c003-42f6-8c34-033e1155a1ad","system_id":"levelo_inurba_marseille","lat":43.27376,"lon":5.36256,"is_reserved":false,"is_disabled":false,"rental_uris":{"android":"levelo://app?vid=70d4c4f0-c003-42f6-8c34-033e1155a1ad","ios":"levelo://app?vid=70d4c4f0-c003-42f6-8c34-033e1155a1ad"},