{"last_updated":1717531685,"ttl":30,"version":"2.2","data":{"bikes":[{"bike_id":"664abe49-4a66-44b1-8685-b4e4a92f58ee","system_id":"levelo_inurba_marseille","lat":43.313391,"lon":5.36706,"is_reserved":false,"is_disabled":false,"rental_uris":{"android":"levelo://app?vid=664abe49-4a66-44b1-8685-b4e4a92f58ee","ios":"levelo://app?vid=664abe49-4a66-44b1-8685-b4e4a92f58ee"},"vehicle_type_id":"4","last_reported":1717531685,"current_range_meters":12800,"station_id":"ce4bgr92rcd13ifvqc6g","pricing_plan_id":"cebpf4jnsgd1na2vs0mg"},{"bike_id":"952f19d8-f71b-457e-93ce-04945d8f13e3","system_id":"levelo_inurba_marseille","lat":43.31232,"lon":5.36828,"is_reserved":false,"is_disabled":false,"rental_uris":{"android":"levelo://app?vid=952f19d8-f71b-457e-93ce-04945d8f13e3","ios":"levelo://app?vid=952f19d8-f71b-457e-93ce-04945d8f13e3"},"vehicle_type_id":"4","last_reported":1717531685,"current_range_meters":19200,"station_id":"ce4bgl92rcd13ifvqbq0","pricing_plan_id":"cebpf4jnsgd1na2vs0mg"},{"bike_id":"4849a2e9-2a76-4a22-a294-7058840cdefb","system_id":"levelo_inurba_marseille","lat":43.312239,"lon":5.368562,"is_reserved":false,"is_disabled":false,"rental_uris":{"android":"levelo://app?vid=4849a2e9-2a76-4a22-a294-7058840cdefb","ios":"levelo://app?vid=4849a2e9-2a76-4a22-a294-7058840cdefb"},"vehicle_type_id":"4","last_reported":1717531685,"current_range_meters":0,"station_id":"ce4bgl92rcd13ifvqbq0","pricing_plan_id":"cebpf4jnsgd1na2vs0mg"},{"bike_id":"24de868f-525c-48e9-8f82-2b493db08a62","system_id":"levelo_inurba_marseille","lat":43.312239,"lon":5.368562,"is_reserved":false,"is_disabled":false,"rental_uris":{"android":"levelo://app?vid=24de868f-525c-48e9-8f82-2b493db08a62","ios":"levelo://app?vid=24de868f-525c-48e9-8f82-2b493db08a62"},"vehicle_type_id":"4","last_reported":1717531685,"current_range_meters":20000,"station_id":"ce4bgl92rcd13ifvqbq0","pricing_plan_id":"cebpf4jnsgd1na2vs0mg"},{"bike_id":"235d91e0-acb5-4584-954f-d7598f0f0d15","system_id":"levelo_inurba_marseille","lat":43.309076,"lon":5.368465,"is_reserved":false,"is_disabled":false,"rental_uris":{"android":"levelo://app?vid=235d91e0-acb5-4584-954f-d7598f0f0d15","ios":"levelo://app?vid=235d91e0-acb5-4584-954f-d7598f0f0d15"},"vehicle_type_id":"4","last_reported":1717531685,"current_range_meters":28800,"station_id":"ce4bgn92rcd13ifvqbvg","pricing_plan_id":"cebpf4jnsgd1na2vs0mg"},{"bike_id":"69c9d741-8a8a-4b9f-acc3-c51539a6dd77","system_id":"levelo_inurba_marseille","lat":43.31494,"lon":5.37311,"is_reserved":false,"is_disabled":false,"rental_uris":{"android":"levelo://app?vid=69c9d741-8a8a-4b9f-acc3-c51539a6dd77","ios":"levelo://app?vid=69c9d741-8a8a-4b9f-acc3-c51539a6dd77"},"vehicle_type_id":"4","last_reported":1717531685,"current_range_meters":2800,"station_id":"ce4bgt12rcd13ifvqcd0","pricing_plan_id":"cebpf4jnsgd1na2vs0mg"},{"bike_id":"2b2e8f6e-41a6-46d7-afc3-243c28c9691b","system_id":"levelo_inurba_marseille","lat":43.305712,"lon":5.365641,"is_reserved":false,"is_disabled":false,"rental_uris":{"android":"levelo://app?vid=2b2e8f6e-41a6-46d7-afc3-243c28c9691b","ios":"levelo://app?vid=2b2e8f6e-41a6-46d7-afc3-243c28c9691b"},"vehicle_type_id":"4","last_reported":1717531685,"current_range_meters":13200,"station_id":"ce4bgs12rcd13ifvqcag","pricing_plan_id":"cebpf4jnsgd1na2vs0mg"},{"bike_id":"65af76d2-a180-4646-9416-57b37829a0ba","system_id":"levelo_inurba_marseille","lat":43.30537,"lon":5.367345,"is_reserved":false,"is_disabled":false,"rental_uris":{"android":"levelo://app?vid=65af76d2-a180-4646-9416-57b37829a0ba","ios":"levelo://app?vid=65af76d2-a180-4646-9416-57b37829a0ba"},"vehicle_type_id":"4","last_reported":1717531685,"current_range_meters":24400,"station_id":"ce4bgrp2rcd13ifvqc9g","pricing_plan_id":"cebpf4jnsgd1na2vs0mg"},{"bike_id":"19add10d-4f0e-447c-a42a-319f536cb5a4","system_id":"levelo_inurba_marseille","lat":43.30537,"lon":5.367345,"is_reserved":false,"is_disabled":false,"rental_uris":{"android":"levelo://app?vid=19add10d-4f0e-447c-a42a-319f536cb5a4","ios":"levelo://app?vid=19add10d-4f0e-447c-a42a-319f536cb5a4"},"vehicle_type_id":"4","last_reported":1717531685,"current_range_meters":30000,"station_id":"ce4bgrp2rcd13ifvqc9g","pricing_plan_id":"cebpf4jnsgd1na2vs0mg"},{"bike_id":"a8a8b190-5f57-4b26-b3bb-53bbd3aec293","system_id":"levelo_inurba_marseille","lat":43.305368,"lon":5.367343,"is_reserved":false,"is_disabled":false,"rental_uris":{"android":"levelo://app?vid=a8a8b190-5f57-4b26-b3bb-53bbd3aec293","ios":"levelo://app?vid=a8a8b190-5f57-4b26-b3bb-53bbd3aec293"},"vehicle_type_id":"4","last_reported":1717531685,"current_range_meters":13600,"station_id":"ce4bgrp2rcd13ifvqc9g","pricing_plan_id":"cebpf4jnsgd1na2vs0mg"},{"bike_id":"24754ab1-fe00-4c01-8e6e-c510dcbf6f82","system_id":"levelo_inurba_marseille","lat":43.305989,"lon":5.37225,"is_reserved":false,"is_disabled":false,"rental_uris":{"android":"levelo://app?vid=24754ab1-fe00-4c01-8e6e-c510dcbf6f82","ios":"levelo://app?vid=24754ab1-fe00-4c01-8e6e-c510dcbf6f82"},"vehicle_type_id":"4","last_reported":1717531685,"current_range_meters":18000,"station_id":"ce4bgqh2rcd13ifvqc4g","pricing_plan_id":"cebpf4jnsgd1na2vs0mg"},{"bike_id":"e111bc74-67a4-47fb-a6f9-6b0ad5e29c8c","system_id":"levelo_inurba_marseille","lat":43.305989,"lon":5.37225,"is_reserved":false,"is_disabled":false,"rental_uris":{"android":"levelo://app?vid=e111bc74-67a4-47fb-a6f9-6b0ad5e29c8c","ios":"levelo://app?vid=e111bc74-67a4-47fb-a6f9-6b0ad5e29c8c"},"vehicle_type_id":"4","last_reported":1717531685,"current_range_meters":2000,"station_id":"ce4bgqh2rcd13ifvqc4g","pricing_plan_id":"cebpf4jnsgd1na2vs0mg"},{"bike_id":"00c23ba8-230b-4c30-afaa-49456e0f7189","system_id":"levelo_inurba_marseille","lat":43.305989,"lon":5.37225,"is_reserved":false,"is_disabled":false,"rental_uris":{"android":"levelo://app?vid=00c23ba8-230b-4c30-afaa-49456e0f7189","ios":"levelo://app?vid=00c23ba8-230b-4c30-afaa-49456e0f7189"},"vehicle_type_id":"4","last_reported":1717531685,"current_range_meters":18000,"station_id":"ce4bgqh2rcd13ifvqc4g","pricing_plan_id":"cebpf4jnsgd1na2vs0mg"},{"bike_id":"66b0ba04-60c1-4570-b298-8281fe339c24","system_id":"levelo_inurba_marseille","lat":43.306015,"lon":5.37222,"is_reserved":false,"is_disabled":false,"rental_uris":{"android":"levelo://app?vid=66b0ba04-60c1-4570-b298-8281fe339c24","ios":"levelo://app?vid=66b0ba04-60c1-4570-b298-8281fe339c24"},"vehicle_type_id":"4","last_reported":1717531685,"current_range_meters":18400,"station_id":"ce4bgqh2rcd13ifvqc4g","pricing_plan_id":"cebpf4jnsgd1na2vs0mg"},{"bike_id":"a3f1d709-bcb7-43ec-bfe9-7021de7135f9","system_id":"levelo_inurba_marseille","lat":43.305989,"lon":5.37225,"is_reserved":false,"is_disabled":false,"rental_uris":{"android":"levelo://app?vid=a3f1d709-bcb7-43ec-bfe9-7021de7135f9","ios":"levelo://app?vid=a3f1d709-bcb7-43ec-bfe9-7021de7135f9"},"vehicle_type_id":"4","last_reported":1717531685,"current_range_meters":15200,"station_id":"ce4bgqh2rcd13ifvqc4g","pricing_plan_id":"cebpf4jnsgd1na2vs0mg"},{"bike_id":"d0eec622-a5c4-4aa7-b10f-6d97856316bc","system_id":"levelo_inurba_marseille","lat":43.311572,"lon":5.377526,"is_reserved":false,"is_disabled":false,"rental_uris":{"android":"levelo://app?vid=d0eec622-a5c4-4aa7-b10f-6d97856316bc","ios":"levelo://app?vid=d0eec622-a5c4-4aa7-b10f-6d97856316bc"},"vehicle_type_id":"4","last_reported":1717531685,"current_range_meters":0,"station_id":"ce4bgt92rcd13ifvqcg0","pricing_plan_id":"cebpf4jnsgd1na2vs0mg"},{"bike_id":"4a869990-e6e2-4453-b7c0-9893bcc91fc7","system_id":"levelo_inurba_marseille","lat":43.311125,"lon":5.377624,"is_reserved":false,"is_disabled":false,"rental_uris":{"android":"levelo://app?vid=4a869990-e6e2-4453-b7c0-9893bcc91fc7","ios":"levelo://app?vid=4a869990-e6e2-4453-b7c0-9893bcc91fc7"},"vehicle_type_id":"4","last_reported":1717531685,"current_range_meters":23600,"station_id":"ce4bgt92rcd13ifvqcg0","pricing_plan_id":"cebpf4jnsgd1na2vs0mg"},{"bike_id":"d19eafde-f064-4111-84e9-6e6f1c904904","system_id":"levelo_inurba_marseille","lat":43.311125,"lon":5.377624,"is_reserved":false,"is_disabled":false,"rental_uris":{"android":"levelo://app?vid=d19eafde-f064-4111-84e9-6e6f1c904904","ios":"levelo://app?vid=d19eafde-f064-4111-84e9-6e6f1c904904"},"vehicle_type_id":"4","last_reported":1717531685,"current_range_meters":28400,"station_id":"ce4bgt92rcd13ifvqcg0","pricing_plan_id":"cebpf4jnsgd1na2vs0mg"},{"bike_id":"e8cda45c-1c67-4201-aa20-505126a3eeae","system_id":"levelo_inurba_marseille","lat":43.317075,"lon":5.377367,"is_reserved":false,"is_disabled":false,"rental_uris":{"android":"levelo://app?vid=e8cda45c-1c67-4201-aa20-505126a3eeae","ios":"levelo://app?vid=e8cda45c-1c67-4201-aa20-505126a3eeae"},"vehicle_type_id":"4","last_reported":1717531685,"current_range_meters":30800,"station_id":"ce4bgth2rcd13ifvqch0","pricing_plan_id":"cebpf4jnsgd1na2vs0mg"},{"bike_id":"58278a81-8dd8-433c-a0a5-e31d13bfb2aa","system_id":"levelo_inurba_marseille","lat":43.317093,"lon":5.377627,"is_reserved":false,"is_disabled":false,"rental_uris":{"android":"levelo://app?vid=58278a81-8dd8-433c-a0a5-e31d13bfb2aa","ios":"levelo://app?vid=58278a81-8dd8-433c-a0a5-e31d13bfb2aa"},"vehicle_type_id":"4","last_reported":1717531685,"current_range_meters":0,"station_id":"ce4bgth2rcd13ifvqch0","pricing_plan_id":"cebpf4jnsgd1na2vs0mg"},{"bike_id":"a73f6475-46ae-41f5-983a-645cedc7194a","system_id":"levelo_inurba_marseille","lat":43.30304,"lon":5.368987,"is_reserved":false,"is_disabled":false,"rental_uris":{"android":"levelo://app?vid=a73f6475-46ae-41f5-983a-645cedc7194a","ios":"levelo://app?vid=a73f6475-46ae-41f5-983a-645cedc7194a"},"vehicle_type_id":"4","last_reported":1717531685,"current_range_meters":28400,"station_id":"ce4bgqh2rcd13ifvqc5g","pricing_plan_id":"cebpf4jnsgd1na2vs0mg"},{"bike_id":"698c9be5-6b1b-4375-b2cf-54174aff42cc","system_id":"levelo_inurba_marseille","lat":43.30304,"lon":5.368987,"is_reserved":false,"is_disabled":false,"rental_uris":{"android":"levelo://app?vid=698c9be5-6b1b-4375-b2cf-54174aff42cc","ios":"levelo://app?vid=698c9be5-6b1b-4375-b2cf-54174aff42cc"},"vehicle_type_id":"4","last_reported":1717531685,"current_range_meters":23600,"station_id":"ce4bgqh2rcd13ifvqc5g","pricing_plan_id":"cebpf4jnsgd1na2vs0mg"},{"bike_id":"73e75577-1fee-4268-a2e0-6b7a8c791ea8","system_id":"levelo_inurba_marseille","lat":43.30304,"lon":5.368987,"is_reserved":false,"is_disabled":false,"rental_uris":{"android":"levelo://app?vid=73e75577-1fee-4268-a2e0-6b7a8c791ea8","ios":"levelo://app?vid=73e75577-1fee-4268-a2e0-6b7a8c791ea8"},"vehicle_type_id":"4","last_reported":1717531685,"current_range_meters":29200,"station_id":"ce4bgqh2rcd13ifvqc5g","pricing_plan_id":"cebpf4jnsgd1na2vs0mg"},{"bike_id":"3fe63276-bf6d-49c9-af26-6fb5734daf8f","system_id":"levelo_inurba_marseille","lat":43.30304,"lon":5.368987,"is_reserved":false,"is_disabled":false,"rental_uris":{"android":"levelo://app?vid=3fe63276-bf6d-49c9-af26-6fb5734daf8f","ios":"levelo://app?vid=3fe63276-bf6d-49c9-af26-6fb5734daf8f"},"vehicle_type_id":"4","last_reported":1717531685,"current_range_meters":31200,"station_id":"ce4bgqh2rcd13ifvqc5g","pricing_plan_id":"cebpf4jnsgd1na2vs0mg"},{"bike_id":"4c5bea88-e539-4698-9ebb-bfaf93622cac","system_id":"levelo_inurba_marseille","lat":43.30304,"lon":5.368987,"is_reserved":false,"is_disabled":false,"rental_uris":{"android":"levelo://app?vid=4c5bea88-e539-4698-9ebb-bfaf93622cac","ios":"levelo://app?vid=4c5bea88-e539-4698-9ebb-bfaf93622cac"},"vehicle_type_id":"4","last_reported":1717531685,"current_range_meters":15200,"station_id":"ce4bgqh2rcd13ifvqc5g","pricing_plan_id":"cebpf4jnsgd1na2vs0mg"},{"bike_id":"5401ff84-06c4-4c94-b76e-411da2f5ffe9","system_id":"levelo_inurba_marseille","lat":43.32224,"lon":5.371303,"is_reserved":false,"is_disabled":false,"rental_uris":{"android":"levelo://app?vid=5401ff84-06c4-4c94-b76e-411da2f5ffe9","ios":"levelo://app?vid=5401ff84-06c4-4c94-b76e-411da2f5ffe9"},"vehicle_type_id":"4","last_reported":1717531685,"current_range_meters":10400,"station_id":"","pricing_plan_id":"cebpf4jnsgd1na2vs0mg"},{"bike_id":"08809f29-0bf1-48d0-8036-de46975a6f22","system_id":"levelo_inurba_marseille","lat":43.31536,"lon":5.38031,"is_reserved":false,"is_disabled":false,"rental_uris":{"android":"levelo://app?vid=08809f29-0bf1-48d0-8036-de46975a6f22","ios":"levelo://app?vid=08809f29-0bf1-48d0-8036-de46975a6f22"},"vehicle_type_id":"4","last_reported":1717531685,"current_range_meters":0,"station_id":"ce4bhsp2rcd13ifvqi50","pricing_plan_id":"cebpf4jnsgd1na2vs0mg"},{"bike_id":"60925564-19ac-490b-b0e6-5daf0f276d82","system_id":"levelo_inurba_marseille","lat":43.30194,"lon":5.36608,"is_reserved":false,"is_disabled":false,"rental_uris":{"android":"levelo://app?vid=60925564-19ac-490b-b0e6-5daf0f276d82","ios":"levelo://app?vid=60925564-19ac-490b-b0e6-5daf0f276d82"},"vehicle_type_id":"4","last_reported":1717531685,"current_range_meters":31200,"station_id":"","pricing_plan_id":"cebpf4jnsgd1na2vs0mg"},{"bike_id":"39fc3989-2a11-4313-ae6b-d55f6dfb2dc6","system_id":"levelo_inurba_marseille","lat":43.301939,"lon":5.366286,"is_reserved":false,"is_disabled":false,"rental_uris":{"android":"levelo://app?vid=39fc3989-2a11-4313-ae6b-d55f6dfb2dc6","ios":"levelo://app?vid=39fc3989-2a11-4313-ae6b-d55f6dfb2dc6"},"vehicle_type_id":"4","last_reported":1717531685,"current_range_meters":30000,"station_id":"ce4bgrh2rcd13ifvqc8g","pricing_plan_id":"cebpf4jnsgd1na2vs0mg"},{"bike_id":"205e3538-857b-49ca-8413-afe46c1ba871","system_id":"levelo_inurba_marseille","lat":43.308012,"lon":5.381511,"is_reserved":false,"is_disabled":false,"rental_uris":{"android":"levelo://app?vid=205e3538-857b-49ca-8413-afe46c1ba871","ios":"levelo://app?vid=205e3538-857b-49ca-8413-afe46c1ba871"},"vehicle_type_id":"4","last_reported":1717531685,"current_range_meters":18800,"station_id":"ce4bgt12rcd13ifvqce0","pricing_plan_id":"cebpf4jnsgd1na2vs0mg"},{"bike_id":"bdb6236d-3d05-4ee5-9d01-694439abf2dd","system_id":"levelo_inurba_marseille","lat":43.308012,"lon":5.381511,"is_reserved":false,"is_disabled":false,"rental_uris":{"android":"levelo://app?vid=bdb6236d-3d05-4ee5-9d01-694439abf2dd","ios":"levelo://app?vid=bdb6236d-3d05-4ee5-9d01-694439abf2dd"},"vehicle_type_id":"4","last_reported":1717531685,"current_range_meters":30400,"station_id":"ce4bgt12rcd13ifvqce0","pricing_plan_id":"cebpf4jnsgd1na2vs0mg"},{"bike_id":"4512d9ba-66f9-4bf8-97ee-b33d27cc2cec","system_id":"levelo_inurba_marseille","lat":43.304606,"lon":5.379026,"is_reserved":false,"is_disabled":false,"rental_uris":{"android":"levelo://app?vid=4512d9ba-66f9-4bf8-97ee-b33d27cc2cec","ios":"levelo://app?vid=4512d9ba-66f9-4bf8-97ee-b33d27cc2cec"},"vehicle_type_id":"4","last_reported":1717531685,"current_range_meters":3600,"station_id":"ce4bgup2rcd13ifvqcn0","pricing_plan_id":"cebpf4jnsgd1na2vs0mg"},{"bike_id":"1a48df33-b22c-4419-94b8-72d016575dc1","system_id":"levelo_inurba_marseille","lat":43.324865,"lon":5.365745,"is_reserved":false,"is_disabled":false,"rental_uris":{"android":"levelo://app?vid=1a48df33-b22c-4419-94b8-72d016575dc1","ios":"levelo://app?vid=1a48df33-b22c-4419-94b8-72d016575dc1"},"vehicle_type_id":"4","last_reported":1717531685,"current_range_meters":0,"station_id":"ce4bhs12rcd13ifvqhvg","pricing_plan_id":"cebpf4jnsgd1na2vs0mg"},{"bike_id":"640a808d-7892-435d-a274-8d8ffe96dd6a","system_id":"levelo_inurba_marseille","lat":43.302784,"lon":5.377158,"is_reserved":false,"is_disabled":false,"rental_uris":{"android":"levelo://app?vid=640a808d-7892-435d-a274-8d8ffe96dd6a","ios":"levelo://app?vid=640a808d-7892-435d-a274-8d8ffe96dd6a"},"vehicle_type_id":"4","last_reported":1717531685,"current_range_meters":9200,"station_id":"ce4bguh2rcd13ifvqcj0","pricing_plan_id":"cebpf4jnsgd1na2vs0mg"},{"bike_id":"92e1deed-3c96-44e2-844f-59bd781fffad","system_id":"levelo_inurba_marseille","lat":43.324771,"lon":5.36557,"is_reserved":false,"is_disabled":false,"rental_uris":{"android":"levelo://app?vid=92e1deed-3c96-44e2-844f-59bd781fffad","ios":"levelo://app?vid=92e1deed-3c96-44e2-844f-59bd781fffad"},"vehicle_type_id":"4","last_reported":1717531685,"current_range_meters":0,"station_id":"ce4bhs12rcd13ifvqhvg","pricing_plan_id":"cebpf4jnsgd1na2vs0mg"},{"bike_id":"86e93459-abdf-4430-812f-27b34ccd20cf","system_id":"levelo_inurba_marseille","lat":43.31079,"lon":5.38353,"is_reserved":false,"is_disabled":false,"rental_uris":{"android":"levelo://app?vid=86e93459-abdf-4430-812f-27b34ccd20cf","ios":"levelo://app?vid=86e93459-abdf-4430-812f-27b34ccd20cf"},"vehicle_type_id":"4","last_reported":1717531685,"current_range_meters":0,"station_id":"ce4bgv92rcd13ifvqcr0","pricing_plan_id":"cebpf4jnsgd1na2vs0mg"},{"bike_id":"c06e82ac-c6dc-4e34-bc1c-abcd2a19c14a","system_id":"levelo_inurba_marseille","lat":43.310804,"lon":5.38359,"is_reserved":false,"is_disabled":false,"rental_uris":{"android":"levelo://app?vid=c06e82ac-c6dc-4e34-bc1c-abcd2a19c14a","ios":"levelo://app?vid=c06e82ac-c6dc-4e34-bc1c-abcd2a19c14a"},"vehicle_type_id":"4","last_reported":1717531685,"current_range_meters":0,"station_id":"ce4bgv92rcd13ifvqcr0","pricing_plan_id":"cebpf4jnsgd1na2vs0mg"},{"bike_id":"f8029362-0453-4936-8f17-912dd47edecb","system_id":"levelo_inurba_marseille","lat":43.310804,"lon":5.38359,"is_reserved":false,"is_disabled":false,"rental_uris":{"android":"levelo://app?vid=f8029362-0453-4936-8f17-912dd47edecb","ios":"levelo://app?vid=f8029362-0453-4936-8f17-912dd47edecb"},"vehicle_type_id":"4","last_reported":1717531685,"current_range_meters":5600,"station_id":"ce4bgv92rcd13ifvqcr0","pricing_plan_id":"cebpf4jnsgd1na2vs0mg"},{"bike_id":"7313b88a-1bb3-4158-83be-55051e81cdfc","system_id":"levelo_inurba_marseille","lat":43.31071,"lon":5.38356,"is_reserved":false,"is_disabled":false,"rental_uris":{"android":"levelo://app?vid=7313b88a-1bb3-4158-83be-55051e81cdfc","ios":"levelo://app?vid=7313b88a-1bb3-4158-83be-55051e81cdfc"},"vehicle_type_id":"4","last_reported":1717531685,"current_range_meters":0,"station_id":"ce4bgv92rcd13ifvqcr0","pricing_plan_id":"cebpf4jnsgd1na2vs0mg"},{"bike_id":"28af182e-f9fc-4b20-8c22-27a68f43fcc8","system_id":"levelo_inurba_marseille","lat":43.302784,"lon":5.377158,"is_reserved":false,"is_disabled":false,"rental_uris":{"android":"levelo://app?vid=28af182e-f9fc-4b20-8c22-27a68f43fcc8","ios":"levelo://app?vid=28af182e-f9fc-4b20-8c22-27a68f43fcc8"},"vehicle_type_id":"4","last_reported":1717531685,"current_range_meters":4000,"station_id":"ce4bguh2rcd13ifvqcj0","pricing_plan_id":"cebpf4jnsgd1na2vs0mg"},{"bike_id":"f5d4eb05-318c-46ff-86e5-8f3835bf575e","system_id":"levelo_inurba_marseille","lat":43.302784,"lon":5.377158,"is_reserved":false,"is_disabled":false,"rental_uris":{"android":"levelo://app?vid=f5d4eb05-318c-46ff-86e5-8f3835bf575e","ios":"levelo://app?vid=f5d4eb05-318c-46ff-86e5-8f3835bf575e"},"vehicle_type_id":"4","last_reported":1717531685,"current_range_meters":29200,"station_id":"ce4bguh2rcd13ifvqcj0","pricing_plan_id":"cebpf4jnsgd1na2vs0mg"},{"bike_id":"f60c4d4d-adf5-4b33-9fb1-16c680a723b7","system_id":"levelo_inurba_marseille","lat":43.302784,"lon":5.377158,"is_reserved":false,"is_disabled":false,"rental_uris":{"android":"levelo://app?vid=f60c4d4d-adf5-4b33-9fb1-16c680a723b7","ios":"levelo://app?vid=f60c4d4d-adf5-4b33-9fb1-16c680a723b7"},"vehicle_type_id":"4","last_reported":1717531685,"current_range_meters":12000,"station_id":"ce4bguh2rcd13ifvqcj0","pricing_plan_id":"cebpf4jnsgd1na2vs0mg"},{"bike_id":"7fd53457-8dca-4258-bb0e-77078471e947","system_id":"levelo_inurba_marseille","lat":43.30278,"lon":5.37716,"is_reserved":false,"is_disabled":false,"rental_uris":{"android":"levelo://app?vid=7fd53457-8dca-4258-bb0e-77078471e947","ios":"levelo://app?vid=7fd53457-8dca-4258-bb0e-77078471e947"},"vehicle_type_id":"4","last_reported":1717531685,"current_range_meters":0,"station_id":"ce4bguh2rcd13ifvqcj0","pricing_plan_id":"cebpf4jnsgd1na2vs0mg"},{"bike_id":"a09d1df0-73fc-4dce-9b79-db7c8e373118","system_id":"levelo_inurba_marseille","lat":43.308012,"lon":5.381511,"is_reserved":false,"is_disabled":false,"rental_uris":{"android":"levelo://app?vid=a09d1df0-73fc-4dce-9b79-db7c8e373118","ios":"levelo://app?vid=a09d1df0-73fc-4dce-9b79-db7c8e373118"},"vehicle_type_id":"4","last_reported":1717531685,"current_range_meters":1600,"station_id":"ce4bgt12rcd13ifvqce0","pricing_plan_id":"cebpf4jnsgd1na2vs0mg"},{"bike_id":"816bf89a-24c7-4580-a48b-7cd2170fe034","system_id":"levelo_inurba_marseille","lat":43.319935,"lon":5.381699,"is_reserved":false,"is_disabled":false,"rental_uris":{"android":"levelo://app?vid=816bf89a-24c7-4580-a48b-7cd2170fe034","ios":"levelo://app?vid=816bf89a-24c7-4580-a48b-7cd2170fe034"},"vehicle_type_id":"4","last_reported":1717531685,"current_range_meters":2800,"station_id":"ce4bhr12rcd13ifvqhpg","pricing_plan_id":"cebpf4jnsgd1na2vs0mg"},{"bike_id":"ef064d45-e9a3-440f-81e3-2b1bbb56d9e6","system_id":"levelo_inurba_marseille","lat":43.319935,"lon":5.381699,"is_reserved":false,"is_disabled":false,"rental_uris":{"android":"levelo://app?vid=ef064d45-e9a3-440f-81e3-2b1bbb56d9e6","ios":"levelo://app?vid=ef064d45-e9a3-440f-81e3-2b1bbb56d9e6"},"vehicle_type_id":"4","last_reported":1717531685,"current_range_meters":800,"station_id":"ce4bhr12rcd13ifvqhpg","pricing_plan_id":"cebpf4jnsgd1na2vs0mg"},{"bike_id":"2d17fa2e-55cb-40df-8eed-88ca99ae2dd3","system_id":"levelo_inurba_marseille","lat":43.319935,"lon":5.381699,"is_reserved":false,"is_disabled":false,"rental_uris":{"android":"levelo://app?vid=2d17fa2e-55cb-40df-8eed-88ca99ae2dd3","ios":"levelo://app?vid=2d17fa2e-55cb-40df-8eed-88ca99ae2dd3"},"vehicle_type_id":"4","last_reported":1717531685,"current_range_meters":0,"station_id":"ce4bhr12rcd13ifvqhpg","pricing_plan_id":"cebpf4jnsgd1na2vs0mg"},{"bike_id":"86983e4b-c117-4fa9-b8f6-2aa523203287","system_id":"levelo_inurba_marseille","lat":43.319935,"lon":5.381699,"is_reserved":false,"is_disabled":false,"rental_uris":{"android":"levelo://app?vid=86983e4b-c117-4fa9-b8f6-2aa523203287","ios":"levelo://app?vid=86983e4b-c117-4fa9-b8f6-2aa523203287"},"vehicle_type_id":"4","last_reported":1717531685,"current_range_meters":2400,"station_id":"ce4bhr12rcd13ifvqhpg","pricing_plan_id":"cebpf4jnsgd1na2vs0mg"},{"bike_id":"e57f4ada-389a-4afb-99f8-76e2991fecd2","system_id":"levelo_inurba_marseille","lat":43.319935,"lon":5.381699,"is_reserved":false,"is_disabled":false,"rental_uris":{"android":"levelo://app?vid=e57f4ada-389a-4afb-99f8-76e2991fecd2","ios":"levelo://app?vid=e57f4ada-389a-4afb-99f8-76e2991fecd2"},"vehicle_type_id":"4","last_reported":1717531685,"current_range_meters":18800,"station_id":"ce4bhr12rcd13ifvqhpg","pricing_plan_id":"cebpf4jnsgd1na2vs0mg"},{"bike_id":"b8ca9d52-3aa6-4418-96d5-a82d839fb7f4","system_id":"levelo_inurba_marseille","lat":43.319935,"lon":5.381699,"is_reserved":false,"is_disabled":false,"rental_uris":{"android":"levelo://app?vid=b8ca9d52-3aa6-4418-96d5-a82d839fb7f4","ios":"levelo://app?vid=b8ca9d52-3aa6-4418-96d5-a82d839fb7f4"},"vehicle_type_id":"4","last_reported":1717531685,"current_range_meters":7600,"station_id":"ce4bhr12rcd13ifvqhpg","pricing_plan_id":"cebpf4jnsgd1na2vs0mg"},{"bike_id":"0de36e3d-89d6-428f-a00b-30b749a5bf5c","system_id":"levelo_inurba_marseille","lat":43.300332,"lon":5.372086,"is_reserved":false,"is_disabled":false,"rental_uris":{"android":"levelo://app?vid=0de36e3d-89d6-428f-a00b-30b749a5bf5c","ios":"levelo://app?vid=0de36e3d-89d6-428f-a00b-30b749a5bf5c"},"vehicle_type_id":"4","last_reported":1717531685,"current_range_meters":15200,"station_id":"","pricing_plan_id":"cebpf4jnsgd1na2vs0mg"},{"bike_id":"9f88959b-8f54-4a0b-b665-cdaaa6402727","system_id":"levelo_inurba_marseille","lat":43.319935,"lon":5.381699,"is_reserved":false,"is_disabled":false,"rental_uris":{"android":"levelo://app?vid=9f88959b-8f54-4a0b-b665-cdaaa6402727","ios":"levelo://app?vid=9f88959b-8f54-4a0b-b665-cdaaa6402727"},"vehicle_type_id":"4","last_reported":1717531685,"current_range_meters":15200,"station_id":"ce4bhr12rcd13ifvqhpg","pricing_plan_id":"cebpf4jnsgd1na2vs0mg"},{"bike_id":"2bd5f1f5-de29-42a2-a365-4fa8e0940aa7","system_id":"levelo_inurba_marseille","lat":43.313571,"lon":5.384829,"is_reserved":false,"is_disabled":false,"rental_uris":{"android":"levelo://app?vid=2bd5f1f5-de29-42a2-a365-4fa8e0940aa7","ios":"levelo://app?vid=2bd5f1f5-de29-42a2-a365-4fa8e0940aa7"},"vehicle_type_id":"4","last_reported":1717531685,"current_range_meters":23600,"station_id":"ce4bgt92rcd13ifvqcf0","pricing_plan_id":"cebpf4jnsgd1na2vs0mg"},{"bike_id":"9007bebd-4ae0-47bd-83bf-22b0e40f5edc","system_id":"levelo_inurba_marseille","lat":43.29983,"lon":5.37176,"is_reserved":false,"is_disabled":false,"rental_uris":{"android":"levelo://app?vid=9007bebd-4ae0-47bd-83bf-22b0e40f5edc","ios":"levelo://app?vid=9007bebd-4ae0-47bd-83bf-22b0e40f5edc"},"vehicle_type_id":"4","last_reported":1717531685,"current_range_meters":13600,"station_id":"ce4bgr92rcd13ifvqc7g","pricing_plan_id":"cebpf4jnsgd1na2vs0mg"},{"bike_id":"0260b559-2f6a-4e2f-9ff5-8d947e185593","system_id":"levelo_inurba_marseille","lat":43.299724,"lon":5.371829,"is_reserved":false,"is_disabled":false,"rental_uris":{"android":"levelo://app?vid=0260b559-2f6a-4e2f-9ff5-8d947e185593","ios":"levelo://app?vid=0260b559-2f6a-4e2f-9ff5-8d947e185593"},"vehicle_type_id":"4","last_reported":1717531685,"current_range_meters":16800,"station_id":"ce4bgr92rcd13ifvqc7g","pricing_plan_id":"cebpf4jnsgd1na2vs0mg"},{"bike_id":"e8a9db7c-df78-4785-ae15-931ab82435b2","system_id":"levelo_inurba_marseille","lat":43.299222,"lon":5.365554,"is_reserved":false,"is_disabled":false,"rental_uris":{"android":"levelo://app?vid=e8a9db7c-df78-4785-ae15-931ab82435b2","ios":"levelo://app?vid=e8a9db7c-df78-4785-ae15-931ab82435b2"},"vehicle_type_id":"4","last_reported":1717531685,"current_range_meters":26800,"station_id":"ce4bgm92rcd13ifvqbr0","pricing_plan_id":"cebpf4jnsgd1na2vs0mg"},{"bike_id":"d2778c7a-43af-417e-ab1b-807012f1694c","system_id":"levelo_inurba_marseille","lat":43.299209,"lon":5.365547,"is_reserved":false,"is_disabled":false,"rental_uris":{"android":"levelo://app?vid=d2778c7a-43af-417e-ab1b-807012f1694c","ios":"levelo://app?vid=d2778c7a-43af-417e-ab1b-807012f1694c"},"vehicle_type_id":"4","last_reported":1717531685,"current_range_meters":25600,"station_id":"ce4bgm92rcd13ifvqbr0","pricing_plan_id":"cebpf4jnsgd1na2vs0mg"},{"bike_id":"9cb938bb-f197-419f-a133-6d56c1676c38","system_id":"levelo_inurba_marseille","lat":43.29601,"lon":5.381084,"is_reserved":false,"is_disabled":false,"rental_uris":{"android":"levelo://app?vid=9cb938bb-f197-419f-a133-6d56c1676c38","ios":"levelo://app?vid=9cb938bb-f197-419f-a133-6d56c1676c38"},"vehicle_type_id":"4","last_reported":1717531685,"current_range_meters":0,"station_id":"ce4bgl12rcd13ifvqbo0","pricing_plan_id":"cebpf4jnsgd1na2vs0mg"},{"bike_id":"3d818e60-f403-402d-93bc-b8beaebc577e","system_id":"levelo_inurba_marseille","lat":43.298433,"lon":5.362774,"is_reserved":false,"is_disabled":false,"rental_uris":{"android":"levelo://app?vid=3d818e60-f403-402d-93bc-b8beaebc577e","ios":"levelo://app?vid=3d818e60-f403-402d-93bc-b8beaebc577e"},"vehicle_type_id":"4","last_reported":1717531685,"current_range_meters":12000,"station_id":"ce4bgpp2rcd13ifvqc3g","pricing_plan_id":"cebpf4jnsgd1na2vs0mg"},{"bike_id":"d407546c-42e9-44aa-8ae4-271d846d08ff","system_id":"levelo_inurba_marseille","lat":43.29924,"lon":5.37462,"is_reserved":false,"is_disabled":false,"rental_uris":{"android":"levelo://app?vid=d407546c-42e9-44aa-8ae4-271d846d08ff","ios":"levelo://app?vid=d407546c-42e9-44aa-8ae4-271d846d08ff"},"vehicle_type_id":"4","last_reported":1717531685,"current_range_meters":29600,"station_id":"ce4bgjh2rcd13ifvqbg0","pricing_plan_id":"cebpf4jnsgd1na2vs0mg"},{"bike_id":"7c0279c4-785e-41cc-9875-11b1aa5697b0","system_id":"levelo_inurba_marseille","lat":43.29844,"lon":5.36269,"is_reserved":false,"is_disabled":false,"rental_uris":{"android":"levelo://app?vid=7c0279c4-785e-41cc-9875-11b1aa5697b0","ios":"levelo://app?vid=7c0279c4-785e-41cc-9875-11b1aa5697b0"},"vehicle_type_id":"4","last_reported":1717531685,"current_range_meters":28400,"station_id":"ce4bgpp2rcd13ifvqc3g","pricing_plan_id":"cebpf4jnsgd1na2vs0mg"},{"bike_id":"ccde4fcd-71a5-4195-9457-04c2dad8f60d","system_id":"levelo_inurba_marseille","lat":43.299243,"lon":5.37481,"is_reserved":false,"is_disabled":false,"rental_uris":{"android":"levelo://app?vid=ccde4fcd-71a5-4195-9457-04c2dad8f60d","ios":"levelo://app?vid=ccde4fcd-71a5-4195-9457-04c2dad8f60d"},"vehicle_type_id":"4","last_reported":1717531685,"current_range_meters":25200,"station_id":"ce4bgjh2rcd13ifvqbg0","pricing_plan_id":"cebpf4jnsgd1na2vs0mg"},{"bike_id":"3384df45-1702-4a59-b428-f67b9181bd3d","system_id":"levelo_inurba_marseille","lat":43.299243,"lon":5.37481,"is_reserved":false,"is_disabled":false,"rental_uris":{"android":"levelo://app?vid=3384df45-1702-4a59-b428-f67b9181bd3d","ios":"levelo://app?vid=3384df45-1702-4a59-b428-f67b9181bd3d"},"vehicle_type_id":"4","last_reported":1717531685,"current_range_meters":3600,"station_id":"ce4bgjh2rcd13ifvqbg0","pricing_plan_id":"cebpf4jnsgd1na2vs0mg"},{"bike_id":"d48118f4-cde3-4e0c-9ed6-531cc32d1454","system_id":"levelo_inurba_marseille","lat":43.31178,"lon":5.38714,"is_reserved":false,"is_disabled":false,"rental_uris":{"android":"levelo://app?vid=d48118f4-cde3-4e0c-9ed6-531cc32d1454","ios":"levelo://app?vid=d48118f4-cde3-4e0c-9ed6-531cc32d1454"},"vehicle_type_id":"4","last_reported":1717531685,"current_range_meters":22000,"station_id":"ce4bgv12rcd13ifvqcp0","pricing_plan_id":"cebpf4jnsgd1na2vs0mg"},{"bike_id":"f7551218-9d4d-41e9-8eaf-d1071608f100","system_id":"levelo_inurba_marseille","lat":43.3119,"lon":5.38716,"is_reserved":false,"is_disabled":false,"rental_uris":{"android":"levelo://app?vid=f7551218-9d4d-41e9-8eaf-d1071608f100","ios":"levelo://app?vid=f7551218-9d4d-41e9-8eaf-d1071608f100"},"vehicle_type_id":"4","last_reported":1717531685,"current_range_meters":8400,"station_id":"ce4bgv12rcd13ifvqcp0","pricing_plan_id":"cebpf4jnsgd1na2vs0mg"},{"bike_id":"05e23942-0443-4f1a-bdbb-dce1ab84dec4","system_id":"levelo_inurba_marseille","lat":43.31171,"lon":5.38715,"is_reserved":false,"is_disabled":false,"rental_uris":{"android":"levelo://app?vid=05e23942-0443-4f1a-bdbb-dce1ab84dec4","ios":"levelo://app?vid=05e23942-0443-4f1a-bdbb-dce1ab84dec4"},"vehicle_type_id":"4","last_reported":1717531685,"current_range_meters":17200,"station_id":"ce4bgv12rcd13ifvqcp0","pricing_plan_id":"cebpf4jnsgd1na2vs0mg"},{"bike_id":"a024f8e3-2392-4e71-a7f7-0493542b2626","system_id":"levelo_inurba_marseille","lat":43.311722,"lon":5.387247,"is_reserved":false,"is_disabled":false,"rental_uris":{"android":"levelo://app?vid=a024f8e3-2392-4e71-a7f7-0493542b2626","ios":"levelo://app?vid=a024f8e3-2392-4e71-a7f7-0493542b2626"},"vehicle_type_id":"4","last_reported":1717531685,"current_range_meters":0,"station_id":"ce4bgv12rcd13ifvqcp0","pricing_plan_id":"cebpf4jnsgd1na2vs0mg"},{"bike_id":"8630313e-8b54-44b2-adf3-2ea7c14eceb7","system_id":"levelo_inurba_marseille","lat":43.297794,"lon":5.370888,"is_reserved":false,"is_disabled":false,"rental_uris":{"android":"levelo://app?vid=8630313e-8b54-44b2-adf3-2ea7c14eceb7","ios":"levelo://app?vid=8630313e-8b54-44b2-adf3-2ea7c14eceb7"},"vehicle_type_id":"4","last_reported":1717531685,"current_range_meters":18400,"station_id":"ce4bgop2rcd13ifvqc1g","pricing_plan_id":"cebpf4jnsgd1na2vs0mg"},{"bike_id":"f74b3f76-fa14-4f07-a0e3-9984224f2849","system_id":"levelo_inurba_marseille","lat":43.297794,"lon":5.370888,"is_reserved":false,"is_disabled":false,"rental_uris":{"android":"levelo://app?vid=f74b3f76-fa14-4f07-a0e3-9984224f2849","ios":"levelo://app?vid=f74b3f76-fa14-4f07-a0e3-9984224f2849"},"vehicle_type_id":"4","last_reported":1717531685,"current_range_meters":15200,"station_id":"ce4bgop2rcd13ifvqc1g","pricing_plan_id":"cebpf4jnsgd1na2vs0mg"},{"bike_id":"6d6a6d40-7fba-47d7-abfa-fa9bdad0a766","system_id":"levelo_inurba_marseille","lat":43.322872,"lon":5.382756,"is_reserved":false,"is_disabled":false,"rental_uris":{"android":"levelo://app?vid=6d6a6d40-7fba-47d7-abfa-fa9bdad0a766","ios":"levelo://app?vid=6d6a6d40-7fba-47d7-abfa-fa9bdad0a766"},"vehicle_type_id":"4","last_reported":1717531685,"current_range_meters":22800,"station_id":"ce4bhr12rcd13ifvqhqg","pricing_plan_id":"cebpf4jnsgd1na2vs0mg"},{"bike_id":"0bfa5ed5-be5b-40b2-bd6f-595057ec6469","system_id":"levelo_inurba_marseille","lat":43.322872,"lon":5.382756,"is_reserved":false,"is_disabled":false,"rental_uris":{"android":"levelo://app?vid=0bfa5ed5-be5b-40b2-bd6f-595057ec6469","ios":"levelo://app?vid=0bfa5ed5-be5b-40b2-bd6f-595057ec6469"},"vehicle_type_id":"4","last_reported":1717531685,"current_range_meters":18000,"station_id":"ce4bhr12rcd13ifvqhqg","pricing_plan_id":"cebpf4jnsgd1na2vs0mg"},{"bike_id":"faed9c48-21bc-430b-93c2-8d1cf2b37158","system_id":"levelo_inurba_marseille","lat":43.322872,"lon":5.382756,"is_reserved":false,"is_disabled":false,"rental_uris":{"android":"levelo://app?vid=faed9c48-21bc-430b-93c2-8d1cf2b37158","ios":"levelo://app?vid=faed9c48-21bc-430b-93c2-8d1cf2b37158"},"vehicle_type_id":"4","last_reported":1717531685,"current_range_meters":18400,"station_id":"ce4bhr12rcd13ifvqhqg","pricing_plan_id":"cebpf4jnsgd1na2vs0mg"},{"bike_id":"06e2d2f3-481f-405f-892b-a600e28871b6","system_id":"levelo_inurba_marseille","lat":43.322872,"lon":5.382756,"is_reserved":false,"is_disabled":false,"rental_uris":{"android":"levelo://app?vid=06e2d2f3-481f-405f-892b-a600e28871b6","ios":"levelo://app?vid=06e2d2f3-481f-405f-892b-a600e28871b6"},"vehicle_type_id":"4","last_reported":1717531685,"current_range_meters":16800,"station_id":"ce4bhr12rcd13ifvqhqg","pricing_plan_id":"cebpf4jnsgd1na2vs0mg"},{"bike_id":"91aab1a5-382e-444a-a665-09105825a949","system_id":"levelo_inurba_marseille","lat":43.297163,"lon":5.365866,"is_reserved":false,"is_disabled":false,"rental_uris":{"android":"levelo://app?vid=91aab1a5-382e-444a-a665-09105825a949","ios":"levelo://app?vid=91aab1a5-382e-444a-a665-09105825a949"},"vehicle_type_id":"4","last_reported":1717531685,"current_range_meters":23600,"station_id":"ce4bgn12rcd13ifvqbt0","pricing_plan_id":"cebpf4jnsgd1na2vs0mg"},{"bike_id":"cc213d0b-536a-4e17-925a-e9f44bff166e","system_id":"levelo_inurba_marseille","lat":43.297163,"lon":5.365866,"is_reserved":false,"is_disabled":false,"rental_uris":{"android":"levelo://app?vid=cc213d0b-536a-4e17-925a-e9f44bff166e","ios":"levelo://app?vid=cc213d0b-536a-4e17-925a-e9f44bff166e"},"vehicle_type_id":"4","last_reported":1717531685,"current_range_meters":26000,"station_id":"ce4bgn12rcd13ifvqbt0","pricing_plan_id":"cebpf4jnsgd1na2vs0mg"},{"bike_id":"d75cbe1c-1a87-4a53-913c-896b980cb298","system_id":"levelo_inurba_marseille","lat":43.297163,"lon":5.365866,"is_reserved":false,"is_disabled":false,"rental_uris":{"android":"levelo://app?vid=d75cbe1c-1a87-4a53-913c-896b980cb298","ios":"levelo://app?vid=d75cbe1c-1a87-4a53-913c-896b980cb298"},"vehicle_type_id":"4","last_reported":1717531685,"current_range_meters":30000,"station_id":"ce4bgn12rcd13ifvqbt0","pricing_plan_id":"cebpf4jnsgd1na2vs0mg"},{"bike_id":"bb9e0ed9-cb77-4a65-90fd-521de5b82c0a","system_id":"levelo_inurba_marseille","lat":43.29708,"lon":5.36609,"is_reserved":false,"is_disabled":false,"rental_uris":{"android":"levelo://app?vid=bb9e0ed9-cb77-4a65-90fd-521de5b82c0a","ios":"levelo://app?vid=bb9e0ed9-cb77-4a65-90fd-521de5b82c0a"},"vehicle_type_id":"4","last_reported":1717531685,"current_range_meters":14800,"station_id":"ce4bgn12rcd13ifvqbt0","pricing_plan_id":"cebpf4jnsgd1na2vs0mg"},{"bike_id":"e774199f-563d-4d4c-b62b-18576c3e2baf","system_id":"levelo_inurba_marseille","lat":43.297163,"lon":5.365866,"is_reserved":false,"is_disabled":false,"rental_uris":{"android":"levelo://app?vid=e774199f-563d-4d4c-b62b-18576c3e2baf","ios":"levelo://app?vid=e774199f-563d-4d4c-b62b-18576c3e2baf"},"vehicle_type_id":"4","last_reported":1717531685,"current_range_meters":3600,"station_id":"ce4bgn12rcd13ifvqbt0","pricing_plan_id":"cebpf4jnsgd1na2vs0mg"},{"bike_id":"7f4c8daa-9e29-4b61-8bca-c170a83309d7","system_id":"levelo_inurba_marseille","lat":43.29698,"lon":5.3661,"is_reserved":false,"is_disabled":false,"rental_uris":{"android":"levelo://app?vid=7f4c8daa-9e29-4b61-8bca-c170a83309d7","ios":"levelo://app?vid=7f4c8daa-9e29-4b61-8bca-c170a83309d7"},"vehicle_type_id":"4","last_reported":1717531685,"current_range_meters":16000,"station_id":"ce4bgn12rcd13ifvqbt0","pricing_plan_id":"cebpf4jnsgd1na2vs0mg"},{"bike_id":"e9751219-b553-4fc3-b721-33c6ed5e6012","system_id":"levelo_inurba_marseille","lat":43.29573,"lon":5.367355,"is_reserved":false,"is_disabled":false,"rental_uris":{"android":"levelo://app?vid=e9751219-b553-4fc3-b721-33c6ed5e6012","ios":"levelo://app?vid=e9751219-b553-4fc3-b721-33c6ed5e6012"},"vehicle_type_id":"4","last_reported":1717531685,"current_range_meters":23200,"station_id":"ce4bgph2rcd13ifvqc2g","pricing_plan_id":"cebpf4jnsgd1na2vs0mg"},{"bike_id":"53b10097-88a8-4daa-a977-d5f8518610cc","system_id":"levelo_inurba_marseille","lat":43.29573,"lon":5.367355,"is_reserved":false,"is_disabled":false,"rental_uris":{"android":"levelo://app?vid=53b10097-88a8-4daa-a977-d5f8518610cc","ios":"levelo://app?vid=53b10097-88a8-4daa-a977-d5f8518610cc"},"vehicle_type_id":"4","last_reported":1717531685,"current_range_meters":13600,"station_id":"ce4bgph2rcd13ifvqc2g","pricing_plan_id":"cebpf4jnsgd1na2vs0mg"},{"bike_id":"817d26cf-5200-465d-bf63-d2b553cac992","system_id":"levelo_inurba_marseille","lat":43.29573,"lon":5.367355,"is_reserved":false,"is_disabled":false,"rental_uris":{"android":"levelo://app?vid=817d26cf-5200-465d-bf63-d2b553cac992","ios":"levelo://app?vid=817d26cf-5200-465d-bf63-d2b553cac992"},"vehicle_type_id":"4","last_reported":1717531685,"current_range_meters":32000,"station_id":"ce4bgph2rcd13ifvqc2g","pricing_plan_id":"cebpf4jnsgd1na2vs0mg"},{"bike_id":"8d77cf27-2421-46c2-85d1-3a8d55003b17","system_id":"levelo_inurba_marseille","lat":43.29912,"lon":5.38139,"is_reserved":false,"is_disabled":false,"rental_uris":{"android":"levelo://app?vid=8d77cf27-2421-46c2-85d1-3a8d55003b17","ios":"levelo://app?vid=8d77cf27-2421-46c2-85d1-3a8d55003b17"},"vehicle_type_id":"4","last_reported":1717531685,"current_range_meters":21600,"station_id":"ce4bgj12rcd13ifvqbc0","pricing_plan_id":"cebpf4jnsgd1na2vs0mg"},{"bike_id":"a5a69a63-0ea0-4401-a7ff-aada6ba307d5","system_id":"levelo_inurba_marseille","lat":43.299,"lon":5.38135,"is_reserved":false,"is_disabled":false,"rental_uris":{"android":"levelo://app?vid=a5a69a63-0ea0-4401-a7ff-aada6ba307d5","ios":"levelo://app?vid=a5a69a63-0ea0-4401-a7ff-aada6ba307d5"},"vehicle_type_id":"4","last_reported":1717531685,"current_range_meters":0,"station_id":"ce4bgj12rcd13ifvqbc0","pricing_plan_id":"cebpf4jnsgd1na2vs0mg"},{"bike_id":"4f87365e-8e43-4d54-a988-cdefc62c1098","system_id":"levelo_inurba_marseille","lat":43.296921,"lon":5.376579,"is_reserved":false,"is_disabled":false,"rental_uris":{"android":"levelo://app?vid=4f87365e-8e43-4d54-a988-cdefc62c1098","ios":"levelo://app?vid=4f87365e-8e43-4d54-a988-cdefc62c1098"},"vehicle_type_id":"4","last_reported":1717531685,"current_range_meters":0,"station_id":"ce4bgkh2rcd13ifvqbl0","pricing_plan_id":"cebpf4jnsgd1na2vs0mg"},{"bike_id":"c0631372-3083-4011-88d3-229f796317b5","system_id":"levelo_inurba_marseille","lat":43.296921,"lon":5.376579,"is_reserved":false,"is_disabled":false,"rental_uris":{"android":"levelo://app?vid=c0631372-3083-4011-88d3-229f796317b5","ios":"levelo://app?vid=c0631372-3083-4011-88d3-229f796317b5"},"vehicle_type_id":"4","last_reported":1717531685,"current_range_meters":17200,"station_id":"ce4bgkh2rcd13ifvqbl0","pricing_plan_id":"cebpf4jnsgd1na2vs0mg"},{"bike_id":"88139b08-e350-4f57-9779-6fef111c4251","system_id":"levelo_inurba_marseille","lat":43.309589,"lon":5.390258,"is_reserved":false,"is_disabled":false,"rental_uris":{"android":"levelo://app?vid=88139b08-e350-4f57-9779-6fef111c4251","ios":"levelo://app?vid=88139b08-e350-4f57-9779-6fef111c4251"},"vehicle_type_id":"4","last_reported":1717531685,"current_range_meters":4800,"station_id":"ce4bgup2rcd13ifvqco0","pricing_plan_id":"cebpf4jnsgd1na2vs0mg"},{"bike_id":"751e008c-30bc-410b-8cea-899efefd5022","system_id":"levelo_inurba_marseille","lat":43.3096,"lon":5.3904,"is_reserved":false,"is_disabled":false,"rental_uris":{"android":"levelo://app?vid=751e008c-30bc-410b-8cea-899efefd5022","ios":"levelo://app?vid=751e008c-30bc-410b-8cea-899efefd5022"},"vehicle_type_id":"4","last_reported":1717531685,"current_range_meters":30400,"station_id":"ce4bgup2rcd13ifvqco0","pricing_plan_id":"cebpf4jnsgd1na2vs0mg"},{"bike_id":"03ce992b-e2ec-49c5-86c1-d1891ec95e5f","system_id":"levelo_inurba_marseille","lat":43.296935,"lon":5.376544,"is_reserved":false,"is_disabled":false,"rental_uris":{"android":"levelo://app?vid=03ce992b-e2ec-49c5-86c1-d1891ec95e5f","ios":"levelo://app?vid=03ce992b-e2ec-49c5-86c1-d1891ec95e5f"},"vehicle_type_id":"4","last_reported":1717531685,"current_range_meters":17600,"station_id":"ce4bgkh2rcd13ifvqbl0","pricing_plan_id":"cebpf4jnsgd1na2vs0mg"},{"bike_id":"9772c578-6310-4e7a-b79a-fb4e00df543a","system_id":"levelo_inurba_marseille","lat":43.317557,"lon":5.390173,"is_reserved":false,"is_disabled":false,"rental_uris":{"android":"levelo://app?vid=9772c578-6310-4e7a-b79a-fb4e00df543a","ios":"levelo://app?vid=9772c578-6310-4e7a-b79a-fb4e00df543a"},"vehicle_type_id":"4","last_reported":1717531685,"current_range_meters":12400,"station_id":"ce4bhqp2rcd13ifvqhng","pricing_plan_id":"cebpf4jnsgd1na2vs0mg"},{"bike_id":"03afd5c5-18a3-4e9a-aaa0-c083d39604af","system_id":"levelo_inurba_marseille","lat":43.317557,"lon":5.390173,"is_reserved":false,"is_disabled":false,"rental_uris":{"android":"levelo://app?vid=03afd5c5-18a3-4e9a-aaa0-c083d39604af","ios":"levelo://app?vid=03afd5c5-18a3-4e9a-aaa0-c083d39604af"},"vehicle_type_id":"4","last_reported":1717531685,"current_range_meters":21200,"station_id":"ce4bhqp2rcd13ifvqhng","pricing_plan_id":"cebpf4jnsgd1na2vs0mg"},{"bike_id":"89bc5857-de93-4412-9038-68ec88b860c1","system_id":"levelo_inurba_marseille","lat":43.304274,"lon":5.388873,"is_reserved":false,"is_disabled":false,"rental_uris":{"android":"levelo://app?vid=89bc5857-de93-4412-9038-68ec88b860c1","ios":"levelo://app?vid=89bc5857-de93-4412-9038-68ec88b860c1"},"vehicle_type_id":"4","last_reported":1717531685,"current_range_meters":18800,"station_id":"ce4bgk12rcd13ifvqbi0","pricing_plan_id":"cebpf4jnsgd1na2vs0mg"},{"bike_id":"20018a4d-5576-470a-9fb4-730e180e6ba1","system_id":"levelo_inurba_marseille","lat":43.317557,"lon":5.390173,"is_reserved":false,"is_disabled":false,"rental_uris":{"android":"levelo://app?vid=20018a4d-5576-470a-9fb4-730e180e6ba1","ios":"levelo://app?vid=20018a4d-5576-470a-9fb4-730e180e6ba1"},"vehicle_type_id":"4","last_reported":1717531685,"current_range_meters":24000,"station_id":"ce4bhqp2rcd13ifvqhng","pricing_plan_id":"cebpf4jnsgd1na2vs0mg"},{"bike_id":"f8f51f43-829a-4025-b930-bc684756852b","system_id":"levelo_inurba_marseille","lat":43.317557,"lon":5.390173,"is_reserved":false,"is_disabled":false,"rental_uris":{"android":"levelo://app?vid=f8f51f43-829a-4025-b930-bc684756852b","ios":"levelo://app?vid=f8f51f43-829a-4025-b930-bc684756852b"},"vehicle_type_id":"4","last_reported":1717531685,"current_range_meters":19600,"station_id":"ce4bhqp2rcd13ifvqhng","pricing_plan_id":"cebpf4jnsgd1na2vs0mg"},{"bike_id":"17b81a6e-98c8-4371-bd5f-bc347649dc95","system_id":"levelo_inurba_marseille","lat":43.29585,"lon":5.37511,"is_reserved":false,"is_disabled":false,"rental_uris":{"android":"levelo://app?vid=17b81a6e-98c8-4371-bd5f-bc347649dc95","ios":"levelo://app?vid=17b81a6e-98c8-4371-bd5f-bc347649dc95"},"vehicle_type_id":"4","last_reported":1717531685,"current_range_meters":21600,"station_id":"ce4bgh92rcd13ifvqb50","pricing_plan_id":"cebpf4jnsgd1na2vs0mg"},{"bike_id":"cc00027b-1a4d-4346-a593-5ab7377c6755","system_id":"levelo_inurba_marseille","lat":43.304274,"lon":5.388873,"is_reserved":false,"is_disabled":false,"rental_uris":{"android":"levelo://app?vid=cc00027b-1a4d-4346-a593-5ab7377c6755","ios":"levelo://app?vid=cc00027b-1a4d-4346-a593-5ab7377c6755"},"vehicle_type_id":"4","last_reported":1717531685,"current_range_meters":8400,"station_id":"ce4bgk12rcd13ifvqbi0","pricing_plan_id":"cebpf4jnsgd1na2vs0mg"},{"bike_id":"528c8012-e7b0-4fb5-a072-9bd1a13a712c","system_id":"levelo_inurba_marseille","lat":43.29789,"lon":5.38102,"is_reserved":false,"is_disabled":false,"rental_uris":{"android":"levelo://app?vid=528c8012-e7b0-4fb5-a072-9bd1a13a712c","ios":"levelo://app?vid=528c8012-e7b0-4fb5-a072-9bd1a13a712c"},"vehicle_type_id":"4","last_reported":1717531685,"current_range_meters":0,"station_id":"ce4bgip2rcd13ifvqbb0","pricing_plan_id":"cebpf4jnsgd1na2vs0mg"},{"bike_id":"f87340dd-32a2-4a2f-ba32-96c5b3b0e504","system_id":"levelo_inurba_marseille","lat":43.296263,"lon":5.377094,"is_reserved":false,"is_disabled":false,"rental_uris":{"android":"levelo://app?vid=f87340dd-32a2-4a2f-ba32-96c5b3b0e504","ios":"levelo://app?vid=f87340dd-32a2-4a2f-ba32-96c5b3b0e504"},"vehicle_type_id":"4","last_reported":1717531685,"current_range_meters":1200,"station_id":"ce4bgi92rcd13ifvqb90","pricing_plan_id":"cebpf4jnsgd1na2vs0mg"},{"bike_id":"7f7cfce0-889d-4e8f-adc1-a74dcec7d649","system_id":"levelo_inurba_marseille","lat":43.296277,"lon":5.377108,"is_reserved":false,"is_disabled":false,"rental_uris":{"android":"levelo://app?vid=7f7cfce0-889d-4e8f-adc1-a74dcec7d649","ios":"levelo://app?vid=7f7cfce0-889d-4e8f-adc1-a74dcec7d649"},"vehicle_type_id":"4","last_reported":1717531685,"current_range_meters":20000,"station_id":"ce4bgi92rcd13ifvqb90","pricing_plan_id":"cebpf4jnsgd1na2vs0mg"},{"bike_id":"51954fa0-cab9-4055-bb07-40d97321ef9e","system_id":"levelo_inurba_marseille","lat":43.304278,"lon":5.388868,"is_reserved":false,"is_disabled":false,"rental_uris":{"android":"levelo://app?vid=51954fa0-cab9-4055-bb07-40d97321ef9e","ios":"levelo://app?vid=51954fa0-cab9-4055-bb07-40d97321ef9e"},"vehicle_type_id":"4","last_reported":1717531685,"current_range_meters":4800,"station_id":"ce4bgk12rcd13ifvqbi0","pricing_plan_id":"cebpf4jnsgd1na2vs0mg"},{"bike_id":"15cf6692-0bf3-4da9-8432-eae30047648a","system_id":"levelo_inurba_marseille","lat":43.299707,"lon":5.384859,"is_reserved":false,"is_disabled":false,"rental_uris":{"android":"levelo://app?vid=15cf6692-0bf3-4da9-8432-eae30047648a","ios":"levelo://app?vid=15cf6692-0bf3-4da9-8432-eae30047648a"},"vehicle_type_id":"4","last_reported":1717531685,"current_range_meters":20800,"station_id":"ce4bgj92rcd13ifvqbd0","pricing_plan_id":"cebpf4jnsgd1na2vs0mg"},{"bike_id":"053c0368-4b06-4f81-b6ca-547b52878b32","system_id":"levelo_inurba_marseille","lat":43.299724,"lon":5.384848,"is_reserved":false,"is_disabled":false,"rental_uris":{"android":"levelo://app?vid=053c0368-4b06-4f81-b6ca-547b52878b32","ios":"levelo://app?vid=053c0368-4b06-4f81-b6ca-547b52878b32"},"vehicle_type_id":"4","last_reported":1717531685,"current_range_meters":24000,"station_id":"ce4bgj92rcd13ifvqbd0","pricing_plan_id":"cebpf4jnsgd1na2vs0mg"},{"bike_id":"c1c77219-42fb-44b9-a534-f7d16db91eb1","system_id":"levelo_inurba_marseille","lat":43.299717,"lon":5.384845,"is_reserved":false,"is_disabled":false,"rental_uris":{"android":"levelo://app?vid=c1c77219-42fb-44b9-a534-f7d16db91eb1","ios":"levelo://app?vid=c1c77219-42fb-44b9-a534-f7d16db91eb1"},"vehicle_type_id":"4","last_reported":1717531685,"current_range_meters":27200,"station_id":"ce4bgj92rcd13ifvqbd0","pricing_plan_id":"cebpf4jnsgd1na2vs0mg"},{"bike_id":"6082dba6-f544-4eab-a829-84cbc22e6bcf","system_id":"levelo_inurba_marseille","lat":43.29701,"lon":5.381213,"is_reserved":false,"is_disabled":false,"rental_uris":{"android":"levelo://app?vid=6082dba6-f544-4eab-a829-84cbc22e6bcf","ios":"levelo://app?vid=6082dba6-f544-4eab-a829-84cbc22e6bcf"},"vehicle_type_id":"4","last_reported":1717531685,"current_range_meters":12400,"station_id":"","pricing_plan_id":"cebpf4jnsgd1na2vs0mg"},{"bike_id":"83ba5484-b65d-483d-b5c4-e052050462c5","system_id":"levelo_inurba_marseille","lat":43.32375,"lon":5.38869,"is_reserved":false,"is_disabled":false,"rental_uris":{"android":"levelo://app?vid=83ba5484-b65d-483d-b5c4-e052050462c5","ios":"levelo://app?vid=83ba5484-b65d-483d-b5c4-e052050462c5"},"vehicle_type_id":"4","last_reported":1717531685,"current_range_meters":13600,"station_id":"ce4bhqp2rcd13ifvqhog","pricing_plan_id":"cebpf4jnsgd1na2vs0mg"},{"bike_id":"b19d58dd-5fd2-413b-bc8b-fa505bbff639","system_id":"levelo_inurba_marseille","lat":43.32367,"lon":5.388836,"is_reserved":false,"is_disabled":false,"rental_uris":{"android":"levelo://app?vid=b19d58dd-5fd2-413b-bc8b-fa505bbff639","ios":"levelo://app?vid=b19d58dd-5fd2-413b-bc8b-fa505bbff639"},"vehicle_type_id":"4","last_reported":1717531685,"current_range_meters":0,"station_id":"ce4bhqp2rcd13ifvqhog","pricing_plan_id":"cebpf4jnsgd1na2vs0mg"},{"bike_id":"befc21f9-71b4-425c-b76f-0d3590918e1e","system_id":"levelo_inurba_marseille","lat":43.32366,"lon":5.38883,"is_reserved":false,"is_disabled":false,"rental_uris":{"android":"levelo://app?vid=befc21f9-71b4-425c-b76f-0d3590918e1e","ios":"levelo://app?vid=befc21f9-71b4-425c-b76f-0d3590918e1e"},"vehicle_type_id":"4","last_reported":1717531685,"current_range_meters":0,"station_id":"ce4bhqp2rcd13ifvqhog","pricing_plan_id":"cebpf4jnsgd1na2vs0mg"},{"bike_id":"fd5939b3-90a1-479f-bb78-1fae8fd04eee","system_id":"levelo_inurba_marseille","lat":43.307163,"lon":5.392413,"is_reserved":false,"is_disabled":false,"rental_uris":{"android":"levelo://app?vid=fd5939b3-90a1-479f-bb78-1fae8fd04eee","ios":"levelo://app?vid=fd5939b3-90a1-479f-bb78-1fae8fd04eee"},"vehicle_type_id":"4","last_reported":1717531685,"current_range_meters":13600,"station_id":"","pricing_plan_id":"cebpf4jnsgd1na2vs0mg"},{"bike_id":"9f8368f4-920d-419c-9b88-6032ff7bb75f","system_id":"levelo_inurba_marseille","lat":43.296027,"lon":5.38097,"is_reserved":false,"is_disabled":false,"rental_uris":{"android":"levelo://app?vid=9f8368f4-920d-419c-9b88-6032ff7bb75f","ios":"levelo://app?vid=9f8368f4-920d-419c-9b88-6032ff7bb75f"},"vehicle_type_id":"4","last_reported":1717531685,"current_range_meters":0,"station_id":"ce4bgl12rcd13ifvqbo0","pricing_plan_id":"cebpf4jnsgd1na2vs0mg"},{"bike_id":"20e92398-7eef-47f8-91e9-6d2fab2930af","system_id":"levelo_inurba_marseille","lat":43.29601,"lon":5.381084,"is_reserved":false,"is_disabled":false,"rental_uris":{"android":"levelo://app?vid=20e92398-7eef-47f8-91e9-6d2fab2930af","ios":"levelo://app?vid=20e92398-7eef-47f8-91e9-6d2fab2930af"},"vehicle_type_id":"4","last_reported":1717531685,"current_range_meters":4800,"station_id":"ce4bgl12rcd13ifvqbo0","pricing_plan_id":"cebpf4jnsgd1na2vs0mg"},{"bike_id":"ab3bc778-346a-49f6-bcc8-03ab5a00f00b","system_id":"levelo_inurba_marseille","lat":43.292749,"lon":5.368402,"is_reserved":false,"is_disabled":false,"rental_uris":{"android":"levelo://app?vid=ab3bc778-346a-49f6-bcc8-03ab5a00f00b","ios":"levelo://app?vid=ab3bc778-346a-49f6-bcc8-03ab5a00f00b"},"vehicle_type_id":"4","last_reported":1717531685,"current_range_meters":26800,"station_id":"ce4bhbp2rcd13ifvqesg","pricing_plan_id":"cebpf4jnsgd1na2vs0mg"},{"bike_id":"10ce9f80-1421-4111-857d-7dc173e5099e","system_id":"levelo_inurba_marseille","lat":43.292749,"lon":5.368402,"is_reserved":false,"is_disabled":false,"rental_uris":{"android":"levelo://app?vid=10ce9f80-1421-4111-857d-7dc173e5099e","ios":"levelo://app?vid=10ce9f80-1421-4111-857d-7dc173e5099e"},"vehicle_type_id":"4","last_reported":1717531685,"current_range_meters":20800,"station_id":"ce4bhbp2rcd13ifvqesg","pricing_plan_id":"cebpf4jnsgd1na2vs0mg"},{"bike_id":"7747e851-d107-4e50-bfc6-528da24a13ea","system_id":"levelo_inurba_marseille","lat":43.305994,"lon":5.393687,"is_reserved":false,"is_disabled":false,"rental_uris":{"android":"levelo://app?vid=7747e851-d107-4e50-bfc6-528da24a13ea","ios":"levelo://app?vid=7747e851-d107-4e50-bfc6-528da24a13ea"},"vehicle_type_id":"4","last_reported":1717531685,"current_range_meters":10800,"station_id":"ce4bh0p2rcd13ifvqd80","pricing_plan_id":"cebpf4jnsgd1na2vs0mg"},{"bike_id":"c1cccc09-44cc-4f3e-b00e-05758b594e08","system_id":"levelo_inurba_marseille","lat":43.305994,"lon":5.393687,"is_reserved":false,"is_disabled":false,"rental_uris":{"android":"levelo://app?vid=c1cccc09-44cc-4f3e-b00e-05758b594e08","ios":"levelo://app?vid=c1cccc09-44cc-4f3e-b00e-05758b594e08"},"vehicle_type_id":"4","last_reported":1717531685,"current_range_meters":8400,"station_id":"ce4bh0p2rcd13ifvqd80","pricing_plan_id":"cebpf4jnsgd1na2vs0mg"},{"bike_id":"331a420b-c85d-4fb9-afdf-d837281ee245","system_id":"levelo_inurba_marseille","lat":43.305994,"lon":5.393687,"is_reserved":false,"is_disabled":false,"rental_uris":{"android":"levelo://app?vid=331a420b-c85d-4fb9-afdf-d837281ee245","ios":"levelo://app?vid=331a420b-c85d-4fb9-afdf-d837281ee245"},"vehicle_type_id":"4","last_reported":1717531685,"current_range_meters":29200,"station_id":"ce4bh0p2rcd13ifvqd80","pricing_plan_id":"cebpf4jnsgd1na2vs0mg"},{"bike_id":"5525b287-ada4-4b3c-a9aa-e237e792db6c","system_id":"levelo_inurba_marseille","lat":43.305994,"lon":5.393687,"is_reserved":false,"is_disabled":false,"rental_uris":{"android":"levelo://app?vid=5525b287-ada4-4b3c-a9aa-e237e792db6c","ios":"levelo://app?vid=5525b287-ada4-4b3c-a9aa-e237e792db6c"},"vehicle_type_id":"4","last_reported":1717531685,"current_range_meters":20400,"station_id":"ce4bh0p2rcd13ifvqd80","pricing_plan_id":"cebpf4jnsgd1na2vs0mg"},{"bike_id":"6802b808-b5d4-49a9-a4d1-40f49a5be16c","system_id":"levelo_inurba_marseille","lat":43.293009,"lon":5.374584,"is_reserved":false,"is_disabled":false,"rental_uris":{"android":"levelo://app?vid=6802b808-b5d4-49a9-a4d1-40f49a5be16c","ios":"levelo://app?vid=6802b808-b5d4-49a9-a4d1-40f49a5be16c"},"vehicle_type_id":"4","last_reported":1717531685,"current_range_meters":26400,"station_id":"ce4bgi12rcd13ifvqb70","pricing_plan_id":"cebpf4jnsgd1na2vs0mg"},{"bike_id":"a925794a-5b74-45f9-8fab-03e677f6057f","system_id":"levelo_inurba_marseille","lat":43.293009,"lon":5.374584,"is_reserved":false,"is_disabled":false,"rental_uris":{"android":"levelo://app?vid=a925794a-5b74-45f9-8fab-03e677f6057f","ios":"levelo://app?vid=a925794a-5b74-45f9-8fab-03e677f6057f"},"vehicle_type_id":"4","last_reported":1717531685,"current_range_meters":29600,"station_id":"ce4bgi12rcd13ifvqb70","pricing_plan_id":"cebpf4jnsgd1na2vs0mg"},{"bike_id":"88c304dd-fd7f-4f4e-accf-da5c11d6be7e","system_id":"levelo_inurba_marseille","lat":43.302992,"lon":5.392136,"is_reserved":false,"is_disabled":false,"rental_uris":{"android":"levelo://app?vid=88c304dd-fd7f-4f4e-accf-da5c11d6be7e","ios":"levelo://app?vid=88c304dd-fd7f-4f4e-accf-da5c11d6be7e"},"vehicle_type_id":"4","last_reported":1717531685,"current_range_meters":0,"station_id":"ce4bgkh2rcd13ifvqbk0","pricing_plan_id":"cebpf4jnsgd1na2vs0mg"},{"bike_id":"397cf1d6-957e-4221-a677-10c0aac321e0","system_id":"levelo_inurba_marseille","lat":43.2936,"lon":5.37835,"is_reserved":false,"is_disabled":false,"rental_uris":{"android":"levelo://app?vid=397cf1d6-957e-4221-a677-10c0aac321e0","ios":"levelo://app?vid=397cf1d6-957e-4221-a677-10c0aac321e0"},"vehicle_type_id":"4","last_reported":1717531685,"current_range_meters":2000,"station_id":"ce4bgjh2rcd13ifvqbf0","pricing_plan_id":"cebpf4jnsgd1na2vs0mg"},{"bike_id":"fd96fef2-3f3f-4aae-91e6-cb5e5c684ad4","system_id":"levelo_inurba_marseille","lat":43.30337,"lon":5.39252,"is_reserved":false,"is_disabled":false,"rental_uris":{"android":"levelo://app?vid=fd96fef2-3f3f-4aae-91e6-cb5e5c684ad4","ios":"levelo://app?vid=fd96fef2-3f3f-4aae-91e6-cb5e5c684ad4"},"vehicle_type_id":"4","last_reported":1717531685,"current_range_meters":4400,"station_id":"","pricing_plan_id":"cebpf4jnsgd1na2vs0mg"},{"bike_id":"bae68034-3187-4e22-a1c5-c0399aed1502","system_id":"levelo_inurba_marseille","lat":43.2936,"lon":5.37835,"is_reserved":false,"is_disabled":false,"rental_uris":{"android":"levelo://app?vid=bae68034-3187-4e22-a1c5-c0399aed1502","ios":"levelo://app?vid=bae68034-3187-4e22-a1c5-c0399aed1502"},"vehicle_type_id":"4","last_reported":1717531685,"current_range_meters":20800,"station_id":"ce4bgjh2rcd13ifvqbf0","pricing_plan_id":"cebpf4jnsgd1na2vs0mg"},{"bike_id":"75ca926d-98af-425e-987c-61386da6df38","system_id":"levelo_inurba_marseille","lat":43.30455,"lon":5.39333,"is_reserved":false,"is_disabled":false,"rental_uris":{"android":"levelo://app?vid=75ca926d-98af-425e-987c-61386da6df38","ios":"levelo://app?vid=75ca926d-98af-425e-987c-61386da6df38"},"vehicle_type_id":"4","last_reported":1717531685,"current_range_meters":18000,"station_id":"","pricing_plan_id":"cebpf4jnsgd1na2vs0mg"},{"bike_id":"11dba637-5e3a-4f43-b4a0-bd42a046d06c","system_id":"levelo_inurba_marseille","lat":43.300859,"lon":5.39075,"is_reserved":false,"is_disabled":false,"rental_uris":{"android":"levelo://app?vid=11dba637-5e3a-4f43-b4a0-bd42a046d06c","ios":"levelo://app?vid=11dba637-5e3a-4f43-b4a0-bd42a046d06c"},"vehicle_type_id":"4","last_reported":1717531685,"current_range_meters":0,"station_id":"ce4bh192rcd13ifvqdb0","pricing_plan_id":"cebpf4jnsgd1na2vs0mg"},{"bike_id":"25bbbbb7-e906-4285-9ace-7d751a3e5902","system_id":"levelo_inurba_marseille","lat":43.29224,"lon":5.360527,"is_reserved":false,"is_disabled":false,"rental_uris":{"android":"levelo://app?vid=25bbbbb7-e906-4285-9ace-7d751a3e5902","ios":"levelo://app?vid=25bbbbb7-e906-4285-9ace-7d751a3e5902"},"vehicle_type_id":"4","last_reported":1717531685,"current_range_meters":31200,"station_id":"ce4bhbh2rcd13ifvqeqg","pricing_plan_id":"cebpf4jnsgd1na2vs0mg"},{"bike_id":"67609504-4fd9-496f-952b-ad642ccd363b","system_id":"levelo_inurba_marseille","lat":43.30085,"lon":5.390856,"is_reserved":false,"is_disabled":false,"rental_uris":{"android":"levelo://app?vid=67609504-4fd9-496f-952b-ad642ccd363b","ios":"levelo://app?vid=67609504-4fd9-496f-952b-ad642ccd363b"},"vehicle_type_id":"4","last_reported":1717531685,"current_range_meters":10400,"station_id":"ce4bh192rcd13ifvqdb0","pricing_plan_id":"cebpf4jnsgd1na2vs0mg"},{"bike_id":"719bd5a3-7c63-4122-b6b7-d4c607a977aa","system_id":"levelo_inurba_marseille","lat":43.292311,"lon":5.360731,"is_reserved":false,"is_disabled":false,"rental_uris":{"android":"levelo://app?vid=719bd5a3-7c63-4122-b6b7-d4c607a977aa","ios":"levelo://app?vid=719bd5a3-7c63-4122-b6b7-d4c607a977aa"},"vehicle_type_id":"4","last_reported":1717531685,"current_range_meters":22800,"station_id":"ce4bhbh2rcd13ifvqeqg","pricing_plan_id":"cebpf4jnsgd1na2vs0mg"},{"bike_id":"31b432c4-be75-45b5-b270-dc6d6a921178","system_id":"levelo_inurba_marseille","lat":43.30085,"lon":5.390856,"is_reserved":false,"is_disabled":false,"rental_uris":{"android":"levelo://app?vid=31b432c4-be75-45b5-b270-dc6d6a921178","ios":"levelo://app?vid=31b432c4-be75-45b5-b270-dc6d6a921178"},"vehicle_type_id":"4","last_reported":1717531685,"current_range_meters":30000,"station_id":"ce4bh192rcd13ifvqdb0","pricing_plan_id":"cebpf4jnsgd1na2vs0mg"},{"bike_id":"a0d68411-3034-4c34-914e-697d12ff4110","system_id":"levelo_inurba_marseille","lat":43.291675,"lon":5.371583,"is_reserved":false,"is_disabled":false,"rental_uris":{"android":"levelo://app?vid=a0d68411-3034-4c34-914e-697d12ff4110","ios":"levelo://app?vid=a0d68411-3034-4c34-914e-697d12ff4110"},"vehicle_type_id":"4","last_reported":1717531685,"current_range_meters":5200,"station_id":"ce4bha92rcd13ifvqeh0","pricing_plan_id":"cebpf4jnsgd1na2vs0mg"},{"bike_id":"ce35c94e-07a0-4bad-a7fd-377d7f451b68","system_id":"levelo_inurba_marseille","lat":43.291675,"lon":5.371583,"is_reserved":false,"is_disabled":false,"rental_uris":{"android":"levelo://app?vid=ce35c94e-07a0-4bad-a7fd-377d7f451b68","ios":"levelo://app?vid=ce35c94e-07a0-4bad-a7fd-377d7f451b68"},"vehicle_type_id":"4","last_reported":1717531685,"current_range_meters":400,"station_id":"ce4bha92rcd13ifvqeh0","pricing_plan_id":"cebpf4jnsgd1na2vs0mg"},{"bike_id":"de9c26f9-034e-465e-8c07-666a3f2042ab","system_id":"levelo_inurba_marseille","lat":43.309047,"lon":5.396551,"is_reserved":false,"is_disabled":false,"rental_uris":{"android":"levelo://app?vid=de9c26f9-034e-465e-8c07-666a3f2042ab","ios":"levelo://app?vid=de9c26f9-034e-465e-8c07-666a3f2042ab"},"vehicle_type_id":"4","last_reported":1717531685,"current_range_meters":12800,"station_id":"ce4bh012rcd13ifvqcv0","pricing_plan_id":"cebpf4jnsgd1na2vs0mg"},{"bike_id":"e324fa56-45a2-4d6d-bfc5-e57f9ad478ac","system_id":"levelo_inurba_marseille","lat":43.30879,"lon":5.39629,"is_reserved":false,"is_disabled":false,"rental_uris":{"android":"levelo://app?vid=e324fa56-45a2-4d6d-bfc5-e57f9ad478ac","ios":"levelo://app?vid=e324fa56-45a2-4d6d-bfc5-e57f9ad478ac"},"vehicle_type_id":"4","last_reported":1717531685,"current_range_meters":11200,"station_id":"ce4bh012rcd13ifvqcv0","pricing_plan_id":"cebpf4jnsgd1na2vs0mg"},{"bike_id":"d90ae59f-2333-4913-9a8e-984ecba2e5e9","system_id":"levelo_inurba_marseille","lat":43.309038,"lon":5.396546,"is_reserved":false,"is_disabled":false,"rental_uris":{"android":"levelo://app?vid=d90ae59f-2333-4913-9a8e-984ecba2e5e9","ios":"levelo://app?vid=d90ae59f-2333-4913-9a8e-984ecba2e5e9"},"vehicle_type_id":"4","last_reported":1717531685,"current_range_meters":2000,"station_id":"ce4bh012rcd13ifvqcv0","pricing_plan_id":"cebpf4jnsgd1na2vs0mg"},{"bike_id":"07e696ca-4a83-463e-83f3-fffac8f2bd7c","system_id":"levelo_inurba_marseille","lat":43.313291,"lon":5.396838,"is_reserved":false,"is_disabled":false,"rental_uris":{"android":"levelo://app?vid=07e696ca-4a83-463e-83f3-fffac8f2bd7c","ios":"levelo://app?vid=07e696ca-4a83-463e-83f3-fffac8f2bd7c"},"vehicle_type_id":"4","last_reported":1717531685,"current_range_meters":0,"station_id":"ce4bgvp2rcd13ifvqcu0","pricing_plan_id":"cebpf4jnsgd1na2vs0mg"},{"bike_id":"f44da129-45cc-4df4-b609-51dafd6c4427","system_id":"levelo_inurba_marseille","lat":43.313291,"lon":5.396838,"is_reserved":false,"is_disabled":false,"rental_uris":{"android":"levelo://app?vid=f44da129-45cc-4df4-b609-51dafd6c4427","ios":"levelo://app?vid=f44da129-45cc-4df4-b609-51dafd6c4427"},"vehicle_type_id":"4","last_reported":1717531685,"current_range_meters":2000,"station_id":"ce4bgvp2rcd13ifvqcu0","pricing_plan_id":"cebpf4jnsgd1na2vs0mg"},{"bike_id":"c0f2183a-7c02-40b0-945b-bc7b7f57d3a6","system_id":"levelo_inurba_marseille","lat":43.29195,"lon":5.357903,"is_reserved":false,"is_disabled":false,"rental_uris":{"android":"levelo://app?vid=c0f2183a-7c02-40b0-945b-bc7b7f57d3a6","ios":"levelo://app?vid=c0f2183a-7c02-40b0-945b-bc7b7f57d3a6"},"vehicle_type_id":"4","last_reported":1717531685,"current_range_meters":31200,"station_id":"ce4bhb12rcd13ifvqel0","pricing_plan_id":"cebpf4jnsgd1na2vs0mg"},{"bike_id":"c38a4a62-f081-483b-b1a2-b06be68cfd79","system_id":"levelo_inurba_marseille","lat":43.313291,"lon":5.396838,"is_reserved":false,"is_disabled":false,"rental_uris":{"android":"levelo://app?vid=c38a4a62-f081-483b-b1a2-b06be68cfd79","ios":"levelo://app?vid=c38a4a62-f081-483b-b1a2-b06be68cfd79"},"vehicle_type_id":"4","last_reported":1717531685,"current_range_meters":4400,"station_id":"ce4bgvp2rcd13ifvqcu0","pricing_plan_id":"cebpf4jnsgd1na2vs0mg"},{"bike_id":"6ac6090c-9305-46ef-9e48-a42fdbcbc2f3","system_id":"levelo_inurba_marseille","lat":43.29193,"lon":5.35788,"is_reserved":false,"is_disabled":false,"rental_uris":{"android":"levelo://app?vid=6ac6090c-9305-46ef-9e48-a42fdbcbc2f3","ios":"levelo://app?vid=6ac6090c-9305-46ef-9e48-a42fdbcbc2f3"},"vehicle_type_id":"4","last_reported":1717531685,"current_range_meters":2800,"station_id":"ce4bhb12rcd13ifvqel0","pricing_plan_id":"cebpf4jnsgd1na2vs0mg"},{"bike_id":"62ff205b-ab5f-49c1-8fa8-2d9e11b890b2","system_id":"levelo_inurba_marseille","lat":43.309047,"lon":5.396551,"is_reserved":false,"is_disabled":false,"rental_uris":{"android":"levelo://app?vid=62ff205b-ab5f-49c1-8fa8-2d9e11b890b2","ios":"levelo://app?vid=62ff205b-ab5f-49c1-8fa8-2d9e11b890b2"},"vehicle_type_id":"4","last_reported":1717531685,"current_range_meters":24800,"station_id":"ce4bh012rcd13ifvqcv0","pricing_plan_id":"cebpf4jnsgd1na2vs0mg"},{"bike_id":"75b5f6d1-456d-409a-80fa-f6d5e9be64dc","system_id":"levelo_inurba_marseille","lat":43.2919,"lon":5.3579,"is_reserved":false,"is_disabled":false,"rental_uris":{"android":"levelo://app?vid=75b5f6d1-456d-409a-80fa-f6d5e9be64dc","ios":"levelo://app?vid=75b5f6d1-456d-409a-80fa-f6d5e9be64dc"},"vehicle_type_id":"4","last_reported":1717531685,"current_range_meters":20000,"station_id":"ce4bhb12rcd13ifvqel0","pricing_plan_id":"cebpf4jnsgd1na2vs0mg"},{"bike_id":"91202ba7-e721-4b91-ae9c-1a277a54a7e4","system_id":"levelo_inurba_marseille","lat":43.313291,"lon":5.396838,"is_reserved":false,"is_disabled":false,"rental_uris":{"android":"levelo://app?vid=91202ba7-e721-4b91-ae9c-1a277a54a7e4","ios":"levelo://app?vid=91202ba7-e721-4b91-ae9c-1a277a54a7e4"},"vehicle_type_id":"4","last_reported":1717531685,"current_range_meters":0,"station_id":"ce4bgvp2rcd13ifvqcu0","pricing_plan_id":"cebpf4jnsgd1na2vs0mg"},{"bike_id":"4d3c82a3-c6c6-4d5c-a61a-301f82f9bcdc","system_id":"levelo_inurba_marseille","lat":43.313291,"lon":5.396838,"is_reserved":false,"is_disabled":false,"rental_uris":{"android":"levelo://app?vid=4d3c82a3-c6c6-4d5c-a61a-301f82f9bcdc","ios":"levelo://app?vid=4d3c82a3-c6c6-4d5c-a61a-301f82f9bcdc"},"vehicle_type_id":"4","last_reported":1717531685,"current_range_meters":28400,"station_id":"ce4bgvp2rcd13ifvqcu0","pricing_plan_id":"cebpf4jnsgd1na2vs0mg"},{"bike_id":"528e25c3-ff48-420a-9639-49364ae340c3","system_id":"levelo_inurba_marseille","lat":43.313291,"lon":5.396838,"is_reserved":false,"is_disabled":false,"rental_uris":{"android":"levelo://app?vid=528e25c3-ff48-420a-9639-49364ae340c3","ios":"levelo://app?vid=528e25c3-ff48-420a-9639-49364ae340c3"},"vehicle_type_id":"4","last_reported":1717531685,"current_range_meters":2800,"station_id":"ce4bgvp2rcd13ifvqcu0","pricing_plan_id":"cebpf4jnsgd1na2vs0mg"},{"bike_id":"ac15f4b5-d2cc-4cba-88e9-607805cfe057","system_id":"levelo_inurba_marseille","lat":43.309038,"lon":5.396546,"is_reserved":false,"is_disabled":false,"rental_uris":{"android":"levelo://app?vid=ac15f4b5-d2cc-4cba-88e9-607805cfe057","ios":"levelo://app?vid=ac15f4b5-d2cc-4cba-88e9-607805cfe057"},"vehicle_type_id":"4","last_reported":1717531685,"current_range_meters":12800,"station_id":"ce4bh012rcd13ifvqcv0","pricing_plan_id":"cebpf4jnsgd1na2vs0mg"},{"bike_id":"021f397c-e8e5-4a86-ad34-c3b22daa6f8a","system_id":"levelo_inurba_marseille","lat":43.309047,"lon":5.396551,"is_reserved":false,"is_disabled":false,"rental_uris":{"android":"levelo://app?vid=021f397c-e8e5-4a86-ad34-c3b22daa6f8a","ios":"levelo://app?vid=021f397c-e8e5-4a86-ad34-c3b22daa6f8a"},"vehicle_type_id":"4","last_reported":1717531685,"current_range_meters":20000,"station_id":"ce4bh012rcd13ifvqcv0","pricing_plan_id":"cebpf4jnsgd1na2vs0mg"},{"bike_id":"049f7bbe-8130-4d70-ba18-f2c83a3622f9","system_id":"levelo_inurba_marseille","lat":43.309038,"lon":5.396546,"is_reserved":false,"is_disabled":false,"rental_uris":{"android":"levelo://app?vid=049f7bbe-8130-4d70-ba18-f2c83a3622f9","ios":"levelo://app?vid=049f7bbe-8130-4d70-ba18-f2c83a3622f9"},"vehicle_type_id":"4","last_reported":1717531685,"current_range_meters":0,"station_id":"ce4bh012rcd13ifvqcv0","pricing_plan_id":"cebpf4jnsgd1na2vs0mg"},{"bike_id":"8c800a69-55ec-4ccc-87f5-7623997b17cf","system_id":"levelo_inurba_marseille","lat":43.29529,"lon":5.385581,"is_reserved":false,"is_disabled":false,"rental_uris":{"android":"levelo://app?vid=8c800a69-55ec-4ccc-87f5-7623997b17cf","ios":"levelo://app?vid=8c800a69-55ec-4ccc-87f5-7623997b17cf"},"vehicle_type_id":"4","last_reported":1717531685,"current_range_meters":25200,"station_id":"ce4bgih2rcd13ifvqba0","pricing_plan_id":"cebpf4jnsgd1na2vs0mg"},{"bike_id":"8b226928-6b0c-4240-b0cf-88c6350a127a","system_id":"levelo_inurba_marseille","lat":43.29532,"lon":5.38538,"is_reserved":false,"is_disabled":false,"rental_uris":{"android":"levelo://app?vid=8b226928-6b0c-4240-b0cf-88c6350a127a","ios":"levelo://app?vid=8b226928-6b0c-4240-b0cf-88c6350a127a"},"vehicle_type_id":"4","last_reported":1717531685,"current_range_meters":0,"station_id":"ce4bgih2rcd13ifvqba0","pricing_plan_id":"cebpf4jnsgd1na2vs0mg"},{"bike_id":"dbf3e8ad-002b-4e59-a19e-6c735670c731","system_id":"levelo_inurba_marseille","lat":43.29529,"lon":5.385581,"is_reserved":false,"is_disabled":false,"rental_uris":{"android":"levelo://app?vid=dbf3e8ad-002b-4e59-a19e-6c735670c731","ios":"levelo://app?vid=dbf3e8ad-002b-4e59-a19e-6c735670c731"},"vehicle_type_id":"4","last_reported":1717531685,"current_range_meters":25600,"station_id":"ce4bgih2rcd13ifvqba0","pricing_plan_id":"cebpf4jnsgd1na2vs0mg"},{"bike_id":"43632675-0625-4dae-9868-1a7be9c5427b","system_id":"levelo_inurba_marseille","lat":43.30864,"lon":5.39665,"is_reserved":false,"is_disabled":false,"rental_uris":{"android":"levelo://app?vid=43632675-0625-4dae-9868-1a7be9c5427b","ios":"levelo://app?vid=43632675-0625-4dae-9868-1a7be9c5427b"},"vehicle_type_id":"4","last_reported":1717531685,"current_range_meters":0,"station_id":"ce4bh012rcd13ifvqcv0","pricing_plan_id":"cebpf4jnsgd1na2vs0mg"},{"bike_id":"52b151db-af68-4c38-b241-113e37605454","system_id":"levelo_inurba_marseille","lat":43.29529,"lon":5.385581,"is_reserved":false,"is_disabled":false,"rental_uris":{"android":"levelo://app?vid=52b151db-af68-4c38-b241-113e37605454","ios":"levelo://app?vid=52b151db-af68-4c38-b241-113e37605454"},"vehicle_type_id":"4","last_reported":1717531685,"current_range_meters":0,"station_id":"ce4bgih2rcd13ifvqba0","pricing_plan_id":"cebpf4jnsgd1na2vs0mg"},{"bike_id":"865b9525-662a-4855-8e0c-44a9200b69ce","system_id":"levelo_inurba_marseille","lat":43.29529,"lon":5.385581,"is_reserved":false,"is_disabled":false,"rental_uris":{"android":"levelo://app?vid=865b9525-662a-4855-8e0c-44a9200b69ce","ios":"levelo://app?vid=865b9525-662a-4855-8e0c-44a9200b69ce"},"vehicle_type_id":"4","last_reported":1717531685,"current_range_meters":4800,"station_id":"ce4bgih2rcd13ifvqba0","pricing_plan_id":"cebpf4jnsgd1na2vs0mg"},{"bike_id":"d33cb2dc-bc7f-48e0-8bb1-8c622fa32c32","system_id":"levelo_inurba_marseille","lat":43.29529,"lon":5.385581,"is_reserved":false,"is_disabled":false,"rental_uris":{"android":"levelo://app?vid=d33cb2dc-bc7f-48e0-8bb1-8c622fa32c32","ios":"levelo://app?vid=d33cb2dc-bc7f-48e0-8bb1-8c622fa32c32"},"vehicle_type_id":"4","last_reported":1717531685,"current_range_meters":3600,"station_id":"ce4bgih2rcd13ifvqba0","pricing_plan_id":"cebpf4jnsgd1na2vs0mg"},{"bike_id":"cc304f23-477f-4881-990b-d500a0d889b5","system_id":"levelo_inurba_marseille","lat":43.292642,"lon":5.384254,"is_reserved":false,"is_disabled":false,"rental_uris":{"android":"levelo://app?vid=cc304f23-477f-4881-990b-d500a0d889b5","ios":"levelo://app?vid=cc304f23-477f-4881-990b-d500a0d889b5"},"vehicle_type_id":"4","last_reported":1717531685,"current_range_meters":7200,"station_id":"ce4bh692rcd13ifvqea0","pricing_plan_id":"cebpf4jnsgd1na2vs0mg"},{"bike_id":"684b3469-5bb0-4679-afd1-980b917f3a90","system_id":"levelo_inurba_marseille","lat":43.290779,"lon":5.371482,"is_reserved":false,"is_disabled":false,"rental_uris":{"android":"levelo://app?vid=684b3469-5bb0-4679-afd1-980b917f3a90","ios":"levelo://app?vid=684b3469-5bb0-4679-afd1-980b917f3a90"},"vehicle_type_id":"4","last_reported":1717531685,"current_range_meters":31200,"station_id":"ce4bh5p2rcd13ifvqe4g","pricing_plan_id":"cebpf4jnsgd1na2vs0mg"},{"bike_id":"a1050dec-271c-434b-89d5-68333842a56d","system_id":"levelo_inurba_marseille","lat":43.290631,"lon":5.359244,"is_reserved":false,"is_disabled":false,"rental_uris":{"android":"levelo://app?vid=a1050dec-271c-434b-89d5-68333842a56d","ios":"levelo://app?vid=a1050dec-271c-434b-89d5-68333842a56d"},"vehicle_type_id":"4","last_reported":1717531685,"current_range_meters":10000,"station_id":"ce4bha92rcd13ifvqeg0","pricing_plan_id":"cebpf4jnsgd1na2vs0mg"},{"bike_id":"1f3c03f5-aa31-4075-a3b5-e3fd8c7c20ab","system_id":"levelo_inurba_marseille","lat":43.29419,"lon":5.38629,"is_reserved":false,"is_disabled":false,"rental_uris":{"android":"levelo://app?vid=1f3c03f5-aa31-4075-a3b5-e3fd8c7c20ab","ios":"levelo://app?vid=1f3c03f5-aa31-4075-a3b5-e3fd8c7c20ab"},"vehicle_type_id":"4","last_reported":1717531685,"current_range_meters":0,"station_id":"ce4bh2h2rcd13ifvqdh0","pricing_plan_id":"cebpf4jnsgd1na2vs0mg"},{"bike_id":"50acf6ca-0f8f-4bd4-921c-06f3418e42b9","system_id":"levelo_inurba_marseille","lat":43.29416,"lon":5.38624,"is_reserved":false,"is_disabled":false,"rental_uris":{"android":"levelo://app?vid=50acf6ca-0f8f-4bd4-921c-06f3418e42b9","ios":"levelo://app?vid=50acf6ca-0f8f-4bd4-921c-06f3418e42b9"},"vehicle_type_id":"4","last_reported":1717531685,"current_range_meters":0,"station_id":"ce4bh2h2rcd13ifvqdh0","pricing_plan_id":"cebpf4jnsgd1na2vs0mg"},{"bike_id":"2d3bea60-1205-4e2a-a0ee-f4020662a2b9","system_id":"levelo_inurba_marseille","lat":43.28943,"lon":5.36629,"is_reserved":false,"is_disabled":false,"rental_uris":{"android":"levelo://app?vid=2d3bea60-1205-4e2a-a0ee-f4020662a2b9","ios":"levelo://app?vid=2d3bea60-1205-4e2a-a0ee-f4020662a2b9"},"vehicle_type_id":"4","last_reported":1717531685,"current_range_meters":31200,"station_id":"ce4bhap2rcd13ifvqek0","pricing_plan_id":"cebpf4jnsgd1na2vs0mg"},{"bike_id":"ad9ac0cc-5f14-4f4c-867a-d09ada2d9b8f","system_id":"levelo_inurba_marseille","lat":43.289184,"lon":5.366408,"is_reserved":false,"is_disabled":false,"rental_uris":{"android":"levelo://app?vid=ad9ac0cc-5f14-4f4c-867a-d09ada2d9b8f","ios":"levelo://app?vid=ad9ac0cc-5f14-4f4c-867a-d09ada2d9b8f"},"vehicle_type_id":"4","last_reported":1717531685,"current_range_meters":5600,"station_id":"ce4bhap2rcd13ifvqek0","pricing_plan_id":"cebpf4jnsgd1na2vs0mg"},{"bike_id":"9e75fc62-994a-40af-a106-8b175955ccc4","system_id":"levelo_inurba_marseille","lat":43.289413,"lon":5.366217,"is_reserved":false,"is_disabled":false,"rental_uris":{"android":"levelo://app?vid=9e75fc62-994a-40af-a106-8b175955ccc4","ios":"levelo://app?vid=9e75fc62-994a-40af-a106-8b175955ccc4"},"vehicle_type_id":"4","last_reported":1717531685,"current_range_meters":29600,"station_id":"ce4bhap2rcd13ifvqek0","pricing_plan_id":"cebpf4jnsgd1na2vs0mg"},{"bike_id":"e8cf2a99-e688-4e85-bc46-6de569dc3c01","system_id":"levelo_inurba_marseille","lat":43.289184,"lon":5.366408,"is_reserved":false,"is_disabled":false,"rental_uris":{"android":"levelo://app?vid=e8cf2a99-e688-4e85-bc46-6de569dc3c01","ios":"levelo://app?vid=e8cf2a99-e688-4e85-bc46-6de569dc3c01"},"vehicle_type_id":"4","last_reported":1717531685,"current_range_meters":4400,"station_id":"ce4bhap2rcd13ifvqek0","pricing_plan_id":"cebpf4jnsgd1na2vs0mg"},{"bike_id":"42995397-707a-4c7f-9342-af01d646bc6c","system_id":"levelo_inurba_marseille","lat":43.28937,"lon":5.36626,"is_reserved":false,"is_disabled":false,"rental_uris":{"android":"levelo://app?vid=42995397-707a-4c7f-9342-af01d646bc6c","ios":"levelo://app?vid=42995397-707a-4c7f-9342-af01d646bc6c"},"vehicle_type_id":"4","last_reported":1717531685,"current_range_meters":31200,"station_id":"ce4bhap2rcd13ifvqek0","pricing_plan_id":"cebpf4jnsgd1na2vs0mg"},{"bike_id":"689dabec-fbff-4ad0-9d27-e8c362c7d8aa","system_id":"levelo_inurba_marseille","lat":43.28936,"lon":5.3664,"is_reserved":false,"is_disabled":false,"rental_uris":{"android":"levelo://app?vid=689dabec-fbff-4ad0-9d27-e8c362c7d8aa","ios":"levelo://app?vid=689dabec-fbff-4ad0-9d27-e8c362c7d8aa"},"vehicle_type_id":"4","last_reported":1717531685,"current_range_meters":23200,"station_id":"ce4bhap2rcd13ifvqek0","pricing_plan_id":"cebpf4jnsgd1na2vs0mg"},{"bike_id":"6ba1f517-7143-4fe6-bded-e60f40fae85b","system_id":"levelo_inurba_marseille","lat":43.289184,"lon":5.366408,"is_reserved":false,"is_disabled":false,"rental_uris":{"android":"levelo://app?vid=6ba1f517-7143-4fe6-bded-e60f40fae85b","ios":"levelo://app?vid=6ba1f517-7143-4fe6-bded-e60f40fae85b"},"vehicle_type_id":"4","last_reported":1717531685,"current_range_meters":2400,"station_id":"ce4bhap2rcd13ifvqek0","pricing_plan_id":"cebpf4jnsgd1na2vs0mg"},{"bike_id":"d5680f07-3c5f-42a5-b74d-c509e0c972dc","system_id":"levelo_inurba_marseille","lat":43.28934,"lon":5.3664,"is_reserved":false,"is_disabled":false,"rental_uris":{"android":"levelo://app?vid=d5680f07-3c5f-42a5-b74d-c509e0c972dc","ios":"levelo://app?vid=d5680f07-3c5f-42a5-b74d-c509e0c972dc"},"vehicle_type_id":"4","last_reported":1717531685,"current_range_meters":4800,"station_id":"ce4bhap2rcd13ifvqek0","pricing_plan_id":"cebpf4jnsgd1na2vs0mg"},{"bike_id":"f7080eb3-3d3c-45c9-be62-4eb4b546160a","system_id":"levelo_inurba_marseille","lat":43.2893,"lon":5.36617,"is_reserved":false,"is_disabled":false,"rental_uris":{"android":"levelo://app?vid=f7080eb3-3d3c-45c9-be62-4eb4b546160a","ios":"levelo://app?vid=f7080eb3-3d3c-45c9-be62-4eb4b546160a"},"vehicle_type_id":"4","last_reported":1717531685,"current_range_meters":31200,"station_id":"ce4bhap2rcd13ifvqek0","pricing_plan_id":"cebpf4jnsgd1na2vs0mg"},{"bike_id":"62b00fc4-e74b-4d31-8e04-c667c5d65344","system_id":"levelo_inurba_marseille","lat":43.292644,"lon":5.384257,"is_reserved":false,"is_disabled":false,"rental_uris":{"android":"levelo://app?vid=62b00fc4-e74b-4d31-8e04-c667c5d65344","ios":"levelo://app?vid=62b00fc4-e74b-4d31-8e04-c667c5d65344"},"vehicle_type_id":"4","last_reported":1717531685,"current_range_meters":8000,"station_id":"ce4bh692rcd13ifvqea0","pricing_plan_id":"cebpf4jnsgd1na2vs0mg"},{"bike_id":"98cc07d7-91a0-4887-a00e-c9fddaaa413e","system_id":"levelo_inurba_marseille","lat":43.292644,"lon":5.384257,"is_reserved":false,"is_disabled":false,"rental_uris":{"android":"levelo://app?vid=98cc07d7-91a0-4887-a00e-c9fddaaa413e","ios":"levelo://app?vid=98cc07d7-91a0-4887-a00e-c9fddaaa413e"},"vehicle_type_id":"4","last_reported":1717531685,"current_range_meters":9200,"station_id":"ce4bh692rcd13ifvqea0","pricing_plan_id":"cebpf4jnsgd1na2vs0mg"},{"bike_id":"47861cc7-0552-4d97-a2fe-712d319bf20f","system_id":"levelo_inurba_marseille","lat":43.292644,"lon":5.384257,"is_reserved":false,"is_disabled":false,"rental_uris":{"android":"levelo://app?vid=47861cc7-0552-4d97-a2fe-712d319bf20f","ios":"levelo://app?vid=47861cc7-0552-4d97-a2fe-712d319bf20f"},"vehicle_type_id":"4","last_reported":1717531685,"current_range_meters":1200,"station_id":"ce4bh692rcd13ifvqea0","pricing_plan_id":"cebpf4jnsgd1na2vs0mg"},{"bike_id":"13b47777-8769-4af0-b8af-34b11b111ebf","system_id":"levelo_inurba_marseille","lat":43.292644,"lon":5.384257,"is_reserved":false,"is_disabled":false,"rental_uris":{"android":"levelo://app?vid=13b47777-8769-4af0-b8af-34b11b111ebf","ios":"levelo://app?vid=13b47777-8769-4af0-b8af-34b11b111ebf"},"vehicle_type_id":"4","last_reported":1717531685,"current_range_meters":15600,"station_id":"ce4bh692rcd13ifvqea0","pricing_plan_id":"cebpf4jnsgd1na2vs0mg"},{"bike_id":"d7fcf3cb-8f81-4fd0-a67a-6b93252901e4","system_id":"levelo_inurba_marseille","lat":43.292644,"lon":5.384257,"is_reserved":false,"is_disabled":false,"rental_uris":{"android":"levelo://app?vid=d7fcf3cb-8f81-4fd0-a67a-6b93252901e4","ios":"levelo://app?vid=d7fcf3cb-8f81-4fd0-a67a-6b93252901e4"},"vehicle_type_id":"4","last_reported":1717531685,"current_range_meters":0,"station_id":"ce4bh692rcd13ifvqea0","pricing_plan_id":"cebpf4jnsgd1na2vs0mg"},{"bike_id":"34ad0b9f-3acf-43f2-b7ed-d0af51372a16","system_id":"levelo_inurba_marseille","lat":43.29264,"lon":5.38433,"is_reserved":false,"is_disabled":false,"rental_uris":{"android":"levelo://app?vid=34ad0b9f-3acf-43f2-b7ed-d0af51372a16","ios":"levelo://app?vid=34ad0b9f-3acf-43f2-b7ed-d0af51372a16"},"vehicle_type_id":"4","last_reported":1717531685,"current_range_meters":24400,"station_id":"ce4bh692rcd13ifvqea0","pricing_plan_id":"cebpf4jnsgd1na2vs0mg"},{"bike_id":"8e213c73-c5d2-4ad7-b8ee-32fb469a97d9","system_id":"levelo_inurba_marseille","lat":43.29269,"lon":5.38444,"is_reserved":false,"is_disabled":false,"rental_uris":{"android":"levelo://app?vid=8e213c73-c5d2-4ad7-b8ee-32fb469a97d9","ios":"levelo://app?vid=8e213c73-c5d2-4ad7-b8ee-32fb469a97d9"},"vehicle_type_id":"4","last_reported":1717531685,"current_range_meters":0,"station_id":"ce4bh692rcd13ifvqea0","pricing_plan_id":"cebpf4jnsgd1na2vs0mg"},{"bike_id":"a7832555-a0a0-4a19-bb22-3115c38a1a1c","system_id":"levelo_inurba_marseille","lat":43.29267,"lon":5.38441,"is_reserved":false,"is_disabled":false,"rental_uris":{"android":"levelo://app?vid=a7832555-a0a0-4a19-bb22-3115c38a1a1c","ios":"levelo://app?vid=a7832555-a0a0-4a19-bb22-3115c38a1a1c"},"vehicle_type_id":"4","last_reported":1717531685,"current_range_meters":1200,"station_id":"ce4bh692rcd13ifvqea0","pricing_plan_id":"cebpf4jnsgd1na2vs0mg"},{"bike_id":"711e5449-5d98-440a-86c1-50d7c935ab83","system_id":"levelo_inurba_marseille","lat":43.292642,"lon":5.384254,"is_reserved":false,"is_disabled":false,"rental_uris":{"android":"levelo://app?vid=711e5449-5d98-440a-86c1-50d7c935ab83","ios":"levelo://app?vid=711e5449-5d98-440a-86c1-50d7c935ab83"},"vehicle_type_id":"4","last_reported":1717531685,"current_range_meters":400,"station_id":"ce4bh692rcd13ifvqea0","pricing_plan_id":"cebpf4jnsgd1na2vs0mg"},{"bike_id":"78ad6f60-0710-4956-97f1-214268785b81","system_id":"levelo_inurba_marseille","lat":43.29267,"lon":5.38444,"is_reserved":false,"is_disabled":false,"rental_uris":{"android":"levelo://app?vid=78ad6f60-0710-4956-97f1-214268785b81","ios":"levelo://app?vid=78ad6f60-0710-4956-97f1-214268785b81"},"vehicle_type_id":"4","last_reported":1717531685,"current_range_meters":23600,"station_id":"ce4bh692rcd13ifvqea0","pricing_plan_id":"cebpf4jnsgd1na2vs0mg"},{"bike_id":"2c97daf0-876a-45c0-8944-b8ed0386f227","system_id":"levelo_inurba_marseille","lat":43.292642,"lon":5.384254,"is_reserved":false,"is_disabled":false,"rental_uris":{"android":"levelo://app?vid=2c97daf0-876a-45c0-8944-b8ed0386f227","ios":"levelo://app?vid=2c97daf0-876a-45c0-8944-b8ed0386f227"},"vehicle_type_id":"4","last_reported":1717531685,"current_range_meters":8000,"station_id":"ce4bh692rcd13ifvqea0","pricing_plan_id":"cebpf4jnsgd1na2vs0mg"},{"bike_id":"5d7b1708-3237-4d89-9342-fea9c5d4bdd1","system_id":"levelo_inurba_marseille","lat":43.292642,"lon":5.384254,"is_reserved":false,"is_disabled":false,"rental_uris":{"android":"levelo://app?vid=5d7b1708-3237-4d89-9342-fea9c5d4bdd1","ios":"levelo://app?vid=5d7b1708-3237-4d89-9342-fea9c5d4bdd1"},"vehicle_type_id":"4","last_reported":1717531685,"current_range_meters":22400,"station_id":"ce4bh692rcd13ifvqea0","pricing_plan_id":"cebpf4jnsgd1na2vs0mg"},{"bike_id":"1cf4b6c5-d3b4-4c92-bf51-f429700284cb","system_id":"levelo_inurba_marseille","lat":43.292642,"lon":5.384254,"is_reserved":false,"is_disabled":false,"rental_uris":{"android":"levelo://app?vid=1cf4b6c5-d3b4-4c92-bf51-f429700284cb","ios":"levelo://app?vid=1cf4b6c5-d3b4-4c92-bf51-f429700284cb"},"vehicle_type_id":"4","last_reported":1717531685,"current_range_meters":9600,"station_id":"ce4bh692rcd13ifvqea0","pricing_plan_id":"cebpf4jnsgd1na2vs0mg"},{"bike_id":"3ca80b32-c884-4322-8e29-fe54a0eaa1fb","system_id":"levelo_inurba_marseille","lat":43.292644,"lon":5.384257,"is_reserved":false,"is_disabled":false,"rental_uris":{"android":"levelo://app?vid=3ca80b32-c884-4322-8e29-fe54a0eaa1fb","ios":"levelo://app?vid=3ca80b32-c884-4322-8e29-fe54a0eaa1fb"},"vehicle_type_id":"4","last_reported":1717531685,"current_range_meters":16000,"station_id":"ce4bh692rcd13ifvqea0","pricing_plan_id":"cebpf4jnsgd1na2vs0mg"},{"bike_id":"5a046762-45f1-4f5b-bbd3-ba7658afea3e","system_id":"levelo_inurba_marseille","lat":43.292642,"lon":5.384254,"is_reserved":false,"is_disabled":false,"rental_uris":{"android":"levelo://app?vid=5a046762-45f1-4f5b-bbd3-ba7658afea3e","ios":"levelo://app?vid=5a046762-45f1-4f5b-bbd3-ba7658afea3e"},"vehicle_type_id":"4","last_reported":1717531685,"current_range_meters":4000,"station_id":"ce4bh692rcd13ifvqea0","pricing_plan_id":"cebpf4jnsgd1na2vs0mg"},{"bike_id":"bd6bfb9d-272b-4963-b2cd-ff63dc03c31e","system_id":"levelo_inurba_marseille","lat":43.292644,"lon":5.384257,"is_reserved":false,"is_disabled":false,"rental_uris":{"android":"levelo://app?vid=bd6bfb9d-272b-4963-b2cd-ff63dc03c31e","ios":"levelo://app?vid=bd6bfb9d-272b-4963-b2cd-ff63dc03c31e"},"vehicle_type_id":"4","last_reported":1717531685,"current_range_meters":0,"station_id":"ce4bh692rcd13ifvqea0","pricing_plan_id":"cebpf4jnsgd1na2vs0mg"},{"bike_id":"13c82848-115b-4d1b-9c2b-6aa2122b79eb","system_id":"levelo_inurba_marseille","lat":43.29256,"lon":5.38437,"is_reserved":false,"is_disabled":false,"rental_uris":{"android":"levelo://app?vid=13c82848-115b-4d1b-9c2b-6aa2122b79eb","ios":"levelo://app?vid=13c82848-115b-4d1b-9c2b-6aa2122b79eb"},"vehicle_type_id":"4","last_reported":1717531685,"current_range_meters":5600,"station_id":"ce4bh692rcd13ifvqea0","pricing_plan_id":"cebpf4jnsgd1na2vs0mg"},{"bike_id":"78dcdda2-21bf-429c-a105-958ccf446ff4","system_id":"levelo_inurba_marseille","lat":43.29256,"lon":5.38438,"is_reserved":false,"is_disabled":false,"rental_uris":{"android":"levelo://app?vid=78dcdda2-21bf-429c-a105-958ccf446ff4","ios":"levelo://app?vid=78dcdda2-21bf-429c-a105-958ccf446ff4"},"vehicle_type_id":"4","last_reported":1717531685,"current_range_meters":25200,"station_id":"ce4bh692rcd13ifvqea0","pricing_plan_id":"cebpf4jnsgd1na2vs0mg"},{"bike_id":"923d0dd5-382d-49df-97d6-f173540fd27e","system_id":"levelo_inurba_marseille","lat":43.292644,"lon":5.384257,"is_reserved":false,"is_disabled":false,"rental_uris":{"android":"levelo://app?vid=923d0dd5-382d-49df-97d6-f173540fd27e","ios":"levelo://app?vid=923d0dd5-382d-49df-97d6-f173540fd27e"},"vehicle_type_id":"4","last_reported":1717531685,"current_range_meters":0,"station_id":"ce4bh692rcd13ifvqea0","pricing_plan_id":"cebpf4jnsgd1na2vs0mg"},{"bike_id":"bd0471e2-c891-43f4-81fe-d54371632ccd","system_id":"levelo_inurba_marseille","lat":43.29005,"lon":5.35613,"is_reserved":false,"is_disabled":false,"rental_uris":{"android":"levelo://app?vid=bd0471e2-c891-43f4-81fe-d54371632ccd","ios":"levelo://app?vid=bd0471e2-c891-43f4-81fe-d54371632ccd"},"vehicle_type_id":"4","last_reported":1717531685,"current_range_meters":0,"station_id":"ce4bhb92rcd13ifvqen0","pricing_plan_id":"cebpf4jnsgd1na2vs0mg"},{"bike_id":"5b780a8d-a364-4de9-a7d0-a3c05211afda","system_id":"levelo_inurba_marseille","lat":43.290995,"lon":5.381361,"is_reserved":false,"is_disabled":false,"rental_uris":{"android":"levelo://app?vid=5b780a8d-a364-4de9-a7d0-a3c05211afda","ios":"levelo://app?vid=5b780a8d-a364-4de9-a7d0-a3c05211afda"},"vehicle_type_id":"4","last_reported":1717531685,"current_range_meters":7600,"station_id":"ce4bh512rcd13ifvqe2g","pricing_plan_id":"cebpf4jnsgd1na2vs0mg"},{"bike_id":"46f8d346-9ee7-4a72-88fc-63742eb41b86","system_id":"levelo_inurba_marseille","lat":43.29004,"lon":5.35616,"is_reserved":false,"is_disabled":false,"rental_uris":{"android":"levelo://app?vid=46f8d346-9ee7-4a72-88fc-63742eb41b86","ios":"levelo://app?vid=46f8d346-9ee7-4a72-88fc-63742eb41b86"},"vehicle_type_id":"4","last_reported":1717531685,"current_range_meters":0,"station_id":"ce4bhb92rcd13ifvqen0","pricing_plan_id":"cebpf4jnsgd1na2vs0mg"},{"bike_id":"84d39d12-9ca1-4fbe-afc1-24828351ef73","system_id":"levelo_inurba_marseille","lat":43.290995,"lon":5.381361,"is_reserved":false,"is_disabled":false,"rental_uris":{"android":"levelo://app?vid=84d39d12-9ca1-4fbe-afc1-24828351ef73","ios":"levelo://app?vid=84d39d12-9ca1-4fbe-afc1-24828351ef73"},"vehicle_type_id":"4","last_reported":1717531685,"current_range_meters":29200,"station_id":"ce4bh512rcd13ifvqe2g","pricing_plan_id":"cebpf4jnsgd1na2vs0mg"},{"bike_id":"d6d4e917-03c0-4826-b183-6c8b91826674","system_id":"levelo_inurba_marseille","lat":43.290995,"lon":5.381361,"is_reserved":false,"is_disabled":false,"rental_uris":{"android":"levelo://app?vid=d6d4e917-03c0-4826-b183-6c8b91826674","ios":"levelo://app?vid=d6d4e917-03c0-4826-b183-6c8b91826674"},"vehicle_type_id":"4","last_reported":1717531685,"current_range_meters":12400,"station_id":"ce4bh512rcd13ifvqe2g","pricing_plan_id":"cebpf4jnsgd1na2vs0mg"},{"bike_id":"762c0e0b-59d1-4321-ab05-0f5df08c59e7","system_id":"levelo_inurba_marseille","lat":43.290995,"lon":5.381361,"is_reserved":false,"is_disabled":false,"rental_uris":{"android":"levelo://app?vid=762c0e0b-59d1-4321-ab05-0f5df08c59e7","ios":"levelo://app?vid=762c0e0b-59d1-4321-ab05-0f5df08c59e7"},"vehicle_type_id":"4","last_reported":1717531685,"current_range_meters":30800,"station_id":"ce4bh512rcd13ifvqe2g","pricing_plan_id":"cebpf4jnsgd1na2vs0mg"},{"bike_id":"ec7ea13b-e717-4417-b0b3-1687a18c79c9","system_id":"levelo_inurba_marseille","lat":43.290995,"lon":5.381361,"is_reserved":false,"is_disabled":false,"rental_uris":{"android":"levelo://app?vid=ec7ea13b-e717-4417-b0b3-1687a18c79c9","ios":"levelo://app?vid=ec7ea13b-e717-4417-b0b3-1687a18c79c9"},"vehicle_type_id":"4","last_reported":1717531685,"current_range_meters":14000,"station_id":"ce4bh512rcd13ifvqe2g","pricing_plan_id":"cebpf4jnsgd1na2vs0mg"},{"bike_id":"765ed1d3-7697-4c0c-927b-6ce7b366cd68","system_id":"levelo_inurba_marseille","lat":43.290995,"lon":5.381361,"is_reserved":false,"is_disabled":false,"rental_uris":{"android":"levelo://app?vid=765ed1d3-7697-4c0c-927b-6ce7b366cd68","ios":"levelo://app?vid=765ed1d3-7697-4c0c-927b-6ce7b366cd68"},"vehicle_type_id":"4","last_reported":1717531685,"current_range_meters":8800,"station_id":"ce4bh512rcd13ifvqe2g","pricing_plan_id":"cebpf4jnsgd1na2vs0mg"},{"bike_id":"6e80c515-4eb3-47a1-a8e9-e52f5fafc2a1","system_id":"levelo_inurba_marseille","lat":43.290955,"lon":5.381378,"is_reserved":false,"is_disabled":false,"rental_uris":{"android":"levelo://app?vid=6e80c515-4eb3-47a1-a8e9-e52f5fafc2a1","ios":"levelo://app?vid=6e80c515-4eb3-47a1-a8e9-e52f5fafc2a1"},"vehicle_type_id":"4","last_reported":1717531685,"current_range_meters":0,"station_id":"ce4bh512rcd13ifvqe2g","pricing_plan_id":"cebpf4jnsgd1na2vs0mg"},{"bike_id":"382393ce-68bb-495e-aba6-31f19bd2c7c4","system_id":"levelo_inurba_marseille","lat":43.290995,"lon":5.381361,"is_reserved":false,"is_disabled":false,"rental_uris":{"android":"levelo://app?vid=382393ce-68bb-495e-aba6-31f19bd2c7c4","ios":"levelo://app?vid=382393ce-68bb-495e-aba6-31f19bd2c7c4"},"vehicle_type_id":"4","last_reported":1717531685,"current_range_meters":31600,"station_id":"ce4bh512rcd13ifvqe2g","pricing_plan_id":"cebpf4jnsgd1na2vs0mg"},{"bike_id":"dca1cdc3-303d-4ebf-a279-308d12bd4d0c","system_id":"levelo_inurba_marseille","lat":43.289743,"lon":5.378304,"is_reserved":false,"is_disabled":false,"rental_uris":{"android":"levelo://app?vid=dca1cdc3-303d-4ebf-a279-308d12bd4d0c","ios":"levelo://app?vid=dca1cdc3-303d-4ebf-a279-308d12bd4d0c"},"vehicle_type_id":"4","last_reported":1717531685,"current_range_meters":30800,"station_id":"ce4bh9p2rcd13ifvqed0","pricing_plan_id":"cebpf4jnsgd1na2vs0mg"},{"bike_id":"38784134-43be-4028-8a47-c6c5912f7477","system_id":"levelo_inurba_marseille","lat":43.289741,"lon":5.378306,"is_reserved":false,"is_disabled":false,"rental_uris":{"android":"levelo://app?vid=38784134-43be-4028-8a47-c6c5912f7477","ios":"levelo://app?vid=38784134-43be-4028-8a47-c6c5912f7477"},"vehicle_type_id":"4","last_reported":1717531685,"current_range_meters":1600,"station_id":"ce4bh9p2rcd13ifvqed0","pricing_plan_id":"cebpf4jnsgd1na2vs0mg"},{"bike_id":"f9aa627e-3620-4096-ae76-0c38b21b39f5","system_id":"levelo_inurba_marseille","lat":43.33021,"lon":5.39038,"is_reserved":false,"is_disabled":false,"rental_uris":{"android":"levelo://app?vid=f9aa627e-3620-4096-ae76-0c38b21b39f5","ios":"levelo://app?vid=f9aa627e-3620-4096-ae76-0c38b21b39f5"},"vehicle_type_id":"4","last_reported":1717531685,"current_range_meters":16800,"station_id":"ce4bhr92rcd13ifvqhrg","pricing_plan_id":"cebpf4jnsgd1na2vs0mg"},{"bike_id":"bbe4c5f5-ff83-40ae-8615-ca0fe4d73e68","system_id":"levelo_inurba_marseille","lat":43.33025,"lon":5.39034,"is_reserved":false,"is_disabled":false,"rental_uris":{"android":"levelo://app?vid=bbe4c5f5-ff83-40ae-8615-ca0fe4d73e68","ios":"levelo://app?vid=bbe4c5f5-ff83-40ae-8615-ca0fe4d73e68"},"vehicle_type_id":"4","last_reported":1717531685,"current_range_meters":6800,"station_id":"ce4bhr92rcd13ifvqhrg","pricing_plan_id":"cebpf4jnsgd1na2vs0mg"},{"bike_id":"dce62d08-aec7-4ef9-9fc1-b99ec4487b86","system_id":"levelo_inurba_marseille","lat":43.33025,"lon":5.39035,"is_reserved":false,"is_disabled":false,"rental_uris":{"android":"levelo://app?vid=dce62d08-aec7-4ef9-9fc1-b99ec4487b86","ios":"levelo://app?vid=dce62d08-aec7-4ef9-9fc1-b99ec4487b86"},"vehicle_type_id":"4","last_reported":1717531685,"current_range_meters":0,"station_id":"ce4bhr92rcd13ifvqhrg","pricing_plan_id":"cebpf4jnsgd1na2vs0mg"},{"bike_id":"c60aee77-e9a6-4bc7-bea1-a813c6eb207f","system_id":"levelo_inurba_marseille","lat":43.33023,"lon":5.39039,"is_reserved":false,"is_disabled":false,"rental_uris":{"android":"levelo://app?vid=c60aee77-e9a6-4bc7-bea1-a813c6eb207f","ios":"levelo://app?vid=c60aee77-e9a6-4bc7-bea1-a813c6eb207f"},"vehicle_type_id":"4","last_reported":1717531685,"current_range_meters":5200,"station_id":"ce4bhr92rcd13ifvqhrg","pricing_plan_id":"cebpf4jnsgd1na2vs0mg"},{"bike_id":"4775a8d1-0d5a-49df-b41a-7b403726af33","system_id":"levelo_inurba_marseille","lat":43.33027,"lon":5.39034,"is_reserved":false,"is_disabled":false,"rental_uris":{"android":"levelo://app?vid=4775a8d1-0d5a-49df-b41a-7b403726af33","ios":"levelo://app?vid=4775a8d1-0d5a-49df-b41a-7b403726af33"},"vehicle_type_id":"4","last_reported":1717531685,"current_range_meters":17200,"station_id":"ce4bhr92rcd13ifvqhrg","pricing_plan_id":"cebpf4jnsgd1na2vs0mg"},{"bike_id":"73c3779c-fe69-4827-b866-ff06be227dbf","system_id":"levelo_inurba_marseille","lat":43.33025,"lon":5.39038,"is_reserved":false,"is_disabled":false,"rental_uris":{"android":"levelo://app?vid=73c3779c-fe69-4827-b866-ff06be227dbf","ios":"levelo://app?vid=73c3779c-fe69-4827-b866-ff06be227dbf"},"vehicle_type_id":"4","last_reported":1717531685,"current_range_meters":0,"station_id":"ce4bhr92rcd13ifvqhrg","pricing_plan_id":"cebpf4jnsgd1na2vs0mg"},{"bike_id":"0beb7888-2e89-4ef9-8a87-b39fbfa2c062","system_id":"levelo_inurba_marseille","lat":43.330268,"lon":5.390381,"is_reserved":false,"is_disabled":false,"rental_uris":{"android":"levelo://app?vid=0beb7888-2e89-4ef9-8a87-b39fbfa2c062","ios":"levelo://app?vid=0beb7888-2e89-4ef9-8a87-b39fbfa2c062"},"vehicle_type_id":"4","last_reported":1717531685,"current_range_meters":12000,"station_id":"ce4bhr92rcd13ifvqhrg","pricing_plan_id":"cebpf4jnsgd1na2vs0mg"},{"bike_id":"52082711-f349-40c9-8350-827066808b06","system_id":"levelo_inurba_marseille","lat":43.330246,"lon":5.390441,"is_reserved":false,"is_disabled":false,"rental_uris":{"android":"levelo://app?vid=52082711-f349-40c9-8350-827066808b06","ios":"levelo://app?vid=52082711-f349-40c9-8350-827066808b06"},"vehicle_type_id":"4","last_reported":1717531685,"current_range_meters":15600,"station_id":"ce4bhr92rcd13ifvqhrg","pricing_plan_id":"cebpf4jnsgd1na2vs0mg"},{"bike_id":"3c89943f-109d-469c-b53a-a61212ff7a9d","system_id":"levelo_inurba_marseille","lat":43.33028,"lon":5.39041,"is_reserved":false,"is_disabled":false,"rental_uris":{"android":"levelo://app?vid=3c89943f-109d-469c-b53a-a61212ff7a9d","ios":"levelo://app?vid=3c89943f-109d-469c-b53a-a61212ff7a9d"},"vehicle_type_id":"4","last_reported":1717531685,"current_range_meters":400,"station_id":"ce4bhr92rcd13ifvqhrg","pricing_plan_id":"cebpf4jnsgd1na2vs0mg"},{"bike_id":"dc37b1be-67b7-4423-ba4f-52260a48674f","system_id":"levelo_inurba_marseille","lat":43.330276,"lon":5.390416,"is_reserved":false,"is_disabled":false,"rental_uris":{"android":"levelo://app?vid=dc37b1be-67b7-4423-ba4f-52260a48674f","ios":"levelo://app?vid=dc37b1be-67b7-4423-ba4f-52260a48674f"},"vehicle_type_id":"4","last_reported":1717531685,"current_range_meters":12400,"station_id":"ce4bhr92rcd13ifvqhrg","pricing_plan_id":"cebpf4jnsgd1na2vs0mg"},{"bike_id":"200758cc-a980-439e-9a29-a167aae7a4a0","system_id":"levelo_inurba_marseille","lat":43.330276,"lon":5.390418,"is_reserved":false,"is_disabled":false,"rental_uris":{"android":"levelo://app?vid=200758cc-a980-439e-9a29-a167aae7a4a0","ios":"levelo://app?vid=200758cc-a980-439e-9a29-a167aae7a4a0"},"vehicle_type_id":"4","last_reported":1717531685,"current_range_meters":24400,"station_id":"ce4bhr92rcd13ifvqhrg","pricing_plan_id":"cebpf4jnsgd1na2vs0mg"},{"bike_id":"47c7927e-81e4-453b-8eed-6b52232ec34c","system_id":"levelo_inurba_marseille","lat":43.330279,"lon":5.390422,"is_reserved":false,"is_disabled":false,"rental_uris":{"android":"levelo://app?vid=47c7927e-81e4-453b-8eed-6b52232ec34c","ios":"levelo://app?vid=47c7927e-81e4-453b-8eed-6b52232ec34c"},"vehicle_type_id":"4","last_reported":1717531685,"current_range_meters":31200,"station_id":"ce4bhr92rcd13ifvqhrg","pricing_plan_id":"cebpf4jnsgd1na2vs0mg"},{"bike_id":"6ea25449-2305-4161-9a48-52a8290c60f2","system_id":"levelo_inurba_marseille","lat":43.33026,"lon":5.39045,"is_reserved":false,"is_disabled":false,"rental_uris":{"android":"levelo://app?vid=6ea25449-2305-4161-9a48-52a8290c60f2","ios":"levelo://app?vid=6ea25449-2305-4161-9a48-52a8290c60f2"},"vehicle_type_id":"4","last_reported":1717531685,"current_range_meters":22400,"station_id":"ce4bhr92rcd13ifvqhrg","pricing_plan_id":"cebpf4jnsgd1na2vs0mg"},{"bike_id":"432be8f4-55ba-4d86-a225-4decc56f8bc3","system_id":"levelo_inurba_marseille","lat":43.290094,"lon":5.381264,"is_reserved":false,"is_disabled":false,"rental_uris":{"android":"levelo://app?vid=432be8f4-55ba-4d86-a225-4decc56f8bc3","ios":"levelo://app?vid=432be8f4-55ba-4d86-a225-4decc56f8bc3"},"vehicle_type_id":"4","last_reported":1717531685,"current_range_meters":5600,"station_id":"ce4bh4p2rcd13ifvqe1g","pricing_plan_id":"cebpf4jnsgd1na2vs0mg"},{"bike_id":"bc11ef98-3aa9-45d9-9122-157b2834084c","system_id":"levelo_inurba_marseille","lat":43.290094,"lon":5.381264,"is_reserved":false,"is_disabled":false,"rental_uris":{"android":"levelo://app?vid=bc11ef98-3aa9-45d9-9122-157b2834084c","ios":"levelo://app?vid=bc11ef98-3aa9-45d9-9122-157b2834084c"},"vehicle_type_id":"4","last_reported":1717531685,"current_range_meters":1200,"station_id":"ce4bh4p2rcd13ifvqe1g","pricing_plan_id":"cebpf4jnsgd1na2vs0mg"},{"bike_id":"3adca960-3646-40aa-964a-796d4b532f71","system_id":"levelo_inurba_marseille","lat":43.28857,"lon":5.3584,"is_reserved":false,"is_disabled":false,"rental_uris":{"android":"levelo://app?vid=3adca960-3646-40aa-964a-796d4b532f71","ios":"levelo://app?vid=3adca960-3646-40aa-964a-796d4b532f71"},"vehicle_type_id":"4","last_reported":1717531685,"current_range_meters":0,"station_id":"ce4bhb12rcd13ifvqem0","pricing_plan_id":"cebpf4jnsgd1na2vs0mg"},{"bike_id":"70fabdb0-64f5-49dd-a4d1-5d4ff39eba27","system_id":"levelo_inurba_marseille","lat":43.288547,"lon":5.35847,"is_reserved":false,"is_disabled":false,"rental_uris":{"android":"levelo://app?vid=70fabdb0-64f5-49dd-a4d1-5d4ff39eba27","ios":"levelo://app?vid=70fabdb0-64f5-49dd-a4d1-5d4ff39eba27"},"vehicle_type_id":"4","last_reported":1717531685,"current_range_meters":0,"station_id":"ce4bhb12rcd13ifvqem0","pricing_plan_id":"cebpf4jnsgd1na2vs0mg"},{"bike_id":"1ca58b8c-253a-4c81-8b19-b92ed60575c4","system_id":"levelo_inurba_marseille","lat":43.28853,"lon":5.35843,"is_reserved":false,"is_disabled":false,"rental_uris":{"android":"levelo://app?vid=1ca58b8c-253a-4c81-8b19-b92ed60575c4","ios":"levelo://app?vid=1ca58b8c-253a-4c81-8b19-b92ed60575c4"},"vehicle_type_id":"4","last_reported":1717531685,"current_range_meters":0,"station_id":"ce4bhb12rcd13ifvqem0","pricing_plan_id":"cebpf4jnsgd1na2vs0mg"},{"bike_id":"63c69da3-78bf-4c1b-b6a4-548fde49100a","system_id":"levelo_inurba_marseille","lat":43.28856,"lon":5.358371,"is_reserved":false,"is_disabled":false,"rental_uris":{"android":"levelo://app?vid=63c69da3-78bf-4c1b-b6a4-548fde49100a","ios":"levelo://app?vid=63c69da3-78bf-4c1b-b6a4-548fde49100a"},"vehicle_type_id":"4","last_reported":1717531685,"current_range_meters":22400,"station_id":"ce4bhb12rcd13ifvqem0","pricing_plan_id":"cebpf4jnsgd1na2vs0mg"},{"bike_id":"ab521a06-8d29-4188-8b06-2ac6c642269b","system_id":"levelo_inurba_marseille","lat":43.29179,"lon":5.386038,"is_reserved":false,"is_disabled":false,"rental_uris":{"android":"levelo://app?vid=ab521a06-8d29-4188-8b06-2ac6c642269b","ios":"levelo://app?vid=ab521a06-8d29-4188-8b06-2ac6c642269b"},"vehicle_type_id":"4","last_reported":1717531685,"current_range_meters":14000,"station_id":"","pricing_plan_id":"cebpf4jnsgd1na2vs0mg"},{"bike_id":"2fcd933c-183d-4d5e-81fb-36aea8f65f6b","system_id":"levelo_inurba_marseille","lat":43.309371,"lon":5.401449,"is_reserved":false,"is_disabled":false,"rental_uris":{"android":"levelo://app?vid=2fcd933c-183d-4d5e-81fb-36aea8f65f6b","ios":"levelo://app?vid=2fcd933c-183d-4d5e-81fb-36aea8f65f6b"},