{"last_updated":1687388809,"ttl":30,"version":"2.2","data":{"bikes":[{"bike_id":"a7fea84f-ca92-49fa-88ce-63deab91c97a","system_id":"levelo_inurba_marseille","lat":43.312239,"lon":5.368562,"is_reserved":false,"is_disabled":false,"rental_uris":{"android":"levelo://app?vid=a7fea84f-ca92-49fa-88ce-63deab91c97a","ios":"levelo://app?vid=a7fea84f-ca92-49fa-88ce-63deab91c97a"},"vehicle_type_id":"4","last_reported":1687388810,"current_range_meters":18400,"station_id":"ce4bgl92rcd13ifvqbq0","pricing_plan_id":"free"},{"bike_id":"6e4fd040-1866-4783-872c-dd21a7ae18af","system_id":"levelo_inurba_marseille","lat":43.31347,"lon":5.37066,"is_reserved":false,"is_disabled":false,"rental_uris":{"android":"levelo://app?vid=6e4fd040-1866-4783-872c-dd21a7ae18af","ios":"levelo://app?vid=6e4fd040-1866-4783-872c-dd21a7ae18af"},"vehicle_type_id":"4","last_reported":1687388810,"current_range_meters":7200,"station_id":"","pricing_plan_id":"free"},{"bike_id":"8b6b7365-f04a-4f95-9fe5-9e47eabd8966","system_id":"levelo_inurba_marseille","lat":43.314811,"lon":5.373103,"is_reserved":false,"is_disabled":false,"rental_uris":{"android":"levelo://app?vid=8b6b7365-f04a-4f95-9fe5-9e47eabd8966","ios":"levelo://app?vid=8b6b7365-f04a-4f95-9fe5-9e47eabd8966"},"vehicle_type_id":"4","last_reported":1687388810,"current_range_meters":22800,"station_id":"ce4bgt12rcd13ifvqcd0","pricing_plan_id":"free"},{"bike_id":"f9bdecb1-4f6a-4fe8-b1ea-b4a58ee37053","system_id":"levelo_inurba_marseille","lat":43.314811,"lon":5.373103,"is_reserved":false,"is_disabled":false,"rental_uris":{"android":"levelo://app?vid=f9bdecb1-4f6a-4fe8-b1ea-b4a58ee37053","ios":"levelo://app?vid=f9bdecb1-4f6a-4fe8-b1ea-b4a58ee37053"},"vehicle_type_id":"4","last_reported":1687388810,"current_range_meters":4800,"station_id":"ce4bgt12rcd13ifvqcd0","pricing_plan_id":"free"},{"bike_id":"9439e32d-17a0-405f-9c12-2b96c82db2b8","system_id":"levelo_inurba_marseille","lat":43.314811,"lon":5.373103,"is_reserved":false,"is_disabled":false,"rental_uris":{"android":"levelo://app?vid=9439e32d-17a0-405f-9c12-2b96c82db2b8","ios":"levelo://app?vid=9439e32d-17a0-405f-9c12-2b96c82db2b8"},"vehicle_type_id":"4","last_reported":1687388810,"current_range_meters":3600,"station_id":"ce4bgt12rcd13ifvqcd0","pricing_plan_id":"free"},{"bike_id":"4293bfd0-3830-4c48-a081-1e8ce9757842","system_id":"levelo_inurba_marseille","lat":43.314811,"lon":5.373104,"is_reserved":false,"is_disabled":false,"rental_uris":{"android":"levelo://app?vid=4293bfd0-3830-4c48-a081-1e8ce9757842","ios":"levelo://app?vid=4293bfd0-3830-4c48-a081-1e8ce9757842"},"vehicle_type_id":"4","last_reported":1687388810,"current_range_meters":12400,"station_id":"ce4bgt12rcd13ifvqcd0","pricing_plan_id":"free"},{"bike_id":"673dd127-77cb-43ef-9051-5bb5ea2b3a11","system_id":"levelo_inurba_marseille","lat":43.308614,"lon":5.372098,"is_reserved":false,"is_disabled":false,"rental_uris":{"android":"levelo://app?vid=673dd127-77cb-43ef-9051-5bb5ea2b3a11","ios":"levelo://app?vid=673dd127-77cb-43ef-9051-5bb5ea2b3a11"},"vehicle_type_id":"4","last_reported":1687388810,"current_range_meters":4800,"station_id":"ce4bguh2rcd13ifvqckg","pricing_plan_id":"free"},{"bike_id":"2b43fa27-a724-44b1-81c9-df8d97158ccd","system_id":"levelo_inurba_marseille","lat":43.308606,"lon":5.372099,"is_reserved":false,"is_disabled":false,"rental_uris":{"android":"levelo://app?vid=2b43fa27-a724-44b1-81c9-df8d97158ccd","ios":"levelo://app?vid=2b43fa27-a724-44b1-81c9-df8d97158ccd"},"vehicle_type_id":"4","last_reported":1687388810,"current_range_meters":30000,"station_id":"ce4bguh2rcd13ifvqckg","pricing_plan_id":"free"},{"bike_id":"f622d28b-7733-44d9-98dc-8ae3642d7eac","system_id":"levelo_inurba_marseille","lat":43.308614,"lon":5.372098,"is_reserved":false,"is_disabled":false,"rental_uris":{"android":"levelo://app?vid=f622d28b-7733-44d9-98dc-8ae3642d7eac","ios":"levelo://app?vid=f622d28b-7733-44d9-98dc-8ae3642d7eac"},"vehicle_type_id":"4","last_reported":1687388810,"current_range_meters":26800,"station_id":"ce4bguh2rcd13ifvqckg","pricing_plan_id":"free"},{"bike_id":"f548d716-5132-4478-8feb-21bb1fc3e9d9","system_id":"levelo_inurba_marseille","lat":43.308614,"lon":5.372098,"is_reserved":false,"is_disabled":false,"rental_uris":{"android":"levelo://app?vid=f548d716-5132-4478-8feb-21bb1fc3e9d9","ios":"levelo://app?vid=f548d716-5132-4478-8feb-21bb1fc3e9d9"},"vehicle_type_id":"4","last_reported":1687388810,"current_range_meters":2800,"station_id":"ce4bguh2rcd13ifvqckg","pricing_plan_id":"free"},{"bike_id":"11bfd3fe-e149-45d7-8fab-b36fe62e4e06","system_id":"levelo_inurba_marseille","lat":43.30808,"lon":5.37343,"is_reserved":false,"is_disabled":false,"rental_uris":{"android":"levelo://app?vid=11bfd3fe-e149-45d7-8fab-b36fe62e4e06","ios":"levelo://app?vid=11bfd3fe-e149-45d7-8fab-b36fe62e4e06"},"vehicle_type_id":"4","last_reported":1687388810,"current_range_meters":26000,"station_id":"","pricing_plan_id":"free"},{"bike_id":"d472828b-57db-4698-9cdc-2cb3b83f18b0","system_id":"levelo_inurba_marseille","lat":43.3031,"lon":5.36907,"is_reserved":false,"is_disabled":false,"rental_uris":{"android":"levelo://app?vid=d472828b-57db-4698-9cdc-2cb3b83f18b0","ios":"levelo://app?vid=d472828b-57db-4698-9cdc-2cb3b83f18b0"},"vehicle_type_id":"4","last_reported":1687388810,"current_range_meters":19200,"station_id":"ce4bgqh2rcd13ifvqc5g","pricing_plan_id":"free"},{"bike_id":"9401679d-9d64-4719-bf3c-b3071e6afbfe","system_id":"levelo_inurba_marseille","lat":43.31532,"lon":5.38016,"is_reserved":false,"is_disabled":false,"rental_uris":{"android":"levelo://app?vid=9401679d-9d64-4719-bf3c-b3071e6afbfe","ios":"levelo://app?vid=9401679d-9d64-4719-bf3c-b3071e6afbfe"},"vehicle_type_id":"4","last_reported":1687388810,"current_range_meters":0,"station_id":"ce4bhsp2rcd13ifvqi50","pricing_plan_id":"free"},{"bike_id":"1bb20b8c-d5e4-4bf2-82ac-59ffb2d2a6af","system_id":"levelo_inurba_marseille","lat":43.315293,"lon":5.380349,"is_reserved":false,"is_disabled":false,"rental_uris":{"android":"levelo://app?vid=1bb20b8c-d5e4-4bf2-82ac-59ffb2d2a6af","ios":"levelo://app?vid=1bb20b8c-d5e4-4bf2-82ac-59ffb2d2a6af"},"vehicle_type_id":"4","last_reported":1687388810,"current_range_meters":0,"station_id":"ce4bhsp2rcd13ifvqi50","pricing_plan_id":"free"},{"bike_id":"ca981b2e-87c6-4b7d-a256-561f1d5448dd","system_id":"levelo_inurba_marseille","lat":43.301939,"lon":5.366286,"is_reserved":false,"is_disabled":false,"rental_uris":{"android":"levelo://app?vid=ca981b2e-87c6-4b7d-a256-561f1d5448dd","ios":"levelo://app?vid=ca981b2e-87c6-4b7d-a256-561f1d5448dd"},"vehicle_type_id":"4","last_reported":1687388810,"current_range_meters":0,"station_id":"ce4bgrh2rcd13ifvqc8g","pricing_plan_id":"free"},{"bike_id":"0e20d9ad-7d85-4494-b993-8363b0210243","system_id":"levelo_inurba_marseille","lat":43.308012,"lon":5.381511,"is_reserved":false,"is_disabled":false,"rental_uris":{"android":"levelo://app?vid=0e20d9ad-7d85-4494-b993-8363b0210243","ios":"levelo://app?vid=0e20d9ad-7d85-4494-b993-8363b0210243"},"vehicle_type_id":"4","last_reported":1687388810,"current_range_meters":17600,"station_id":"ce4bgt12rcd13ifvqce0","pricing_plan_id":"free"},{"bike_id":"ae33307b-fcd5-479b-9ae1-9002ed226c6e","system_id":"levelo_inurba_marseille","lat":43.308012,"lon":5.381511,"is_reserved":false,"is_disabled":false,"rental_uris":{"android":"levelo://app?vid=ae33307b-fcd5-479b-9ae1-9002ed226c6e","ios":"levelo://app?vid=ae33307b-fcd5-479b-9ae1-9002ed226c6e"},"vehicle_type_id":"4","last_reported":1687388810,"current_range_meters":14400,"station_id":"ce4bgt12rcd13ifvqce0","pricing_plan_id":"free"},{"bike_id":"7943af7e-6aa5-4eb0-843d-0f82af8c1e42","system_id":"levelo_inurba_marseille","lat":43.308012,"lon":5.381511,"is_reserved":false,"is_disabled":false,"rental_uris":{"android":"levelo://app?vid=7943af7e-6aa5-4eb0-843d-0f82af8c1e42","ios":"levelo://app?vid=7943af7e-6aa5-4eb0-843d-0f82af8c1e42"},"vehicle_type_id":"4","last_reported":1687388810,"current_range_meters":11600,"station_id":"ce4bgt12rcd13ifvqce0","pricing_plan_id":"free"},{"bike_id":"43fc693e-f2a9-4aec-8fd9-d094bb02cb70","system_id":"levelo_inurba_marseille","lat":43.304606,"lon":5.379026,"is_reserved":false,"is_disabled":false,"rental_uris":{"android":"levelo://app?vid=43fc693e-f2a9-4aec-8fd9-d094bb02cb70","ios":"levelo://app?vid=43fc693e-f2a9-4aec-8fd9-d094bb02cb70"},"vehicle_type_id":"4","last_reported":1687388810,"current_range_meters":4400,"station_id":"ce4bgup2rcd13ifvqcn0","pricing_plan_id":"free"},{"bike_id":"42bc24f9-1b28-470f-9e48-4446fd83da54","system_id":"levelo_inurba_marseille","lat":43.319935,"lon":5.381699,"is_reserved":false,"is_disabled":false,"rental_uris":{"android":"levelo://app?vid=42bc24f9-1b28-470f-9e48-4446fd83da54","ios":"levelo://app?vid=42bc24f9-1b28-470f-9e48-4446fd83da54"},"vehicle_type_id":"4","last_reported":1687388810,"current_range_meters":20400,"station_id":"ce4bhr12rcd13ifvqhpg","pricing_plan_id":"free"},{"bike_id":"9897c35b-7836-478b-a00b-fe1cf7b562c4","system_id":"levelo_inurba_marseille","lat":43.298433,"lon":5.362774,"is_reserved":false,"is_disabled":false,"rental_uris":{"android":"levelo://app?vid=9897c35b-7836-478b-a00b-fe1cf7b562c4","ios":"levelo://app?vid=9897c35b-7836-478b-a00b-fe1cf7b562c4"},"vehicle_type_id":"4","last_reported":1687388810,"current_range_meters":26000,"station_id":"ce4bgpp2rcd13ifvqc3g","pricing_plan_id":"free"},{"bike_id":"7247f31d-2fef-43fa-90cd-0dbcc3c42d8e","system_id":"levelo_inurba_marseille","lat":43.305364,"lon":5.384119,"is_reserved":false,"is_disabled":false,"rental_uris":{"android":"levelo://app?vid=7247f31d-2fef-43fa-90cd-0dbcc3c42d8e","ios":"levelo://app?vid=7247f31d-2fef-43fa-90cd-0dbcc3c42d8e"},"vehicle_type_id":"4","last_reported":1687388810,"current_range_meters":24000,"station_id":"ce4bgg92rcd13ifvqb30","pricing_plan_id":"free"},{"bike_id":"90de20a0-8893-4cc3-8221-3b281c5de1c0","system_id":"levelo_inurba_marseille","lat":43.299243,"lon":5.374807,"is_reserved":false,"is_disabled":false,"rental_uris":{"android":"levelo://app?vid=90de20a0-8893-4cc3-8221-3b281c5de1c0","ios":"levelo://app?vid=90de20a0-8893-4cc3-8221-3b281c5de1c0"},"vehicle_type_id":"4","last_reported":1687388810,"current_range_meters":23200,"station_id":"ce4bgjh2rcd13ifvqbg0","pricing_plan_id":"free"},{"bike_id":"a74fd40c-3491-43b2-9922-cced8b6bbeba","system_id":"levelo_inurba_marseille","lat":43.311722,"lon":5.387247,"is_reserved":false,"is_disabled":false,"rental_uris":{"android":"levelo://app?vid=a74fd40c-3491-43b2-9922-cced8b6bbeba","ios":"levelo://app?vid=a74fd40c-3491-43b2-9922-cced8b6bbeba"},"vehicle_type_id":"4","last_reported":1687388810,"current_range_meters":8000,"station_id":"ce4bgv12rcd13ifvqcp0","pricing_plan_id":"free"},{"bike_id":"c61c7dec-0ab0-441b-8d64-0933761ec167","system_id":"levelo_inurba_marseille","lat":43.311722,"lon":5.387247,"is_reserved":false,"is_disabled":false,"rental_uris":{"android":"levelo://app?vid=c61c7dec-0ab0-441b-8d64-0933761ec167","ios":"levelo://app?vid=c61c7dec-0ab0-441b-8d64-0933761ec167"},"vehicle_type_id":"4","last_reported":1687388810,"current_range_meters":2000,"station_id":"ce4bgv12rcd13ifvqcp0","pricing_plan_id":"free"},{"bike_id":"fcd6611f-e545-4435-b87c-77802ce0523c","system_id":"levelo_inurba_marseille","lat":43.311722,"lon":5.387247,"is_reserved":false,"is_disabled":false,"rental_uris":{"android":"levelo://app?vid=fcd6611f-e545-4435-b87c-77802ce0523c","ios":"levelo://app?vid=fcd6611f-e545-4435-b87c-77802ce0523c"},"vehicle_type_id":"4","last_reported":1687388810,"current_range_meters":12000,"station_id":"ce4bgv12rcd13ifvqcp0","pricing_plan_id":"free"},{"bike_id":"fe37723c-ec18-4c30-93e3-dc846491557f","system_id":"levelo_inurba_marseille","lat":43.311722,"lon":5.387247,"is_reserved":false,"is_disabled":false,"rental_uris":{"android":"levelo://app?vid=fe37723c-ec18-4c30-93e3-dc846491557f","ios":"levelo://app?vid=fe37723c-ec18-4c30-93e3-dc846491557f"},"vehicle_type_id":"4","last_reported":1687388810,"current_range_meters":13200,"station_id":"ce4bgv12rcd13ifvqcp0","pricing_plan_id":"free"},{"bike_id":"43db1591-9191-4c23-828f-3ac332c46295","system_id":"levelo_inurba_marseille","lat":43.311722,"lon":5.387247,"is_reserved":false,"is_disabled":false,"rental_uris":{"android":"levelo://app?vid=43db1591-9191-4c23-828f-3ac332c46295","ios":"levelo://app?vid=43db1591-9191-4c23-828f-3ac332c46295"},"vehicle_type_id":"4","last_reported":1687388810,"current_range_meters":12400,"station_id":"ce4bgv12rcd13ifvqcp0","pricing_plan_id":"free"},{"bike_id":"d291654d-3fb4-4bde-bf41-60fa6aee0bf6","system_id":"levelo_inurba_marseille","lat":43.311722,"lon":5.387247,"is_reserved":false,"is_disabled":false,"rental_uris":{"android":"levelo://app?vid=d291654d-3fb4-4bde-bf41-60fa6aee0bf6","ios":"levelo://app?vid=d291654d-3fb4-4bde-bf41-60fa6aee0bf6"},"vehicle_type_id":"4","last_reported":1687388810,"current_range_meters":8000,"station_id":"ce4bgv12rcd13ifvqcp0","pricing_plan_id":"free"},{"bike_id":"e6ea61d5-da20-4ad2-b344-94c2975133fa","system_id":"levelo_inurba_marseille","lat":43.32274,"lon":5.38208,"is_reserved":false,"is_disabled":false,"rental_uris":{"android":"levelo://app?vid=e6ea61d5-da20-4ad2-b344-94c2975133fa","ios":"levelo://app?vid=e6ea61d5-da20-4ad2-b344-94c2975133fa"},"vehicle_type_id":"4","last_reported":1687388810,"current_range_meters":4800,"station_id":"","pricing_plan_id":"free"},{"bike_id":"ea372316-1322-4cab-adc8-27d2521d039c","system_id":"levelo_inurba_marseille","lat":43.32763,"lon":5.36706,"is_reserved":false,"is_disabled":false,"rental_uris":{"android":"levelo://app?vid=ea372316-1322-4cab-adc8-27d2521d039c","ios":"levelo://app?vid=ea372316-1322-4cab-adc8-27d2521d039c"},"vehicle_type_id":"4","last_reported":1687388810,"current_range_meters":24800,"station_id":"","pricing_plan_id":"free"},{"bike_id":"c3339efb-c603-45cb-8da9-01d5c529aca8","system_id":"levelo_inurba_marseille","lat":43.32353,"lon":5.3819,"is_reserved":false,"is_disabled":false,"rental_uris":{"android":"levelo://app?vid=c3339efb-c603-45cb-8da9-01d5c529aca8","ios":"levelo://app?vid=c3339efb-c603-45cb-8da9-01d5c529aca8"},"vehicle_type_id":"4","last_reported":1687388810,"current_range_meters":18400,"station_id":"","pricing_plan_id":"free"},{"bike_id":"fd53ee84-24b3-4ec6-b22a-b4cac25a1233","system_id":"levelo_inurba_marseille","lat":43.328371,"lon":5.366909,"is_reserved":false,"is_disabled":false,"rental_uris":{"android":"levelo://app?vid=fd53ee84-24b3-4ec6-b22a-b4cac25a1233","ios":"levelo://app?vid=fd53ee84-24b3-4ec6-b22a-b4cac25a1233"},"vehicle_type_id":"4","last_reported":1687388810,"current_range_meters":0,"station_id":"ce4bhs92rcd13ifvqi0g","pricing_plan_id":"free"},{"bike_id":"176f4894-d7fc-460e-aa5d-7c8c1e206dc3","system_id":"levelo_inurba_marseille","lat":43.29699,"lon":5.36603,"is_reserved":false,"is_disabled":false,"rental_uris":{"android":"levelo://app?vid=176f4894-d7fc-460e-aa5d-7c8c1e206dc3","ios":"levelo://app?vid=176f4894-d7fc-460e-aa5d-7c8c1e206dc3"},"vehicle_type_id":"4","last_reported":1687388810,"current_range_meters":17200,"station_id":"ce4bgn12rcd13ifvqbt0","pricing_plan_id":"free"},{"bike_id":"8ccf8633-e169-4f8a-811c-c36ef9fef4bb","system_id":"levelo_inurba_marseille","lat":43.29573,"lon":5.367355,"is_reserved":false,"is_disabled":false,"rental_uris":{"android":"levelo://app?vid=8ccf8633-e169-4f8a-811c-c36ef9fef4bb","ios":"levelo://app?vid=8ccf8633-e169-4f8a-811c-c36ef9fef4bb"},"vehicle_type_id":"4","last_reported":1687388810,"current_range_meters":30000,"station_id":"ce4bgph2rcd13ifvqc2g","pricing_plan_id":"free"},{"bike_id":"24f41ca5-b432-4feb-a0c8-a15026b97306","system_id":"levelo_inurba_marseille","lat":43.296131,"lon":5.370773,"is_reserved":false,"is_disabled":false,"rental_uris":{"android":"levelo://app?vid=24f41ca5-b432-4feb-a0c8-a15026b97306","ios":"levelo://app?vid=24f41ca5-b432-4feb-a0c8-a15026b97306"},"vehicle_type_id":"4","last_reported":1687388810,"current_range_meters":0,"station_id":"ce4bgnh2rcd13ifvqc0g","pricing_plan_id":"free"},{"bike_id":"0b001132-d5b7-4838-b141-f10307dd1a49","system_id":"levelo_inurba_marseille","lat":43.30951,"lon":5.39016,"is_reserved":false,"is_disabled":false,"rental_uris":{"android":"levelo://app?vid=0b001132-d5b7-4838-b141-f10307dd1a49","ios":"levelo://app?vid=0b001132-d5b7-4838-b141-f10307dd1a49"},"vehicle_type_id":"4","last_reported":1687388810,"current_range_meters":2800,"station_id":"ce4bgup2rcd13ifvqco0","pricing_plan_id":"free"},{"bike_id":"5e45b494-23e7-4281-8516-dbac5bc32675","system_id":"levelo_inurba_marseille","lat":43.3096,"lon":5.39026,"is_reserved":false,"is_disabled":false,"rental_uris":{"android":"levelo://app?vid=5e45b494-23e7-4281-8516-dbac5bc32675","ios":"levelo://app?vid=5e45b494-23e7-4281-8516-dbac5bc32675"},"vehicle_type_id":"4","last_reported":1687388810,"current_range_meters":8400,"station_id":"ce4bgup2rcd13ifvqco0","pricing_plan_id":"free"},{"bike_id":"041bc147-ef2f-419b-bb81-deca3bdf89e2","system_id":"levelo_inurba_marseille","lat":43.29611,"lon":5.36046,"is_reserved":false,"is_disabled":false,"rental_uris":{"android":"levelo://app?vid=041bc147-ef2f-419b-bb81-deca3bdf89e2","ios":"levelo://app?vid=041bc147-ef2f-419b-bb81-deca3bdf89e2"},"vehicle_type_id":"4","last_reported":1687388810,"current_range_meters":16800,"station_id":"","pricing_plan_id":"free"},{"bike_id":"16e5fedd-6e86-436a-a0a2-72c7cd60a6ea","system_id":"levelo_inurba_marseille","lat":43.317557,"lon":5.390173,"is_reserved":false,"is_disabled":false,"rental_uris":{"android":"levelo://app?vid=16e5fedd-6e86-436a-a0a2-72c7cd60a6ea","ios":"levelo://app?vid=16e5fedd-6e86-436a-a0a2-72c7cd60a6ea"},"vehicle_type_id":"4","last_reported":1687388810,"current_range_meters":31200,"station_id":"ce4bhqp2rcd13ifvqhng","pricing_plan_id":"free"},{"bike_id":"246d16ee-9ea5-4dcb-9f30-988ab272e4f0","system_id":"levelo_inurba_marseille","lat":43.317557,"lon":5.390173,"is_reserved":false,"is_disabled":false,"rental_uris":{"android":"levelo://app?vid=246d16ee-9ea5-4dcb-9f30-988ab272e4f0","ios":"levelo://app?vid=246d16ee-9ea5-4dcb-9f30-988ab272e4f0"},"vehicle_type_id":"4","last_reported":1687388810,"current_range_meters":2000,"station_id":"ce4bhqp2rcd13ifvqhng","pricing_plan_id":"free"},{"bike_id":"08825aa8-51a8-4d96-94bf-a64b9ffa0b57","system_id":"levelo_inurba_marseille","lat":43.317557,"lon":5.390173,"is_reserved":false,"is_disabled":false,"rental_uris":{"android":"levelo://app?vid=08825aa8-51a8-4d96-94bf-a64b9ffa0b57","ios":"levelo://app?vid=08825aa8-51a8-4d96-94bf-a64b9ffa0b57"},"vehicle_type_id":"4","last_reported":1687388810,"current_range_meters":23200,"station_id":"ce4bhqp2rcd13ifvqhng","pricing_plan_id":"free"},{"bike_id":"8b9e3ba8-3a55-4cc5-9459-335ad26a44f2","system_id":"levelo_inurba_marseille","lat":43.317557,"lon":5.390173,"is_reserved":false,"is_disabled":false,"rental_uris":{"android":"levelo://app?vid=8b9e3ba8-3a55-4cc5-9459-335ad26a44f2","ios":"levelo://app?vid=8b9e3ba8-3a55-4cc5-9459-335ad26a44f2"},"vehicle_type_id":"4","last_reported":1687388810,"current_range_meters":30400,"station_id":"ce4bhqp2rcd13ifvqhng","pricing_plan_id":"free"},{"bike_id":"eb85464a-54c3-4a53-adf1-a25fe08d7c08","system_id":"levelo_inurba_marseille","lat":43.317557,"lon":5.390173,"is_reserved":false,"is_disabled":false,"rental_uris":{"android":"levelo://app?vid=eb85464a-54c3-4a53-adf1-a25fe08d7c08","ios":"levelo://app?vid=eb85464a-54c3-4a53-adf1-a25fe08d7c08"},"vehicle_type_id":"4","last_reported":1687388810,"current_range_meters":2400,"station_id":"ce4bhqp2rcd13ifvqhng","pricing_plan_id":"free"},{"bike_id":"d38c5de4-1b75-44fb-88b5-eb30bcdcd7d0","system_id":"levelo_inurba_marseille","lat":43.302008,"lon":5.394694,"is_reserved":false,"is_disabled":false,"rental_uris":{"android":"levelo://app?vid=d38c5de4-1b75-44fb-88b5-eb30bcdcd7d0","ios":"levelo://app?vid=d38c5de4-1b75-44fb-88b5-eb30bcdcd7d0"},"vehicle_type_id":"4","last_reported":1687388810,"current_range_meters":16800,"station_id":"ce4bh0p2rcd13ifvqd70","pricing_plan_id":"free"},{"bike_id":"d8a5fa92-e615-403e-b7cc-5bbd3d5d8ee9","system_id":"levelo_inurba_marseille","lat":43.311722,"lon":5.387247,"is_reserved":false,"is_disabled":false,"rental_uris":{"android":"levelo://app?vid=d8a5fa92-e615-403e-b7cc-5bbd3d5d8ee9","ios":"levelo://app?vid=d8a5fa92-e615-403e-b7cc-5bbd3d5d8ee9"},"vehicle_type_id":"4","last_reported":1687388810,"current_range_meters":16800,"station_id":"ce4bgv12rcd13ifvqcp0","pricing_plan_id":"free"},{"bike_id":"a80b1fe8-e794-455a-bfa3-88c346d6f12d","system_id":"levelo_inurba_marseille","lat":43.29714,"lon":5.38122,"is_reserved":false,"is_disabled":false,"rental_uris":{"android":"levelo://app?vid=a80b1fe8-e794-455a-bfa3-88c346d6f12d","ios":"levelo://app?vid=a80b1fe8-e794-455a-bfa3-88c346d6f12d"},"vehicle_type_id":"4","last_reported":1687388810,"current_range_meters":15200,"station_id":"","pricing_plan_id":"free"},{"bike_id":"3cd10ad7-a316-4ed6-a3d9-f31d3f3622ac","system_id":"levelo_inurba_marseille","lat":43.32367,"lon":5.388836,"is_reserved":false,"is_disabled":false,"rental_uris":{"android":"levelo://app?vid=3cd10ad7-a316-4ed6-a3d9-f31d3f3622ac","ios":"levelo://app?vid=3cd10ad7-a316-4ed6-a3d9-f31d3f3622ac"},"vehicle_type_id":"4","last_reported":1687388810,"current_range_meters":20800,"station_id":"ce4bhqp2rcd13ifvqhog","pricing_plan_id":"free"},{"bike_id":"e041460a-54ae-4871-ad9f-b6135e0ef88f","system_id":"levelo_inurba_marseille","lat":43.32367,"lon":5.388836,"is_reserved":false,"is_disabled":false,"rental_uris":{"android":"levelo://app?vid=e041460a-54ae-4871-ad9f-b6135e0ef88f","ios":"levelo://app?vid=e041460a-54ae-4871-ad9f-b6135e0ef88f"},"vehicle_type_id":"4","last_reported":1687388810,"current_range_meters":0,"station_id":"ce4bhqp2rcd13ifvqhog","pricing_plan_id":"free"},{"bike_id":"7ae0a70b-b34b-4619-b999-d91fc3badad9","system_id":"levelo_inurba_marseille","lat":43.32367,"lon":5.388836,"is_reserved":false,"is_disabled":false,"rental_uris":{"android":"levelo://app?vid=7ae0a70b-b34b-4619-b999-d91fc3badad9","ios":"levelo://app?vid=7ae0a70b-b34b-4619-b999-d91fc3badad9"},"vehicle_type_id":"4","last_reported":1687388810,"current_range_meters":22000,"station_id":"ce4bhqp2rcd13ifvqhog","pricing_plan_id":"free"},{"bike_id":"07e16fb3-d2a9-448f-a2bf-2b98a5617d56","system_id":"levelo_inurba_marseille","lat":43.32367,"lon":5.388836,"is_reserved":false,"is_disabled":false,"rental_uris":{"android":"levelo://app?vid=07e16fb3-d2a9-448f-a2bf-2b98a5617d56","ios":"levelo://app?vid=07e16fb3-d2a9-448f-a2bf-2b98a5617d56"},"vehicle_type_id":"4","last_reported":1687388810,"current_range_meters":19200,"station_id":"ce4bhqp2rcd13ifvqhog","pricing_plan_id":"free"},{"bike_id":"c3604234-a48c-408a-968a-d7396d834b5f","system_id":"levelo_inurba_marseille","lat":43.32367,"lon":5.388836,"is_reserved":false,"is_disabled":false,"rental_uris":{"android":"levelo://app?vid=c3604234-a48c-408a-968a-d7396d834b5f","ios":"levelo://app?vid=c3604234-a48c-408a-968a-d7396d834b5f"},"vehicle_type_id":"4","last_reported":1687388810,"current_range_meters":8400,"station_id":"ce4bhqp2rcd13ifvqhog","pricing_plan_id":"free"},{"bike_id":"e9a5f79a-69b5-4c7c-81b9-81e43f3bff7b","system_id":"levelo_inurba_marseille","lat":43.32367,"lon":5.388836,"is_reserved":false,"is_disabled":false,"rental_uris":{"android":"levelo://app?vid=e9a5f79a-69b5-4c7c-81b9-81e43f3bff7b","ios":"levelo://app?vid=e9a5f79a-69b5-4c7c-81b9-81e43f3bff7b"},"vehicle_type_id":"4","last_reported":1687388810,"current_range_meters":23600,"station_id":"ce4bhqp2rcd13ifvqhog","pricing_plan_id":"free"},{"bike_id":"9da04b77-8cbd-4ced-9933-390cc6bb4911","system_id":"levelo_inurba_marseille","lat":43.32367,"lon":5.388836,"is_reserved":false,"is_disabled":false,"rental_uris":{"android":"levelo://app?vid=9da04b77-8cbd-4ced-9933-390cc6bb4911","ios":"levelo://app?vid=9da04b77-8cbd-4ced-9933-390cc6bb4911"},"vehicle_type_id":"4","last_reported":1687388810,"current_range_meters":4400,"station_id":"ce4bhqp2rcd13ifvqhog","pricing_plan_id":"free"},{"bike_id":"2416699f-f4ca-4fd7-861f-2eb65620cbe4","system_id":"levelo_inurba_marseille","lat":43.32367,"lon":5.388836,"is_reserved":false,"is_disabled":false,"rental_uris":{"android":"levelo://app?vid=2416699f-f4ca-4fd7-861f-2eb65620cbe4","ios":"levelo://app?vid=2416699f-f4ca-4fd7-861f-2eb65620cbe4"},"vehicle_type_id":"4","last_reported":1687388810,"current_range_meters":22000,"station_id":"ce4bhqp2rcd13ifvqhog","pricing_plan_id":"free"},{"bike_id":"62e1e21f-3f88-43a4-83a5-bbb9f2a86bae","system_id":"levelo_inurba_marseille","lat":43.32367,"lon":5.388836,"is_reserved":false,"is_disabled":false,"rental_uris":{"android":"levelo://app?vid=62e1e21f-3f88-43a4-83a5-bbb9f2a86bae","ios":"levelo://app?vid=62e1e21f-3f88-43a4-83a5-bbb9f2a86bae"},"vehicle_type_id":"4","last_reported":1687388810,"current_range_meters":18800,"station_id":"ce4bhqp2rcd13ifvqhog","pricing_plan_id":"free"},{"bike_id":"e2b7a6cd-8949-47a1-939a-629c8de054df","system_id":"levelo_inurba_marseille","lat":43.29269,"lon":5.36838,"is_reserved":false,"is_disabled":false,"rental_uris":{"android":"levelo://app?vid=e2b7a6cd-8949-47a1-939a-629c8de054df","ios":"levelo://app?vid=e2b7a6cd-8949-47a1-939a-629c8de054df"},"vehicle_type_id":"4","last_reported":1687388810,"current_range_meters":31200,"station_id":"ce4bhbp2rcd13ifvqesg","pricing_plan_id":"free"},{"bike_id":"2c34d3ba-f711-42b0-97e4-d9bf0c7c52ce","system_id":"levelo_inurba_marseille","lat":43.292311,"lon":5.360731,"is_reserved":false,"is_disabled":false,"rental_uris":{"android":"levelo://app?vid=2c34d3ba-f711-42b0-97e4-d9bf0c7c52ce","ios":"levelo://app?vid=2c34d3ba-f711-42b0-97e4-d9bf0c7c52ce"},"vehicle_type_id":"4","last_reported":1687388810,"current_range_meters":0,"station_id":"ce4bhbh2rcd13ifvqeqg","pricing_plan_id":"free"},{"bike_id":"5b990c10-74c1-4fab-bf7b-31a7e30595e3","system_id":"levelo_inurba_marseille","lat":43.305994,"lon":5.393687,"is_reserved":false,"is_disabled":false,"rental_uris":{"android":"levelo://app?vid=5b990c10-74c1-4fab-bf7b-31a7e30595e3","ios":"levelo://app?vid=5b990c10-74c1-4fab-bf7b-31a7e30595e3"},"vehicle_type_id":"4","last_reported":1687388810,"current_range_meters":20400,"station_id":"ce4bh0p2rcd13ifvqd80","pricing_plan_id":"free"},{"bike_id":"66b480a6-9947-4496-98e2-93e61a3244b4","system_id":"levelo_inurba_marseille","lat":43.30385,"lon":5.39314,"is_reserved":false,"is_disabled":false,"rental_uris":{"android":"levelo://app?vid=66b480a6-9947-4496-98e2-93e61a3244b4","ios":"levelo://app?vid=66b480a6-9947-4496-98e2-93e61a3244b4"},"vehicle_type_id":"4","last_reported":1687388810,"current_range_meters":29600,"station_id":"","pricing_plan_id":"free"},{"bike_id":"d0233733-0df9-4566-bd1a-3cac1e0dcdcb","system_id":"levelo_inurba_marseille","lat":43.29267,"lon":5.37627,"is_reserved":false,"is_disabled":false,"rental_uris":{"android":"levelo://app?vid=d0233733-0df9-4566-bd1a-3cac1e0dcdcb","ios":"levelo://app?vid=d0233733-0df9-4566-bd1a-3cac1e0dcdcb"},"vehicle_type_id":"4","last_reported":1687388810,"current_range_meters":18400,"station_id":"ce4bgi12rcd13ifvqb80","pricing_plan_id":"free"},{"bike_id":"1842f4d5-a465-4c02-9901-329ad8433b18","system_id":"levelo_inurba_marseille","lat":43.309038,"lon":5.396546,"is_reserved":false,"is_disabled":false,"rental_uris":{"android":"levelo://app?vid=1842f4d5-a465-4c02-9901-329ad8433b18","ios":"levelo://app?vid=1842f4d5-a465-4c02-9901-329ad8433b18"},"vehicle_type_id":"4","last_reported":1687388810,"current_range_meters":29200,"station_id":"ce4bh012rcd13ifvqcv0","pricing_plan_id":"free"},{"bike_id":"319e7585-d7f2-4068-bc08-1126e7bfa104","system_id":"levelo_inurba_marseille","lat":43.30893,"lon":5.39634,"is_reserved":false,"is_disabled":false,"rental_uris":{"android":"levelo://app?vid=319e7585-d7f2-4068-bc08-1126e7bfa104","ios":"levelo://app?vid=319e7585-d7f2-4068-bc08-1126e7bfa104"},"vehicle_type_id":"4","last_reported":1687388810,"current_range_meters":16000,"station_id":"ce4bh012rcd13ifvqcv0","pricing_plan_id":"free"},{"bike_id":"068fc60f-4716-4cd0-afc2-556cc1723478","system_id":"levelo_inurba_marseille","lat":43.309038,"lon":5.396546,"is_reserved":false,"is_disabled":false,"rental_uris":{"android":"levelo://app?vid=068fc60f-4716-4cd0-afc2-556cc1723478","ios":"levelo://app?vid=068fc60f-4716-4cd0-afc2-556cc1723478"},"vehicle_type_id":"4","last_reported":1687388810,"current_range_meters":0,"station_id":"ce4bh012rcd13ifvqcv0","pricing_plan_id":"free"},{"bike_id":"dcad718b-bdfb-467f-a3ba-b0d03762532f","system_id":"levelo_inurba_marseille","lat":43.309038,"lon":5.396546,"is_reserved":false,"is_disabled":false,"rental_uris":{"android":"levelo://app?vid=dcad718b-bdfb-467f-a3ba-b0d03762532f","ios":"levelo://app?vid=dcad718b-bdfb-467f-a3ba-b0d03762532f"},"vehicle_type_id":"4","last_reported":1687388810,"current_range_meters":21200,"station_id":"ce4bh012rcd13ifvqcv0","pricing_plan_id":"free"},{"bike_id":"d7b894a1-bd71-4002-aa50-0025237c8a6f","system_id":"levelo_inurba_marseille","lat":43.309038,"lon":5.396546,"is_reserved":false,"is_disabled":false,"rental_uris":{"android":"levelo://app?vid=d7b894a1-bd71-4002-aa50-0025237c8a6f","ios":"levelo://app?vid=d7b894a1-bd71-4002-aa50-0025237c8a6f"},"vehicle_type_id":"4","last_reported":1687388810,"current_range_meters":0,"station_id":"ce4bh012rcd13ifvqcv0","pricing_plan_id":"free"},{"bike_id":"70199198-7c81-463d-80d0-677bbeb37150","system_id":"levelo_inurba_marseille","lat":43.313291,"lon":5.396838,"is_reserved":false,"is_disabled":false,"rental_uris":{"android":"levelo://app?vid=70199198-7c81-463d-80d0-677bbeb37150","ios":"levelo://app?vid=70199198-7c81-463d-80d0-677bbeb37150"},"vehicle_type_id":"4","last_reported":1687388810,"current_range_meters":16000,"station_id":"ce4bgvp2rcd13ifvqcu0","pricing_plan_id":"free"},{"bike_id":"d62c593e-9083-42d7-a285-da5123f976ce","system_id":"levelo_inurba_marseille","lat":43.309038,"lon":5.396546,"is_reserved":false,"is_disabled":false,"rental_uris":{"android":"levelo://app?vid=d62c593e-9083-42d7-a285-da5123f976ce","ios":"levelo://app?vid=d62c593e-9083-42d7-a285-da5123f976ce"},"vehicle_type_id":"4","last_reported":1687388810,"current_range_meters":12800,"station_id":"ce4bh012rcd13ifvqcv0","pricing_plan_id":"free"},{"bike_id":"ee2f40a2-d7e9-4cee-a6d9-31fce5a2d9c2","system_id":"levelo_inurba_marseille","lat":43.313291,"lon":5.396838,"is_reserved":false,"is_disabled":false,"rental_uris":{"android":"levelo://app?vid=ee2f40a2-d7e9-4cee-a6d9-31fce5a2d9c2","ios":"levelo://app?vid=ee2f40a2-d7e9-4cee-a6d9-31fce5a2d9c2"},"vehicle_type_id":"4","last_reported":1687388810,"current_range_meters":800,"station_id":"ce4bgvp2rcd13ifvqcu0","pricing_plan_id":"free"},{"bike_id":"44a3d3a5-99b5-4c95-a33e-4e52e00b990c","system_id":"levelo_inurba_marseille","lat":43.30885,"lon":5.3964,"is_reserved":false,"is_disabled":false,"rental_uris":{"android":"levelo://app?vid=44a3d3a5-99b5-4c95-a33e-4e52e00b990c","ios":"levelo://app?vid=44a3d3a5-99b5-4c95-a33e-4e52e00b990c"},"vehicle_type_id":"4","last_reported":1687388810,"current_range_meters":0,"station_id":"ce4bh012rcd13ifvqcv0","pricing_plan_id":"free"},{"bike_id":"75682234-1163-401a-bb22-8791d08c523c","system_id":"levelo_inurba_marseille","lat":43.313291,"lon":5.396838,"is_reserved":false,"is_disabled":false,"rental_uris":{"android":"levelo://app?vid=75682234-1163-401a-bb22-8791d08c523c","ios":"levelo://app?vid=75682234-1163-401a-bb22-8791d08c523c"},"vehicle_type_id":"4","last_reported":1687388810,"current_range_meters":0,"station_id":"ce4bgvp2rcd13ifvqcu0","pricing_plan_id":"free"},{"bike_id":"4d9cad11-cebf-4007-813a-5e1459831021","system_id":"levelo_inurba_marseille","lat":43.313291,"lon":5.396838,"is_reserved":false,"is_disabled":false,"rental_uris":{"android":"levelo://app?vid=4d9cad11-cebf-4007-813a-5e1459831021","ios":"levelo://app?vid=4d9cad11-cebf-4007-813a-5e1459831021"},"vehicle_type_id":"4","last_reported":1687388810,"current_range_meters":19200,"station_id":"ce4bgvp2rcd13ifvqcu0","pricing_plan_id":"free"},{"bike_id":"22018e84-a28c-4a9c-a4cd-224d22b85f23","system_id":"levelo_inurba_marseille","lat":43.313291,"lon":5.396838,"is_reserved":false,"is_disabled":false,"rental_uris":{"android":"levelo://app?vid=22018e84-a28c-4a9c-a4cd-224d22b85f23","ios":"levelo://app?vid=22018e84-a28c-4a9c-a4cd-224d22b85f23"},"vehicle_type_id":"4","last_reported":1687388810,"current_range_meters":25600,"station_id":"ce4bgvp2rcd13ifvqcu0","pricing_plan_id":"free"},{"bike_id":"b7e8d147-838a-4f9e-9123-a2003616c823","system_id":"levelo_inurba_marseille","lat":43.309038,"lon":5.396546,"is_reserved":false,"is_disabled":false,"rental_uris":{"android":"levelo://app?vid=b7e8d147-838a-4f9e-9123-a2003616c823","ios":"levelo://app?vid=b7e8d147-838a-4f9e-9123-a2003616c823"},"vehicle_type_id":"4","last_reported":1687388810,"current_range_meters":12800,"station_id":"ce4bh012rcd13ifvqcv0","pricing_plan_id":"free"},{"bike_id":"56e6a27c-a874-491e-95c2-0c7175032b85","system_id":"levelo_inurba_marseille","lat":43.299707,"lon":5.384859,"is_reserved":false,"is_disabled":false,"rental_uris":{"android":"levelo://app?vid=56e6a27c-a874-491e-95c2-0c7175032b85","ios":"levelo://app?vid=56e6a27c-a874-491e-95c2-0c7175032b85"},"vehicle_type_id":"4","last_reported":1687388810,"current_range_meters":27600,"station_id":"ce4bgj92rcd13ifvqbd0","pricing_plan_id":"free"},{"bike_id":"e7c16652-f03a-4248-80d9-002ae53e531a","system_id":"levelo_inurba_marseille","lat":43.309038,"lon":5.396546,"is_reserved":false,"is_disabled":false,"rental_uris":{"android":"levelo://app?vid=e7c16652-f03a-4248-80d9-002ae53e531a","ios":"levelo://app?vid=e7c16652-f03a-4248-80d9-002ae53e531a"},"vehicle_type_id":"4","last_reported":1687388810,"current_range_meters":22000,"station_id":"ce4bh012rcd13ifvqcv0","pricing_plan_id":"free"},{"bike_id":"1d28892a-1f4c-47fb-b0b6-f1920113c4e5","system_id":"levelo_inurba_marseille","lat":43.29529,"lon":5.385581,"is_reserved":false,"is_disabled":false,"rental_uris":{"android":"levelo://app?vid=1d28892a-1f4c-47fb-b0b6-f1920113c4e5","ios":"levelo://app?vid=1d28892a-1f4c-47fb-b0b6-f1920113c4e5"},"vehicle_type_id":"4","last_reported":1687388810,"current_range_meters":0,"station_id":"ce4bgih2rcd13ifvqba0","pricing_plan_id":"free"},{"bike_id":"486731fa-18e5-4d04-8293-808bec659a63","system_id":"levelo_inurba_marseille","lat":43.290779,"lon":5.371482,"is_reserved":false,"is_disabled":false,"rental_uris":{"android":"levelo://app?vid=486731fa-18e5-4d04-8293-808bec659a63","ios":"levelo://app?vid=486731fa-18e5-4d04-8293-808bec659a63"},"vehicle_type_id":"4","last_reported":1687388810,"current_range_meters":400,"station_id":"ce4bh5p2rcd13ifvqe4g","pricing_plan_id":"free"},{"bike_id":"88eaac76-601e-4c36-841a-25ae25f56795","system_id":"levelo_inurba_marseille","lat":43.290779,"lon":5.371482,"is_reserved":false,"is_disabled":false,"rental_uris":{"android":"levelo://app?vid=88eaac76-601e-4c36-841a-25ae25f56795","ios":"levelo://app?vid=88eaac76-601e-4c36-841a-25ae25f56795"},"vehicle_type_id":"4","last_reported":1687388810,"current_range_meters":10400,"station_id":"ce4bh5p2rcd13ifvqe4g","pricing_plan_id":"free"},{"bike_id":"056b5a87-5940-492b-ae4b-06d5765e3335","system_id":"levelo_inurba_marseille","lat":43.302008,"lon":5.394694,"is_reserved":false,"is_disabled":false,"rental_uris":{"android":"levelo://app?vid=056b5a87-5940-492b-ae4b-06d5765e3335","ios":"levelo://app?vid=056b5a87-5940-492b-ae4b-06d5765e3335"},"vehicle_type_id":"4","last_reported":1687388810,"current_range_meters":0,"station_id":"ce4bh0p2rcd13ifvqd70","pricing_plan_id":"free"},{"bike_id":"0609f09b-61e5-40d1-a057-3a5b9409ddd1","system_id":"levelo_inurba_marseille","lat":43.294162,"lon":5.386292,"is_reserved":false,"is_disabled":false,"rental_uris":{"android":"levelo://app?vid=0609f09b-61e5-40d1-a057-3a5b9409ddd1","ios":"levelo://app?vid=0609f09b-61e5-40d1-a057-3a5b9409ddd1"},"vehicle_type_id":"4","last_reported":1687388810,"current_range_meters":29600,"station_id":"ce4bh2h2rcd13ifvqdh0","pricing_plan_id":"free"},{"bike_id":"469f5818-a203-4757-9224-d39c3df2303b","system_id":"levelo_inurba_marseille","lat":43.28938,"lon":5.36398,"is_reserved":false,"is_disabled":false,"rental_uris":{"android":"levelo://app?vid=469f5818-a203-4757-9224-d39c3df2303b","ios":"levelo://app?vid=469f5818-a203-4757-9224-d39c3df2303b"},"vehicle_type_id":"4","last_reported":1687388810,"current_range_meters":0,"station_id":"ce4bhc92rcd13ifvqetg","pricing_plan_id":"free"},{"bike_id":"3026596c-93e6-4a60-9198-32470dc93210","system_id":"levelo_inurba_marseille","lat":43.304274,"lon":5.397513,"is_reserved":false,"is_disabled":false,"rental_uris":{"android":"levelo://app?vid=3026596c-93e6-4a60-9198-32470dc93210","ios":"levelo://app?vid=3026596c-93e6-4a60-9198-32470dc93210"},"vehicle_type_id":"4","last_reported":1687388810,"current_range_meters":20800,"station_id":"ce4bh092rcd13ifvqd20","pricing_plan_id":"free"},{"bike_id":"38eb09af-7166-42b9-865e-84246929498f","system_id":"levelo_inurba_marseille","lat":43.292644,"lon":5.384257,"is_reserved":false,"is_disabled":false,"rental_uris":{"android":"levelo://app?vid=38eb09af-7166-42b9-865e-84246929498f","ios":"levelo://app?vid=38eb09af-7166-42b9-865e-84246929498f"},"vehicle_type_id":"4","last_reported":1687388810,"current_range_meters":31200,"station_id":"ce4bh692rcd13ifvqea0","pricing_plan_id":"free"},{"bike_id":"59d125af-16ef-419c-b0b1-36a03e1202e7","system_id":"levelo_inurba_marseille","lat":43.3304,"lon":5.38918,"is_reserved":false,"is_disabled":false,"rental_uris":{"android":"levelo://app?vid=59d125af-16ef-419c-b0b1-36a03e1202e7","ios":"levelo://app?vid=59d125af-16ef-419c-b0b1-36a03e1202e7"},"vehicle_type_id":"4","last_reported":1687388810,"current_range_meters":4000,"station_id":"ce4bhr92rcd13ifvqhrg","pricing_plan_id":"free"},{"bike_id":"11c3ae0c-a5ad-4f08-bf43-0be240cadcb8","system_id":"levelo_inurba_marseille","lat":43.33041,"lon":5.38918,"is_reserved":false,"is_disabled":false,"rental_uris":{"android":"levelo://app?vid=11c3ae0c-a5ad-4f08-bf43-0be240cadcb8","ios":"levelo://app?vid=11c3ae0c-a5ad-4f08-bf43-0be240cadcb8"},"vehicle_type_id":"4","last_reported":1687388810,"current_range_meters":5600,"station_id":"ce4bhr92rcd13ifvqhrg","pricing_plan_id":"free"},{"bike_id":"e1a45b0a-bebd-4c51-9017-f46b52c8e6b7","system_id":"levelo_inurba_marseille","lat":43.33042,"lon":5.38918,"is_reserved":false,"is_disabled":false,"rental_uris":{"android":"levelo://app?vid=e1a45b0a-bebd-4c51-9017-f46b52c8e6b7","ios":"levelo://app?vid=e1a45b0a-bebd-4c51-9017-f46b52c8e6b7"},"vehicle_type_id":"4","last_reported":1687388810,"current_range_meters":0,"station_id":"ce4bhr92rcd13ifvqhrg","pricing_plan_id":"free"},{"bike_id":"18846a49-d402-46be-a78e-dde2aafef56d","system_id":"levelo_inurba_marseille","lat":43.33043,"lon":5.38917,"is_reserved":false,"is_disabled":false,"rental_uris":{"android":"levelo://app?vid=18846a49-d402-46be-a78e-dde2aafef56d","ios":"levelo://app?vid=18846a49-d402-46be-a78e-dde2aafef56d"},"vehicle_type_id":"4","last_reported":1687388810,"current_range_meters":17600,"station_id":"ce4bhr92rcd13ifvqhrg","pricing_plan_id":"free"},{"bike_id":"45dbcd23-5354-444d-9275-479f5e4f1d24","system_id":"levelo_inurba_marseille","lat":43.290103,"lon":5.356114,"is_reserved":false,"is_disabled":false,"rental_uris":{"android":"levelo://app?vid=45dbcd23-5354-444d-9275-479f5e4f1d24","ios":"levelo://app?vid=45dbcd23-5354-444d-9275-479f5e4f1d24"},"vehicle_type_id":"4","last_reported":1687388810,"current_range_meters":4000,"station_id":"ce4bhb92rcd13ifvqen0","pricing_plan_id":"free"},{"bike_id":"64d533f9-d91b-46e3-b745-e7bd18ed4968","system_id":"levelo_inurba_marseille","lat":43.33043,"lon":5.3892,"is_reserved":false,"is_disabled":false,"rental_uris":{"android":"levelo://app?vid=64d533f9-d91b-46e3-b745-e7bd18ed4968","ios":"levelo://app?vid=64d533f9-d91b-46e3-b745-e7bd18ed4968"},"vehicle_type_id":"4","last_reported":1687388810,"current_range_meters":26000,"station_id":"ce4bhr92rcd13ifvqhrg","pricing_plan_id":"free"},{"bike_id":"d4b1b2c9-c862-45c5-a13e-672531713c76","system_id":"levelo_inurba_marseille","lat":43.29008,"lon":5.35608,"is_reserved":false,"is_disabled":false,"rental_uris":{"android":"levelo://app?vid=d4b1b2c9-c862-45c5-a13e-672531713c76","ios":"levelo://app?vid=d4b1b2c9-c862-45c5-a13e-672531713c76"},"vehicle_type_id":"4","last_reported":1687388810,"current_range_meters":28000,"station_id":"ce4bhb92rcd13ifvqen0","pricing_plan_id":"free"},{"bike_id":"82d6893e-eccb-4c72-a658-fa65b60e4f4a","system_id":"levelo_inurba_marseille","lat":43.33044,"lon":5.38921,"is_reserved":false,"is_disabled":false,"rental_uris":{"android":"levelo://app?vid=82d6893e-eccb-4c72-a658-fa65b60e4f4a","ios":"levelo://app?vid=82d6893e-eccb-4c72-a658-fa65b60e4f4a"},"vehicle_type_id":"4","last_reported":1687388810,"current_range_meters":0,"station_id":"ce4bhr92rcd13ifvqhrg","pricing_plan_id":"free"},{"bike_id":"ff74f2fc-5717-4052-a85e-ed564ab18360","system_id":"levelo_inurba_marseille","lat":43.290104,"lon":5.356111,"is_reserved":false,"is_disabled":false,"rental_uris":{"android":"levelo://app?vid=ff74f2fc-5717-4052-a85e-ed564ab18360","ios":"levelo://app?vid=ff74f2fc-5717-4052-a85e-ed564ab18360"},"vehicle_type_id":"4","last_reported":1687388810,"current_range_meters":28800,"station_id":"ce4bhb92rcd13ifvqen0","pricing_plan_id":"free"},{"bike_id":"e7c9ff88-026f-4e31-9556-cea23a53bd8a","system_id":"levelo_inurba_marseille","lat":43.290104,"lon":5.356111,"is_reserved":false,"is_disabled":false,"rental_uris":{"android":"levelo://app?vid=e7c9ff88-026f-4e31-9556-cea23a53bd8a","ios":"levelo://app?vid=e7c9ff88-026f-4e31-9556-cea23a53bd8a"},"vehicle_type_id":"4","last_reported":1687388810,"current_range_meters":20000,"station_id":"ce4bhb92rcd13ifvqen0","pricing_plan_id":"free"},{"bike_id":"27bee241-998a-41de-b14b-cb0047be7b5c","system_id":"levelo_inurba_marseille","lat":43.290104,"lon":5.356111,"is_reserved":false,"is_disabled":false,"rental_uris":{"android":"levelo://app?vid=27bee241-998a-41de-b14b-cb0047be7b5c","ios":"levelo://app?vid=27bee241-998a-41de-b14b-cb0047be7b5c"},"vehicle_type_id":"4","last_reported":1687388810,"current_range_meters":8400,"station_id":"ce4bhb92rcd13ifvqen0","pricing_plan_id":"free"},{"bike_id":"f65715c7-5e53-402a-8354-dc9d390a7deb","system_id":"levelo_inurba_marseille","lat":43.290104,"lon":5.356111,"is_reserved":false,"is_disabled":false,"rental_uris":{"android":"levelo://app?vid=f65715c7-5e53-402a-8354-dc9d390a7deb","ios":"levelo://app?vid=f65715c7-5e53-402a-8354-dc9d390a7deb"},"vehicle_type_id":"4","last_reported":1687388810,"current_range_meters":31200,"station_id":"ce4bhb92rcd13ifvqen0","pricing_plan_id":"free"},{"bike_id":"d76bc81c-56fb-4b59-9c2b-52c941806ce0","system_id":"levelo_inurba_marseille","lat":43.290103,"lon":5.356114,"is_reserved":false,"is_disabled":false,"rental_uris":{"android":"levelo://app?vid=d76bc81c-56fb-4b59-9c2b-52c941806ce0","ios":"levelo://app?vid=d76bc81c-56fb-4b59-9c2b-52c941806ce0"},"vehicle_type_id":"4","last_reported":1687388810,"current_range_meters":2000,"station_id":"ce4bhb92rcd13ifvqen0","pricing_plan_id":"free"},{"bike_id":"72a36de3-9c88-4e38-82cf-82f4854c3a2b","system_id":"levelo_inurba_marseille","lat":43.290104,"lon":5.356111,"is_reserved":false,"is_disabled":false,"rental_uris":{"android":"levelo://app?vid=72a36de3-9c88-4e38-82cf-82f4854c3a2b","ios":"levelo://app?vid=72a36de3-9c88-4e38-82cf-82f4854c3a2b"},"vehicle_type_id":"4","last_reported":1687388810,"current_range_meters":31200,"station_id":"ce4bhb92rcd13ifvqen0","pricing_plan_id":"free"},{"bike_id":"9a78029d-46f2-470f-a189-e324ed9ff8fc","system_id":"levelo_inurba_marseille","lat":43.29784,"lon":5.39331,"is_reserved":false,"is_disabled":false,"rental_uris":{"android":"levelo://app?vid=9a78029d-46f2-470f-a189-e324ed9ff8fc","ios":"levelo://app?vid=9a78029d-46f2-470f-a189-e324ed9ff8fc"},"vehicle_type_id":"4","last_reported":1687388810,"current_range_meters":30400,"station_id":"chh1huq6cuj3fo74tm60","pricing_plan_id":"free"},{"bike_id":"9b78312b-5b8d-46f5-aa98-51a730d8fb3d","system_id":"levelo_inurba_marseille","lat":43.297794,"lon":5.370888,"is_reserved":false,"is_disabled":false,"rental_uris":{"android":"levelo://app?vid=9b78312b-5b8d-46f5-aa98-51a730d8fb3d","ios":"levelo://app?vid=9b78312b-5b8d-46f5-aa98-51a730d8fb3d"},"vehicle_type_id":"4","last_reported":1687388810,"current_range_meters":0,"station_id":"ce4bgop2rcd13ifvqc1g","pricing_plan_id":"free"},{"bike_id":"2f38f868-a3fe-4126-8c79-102b90fd6b17","system_id":"levelo_inurba_marseille","lat":43.295169,"lon":5.390426,"is_reserved":false,"is_disabled":false,"rental_uris":{"android":"levelo://app?vid=2f38f868-a3fe-4126-8c79-102b90fd6b17","ios":"levelo://app?vid=2f38f868-a3fe-4126-8c79-102b90fd6b17"},"vehicle_type_id":"4","last_reported":1687388810,"current_range_meters":0,"station_id":"ce4bh3p2rcd13ifvqdp0","pricing_plan_id":"free"},{"bike_id":"d9c4bbd8-2d80-4594-8969-7848c02a553f","system_id":"levelo_inurba_marseille","lat":43.28856,"lon":5.358371,"is_reserved":false,"is_disabled":false,"rental_uris":{"android":"levelo://app?vid=d9c4bbd8-2d80-4594-8969-7848c02a553f","ios":"levelo://app?vid=d9c4bbd8-2d80-4594-8969-7848c02a553f"},"vehicle_type_id":"4","last_reported":1687388810,"current_range_meters":26800,"station_id":"ce4bhb12rcd13ifvqem0","pricing_plan_id":"free"},{"bike_id":"3f8a925a-6a54-4259-a38f-9cf091aab246","system_id":"levelo_inurba_marseille","lat":43.29276,"lon":5.38746,"is_reserved":false,"is_disabled":false,"rental_uris":{"android":"levelo://app?vid=3f8a925a-6a54-4259-a38f-9cf091aab246","ios":"levelo://app?vid=3f8a925a-6a54-4259-a38f-9cf091aab246"},"vehicle_type_id":"4","last_reported":1687388810,"current_range_meters":31200,"station_id":"","pricing_plan_id":"free"},{"bike_id":"449ef148-30cd-442e-a082-b1e22e7b3327","system_id":"levelo_inurba_marseille","lat":43.29143,"lon":5.38487,"is_reserved":false,"is_disabled":false,"rental_uris":{"android":"levelo://app?vid=449ef148-30cd-442e-a082-b1e22e7b3327","ios":"levelo://app?vid=449ef148-30cd-442e-a082-b1e22e7b3327"},"vehicle_type_id":"4","last_reported":1687388810,"current_range_meters":12800,"station_id":"","pricing_plan_id":"free"},{"bike_id":"3c403a6f-bf54-4b88-badb-fc10739d6ccd","system_id":"levelo_inurba_marseille","lat":43.28856,"lon":5.358371,"is_reserved":false,"is_disabled":false,"rental_uris":{"android":"levelo://app?vid=3c403a6f-bf54-4b88-badb-fc10739d6ccd","ios":"levelo://app?vid=3c403a6f-bf54-4b88-badb-fc10739d6ccd"},"vehicle_type_id":"4","last_reported":1687388810,"current_range_meters":26400,"station_id":"ce4bhb12rcd13ifvqem0","pricing_plan_id":"free"},{"bike_id":"920782a2-8a9d-4d1c-af2c-1049d257077f","system_id":"levelo_inurba_marseille","lat":43.28849,"lon":5.35839,"is_reserved":false,"is_disabled":false,"rental_uris":{"android":"levelo://app?vid=920782a2-8a9d-4d1c-af2c-1049d257077f","ios":"levelo://app?vid=920782a2-8a9d-4d1c-af2c-1049d257077f"},"vehicle_type_id":"4","last_reported":1687388810,"current_range_meters":13200,"station_id":"ce4bhb12rcd13ifvqem0","pricing_plan_id":"free"},{"bike_id":"714f30bd-25b9-4e21-81bf-b224357d9a73","system_id":"levelo_inurba_marseille","lat":43.28848,"lon":5.3584,"is_reserved":false,"is_disabled":false,"rental_uris":{"android":"levelo://app?vid=714f30bd-25b9-4e21-81bf-b224357d9a73","ios":"levelo://app?vid=714f30bd-25b9-4e21-81bf-b224357d9a73"},"vehicle_type_id":"4","last_reported":1687388810,"current_range_meters":20800,"station_id":"ce4bhb12rcd13ifvqem0","pricing_plan_id":"free"},{"bike_id":"cad6e485-a96a-40ad-a983-d3fce52c6448","system_id":"levelo_inurba_marseille","lat":43.28845,"lon":5.35843,"is_reserved":false,"is_disabled":false,"rental_uris":{"android":"levelo://app?vid=cad6e485-a96a-40ad-a983-d3fce52c6448","ios":"levelo://app?vid=cad6e485-a96a-40ad-a983-d3fce52c6448"},"vehicle_type_id":"4","last_reported":1687388810,"current_range_meters":9600,"station_id":"ce4bhb12rcd13ifvqem0","pricing_plan_id":"free"},{"bike_id":"4ce319b0-1674-4a91-b6fb-dc57a87aebe0","system_id":"levelo_inurba_marseille","lat":43.309371,"lon":5.401449,"is_reserved":false,"is_disabled":false,"rental_uris":{"android":"levelo://app?vid=4ce319b0-1674-4a91-b6fb-dc57a87aebe0","ios":"levelo://app?vid=4ce319b0-1674-4a91-b6fb-dc57a87aebe0"},"vehicle_type_id":"4","last_reported":1687388810,"current_range_meters":13200,"station_id":"ce4bgvp2rcd13ifvqct0","pricing_plan_id":"free"},{"bike_id":"c0b5c531-01eb-4a81-902c-38e78a88b616","system_id":"levelo_inurba_marseille","lat":43.309371,"lon":5.401449,"is_reserved":false,"is_disabled":false,"rental_uris":{"android":"levelo://app?vid=c0b5c531-01eb-4a81-902c-38e78a88b616","ios":"levelo://app?vid=c0b5c531-01eb-4a81-902c-38e78a88b616"},"vehicle_type_id":"4","last_reported":1687388810,"current_range_meters":16400,"station_id":"ce4bgvp2rcd13ifvqct0","pricing_plan_id":"free"},{"bike_id":"b456f868-0f03-4dc5-a873-699cb7b3a704","system_id":"levelo_inurba_marseille","lat":43.309371,"lon":5.401449,"is_reserved":false,"is_disabled":false,"rental_uris":{"android":"levelo://app?vid=b456f868-0f03-4dc5-a873-699cb7b3a704","ios":"levelo://app?vid=b456f868-0f03-4dc5-a873-699cb7b3a704"},"vehicle_type_id":"4","last_reported":1687388810,"current_range_meters":25200,"station_id":"ce4bgvp2rcd13ifvqct0","pricing_plan_id":"free"},{"bike_id":"b143243a-a885-42f6-8e50-f24606ee1f79","system_id":"levelo_inurba_marseille","lat":43.29318,"lon":5.3891,"is_reserved":false,"is_disabled":false,"rental_uris":{"android":"levelo://app?vid=b143243a-a885-42f6-8e50-f24606ee1f79","ios":"levelo://app?vid=b143243a-a885-42f6-8e50-f24606ee1f79"},"vehicle_type_id":"4","last_reported":1687388810,"current_range_meters":7200,"station_id":"","pricing_plan_id":"free"},{"bike_id":"a2709f1a-97f1-4a64-a18f-1c6984c1ac15","system_id":"levelo_inurba_marseille","lat":43.30933,"lon":5.40149,"is_reserved":false,"is_disabled":false,"rental_uris":{"android":"levelo://app?vid=a2709f1a-97f1-4a64-a18f-1c6984c1ac15","ios":"levelo://app?vid=a2709f1a-97f1-4a64-a18f-1c6984c1ac15"},"vehicle_type_id":"4","last_reported":1687388810,"current_range_meters":14800,"station_id":"ce4bgvp2rcd13ifvqct0","pricing_plan_id":"free"},{"bike_id":"3d06d833-86af-4433-9cec-8d46901b9604","system_id":"levelo_inurba_marseille","lat":43.306412,"lon":5.401035,"is_reserved":false,"is_disabled":false,"rental_uris":{"android":"levelo://app?vid=3d06d833-86af-4433-9cec-8d46901b9604","ios":"levelo://app?vid=3d06d833-86af-4433-9cec-8d46901b9604"},"vehicle_type_id":"4","last_reported":1687388810,"current_range_meters":24800,"station_id":"ce4bh112rcd13ifvqda0","pricing_plan_id":"free"},{"bike_id":"ea13fcaa-4d20-4289-af71-8f4dbcd98934","system_id":"levelo_inurba_marseille","lat":43.30637,"lon":5.40075,"is_reserved":false,"is_disabled":false,"rental_uris":{"android":"levelo://app?vid=ea13fcaa-4d20-4289-af71-8f4dbcd98934","ios":"levelo://app?vid=ea13fcaa-4d20-4289-af71-8f4dbcd98934"},"vehicle_type_id":"4","last_reported":1687388810,"current_range_meters":21200,"station_id":"ce4bh112rcd13ifvqda0","pricing_plan_id":"free"},{"bike_id":"b0bd3bcb-bd35-4f75-8285-8f528f09b8d5","system_id":"levelo_inurba_marseille","lat":43.337575,"lon":5.374489,"is_reserved":false,"is_disabled":false,"rental_uris":{"android":"levelo://app?vid=b0bd3bcb-bd35-4f75-8285-8f528f09b8d5","ios":"levelo://app?vid=b0bd3bcb-bd35-4f75-8285-8f528f09b8d5"},"vehicle_type_id":"4","last_reported":1687388810,"current_range_meters":18400,"station_id":"","pricing_plan_id":"free"},{"bike_id":"63acad59-0211-4884-86e3-7f25cff296d6","system_id":"levelo_inurba_marseille","lat":43.306412,"lon":5.401035,"is_reserved":false,"is_disabled":false,"rental_uris":{"android":"levelo://app?vid=63acad59-0211-4884-86e3-7f25cff296d6","ios":"levelo://app?vid=63acad59-0211-4884-86e3-7f25cff296d6"},"vehicle_type_id":"4","last_reported":1687388810,"current_range_meters":16400,"station_id":"ce4bh112rcd13ifvqda0","pricing_plan_id":"free"},{"bike_id":"326999b6-8a34-4cf3-ad33-48bc9107cedc","system_id":"levelo_inurba_marseille","lat":43.30651,"lon":5.40086,"is_reserved":false,"is_disabled":false,"rental_uris":{"android":"levelo://app?vid=326999b6-8a34-4cf3-ad33-48bc9107cedc","ios":"levelo://app?vid=326999b6-8a34-4cf3-ad33-48bc9107cedc"},"vehicle_type_id":"4","last_reported":1687388810,"current_range_meters":19600,"station_id":"","pricing_plan_id":"free"},{"bike_id":"e98fd470-ba5c-4335-83c7-0d48f777407a","system_id":"levelo_inurba_marseille","lat":43.33761,"lon":5.37453,"is_reserved":false,"is_disabled":false,"rental_uris":{"android":"levelo://app?vid=e98fd470-ba5c-4335-83c7-0d48f777407a","ios":"levelo://app?vid=e98fd470-ba5c-4335-83c7-0d48f777407a"},"vehicle_type_id":"4","last_reported":1687388810,"current_range_meters":29600,"station_id":"","pricing_plan_id":"free"},{"bike_id":"2f8bc62c-cebd-40b7-b550-09580e847e5a","system_id":"levelo_inurba_marseille","lat":43.306412,"lon":5.401035,"is_reserved":false,"is_disabled":false,"rental_uris":{"android":"levelo://app?vid=2f8bc62c-cebd-40b7-b550-09580e847e5a","ios":"levelo://app?vid=2f8bc62c-cebd-40b7-b550-09580e847e5a"},"vehicle_type_id":"4","last_reported":1687388810,"current_range_meters":9200,"station_id":"ce4bh112rcd13ifvqda0","pricing_plan_id":"free"},{"bike_id":"ebeb3295-d13a-43c4-a7fe-c6dda3efcec1","system_id":"levelo_inurba_marseille","lat":43.30642,"lon":5.40088,"is_reserved":false,"is_disabled":false,"rental_uris":{"android":"levelo://app?vid=ebeb3295-d13a-43c4-a7fe-c6dda3efcec1","ios":"levelo://app?vid=ebeb3295-d13a-43c4-a7fe-c6dda3efcec1"},"vehicle_type_id":"4","last_reported":1687388810,"current_range_meters":3200,"station_id":"ce4bh112rcd13ifvqda0","pricing_plan_id":"free"},{"bike_id":"7a0e3aee-1621-4816-aa5a-a62a4ddfe540","system_id":"levelo_inurba_marseille","lat":43.306412,"lon":5.401035,"is_reserved":false,"is_disabled":false,"rental_uris":{"android":"levelo://app?vid=7a0e3aee-1621-4816-aa5a-a62a4ddfe540","ios":"levelo://app?vid=7a0e3aee-1621-4816-aa5a-a62a4ddfe540"},"vehicle_type_id":"4","last_reported":1687388810,"current_range_meters":400,"station_id":"ce4bh112rcd13ifvqda0","pricing_plan_id":"free"},{"bike_id":"5d0802c8-0a99-4342-a8cd-f4d15927f7e3","system_id":"levelo_inurba_marseille","lat":43.30642,"lon":5.401031,"is_reserved":false,"is_disabled":false,"rental_uris":{"android":"levelo://app?vid=5d0802c8-0a99-4342-a8cd-f4d15927f7e3","ios":"levelo://app?vid=5d0802c8-0a99-4342-a8cd-f4d15927f7e3"},"vehicle_type_id":"4","last_reported":1687388810,"current_range_meters":26000,"station_id":"ce4bh112rcd13ifvqda0","pricing_plan_id":"free"},{"bike_id":"4e62bedd-b1a7-4ac6-ac2a-788b9430d861","system_id":"levelo_inurba_marseille","lat":43.306412,"lon":5.401035,"is_reserved":false,"is_disabled":false,"rental_uris":{"android":"levelo://app?vid=4e62bedd-b1a7-4ac6-ac2a-788b9430d861","ios":"levelo://app?vid=4e62bedd-b1a7-4ac6-ac2a-788b9430d861"},"vehicle_type_id":"4","last_reported":1687388810,"current_range_meters":20000,"station_id":"ce4bh112rcd13ifvqda0","pricing_plan_id":"free"},{"bike_id":"1ecd2ed8-0046-419c-a081-291c4fbb545f","system_id":"levelo_inurba_marseille","lat":43.30645,"lon":5.40099,"is_reserved":false,"is_disabled":false,"rental_uris":{"android":"levelo://app?vid=1ecd2ed8-0046-419c-a081-291c4fbb545f","ios":"levelo://app?vid=1ecd2ed8-0046-419c-a081-291c4fbb545f"},"vehicle_type_id":"4","last_reported":1687388810,"current_range_meters":13200,"station_id":"ce4bh112rcd13ifvqda0","pricing_plan_id":"free"},{"bike_id":"717df5cf-ee72-4675-b292-f82cd59f7d36","system_id":"levelo_inurba_marseille","lat":43.306461,"lon":5.400998,"is_reserved":false,"is_disabled":false,"rental_uris":{"android":"levelo://app?vid=717df5cf-ee72-4675-b292-f82cd59f7d36","ios":"levelo://app?vid=717df5cf-ee72-4675-b292-f82cd59f7d36"},"vehicle_type_id":"4","last_reported":1687388810,"current_range_meters":4800,"station_id":"ce4bh112rcd13ifvqda0","pricing_plan_id":"free"},{"bike_id":"960bc347-24ea-490f-93d4-ea52089baa22","system_id":"levelo_inurba_marseille","lat":43.337758,"lon":5.374363,"is_reserved":false,"is_disabled":false,"rental_uris":{"android":"levelo://app?vid=960bc347-24ea-490f-93d4-ea52089baa22","ios":"levelo://app?vid=960bc347-24ea-490f-93d4-ea52089baa22"},"vehicle_type_id":"4","last_reported":1687388810,"current_range_meters":30800,"station_id":"","pricing_plan_id":"free"},{"bike_id":"d2bb04ae-b7c6-47f1-9391-fdce57a68211","system_id":"levelo_inurba_marseille","lat":43.301117,"lon":5.398795,"is_reserved":false,"is_disabled":false,"rental_uris":{"android":"levelo://app?vid=d2bb04ae-b7c6-47f1-9391-fdce57a68211","ios":"levelo://app?vid=d2bb04ae-b7c6-47f1-9391-fdce57a68211"},"vehicle_type_id":"4","last_reported":1687388810,"current_range_meters":7600,"station_id":"ce4bh0h2rcd13ifvqd40","pricing_plan_id":"free"},{"bike_id":"06f911d2-7273-4a34-8abc-ec0e943817fc","system_id":"levelo_inurba_marseille","lat":43.286961,"lon":5.373785,"is_reserved":false,"is_disabled":false,"rental_uris":{"android":"levelo://app?vid=06f911d2-7273-4a34-8abc-ec0e943817fc","ios":"levelo://app?vid=06f911d2-7273-4a34-8abc-ec0e943817fc"},"vehicle_type_id":"4","last_reported":1687388810,"current_range_meters":19200,"station_id":"ce4bh3p2rcd13ifvqdq0","pricing_plan_id":"free"},{"bike_id":"53ef1716-f0d5-42f3-8254-2119acb58d51","system_id":"levelo_inurba_marseille","lat":43.298681,"lon":5.397225,"is_reserved":false,"is_disabled":false,"rental_uris":{"android":"levelo://app?vid=53ef1716-f0d5-42f3-8254-2119acb58d51","ios":"levelo://app?vid=53ef1716-f0d5-42f3-8254-2119acb58d51"},"vehicle_type_id":"4","last_reported":1687388810,"current_range_meters":31200,"station_id":"ce4bh0h2rcd13ifvqd50","pricing_plan_id":"free"},{"bike_id":"b3eb7f47-390d-444b-956e-1f3209a3aa9b","system_id":"levelo_inurba_marseille","lat":43.286591,"lon":5.363346,"is_reserved":false,"is_disabled":false,"rental_uris":{"android":"levelo://app?vid=b3eb7f47-390d-444b-956e-1f3209a3aa9b","ios":"levelo://app?vid=b3eb7f47-390d-444b-956e-1f3209a3aa9b"},"vehicle_type_id":"4","last_reported":1687388810,"current_range_meters":0,"station_id":"ce4bhah2rcd13ifvqej0","pricing_plan_id":"free"},{"bike_id":"710b185f-be96-4604-9702-98613a59957d","system_id":"levelo_inurba_marseille","lat":43.286961,"lon":5.373785,"is_reserved":false,"is_disabled":false,"rental_uris":{"android":"levelo://app?vid=710b185f-be96-4604-9702-98613a59957d","ios":"levelo://app?vid=710b185f-be96-4604-9702-98613a59957d"},"vehicle_type_id":"4","last_reported":1687388810,"current_range_meters":10000,"station_id":"ce4bh3p2rcd13ifvqdq0","pricing_plan_id":"free"},{"bike_id":"1cec1b9f-86ad-4591-bd90-762996b70501","system_id":"levelo_inurba_marseille","lat":43.298681,"lon":5.397225,"is_reserved":false,"is_disabled":false,"rental_uris":{"android":"levelo://app?vid=1cec1b9f-86ad-4591-bd90-762996b70501","ios":"levelo://app?vid=1cec1b9f-86ad-4591-bd90-762996b70501"},"vehicle_type_id":"4","last_reported":1687388810,"current_range_meters":24800,"station_id":"ce4bh0h2rcd13ifvqd50","pricing_plan_id":"free"},{"bike_id":"5ed0035c-d018-4ade-89ff-ddca893d1f96","system_id":"levelo_inurba_marseille","lat":43.286961,"lon":5.373785,"is_reserved":false,"is_disabled":false,"rental_uris":{"android":"levelo://app?vid=5ed0035c-d018-4ade-89ff-ddca893d1f96","ios":"levelo://app?vid=5ed0035c-d018-4ade-89ff-ddca893d1f96"},"vehicle_type_id":"4","last_reported":1687388810,"current_range_meters":18800,"station_id":"ce4bh3p2rcd13ifvqdq0","pricing_plan_id":"free"},{"bike_id":"40f18ab3-de4f-4fe7-8e6b-a1785a6f3ad8","system_id":"levelo_inurba_marseille","lat":43.28704,"lon":5.37386,"is_reserved":false,"is_disabled":false,"rental_uris":{"android":"levelo://app?vid=40f18ab3-de4f-4fe7-8e6b-a1785a6f3ad8","ios":"levelo://app?vid=40f18ab3-de4f-4fe7-8e6b-a1785a6f3ad8"},"vehicle_type_id":"4","last_reported":1687388810,"current_range_meters":21200,"station_id":"ce4bh3p2rcd13ifvqdq0","pricing_plan_id":"free"},{"bike_id":"5ac9d796-b27a-4447-a4d6-792edb99c64a","system_id":"levelo_inurba_marseille","lat":43.286591,"lon":5.363346,"is_reserved":false,"is_disabled":false,"rental_uris":{"android":"levelo://app?vid=5ac9d796-b27a-4447-a4d6-792edb99c64a","ios":"levelo://app?vid=5ac9d796-b27a-4447-a4d6-792edb99c64a"},"vehicle_type_id":"4","last_reported":1687388810,"current_range_meters":18800,"station_id":"ce4bhah2rcd13ifvqej0","pricing_plan_id":"free"},{"bike_id":"79d641e6-2078-4551-999d-dd5d5f88f607","system_id":"levelo_inurba_marseille","lat":43.286961,"lon":5.373785,"is_reserved":false,"is_disabled":false,"rental_uris":{"android":"levelo://app?vid=79d641e6-2078-4551-999d-dd5d5f88f607","ios":"levelo://app?vid=79d641e6-2078-4551-999d-dd5d5f88f607"},"vehicle_type_id":"4","last_reported":1687388810,"current_range_meters":16800,"station_id":"ce4bh3p2rcd13ifvqdq0","pricing_plan_id":"free"},{"bike_id":"f5297697-ce32-4ed8-835e-62f7d552daa8","system_id":"levelo_inurba_marseille","lat":43.28666,"lon":5.36339,"is_reserved":false,"is_disabled":false,"rental_uris":{"android":"levelo://app?vid=f5297697-ce32-4ed8-835e-62f7d552daa8","ios":"levelo://app?vid=f5297697-ce32-4ed8-835e-62f7d552daa8"},"vehicle_type_id":"4","last_reported":1687388810,"current_range_meters":4000,"station_id":"ce4bhah2rcd13ifvqej0","pricing_plan_id":"free"},{"bike_id":"10e07bbb-f609-413c-9c39-9ca0df52c65b","system_id":"levelo_inurba_marseille","lat":43.28664,"lon":5.36346,"is_reserved":false,"is_disabled":false,"rental_uris":{"android":"levelo://app?vid=10e07bbb-f609-413c-9c39-9ca0df52c65b","ios":"levelo://app?vid=10e07bbb-f609-413c-9c39-9ca0df52c65b"},"vehicle_type_id":"4","last_reported":1687388810,"current_range_meters":7600,"station_id":"ce4bhah2rcd13ifvqej0","pricing_plan_id":"free"},{"bike_id":"e763deb1-e2d9-45e4-8488-e8fbebbdb67e","system_id":"levelo_inurba_marseille","lat":43.286591,"lon":5.363346,"is_reserved":false,"is_disabled":false,"rental_uris":{"android":"levelo://app?vid=e763deb1-e2d9-45e4-8488-e8fbebbdb67e","ios":"levelo://app?vid=e763deb1-e2d9-45e4-8488-e8fbebbdb67e"},"vehicle_type_id":"4","last_reported":1687388810,"current_range_meters":30400,"station_id":"ce4bhah2rcd13ifvqej0","pricing_plan_id":"free"},{"bike_id":"831f7fac-f2ef-44d7-bad0-1ab9e090538f","system_id":"levelo_inurba_marseille","lat":43.286591,"lon":5.363346,"is_reserved":false,"is_disabled":false,"rental_uris":{"android":"levelo://app?vid=831f7fac-f2ef-44d7-bad0-1ab9e090538f","ios":"levelo://app?vid=831f7fac-f2ef-44d7-bad0-1ab9e090538f"},"vehicle_type_id":"4","last_reported":1687388810,"current_range_meters":10000,"station_id":"ce4bhah2rcd13ifvqej0","pricing_plan_id":"free"},{"bike_id":"77acd233-2bc2-4b61-9669-0600a71fb45d","system_id":"levelo_inurba_marseille","lat":43.2866,"lon":5.36351,"is_reserved":false,"is_disabled":false,"rental_uris":{"android":"levelo://app?vid=77acd233-2bc2-4b61-9669-0600a71fb45d","ios":"levelo://app?vid=77acd233-2bc2-4b61-9669-0600a71fb45d"},"vehicle_type_id":"4","last_reported":1687388810,"current_range_meters":6000,"station_id":"ce4bhah2rcd13ifvqej0","pricing_plan_id":"free"},{"bike_id":"f7d620f4-c89b-4784-9fad-80449c08b470","system_id":"levelo_inurba_marseille","lat":43.286591,"lon":5.363346,"is_reserved":false,"is_disabled":false,"rental_uris":{"android":"levelo://app?vid=f7d620f4-c89b-4784-9fad-80449c08b470","ios":"levelo://app?vid=f7d620f4-c89b-4784-9fad-80449c08b470"},"vehicle_type_id":"4","last_reported":1687388810,"current_range_meters":24800,"station_id":"ce4bhah2rcd13ifvqej0","pricing_plan_id":"free"},{"bike_id":"c0636f86-edbe-4437-af86-ac849b57ca85","system_id":"levelo_inurba_marseille","lat":43.286591,"lon":5.363346,"is_reserved":false,"is_disabled":false,"rental_uris":{"android":"levelo://app?vid=c0636f86-edbe-4437-af86-ac849b57ca85","ios":"levelo://app?vid=c0636f86-edbe-4437-af86-ac849b57ca85"},"vehicle_type_id":"4","last_reported":1687388810,"current_range_meters":3200,"station_id":"ce4bhah2rcd13ifvqej0","pricing_plan_id":"free"},{"bike_id":"752f54d3-f004-4d5d-96ba-954e79e6fda3","system_id":"levelo_inurba_marseille","lat":43.28658,"lon":5.36347,"is_reserved":false,"is_disabled":false,"rental_uris":{"android":"levelo://app?vid=752f54d3-f004-4d5d-96ba-954e79e6fda3","ios":"levelo://app?vid=752f54d3-f004-4d5d-96ba-954e79e6fda3"},"vehicle_type_id":"4","last_reported":1687388810,"current_range_meters":24800,"station_id":"ce4bhah2rcd13ifvqej0","pricing_plan_id":"free"},{"bike_id":"44adcc71-aa90-483b-88ac-2ae2603e8423","system_id":"levelo_inurba_marseille","lat":43.28657,"lon":5.36346,"is_reserved":false,"is_disabled":false,"rental_uris":{"android":"levelo://app?vid=44adcc71-aa90-483b-88ac-2ae2603e8423","ios":"levelo://app?vid=44adcc71-aa90-483b-88ac-2ae2603e8423"},"vehicle_type_id":"4","last_reported":1687388810,"current_range_meters":18400,"station_id":"ce4bhah2rcd13ifvqej0","pricing_plan_id":"free"},{"bike_id":"95baba30-79b4-4157-8f44-f30ce2a2f4fb","system_id":"levelo_inurba_marseille","lat":43.28656,"lon":5.36353,"is_reserved":false,"is_disabled":false,"rental_uris":{"android":"levelo://app?vid=95baba30-79b4-4157-8f44-f30ce2a2f4fb","ios":"levelo://app?vid=95baba30-79b4-4157-8f44-f30ce2a2f4fb"},"vehicle_type_id":"4","last_reported":1687388810,"current_range_meters":19600,"station_id":"ce4bhah2rcd13ifvqej0","pricing_plan_id":"free"},{"bike_id":"a2e91142-564f-4c44-9982-98d37590d088","system_id":"levelo_inurba_marseille","lat":43.302759,"lon":5.400793,"is_reserved":false,"is_disabled":false,"rental_uris":{"android":"levelo://app?vid=a2e91142-564f-4c44-9982-98d37590d088","ios":"levelo://app?vid=a2e91142-564f-4c44-9982-98d37590d088"},"vehicle_type_id":"4","last_reported":1687388810,"current_range_meters":9200,"station_id":"ce4bgvh2rcd13ifvqcs0","pricing_plan_id":"free"},{"bike_id":"175e63a5-4487-4a3e-95d5-7935affbc0fc","system_id":"levelo_inurba_marseille","lat":43.302759,"lon":5.400793,"is_reserved":false,"is_disabled":false,"rental_uris":{"android":"levelo://app?vid=175e63a5-4487-4a3e-95d5-7935affbc0fc","ios":"levelo://app?vid=175e63a5-4487-4a3e-95d5-7935affbc0fc"},"vehicle_type_id":"4","last_reported":1687388810,"current_range_meters":7600,"station_id":"ce4bgvh2rcd13ifvqcs0","pricing_plan_id":"free"},{"bike_id":"b227c3c8-9f67-4180-9980-27b00f3dd199","system_id":"levelo_inurba_marseille","lat":43.30252,"lon":5.40068,"is_reserved":false,"is_disabled":false,"rental_uris":{"android":"levelo://app?vid=b227c3c8-9f67-4180-9980-27b00f3dd199","ios":"levelo://app?vid=b227c3c8-9f67-4180-9980-27b00f3dd199"},"vehicle_type_id":"4","last_reported":1687388810,"current_range_meters":0,"station_id":"","pricing_plan_id":"free"},{"bike_id":"2aac3d65-58e3-4b1d-82c4-8004d8409b6f","system_id":"levelo_inurba_marseille","lat":43.302759,"lon":5.400793,"is_reserved":false,"is_disabled":false,"rental_uris":{"android":"levelo://app?vid=2aac3d65-58e3-4b1d-82c4-8004d8409b6f","ios":"levelo://app?vid=2aac3d65-58e3-4b1d-82c4-8004d8409b6f"},"vehicle_type_id":"4","last_reported":1687388810,"current_range_meters":5200,"station_id":"ce4bgvh2rcd13ifvqcs0","pricing_plan_id":"free"},{"bike_id":"a69611a4-4427-48f1-8cf5-68e91a38613f","system_id":"levelo_inurba_marseille","lat":43.286132,"lon":5.370631,"is_reserved":false,"is_disabled":false,"rental_uris":{"android":"levelo://app?vid=a69611a4-4427-48f1-8cf5-68e91a38613f","ios":"levelo://app?vid=a69611a4-4427-48f1-8cf5-68e91a38613f"},"vehicle_type_id":"4","last_reported":1687388810,"current_range_meters":0,"station_id":"ce4bht12rcd13ifvqi60","pricing_plan_id":"free"},{"bike_id":"2f435e18-b20f-4ced-a99d-40006f709dcc","system_id":"levelo_inurba_marseille","lat":43.28612,"lon":5.3706,"is_reserved":false,"is_disabled":false,"rental_uris":{"android":"levelo://app?vid=2f435e18-b20f-4ced-a99d-40006f709dcc","ios":"levelo://app?vid=2f435e18-b20f-4ced-a99d-40006f709dcc"},"vehicle_type_id":"4","last_reported":1687388810,"current_range_meters":31200,"station_id":"ce4bht12rcd13ifvqi60","pricing_plan_id":"free"},{"bike_id":"13ff0957-064f-4207-a9f7-471113d44d1f","system_id":"levelo_inurba_marseille","lat":43.286039,"lon":5.370679,"is_reserved":false,"is_disabled":false,"rental_uris":{"android":"levelo://app?vid=13ff0957-064f-4207-a9f7-471113d44d1f","ios":"levelo://app?vid=13ff0957-064f-4207-a9f7-471113d44d1f"},"vehicle_type_id":"4","last_reported":1687388810,"current_range_meters":11200,"station_id":"ce4bht12rcd13ifvqi60","pricing_plan_id":"free"},{"bike_id":"d6c3c99f-e999-49b7-ba51-0819b7208fa1","system_id":"levelo_inurba_marseille","lat":43.287185,"lon":5.379373,"is_reserved":false,"is_disabled":false,"rental_uris":{"android":"levelo://app?vid=d6c3c99f-e999-49b7-ba51-0819b7208fa1","ios":"levelo://app?vid=d6c3c99f-e999-49b7-ba51-0819b7208fa1"},"vehicle_type_id":"4","last_reported":1687388810,"current_range_meters":2000,"station_id":"ce4bh9p2rcd13ifvqec0","pricing_plan_id":"free"},{"bike_id":"040c9958-1702-4ea6-9ec5-172434330244","system_id":"levelo_inurba_marseille","lat":43.287185,"lon":5.379373,"is_reserved":false,"is_disabled":false,"rental_uris":{"android":"levelo://app?vid=040c9958-1702-4ea6-9ec5-172434330244","ios":"levelo://app?vid=040c9958-1702-4ea6-9ec5-172434330244"},"vehicle_type_id":"4","last_reported":1687388810,"current_range_meters":3200,"station_id":"ce4bh9p2rcd13ifvqec0","pricing_plan_id":"free"},{"bike_id":"1831d22d-2b5c-48e5-bdd9-d47bab21c9ff","system_id":"levelo_inurba_marseille","lat":43.316517,"lon":5.404375,"is_reserved":false,"is_disabled":false,"rental_uris":{"android":"levelo://app?vid=1831d22d-2b5c-48e5-bdd9-d47bab21c9ff","ios":"levelo://app?vid=1831d22d-2b5c-48e5-bdd9-d47bab21c9ff"},"vehicle_type_id":"4","last_reported":1687388810,"current_range_meters":16000,"station_id":"ce4bh012rcd13ifvqd00","pricing_plan_id":"free"},{"bike_id":"ff1f164a-4f31-406d-89c6-d615ce910843","system_id":"levelo_inurba_marseille","lat":43.29984,"lon":5.4009,"is_reserved":false,"is_disabled":false,"rental_uris":{"android":"levelo://app?vid=ff1f164a-4f31-406d-89c6-d615ce910843","ios":"levelo://app?vid=ff1f164a-4f31-406d-89c6-d615ce910843"},"vehicle_type_id":"4","last_reported":1687388810,"current_range_meters":23600,"station_id":"","pricing_plan_id":"free"},{"bike_id":"b9f2b932-0af5-44af-b2bc-5dac5376968f","system_id":"levelo_inurba_marseille","lat":43.291994,"lon":5.392907,"is_reserved":false,"is_disabled":false,"rental_uris":{"android":"levelo://app?vid=b9f2b932-0af5-44af-b2bc-5dac5376968f","ios":"levelo://app?vid=b9f2b932-0af5-44af-b2bc-5dac5376968f"},"vehicle_type_id":"4","last_reported":1687388810,"current_range_meters":10800,"station_id":"ce4bh192rcd13ifvqdd0","pricing_plan_id":"free"},{"bike_id":"eb096407-c82b-49ec-8758-7a6908dcf451","system_id":"levelo_inurba_marseille","lat":43.291994,"lon":5.392907,"is_reserved":false,"is_disabled":false,"rental_uris":{"android":"levelo://app?vid=eb096407-c82b-49ec-8758-7a6908dcf451","ios":"levelo://app?vid=eb096407-c82b-49ec-8758-7a6908dcf451"},"vehicle_type_id":"4","last_reported":1687388810,"current_range_meters":22800,"station_id":"ce4bh192rcd13ifvqdd0","pricing_plan_id":"free"},{"bike_id":"cb7e9f4d-bd01-431a-90e6-258e01eb7afa","system_id":"levelo_inurba_marseille","lat":43.291994,"lon":5.392907,"is_reserved":false,"is_disabled":false,"rental_uris":{"android":"levelo://app?vid=cb7e9f4d-bd01-431a-90e6-258e01eb7afa","ios":"levelo://app?vid=cb7e9f4d-bd01-431a-90e6-258e01eb7afa"},"vehicle_type_id":"4","last_reported":1687388810,"current_range_meters":18800,"station_id":"ce4bh192rcd13ifvqdd0","pricing_plan_id":"free"},{"bike_id":"5dff3f96-450a-4f3e-af1e-375a8a0ea7f6","system_id":"levelo_inurba_marseille","lat":43.28465,"lon":5.35894,"is_reserved":false,"is_disabled":false,"rental_uris":{"android":"levelo://app?vid=5dff3f96-450a-4f3e-af1e-375a8a0ea7f6","ios":"levelo://app?vid=5dff3f96-450a-4f3e-af1e-375a8a0ea7f6"},"vehicle_type_id":"4","last_reported":1687388810,"current_range_meters":31200,"station_id":"ce4bhah2rcd13ifvqei0","pricing_plan_id":"free"},{"bike_id":"d3b3a76a-3cb2-4a95-9298-bf76b8daed0f","system_id":"levelo_inurba_marseille","lat":43.28466,"lon":5.35883,"is_reserved":false,"is_disabled":false,"rental_uris":{"android":"levelo://app?vid=d3b3a76a-3cb2-4a95-9298-bf76b8daed0f","ios":"levelo://app?vid=d3b3a76a-3cb2-4a95-9298-bf76b8daed0f"},"vehicle_type_id":"4","last_reported":1687388810,"current_range_meters":20400,"station_id":"ce4bhah2rcd13ifvqei0","pricing_plan_id":"free"},{"bike_id":"47c384b1-9e91-41c0-b214-8f715b4ff9b9","system_id":"levelo_inurba_marseille","lat":43.28463,"lon":5.35891,"is_reserved":false,"is_disabled":false,"rental_uris":{"android":"levelo://app?vid=47c384b1-9e91-41c0-b214-8f715b4ff9b9","ios":"levelo://app?vid=47c384b1-9e91-41c0-b214-8f715b4ff9b9"},"vehicle_type_id":"4","last_reported":1687388810,"current_range_meters":0,"station_id":"ce4bhah2rcd13ifvqei0","pricing_plan_id":"free"},{"bike_id":"4a6f9a44-042e-4d5d-98e7-79dcc12e144b","system_id":"levelo_inurba_marseille","lat":43.28463,"lon":5.35884,"is_reserved":false,"is_disabled":false,"rental_uris":{"android":"levelo://app?vid=4a6f9a44-042e-4d5d-98e7-79dcc12e144b","ios":"levelo://app?vid=4a6f9a44-042e-4d5d-98e7-79dcc12e144b"},"vehicle_type_id":"4","last_reported":1687388810,"current_range_meters":2800,"station_id":"ce4bhah2rcd13ifvqei0","pricing_plan_id":"free"},{"bike_id":"d5a02aec-1d42-40e6-ad78-527cece98e1c","system_id":"levelo_inurba_marseille","lat":43.28462,"lon":5.35887,"is_reserved":false,"is_disabled":false,"rental_uris":{"android":"levelo://app?vid=d5a02aec-1d42-40e6-ad78-527cece98e1c","ios":"levelo://app?vid=d5a02aec-1d42-40e6-ad78-527cece98e1c"},"vehicle_type_id":"4","last_reported":1687388810,"current_range_meters":22800,"station_id":"ce4bhah2rcd13ifvqei0","pricing_plan_id":"free"},{"bike_id":"faeaab74-3ed0-4c6c-8b9f-b5295769f3d0","system_id":"levelo_inurba_marseille","lat":43.28463,"lon":5.35878,"is_reserved":false,"is_disabled":false,"rental_uris":{"android":"levelo://app?vid=faeaab74-3ed0-4c6c-8b9f-b5295769f3d0","ios":"levelo://app?vid=faeaab74-3ed0-4c6c-8b9f-b5295769f3d0"},"vehicle_type_id":"4","last_reported":1687388810,"current_range_meters":19600,"station_id":"ce4bhah2rcd13ifvqei0","pricing_plan_id":"free"},{"bike_id":"9304520b-2fd7-4a79-897c-961bcf023b33","system_id":"levelo_inurba_marseille","lat":43.28462,"lon":5.35883,"is_reserved":false,"is_disabled":false,"rental_uris":{"android":"levelo://app?vid=9304520b-2fd7-4a79-897c-961bcf023b33","ios":"levelo://app?vid=9304520b-2fd7-4a79-897c-961bcf023b33"},"vehicle_type_id":"4","last_reported":1687388810,"current_range_meters":4400,"station_id":"ce4bhah2rcd13ifvqei0","pricing_plan_id":"free"},{"bike_id":"a9108953-558a-493b-a03e-d9eda8cbbe41","system_id":"levelo_inurba_marseille","lat":43.28462,"lon":5.35875,"is_reserved":false,"is_disabled":false,"rental_uris":{"android":"levelo://app?vid=a9108953-558a-493b-a03e-d9eda8cbbe41","ios":"levelo://app?vid=a9108953-558a-493b-a03e-d9eda8cbbe41"},"vehicle_type_id":"4","last_reported":1687388810,"current_range_meters":31200,"station_id":"ce4bhah2rcd13ifvqei0","pricing_plan_id":"free"},{"bike_id":"4376cb64-11c4-46a5-87c0-bbe5b501c44b","system_id":"levelo_inurba_marseille","lat":43.2846,"lon":5.35885,"is_reserved":false,"is_disabled":false,"rental_uris":{"android":"levelo://app?vid=4376cb64-11c4-46a5-87c0-bbe5b501c44b","ios":"levelo://app?vid=4376cb64-11c4-46a5-87c0-bbe5b501c44b"},"vehicle_type_id":"4","last_reported":1687388810,"current_range_meters":0,"station_id":"ce4bhah2rcd13ifvqei0","pricing_plan_id":"free"},{"bike_id":"261b8077-1a7d-4447-af2a-e6b98b123500","system_id":"levelo_inurba_marseille","lat":43.28459,"lon":5.35888,"is_reserved":false,"is_disabled":false,"rental_uris":{"android":"levelo://app?vid=261b8077-1a7d-4447-af2a-e6b98b123500","ios":"levelo://app?vid=261b8077-1a7d-4447-af2a-e6b98b123500"},"vehicle_type_id":"4","last_reported":1687388810,"current_range_meters":31200,"station_id":"ce4bhah2rcd13ifvqei0","pricing_plan_id":"free"},{"bike_id":"89afea90-46d1-4477-9203-e5b7463e6163","system_id":"levelo_inurba_marseille","lat":43.28457,"lon":5.3589,"is_reserved":false,"is_disabled":false,"rental_uris":{"android":"levelo://app?vid=89afea90-46d1-4477-9203-e5b7463e6163","ios":"levelo://app?vid=89afea90-46d1-4477-9203-e5b7463e6163"},"vehicle_type_id":"4","last_reported":1687388810,"current_range_meters":19200,"station_id":"ce4bhah2rcd13ifvqei0","pricing_plan_id":"free"},{"bike_id":"93f25ea7-b0a5-4273-9771-a1ed6c11d141","system_id":"levelo_inurba_marseille","lat":43.294314,"lon":5.397498,"is_reserved":false,"is_disabled":false,"rental_uris":{"android":"levelo://app?vid=93f25ea7-b0a5-4273-9771-a1ed6c11d141","ios":"levelo://app?vid=93f25ea7-b0a5-4273-9771-a1ed6c11d141"},"vehicle_type_id":"4","last_reported":1687388810,"current_range_meters":400,"station_id":"ce4bh3h2rcd13ifvqdo0","pricing_plan_id":"free"},{"bike_id":"34038ddd-b3ae-45c5-83ad-38d8819f55e0","system_id":"levelo_inurba_marseille","lat":43.294314,"lon":5.397498,"is_reserved":false,"is_disabled":false,"rental_uris":{"android":"levelo://app?vid=34038ddd-b3ae-45c5-83ad-38d8819f55e0","ios":"levelo://app?vid=34038ddd-b3ae-45c5-83ad-38d8819f55e0"},"vehicle_type_id":"4","last_reported":1687388810,"current_range_meters":2400,"station_id":"ce4bh3h2rcd13ifvqdo0","pricing_plan_id":"free"},{"bike_id":"58d8de53-505c-40b5-bc26-c6fbdb869587","system_id":"levelo_inurba_marseille","lat":43.285856,"lon":5.350771,"is_reserved":false,"is_disabled":false,"rental_uris":{"android":"levelo://app?vid=58d8de53-505c-40b5-bc26-c6fbdb869587","ios":"levelo://app?vid=58d8de53-505c-40b5-bc26-c6fbdb869587"},"vehicle_type_id":"4","last_reported":1687388810,"current_range_meters":31200,"station_id":"ce4bhch2rcd13ifvqeug","pricing_plan_id":"free"},{"bike_id":"34a13efa-4d6e-4010-bd9a-f0637b153586","system_id":"levelo_inurba_marseille","lat":43.28413,"lon":5.3751,"is_reserved":false,"is_disabled":false,"rental_uris":{"android":"levelo://app?vid=34a13efa-4d6e-4010-bd9a-f0637b153586","ios":"levelo://app?vid=34a13efa-4d6e-4010-bd9a-f0637b153586"},"vehicle_type_id":"4","last_reported":1687388810,"current_range_meters":28400,"station_id":"ce4bh412rcd13ifvqds0","pricing_plan_id":"free"},{"bike_id":"2a7b407b-ce6e-40bd-a0f4-9ff50d3238e1","system_id":"levelo_inurba_marseille","lat":43.283998,"lon":5.375062,"is_reserved":false,"is_disabled":false,"rental_uris":{"android":"levelo://app?vid=2a7b407b-ce6e-40bd-a0f4-9ff50d3238e1","ios":"levelo://app?vid=2a7b407b-ce6e-40bd-a0f4-9ff50d3238e1"},"vehicle_type_id":"4","last_reported":1687388810,"current_range_meters":31200,"station_id":"ce4bh412rcd13ifvqds0","pricing_plan_id":"free"},{"bike_id":"9754121e-eb54-46c4-9b9f-65b914b859b9","system_id":"levelo_inurba_marseille","lat":43.28401,"lon":5.37533,"is_reserved":false,"is_disabled":false,"rental_uris":{"android":"levelo://app?vid=9754121e-eb54-46c4-9b9f-65b914b859b9","ios":"levelo://app?vid=9754121e-eb54-46c4-9b9f-65b914b859b9"},"vehicle_type_id":"4","last_reported":1687388810,"current_range_meters":14800,"station_id":"ce4bh412rcd13ifvqds0","pricing_plan_id":"free"},{"bike_id":"f6fda2f2-04f1-4377-bae3-2fc212d95c47","system_id":"levelo_inurba_marseille","lat":43.34237,"lon":5.3618,"is_reserved":false,"is_disabled":false,"rental_uris":{"android":"levelo://app?vid=f6fda2f2-04f1-4377-bae3-2fc212d95c47","ios":"levelo://app?vid=f6fda2f2-04f1-4377-bae3-2fc212d95c47"},"vehicle_type_id":"4","last_reported":1687388810,"current_range_meters":4400,"station_id":"","pricing_plan_id":"free"},{"bike_id":"dae8de46-a59d-434b-b2db-0f6bbd5ca81e","system_id":"levelo_inurba_marseille","lat":43.278399,"lon":5.392139,"is_reserved":false,"is_disabled":false,"rental_uris":{"android":"levelo://app?vid=dae8de46-a59d-434b-b2db-0f6bbd5ca81e","ios":"levelo://app?vid=dae8de46-a59d-434b-b2db-0f6bbd5ca81e"},"vehicle_type_id":"4","last_reported":1687388810,"current_range_meters":14000,"station_id":"ce4bhjp2rcd13ifvqga0","pricing_plan_id":"free"},{"bike_id":"87dddf10-84ef-4c92-963f-13fd8975ced1","system_id":"levelo_inurba_marseille","lat":43.3067,"lon":5.40789,"is_reserved":false,"is_disabled":false,"rental_uris":{"android":"levelo://app?vid=87dddf10-84ef-4c92-963f-13fd8975ced1","ios":"levelo://app?vid=87dddf10-84ef-4c92-963f-13fd8975ced1"},"vehicle_type_id":"4","last_reported":1687388810,"current_range_meters":12400,"station_id":"","pricing_plan_id":"free"},{"bike_id":"12b45373-f60c-451a-9c96-185c6ffc675a","system_id":"levelo_inurba_marseille","lat":43.323464,"lon":5.406297,"is_reserved":false,"is_disabled":false,"rental_uris":{"android":"levelo://app?vid=12b45373-f60c-451a-9c96-185c6ffc675a","ios":"levelo://app?vid=12b45373-f60c-451a-9c96-185c6ffc675a"},"vehicle_type_id":"4","last_reported":1687388810,"current_range_meters":4000,"station_id":"ce4bhq92rcd13ifvqhjg","pricing_plan_id":"free"},{"bike_id":"85768e5e-be3a-4cf8-b420-3b1bed89ffd1","system_id":"levelo_inurba_marseille","lat":43.284793,"lon":5.384119,"is_reserved":false,"is_disabled":false,"rental_uris":{"android":"levelo://app?vid=85768e5e-be3a-4cf8-b420-3b1bed89ffd1","ios":"levelo://app?vid=85768e5e-be3a-4cf8-b420-3b1bed89ffd1"},"vehicle_type_id":"4","last_reported":1687388810,"current_range_meters":6000,"station_id":"ce4bh512rcd13ifvqe3g","pricing_plan_id":"free"},{"bike_id":"58ee3ca0-a082-491d-a71c-a1bedff18676","system_id":"levelo_inurba_marseille","lat":43.284787,"lon":5.384116,"is_reserved":false,"is_disabled":false,"rental_uris":{"android":"levelo://app?vid=58ee3ca0-a082-491d-a71c-a1bedff18676","ios":"levelo://app?vid=58ee3ca0-a082-491d-a71c-a1bedff18676"},"vehicle_type_id":"4","last_reported":1687388810,"current_range_meters":0,"station_id":"ce4bh512rcd13ifvqe3g","pricing_plan_id":"free"},{"bike_id":"95cc062a-e41c-46ab-8a3d-f66fa6f1c973","system_id":"levelo_inurba_marseille","lat":43.288501,"lon":5.393087,"is_reserved":false,"is_disabled":false,"rental_uris":{"android":"levelo://app?vid=95cc062a-e41c-46ab-8a3d-f66fa6f1c973","ios":"levelo://app?vid=95cc062a-e41c-46ab-8a3d-f66fa6f1c973"},"vehicle_type_id":"4","last_reported":1687388810,"current_range_meters":5200,"station_id":"ce4bh2p2rcd13ifvqdi0","pricing_plan_id":"free"},{"bike_id":"00b4d942-d645-4a17-a320-9c02b5ecca68","system_id":"levelo_inurba_marseille","lat":43.288501,"lon":5.393087,"is_reserved":false,"is_disabled":false,"rental_uris":{"android":"levelo://app?vid=00b4d942-d645-4a17-a320-9c02b5ecca68","ios":"levelo://app?vid=00b4d942-d645-4a17-a320-9c02b5ecca68"},"vehicle_type_id":"4","last_reported":1687388810,"current_range_meters":8800,"station_id":"ce4bh2p2rcd13ifvqdi0","pricing_plan_id":"free"},{"bike_id":"62bde34a-c3b0-462b-8b7e-b5cb4bf8370c","system_id":"levelo_inurba_marseille","lat":43.283494,"lon":5.380945,"is_reserved":false,"is_disabled":false,"rental_uris":{"android":"levelo://app?vid=62bde34a-c3b0-462b-8b7e-b5cb4bf8370c","ios":"levelo://app?vid=62bde34a-c3b0-462b-8b7e-b5cb4bf8370c"},"vehicle_type_id":"4","last_reported":1687388810,"current_range_meters":7600,"station_id":"ce4bh412rcd13ifvqdr0","pricing_plan_id":"free"},{"bike_id":"b207c712-5a25-45e3-a255-6d5bdd55558c","system_id":"levelo_inurba_marseille","lat":43.292724,"lon":5.401131,"is_reserved":false,"is_disabled":false,"rental_uris":{"android":"levelo://app?vid=b207c712-5a25-45e3-a255-6d5bdd55558c","ios":"levelo://app?vid=b207c712-5a25-45e3-a255-6d5bdd55558c"},"vehicle_type_id":"4","last_reported":1687388810,"current_range_meters":2000,"station_id":"ce4bh312rcd13ifvqdk0","pricing_plan_id":"free"},{"bike_id":"e1de1a43-b81b-43af-aa25-2c9ec3fee38e","system_id":"levelo_inurba_marseille","lat":43.283502,"lon":5.386471,"is_reserved":false,"is_disabled":false,"rental_uris":{"android":"levelo://app?vid=e1de1a43-b81b-43af-aa25-2c9ec3fee38e","ios":"levelo://app?vid=e1de1a43-b81b-43af-aa25-2c9ec3fee38e"},"vehicle_type_id":"4","last_reported":1687388810,"current_range_meters":2400,"station_id":"ce4bh492rcd13ifvqdvg","pricing_plan_id":"free"},{"bike_id":"cf41148a-0838-41a5-8b03-72f865f824bc","system_id":"levelo_inurba_marseille","lat":43.28039,"lon":5.369297,"is_reserved":false,"is_disabled":false,"rental_uris":{"android":"levelo://app?vid=cf41148a-0838-41a5-8b03-72f865f824bc","ios":"levelo://app?vid=cf41148a-0838-41a5-8b03-72f865f824bc"},"vehicle_type_id":"4","last_reported":1687388810,"current_range_meters":30000,"station_id":"ce4bha12rcd13ifvqef0","pricing_plan_id":"free"},{"bike_id":"99929adb-751a-4fdf-adff-5c0f0b174c60","system_id":"levelo_inurba_marseille","lat":43.280382,"lon":5.369291,"is_reserved":false,"is_disabled":false,"rental_uris":{"android":"levelo://app?vid=99929adb-751a-4fdf-adff-5c0f0b174c60","ios":"levelo://app?vid=99929adb-751a-4fdf-adff-5c0f0b174c60"},"vehicle_type_id":"4","last_reported":1687388810,"current_range_meters":28400,"station_id":"ce4bha12rcd13ifvqef0","pricing_plan_id":"free"},{"bike_id":"c839b08f-bbc5-4c17-9212-24241e65cf8d","system_id":"levelo_inurba_marseille","lat":43.29039,"lon":5.39961,"is_reserved":false,"is_disabled":false,"rental_uris":{"android":"levelo://app?vid=c839b08f-bbc5-4c17-9212-24241e65cf8d","ios":"levelo://app?vid=c839b08f-bbc5-4c17-9212-24241e65cf8d"},"vehicle_type_id":"4","last_reported":1687388810,"current_range_meters":3200,"station_id":"ce4bh392rcd13ifvqdm0","pricing_plan_id":"free"},{"bike_id":"bd153cb0-8a74-4f68-a317-c4ce083b13f5","system_id":"levelo_inurba_marseille","lat":43.28355,"lon":5.38711,"is_reserved":false,"is_disabled":false,"rental_uris":{"android":"levelo://app?vid=bd153cb0-8a74-4f68-a317-c4ce083b13f5","ios":"levelo://app?vid=bd153cb0-8a74-4f68-a317-c4ce083b13f5"},"vehicle_type_id":"4","last_reported":1687388810,"current_range_meters":17200,"station_id":"","pricing_plan_id":"free"},{"bike_id":"250d6792-8b42-4e43-bded-ec98bb7fe4d1","system_id":"levelo_inurba_marseille","lat":43.28108,"lon":5.37831,"is_reserved":false,"is_disabled":false,"rental_uris":{"android":"levelo://app?vid=250d6792-8b42-4e43-bded-ec98bb7fe4d1","ios":"levelo://app?vid=250d6792-8b42-4e43-bded-ec98bb7fe4d1"},"vehicle_type_id":"4","last_reported":1687388810,"current_range_meters":12800,"station_id":"ce4bha12rcd13ifvqee0","pricing_plan_id":"free"},{"bike_id":"1678dc83-48b8-41be-b64a-d9cbe60b2c08","system_id":"levelo_inurba_marseille","lat":43.2904,"lon":5.3998,"is_reserved":false,"is_disabled":false,"rental_uris":{"android":"levelo://app?vid=1678dc83-48b8-41be-b64a-d9cbe60b2c08","ios":"levelo://app?vid=1678dc83-48b8-41be-b64a-d9cbe60b2c08"},"vehicle_type_id":"4","last_reported":1687388810,"current_range_meters":0,"station_id":"ce4bh392rcd13ifvqdm0","pricing_plan_id":"free"},{"bike_id":"69c6d6b5-519a-4df0-8fe6-82d00484e1af","system_id":"levelo_inurba_marseille","lat":43.281044,"lon":5.378308,"is_reserved":false,"is_disabled":false,"rental_uris":{"android":"levelo://app?vid=69c6d6b5-519a-4df0-8fe6-82d00484e1af","ios":"levelo://app?vid=69c6d6b5-519a-4df0-8fe6-82d00484e1af"},"vehicle_type_id":"4","last_reported":1687388810,"current_range_meters":3200,"station_id":"ce4bha12rcd13ifvqee0","pricing_plan_id":"free"},{"bike_id":"bb9f1867-50cd-49ba-91ce-c4c9a6e8669c","system_id":"levelo_inurba_marseille","lat":43.28104,"lon":5.37825,"is_reserved":false,"is_disabled":false,"rental_uris":{"android":"levelo://app?vid=bb9f1867-50cd-49ba-91ce-c4c9a6e8669c","ios":"levelo://app?vid=bb9f1867-50cd-49ba-91ce-c4c9a6e8669c"},"vehicle_type_id":"4","last_reported":1687388810,"current_range_meters":400,"station_id":"ce4bha12rcd13ifvqee0","pricing_plan_id":"free"},{"bike_id":"74ae3289-896f-403c-ac3b-f84b9beac258","system_id":"levelo_inurba_marseille","lat":43.281044,"lon":5.378308,"is_reserved":false,"is_disabled":false,"rental_uris":{"android":"levelo://app?vid=74ae3289-896f-403c-ac3b-f84b9beac258","ios":"levelo://app?vid=74ae3289-896f-403c-ac3b-f84b9beac258"},"vehicle_type_id":"4","last_reported":1687388810,"current_range_meters":27600,"station_id":"ce4bha12rcd13ifvqee0","pricing_plan_id":"free"},{"bike_id":"a27203df-6ab0-45c6-a73f-5bb6f7ece534","system_id":"levelo_inurba_marseille","lat":43.281044,"lon":5.378308,"is_reserved":false,"is_disabled":false,"rental_uris":{"android":"levelo://app?vid=a27203df-6ab0-45c6-a73f-5bb6f7ece534","ios":"levelo://app?vid=a27203df-6ab0-45c6-a73f-5bb6f7ece534"},"vehicle_type_id":"4","last_reported":1687388810,"current_range_meters":3600,"station_id":"ce4bha12rcd13ifvqee0","pricing_plan_id":"free"},{"bike_id":"cceaecc7-da83-419d-a760-b210cd973174","system_id":"levelo_inurba_marseille","lat":43.281044,"lon":5.378308,"is_reserved":false,"is_disabled":false,"rental_uris":{"android":"levelo://app?vid=cceaecc7-da83-419d-a760-b210cd973174","ios":"levelo://app?vid=cceaecc7-da83-419d-a760-b210cd973174"},"vehicle_type_id":"4","last_reported":1687388810,"current_range_meters":22400,"station_id":"ce4bha12rcd13ifvqee0","pricing_plan_id":"free"},{"bike_id":"b7a3ab05-e797-4d9f-bfb3-b92dbced7fe1","system_id":"levelo_inurba_marseille","lat":43.296263,"lon":5.40601,"is_reserved":false,"is_disabled":false,"rental_uris":{"android":"levelo://app?vid=b7a3ab05-e797-4d9f-bfb3-b92dbced7fe1","ios":"levelo://app?vid=b7a3ab05-e797-4d9f-bfb3-b92dbced7fe1"},"vehicle_type_id":"4","last_reported":1687388810,"current_range_meters":30400,"station_id":"ce4bh0h2rcd13ifvqd60","pricing_plan_id":"free"},{"bike_id":"db6d55a2-c9a8-4fe7-8d6b-cf3d50fabcea","system_id":"levelo_inurba_marseille","lat":43.28103,"lon":5.3783,"is_reserved":false,"is_disabled":false,"rental_uris":{"android":"levelo://app?vid=db6d55a2-c9a8-4fe7-8d6b-cf3d50fabcea","ios":"levelo://app?vid=db6d55a2-c9a8-4fe7-8d6b-cf3d50fabcea"},"vehicle_type_id":"4","last_reported":1687388810,"current_range_meters":1600,"station_id":"ce4bha12rcd13ifvqee0","pricing_plan_id":"free"},{"bike_id":"187d2020-8960-4b64-a4a8-8623e7824982","system_id":"levelo_inurba_marseille","lat":43.28104,"lon":5.37836,"is_reserved":false,"is_disabled":false,"rental_uris":{"android":"levelo://app?vid=187d2020-8960-4b64-a4a8-8623e7824982","ios":"levelo://app?vid=187d2020-8960-4b64-a4a8-8623e7824982"},"vehicle_type_id":"4","last_reported":1687388810,"current_range_meters":0,"station_id":"ce4bha12rcd13ifvqee0","pricing_plan_id":"free"},{"bike_id":"2b7a87f8-13ae-461c-8979-bd8772575fc0","system_id":"levelo_inurba_marseille","lat":43.281044,"lon":5.378308,"is_reserved":false,"is_disabled":false,"rental_uris":{"android":"levelo://app?vid=2b7a87f8-13ae-461c-8979-bd8772575fc0","ios":"levelo://app?vid=2b7a87f8-13ae-461c-8979-bd8772575fc0"},"vehicle_type_id":"4","last_reported":1687388810,"current_range_meters":6800,"station_id":"ce4bha12rcd13ifvqee0","pricing_plan_id":"free"},{"bike_id":"c60209e1-f9b8-41b6-b2b1-f6b801600713","system_id":"levelo_inurba_marseille","lat":43.28101,"lon":5.37827,"is_reserved":false,"is_disabled":false,"rental_uris":{"android":"levelo://app?vid=c60209e1-f9b8-41b6-b2b1-f6b801600713","ios":"levelo://app?vid=c60209e1-f9b8-41b6-b2b1-f6b801600713"},"vehicle_type_id":"4","last_reported":1687388810,"current_range_meters":2000,"station_id":"ce4bha12rcd13ifvqee0","pricing_plan_id":"free"},{"bike_id":"0ebfa868-beab-4ad8-98b9-fcc23018321d","system_id":"levelo_inurba_marseille","lat":43.28101,"lon":5.37838,"is_reserved":false,"is_disabled":false,"rental_uris":{"android":"levelo://app?vid=0ebfa868-beab-4ad8-98b9-fcc23018321d","ios":"levelo://app?vid=0ebfa868-beab-4ad8-98b9-fcc23018321d"},"vehicle_type_id":"4","last_reported":1687388810,"current_range_meters":13600,"station_id":"ce4bha12rcd13ifvqee0","pricing_plan_id":"free"},{"bike_id":"20031e6d-fe1f-4839-b985-406bbdc18eed","system_id":"levelo_inurba_marseille","lat":43.27923,"lon":5.36823,"is_reserved":false,"is_disabled":false,"rental_uris":{"android":"levelo://app?vid=20031e6d-fe1f-4839-b985-406bbdc18eed","ios":"levelo://app?vid=20031e6d-fe1f-4839-b985-406bbdc18eed"},"vehicle_type_id":"4","last_reported":1687388810,"current_range_meters":20400,"station_id":"","pricing_plan_id":"free"},{"bike_id":"3b13118e-e700-487b-8eb2-bf3de2250f2d","system_id":"levelo_inurba_marseille","lat":43.284462,"lon":5.392121,"is_reserved":false,"is_disabled":false,"rental_uris":{"android":"levelo://app?vid=3b13118e-e700-487b-8eb2-bf3de2250f2d","ios":"levelo://app?vid=3b13118e-e700-487b-8eb2-bf3de2250f2d"},"vehicle_type_id":"4","last_reported":1687388810,"current_range_meters":14000,"station_id":"ce4bhoh2rcd13ifvqh5g","pricing_plan_id":"free"},{"bike_id":"6c3e2b11-5a4d-42b1-9f9f-a3cd11cd73e6","system_id":"levelo_inurba_marseille","lat":43.284462,"lon":5.392121,"is_reserved":false,"is_disabled":false,"rental_uris":{"android":"levelo://app?vid=6c3e2b11-5a4d-42b1-9f9f-a3cd11cd73e6","ios":"levelo://app?vid=6c3e2b11-5a4d-42b1-9f9f-a3cd11cd73e6"},"vehicle_type_id":"4","last_reported":1687388810,"current_range_meters":13200,"station_id":"ce4bhoh2rcd13ifvqh5g","pricing_plan_id":"free"},{"bike_id":"5d9ded73-0842-4f01-b89b-d664679f507f","system_id":"levelo_inurba_marseille","lat":43.284462,"lon":5.392121,"is_reserved":false,"is_disabled":false,"rental_uris":{"android":"levelo://app?vid=5d9ded73-0842-4f01-b89b-d664679f507f","ios":"levelo://app?vid=5d9ded73-0842-4f01-b89b-d664679f507f"},"vehicle_type_id":"4","last_reported":1687388810,"current_range_meters":22800,"station_id":"ce4bhoh2rcd13ifvqh5g","pricing_plan_id":"free"},{"bike_id":"47c2827b-d297-46ba-96b9-bfe3d72653b2","system_id":"levelo_inurba_marseille","lat":43.284462,"lon":5.392121,"is_reserved":false,"is_disabled":false,"rental_uris":{"android":"levelo://app?vid=47c2827b-d297-46ba-96b9-bfe3d72653b2","ios":"levelo://app?vid=47c2827b-d297-46ba-96b9-bfe3d72653b2"},"vehicle_type_id":"4","last_reported":1687388810,"current_range_meters":8400,"station_id":"ce4bhoh2rcd13ifvqh5g","pricing_plan_id":"free"},{"bike_id":"e92403c5-3fc2-4e8d-8145-00725468d737","system_id":"levelo_inurba_marseille","lat":43.284462,"lon":5.392121,"is_reserved":false,"is_disabled":false,"rental_uris":{"android":"levelo://app?vid=e92403c5-3fc2-4e8d-8145-00725468d737","ios":"levelo://app?vid=e92403c5-3fc2-4e8d-8145-00725468d737"},"vehicle_type_id":"4","last_reported":1687388810,"current_range_meters":4800,"station_id":"ce4bhoh2rcd13ifvqh5g","pricing_plan_id":"free"},{"bike_id":"a6183bf1-d57a-44d9-b1ad-0041e27e7ec6","system_id":"levelo_inurba_marseille","lat":43.284462,"lon":5.392121,"is_reserved":false,"is_disabled":false,"rental_uris":{"android":"levelo://app?vid=a6183bf1-d57a-44d9-b1ad-0041e27e7ec6","ios":"levelo://app?vid=a6183bf1-d57a-44d9-b1ad-0041e27e7ec6"},"vehicle_type_id":"4","last_reported":1687388810,"current_range_meters":0,"station_id":"ce4bhoh2rcd13ifvqh5g","pricing_plan_id":"free"},{"bike_id":"a0a3ddd1-a1aa-466e-97ba-809239f19c70","system_id":"levelo_inurba_marseille","lat":43.284462,"lon":5.392121,"is_reserved":false,"is_disabled":false,"rental_uris":{"android":"levelo://app?vid=a0a3ddd1-a1aa-466e-97ba-809239f19c70","ios":"levelo://app?vid=a0a3ddd1-a1aa-466e-97ba-809239f19c70"},"vehicle_type_id":"4","last_reported":1687388810,"current_range_meters":12800,"station_id":"ce4bhoh2rcd13ifvqh5g","pricing_plan_id":"free"},{"bike_id":"5f82cc2b-47e2-493e-89d6-ca86f6aaba5a","system_id":"levelo_inurba_marseille","lat":43.28573,"lon":5.394992,"is_reserved":false,"is_disabled":false,"rental_uris":{"android":"levelo://app?vid=5f82cc2b-47e2-493e-89d6-ca86f6aaba5a","ios":"levelo://app?vid=5f82cc2b-47e2-493e-89d6-ca86f6aaba5a"},"vehicle_type_id":"4","last_reported":1687388810,"current_range_meters":11200,"station_id":"ce4bh292rcd13ifvqdg0","pricing_plan_id":"free"},{"bike_id":"d0605c49-68ae-41f0-a63f-83512d2f5572","system_id":"levelo_inurba_marseille","lat":43.285742,"lon":5.395004,"is_reserved":false,"is_disabled":false,"rental_uris":{"android":"levelo://app?vid=d0605c49-68ae-41f0-a63f-83512d2f5572","ios":"levelo://app?vid=d0605c49-68ae-41f0-a63f-83512d2f5572"},"vehicle_type_id":"4","last_reported":1687388810,"current_range_meters":26000,"station_id":"ce4bh292rcd13ifvqdg0","pricing_plan_id":"free"},{"bike_id":"a574e6b9-b8b4-49e3-a3c5-498d1f6f4f57","system_id":"levelo_inurba_marseille","lat":43.28562,"lon":5.39494,"is_reserved":false,"is_disabled":false,"rental_uris":{"android":"levelo://app?vid=a574e6b9-b8b4-49e3-a3c5-498d1f6f4f57","ios":"levelo://app?vid=a574e6b9-b8b4-49e3-a3c5-498d1f6f4f57"},"vehicle_type_id":"4","last_reported":1687388810,"current_range_meters":14000,"station_id":"ce4bh292rcd13ifvqdg0","pricing_plan_id":"free"},{"bike_id":"bde14cc2-7f6e-431e-950b-953f49fac3a5","system_id":"levelo_inurba_marseille","lat":43.326605,"lon":5.409903,"is_reserved":false,"is_disabled":false,"rental_uris":{"android":"levelo://app?vid=bde14cc2-7f6e-431e-950b-953f49fac3a5","ios":"levelo://app?vid=bde14cc2-7f6e-431e-950b-953f49fac3a5"},"vehicle_type_id":"4","last_reported":1687388810,"current_range_meters":28000,"station_id":"ce4bhpp2rcd13ifvqhgg","pricing_plan_id":"free"},{"bike_id":"189c57e1-9835-4801-a05a-c41e19fcac80","system_id":"levelo_inurba_marseille","lat":43.32657,"lon":5.40988,"is_reserved":false,"is_disabled":false,"rental_uris":{"android":"levelo://app?vid=189c57e1-9835-4801-a05a-c41e19fcac80","ios":"levelo://app?vid=189c57e1-9835-4801-a05a-c41e19fcac80"},"vehicle_type_id":"4","last_reported":1687388810,"current_range_meters":26000,"station_id":"ce4bhpp2rcd13ifvqhgg","pricing_plan_id":"free"},{"bike_id":"42b3680c-6022-4319-945e-27cb9e3f8446","system_id":"levelo_inurba_marseille","lat":43.326605,"lon":5.409903,"is_reserved":false,"is_disabled":false,"rental_uris":{"android":"levelo://app?vid=42b3680c-6022-4319-945e-27cb9e3f8446","ios":"levelo://app?vid=42b3680c-6022-4319-945e-27cb9e3f8446"},"vehicle_type_id":"4","last_reported":1687388810,"current_range_meters":21200,"station_id":"ce4bhpp2rcd13ifvqhgg","pricing_plan_id":"free"},{"bike_id":"e878727b-84cd-42b1-a62e-cfdf05b0329c","system_id":"levelo_inurba_marseille","lat":43.3266,"lon":5.40987,"is_reserved":false,"is_disabled":false,"rental_uris":{"android":"levelo://app?vid=e878727b-84cd-42b1-a62e-cfdf05b0329c","ios":"levelo://app?vid=e878727b-84cd-42b1-a62e-cfdf05b0329c"},"vehicle_type_id":"4","last_reported":1687388810,"current_range_meters":30000,"station_id":"ce4bhpp2rcd13ifvqhgg","pricing_plan_id":"free"},{"bike_id":"36610db2-8dd3-4bd2-9efb-abbd30e48c1b","system_id":"levelo_inurba_marseille","lat":43.326594,"lon":5.409889,"is_reserved":false,"is_disabled":false,"rental_uris":{"android":"levelo://app?vid=36610db2-8dd3-4bd2-9efb-abbd30e48c1b","ios":"levelo://app?vid=36610db2-8dd3-4bd2-9efb-abbd30e48c1b"},"vehicle_type_id":"4","last_reported":1687388810,"current_range_meters":13600,"station_id":"ce4bhpp2rcd13ifvqhgg","pricing_plan_id":"free"},{"bike_id":"e81eaef4-2f92-4fd8-b443-8aefe8e35a18","system_id":"levelo_inurba_marseille","lat":43.3266,"lon":5.40989,"is_reserved":false,"is_disabled":false,"rental_uris":{"android":"levelo://app?vid=e81eaef4-2f92-4fd8-b443-8aefe8e35a18","ios":"levelo://app?vid=e81eaef4-2f92-4fd8-b443-8aefe8e35a18"},"vehicle_type_id":"4","last_reported":1687388810,"current_range_meters":28400,"station_id":"ce4bhpp2rcd13ifvqhgg","pricing_plan_id":"free"},{"bike_id":"3e33ecde-d214-42f9-86e4-ca381be9da0e","system_id":"levelo_inurba_marseille","lat":43.326605,"lon":5.409903,"is_reserved":false,"is_disabled":false,"rental_uris":{"android":"levelo://app?vid=3e33ecde-d214-42f9-86e4-ca381be9da0e","ios":"levelo://app?vid=3e33ecde-d214-42f9-86e4-ca381be9da0e"},"vehicle_type_id":"4","last_reported":1687388810,"current_range_meters":20000,"station_id":"ce4bhpp2rcd13ifvqhgg","pricing_plan_id":"free"},{"bike_id":"ff22564b-7f59-4dba-a7bd-0f1bc5689db1","system_id":"levelo_inurba_marseille","lat":43.32662,"lon":5.40993,"is_reserved":false,"is_disabled":false,"rental_uris":{"android":"levelo://app?vid=ff22564b-7f59-4dba-a7bd-0f1bc5689db1","ios":"levelo://app?vid=ff22564b-7f59-4dba-a7bd-0f1bc5689db1"},"vehicle_type_id":"4","last_reported":1687388810,"current_range_meters":31200,"station_id":"ce4bhpp2rcd13ifvqhgg","pricing_plan_id":"free"},{"bike_id":"2826c0c0-2bbd-496c-a49a-d7e21b2f3635","system_id":"levelo_inurba_marseille","lat":43.304188,"lon":5.412904,"is_reserved":false,"is_disabled":false,"rental_uris":{"android":"levelo://app?vid=2826c0c0-2bbd-496c-a49a-d7e21b2f3635","ios":"levelo://app?vid=2826c0c0-2bbd-496c-a49a-d7e21b2f3635"},"vehicle_type_id":"4","last_reported":1687388810,"current_range_meters":19200,"station_id":"ce4bhop2rcd13ifvqh8g","pricing_plan_id":"free"},{"bike_id":"6491ff3a-3988-452a-9c98-097b1fe14df2","system_id":"levelo_inurba_marseille","lat":43.304188,"lon":5.412904,"is_reserved":false,"is_disabled":false,"rental_uris":{"android":"levelo://app?vid=6491ff3a-3988-452a-9c98-097b1fe14df2","ios":"levelo://app?vid=6491ff3a-3988-452a-9c98-097b1fe14df2"},"vehicle_type_id":"4","last_reported":1687388810,"current_range_meters":29200,"station_id":"ce4bhop2rcd13ifvqh8g","pricing_plan_id":"free"},