{"last_updated":1731590308,"ttl":60,"version":"2.2","data":{"bikes":[{"bike_id":"6dad0b29-8a99-4511-85ef-e4fcbf076a3d","system_id":"levelo_inurba_marseille","lat":43.284185,"lon":5.349832,"is_reserved":false,"is_disabled":false,"rental_uris":{"android":"levelo://app?vid=6dad0b29-8a99-4511-85ef-e4fcbf076a3d","ios":"levelo://app?vid=6dad0b29-8a99-4511-85ef-e4fcbf076a3d"},"vehicle_type_id":"4","last_reported":1731590308,"current_range_meters":24400,"station_id":"ce4bhbh2rcd13ifvqepg","pricing_plan_id":"cebpf4jnsgd1na2vs0mg"},{"bike_id":"8a86cdc2-56ee-4258-9f38-2fe0ed00da0e","system_id":"levelo_inurba_marseille","lat":43.3031,"lon":5.36906,"is_reserved":false,"is_disabled":false,"rental_uris":{"android":"levelo://app?vid=8a86cdc2-56ee-4258-9f38-2fe0ed00da0e","ios":"levelo://app?vid=8a86cdc2-56ee-4258-9f38-2fe0ed00da0e"},"vehicle_type_id":"4","last_reported":1731590308,"current_range_meters":30400,"station_id":"ce4bgqh2rcd13ifvqc5g","pricing_plan_id":"cebpf4jnsgd1na2vs0mg"},{"bike_id":"d72e41e0-b2be-44d4-9a5d-48e19d343592","system_id":"levelo_inurba_marseille","lat":43.31338,"lon":5.36757,"is_reserved":false,"is_disabled":false,"rental_uris":{"android":"levelo://app?vid=d72e41e0-b2be-44d4-9a5d-48e19d343592","ios":"levelo://app?vid=d72e41e0-b2be-44d4-9a5d-48e19d343592"},"vehicle_type_id":"4","last_reported":1731590308,"current_range_meters":32000,"station_id":"ce4bgr92rcd13ifvqc6g","pricing_plan_id":"cebpf4jnsgd1na2vs0mg"},{"bike_id":"c1b5b73b-c3d3-4a6e-b7dd-f8fac71d1718","system_id":"levelo_inurba_marseille","lat":43.30552,"lon":5.38423,"is_reserved":false,"is_disabled":false,"rental_uris":{"android":"levelo://app?vid=c1b5b73b-c3d3-4a6e-b7dd-f8fac71d1718","ios":"levelo://app?vid=c1b5b73b-c3d3-4a6e-b7dd-f8fac71d1718"},"vehicle_type_id":"4","last_reported":1731590308,"current_range_meters":27600,"station_id":"ce4bgg92rcd13ifvqb30","pricing_plan_id":"cebpf4jnsgd1na2vs0mg"},{"bike_id":"85ab3e2e-8d00-4a06-a938-b57537308af9","system_id":"levelo_inurba_marseille","lat":43.29717,"lon":5.37705,"is_reserved":false,"is_disabled":false,"rental_uris":{"android":"levelo://app?vid=85ab3e2e-8d00-4a06-a938-b57537308af9","ios":"levelo://app?vid=85ab3e2e-8d00-4a06-a938-b57537308af9"},"vehicle_type_id":"4","last_reported":1731590308,"current_range_meters":38400,"station_id":"ce4bgkh2rcd13ifvqbl0","pricing_plan_id":"cebpf4jnsgd1na2vs0mg"},{"bike_id":"991b96a6-4e44-41fa-ad72-b8d69ddc5e98","system_id":"levelo_inurba_marseille","lat":43.30277,"lon":5.37697,"is_reserved":false,"is_disabled":false,"rental_uris":{"android":"levelo://app?vid=991b96a6-4e44-41fa-ad72-b8d69ddc5e98","ios":"levelo://app?vid=991b96a6-4e44-41fa-ad72-b8d69ddc5e98"},"vehicle_type_id":"4","last_reported":1731590308,"current_range_meters":22000,"station_id":"ce4bguh2rcd13ifvqcj0","pricing_plan_id":"cebpf4jnsgd1na2vs0mg"},{"bike_id":"ad42ade3-b596-4498-9166-54cc27f9d576","system_id":"levelo_inurba_marseille","lat":43.26954,"lon":5.38632,"is_reserved":false,"is_disabled":false,"rental_uris":{"android":"levelo://app?vid=ad42ade3-b596-4498-9166-54cc27f9d576","ios":"levelo://app?vid=ad42ade3-b596-4498-9166-54cc27f9d576"},"vehicle_type_id":"4","last_reported":1731590308,"current_range_meters":24800,"station_id":"ce4bhh92rcd13ifvqfh0","pricing_plan_id":"cebpf4jnsgd1na2vs0mg"},{"bike_id":"77b060ce-9068-49ee-af94-75c872e69481","system_id":"levelo_inurba_marseille","lat":43.32362,"lon":5.38885,"is_reserved":false,"is_disabled":false,"rental_uris":{"android":"levelo://app?vid=77b060ce-9068-49ee-af94-75c872e69481","ios":"levelo://app?vid=77b060ce-9068-49ee-af94-75c872e69481"},"vehicle_type_id":"4","last_reported":1731590308,"current_range_meters":38800,"station_id":"ce4bhqp2rcd13ifvqhog","pricing_plan_id":"cebpf4jnsgd1na2vs0mg"},{"bike_id":"6754df0b-0982-4e89-9afc-140b59ee3d94","system_id":"levelo_inurba_marseille","lat":43.32531,"lon":5.41435,"is_reserved":false,"is_disabled":false,"rental_uris":{"android":"levelo://app?vid=6754df0b-0982-4e89-9afc-140b59ee3d94","ios":"levelo://app?vid=6754df0b-0982-4e89-9afc-140b59ee3d94"},"vehicle_type_id":"4","last_reported":1731590308,"current_range_meters":32800,"station_id":"ce4bhq12rcd13ifvqhhg","pricing_plan_id":"cebpf4jnsgd1na2vs0mg"},{"bike_id":"1c79ea48-308f-463e-9522-3be90130550b","system_id":"levelo_inurba_marseille","lat":43.296,"lon":5.38103,"is_reserved":false,"is_disabled":false,"rental_uris":{"android":"levelo://app?vid=1c79ea48-308f-463e-9522-3be90130550b","ios":"levelo://app?vid=1c79ea48-308f-463e-9522-3be90130550b"},"vehicle_type_id":"4","last_reported":1731590308,"current_range_meters":28400,"station_id":"ce4bgl12rcd13ifvqbo0","pricing_plan_id":"cebpf4jnsgd1na2vs0mg"},{"bike_id":"91fe36a8-bc4f-4b08-8287-b0444a16f338","system_id":"levelo_inurba_marseille","lat":43.2313,"lon":5.43723,"is_reserved":false,"is_disabled":false,"rental_uris":{"android":"levelo://app?vid=91fe36a8-bc4f-4b08-8287-b0444a16f338","ios":"levelo://app?vid=91fe36a8-bc4f-4b08-8287-b0444a16f338"},"vehicle_type_id":"4","last_reported":1731590308,"current_range_meters":38400,"station_id":"ce4bhmp2rcd13ifvqgog","pricing_plan_id":"cebpf4jnsgd1na2vs0mg"},{"bike_id":"8472a442-1b27-4429-9cbb-acb2837e6d0f","system_id":"levelo_inurba_marseille","lat":43.24081,"lon":5.37737,"is_reserved":false,"is_disabled":false,"rental_uris":{"android":"levelo://app?vid=8472a442-1b27-4429-9cbb-acb2837e6d0f","ios":"levelo://app?vid=8472a442-1b27-4429-9cbb-acb2837e6d0f"},"vehicle_type_id":"4","last_reported":1731590308,"current_range_meters":24400,"station_id":"ce4bhnp2rcd13ifvqgvg","pricing_plan_id":"cebpf4jnsgd1na2vs0mg"},{"bike_id":"cc792d10-5e3a-4b03-849b-38a1e4ffc260","system_id":"levelo_inurba_marseille","lat":43.337444,"lon":5.374475,"is_reserved":false,"is_disabled":false,"rental_uris":{"android":"levelo://app?vid=cc792d10-5e3a-4b03-849b-38a1e4ffc260","ios":"levelo://app?vid=cc792d10-5e3a-4b03-849b-38a1e4ffc260"},"vehicle_type_id":"4","last_reported":1731590308,"current_range_meters":34800,"station_id":"","pricing_plan_id":"cebpf4jnsgd1na2vs0mg"},{"bike_id":"1d31cf4d-c9fd-4282-a9cb-723e108c3e63","system_id":"levelo_inurba_marseille","lat":43.25504,"lon":5.37653,"is_reserved":false,"is_disabled":false,"rental_uris":{"android":"levelo://app?vid=1d31cf4d-c9fd-4282-a9cb-723e108c3e63","ios":"levelo://app?vid=1d31cf4d-c9fd-4282-a9cb-723e108c3e63"},"vehicle_type_id":"4","last_reported":1731590308,"current_range_meters":38800,"station_id":"ce4bhh12rcd13ifvqff0","pricing_plan_id":"cebpf4jnsgd1na2vs0mg"},{"bike_id":"9d3d8f04-350a-47f9-a91d-71c04ea9de18","system_id":"levelo_inurba_marseille","lat":43.23152,"lon":5.43708,"is_reserved":false,"is_disabled":false,"rental_uris":{"android":"levelo://app?vid=9d3d8f04-350a-47f9-a91d-71c04ea9de18","ios":"levelo://app?vid=9d3d8f04-350a-47f9-a91d-71c04ea9de18"},"vehicle_type_id":"4","last_reported":1731590308,"current_range_meters":39200,"station_id":"ce4bhmp2rcd13ifvqgog","pricing_plan_id":"cebpf4jnsgd1na2vs0mg"},{"bike_id":"1a43676e-db80-45d5-a5f8-a8f236c408e8","system_id":"levelo_inurba_marseille","lat":43.24074,"lon":5.37759,"is_reserved":false,"is_disabled":false,"rental_uris":{"android":"levelo://app?vid=1a43676e-db80-45d5-a5f8-a8f236c408e8","ios":"levelo://app?vid=1a43676e-db80-45d5-a5f8-a8f236c408e8"},"vehicle_type_id":"4","last_reported":1731590308,"current_range_meters":21600,"station_id":"ce4bhnp2rcd13ifvqgvg","pricing_plan_id":"cebpf4jnsgd1na2vs0mg"},{"bike_id":"7e465898-a890-47d7-a27e-266939b652fb","system_id":"levelo_inurba_marseille","lat":43.25003,"lon":5.38923,"is_reserved":false,"is_disabled":false,"rental_uris":{"android":"levelo://app?vid=7e465898-a890-47d7-a27e-266939b652fb","ios":"levelo://app?vid=7e465898-a890-47d7-a27e-266939b652fb"},"vehicle_type_id":"4","last_reported":1731590308,"current_range_meters":36800,"station_id":"ce4bhgp2rcd13ifvqfd0","pricing_plan_id":"cebpf4jnsgd1na2vs0mg"},{"bike_id":"f3448d52-89fe-4d9f-b89c-4e885c988277","system_id":"levelo_inurba_marseille","lat":43.24386,"lon":5.3706,"is_reserved":false,"is_disabled":false,"rental_uris":{"android":"levelo://app?vid=f3448d52-89fe-4d9f-b89c-4e885c988277","ios":"levelo://app?vid=f3448d52-89fe-4d9f-b89c-4e885c988277"},"vehicle_type_id":"4","last_reported":1731590308,"current_range_meters":37600,"station_id":"ce4bhhh2rcd13ifvqfk0","pricing_plan_id":"cebpf4jnsgd1na2vs0mg"},{"bike_id":"67d45d05-a7c9-4653-9f83-eef759731ee2","system_id":"levelo_inurba_marseille","lat":43.27684,"lon":5.38879,"is_reserved":false,"is_disabled":false,"rental_uris":{"android":"levelo://app?vid=67d45d05-a7c9-4653-9f83-eef759731ee2","ios":"levelo://app?vid=67d45d05-a7c9-4653-9f83-eef759731ee2"},"vehicle_type_id":"4","last_reported":1731590308,"current_range_meters":24000,"station_id":"ce4bhi12rcd13ifvqfo0","pricing_plan_id":"cebpf4jnsgd1na2vs0mg"},{"bike_id":"1622353b-6708-48bc-85a0-98f1e9da5565","system_id":"levelo_inurba_marseille","lat":43.27991,"lon":5.41645,"is_reserved":false,"is_disabled":false,"rental_uris":{"android":"levelo://app?vid=1622353b-6708-48bc-85a0-98f1e9da5565","ios":"levelo://app?vid=1622353b-6708-48bc-85a0-98f1e9da5565"},"vehicle_type_id":"4","last_reported":1731590308,"current_range_meters":20400,"station_id":"ce4bho12rcd13ifvqh1g","pricing_plan_id":"cebpf4jnsgd1na2vs0mg"},{"bike_id":"69daa5eb-5a54-41c1-841e-b0d404ffc277","system_id":"levelo_inurba_marseille","lat":43.3033,"lon":5.40435,"is_reserved":false,"is_disabled":false,"rental_uris":{"android":"levelo://app?vid=69daa5eb-5a54-41c1-841e-b0d404ffc277","ios":"levelo://app?vid=69daa5eb-5a54-41c1-841e-b0d404ffc277"},"vehicle_type_id":"4","last_reported":1731590308,"current_range_meters":24400,"station_id":"ce4bh012rcd13ifvqd10","pricing_plan_id":"cebpf4jnsgd1na2vs0mg"},{"bike_id":"4a74f469-1d99-48ee-a8ca-9199898c00a4","system_id":"levelo_inurba_marseille","lat":43.23199,"lon":5.35547,"is_reserved":false,"is_disabled":false,"rental_uris":{"android":"levelo://app?vid=4a74f469-1d99-48ee-a8ca-9199898c00a4","ios":"levelo://app?vid=4a74f469-1d99-48ee-a8ca-9199898c00a4"},"vehicle_type_id":"4","last_reported":1731590308,"current_range_meters":20800,"station_id":"ce4bhu92rcd13ifvqi70","pricing_plan_id":"cebpf4jnsgd1na2vs0mg"},{"bike_id":"c4b2bafb-ae76-412e-a120-055cc31bbdd6","system_id":"levelo_inurba_marseille","lat":43.24994,"lon":5.38941,"is_reserved":false,"is_disabled":false,"rental_uris":{"android":"levelo://app?vid=c4b2bafb-ae76-412e-a120-055cc31bbdd6","ios":"levelo://app?vid=c4b2bafb-ae76-412e-a120-055cc31bbdd6"},"vehicle_type_id":"4","last_reported":1731590308,"current_range_meters":22000,"station_id":"ce4bhgp2rcd13ifvqfd0","pricing_plan_id":"cebpf4jnsgd1na2vs0mg"},{"bike_id":"7e547e09-0773-46bf-85b5-de051bc90515","system_id":"levelo_inurba_marseille","lat":43.30529,"lon":5.367013,"is_reserved":false,"is_disabled":false,"rental_uris":{"android":"levelo://app?vid=7e547e09-0773-46bf-85b5-de051bc90515","ios":"levelo://app?vid=7e547e09-0773-46bf-85b5-de051bc90515"},"vehicle_type_id":"4","last_reported":1731590308,"current_range_meters":36800,"station_id":"ce4bgrp2rcd13ifvqc9g","pricing_plan_id":"cebpf4jnsgd1na2vs0mg"},{"bike_id":"20a0e39a-5466-417a-9ce6-1533e5753c37","system_id":"levelo_inurba_marseille","lat":43.30933,"lon":5.40145,"is_reserved":false,"is_disabled":false,"rental_uris":{"android":"levelo://app?vid=20a0e39a-5466-417a-9ce6-1533e5753c37","ios":"levelo://app?vid=20a0e39a-5466-417a-9ce6-1533e5753c37"},"vehicle_type_id":"4","last_reported":1731590308,"current_range_meters":38800,"station_id":"ce4bgvp2rcd13ifvqct0","pricing_plan_id":"cebpf4jnsgd1na2vs0mg"},{"bike_id":"b3940d9d-c0a0-4e69-9f77-ae8d503d6517","system_id":"levelo_inurba_marseille","lat":43.2407,"lon":5.37762,"is_reserved":false,"is_disabled":false,"rental_uris":{"android":"levelo://app?vid=b3940d9d-c0a0-4e69-9f77-ae8d503d6517","ios":"levelo://app?vid=b3940d9d-c0a0-4e69-9f77-ae8d503d6517"},"vehicle_type_id":"4","last_reported":1731590308,"current_range_meters":31200,"station_id":"ce4bhnp2rcd13ifvqgvg","pricing_plan_id":"cebpf4jnsgd1na2vs0mg"},{"bike_id":"565b447b-438c-4818-a984-de62698e5629","system_id":"levelo_inurba_marseille","lat":43.29306,"lon":5.371762,"is_reserved":false,"is_disabled":false,"rental_uris":{"android":"levelo://app?vid=565b447b-438c-4818-a984-de62698e5629","ios":"levelo://app?vid=565b447b-438c-4818-a984-de62698e5629"},"vehicle_type_id":"4","last_reported":1731590308,"current_range_meters":24000,"station_id":"ce4bgh92rcd13ifvqb40","pricing_plan_id":"cebpf4jnsgd1na2vs0mg"},{"bike_id":"af11ea44-5a8f-470d-b91f-307c73da6a58","system_id":"levelo_inurba_marseille","lat":43.29303,"lon":5.37454,"is_reserved":false,"is_disabled":false,"rental_uris":{"android":"levelo://app?vid=af11ea44-5a8f-470d-b91f-307c73da6a58","ios":"levelo://app?vid=af11ea44-5a8f-470d-b91f-307c73da6a58"},"vehicle_type_id":"4","last_reported":1731590308,"current_range_meters":23200,"station_id":"ce4bgi12rcd13ifvqb70","pricing_plan_id":"cebpf4jnsgd1na2vs0mg"},{"bike_id":"47c967a5-3c8a-4d73-a522-90111361a0a0","system_id":"levelo_inurba_marseille","lat":43.32481,"lon":5.36564,"is_reserved":false,"is_disabled":false,"rental_uris":{"android":"levelo://app?vid=47c967a5-3c8a-4d73-a522-90111361a0a0","ios":"levelo://app?vid=47c967a5-3c8a-4d73-a522-90111361a0a0"},"vehicle_type_id":"4","last_reported":1731590308,"current_range_meters":38800,"station_id":"ce4bhs12rcd13ifvqhvg","pricing_plan_id":"cebpf4jnsgd1na2vs0mg"},{"bike_id":"b401526e-9797-412b-a024-2aeff2654ce6","system_id":"levelo_inurba_marseille","lat":43.27933,"lon":5.35496,"is_reserved":false,"is_disabled":false,"rental_uris":{"android":"levelo://app?vid=b401526e-9797-412b-a024-2aeff2654ce6","ios":"levelo://app?vid=b401526e-9797-412b-a024-2aeff2654ce6"},"vehicle_type_id":"4","last_reported":1731590308,"current_range_meters":4800,"station_id":"","pricing_plan_id":"cebpf4jnsgd1na2vs0mg"},{"bike_id":"a32d9d84-8ed2-4c72-bc8c-a8b1f9fbf83a","system_id":"levelo_inurba_marseille","lat":43.30528,"lon":5.36559,"is_reserved":false,"is_disabled":false,"rental_uris":{"android":"levelo://app?vid=a32d9d84-8ed2-4c72-bc8c-a8b1f9fbf83a","ios":"levelo://app?vid=a32d9d84-8ed2-4c72-bc8c-a8b1f9fbf83a"},"vehicle_type_id":"4","last_reported":1731590308,"current_range_meters":6400,"station_id":"ce4bgs12rcd13ifvqcag","pricing_plan_id":"cebpf4jnsgd1na2vs0mg"},{"bike_id":"4a06006d-6c0d-4453-846e-eca266cb000d","system_id":"levelo_inurba_marseille","lat":43.29711,"lon":5.36606,"is_reserved":false,"is_disabled":false,"rental_uris":{"android":"levelo://app?vid=4a06006d-6c0d-4453-846e-eca266cb000d","ios":"levelo://app?vid=4a06006d-6c0d-4453-846e-eca266cb000d"},"vehicle_type_id":"4","last_reported":1731590308,"current_range_meters":33600,"station_id":"ce4bgn12rcd13ifvqbt0","pricing_plan_id":"cebpf4jnsgd1na2vs0mg"},{"bike_id":"2760fdc7-884c-4ba5-870a-94984248d5c7","system_id":"levelo_inurba_marseille","lat":43.32532,"lon":5.41441,"is_reserved":false,"is_disabled":false,"rental_uris":{"android":"levelo://app?vid=2760fdc7-884c-4ba5-870a-94984248d5c7","ios":"levelo://app?vid=2760fdc7-884c-4ba5-870a-94984248d5c7"},"vehicle_type_id":"4","last_reported":1731590308,"current_range_meters":32000,"station_id":"ce4bhq12rcd13ifvqhhg","pricing_plan_id":"cebpf4jnsgd1na2vs0mg"},{"bike_id":"03829838-9104-4fc2-a922-3274a797c9f7","system_id":"levelo_inurba_marseille","lat":43.28073,"lon":5.39657,"is_reserved":false,"is_disabled":false,"rental_uris":{"android":"levelo://app?vid=03829838-9104-4fc2-a922-3274a797c9f7","ios":"levelo://app?vid=03829838-9104-4fc2-a922-3274a797c9f7"},"vehicle_type_id":"4","last_reported":1731590308,"current_range_meters":36400,"station_id":"ce4bho12rcd13ifvqh2g","pricing_plan_id":"cebpf4jnsgd1na2vs0mg"},{"bike_id":"6d1702b2-f112-4c7b-9e16-c9b5276d0d8e","system_id":"levelo_inurba_marseille","lat":43.30864,"lon":5.39666,"is_reserved":false,"is_disabled":false,"rental_uris":{"android":"levelo://app?vid=6d1702b2-f112-4c7b-9e16-c9b5276d0d8e","ios":"levelo://app?vid=6d1702b2-f112-4c7b-9e16-c9b5276d0d8e"},"vehicle_type_id":"4","last_reported":1731590308,"current_range_meters":33600,"station_id":"ce4bh3h2rcd13ifvqdo0","pricing_plan_id":"cebpf4jnsgd1na2vs0mg"},{"bike_id":"ea13fe6a-e742-4a46-ad04-b77e89eee5c5","system_id":"levelo_inurba_marseille","lat":43.29295,"lon":5.37457,"is_reserved":false,"is_disabled":false,"rental_uris":{"android":"levelo://app?vid=ea13fe6a-e742-4a46-ad04-b77e89eee5c5","ios":"levelo://app?vid=ea13fe6a-e742-4a46-ad04-b77e89eee5c5"},"vehicle_type_id":"4","last_reported":1731590308,"current_range_meters":9200,"station_id":"ce4bgi12rcd13ifvqb70","pricing_plan_id":"cebpf4jnsgd1na2vs0mg"},{"bike_id":"2d988347-9c45-4c49-a1fc-7c2979a31818","system_id":"levelo_inurba_marseille","lat":43.2827,"lon":5.35075,"is_reserved":false,"is_disabled":false,"rental_uris":{"android":"levelo://app?vid=2d988347-9c45-4c49-a1fc-7c2979a31818","ios":"levelo://app?vid=2d988347-9c45-4c49-a1fc-7c2979a31818"},"vehicle_type_id":"4","last_reported":1731590308,"current_range_meters":31200,"station_id":"ce4bhbp2rcd13ifvqerg","pricing_plan_id":"cebpf4jnsgd1na2vs0mg"},{"bike_id":"7427f906-074e-419b-9913-72e531b99e24","system_id":"levelo_inurba_marseille","lat":43.26059,"lon":5.39387,"is_reserved":false,"is_disabled":false,"rental_uris":{"android":"levelo://app?vid=7427f906-074e-419b-9913-72e531b99e24","ios":"levelo://app?vid=7427f906-074e-419b-9913-72e531b99e24"},"vehicle_type_id":"4","last_reported":1731590308,"current_range_meters":12000,"station_id":"ce4bhh92rcd13ifvqfj0","pricing_plan_id":"cebpf4jnsgd1na2vs0mg"},{"bike_id":"481bfc19-2c1a-4390-aad8-0869310d51b6","system_id":"levelo_inurba_marseille","lat":43.23154,"lon":5.43703,"is_reserved":false,"is_disabled":false,"rental_uris":{"android":"levelo://app?vid=481bfc19-2c1a-4390-aad8-0869310d51b6","ios":"levelo://app?vid=481bfc19-2c1a-4390-aad8-0869310d51b6"},"vehicle_type_id":"4","last_reported":1731590308,"current_range_meters":18800,"station_id":"ce4bhmp2rcd13ifvqgog","pricing_plan_id":"cebpf4jnsgd1na2vs0mg"},{"bike_id":"785a4434-c998-4c07-9e49-6240ac8eab46","system_id":"levelo_inurba_marseille","lat":43.33023,"lon":5.39041,"is_reserved":false,"is_disabled":false,"rental_uris":{"android":"levelo://app?vid=785a4434-c998-4c07-9e49-6240ac8eab46","ios":"levelo://app?vid=785a4434-c998-4c07-9e49-6240ac8eab46"},"vehicle_type_id":"4","last_reported":1731590308,"current_range_meters":38800,"station_id":"ce4bhr92rcd13ifvqhrg","pricing_plan_id":"cebpf4jnsgd1na2vs0mg"},{"bike_id":"87fa306c-1629-4fae-8400-089be70f13a3","system_id":"levelo_inurba_marseille","lat":43.26565,"lon":5.39004,"is_reserved":false,"is_disabled":false,"rental_uris":{"android":"levelo://app?vid=87fa306c-1629-4fae-8400-089be70f13a3","ios":"levelo://app?vid=87fa306c-1629-4fae-8400-089be70f13a3"},"vehicle_type_id":"4","last_reported":1731590308,"current_range_meters":8800,"station_id":"ce4bhe12rcd13ifvqf30","pricing_plan_id":"cebpf4jnsgd1na2vs0mg"},{"bike_id":"fbba0614-e375-49e7-94e8-de49b528b3ef","system_id":"levelo_inurba_marseille","lat":43.28348,"lon":5.38109,"is_reserved":false,"is_disabled":false,"rental_uris":{"android":"levelo://app?vid=fbba0614-e375-49e7-94e8-de49b528b3ef","ios":"levelo://app?vid=fbba0614-e375-49e7-94e8-de49b528b3ef"},"vehicle_type_id":"4","last_reported":1731590308,"current_range_meters":38400,"station_id":"ce4bh412rcd13ifvqdr0","pricing_plan_id":"cebpf4jnsgd1na2vs0mg"},{"bike_id":"75801e28-b69b-4a5e-945c-714926c1ddf7","system_id":"levelo_inurba_marseille","lat":43.337444,"lon":5.374475,"is_reserved":false,"is_disabled":false,"rental_uris":{"android":"levelo://app?vid=75801e28-b69b-4a5e-945c-714926c1ddf7","ios":"levelo://app?vid=75801e28-b69b-4a5e-945c-714926c1ddf7"},"vehicle_type_id":"4","last_reported":1731590308,"current_range_meters":35200,"station_id":"","pricing_plan_id":"cebpf4jnsgd1na2vs0mg"},{"bike_id":"4f156a5d-4a9c-47e7-b58b-4a27689a65bd","system_id":"levelo_inurba_marseille","lat":43.300842,"lon":5.386898,"is_reserved":false,"is_disabled":false,"rental_uris":{"android":"levelo://app?vid=4f156a5d-4a9c-47e7-b58b-4a27689a65bd","ios":"levelo://app?vid=4f156a5d-4a9c-47e7-b58b-4a27689a65bd"},"vehicle_type_id":"4","last_reported":1731590308,"current_range_meters":30400,"station_id":"ce4bgj92rcd13ifvqbd0","pricing_plan_id":"cebpf4jnsgd1na2vs0mg"},{"bike_id":"b55257a8-3caf-4eda-8ea3-bd3196d77158","system_id":"levelo_inurba_marseille","lat":43.308868,"lon":5.371946,"is_reserved":false,"is_disabled":false,"rental_uris":{"android":"levelo://app?vid=b55257a8-3caf-4eda-8ea3-bd3196d77158","ios":"levelo://app?vid=b55257a8-3caf-4eda-8ea3-bd3196d77158"},"vehicle_type_id":"4","last_reported":1731590308,"current_range_meters":28400,"station_id":"ce4bguh2rcd13ifvqckg","pricing_plan_id":"cebpf4jnsgd1na2vs0mg"},{"bike_id":"1fe395a2-697b-4dbd-915f-7cd3940edb4b","system_id":"levelo_inurba_marseille","lat":43.29794,"lon":5.38104,"is_reserved":false,"is_disabled":false,"rental_uris":{"android":"levelo://app?vid=1fe395a2-697b-4dbd-915f-7cd3940edb4b","ios":"levelo://app?vid=1fe395a2-697b-4dbd-915f-7cd3940edb4b"},"vehicle_type_id":"4","last_reported":1731590308,"current_range_meters":28800,"station_id":"ce4bgip2rcd13ifvqbb0","pricing_plan_id":"cebpf4jnsgd1na2vs0mg"},{"bike_id":"e1a6970f-d408-49cf-a4fe-ef82d2512acf","system_id":"levelo_inurba_marseille","lat":43.32483,"lon":5.36558,"is_reserved":false,"is_disabled":false,"rental_uris":{"android":"levelo://app?vid=e1a6970f-d408-49cf-a4fe-ef82d2512acf","ios":"levelo://app?vid=e1a6970f-d408-49cf-a4fe-ef82d2512acf"},"vehicle_type_id":"4","last_reported":1731590308,"current_range_meters":13600,"station_id":"ce4bhs12rcd13ifvqhvg","pricing_plan_id":"cebpf4jnsgd1na2vs0mg"},{"bike_id":"ee018ac5-64d2-4491-801f-4f769f56b01c","system_id":"levelo_inurba_marseille","lat":43.30282,"lon":5.37708,"is_reserved":false,"is_disabled":false,"rental_uris":{"android":"levelo://app?vid=ee018ac5-64d2-4491-801f-4f769f56b01c","ios":"levelo://app?vid=ee018ac5-64d2-4491-801f-4f769f56b01c"},"vehicle_type_id":"4","last_reported":1731590308,"current_range_meters":16000,"station_id":"ce4bguh2rcd13ifvqcj0","pricing_plan_id":"cebpf4jnsgd1na2vs0mg"},{"bike_id":"a88a4619-07f1-45c7-9eba-6379a6a8eb68","system_id":"levelo_inurba_marseille","lat":43.30563,"lon":5.36515,"is_reserved":false,"is_disabled":false,"rental_uris":{"android":"levelo://app?vid=a88a4619-07f1-45c7-9eba-6379a6a8eb68","ios":"levelo://app?vid=a88a4619-07f1-45c7-9eba-6379a6a8eb68"},"vehicle_type_id":"4","last_reported":1731590308,"current_range_meters":40000,"station_id":"ce4bgs12rcd13ifvqcag","pricing_plan_id":"cebpf4jnsgd1na2vs0mg"},{"bike_id":"2acbc217-24f2-49f4-8d2d-28d308c39e88","system_id":"levelo_inurba_marseille","lat":43.29525,"lon":5.37509,"is_reserved":false,"is_disabled":false,"rental_uris":{"android":"levelo://app?vid=2acbc217-24f2-49f4-8d2d-28d308c39e88","ios":"levelo://app?vid=2acbc217-24f2-49f4-8d2d-28d308c39e88"},"vehicle_type_id":"4","last_reported":1731590308,"current_range_meters":30400,"station_id":"ce4bgkp2rcd13ifvqbmg","pricing_plan_id":"cebpf4jnsgd1na2vs0mg"},{"bike_id":"e2badf85-87df-423f-90ae-3db5d2b1e066","system_id":"levelo_inurba_marseille","lat":43.29003,"lon":5.3562,"is_reserved":false,"is_disabled":false,"rental_uris":{"android":"levelo://app?vid=e2badf85-87df-423f-90ae-3db5d2b1e066","ios":"levelo://app?vid=e2badf85-87df-423f-90ae-3db5d2b1e066"},"vehicle_type_id":"4","last_reported":1731590308,"current_range_meters":28000,"station_id":"ce4bhb92rcd13ifvqen0","pricing_plan_id":"cebpf4jnsgd1na2vs0mg"},{"bike_id":"7006e856-2ce9-4055-a812-5cb80a2d0764","system_id":"levelo_inurba_marseille","lat":43.28617,"lon":5.35113,"is_reserved":false,"is_disabled":false,"rental_uris":{"android":"levelo://app?vid=7006e856-2ce9-4055-a812-5cb80a2d0764","ios":"levelo://app?vid=7006e856-2ce9-4055-a812-5cb80a2d0764"},"vehicle_type_id":"4","last_reported":1731590308,"current_range_meters":32000,"station_id":"ce4bhch2rcd13ifvqeug","pricing_plan_id":"cebpf4jnsgd1na2vs0mg"},{"bike_id":"2201c593-4660-490e-bb1a-ffb1e22d4cef","system_id":"levelo_inurba_marseille","lat":43.29058,"lon":5.35911,"is_reserved":false,"is_disabled":false,"rental_uris":{"android":"levelo://app?vid=2201c593-4660-490e-bb1a-ffb1e22d4cef","ios":"levelo://app?vid=2201c593-4660-490e-bb1a-ffb1e22d4cef"},"vehicle_type_id":"4","last_reported":1731590308,"current_range_meters":38800,"station_id":"ce4bha92rcd13ifvqeg0","pricing_plan_id":"cebpf4jnsgd1na2vs0mg"},{"bike_id":"a583d3ea-648d-4ca4-ab6d-7c3a4f13bd72","system_id":"levelo_inurba_marseille","lat":43.23967,"lon":5.36632,"is_reserved":false,"is_disabled":false,"rental_uris":{"android":"levelo://app?vid=a583d3ea-648d-4ca4-ab6d-7c3a4f13bd72","ios":"levelo://app?vid=a583d3ea-648d-4ca4-ab6d-7c3a4f13bd72"},"vehicle_type_id":"4","last_reported":1731590308,"current_range_meters":23200,"station_id":"ce4bhi12rcd13ifvqfp0","pricing_plan_id":"cebpf4jnsgd1na2vs0mg"},{"bike_id":"6a71652b-ce40-4188-b97e-0fbddb668e32","system_id":"levelo_inurba_marseille","lat":43.298004,"lon":5.380967,"is_reserved":false,"is_disabled":false,"rental_uris":{"android":"levelo://app?vid=6a71652b-ce40-4188-b97e-0fbddb668e32","ios":"levelo://app?vid=6a71652b-ce40-4188-b97e-0fbddb668e32"},"vehicle_type_id":"4","last_reported":1731590308,"current_range_meters":9200,"station_id":"ce4bgip2rcd13ifvqbb0","pricing_plan_id":"cebpf4jnsgd1na2vs0mg"},{"bike_id":"817849d8-25eb-48a4-b155-e11b87f519ff","system_id":"levelo_inurba_marseille","lat":43.30544,"lon":5.36539,"is_reserved":false,"is_disabled":false,"rental_uris":{"android":"levelo://app?vid=817849d8-25eb-48a4-b155-e11b87f519ff","ios":"levelo://app?vid=817849d8-25eb-48a4-b155-e11b87f519ff"},"vehicle_type_id":"4","last_reported":1731590308,"current_range_meters":39200,"station_id":"ce4bgs12rcd13ifvqcag","pricing_plan_id":"cebpf4jnsgd1na2vs0mg"},{"bike_id":"19403e5b-9388-47f8-803d-8d1235a538c6","system_id":"levelo_inurba_marseille","lat":43.23193,"lon":5.35555,"is_reserved":false,"is_disabled":false,"rental_uris":{"android":"levelo://app?vid=19403e5b-9388-47f8-803d-8d1235a538c6","ios":"levelo://app?vid=19403e5b-9388-47f8-803d-8d1235a538c6"},"vehicle_type_id":"4","last_reported":1731590308,"current_range_meters":14000,"station_id":"ce4bhu92rcd13ifvqi70","pricing_plan_id":"cebpf4jnsgd1na2vs0mg"},{"bike_id":"2294c13e-402d-440a-a9aa-da6a0cc0f5d8","system_id":"levelo_inurba_marseille","lat":43.28714,"lon":5.37942,"is_reserved":false,"is_disabled":false,"rental_uris":{"android":"levelo://app?vid=2294c13e-402d-440a-a9aa-da6a0cc0f5d8","ios":"levelo://app?vid=2294c13e-402d-440a-a9aa-da6a0cc0f5d8"},"vehicle_type_id":"4","last_reported":1731590308,"current_range_meters":14800,"station_id":"ce4bh9p2rcd13ifvqec0","pricing_plan_id":"cebpf4jnsgd1na2vs0mg"},{"bike_id":"2a1297aa-d891-43f5-96c1-3c24113c5f2c","system_id":"levelo_inurba_marseille","lat":43.3054,"lon":5.36548,"is_reserved":false,"is_disabled":false,"rental_uris":{"android":"levelo://app?vid=2a1297aa-d891-43f5-96c1-3c24113c5f2c","ios":"levelo://app?vid=2a1297aa-d891-43f5-96c1-3c24113c5f2c"},"vehicle_type_id":"4","last_reported":1731590308,"current_range_meters":22000,"station_id":"ce4bgs12rcd13ifvqcag","pricing_plan_id":"cebpf4jnsgd1na2vs0mg"},{"bike_id":"eca12abc-63f4-4905-a469-a9c625924656","system_id":"levelo_inurba_marseille","lat":43.26564,"lon":5.39009,"is_reserved":false,"is_disabled":false,"rental_uris":{"android":"levelo://app?vid=eca12abc-63f4-4905-a469-a9c625924656","ios":"levelo://app?vid=eca12abc-63f4-4905-a469-a9c625924656"},"vehicle_type_id":"4","last_reported":1731590308,"current_range_meters":29600,"station_id":"ce4bhe12rcd13ifvqf30","pricing_plan_id":"cebpf4jnsgd1na2vs0mg"},{"bike_id":"0d341987-400c-4966-a26c-b3065c2afc2b","system_id":"levelo_inurba_marseille","lat":43.28475,"lon":5.38562,"is_reserved":false,"is_disabled":false,"rental_uris":{"android":"levelo://app?vid=0d341987-400c-4966-a26c-b3065c2afc2b","ios":"levelo://app?vid=0d341987-400c-4966-a26c-b3065c2afc2b"},"vehicle_type_id":"4","last_reported":1731590308,"current_range_meters":12400,"station_id":"ce4bh8p2rcd13ifvqeb0","pricing_plan_id":"cebpf4jnsgd1na2vs0mg"},{"bike_id":"57cf3c33-d7cf-45c3-9d4e-c7e193abcd2f","system_id":"levelo_inurba_marseille","lat":43.28154,"lon":5.42653,"is_reserved":false,"is_disabled":false,"rental_uris":{"android":"levelo://app?vid=57cf3c33-d7cf-45c3-9d4e-c7e193abcd2f","ios":"levelo://app?vid=57cf3c33-d7cf-45c3-9d4e-c7e193abcd2f"},"vehicle_type_id":"4","last_reported":1731590308,"current_range_meters":36400,"station_id":"ce4bhnh2rcd13ifvqgug","pricing_plan_id":"cebpf4jnsgd1na2vs0mg"},{"bike_id":"d99bff46-e3e0-4c25-9719-3fa3dd9a1a6e","system_id":"levelo_inurba_marseille","lat":43.31569,"lon":5.37277,"is_reserved":false,"is_disabled":false,"rental_uris":{"android":"levelo://app?vid=d99bff46-e3e0-4c25-9719-3fa3dd9a1a6e","ios":"levelo://app?vid=d99bff46-e3e0-4c25-9719-3fa3dd9a1a6e"},"vehicle_type_id":"4","last_reported":1731590308,"current_range_meters":20400,"station_id":"ce4bgt12rcd13ifvqcd0","pricing_plan_id":"cebpf4jnsgd1na2vs0mg"},{"bike_id":"4dd2cafd-994e-4a6b-9ee8-cb8ccf464a3e","system_id":"levelo_inurba_marseille","lat":43.25107,"lon":5.40324,"is_reserved":false,"is_disabled":false,"rental_uris":{"android":"levelo://app?vid=4dd2cafd-994e-4a6b-9ee8-cb8ccf464a3e","ios":"levelo://app?vid=4dd2cafd-994e-4a6b-9ee8-cb8ccf464a3e"},"vehicle_type_id":"4","last_reported":1731590308,"current_range_meters":33600,"station_id":"ce4bhlh2rcd13ifvqgig","pricing_plan_id":"cebpf4jnsgd1na2vs0mg"},{"bike_id":"1bd91954-6c74-4da0-81cd-1005fdf9850d","system_id":"levelo_inurba_marseille","lat":43.341457,"lon":5.409072,"is_reserved":false,"is_disabled":false,"rental_uris":{"android":"levelo://app?vid=1bd91954-6c74-4da0-81cd-1005fdf9850d","ios":"levelo://app?vid=1bd91954-6c74-4da0-81cd-1005fdf9850d"},"vehicle_type_id":"4","last_reported":1731590308,"current_range_meters":38800,"station_id":"ce4bhqh2rcd13ifvqhlg","pricing_plan_id":"cebpf4jnsgd1na2vs0mg"},{"bike_id":"63bd93d5-63dd-4683-a5d8-4a155823bc4a","system_id":"levelo_inurba_marseille","lat":43.25084,"lon":5.39526,"is_reserved":false,"is_disabled":false,"rental_uris":{"android":"levelo://app?vid=63bd93d5-63dd-4683-a5d8-4a155823bc4a","ios":"levelo://app?vid=63bd93d5-63dd-4683-a5d8-4a155823bc4a"},"vehicle_type_id":"4","last_reported":1731590308,"current_range_meters":35200,"station_id":"ce4bhm12rcd13ifvqgkg","pricing_plan_id":"cebpf4jnsgd1na2vs0mg"},{"bike_id":"21c3f886-bafe-4236-aa7c-30af499af7f0","system_id":"levelo_inurba_marseille","lat":43.32485,"lon":5.36564,"is_reserved":false,"is_disabled":false,"rental_uris":{"android":"levelo://app?vid=21c3f886-bafe-4236-aa7c-30af499af7f0","ios":"levelo://app?vid=21c3f886-bafe-4236-aa7c-30af499af7f0"},"vehicle_type_id":"4","last_reported":1731590308,"current_range_meters":16800,"station_id":"ce4bhs12rcd13ifvqhvg","pricing_plan_id":"cebpf4jnsgd1na2vs0mg"},{"bike_id":"14dc970f-991c-4178-b6ca-20b8175b56fa","system_id":"levelo_inurba_marseille","lat":43.29898,"lon":5.4366,"is_reserved":false,"is_disabled":false,"rental_uris":{"android":"levelo://app?vid=14dc970f-991c-4178-b6ca-20b8175b56fa","ios":"levelo://app?vid=14dc970f-991c-4178-b6ca-20b8175b56fa"},"vehicle_type_id":"4","last_reported":1731590308,"current_range_meters":14000,"station_id":"ce4bhpp2rcd13ifvqhfg","pricing_plan_id":"cebpf4jnsgd1na2vs0mg"},{"bike_id":"7e68d8eb-008a-41fa-8d76-b35dd2ccf3ff","system_id":"levelo_inurba_marseille","lat":43.25002,"lon":5.38924,"is_reserved":false,"is_disabled":false,"rental_uris":{"android":"levelo://app?vid=7e68d8eb-008a-41fa-8d76-b35dd2ccf3ff","ios":"levelo://app?vid=7e68d8eb-008a-41fa-8d76-b35dd2ccf3ff"},"vehicle_type_id":"4","last_reported":1731590308,"current_range_meters":25600,"station_id":"ce4bhgp2rcd13ifvqfd0","pricing_plan_id":"cebpf4jnsgd1na2vs0mg"},{"bike_id":"d8e69785-8d75-418d-ac36-0eff571184ec","system_id":"levelo_inurba_marseille","lat":43.28352,"lon":5.38105,"is_reserved":false,"is_disabled":false,"rental_uris":{"android":"levelo://app?vid=d8e69785-8d75-418d-ac36-0eff571184ec","ios":"levelo://app?vid=d8e69785-8d75-418d-ac36-0eff571184ec"},"vehicle_type_id":"4","last_reported":1731590308,"current_range_meters":23200,"station_id":"ce4bh412rcd13ifvqdr0","pricing_plan_id":"cebpf4jnsgd1na2vs0mg"},{"bike_id":"f15f84e3-6119-4797-bcba-f763c86025cb","system_id":"levelo_inurba_marseille","lat":43.337444,"lon":5.374475,"is_reserved":false,"is_disabled":false,"rental_uris":{"android":"levelo://app?vid=f15f84e3-6119-4797-bcba-f763c86025cb","ios":"levelo://app?vid=f15f84e3-6119-4797-bcba-f763c86025cb"},"vehicle_type_id":"4","last_reported":1731590308,"current_range_meters":35200,"station_id":"","pricing_plan_id":"cebpf4jnsgd1na2vs0mg"},{"bike_id":"a74bc046-fe2d-4282-b46c-db9ff6dd05b0","system_id":"levelo_inurba_marseille","lat":43.32369,"lon":5.38887,"is_reserved":false,"is_disabled":false,"rental_uris":{"android":"levelo://app?vid=a74bc046-fe2d-4282-b46c-db9ff6dd05b0","ios":"levelo://app?vid=a74bc046-fe2d-4282-b46c-db9ff6dd05b0"},"vehicle_type_id":"4","last_reported":1731590308,"current_range_meters":9200,"station_id":"ce4bhqp2rcd13ifvqhog","pricing_plan_id":"cebpf4jnsgd1na2vs0mg"},{"bike_id":"c12e8bda-0e21-4687-9bad-39d69ce4f3e0","system_id":"levelo_inurba_marseille","lat":43.28269,"lon":5.35077,"is_reserved":false,"is_disabled":false,"rental_uris":{"android":"levelo://app?vid=c12e8bda-0e21-4687-9bad-39d69ce4f3e0","ios":"levelo://app?vid=c12e8bda-0e21-4687-9bad-39d69ce4f3e0"},"vehicle_type_id":"4","last_reported":1731590308,"current_range_meters":30000,"station_id":"ce4bhbp2rcd13ifvqerg","pricing_plan_id":"cebpf4jnsgd1na2vs0mg"},{"bike_id":"5d27b693-b386-4c16-9499-f246da4733c9","system_id":"levelo_inurba_marseille","lat":43.30538,"lon":5.38423,"is_reserved":false,"is_disabled":false,"rental_uris":{"android":"levelo://app?vid=5d27b693-b386-4c16-9499-f246da4733c9","ios":"levelo://app?vid=5d27b693-b386-4c16-9499-f246da4733c9"},"vehicle_type_id":"4","last_reported":1731590308,"current_range_meters":37600,"station_id":"ce4bgg92rcd13ifvqb30","pricing_plan_id":"cebpf4jnsgd1na2vs0mg"},{"bike_id":"ba295aa4-e303-4da2-9863-82d8a34fc59c","system_id":"levelo_inurba_marseille","lat":43.23967,"lon":5.36618,"is_reserved":false,"is_disabled":false,"rental_uris":{"android":"levelo://app?vid=ba295aa4-e303-4da2-9863-82d8a34fc59c","ios":"levelo://app?vid=ba295aa4-e303-4da2-9863-82d8a34fc59c"},"vehicle_type_id":"4","last_reported":1731590308,"current_range_meters":17600,"station_id":"ce4bhi12rcd13ifvqfp0","pricing_plan_id":"cebpf4jnsgd1na2vs0mg"},{"bike_id":"4df10ca0-caec-4577-8898-54d9f3687a1f","system_id":"levelo_inurba_marseille","lat":43.291687,"lon":5.371596,"is_reserved":false,"is_disabled":false,"rental_uris":{"android":"levelo://app?vid=4df10ca0-caec-4577-8898-54d9f3687a1f","ios":"levelo://app?vid=4df10ca0-caec-4577-8898-54d9f3687a1f"},"vehicle_type_id":"4","last_reported":1731590308,"current_range_meters":6000,"station_id":"ce4bhh92rcd13ifvqfi0","pricing_plan_id":"cebpf4jnsgd1na2vs0mg"},{"bike_id":"2cdb055a-001e-4662-bd5b-c22f42b108ff","system_id":"levelo_inurba_marseille","lat":43.25582,"lon":5.38235,"is_reserved":false,"is_disabled":false,"rental_uris":{"android":"levelo://app?vid=2cdb055a-001e-4662-bd5b-c22f42b108ff","ios":"levelo://app?vid=2cdb055a-001e-4662-bd5b-c22f42b108ff"},"vehicle_type_id":"4","last_reported":1731590308,"current_range_meters":38400,"station_id":"ce4bhih2rcd13ifvqfs0","pricing_plan_id":"cebpf4jnsgd1na2vs0mg"},{"bike_id":"aa8707f6-5b26-4050-a3bd-75b37190d270","system_id":"levelo_inurba_marseille","lat":43.31343,"lon":5.36703,"is_reserved":false,"is_disabled":false,"rental_uris":{"android":"levelo://app?vid=aa8707f6-5b26-4050-a3bd-75b37190d270","ios":"levelo://app?vid=aa8707f6-5b26-4050-a3bd-75b37190d270"},"vehicle_type_id":"4","last_reported":1731590308,"current_range_meters":22400,"station_id":"ce4bgr92rcd13ifvqc6g","pricing_plan_id":"cebpf4jnsgd1na2vs0mg"},{"bike_id":"8963f262-bdcb-43f5-9e37-237198779ba8","system_id":"levelo_inurba_marseille","lat":43.33773,"lon":5.37442,"is_reserved":false,"is_disabled":false,"rental_uris":{"android":"levelo://app?vid=8963f262-bdcb-43f5-9e37-237198779ba8","ios":"levelo://app?vid=8963f262-bdcb-43f5-9e37-237198779ba8"},"vehicle_type_id":"4","last_reported":1731590308,"current_range_meters":33600,"station_id":"","pricing_plan_id":"cebpf4jnsgd1na2vs0mg"},{"bike_id":"398b47b3-a042-4cec-b1dd-254773a78263","system_id":"levelo_inurba_marseille","lat":43.27412,"lon":5.38951,"is_reserved":false,"is_disabled":false,"rental_uris":{"android":"levelo://app?vid=398b47b3-a042-4cec-b1dd-254773a78263","ios":"levelo://app?vid=398b47b3-a042-4cec-b1dd-254773a78263"},"vehicle_type_id":"4","last_reported":1731590308,"current_range_meters":4400,"station_id":"","pricing_plan_id":"cebpf4jnsgd1na2vs0mg"},{"bike_id":"bbffda28-211e-42cd-ac34-9ed9db5f6da1","system_id":"levelo_inurba_marseille","lat":43.26821,"lon":5.41528,"is_reserved":false,"is_disabled":false,"rental_uris":{"android":"levelo://app?vid=bbffda28-211e-42cd-ac34-9ed9db5f6da1","ios":"levelo://app?vid=bbffda28-211e-42cd-ac34-9ed9db5f6da1"},"vehicle_type_id":"4","last_reported":1731590308,"current_range_meters":30800,"station_id":"ce4bhk92rcd13ifvqgb0","pricing_plan_id":"cebpf4jnsgd1na2vs0mg"},{"bike_id":"9ef346ad-46e7-4fe6-811f-aa50d1b8d189","system_id":"levelo_inurba_marseille","lat":43.2872,"lon":5.37941,"is_reserved":false,"is_disabled":false,"rental_uris":{"android":"levelo://app?vid=9ef346ad-46e7-4fe6-811f-aa50d1b8d189","ios":"levelo://app?vid=9ef346ad-46e7-4fe6-811f-aa50d1b8d189"},"vehicle_type_id":"4","last_reported":1731590308,"current_range_meters":38800,"station_id":"ce4bh9p2rcd13ifvqec0","pricing_plan_id":"cebpf4jnsgd1na2vs0mg"},{"bike_id":"ac1081cc-aff5-436e-a11b-24d06190a755","system_id":"levelo_inurba_marseille","lat":43.337444,"lon":5.374475,"is_reserved":false,"is_disabled":false,"rental_uris":{"android":"levelo://app?vid=ac1081cc-aff5-436e-a11b-24d06190a755","ios":"levelo://app?vid=ac1081cc-aff5-436e-a11b-24d06190a755"},"vehicle_type_id":"4","last_reported":1731590308,"current_range_meters":34000,"station_id":"","pricing_plan_id":"cebpf4jnsgd1na2vs0mg"},{"bike_id":"92e3ad17-17c9-4714-a148-ef9436ad6113","system_id":"levelo_inurba_marseille","lat":43.22935,"lon":5.3538,"is_reserved":false,"is_disabled":false,"rental_uris":{"android":"levelo://app?vid=92e3ad17-17c9-4714-a148-ef9436ad6113","ios":"levelo://app?vid=92e3ad17-17c9-4714-a148-ef9436ad6113"},"vehicle_type_id":"4","last_reported":1731590308,"current_range_meters":39200,"station_id":"cpo3532slgdg3j2ikp40","pricing_plan_id":"cebpf4jnsgd1na2vs0mg"},{"bike_id":"187a7fa8-9afd-4d26-b5e7-6a10712e67a7","system_id":"levelo_inurba_marseille","lat":43.23156,"lon":5.43703,"is_reserved":false,"is_disabled":false,"rental_uris":{"android":"levelo://app?vid=187a7fa8-9afd-4d26-b5e7-6a10712e67a7","ios":"levelo://app?vid=187a7fa8-9afd-4d26-b5e7-6a10712e67a7"},"vehicle_type_id":"4","last_reported":1731590308,"current_range_meters":39200,"station_id":"ce4bhmp2rcd13ifvqgog","pricing_plan_id":"cebpf4jnsgd1na2vs0mg"},{"bike_id":"4c7c367f-5db4-48c2-ba96-6b22a142d9e0","system_id":"levelo_inurba_marseille","lat":43.291138,"lon":5.372071,"is_reserved":false,"is_disabled":false,"rental_uris":{"android":"levelo://app?vid=4c7c367f-5db4-48c2-ba96-6b22a142d9e0","ios":"levelo://app?vid=4c7c367f-5db4-48c2-ba96-6b22a142d9e0"},"vehicle_type_id":"4","last_reported":1731590308,"current_range_meters":19600,"station_id":"ce4bha92rcd13ifvqeh0","pricing_plan_id":"cebpf4jnsgd1na2vs0mg"},{"bike_id":"b57a5365-00b1-42ab-a3f6-488c665039da","system_id":"levelo_inurba_marseille","lat":43.26687,"lon":5.38272,"is_reserved":false,"is_disabled":false,"rental_uris":{"android":"levelo://app?vid=b57a5365-00b1-42ab-a3f6-488c665039da","ios":"levelo://app?vid=b57a5365-00b1-42ab-a3f6-488c665039da"},"vehicle_type_id":"4","last_reported":1731590308,"current_range_meters":36400,"station_id":"ce4bhg92rcd13ifvqf90","pricing_plan_id":"cebpf4jnsgd1na2vs0mg"},{"bike_id":"82f309e6-c4ae-421f-89cb-1d64a8e0ef10","system_id":"levelo_inurba_marseille","lat":43.337444,"lon":5.374475,"is_reserved":false,"is_disabled":false,"rental_uris":{"android":"levelo://app?vid=82f309e6-c4ae-421f-89cb-1d64a8e0ef10","ios":"levelo://app?vid=82f309e6-c4ae-421f-89cb-1d64a8e0ef10"},"vehicle_type_id":"4","last_reported":1731590308,"current_range_meters":32800,"station_id":"","pricing_plan_id":"cebpf4jnsgd1na2vs0mg"},{"bike_id":"5419d154-3ce9-4c40-9294-d16b9d2b3431","system_id":"levelo_inurba_marseille","lat":43.337444,"lon":5.374475,"is_reserved":false,"is_disabled":false,"rental_uris":{"android":"levelo://app?vid=5419d154-3ce9-4c40-9294-d16b9d2b3431","ios":"levelo://app?vid=5419d154-3ce9-4c40-9294-d16b9d2b3431"},"vehicle_type_id":"4","last_reported":1731590308,"current_range_meters":32800,"station_id":"","pricing_plan_id":"cebpf4jnsgd1na2vs0mg"},{"bike_id":"d1b1f1ac-1c01-4564-af6f-255f527c550e","system_id":"levelo_inurba_marseille","lat":43.29529,"lon":5.38549,"is_reserved":false,"is_disabled":false,"rental_uris":{"android":"levelo://app?vid=d1b1f1ac-1c01-4564-af6f-255f527c550e","ios":"levelo://app?vid=d1b1f1ac-1c01-4564-af6f-255f527c550e"},"vehicle_type_id":"4","last_reported":1731590308,"current_range_meters":37600,"station_id":"ce4bgih2rcd13ifvqba0","pricing_plan_id":"cebpf4jnsgd1na2vs0mg"},{"bike_id":"6e4ab7d2-c1df-4ea4-bb4b-2f5c43ed5717","system_id":"levelo_inurba_marseille","lat":43.33768,"lon":5.37439,"is_reserved":false,"is_disabled":false,"rental_uris":{"android":"levelo://app?vid=6e4ab7d2-c1df-4ea4-bb4b-2f5c43ed5717","ios":"levelo://app?vid=6e4ab7d2-c1df-4ea4-bb4b-2f5c43ed5717"},"vehicle_type_id":"4","last_reported":1731590308,"current_range_meters":32800,"station_id":"","pricing_plan_id":"cebpf4jnsgd1na2vs0mg"},{"bike_id":"bd465249-964f-4479-968e-5f6e32af60f1","system_id":"levelo_inurba_marseille","lat":43.337444,"lon":5.374475,"is_reserved":false,"is_disabled":false,"rental_uris":{"android":"levelo://app?vid=bd465249-964f-4479-968e-5f6e32af60f1","ios":"levelo://app?vid=bd465249-964f-4479-968e-5f6e32af60f1"},"vehicle_type_id":"4","last_reported":1731590308,"current_range_meters":34800,"station_id":"","pricing_plan_id":"cebpf4jnsgd1na2vs0mg"},{"bike_id":"d1bb9a1d-6278-4858-9d21-6a0f2130261f","system_id":"levelo_inurba_marseille","lat":43.24804,"lon":5.37451,"is_reserved":false,"is_disabled":false,"rental_uris":{"android":"levelo://app?vid=d1bb9a1d-6278-4858-9d21-6a0f2130261f","ios":"levelo://app?vid=d1bb9a1d-6278-4858-9d21-6a0f2130261f"},"vehicle_type_id":"4","last_reported":1731590308,"current_range_meters":38800,"station_id":"ce4bhgh2rcd13ifvqfb0","pricing_plan_id":"cebpf4jnsgd1na2vs0mg"},{"bike_id":"96465dfb-8924-459a-94bb-50a5ed5af403","system_id":"levelo_inurba_marseille","lat":43.29335,"lon":5.41177,"is_reserved":false,"is_disabled":false,"rental_uris":{"android":"levelo://app?vid=96465dfb-8924-459a-94bb-50a5ed5af403","ios":"levelo://app?vid=96465dfb-8924-459a-94bb-50a5ed5af403"},"vehicle_type_id":"4","last_reported":1731590308,"current_range_meters":27200,"station_id":"","pricing_plan_id":"cebpf4jnsgd1na2vs0mg"},{"bike_id":"a7ba5254-b565-43bc-a120-0a150acf5c72","system_id":"levelo_inurba_marseille","lat":43.27073,"lon":5.42276,"is_reserved":false,"is_disabled":false,"rental_uris":{"android":"levelo://app?vid=a7ba5254-b565-43bc-a120-0a150acf5c72","ios":"levelo://app?vid=a7ba5254-b565-43bc-a120-0a150acf5c72"},"vehicle_type_id":"4","last_reported":1731590308,"current_range_meters":36000,"station_id":"ce4bhk92rcd13ifvqgb0","pricing_plan_id":"cebpf4jnsgd1na2vs0mg"},{"bike_id":"18f44aca-6098-4932-8a25-25217f071e96","system_id":"levelo_inurba_marseille","lat":43.31192,"lon":5.387212,"is_reserved":false,"is_disabled":false,"rental_uris":{"android":"levelo://app?vid=18f44aca-6098-4932-8a25-25217f071e96","ios":"levelo://app?vid=18f44aca-6098-4932-8a25-25217f071e96"},"vehicle_type_id":"4","last_reported":1731590308,"current_range_meters":32000,"station_id":"ce4bgv12rcd13ifvqcp0","pricing_plan_id":"cebpf4jnsgd1na2vs0mg"},{"bike_id":"6406f7b0-e2d9-446f-b79f-4b7dff955240","system_id":"levelo_inurba_marseille","lat":43.28416,"lon":5.34989,"is_reserved":false,"is_disabled":false,"rental_uris":{"android":"levelo://app?vid=6406f7b0-e2d9-446f-b79f-4b7dff955240","ios":"levelo://app?vid=6406f7b0-e2d9-446f-b79f-4b7dff955240"},"vehicle_type_id":"4","last_reported":1731590308,"current_range_meters":32000,"station_id":"ce4bhbh2rcd13ifvqepg","pricing_plan_id":"cebpf4jnsgd1na2vs0mg"},{"bike_id":"c9d041c0-acec-4cf4-bba2-e01a92441368","system_id":"levelo_inurba_marseille","lat":43.337444,"lon":5.374475,"is_reserved":false,"is_disabled":false,"rental_uris":{"android":"levelo://app?vid=c9d041c0-acec-4cf4-bba2-e01a92441368","ios":"levelo://app?vid=c9d041c0-acec-4cf4-bba2-e01a92441368"},"vehicle_type_id":"4","last_reported":1731590308,"current_range_meters":34000,"station_id":"","pricing_plan_id":"cebpf4jnsgd1na2vs0mg"},{"bike_id":"a98b3826-ee66-4002-b80b-c2241038197c","system_id":"levelo_inurba_marseille","lat":43.31358,"lon":5.38491,"is_reserved":false,"is_disabled":false,"rental_uris":{"android":"levelo://app?vid=a98b3826-ee66-4002-b80b-c2241038197c","ios":"levelo://app?vid=a98b3826-ee66-4002-b80b-c2241038197c"},"vehicle_type_id":"4","last_reported":1731590308,"current_range_meters":3200,"station_id":"ce4bgt92rcd13ifvqcf0","pricing_plan_id":"cebpf4jnsgd1na2vs0mg"},{"bike_id":"1a3f88a7-ba66-47f0-b62b-2014c1df80d9","system_id":"levelo_inurba_marseille","lat":43.23152,"lon":5.43707,"is_reserved":false,"is_disabled":false,"rental_uris":{"android":"levelo://app?vid=1a3f88a7-ba66-47f0-b62b-2014c1df80d9","ios":"levelo://app?vid=1a3f88a7-ba66-47f0-b62b-2014c1df80d9"},"vehicle_type_id":"4","last_reported":1731590308,"current_range_meters":38800,"station_id":"ce4bhmp2rcd13ifvqgog","pricing_plan_id":"cebpf4jnsgd1na2vs0mg"},{"bike_id":"df66abf0-5814-42dd-b2a3-5842fb95e6fb","system_id":"levelo_inurba_marseille","lat":43.34144,"lon":5.40904,"is_reserved":false,"is_disabled":false,"rental_uris":{"android":"levelo://app?vid=df66abf0-5814-42dd-b2a3-5842fb95e6fb","ios":"levelo://app?vid=df66abf0-5814-42dd-b2a3-5842fb95e6fb"},"vehicle_type_id":"4","last_reported":1731590308,"current_range_meters":33600,"station_id":"ce4bhqh2rcd13ifvqhlg","pricing_plan_id":"cebpf4jnsgd1na2vs0mg"},{"bike_id":"f12e1f87-1de9-4996-8865-21cd01996320","system_id":"levelo_inurba_marseille","lat":43.28871,"lon":5.35848,"is_reserved":false,"is_disabled":false,"rental_uris":{"android":"levelo://app?vid=f12e1f87-1de9-4996-8865-21cd01996320","ios":"levelo://app?vid=f12e1f87-1de9-4996-8865-21cd01996320"},"vehicle_type_id":"4","last_reported":1731590308,"current_range_meters":21600,"station_id":"ce4bhb12rcd13ifvqem0","pricing_plan_id":"cebpf4jnsgd1na2vs0mg"},{"bike_id":"c4d0aecc-cc63-4ea3-8a19-b98deaa50004","system_id":"levelo_inurba_marseille","lat":43.30174,"lon":5.36619,"is_reserved":false,"is_disabled":false,"rental_uris":{"android":"levelo://app?vid=c4d0aecc-cc63-4ea3-8a19-b98deaa50004","ios":"levelo://app?vid=c4d0aecc-cc63-4ea3-8a19-b98deaa50004"},"vehicle_type_id":"4","last_reported":1731590308,"current_range_meters":20000,"station_id":"ce4bgrh2rcd13ifvqc8g","pricing_plan_id":"cebpf4jnsgd1na2vs0mg"},{"bike_id":"eda92247-7aa4-40fb-841f-e0cabd70ba3d","system_id":"levelo_inurba_marseille","lat":43.30544,"lon":5.36569,"is_reserved":false,"is_disabled":false,"rental_uris":{"android":"levelo://app?vid=eda92247-7aa4-40fb-841f-e0cabd70ba3d","ios":"levelo://app?vid=eda92247-7aa4-40fb-841f-e0cabd70ba3d"},"vehicle_type_id":"4","last_reported":1731590308,"current_range_meters":28000,"station_id":"ce4bgs12rcd13ifvqcag","pricing_plan_id":"cebpf4jnsgd1na2vs0mg"},{"bike_id":"52e4abfb-ada4-4ef4-a3ee-56438f44af6c","system_id":"levelo_inurba_marseille","lat":43.292929,"lon":5.374595,"is_reserved":false,"is_disabled":false,"rental_uris":{"android":"levelo://app?vid=52e4abfb-ada4-4ef4-a3ee-56438f44af6c","ios":"levelo://app?vid=52e4abfb-ada4-4ef4-a3ee-56438f44af6c"},"vehicle_type_id":"4","last_reported":1731590308,"current_range_meters":4800,"station_id":"ce4bgi12rcd13ifvqb70","pricing_plan_id":"cebpf4jnsgd1na2vs0mg"},{"bike_id":"92eef5a4-7413-4712-aa62-eb761eb3479d","system_id":"levelo_inurba_marseille","lat":43.28125,"lon":5.37841,"is_reserved":false,"is_disabled":false,"rental_uris":{"android":"levelo://app?vid=92eef5a4-7413-4712-aa62-eb761eb3479d","ios":"levelo://app?vid=92eef5a4-7413-4712-aa62-eb761eb3479d"},"vehicle_type_id":"4","last_reported":1731590308,"current_range_meters":37600,"station_id":"ce4bha12rcd13ifvqee0","pricing_plan_id":"cebpf4jnsgd1na2vs0mg"},{"bike_id":"5e5384b9-4782-4d50-806a-78ab6db97745","system_id":"levelo_inurba_marseille","lat":43.27992,"lon":5.41663,"is_reserved":false,"is_disabled":false,"rental_uris":{"android":"levelo://app?vid=5e5384b9-4782-4d50-806a-78ab6db97745","ios":"levelo://app?vid=5e5384b9-4782-4d50-806a-78ab6db97745"},"vehicle_type_id":"4","last_reported":1731590308,"current_range_meters":36000,"station_id":"ce4bho12rcd13ifvqh1g","pricing_plan_id":"cebpf4jnsgd1na2vs0mg"},{"bike_id":"7993481c-6af9-41f2-9bac-c327a53be150","system_id":"levelo_inurba_marseille","lat":43.23155,"lon":5.43702,"is_reserved":false,"is_disabled":false,"rental_uris":{"android":"levelo://app?vid=7993481c-6af9-41f2-9bac-c327a53be150","ios":"levelo://app?vid=7993481c-6af9-41f2-9bac-c327a53be150"},"vehicle_type_id":"4","last_reported":1731590308,"current_range_meters":37600,"station_id":"ce4bhmp2rcd13ifvqgog","pricing_plan_id":"cebpf4jnsgd1na2vs0mg"},{"bike_id":"ebd4f46e-4628-4e08-88d8-cf16e0481613","system_id":"levelo_inurba_marseille","lat":43.29521,"lon":5.37513,"is_reserved":false,"is_disabled":false,"rental_uris":{"android":"levelo://app?vid=ebd4f46e-4628-4e08-88d8-cf16e0481613","ios":"levelo://app?vid=ebd4f46e-4628-4e08-88d8-cf16e0481613"},"vehicle_type_id":"4","last_reported":1731590308,"current_range_meters":20800,"station_id":"ce4bgkp2rcd13ifvqbmg","pricing_plan_id":"cebpf4jnsgd1na2vs0mg"},{"bike_id":"4f403e37-a8c3-4d70-a9e9-789f448b0b15","system_id":"levelo_inurba_marseille","lat":43.319963,"lon":5.381457,"is_reserved":false,"is_disabled":false,"rental_uris":{"android":"levelo://app?vid=4f403e37-a8c3-4d70-a9e9-789f448b0b15","ios":"levelo://app?vid=4f403e37-a8c3-4d70-a9e9-789f448b0b15"},"vehicle_type_id":"4","last_reported":1731590308,"current_range_meters":24000,"station_id":"ce4bhr12rcd13ifvqhpg","pricing_plan_id":"cebpf4jnsgd1na2vs0mg"},{"bike_id":"9349eebe-93fd-472c-91d4-00e053b1829b","system_id":"levelo_inurba_marseille","lat":43.24392,"lon":5.37053,"is_reserved":false,"is_disabled":false,"rental_uris":{"android":"levelo://app?vid=9349eebe-93fd-472c-91d4-00e053b1829b","ios":"levelo://app?vid=9349eebe-93fd-472c-91d4-00e053b1829b"},"vehicle_type_id":"4","last_reported":1731590308,"current_range_meters":20800,"station_id":"ce4bhhh2rcd13ifvqfk0","pricing_plan_id":"cebpf4jnsgd1na2vs0mg"},{"bike_id":"f7dc5745-d745-493c-8cdd-1c56a417c013","system_id":"levelo_inurba_marseille","lat":43.29575,"lon":5.37521,"is_reserved":false,"is_disabled":false,"rental_uris":{"android":"levelo://app?vid=f7dc5745-d745-493c-8cdd-1c56a417c013","ios":"levelo://app?vid=f7dc5745-d745-493c-8cdd-1c56a417c013"},"vehicle_type_id":"4","last_reported":1731590308,"current_range_meters":9200,"station_id":"ce4bgh92rcd13ifvqb50","pricing_plan_id":"cebpf4jnsgd1na2vs0mg"},{"bike_id":"bef30feb-cc3e-413b-a285-e3755e78a5a5","system_id":"levelo_inurba_marseille","lat":43.2914,"lon":5.38759,"is_reserved":false,"is_disabled":false,"rental_uris":{"android":"levelo://app?vid=bef30feb-cc3e-413b-a285-e3755e78a5a5","ios":"levelo://app?vid=bef30feb-cc3e-413b-a285-e3755e78a5a5"},"vehicle_type_id":"4","last_reported":1731590308,"current_range_meters":32400,"station_id":"","pricing_plan_id":"cebpf4jnsgd1na2vs0mg"},{"bike_id":"96352786-b953-4b6d-96b3-5df619023394","system_id":"levelo_inurba_marseille","lat":43.31351,"lon":5.3674,"is_reserved":false,"is_disabled":false,"rental_uris":{"android":"levelo://app?vid=96352786-b953-4b6d-96b3-5df619023394","ios":"levelo://app?vid=96352786-b953-4b6d-96b3-5df619023394"},"vehicle_type_id":"4","last_reported":1731590308,"current_range_meters":38800,"station_id":"ce4bgr92rcd13ifvqc6g","pricing_plan_id":"cebpf4jnsgd1na2vs0mg"},{"bike_id":"4b0c5f0c-e1e0-486f-956e-a3d4d03ca077","system_id":"levelo_inurba_marseille","lat":43.27814,"lon":5.40709,"is_reserved":false,"is_disabled":false,"rental_uris":{"android":"levelo://app?vid=4b0c5f0c-e1e0-486f-956e-a3d4d03ca077","ios":"levelo://app?vid=4b0c5f0c-e1e0-486f-956e-a3d4d03ca077"},"vehicle_type_id":"4","last_reported":1731590308,"current_range_meters":38800,"station_id":"ce4bhnh2rcd13ifvqgtg","pricing_plan_id":"cebpf4jnsgd1na2vs0mg"},{"bike_id":"f3b0625c-9899-4def-ad53-ae0af0704eea","system_id":"levelo_inurba_marseille","lat":43.29173,"lon":5.35825,"is_reserved":false,"is_disabled":false,"rental_uris":{"android":"levelo://app?vid=f3b0625c-9899-4def-ad53-ae0af0704eea","ios":"levelo://app?vid=f3b0625c-9899-4def-ad53-ae0af0704eea"},"vehicle_type_id":"4","last_reported":1731590308,"current_range_meters":38800,"station_id":"ce4bhb12rcd13ifvqel0","pricing_plan_id":"cebpf4jnsgd1na2vs0mg"},{"bike_id":"96982182-a7c7-450e-8433-0ac9d985aed2","system_id":"levelo_inurba_marseille","lat":43.33716,"lon":5.39177,"is_reserved":false,"is_disabled":false,"rental_uris":{"android":"levelo://app?vid=96982182-a7c7-450e-8433-0ac9d985aed2","ios":"levelo://app?vid=96982182-a7c7-450e-8433-0ac9d985aed2"},"vehicle_type_id":"4","last_reported":1731590308,"current_range_meters":30400,"station_id":"ce4bhr92rcd13ifvqhsg","pricing_plan_id":"cebpf4jnsgd1na2vs0mg"},{"bike_id":"37212eb8-cfa6-47ba-9ed7-bfed51287466","system_id":"levelo_inurba_marseille","lat":43.31452,"lon":5.37395,"is_reserved":false,"is_disabled":false,"rental_uris":{"android":"levelo://app?vid=37212eb8-cfa6-47ba-9ed7-bfed51287466","ios":"levelo://app?vid=37212eb8-cfa6-47ba-9ed7-bfed51287466"},"vehicle_type_id":"4","last_reported":1731590308,"current_range_meters":38000,"station_id":"","pricing_plan_id":"cebpf4jnsgd1na2vs0mg"},{"bike_id":"84055cf7-e10e-4e42-90eb-74a91ae20092","system_id":"levelo_inurba_marseille","lat":43.24167,"lon":5.36391,"is_reserved":false,"is_disabled":false,"rental_uris":{"android":"levelo://app?vid=84055cf7-e10e-4e42-90eb-74a91ae20092","ios":"levelo://app?vid=84055cf7-e10e-4e42-90eb-74a91ae20092"},"vehicle_type_id":"4","last_reported":1731590308,"current_range_meters":24800,"station_id":"cpo36qri1sfpv3e86is0","pricing_plan_id":"cebpf4jnsgd1na2vs0mg"},{"bike_id":"c7f984cf-e1fa-4383-ab1b-5be19e090e1b","system_id":"levelo_inurba_marseille","lat":43.3375,"lon":5.37432,"is_reserved":false,"is_disabled":false,"rental_uris":{"android":"levelo://app?vid=c7f984cf-e1fa-4383-ab1b-5be19e090e1b","ios":"levelo://app?vid=c7f984cf-e1fa-4383-ab1b-5be19e090e1b"},"vehicle_type_id":"4","last_reported":1731590308,"current_range_meters":34000,"station_id":"","pricing_plan_id":"cebpf4jnsgd1na2vs0mg"},{"bike_id":"a13c7708-d87b-4218-8927-329742d4f8b9","system_id":"levelo_inurba_marseille","lat":43.31996,"lon":5.38149,"is_reserved":false,"is_disabled":false,"rental_uris":{"android":"levelo://app?vid=a13c7708-d87b-4218-8927-329742d4f8b9","ios":"levelo://app?vid=a13c7708-d87b-4218-8927-329742d4f8b9"},"vehicle_type_id":"4","last_reported":1731590308,"current_range_meters":37600,"station_id":"ce4bhr12rcd13ifvqhpg","pricing_plan_id":"cebpf4jnsgd1na2vs0mg"},{"bike_id":"bef7ca68-0ccd-456c-a245-4471193ed987","system_id":"levelo_inurba_marseille","lat":43.2606,"lon":5.39392,"is_reserved":false,"is_disabled":false,"rental_uris":{"android":"levelo://app?vid=bef7ca68-0ccd-456c-a245-4471193ed987","ios":"levelo://app?vid=bef7ca68-0ccd-456c-a245-4471193ed987"},"vehicle_type_id":"4","last_reported":1731590308,"current_range_meters":27600,"station_id":"ce4bhh92rcd13ifvqfj0","pricing_plan_id":"cebpf4jnsgd1na2vs0mg"},{"bike_id":"7376b3f6-9722-4294-998a-bea04aa7b801","system_id":"levelo_inurba_marseille","lat":43.27209,"lon":5.3918,"is_reserved":false,"is_disabled":false,"rental_uris":{"android":"levelo://app?vid=7376b3f6-9722-4294-998a-bea04aa7b801","ios":"levelo://app?vid=7376b3f6-9722-4294-998a-bea04aa7b801"},"vehicle_type_id":"4","last_reported":1731590308,"current_range_meters":10800,"station_id":"ce4bhhp2rcd13ifvqfm0","pricing_plan_id":"cebpf4jnsgd1na2vs0mg"},{"bike_id":"2c6a7996-be41-4371-b5ba-90d26258105b","system_id":"levelo_inurba_marseille","lat":43.2408,"lon":5.37755,"is_reserved":false,"is_disabled":false,"rental_uris":{"android":"levelo://app?vid=2c6a7996-be41-4371-b5ba-90d26258105b","ios":"levelo://app?vid=2c6a7996-be41-4371-b5ba-90d26258105b"},"vehicle_type_id":"4","last_reported":1731590308,"current_range_meters":21600,"station_id":"ce4bhnp2rcd13ifvqgvg","pricing_plan_id":"cebpf4jnsgd1na2vs0mg"},{"bike_id":"af79f849-a358-42b9-b75e-08fc8e145409","system_id":"levelo_inurba_marseille","lat":43.28716,"lon":5.37947,"is_reserved":false,"is_disabled":false,"rental_uris":{"android":"levelo://app?vid=af79f849-a358-42b9-b75e-08fc8e145409","ios":"levelo://app?vid=af79f849-a358-42b9-b75e-08fc8e145409"},"vehicle_type_id":"4","last_reported":1731590308,"current_range_meters":29600,"station_id":"ce4bh9p2rcd13ifvqec0","pricing_plan_id":"cebpf4jnsgd1na2vs0mg"},{"bike_id":"d2c2a177-46cf-4481-8b4e-ceb6b0e7fa75","system_id":"levelo_inurba_marseille","lat":43.27057,"lon":5.40257,"is_reserved":false,"is_disabled":false,"rental_uris":{"android":"levelo://app?vid=d2c2a177-46cf-4481-8b4e-ceb6b0e7fa75","ios":"levelo://app?vid=d2c2a177-46cf-4481-8b4e-ceb6b0e7fa75"},"vehicle_type_id":"4","last_reported":1731590308,"current_range_meters":37600,"station_id":"ce4bhk92rcd13ifvqgc0","pricing_plan_id":"cebpf4jnsgd1na2vs0mg"},{"bike_id":"a3eb1a49-9ee8-4f7c-9347-0770f20218fd","system_id":"levelo_inurba_marseille","lat":43.28949,"lon":5.36395,"is_reserved":false,"is_disabled":false,"rental_uris":{"android":"levelo://app?vid=a3eb1a49-9ee8-4f7c-9347-0770f20218fd","ios":"levelo://app?vid=a3eb1a49-9ee8-4f7c-9347-0770f20218fd"},"vehicle_type_id":"4","last_reported":1731590308,"current_range_meters":6400,"station_id":"ce4bhc92rcd13ifvqetg","pricing_plan_id":"cebpf4jnsgd1na2vs0mg"},{"bike_id":"6cd6cd57-0685-4d87-903a-571cb9380930","system_id":"levelo_inurba_marseille","lat":43.23185,"lon":5.39981,"is_reserved":false,"is_disabled":false,"rental_uris":{"android":"levelo://app?vid=6cd6cd57-0685-4d87-903a-571cb9380930","ios":"levelo://app?vid=6cd6cd57-0685-4d87-903a-571cb9380930"},"vehicle_type_id":"4","last_reported":1731590308,"current_range_meters":36800,"station_id":"ce4bhn12rcd13ifvqgqg","pricing_plan_id":"cebpf4jnsgd1na2vs0mg"},{"bike_id":"7c9b8995-ac96-4708-b4eb-b4b17631b9d8","system_id":"levelo_inurba_marseille","lat":43.3376,"lon":5.37431,"is_reserved":false,"is_disabled":false,"rental_uris":{"android":"levelo://app?vid=7c9b8995-ac96-4708-b4eb-b4b17631b9d8","ios":"levelo://app?vid=7c9b8995-ac96-4708-b4eb-b4b17631b9d8"},"vehicle_type_id":"4","last_reported":1731590308,"current_range_meters":38800,"station_id":"","pricing_plan_id":"cebpf4jnsgd1na2vs0mg"},{"bike_id":"71ae68da-e36e-4e27-836d-32e8199181c7","system_id":"levelo_inurba_marseille","lat":43.28343,"lon":5.38096,"is_reserved":false,"is_disabled":false,"rental_uris":{"android":"levelo://app?vid=71ae68da-e36e-4e27-836d-32e8199181c7","ios":"levelo://app?vid=71ae68da-e36e-4e27-836d-32e8199181c7"},"vehicle_type_id":"4","last_reported":1731590308,"current_range_meters":39200,"station_id":"ce4bh412rcd13ifvqdr0","pricing_plan_id":"cebpf4jnsgd1na2vs0mg"},{"bike_id":"9571fd97-c0fe-4a0a-a188-293db4f2b9c7","system_id":"levelo_inurba_marseille","lat":43.23154,"lon":5.43704,"is_reserved":false,"is_disabled":false,"rental_uris":{"android":"levelo://app?vid=9571fd97-c0fe-4a0a-a188-293db4f2b9c7","ios":"levelo://app?vid=9571fd97-c0fe-4a0a-a188-293db4f2b9c7"},"vehicle_type_id":"4","last_reported":1731590308,"current_range_meters":38400,"station_id":"ce4bhmp2rcd13ifvqgog","pricing_plan_id":"cebpf4jnsgd1na2vs0mg"},{"bike_id":"ced1166b-7c4e-481b-8580-a895d46439d4","system_id":"levelo_inurba_marseille","lat":43.275,"lon":5.42412,"is_reserved":false,"is_disabled":false,"rental_uris":{"android":"levelo://app?vid=ced1166b-7c4e-481b-8580-a895d46439d4","ios":"levelo://app?vid=ced1166b-7c4e-481b-8580-a895d46439d4"},"vehicle_type_id":"4","last_reported":1731590308,"current_range_meters":30400,"station_id":"ce4bhn92rcd13ifvqgrg","pricing_plan_id":"cebpf4jnsgd1na2vs0mg"},{"bike_id":"3d774344-1467-4956-b96f-4cf3fb2b6f01","system_id":"levelo_inurba_marseille","lat":43.29023,"lon":5.38136,"is_reserved":false,"is_disabled":false,"rental_uris":{"android":"levelo://app?vid=3d774344-1467-4956-b96f-4cf3fb2b6f01","ios":"levelo://app?vid=3d774344-1467-4956-b96f-4cf3fb2b6f01"},"vehicle_type_id":"4","last_reported":1731590308,"current_range_meters":6800,"station_id":"ce4bh4p2rcd13ifvqe1g","pricing_plan_id":"cebpf4jnsgd1na2vs0mg"},{"bike_id":"8d06e41d-acbb-422d-9c3f-49462f4119df","system_id":"levelo_inurba_marseille","lat":43.33748,"lon":5.37459,"is_reserved":false,"is_disabled":false,"rental_uris":{"android":"levelo://app?vid=8d06e41d-acbb-422d-9c3f-49462f4119df","ios":"levelo://app?vid=8d06e41d-acbb-422d-9c3f-49462f4119df"},"vehicle_type_id":"4","last_reported":1731590308,"current_range_meters":22400,"station_id":"","pricing_plan_id":"cebpf4jnsgd1na2vs0mg"},{"bike_id":"b927bdff-7201-4466-b50a-1f766c1c857c","system_id":"levelo_inurba_marseille","lat":43.31711,"lon":5.37745,"is_reserved":false,"is_disabled":false,"rental_uris":{"android":"levelo://app?vid=b927bdff-7201-4466-b50a-1f766c1c857c","ios":"levelo://app?vid=b927bdff-7201-4466-b50a-1f766c1c857c"},"vehicle_type_id":"4","last_reported":1731590308,"current_range_meters":20000,"station_id":"ce4bgup2rcd13ifvqcn0","pricing_plan_id":"cebpf4jnsgd1na2vs0mg"},{"bike_id":"f164090f-5a36-4efa-bf27-46df99bf6753","system_id":"levelo_inurba_marseille","lat":43.2956,"lon":5.37849,"is_reserved":false,"is_disabled":false,"rental_uris":{"android":"levelo://app?vid=f164090f-5a36-4efa-bf27-46df99bf6753","ios":"levelo://app?vid=f164090f-5a36-4efa-bf27-46df99bf6753"},"vehicle_type_id":"4","last_reported":1731590308,"current_range_meters":36000,"station_id":"ce4bh4p2rcd13ifvqe1g","pricing_plan_id":"cebpf4jnsgd1na2vs0mg"},{"bike_id":"5fcf0b0a-1c96-4f2a-bab7-01f1f4d82dde","system_id":"levelo_inurba_marseille","lat":43.23155,"lon":5.43706,"is_reserved":false,"is_disabled":false,"rental_uris":{"android":"levelo://app?vid=5fcf0b0a-1c96-4f2a-bab7-01f1f4d82dde","ios":"levelo://app?vid=5fcf0b0a-1c96-4f2a-bab7-01f1f4d82dde"},"vehicle_type_id":"4","last_reported":1731590308,"current_range_meters":32000,"station_id":"ce4bhmp2rcd13ifvqgog","pricing_plan_id":"cebpf4jnsgd1na2vs0mg"},{"bike_id":"2e56507a-09fc-45f5-9d4f-fd076d3c1369","system_id":"levelo_inurba_marseille","lat":43.31763,"lon":5.39023,"is_reserved":false,"is_disabled":false,"rental_uris":{"android":"levelo://app?vid=2e56507a-09fc-45f5-9d4f-fd076d3c1369","ios":"levelo://app?vid=2e56507a-09fc-45f5-9d4f-fd076d3c1369"},"vehicle_type_id":"4","last_reported":1731590308,"current_range_meters":8000,"station_id":"ce4bhqp2rcd13ifvqhng","pricing_plan_id":"cebpf4jnsgd1na2vs0mg"},{"bike_id":"925f348a-8188-4555-a7e1-35c37653e5a1","system_id":"levelo_inurba_marseille","lat":43.26949,"lon":5.38639,"is_reserved":false,"is_disabled":false,"rental_uris":{"android":"levelo://app?vid=925f348a-8188-4555-a7e1-35c37653e5a1","ios":"levelo://app?vid=925f348a-8188-4555-a7e1-35c37653e5a1"},"vehicle_type_id":"4","last_reported":1731590308,"current_range_meters":16800,"station_id":"ce4bhh92rcd13ifvqfh0","pricing_plan_id":"cebpf4jnsgd1na2vs0mg"},{"bike_id":"ee97f2e3-d41d-4662-b59a-9ac6135b4a76","system_id":"levelo_inurba_marseille","lat":43.31232,"lon":5.3688,"is_reserved":false,"is_disabled":false,"rental_uris":{"android":"levelo://app?vid=ee97f2e3-d41d-4662-b59a-9ac6135b4a76","ios":"levelo://app?vid=ee97f2e3-d41d-4662-b59a-9ac6135b4a76"},"vehicle_type_id":"4","last_reported":1731590308,"current_range_meters":14000,"station_id":"ce4bgl92rcd13ifvqbq0","pricing_plan_id":"cebpf4jnsgd1na2vs0mg"},{"bike_id":"80213dda-c307-421e-862c-52d48a30cad6","system_id":"levelo_inurba_marseille","lat":43.3042,"lon":5.39749,"is_reserved":false,"is_disabled":false,"rental_uris":{"android":"levelo://app?vid=80213dda-c307-421e-862c-52d48a30cad6","ios":"levelo://app?vid=80213dda-c307-421e-862c-52d48a30cad6"},"vehicle_type_id":"4","last_reported":1731590308,"current_range_meters":38800,"station_id":"ce4bh092rcd13ifvqd20","pricing_plan_id":"cebpf4jnsgd1na2vs0mg"},{"bike_id":"c6199139-9955-4156-a4d4-0ee34bab602c","system_id":"levelo_inurba_marseille","lat":43.28401,"lon":5.37521,"is_reserved":false,"is_disabled":false,"rental_uris":{"android":"levelo://app?vid=c6199139-9955-4156-a4d4-0ee34bab602c","ios":"levelo://app?vid=c6199139-9955-4156-a4d4-0ee34bab602c"},"vehicle_type_id":"4","last_reported":1731590308,"current_range_meters":19600,"station_id":"ce4bh412rcd13ifvqds0","pricing_plan_id":"cebpf4jnsgd1na2vs0mg"},{"bike_id":"c3b9ced7-2951-4845-9c00-c49c8c3e851f","system_id":"levelo_inurba_marseille","lat":43.27689,"lon":5.38904,"is_reserved":false,"is_disabled":false,"rental_uris":{"android":"levelo://app?vid=c3b9ced7-2951-4845-9c00-c49c8c3e851f","ios":"levelo://app?vid=c3b9ced7-2951-4845-9c00-c49c8c3e851f"},"vehicle_type_id":"4","last_reported":1731590308,"current_range_meters":39200,"station_id":"ce4bhi12rcd13ifvqfo0","pricing_plan_id":"cebpf4jnsgd1na2vs0mg"},{"bike_id":"4bbaf73d-fc2a-4e45-a669-e4b5032ca381","system_id":"levelo_inurba_marseille","lat":43.28265,"lon":5.35084,"is_reserved":false,"is_disabled":false,"rental_uris":{"android":"levelo://app?vid=4bbaf73d-fc2a-4e45-a669-e4b5032ca381","ios":"levelo://app?vid=4bbaf73d-fc2a-4e45-a669-e4b5032ca381"},"vehicle_type_id":"4","last_reported":1731590308,"current_range_meters":39200,"station_id":"ce4bhbp2rcd13ifvqerg","pricing_plan_id":"cebpf4jnsgd1na2vs0mg"},{"bike_id":"2ba01715-3170-4a7e-ae00-4a8868ac1042","system_id":"levelo_inurba_marseille","lat":43.25088,"lon":5.39512,"is_reserved":false,"is_disabled":false,"rental_uris":{"android":"levelo://app?vid=2ba01715-3170-4a7e-ae00-4a8868ac1042","ios":"levelo://app?vid=2ba01715-3170-4a7e-ae00-4a8868ac1042"},"vehicle_type_id":"4","last_reported":1731590308,"current_range_meters":28800,"station_id":"ce4bhm12rcd13ifvqgkg","pricing_plan_id":"cebpf4jnsgd1na2vs0mg"},{"bike_id":"860f6b0e-3428-445d-b437-768201221d5b","system_id":"levelo_inurba_marseille","lat":43.30093,"lon":5.39074,"is_reserved":false,"is_disabled":false,"rental_uris":{"android":"levelo://app?vid=860f6b0e-3428-445d-b437-768201221d5b","ios":"levelo://app?vid=860f6b0e-3428-445d-b437-768201221d5b"},"vehicle_type_id":"4","last_reported":1731590308,"current_range_meters":8400,"station_id":"ce4bh192rcd13ifvqdb0","pricing_plan_id":"cebpf4jnsgd1na2vs0mg"},{"bike_id":"890394d9-d027-42d8-8d4b-306c8879b0e0","system_id":"levelo_inurba_marseille","lat":43.337444,"lon":5.374475,"is_reserved":false,"is_disabled":false,"rental_uris":{"android":"levelo://app?vid=890394d9-d027-42d8-8d4b-306c8879b0e0","ios":"levelo://app?vid=890394d9-d027-42d8-8d4b-306c8879b0e0"},"vehicle_type_id":"4","last_reported":1731590308,"current_range_meters":34000,"station_id":"","pricing_plan_id":"cebpf4jnsgd1na2vs0mg"},{"bike_id":"56187ec8-356e-4a20-81f7-858821cd03f2","system_id":"levelo_inurba_marseille","lat":43.32533,"lon":5.41427,"is_reserved":false,"is_disabled":false,"rental_uris":{"android":"levelo://app?vid=56187ec8-356e-4a20-81f7-858821cd03f2","ios":"levelo://app?vid=56187ec8-356e-4a20-81f7-858821cd03f2"},"vehicle_type_id":"4","last_reported":1731590308,"current_range_meters":17600,"station_id":"ce4bhq12rcd13ifvqhhg","pricing_plan_id":"cebpf4jnsgd1na2vs0mg"},{"bike_id":"8bfb2000-654e-4b93-9e9f-0ad3ebfccfcc","system_id":"levelo_inurba_marseille","lat":43.25499,"lon":5.37648,"is_reserved":false,"is_disabled":false,"rental_uris":{"android":"levelo://app?vid=8bfb2000-654e-4b93-9e9f-0ad3ebfccfcc","ios":"levelo://app?vid=8bfb2000-654e-4b93-9e9f-0ad3ebfccfcc"},"vehicle_type_id":"4","last_reported":1731590308,"current_range_meters":16400,"station_id":"ce4bhh12rcd13ifvqff0","pricing_plan_id":"cebpf4jnsgd1na2vs0mg"},{"bike_id":"c5724241-224d-4381-b448-0778e2ab7c52","system_id":"levelo_inurba_marseille","lat":43.27176,"lon":5.40993,"is_reserved":false,"is_disabled":false,"rental_uris":{"android":"levelo://app?vid=c5724241-224d-4381-b448-0778e2ab7c52","ios":"levelo://app?vid=c5724241-224d-4381-b448-0778e2ab7c52"},"vehicle_type_id":"4","last_reported":1731590308,"current_range_meters":26800,"station_id":"ce4bhl12rcd13ifvqgf0","pricing_plan_id":"cebpf4jnsgd1na2vs0mg"},{"bike_id":"cefd6eab-6f19-4560-89c5-217b1e9d5ea1","system_id":"levelo_inurba_marseille","lat":43.26565,"lon":5.38998,"is_reserved":false,"is_disabled":false,"rental_uris":{"android":"levelo://app?vid=cefd6eab-6f19-4560-89c5-217b1e9d5ea1","ios":"levelo://app?vid=cefd6eab-6f19-4560-89c5-217b1e9d5ea1"},"vehicle_type_id":"4","last_reported":1731590308,"current_range_meters":8400,"station_id":"ce4bhe12rcd13ifvqf30","pricing_plan_id":"cebpf4jnsgd1na2vs0mg"},{"bike_id":"d64789a5-6f7a-491a-b16a-1ea1a1a93312","system_id":"levelo_inurba_marseille","lat":43.30788,"lon":5.37651,"is_reserved":false,"is_disabled":false,"rental_uris":{"android":"levelo://app?vid=d64789a5-6f7a-491a-b16a-1ea1a1a93312","ios":"levelo://app?vid=d64789a5-6f7a-491a-b16a-1ea1a1a93312"},"vehicle_type_id":"4","last_reported":1731590308,"current_range_meters":36000,"station_id":"ce4bgv92rcd13ifvqcq0","pricing_plan_id":"cebpf4jnsgd1na2vs0mg"},{"bike_id":"7181b2ff-e1ca-4a92-afe5-4a32023da39b","system_id":"levelo_inurba_marseille","lat":43.30308,"lon":5.36908,"is_reserved":false,"is_disabled":false,"rental_uris":{"android":"levelo://app?vid=7181b2ff-e1ca-4a92-afe5-4a32023da39b","ios":"levelo://app?vid=7181b2ff-e1ca-4a92-afe5-4a32023da39b"},"vehicle_type_id":"4","last_reported":1731590308,"current_range_meters":9600,"station_id":"ce4bgqh2rcd13ifvqc5g","pricing_plan_id":"cebpf4jnsgd1na2vs0mg"},{"bike_id":"0999735d-4c06-4524-926c-e4857de4a212","system_id":"levelo_inurba_marseille","lat":43.293073,"lon":5.371826,"is_reserved":false,"is_disabled":false,"rental_uris":{"android":"levelo://app?vid=0999735d-4c06-4524-926c-e4857de4a212","ios":"levelo://app?vid=0999735d-4c06-4524-926c-e4857de4a212"},"vehicle_type_id":"4","last_reported":1731590308,"current_range_meters":22000,"station_id":"ce4bgh92rcd13ifvqb40","pricing_plan_id":"cebpf4jnsgd1na2vs0mg"},{"bike_id":"07ee4904-f535-458a-b0b5-2f7426ce7969","system_id":"levelo_inurba_marseille","lat":43.24079,"lon":5.37747,"is_reserved":false,"is_disabled":false,"rental_uris":{"android":"levelo://app?vid=07ee4904-f535-458a-b0b5-2f7426ce7969","ios":"levelo://app?vid=07ee4904-f535-458a-b0b5-2f7426ce7969"},"vehicle_type_id":"4","last_reported":1731590308,"current_range_meters":7200,"station_id":"ce4bhnp2rcd13ifvqgvg","pricing_plan_id":"cebpf4jnsgd1na2vs0mg"},{"bike_id":"158dba1c-26d3-4e0d-9842-cfb17131a03e","system_id":"levelo_inurba_marseille","lat":43.29912,"lon":5.38149,"is_reserved":false,"is_disabled":false,"rental_uris":{"android":"levelo://app?vid=158dba1c-26d3-4e0d-9842-cfb17131a03e","ios":"levelo://app?vid=158dba1c-26d3-4e0d-9842-cfb17131a03e"},"vehicle_type_id":"4","last_reported":1731590308,"current_range_meters":38400,"station_id":"ce4bgj12rcd13ifvqbc0","pricing_plan_id":"cebpf4jnsgd1na2vs0mg"},{"bike_id":"81945fd2-5229-4142-83c4-4006757a4ef4","system_id":"levelo_inurba_marseille","lat":43.29033,"lon":5.37565,"is_reserved":false,"is_disabled":false,"rental_uris":{"android":"levelo://app?vid=81945fd2-5229-4142-83c4-4006757a4ef4","ios":"levelo://app?vid=81945fd2-5229-4142-83c4-4006757a4ef4"},"vehicle_type_id":"4","last_reported":1731590308,"current_range_meters":38800,"station_id":"ce4bh692rcd13ifvqe90","pricing_plan_id":"cebpf4jnsgd1na2vs0mg"},{"bike_id":"92cf8a3e-24d5-4897-bc75-b9999f35f0f7","system_id":"levelo_inurba_marseille","lat":43.31709,"lon":5.3776,"is_reserved":false,"is_disabled":false,"rental_uris":{"android":"levelo://app?vid=92cf8a3e-24d5-4897-bc75-b9999f35f0f7","ios":"levelo://app?vid=92cf8a3e-24d5-4897-bc75-b9999f35f0f7"},"vehicle_type_id":"4","last_reported":1731590308,"current_range_meters":26000,"station_id":"ce4bgth2rcd13ifvqch0","pricing_plan_id":"cebpf4jnsgd1na2vs0mg"},{"bike_id":"a46784f2-4ee9-4d08-926a-86fcf39f46e6","system_id":"levelo_inurba_marseille","lat":43.309052,"lon":5.368483,"is_reserved":false,"is_disabled":false,"rental_uris":{"android":"levelo://app?vid=a46784f2-4ee9-4d08-926a-86fcf39f46e6","ios":"levelo://app?vid=a46784f2-4ee9-4d08-926a-86fcf39f46e6"},"vehicle_type_id":"4","last_reported":1731590308,"current_range_meters":4800,"station_id":"ce4bgn92rcd13ifvqbvg","pricing_plan_id":"cebpf4jnsgd1na2vs0mg"},{"bike_id":"b277c41c-d8d5-4885-a3cd-df7609bf9100","system_id":"levelo_inurba_marseille","lat":43.30211,"lon":5.39476,"is_reserved":false,"is_disabled":false,"rental_uris":{"android":"levelo://app?vid=b277c41c-d8d5-4885-a3cd-df7609bf9100","ios":"levelo://app?vid=b277c41c-d8d5-4885-a3cd-df7609bf9100"},"vehicle_type_id":"4","last_reported":1731590308,"current_range_meters":40000,"station_id":"ce4bh0p2rcd13ifvqd70","pricing_plan_id":"cebpf4jnsgd1na2vs0mg"},{"bike_id":"212b8c58-3155-4627-845c-781586f61a11","system_id":"levelo_inurba_marseille","lat":43.30911,"lon":5.36861,"is_reserved":false,"is_disabled":false,"rental_uris":{"android":"levelo://app?vid=212b8c58-3155-4627-845c-781586f61a11","ios":"levelo://app?vid=212b8c58-3155-4627-845c-781586f61a11"},"vehicle_type_id":"4","last_reported":1731590308,"current_range_meters":36800,"station_id":"ce4bgn92rcd13ifvqbvg","pricing_plan_id":"cebpf4jnsgd1na2vs0mg"},{"bike_id":"afb8b4e9-41ca-4ecb-82f6-539a067b1cb8","system_id":"levelo_inurba_marseille","lat":43.29163,"lon":5.37159,"is_reserved":false,"is_disabled":false,"rental_uris":{"android":"levelo://app?vid=afb8b4e9-41ca-4ecb-82f6-539a067b1cb8","ios":"levelo://app?vid=afb8b4e9-41ca-4ecb-82f6-539a067b1cb8"},"vehicle_type_id":"4","last_reported":1731590308,"current_range_meters":19200,"station_id":"ce4bha92rcd13ifvqeh0","pricing_plan_id":"cebpf4jnsgd1na2vs0mg"},{"bike_id":"76b2ac1e-4b12-4631-8617-770cf5ee1cac","system_id":"levelo_inurba_marseille","lat":43.24136,"lon":5.37674,"is_reserved":false,"is_disabled":false,"rental_uris":{"android":"levelo://app?vid=76b2ac1e-4b12-4631-8617-770cf5ee1cac","ios":"levelo://app?vid=76b2ac1e-4b12-4631-8617-770cf5ee1cac"},"vehicle_type_id":"4","last_reported":1731590308,"current_range_meters":38400,"station_id":"ce4bhnp2rcd13ifvqgvg","pricing_plan_id":"cebpf4jnsgd1na2vs0mg"},{"bike_id":"b761fbf5-2bb8-4246-8985-7f4acd907d8e","system_id":"levelo_inurba_marseille","lat":43.29671,"lon":5.3729,"is_reserved":false,"is_disabled":false,"rental_uris":{"android":"levelo://app?vid=b761fbf5-2bb8-4246-8985-7f4acd907d8e","ios":"levelo://app?vid=b761fbf5-2bb8-4246-8985-7f4acd907d8e"},"vehicle_type_id":"4","last_reported":1731590308,"current_range_meters":37600,"station_id":"ce4bgk12rcd13ifvqbj0","pricing_plan_id":"cebpf4jnsgd1na2vs0mg"},{"bike_id":"6a6ea60f-2251-4c20-a3fd-b8dbfc3cb31a","system_id":"levelo_inurba_marseille","lat":43.33764,"lon":5.37473,"is_reserved":false,"is_disabled":false,"rental_uris":{"android":"levelo://app?vid=6a6ea60f-2251-4c20-a3fd-b8dbfc3cb31a","ios":"levelo://app?vid=6a6ea60f-2251-4c20-a3fd-b8dbfc3cb31a"},"vehicle_type_id":"4","last_reported":1731590308,"current_range_meters":34800,"station_id":"","pricing_plan_id":"cebpf4jnsgd1na2vs0mg"},{"bike_id":"93177ef3-d2a2-49d2-b82a-0a7daf7fd62d","system_id":"levelo_inurba_marseille","lat":43.30945,"lon":5.39043,"is_reserved":false,"is_disabled":false,"rental_uris":{"android":"levelo://app?vid=93177ef3-d2a2-49d2-b82a-0a7daf7fd62d","ios":"levelo://app?vid=93177ef3-d2a2-49d2-b82a-0a7daf7fd62d"},"vehicle_type_id":"4","last_reported":1731590308,"current_range_meters":21600,"station_id":"ce4bgup2rcd13ifvqco0","pricing_plan_id":"cebpf4jnsgd1na2vs0mg"},{"bike_id":"2868211a-801a-40e9-87f4-374361291305","system_id":"levelo_inurba_marseille","lat":43.2816,"lon":5.42639,"is_reserved":false,"is_disabled":false,"rental_uris":{"android":"levelo://app?vid=2868211a-801a-40e9-87f4-374361291305","ios":"levelo://app?vid=2868211a-801a-40e9-87f4-374361291305"},"vehicle_type_id":"4","last_reported":1731590308,"current_range_meters":26000,"station_id":"ce4bhnh2rcd13ifvqgug","pricing_plan_id":"cebpf4jnsgd1na2vs0mg"},{"bike_id":"1311c692-6e9d-4afb-b7b0-20686564fe7a","system_id":"levelo_inurba_marseille","lat":43.337444,"lon":5.374475,"is_reserved":false,"is_disabled":false,"rental_uris":{"android":"levelo://app?vid=1311c692-6e9d-4afb-b7b0-20686564fe7a","ios":"levelo://app?vid=1311c692-6e9d-4afb-b7b0-20686564fe7a"},"vehicle_type_id":"4","last_reported":1731590308,"current_range_meters":32800,"station_id":"","pricing_plan_id":"cebpf4jnsgd1na2vs0mg"},{"bike_id":"da761391-3718-4934-8589-a23ff8e2f1fa","system_id":"levelo_inurba_marseille","lat":43.26555,"lon":5.37277,"is_reserved":false,"is_disabled":false,"rental_uris":{"android":"levelo://app?vid=da761391-3718-4934-8589-a23ff8e2f1fa","ios":"levelo://app?vid=da761391-3718-4934-8589-a23ff8e2f1fa"},"vehicle_type_id":"4","last_reported":1731590308,"current_range_meters":37600,"station_id":"ce4bhg12rcd13ifvqf70","pricing_plan_id":"cebpf4jnsgd1na2vs0mg"},{"bike_id":"07a4be1c-5cf0-4f3e-8c27-4c3e24078daa","system_id":"levelo_inurba_marseille","lat":43.24816,"lon":5.37454,"is_reserved":false,"is_disabled":false,"rental_uris":{"android":"levelo://app?vid=07a4be1c-5cf0-4f3e-8c27-4c3e24078daa","ios":"levelo://app?vid=07a4be1c-5cf0-4f3e-8c27-4c3e24078daa"},"vehicle_type_id":"4","last_reported":1731590308,"current_range_meters":38400,"station_id":"ce4bhgh2rcd13ifvqfb0","pricing_plan_id":"cebpf4jnsgd1na2vs0mg"},{"bike_id":"5b6c5558-28c3-4db4-9ef2-c42f2d0b9715","system_id":"levelo_inurba_marseille","lat":43.29797,"lon":5.3809,"is_reserved":false,"is_disabled":false,"rental_uris":{"android":"levelo://app?vid=5b6c5558-28c3-4db4-9ef2-c42f2d0b9715","ios":"levelo://app?vid=5b6c5558-28c3-4db4-9ef2-c42f2d0b9715"},"vehicle_type_id":"4","last_reported":1731590308,"current_range_meters":24800,"station_id":"ce4bgip2rcd13ifvqbb0","pricing_plan_id":"cebpf4jnsgd1na2vs0mg"},{"bike_id":"00e5ba65-0bf1-4c3a-bef2-91f89020d7f7","system_id":"levelo_inurba_marseille","lat":43.29257,"lon":5.38266,"is_reserved":false,"is_disabled":false,"rental_uris":{"android":"levelo://app?vid=00e5ba65-0bf1-4c3a-bef2-91f89020d7f7","ios":"levelo://app?vid=00e5ba65-0bf1-4c3a-bef2-91f89020d7f7"},"vehicle_type_id":"4","last_reported":1731590308,"current_range_meters":4800,"station_id":"","pricing_plan_id":"cebpf4jnsgd1na2vs0mg"},{"bike_id":"14371120-afeb-4428-b4f8-617c43a9073f","system_id":"levelo_inurba_marseille","lat":43.26792,"lon":5.39408,"is_reserved":false,"is_disabled":false,"rental_uris":{"android":"levelo://app?vid=14371120-afeb-4428-b4f8-617c43a9073f","ios":"levelo://app?vid=14371120-afeb-4428-b4f8-617c43a9073f"},"vehicle_type_id":"4","last_reported":1731590308,"current_range_meters":26800,"station_id":"ce4bhh12rcd13ifvqfg0","pricing_plan_id":"cebpf4jnsgd1na2vs0mg"},{"bike_id":"47ea3ad0-71ed-43e0-b552-7212798534b2","system_id":"levelo_inurba_marseille","lat":43.29863,"lon":5.39747,"is_reserved":false,"is_disabled":false,"rental_uris":{"android":"levelo://app?vid=47ea3ad0-71ed-43e0-b552-7212798534b2","ios":"levelo://app?vid=47ea3ad0-71ed-43e0-b552-7212798534b2"},"vehicle_type_id":"4","last_reported":1731590308,"current_range_meters":25600,"station_id":"ce4bh0h2rcd13ifvqd50","pricing_plan_id":"cebpf4jnsgd1na2vs0mg"},{"bike_id":"524bde44-5760-4994-a1e0-273f74976fbd","system_id":"levelo_inurba_marseille","lat":43.26061,"lon":5.39403,"is_reserved":false,"is_disabled":false,"rental_uris":{"android":"levelo://app?vid=524bde44-5760-4994-a1e0-273f74976fbd","ios":"levelo://app?vid=524bde44-5760-4994-a1e0-273f74976fbd"},"vehicle_type_id":"4","last_reported":1731590308,"current_range_meters":24800,"station_id":"ce4bhh92rcd13ifvqfj0","pricing_plan_id":"cebpf4jnsgd1na2vs0mg"},{"bike_id":"3d513708-f95c-4cb9-828c-9df3e142d836","system_id":"levelo_inurba_marseille","lat":43.26954,"lon":5.38631,"is_reserved":false,"is_disabled":false,"rental_uris":{"android":"levelo://app?vid=3d513708-f95c-4cb9-828c-9df3e142d836","ios":"levelo://app?vid=3d513708-f95c-4cb9-828c-9df3e142d836"},"vehicle_type_id":"4","last_reported":1731590308,"current_range_meters":35600,"station_id":"ce4bhh92rcd13ifvqfh0","pricing_plan_id":"cebpf4jnsgd1na2vs0mg"},{"bike_id":"0bb4a67c-2105-43f3-b027-39dae222dd42","system_id":"levelo_inurba_marseille","lat":43.27325,"lon":5.39075,"is_reserved":false,"is_disabled":false,"rental_uris":{"android":"levelo://app?vid=0bb4a67c-2105-43f3-b027-39dae222dd42","ios":"levelo://app?vid=0bb4a67c-2105-43f3-b027-39dae222dd42"},"vehicle_type_id":"4","last_reported":1731590308,"current_range_meters":38000,"station_id":"ce4bhgp2rcd13ifvqfe0","pricing_plan_id":"cebpf4jnsgd1na2vs0mg"},{"bike_id":"3e4efabd-b6ee-455f-8edb-144b5b7ee1b2","system_id":"levelo_inurba_marseille","lat":43.27434,"lon":5.39413,"is_reserved":false,"is_disabled":false,"rental_uris":{"android":"levelo://app?vid=3e4efabd-b6ee-455f-8edb-144b5b7ee1b2","ios":"levelo://app?vid=3e4efabd-b6ee-455f-8edb-144b5b7ee1b2"},"vehicle_type_id":"4","last_reported":1731590308,"current_range_meters":37600,"station_id":"ce4bhdp2rcd13ifvqf20","pricing_plan_id":"cebpf4jnsgd1na2vs0mg"},{"bike_id":"46822187-da27-4de7-9a03-9c7e8b36425d","system_id":"levelo_inurba_marseille","lat":43.28615,"lon":5.35104,"is_reserved":false,"is_disabled":false,"rental_uris":{"android":"levelo://app?vid=46822187-da27-4de7-9a03-9c7e8b36425d","ios":"levelo://app?vid=46822187-da27-4de7-9a03-9c7e8b36425d"},"vehicle_type_id":"4","last_reported":1731590308,"current_range_meters":34800,"station_id":"ce4bhch2rcd13ifvqeug","pricing_plan_id":"cebpf4jnsgd1na2vs0mg"},{"bike_id":"14041b42-c763-4196-acb4-81474847f26a","system_id":"levelo_inurba_marseille","lat":43.24082,"lon":5.3775,"is_reserved":false,"is_disabled":false,"rental_uris":{"android":"levelo://app?vid=14041b42-c763-4196-acb4-81474847f26a","ios":"levelo://app?vid=14041b42-c763-4196-acb4-81474847f26a"},"vehicle_type_id":"4","last_reported":1731590308,"current_range_meters":38800,"station_id":"ce4bhnp2rcd13ifvqgvg","pricing_plan_id":"cebpf4jnsgd1na2vs0mg"},{"bike_id":"22c58780-4725-4c35-9e46-28b881bc58d1","system_id":"levelo_inurba_marseille","lat":43.29962,"lon":5.37154,"is_reserved":false,"is_disabled":false,"rental_uris":{"android":"levelo://app?vid=22c58780-4725-4c35-9e46-28b881bc58d1","ios":"levelo://app?vid=22c58780-4725-4c35-9e46-28b881bc58d1"},"vehicle_type_id":"4","last_reported":1731590308,"current_range_meters":7200,"station_id":"ce4bgr92rcd13ifvqc7g","pricing_plan_id":"cebpf4jnsgd1na2vs0mg"},{"bike_id":"43aa04c8-2b2b-4d04-8a62-b963d5000326","system_id":"levelo_inurba_marseille","lat":43.30466,"lon":5.37909,"is_reserved":false,"is_disabled":false,"rental_uris":{"android":"levelo://app?vid=43aa04c8-2b2b-4d04-8a62-b963d5000326","ios":"levelo://app?vid=43aa04c8-2b2b-4d04-8a62-b963d5000326"},"vehicle_type_id":"4","last_reported":1731590308,"current_range_meters":38800,"station_id":"ce4bgup2rcd13ifvqcn0","pricing_plan_id":"cebpf4jnsgd1na2vs0mg"},{"bike_id":"bba76986-27db-4a0b-aac9-b12dd5c4e056","system_id":"levelo_inurba_marseille","lat":43.30284,"lon":5.37709,"is_reserved":false,"is_disabled":false,"rental_uris":{"android":"levelo://app?vid=bba76986-27db-4a0b-aac9-b12dd5c4e056","ios":"levelo://app?vid=bba76986-27db-4a0b-aac9-b12dd5c4e056"},"vehicle_type_id":"4","last_reported":1731590308,"current_range_meters":39200,"station_id":"ce4bguh2rcd13ifvqcj0","pricing_plan_id":"cebpf4jnsgd1na2vs0mg"},{"bike_id":"30579d2d-afec-421e-bd07-fe577ab81dba","system_id":"levelo_inurba_marseille","lat":43.337444,"lon":5.374475,"is_reserved":false,"is_disabled":false,"rental_uris":{"android":"levelo://app?vid=30579d2d-afec-421e-bd07-fe577ab81dba","ios":"levelo://app?vid=30579d2d-afec-421e-bd07-fe577ab81dba"},"vehicle_type_id":"4","last_reported":1731590308,"current_range_meters":35200,"station_id":"","pricing_plan_id":"cebpf4jnsgd1na2vs0mg"},{"bike_id":"24686ce9-e78d-4183-9e30-c6fcf3c0389b","system_id":"levelo_inurba_marseille","lat":43.28365,"lon":5.38645,"is_reserved":false,"is_disabled":false,"rental_uris":{"android":"levelo://app?vid=24686ce9-e78d-4183-9e30-c6fcf3c0389b","ios":"levelo://app?vid=24686ce9-e78d-4183-9e30-c6fcf3c0389b"},"vehicle_type_id":"4","last_reported":1731590308,"current_range_meters":39200,"station_id":"ce4bh492rcd13ifvqdvg","pricing_plan_id":"cebpf4jnsgd1na2vs0mg"},{"bike_id":"0adbe115-1e2e-4f19-aaa6-64977261b7d0","system_id":"levelo_inurba_marseille","lat":43.33755,"lon":5.37475,"is_reserved":false,"is_disabled":false,"rental_uris":{"android":"levelo://app?vid=0adbe115-1e2e-4f19-aaa6-64977261b7d0","ios":"levelo://app?vid=0adbe115-1e2e-4f19-aaa6-64977261b7d0"},"vehicle_type_id":"4","last_reported":1731590308,"current_range_meters":36800,"station_id":"","pricing_plan_id":"cebpf4jnsgd1na2vs0mg"},{"bike_id":"92ac4858-87d6-4ceb-8f6e-004635a816a8","system_id":"levelo_inurba_marseille","lat":43.27816,"lon":5.40709,"is_reserved":false,"is_disabled":false,"rental_uris":{"android":"levelo://app?vid=92ac4858-87d6-4ceb-8f6e-004635a816a8","ios":"levelo://app?vid=92ac4858-87d6-4ceb-8f6e-004635a816a8"},"vehicle_type_id":"4","last_reported":1731590308,"current_range_meters":37600,"station_id":"ce4bhnh2rcd13ifvqgtg","pricing_plan_id":"cebpf4jnsgd1na2vs0mg"},{"bike_id":"99a5d9a3-ff3d-4169-929e-98f34d8522fa","system_id":"levelo_inurba_marseille","lat":43.29031,"lon":5.37563,"is_reserved":false,"is_disabled":false,"rental_uris":{"android":"levelo://app?vid=99a5d9a3-ff3d-4169-929e-98f34d8522fa","ios":"levelo://app?vid=99a5d9a3-ff3d-4169-929e-98f34d8522fa"},"vehicle_type_id":"4","last_reported":1731590308,"current_range_meters":35600,"station_id":"ce4bh692rcd13ifvqe90","pricing_plan_id":"cebpf4jnsgd1na2vs0mg"},{"bike_id":"96580690-3f2b-42f2-a59f-c350b41c5f75","system_id":"levelo_inurba_marseille","lat":43.26196,"lon":5.37936,"is_reserved":false,"is_disabled":false,"rental_uris":{"android":"levelo://app?vid=96580690-3f2b-42f2-a59f-c350b41c5f75","ios":"levelo://app?vid=96580690-3f2b-42f2-a59f-c350b41c5f75"},"vehicle_type_id":"4","last_reported":1731590308,"current_range_meters":10000,"station_id":"ce4bhjp2rcd13ifvqg90","pricing_plan_id":"cebpf4jnsgd1na2vs0mg"},{"bike_id":"1bda1f07-b7d4-4dea-acbc-bba7a290c9cc","system_id":"levelo_inurba_marseille","lat":43.29856,"lon":5.36272,"is_reserved":false,"is_disabled":false,"rental_uris":{"android":"levelo://app?vid=1bda1f07-b7d4-4dea-acbc-bba7a290c9cc","ios":"levelo://app?vid=1bda1f07-b7d4-4dea-acbc-bba7a290c9cc"},"vehicle_type_id":"4","last_reported":1731590308,"current_range_meters":19600,"station_id":"ce4bgpp2rcd13ifvqc3g","pricing_plan_id":"cebpf4jnsgd1na2vs0mg"},{"bike_id":"08909aa1-f9f0-4aae-8b75-92ddcdf33929","system_id":"levelo_inurba_marseille","lat":43.293273,"lon":5.378414,"is_reserved":false,"is_disabled":false,"rental_uris":{"android":"levelo://app?vid=08909aa1-f9f0-4aae-8b75-92ddcdf33929","ios":"levelo://app?vid=08909aa1-f9f0-4aae-8b75-92ddcdf33929"},"vehicle_type_id":"4","last_reported":1731590308,"current_range_meters":6800,"station_id":"ce4bgjh2rcd13ifvqbf0","pricing_plan_id":"cebpf4jnsgd1na2vs0mg"},{"bike_id":"e93274d8-42a6-4c5f-bbeb-6c09c8cfa616","system_id":"levelo_inurba_marseille","lat":43.29191,"lon":5.35799,"is_reserved":false,"is_disabled":false,"rental_uris":{"android":"levelo://app?vid=e93274d8-42a6-4c5f-bbeb-6c09c8cfa616","ios":"levelo://app?vid=e93274d8-42a6-4c5f-bbeb-6c09c8cfa616"},"vehicle_type_id":"4","last_reported":1731590308,"current_range_meters":6000,"station_id":"ce4bhb12rcd13ifvqel0","pricing_plan_id":"cebpf4jnsgd1na2vs0mg"},{"bike_id":"7859a5ae-74ed-4e8a-b212-d33efeb6280b","system_id":"levelo_inurba_marseille","lat":43.31018,"lon":5.38044,"is_reserved":false,"is_disabled":false,"rental_uris":{"android":"levelo://app?vid=7859a5ae-74ed-4e8a-b212-d33efeb6280b","ios":"levelo://app?vid=7859a5ae-74ed-4e8a-b212-d33efeb6280b"},"vehicle_type_id":"4","last_reported":1731590308,"current_range_meters":10000,"station_id":"ce4bgv92rcd13ifvqcq0","pricing_plan_id":"cebpf4jnsgd1na2vs0mg"},{"bike_id":"d77685e3-2097-4197-a791-9b1745e1223a","system_id":"levelo_inurba_marseille","lat":43.25573,"lon":5.38234,"is_reserved":false,"is_disabled":false,"rental_uris":{"android":"levelo://app?vid=d77685e3-2097-4197-a791-9b1745e1223a","ios":"levelo://app?vid=d77685e3-2097-4197-a791-9b1745e1223a"},"vehicle_type_id":"4","last_reported":1731590308,"current_range_meters":12400,"station_id":"ce4bhih2rcd13ifvqfs0","pricing_plan_id":"cebpf4jnsgd1na2vs0mg"},{"bike_id":"26bb3cfd-f0ab-42c6-ad19-2f33d121180e","system_id":"levelo_inurba_marseille","lat":43.29306,"lon":5.37175,"is_reserved":false,"is_disabled":false,"rental_uris":{"android":"levelo://app?vid=26bb3cfd-f0ab-42c6-ad19-2f33d121180e","ios":"levelo://app?vid=26bb3cfd-f0ab-42c6-ad19-2f33d121180e"},"vehicle_type_id":"4","last_reported":1731590308,"current_range_meters":36400,"station_id":"ce4bgh92rcd13ifvqb40","pricing_plan_id":"cebpf4jnsgd1na2vs0mg"},{"bike_id":"119e07ed-61a1-42ed-bd2e-2f3bed871e21","system_id":"levelo_inurba_marseille","lat":43.289764,"lon":5.355379,"is_reserved":false,"is_disabled":false,"rental_uris":{"android":"levelo://app?vid=119e07ed-61a1-42ed-bd2e-2f3bed871e21","ios":"levelo://app?vid=119e07ed-61a1-42ed-bd2e-2f3bed871e21"},"vehicle_type_id":"4","last_reported":1731590308,"current_range_meters":21600,"station_id":"ce4bhbh2rcd13ifvqeo0","pricing_plan_id":"cebpf4jnsgd1na2vs0mg"},{"bike_id":"e2acb56e-ee1b-472b-a334-68e12b0d531a","system_id":"levelo_inurba_marseille","lat":43.25817,"lon":5.39439,"is_reserved":false,"is_disabled":false,"rental_uris":{"android":"levelo://app?vid=e2acb56e-ee1b-472b-a334-68e12b0d531a","ios":"levelo://app?vid=e2acb56e-ee1b-472b-a334-68e12b0d531a"},"vehicle_type_id":"4","last_reported":1731590308,"current_range_meters":39200,"station_id":"ce4bhip2rcd13ifvqft0","pricing_plan_id":"cebpf4jnsgd1na2vs0mg"},{"bike_id":"0f433459-e074-4293-bfa5-3b5b113abeb1","system_id":"levelo_inurba_marseille","lat":43.33721,"lon":5.39181,"is_reserved":false,"is_disabled":false,"rental_uris":{"android":"levelo://app?vid=0f433459-e074-4293-bfa5-3b5b113abeb1","ios":"levelo://app?vid=0f433459-e074-4293-bfa5-3b5b113abeb1"},"vehicle_type_id":"4","last_reported":1731590308,"current_range_meters":37600,"station_id":"ce4bhr92rcd13ifvqhsg","pricing_plan_id":"cebpf4jnsgd1na2vs0mg"},{"bike_id":"b6bca026-1efe-4754-928d-9042ba992b22","system_id":"levelo_inurba_marseille","lat":43.28423,"lon":5.34987,"is_reserved":false,"is_disabled":false,"rental_uris":{"android":"levelo://app?vid=b6bca026-1efe-4754-928d-9042ba992b22","ios":"levelo://app?vid=b6bca026-1efe-4754-928d-9042ba992b22"},"vehicle_type_id":"4","last_reported":1731590308,"current_range_meters":36400,"station_id":"ce4bhbh2rcd13ifvqepg","pricing_plan_id":"cebpf4jnsgd1na2vs0mg"},{"bike_id":"08e3ed02-0325-43d7-b750-9a3f6551ebd4","system_id":"levelo_inurba_marseille","lat":43.29792,"lon":5.38095,"is_reserved":false,"is_disabled":false,"rental_uris":{"android":"levelo://app?vid=08e3ed02-0325-43d7-b750-9a3f6551ebd4","ios":"levelo://app?vid=08e3ed02-0325-43d7-b750-9a3f6551ebd4"},"vehicle_type_id":"4","last_reported":1731590308,"current_range_meters":27600,"station_id":"ce4bgip2rcd13ifvqbb0","pricing_plan_id":"cebpf4jnsgd1na2vs0mg"},{"bike_id":"dbd750a9-0c24-495b-8b51-27338322d10f","system_id":"levelo_inurba_marseille","lat":43.3026,"lon":5.37686,"is_reserved":false,"is_disabled":false,"rental_uris":{"android":"levelo://app?vid=dbd750a9-0c24-495b-8b51-27338322d10f","ios":"levelo://app?vid=dbd750a9-0c24-495b-8b51-27338322d10f"},"vehicle_type_id":"4","last_reported":1731590308,"current_range_meters":38800,"station_id":"ce4bguh2rcd13ifvqcj0","pricing_plan_id":"cebpf4jnsgd1na2vs0mg"},{"bike_id":"62347821-fc2b-450a-9f68-2d9725aa9aa1","system_id":"levelo_inurba_marseille","lat":43.34132,"lon":5.40909,"is_reserved":false,"is_disabled":false,"rental_uris":{"android":"levelo://app?vid=62347821-fc2b-450a-9f68-2d9725aa9aa1","ios":"levelo://app?vid=62347821-fc2b-450a-9f68-2d9725aa9aa1"},"vehicle_type_id":"4","last_reported":1731590308,"current_range_meters":38800,"station_id":"ce4bhqh2rcd13ifvqhlg","pricing_plan_id":"cebpf4jnsgd1na2vs0mg"},{"bike_id":"8f6e4a2d-7245-40ff-b198-73575424a862","system_id":"levelo_inurba_marseille","lat":43.25579,"lon":5.3824,"is_reserved":false,"is_disabled":false,"rental_uris":{"android":"levelo://app?vid=8f6e4a2d-7245-40ff-b198-73575424a862","ios":"levelo://app?vid=8f6e4a2d-7245-40ff-b198-73575424a862"},"vehicle_type_id":"4","last_reported":1731590308,"current_range_meters":27200,"station_id":"ce4bhih2rcd13ifvqfs0","pricing_plan_id":"cebpf4jnsgd1na2vs0mg"},{"bike_id":"b7fb8d75-d625-4c08-9dbb-f681a5ef902e","system_id":"levelo_inurba_marseille","lat":43.2991,"lon":5.37478,"is_reserved":false,"is_disabled":false,"rental_uris":{"android":"levelo://app?vid=b7fb8d75-d625-4c08-9dbb-f681a5ef902e","ios":"levelo://app?vid=b7fb8d75-d625-4c08-9dbb-f681a5ef902e"},"vehicle_type_id":"4","last_reported":1731590308,"current_range_meters":17200,"station_id":"ce4bgjh2rcd13ifvqbg0","pricing_plan_id":"cebpf4jnsgd1na2vs0mg"},{"bike_id":"b448c76e-6a85-4e4e-8af8-7d9249501502","system_id":"levelo_inurba_marseille","lat":43.337444,"lon":5.374475,"is_reserved":false,"is_disabled":false,"rental_uris":{"android":"levelo://app?vid=b448c76e-6a85-4e4e-8af8-7d9249501502","ios":"levelo://app?vid=b448c76e-6a85-4e4e-8af8-7d9249501502"},"vehicle_type_id":"4","last_reported":1731590308,"current_range_meters":32800,"station_id":"","pricing_plan_id":"cebpf4jnsgd1na2vs0mg"},{"bike_id":"27180a1a-1e8e-44cf-be67-76727484dd68","system_id":"levelo_inurba_marseille","lat":43.32363,"lon":5.38885,"is_reserved":false,"is_disabled":false,"rental_uris":{"android":"levelo://app?vid=27180a1a-1e8e-44cf-be67-76727484dd68","ios":"levelo://app?vid=27180a1a-1e8e-44cf-be67-76727484dd68"},"vehicle_type_id":"4","last_reported":1731590308,"current_range_meters":39200,"station_id":"ce4bhqp2rcd13ifvqhog","pricing_plan_id":"cebpf4jnsgd1na2vs0mg"},{"bike_id":"3ee03d1b-be56-43ca-b167-578049bf9879","system_id":"levelo_inurba_marseille","lat":43.25867,"lon":5.39901,"is_reserved":false,"is_disabled":false,"rental_uris":{"android":"levelo://app?vid=3ee03d1b-be56-43ca-b167-578049bf9879","ios":"levelo://app?vid=3ee03d1b-be56-43ca-b167-578049bf9879"},"vehicle_type_id":"4","last_reported":1731590308,"current_range_meters":38000,"station_id":"ce4bhl92rcd13ifvqghg","pricing_plan_id":"cebpf4jnsgd1na2vs0mg"},{"bike_id":"29b57214-b641-4ff2-97a9-1a65c6d7cacb","system_id":"levelo_inurba_marseille","lat":43.2917,"lon":5.37162,"is_reserved":false,"is_disabled":false,"rental_uris":{"android":"levelo://app?vid=29b57214-b641-4ff2-97a9-1a65c6d7cacb","ios":"levelo://app?vid=29b57214-b641-4ff2-97a9-1a65c6d7cacb"},"vehicle_type_id":"4","last_reported":1731590308,"current_range_meters":31200,"station_id":"ce4bha92rcd13ifvqeh0","pricing_plan_id":"cebpf4jnsgd1na2vs0mg"},{"bike_id":"6dc1e269-d39a-4c38-833b-a81f99eeffba","system_id":"levelo_inurba_marseille","lat":43.30886,"lon":5.39656,"is_reserved":false,"is_disabled":false,"rental_uris":{"android":"levelo://app?vid=6dc1e269-d39a-4c38-833b-a81f99eeffba","ios":"levelo://app?vid=6dc1e269-d39a-4c38-833b-a81f99eeffba"},"vehicle_type_id":"4","last_reported":1731590308,"current_range_meters":38400,"station_id":"ce4bh012rcd13ifvqcv0","pricing_plan_id":"cebpf4jnsgd1na2vs0mg"},{"bike_id":"414dea06-0073-498d-8e43-6a1238984f59","system_id":"levelo_inurba_marseille","lat":43.337444,"lon":5.374475,"is_reserved":false,"is_disabled":false,"rental_uris":{"android":"levelo://app?vid=414dea06-0073-498d-8e43-6a1238984f59","ios":"levelo://app?vid=414dea06-0073-498d-8e43-6a1238984f59"},"vehicle_type_id":"4","last_reported":1731590308,"current_range_meters":35200,"station_id":"","pricing_plan_id":"cebpf4jnsgd1na2vs0mg"},{"bike_id":"cd757c88-006d-478f-b242-caca88fc746d","system_id":"levelo_inurba_marseille","lat":43.25823,"lon":5.39433,"is_reserved":false,"is_disabled":false,"rental_uris":{"android":"levelo://app?vid=cd757c88-006d-478f-b242-caca88fc746d","ios":"levelo://app?vid=cd757c88-006d-478f-b242-caca88fc746d"},"vehicle_type_id":"4","last_reported":1731590308,"current_range_meters":6400,"station_id":"ce4bhip2rcd13ifvqft0","pricing_plan_id":"cebpf4jnsgd1na2vs0mg"},{"bike_id":"722bb67e-8443-449f-b8b3-b1694341aeba","system_id":"levelo_inurba_marseille","lat":43.30905,"lon":5.36849,"is_reserved":false,"is_disabled":false,"rental_uris":{"android":"levelo://app?vid=722bb67e-8443-449f-b8b3-b1694341aeba","ios":"levelo://app?vid=722bb67e-8443-449f-b8b3-b1694341aeba"},"vehicle_type_id":"4","last_reported":1731590308,"current_range_meters":19600,"station_id":"ce4bgn92rcd13ifvqbvg","pricing_plan_id":"cebpf4jnsgd1na2vs0mg"},{"bike_id":"0a7b1968-70e0-47ca-b908-ba04ed1fc188","system_id":"levelo_inurba_marseille","lat":43.28667,"lon":5.38656,"is_reserved":false,"is_disabled":false,"rental_uris":{"android":"levelo://app?vid=0a7b1968-70e0-47ca-b908-ba04ed1fc188","ios":"levelo://app?vid=0a7b1968-70e0-47ca-b908-ba04ed1fc188"},"vehicle_type_id":"4","last_reported":1731590308,"current_range_meters":30000,"station_id":"ce4bh492rcd13ifvqdug","pricing_plan_id":"cebpf4jnsgd1na2vs0mg"},{"bike_id":"b613702c-21b0-4c7d-8000-0fe3d104d85f","system_id":"levelo_inurba_marseille","lat":43.337444,"lon":5.374475,"is_reserved":false,"is_disabled":false,"rental_uris":{"android":"levelo://app?vid=b613702c-21b0-4c7d-8000-0fe3d104d85f","ios":"levelo://app?vid=b613702c-21b0-4c7d-8000-0fe3d104d85f"},"vehicle_type_id":"4","last_reported":1731590308,"current_range_meters":36400,"station_id":"","pricing_plan_id":"cebpf4jnsgd1na2vs0mg"},{"bike_id":"71675479-65a3-432e-900f-c13f815182ff","system_id":"levelo_inurba_marseille","lat":43.296608,"lon":5.406023,"is_reserved":false,"is_disabled":false,"rental_uris":{"android":"levelo://app?vid=71675479-65a3-432e-900f-c13f815182ff","ios":"levelo://app?vid=71675479-65a3-432e-900f-c13f815182ff"},"vehicle_type_id":"4","last_reported":1731590308,"current_range_meters":17200,"station_id":"ce4bh0h2rcd13ifvqd60","pricing_plan_id":"cebpf4jnsgd1na2vs0mg"},{"bike_id":"d0b37ce9-bd8a-4464-82da-cabbfd1e106b","system_id":"levelo_inurba_marseille","lat":43.24055,"lon":5.37751,"is_reserved":false,"is_disabled":false,"rental_uris":{"android":"levelo://app?vid=d0b37ce9-bd8a-4464-82da-cabbfd1e106b","ios":"levelo://app?vid=d0b37ce9-bd8a-4464-82da-cabbfd1e106b"},"vehicle_type_id":"4","last_reported":1731590308,"current_range_meters":32000,"station_id":"ce4bhnp2rcd13ifvqgvg","pricing_plan_id":"cebpf4jnsgd1na2vs0mg"},{"bike_id":"502a8eb1-adde-4872-9d42-582dec94d221","system_id":"levelo_inurba_marseille","lat":43.24387,"lon":5.37066,"is_reserved":false,"is_disabled":false,"rental_uris":{"android":"levelo://app?vid=502a8eb1-adde-4872-9d42-582dec94d221","ios":"levelo://app?vid=502a8eb1-adde-4872-9d42-582dec94d221"},"vehicle_type_id":"4","last_reported":1731590308,"current_range_meters":38000,"station_id":"ce4bhhh2rcd13ifvqfk0","pricing_plan_id":"cebpf4jnsgd1na2vs0mg"},{"bike_id":"d016a293-647b-4a56-9e6a-a54a6a310cdd","system_id":"levelo_inurba_marseille","lat":43.337444,"lon":5.374475,"is_reserved":false,"is_disabled":false,"rental_uris":{"android":"levelo://app?vid=d016a293-647b-4a56-9e6a-a54a6a310cdd","ios":"levelo://app?vid=d016a293-647b-4a56-9e6a-a54a6a310cdd"},"vehicle_type_id":"4","last_reported":1731590308,"current_range_meters":37600,"station_id":"","pricing_plan_id":"cebpf4jnsgd1na2vs0mg"},{"bike_id":"bf8877aa-4e3b-4217-ae53-5d8001def350","system_id":"levelo_inurba_marseille","lat":43.32486,"lon":5.36557,"is_reserved":false,"is_disabled":false,"rental_uris":{"android":"levelo://app?vid=bf8877aa-4e3b-4217-ae53-5d8001def350","ios":"levelo://app?vid=bf8877aa-4e3b-4217-ae53-5d8001def350"},"vehicle_type_id":"4","last_reported":1731590308,"current_range_meters":21600,"station_id":"ce4bhs12rcd13ifvqhvg","pricing_plan_id":"cebpf4jnsgd1na2vs0mg"},{"bike_id":"28176f03-c382-4685-9bef-bbd69552163c","system_id":"levelo_inurba_marseille","lat":43.28724,"lon":5.37945,"is_reserved":false,"is_disabled":false,"rental_uris":{"android":"levelo://app?vid=28176f03-c382-4685-9bef-bbd69552163c","ios":"levelo://app?vid=28176f03-c382-4685-9bef-bbd69552163c"},