{"last_updated":1774113398,"ttl":60,"version":"2.2","data":{"bikes":[{"bike_id":"3d8b9441-846b-4bc6-a99f-7538b53156c2","system_id":"levelo_inurba_marseille","lat":43.29834,"lon":5.37928,"is_reserved":false,"is_disabled":true,"rental_uris":{"android":"levelo://app?vid=3d8b9441-846b-4bc6-a99f-7538b53156c2","ios":"levelo://app?vid=3d8b9441-846b-4bc6-a99f-7538b53156c2"},"vehicle_type_id":"4","last_reported":1774113398,"current_range_meters":2800,"station_id":"","pricing_plan_id":"cebpf4jnsgd1na2vs0mg"},{"bike_id":"feef55a9-165c-40b0-ab63-0afc18b21d07","system_id":"levelo_inurba_marseille","lat":43.33539,"lon":5.37447,"is_reserved":false,"is_disabled":false,"rental_uris":{"android":"levelo://app?vid=feef55a9-165c-40b0-ab63-0afc18b21d07","ios":"levelo://app?vid=feef55a9-165c-40b0-ab63-0afc18b21d07"},"vehicle_type_id":"4","last_reported":1774113398,"current_range_meters":2800,"station_id":"st_d46tts09ee8s73dlu43g","pricing_plan_id":"cebpf4jnsgd1na2vs0mg"},{"bike_id":"45f343c6-d246-4003-b6a7-edca73dbc20b","system_id":"levelo_inurba_marseille","lat":43.27908,"lon":5.39175,"is_reserved":false,"is_disabled":false,"rental_uris":{"android":"levelo://app?vid=45f343c6-d246-4003-b6a7-edca73dbc20b","ios":"levelo://app?vid=45f343c6-d246-4003-b6a7-edca73dbc20b"},"vehicle_type_id":"4","last_reported":1774113398,"current_range_meters":2800,"station_id":"","pricing_plan_id":"cebpf4jnsgd1na2vs0mg"},{"bike_id":"03a74229-5ede-4cd5-9ad9-d142ed50c73e","system_id":"levelo_inurba_marseille","lat":43.2447,"lon":5.4253,"is_reserved":false,"is_disabled":false,"rental_uris":{"android":"levelo://app?vid=03a74229-5ede-4cd5-9ad9-d142ed50c73e","ios":"levelo://app?vid=03a74229-5ede-4cd5-9ad9-d142ed50c73e"},"vehicle_type_id":"4","last_reported":1774113398,"current_range_meters":2800,"station_id":"st_d4a3vfp97mjs738cd8kg","pricing_plan_id":"cebpf4jnsgd1na2vs0mg"},{"bike_id":"c7cc5081-8a90-4664-8378-0ac0db8d74fb","system_id":"levelo_inurba_marseille","lat":43.29823,"lon":5.36739,"is_reserved":false,"is_disabled":false,"rental_uris":{"android":"levelo://app?vid=c7cc5081-8a90-4664-8378-0ac0db8d74fb","ios":"levelo://app?vid=c7cc5081-8a90-4664-8378-0ac0db8d74fb"},"vehicle_type_id":"4","last_reported":1774113398,"current_range_meters":2800,"station_id":"","pricing_plan_id":"cebpf4jnsgd1na2vs0mg"},{"bike_id":"fdfdce5a-d6ad-4d1c-a822-9d78a4bd222e","system_id":"levelo_inurba_marseille","lat":43.29932,"lon":5.36554,"is_reserved":false,"is_disabled":false,"rental_uris":{"android":"levelo://app?vid=fdfdce5a-d6ad-4d1c-a822-9d78a4bd222e","ios":"levelo://app?vid=fdfdce5a-d6ad-4d1c-a822-9d78a4bd222e"},"vehicle_type_id":"4","last_reported":1774113398,"current_range_meters":2800,"station_id":"ce4bgm92rcd13ifvqbr0","pricing_plan_id":"cebpf4jnsgd1na2vs0mg"},{"bike_id":"7358387e-352c-4926-9db3-f6e7b8e6aa1e","system_id":"levelo_inurba_marseille","lat":43.26194,"lon":5.37472,"is_reserved":false,"is_disabled":false,"rental_uris":{"android":"levelo://app?vid=7358387e-352c-4926-9db3-f6e7b8e6aa1e","ios":"levelo://app?vid=7358387e-352c-4926-9db3-f6e7b8e6aa1e"},"vehicle_type_id":"4","last_reported":1774113398,"current_range_meters":2800,"station_id":"ce4bhgp2rcd13ifvqfc0","pricing_plan_id":"cebpf4jnsgd1na2vs0mg"},{"bike_id":"f0e8e0b2-af1a-4f89-bba1-133d48a46a6b","system_id":"levelo_inurba_marseille","lat":43.28263,"lon":5.3507,"is_reserved":false,"is_disabled":false,"rental_uris":{"android":"levelo://app?vid=f0e8e0b2-af1a-4f89-bba1-133d48a46a6b","ios":"levelo://app?vid=f0e8e0b2-af1a-4f89-bba1-133d48a46a6b"},"vehicle_type_id":"4","last_reported":1774113398,"current_range_meters":2800,"station_id":"ce4bhbp2rcd13ifvqerg","pricing_plan_id":"cebpf4jnsgd1na2vs0mg"},{"bike_id":"29760e88-a6f9-459c-812a-c8fc0b88ede4","system_id":"levelo_inurba_marseille","lat":43.28395,"lon":5.37511,"is_reserved":false,"is_disabled":false,"rental_uris":{"android":"levelo://app?vid=29760e88-a6f9-459c-812a-c8fc0b88ede4","ios":"levelo://app?vid=29760e88-a6f9-459c-812a-c8fc0b88ede4"},"vehicle_type_id":"4","last_reported":1774113398,"current_range_meters":2800,"station_id":"ce4bh412rcd13ifvqds0","pricing_plan_id":"cebpf4jnsgd1na2vs0mg"},{"bike_id":"cc5eef0d-52b1-4d23-b587-231c4d030e47","system_id":"levelo_inurba_marseille","lat":43.225308,"lon":5.348296,"is_reserved":false,"is_disabled":false,"rental_uris":{"android":"levelo://app?vid=cc5eef0d-52b1-4d23-b587-231c4d030e47","ios":"levelo://app?vid=cc5eef0d-52b1-4d23-b587-231c4d030e47"},"vehicle_type_id":"4","last_reported":1774113398,"current_range_meters":2800,"station_id":"","pricing_plan_id":"cebpf4jnsgd1na2vs0mg"},{"bike_id":"df936275-a238-4e4d-8291-241cc64c65d9","system_id":"levelo_inurba_marseille","lat":43.28424,"lon":5.375,"is_reserved":false,"is_disabled":false,"rental_uris":{"android":"levelo://app?vid=df936275-a238-4e4d-8291-241cc64c65d9","ios":"levelo://app?vid=df936275-a238-4e4d-8291-241cc64c65d9"},"vehicle_type_id":"4","last_reported":1774113398,"current_range_meters":2800,"station_id":"ce4bh412rcd13ifvqds0","pricing_plan_id":"cebpf4jnsgd1na2vs0mg"},{"bike_id":"c16f5f6f-08ac-49c8-8465-32b91e3c9497","system_id":"levelo_inurba_marseille","lat":43.28935,"lon":5.36637,"is_reserved":false,"is_disabled":false,"rental_uris":{"android":"levelo://app?vid=c16f5f6f-08ac-49c8-8465-32b91e3c9497","ios":"levelo://app?vid=c16f5f6f-08ac-49c8-8465-32b91e3c9497"},"vehicle_type_id":"4","last_reported":1774113398,"current_range_meters":2800,"station_id":"ce4bhap2rcd13ifvqek0","pricing_plan_id":"cebpf4jnsgd1na2vs0mg"},{"bike_id":"37ac073c-5505-405f-9972-6817069e3e18","system_id":"levelo_inurba_marseille","lat":43.23903,"lon":5.37442,"is_reserved":false,"is_disabled":false,"rental_uris":{"android":"levelo://app?vid=37ac073c-5505-405f-9972-6817069e3e18","ios":"levelo://app?vid=37ac073c-5505-405f-9972-6817069e3e18"},"vehicle_type_id":"4","last_reported":1774113398,"current_range_meters":2800,"station_id":"st_d6sm7csbq4hs73f8fpjg","pricing_plan_id":"cebpf4jnsgd1na2vs0mg"},{"bike_id":"4e5cff11-8034-406f-9dd2-dd20f8efa9d8","system_id":"levelo_inurba_marseille","lat":43.29796,"lon":5.38088,"is_reserved":false,"is_disabled":false,"rental_uris":{"android":"levelo://app?vid=4e5cff11-8034-406f-9dd2-dd20f8efa9d8","ios":"levelo://app?vid=4e5cff11-8034-406f-9dd2-dd20f8efa9d8"},"vehicle_type_id":"4","last_reported":1774113398,"current_range_meters":2800,"station_id":"ce4bgip2rcd13ifvqbb0","pricing_plan_id":"cebpf4jnsgd1na2vs0mg"},{"bike_id":"00558c0c-1df6-4337-a07a-bfdc1b89a492","system_id":"levelo_inurba_marseille","lat":43.25003,"lon":5.38925,"is_reserved":false,"is_disabled":false,"rental_uris":{"android":"levelo://app?vid=00558c0c-1df6-4337-a07a-bfdc1b89a492","ios":"levelo://app?vid=00558c0c-1df6-4337-a07a-bfdc1b89a492"},"vehicle_type_id":"4","last_reported":1774113398,"current_range_meters":2800,"station_id":"ce4bhgp2rcd13ifvqfd0","pricing_plan_id":"cebpf4jnsgd1na2vs0mg"},{"bike_id":"29ceb06a-4df8-4e2a-9dd9-b070e185b37f","system_id":"levelo_inurba_marseille","lat":43.28479,"lon":5.48406,"is_reserved":false,"is_disabled":false,"rental_uris":{"android":"levelo://app?vid=29ceb06a-4df8-4e2a-9dd9-b070e185b37f","ios":"levelo://app?vid=29ceb06a-4df8-4e2a-9dd9-b070e185b37f"},"vehicle_type_id":"4","last_reported":1774113398,"current_range_meters":2800,"station_id":"","pricing_plan_id":"cebpf4jnsgd1na2vs0mg"},{"bike_id":"0e900c18-f07a-4034-a0f8-92df683aa13b","system_id":"levelo_inurba_marseille","lat":43.27366,"lon":5.36258,"is_reserved":false,"is_disabled":false,"rental_uris":{"android":"levelo://app?vid=0e900c18-f07a-4034-a0f8-92df683aa13b","ios":"levelo://app?vid=0e900c18-f07a-4034-a0f8-92df683aa13b"},"vehicle_type_id":"4","last_reported":1774113398,"current_range_meters":2800,"station_id":"ce4bhbh2rcd13ifvqeo0","pricing_plan_id":"cebpf4jnsgd1na2vs0mg"},{"bike_id":"c142af26-b83c-4aa3-ab8b-699576493d34","system_id":"levelo_inurba_marseille","lat":43.21186,"lon":5.35069,"is_reserved":false,"is_disabled":true,"rental_uris":{"android":"levelo://app?vid=c142af26-b83c-4aa3-ab8b-699576493d34","ios":"levelo://app?vid=c142af26-b83c-4aa3-ab8b-699576493d34"},"vehicle_type_id":"4","last_reported":1774113398,"current_range_meters":2800,"station_id":"st_cvj6sg6p6f1abm77japg","pricing_plan_id":"cebpf4jnsgd1na2vs0mg"},{"bike_id":"7ecbf140-0963-4087-ac4d-f0f93b7c7ae8","system_id":"levelo_inurba_marseille","lat":43.30297,"lon":5.39215,"is_reserved":false,"is_disabled":false,"rental_uris":{"android":"levelo://app?vid=7ecbf140-0963-4087-ac4d-f0f93b7c7ae8","ios":"levelo://app?vid=7ecbf140-0963-4087-ac4d-f0f93b7c7ae8"},"vehicle_type_id":"4","last_reported":1774113398,"current_range_meters":2800,"station_id":"ce4bgkh2rcd13ifvqbk0","pricing_plan_id":"cebpf4jnsgd1na2vs0mg"},{"bike_id":"e5eba928-e3a4-441b-9540-937747ee47b9","system_id":"levelo_inurba_marseille","lat":43.22561,"lon":5.4163,"is_reserved":false,"is_disabled":false,"rental_uris":{"android":"levelo://app?vid=e5eba928-e3a4-441b-9540-937747ee47b9","ios":"levelo://app?vid=e5eba928-e3a4-441b-9540-937747ee47b9"},"vehicle_type_id":"4","last_reported":1774113398,"current_range_meters":2800,"station_id":"st_d2o4gvlbi1j2169b742g","pricing_plan_id":"cebpf4jnsgd1na2vs0mg"},{"bike_id":"5a3f8f7f-b74e-4e16-a60d-d0baeee3ae80","system_id":"levelo_inurba_marseille","lat":43.26197,"lon":5.37909,"is_reserved":false,"is_disabled":false,"rental_uris":{"android":"levelo://app?vid=5a3f8f7f-b74e-4e16-a60d-d0baeee3ae80","ios":"levelo://app?vid=5a3f8f7f-b74e-4e16-a60d-d0baeee3ae80"},"vehicle_type_id":"4","last_reported":1774113398,"current_range_meters":2800,"station_id":"ce4bhjp2rcd13ifvqg90","pricing_plan_id":"cebpf4jnsgd1na2vs0mg"},{"bike_id":"20e31599-c5cf-4a56-a5f9-9ecf67ab14eb","system_id":"levelo_inurba_marseille","lat":43.29849,"lon":5.36274,"is_reserved":false,"is_disabled":false,"rental_uris":{"android":"levelo://app?vid=20e31599-c5cf-4a56-a5f9-9ecf67ab14eb","ios":"levelo://app?vid=20e31599-c5cf-4a56-a5f9-9ecf67ab14eb"},"vehicle_type_id":"4","last_reported":1774113398,"current_range_meters":2800,"station_id":"ce4bgpp2rcd13ifvqc3g","pricing_plan_id":"cebpf4jnsgd1na2vs0mg"},{"bike_id":"a21e26b3-9aa1-4b5b-a54f-21659a65be4d","system_id":"levelo_inurba_marseille","lat":43.31367,"lon":5.38493,"is_reserved":false,"is_disabled":false,"rental_uris":{"android":"levelo://app?vid=a21e26b3-9aa1-4b5b-a54f-21659a65be4d","ios":"levelo://app?vid=a21e26b3-9aa1-4b5b-a54f-21659a65be4d"},"vehicle_type_id":"4","last_reported":1774113398,"current_range_meters":2800,"station_id":"ce4bgt92rcd13ifvqcf0","pricing_plan_id":"cebpf4jnsgd1na2vs0mg"},{"bike_id":"a775511c-9985-4a58-8c4c-775aad7f3e36","system_id":"levelo_inurba_marseille","lat":43.29912,"lon":5.43673,"is_reserved":false,"is_disabled":false,"rental_uris":{"android":"levelo://app?vid=a775511c-9985-4a58-8c4c-775aad7f3e36","ios":"levelo://app?vid=a775511c-9985-4a58-8c4c-775aad7f3e36"},"vehicle_type_id":"4","last_reported":1774113398,"current_range_meters":3200,"station_id":"ce4bhpp2rcd13ifvqhfg","pricing_plan_id":"cebpf4jnsgd1na2vs0mg"},{"bike_id":"428be26c-71f6-43d6-88b4-cf2defac70c3","system_id":"levelo_inurba_marseille","lat":43.26681,"lon":5.38268,"is_reserved":false,"is_disabled":false,"rental_uris":{"android":"levelo://app?vid=428be26c-71f6-43d6-88b4-cf2defac70c3","ios":"levelo://app?vid=428be26c-71f6-43d6-88b4-cf2defac70c3"},"vehicle_type_id":"4","last_reported":1774113398,"current_range_meters":3200,"station_id":"ce4bhg92rcd13ifvqf90","pricing_plan_id":"cebpf4jnsgd1na2vs0mg"},{"bike_id":"7e3fe35a-02a8-4e9a-bafd-ecb393f71d00","system_id":"levelo_inurba_marseille","lat":43.28883,"lon":5.42518,"is_reserved":false,"is_disabled":false,"rental_uris":{"android":"levelo://app?vid=7e3fe35a-02a8-4e9a-bafd-ecb393f71d00","ios":"levelo://app?vid=7e3fe35a-02a8-4e9a-bafd-ecb393f71d00"},"vehicle_type_id":"4","last_reported":1774113398,"current_range_meters":3200,"station_id":"","pricing_plan_id":"cebpf4jnsgd1na2vs0mg"},{"bike_id":"e034a467-b8ca-421c-9b83-16c73f794cb5","system_id":"levelo_inurba_marseille","lat":43.2655,"lon":5.37287,"is_reserved":false,"is_disabled":false,"rental_uris":{"android":"levelo://app?vid=e034a467-b8ca-421c-9b83-16c73f794cb5","ios":"levelo://app?vid=e034a467-b8ca-421c-9b83-16c73f794cb5"},"vehicle_type_id":"4","last_reported":1774113398,"current_range_meters":3200,"station_id":"ce4bhg12rcd13ifvqf70","pricing_plan_id":"cebpf4jnsgd1na2vs0mg"},{"bike_id":"0e9df1b6-908f-4e18-81e1-9a164798c2e1","system_id":"levelo_inurba_marseille","lat":43.30474,"lon":5.36704,"is_reserved":false,"is_disabled":true,"rental_uris":{"android":"levelo://app?vid=0e9df1b6-908f-4e18-81e1-9a164798c2e1","ios":"levelo://app?vid=0e9df1b6-908f-4e18-81e1-9a164798c2e1"},"vehicle_type_id":"4","last_reported":1774113398,"current_range_meters":3200,"station_id":"","pricing_plan_id":"cebpf4jnsgd1na2vs0mg"},{"bike_id":"c9cfc67c-4e42-4833-b4ab-11ad690d27f6","system_id":"levelo_inurba_marseille","lat":43.33025,"lon":5.39319,"is_reserved":false,"is_disabled":false,"rental_uris":{"android":"levelo://app?vid=c9cfc67c-4e42-4833-b4ab-11ad690d27f6","ios":"levelo://app?vid=c9cfc67c-4e42-4833-b4ab-11ad690d27f6"},"vehicle_type_id":"4","last_reported":1774113398,"current_range_meters":3200,"station_id":"","pricing_plan_id":"cebpf4jnsgd1na2vs0mg"},{"bike_id":"409dfb63-4d74-4284-93ac-4cd2be298b8b","system_id":"levelo_inurba_marseille","lat":43.29597,"lon":5.38094,"is_reserved":false,"is_disabled":false,"rental_uris":{"android":"levelo://app?vid=409dfb63-4d74-4284-93ac-4cd2be298b8b","ios":"levelo://app?vid=409dfb63-4d74-4284-93ac-4cd2be298b8b"},"vehicle_type_id":"4","last_reported":1774113398,"current_range_meters":3200,"station_id":"ce4bgl12rcd13ifvqbo0","pricing_plan_id":"cebpf4jnsgd1na2vs0mg"},{"bike_id":"eb42854b-1283-4ba8-ba44-57b493fe99a3","system_id":"levelo_inurba_marseille","lat":43.295288,"lon":5.385466,"is_reserved":false,"is_disabled":false,"rental_uris":{"android":"levelo://app?vid=eb42854b-1283-4ba8-ba44-57b493fe99a3","ios":"levelo://app?vid=eb42854b-1283-4ba8-ba44-57b493fe99a3"},"vehicle_type_id":"4","last_reported":1774113398,"current_range_meters":3200,"station_id":"ce4bgih2rcd13ifvqba0","pricing_plan_id":"cebpf4jnsgd1na2vs0mg"},{"bike_id":"d13beb39-6370-4275-bcf3-5e08790510bd","system_id":"levelo_inurba_marseille","lat":43.28537,"lon":5.44106,"is_reserved":false,"is_disabled":false,"rental_uris":{"android":"levelo://app?vid=d13beb39-6370-4275-bcf3-5e08790510bd","ios":"levelo://app?vid=d13beb39-6370-4275-bcf3-5e08790510bd"},"vehicle_type_id":"4","last_reported":1774113398,"current_range_meters":3200,"station_id":"st_d3j3df2ikq2c7380ej80","pricing_plan_id":"cebpf4jnsgd1na2vs0mg"},{"bike_id":"1fabe0ec-3cc6-46a2-a48e-1222cd5b2dcf","system_id":"levelo_inurba_marseille","lat":43.303566,"lon":5.418853,"is_reserved":false,"is_disabled":false,"rental_uris":{"android":"levelo://app?vid=1fabe0ec-3cc6-46a2-a48e-1222cd5b2dcf","ios":"levelo://app?vid=1fabe0ec-3cc6-46a2-a48e-1222cd5b2dcf"},"vehicle_type_id":"4","last_reported":1774113398,"current_range_meters":3200,"station_id":"ce4bhop2rcd13ifvqh7g","pricing_plan_id":"cebpf4jnsgd1na2vs0mg"},{"bike_id":"53f48266-4564-420b-96ab-d243233055dc","system_id":"levelo_inurba_marseille","lat":43.28474,"lon":5.48397,"is_reserved":false,"is_disabled":false,"rental_uris":{"android":"levelo://app?vid=53f48266-4564-420b-96ab-d243233055dc","ios":"levelo://app?vid=53f48266-4564-420b-96ab-d243233055dc"},"vehicle_type_id":"4","last_reported":1774113398,"current_range_meters":3600,"station_id":"","pricing_plan_id":"cebpf4jnsgd1na2vs0mg"},{"bike_id":"8a84358d-8041-4193-a83a-ea98e64dd79d","system_id":"levelo_inurba_marseille","lat":43.29571,"lon":5.37536,"is_reserved":false,"is_disabled":false,"rental_uris":{"android":"levelo://app?vid=8a84358d-8041-4193-a83a-ea98e64dd79d","ios":"levelo://app?vid=8a84358d-8041-4193-a83a-ea98e64dd79d"},"vehicle_type_id":"4","last_reported":1774113398,"current_range_meters":3600,"station_id":"ce4bgh92rcd13ifvqb50","pricing_plan_id":"cebpf4jnsgd1na2vs0mg"},{"bike_id":"5077e3c5-4451-47e8-95bb-d0fd55036d78","system_id":"levelo_inurba_marseille","lat":43.29597,"lon":5.38105,"is_reserved":false,"is_disabled":false,"rental_uris":{"android":"levelo://app?vid=5077e3c5-4451-47e8-95bb-d0fd55036d78","ios":"levelo://app?vid=5077e3c5-4451-47e8-95bb-d0fd55036d78"},"vehicle_type_id":"4","last_reported":1774113398,"current_range_meters":3600,"station_id":"ce4bgl12rcd13ifvqbo0","pricing_plan_id":"cebpf4jnsgd1na2vs0mg"},{"bike_id":"bd2a6239-bc21-40d3-a5f8-2882a6440e12","system_id":"levelo_inurba_marseille","lat":43.28837,"lon":5.35875,"is_reserved":false,"is_disabled":false,"rental_uris":{"android":"levelo://app?vid=bd2a6239-bc21-40d3-a5f8-2882a6440e12","ios":"levelo://app?vid=bd2a6239-bc21-40d3-a5f8-2882a6440e12"},"vehicle_type_id":"4","last_reported":1774113398,"current_range_meters":3600,"station_id":"ce4bhb12rcd13ifvqem0","pricing_plan_id":"cebpf4jnsgd1na2vs0mg"},{"bike_id":"68e14d5a-4542-4501-83fd-d17d5f7d33b2","system_id":"levelo_inurba_marseille","lat":43.29277,"lon":5.36851,"is_reserved":false,"is_disabled":false,"rental_uris":{"android":"levelo://app?vid=68e14d5a-4542-4501-83fd-d17d5f7d33b2","ios":"levelo://app?vid=68e14d5a-4542-4501-83fd-d17d5f7d33b2"},"vehicle_type_id":"4","last_reported":1774113398,"current_range_meters":3600,"station_id":"ce4bhbp2rcd13ifvqesg","pricing_plan_id":"cebpf4jnsgd1na2vs0mg"},{"bike_id":"937e52b3-aaf8-4141-a9ad-e34408f386be","system_id":"levelo_inurba_marseille","lat":43.23969,"lon":5.36631,"is_reserved":false,"is_disabled":false,"rental_uris":{"android":"levelo://app?vid=937e52b3-aaf8-4141-a9ad-e34408f386be","ios":"levelo://app?vid=937e52b3-aaf8-4141-a9ad-e34408f386be"},"vehicle_type_id":"4","last_reported":1774113398,"current_range_meters":3600,"station_id":"ce4bhi12rcd13ifvqfp0","pricing_plan_id":"cebpf4jnsgd1na2vs0mg"},{"bike_id":"89ad46cf-ad84-4e5e-be57-87ac2cebe69c","system_id":"levelo_inurba_marseille","lat":43.28488,"lon":5.48393,"is_reserved":false,"is_disabled":false,"rental_uris":{"android":"levelo://app?vid=89ad46cf-ad84-4e5e-be57-87ac2cebe69c","ios":"levelo://app?vid=89ad46cf-ad84-4e5e-be57-87ac2cebe69c"},"vehicle_type_id":"4","last_reported":1774113398,"current_range_meters":3600,"station_id":"st_d3svhcjqgbts73a3dn0g","pricing_plan_id":"cebpf4jnsgd1na2vs0mg"},{"bike_id":"e708b6c0-a0aa-46d0-a47a-53a96e3018e8","system_id":"levelo_inurba_marseille","lat":43.24642,"lon":5.43149,"is_reserved":false,"is_disabled":false,"rental_uris":{"android":"levelo://app?vid=e708b6c0-a0aa-46d0-a47a-53a96e3018e8","ios":"levelo://app?vid=e708b6c0-a0aa-46d0-a47a-53a96e3018e8"},"vehicle_type_id":"4","last_reported":1774113398,"current_range_meters":3600,"station_id":"","pricing_plan_id":"cebpf4jnsgd1na2vs0mg"},{"bike_id":"8f957662-a2f8-434b-b9b1-ac7debf94d1c","system_id":"levelo_inurba_marseille","lat":43.23191,"lon":5.35531,"is_reserved":false,"is_disabled":false,"rental_uris":{"android":"levelo://app?vid=8f957662-a2f8-434b-b9b1-ac7debf94d1c","ios":"levelo://app?vid=8f957662-a2f8-434b-b9b1-ac7debf94d1c"},"vehicle_type_id":"4","last_reported":1774113398,"current_range_meters":3600,"station_id":"ce4bhu92rcd13ifvqi70","pricing_plan_id":"cebpf4jnsgd1na2vs0mg"},{"bike_id":"10e5dec8-e91c-42fc-9ce7-71be637225e8","system_id":"levelo_inurba_marseille","lat":43.27973,"lon":5.38768,"is_reserved":false,"is_disabled":false,"rental_uris":{"android":"levelo://app?vid=10e5dec8-e91c-42fc-9ce7-71be637225e8","ios":"levelo://app?vid=10e5dec8-e91c-42fc-9ce7-71be637225e8"},"vehicle_type_id":"4","last_reported":1774113398,"current_range_meters":3600,"station_id":"ce4bhg12rcd13ifvqf80","pricing_plan_id":"cebpf4jnsgd1na2vs0mg"},{"bike_id":"b14bb5e1-7882-4380-b389-98bb380dac81","system_id":"levelo_inurba_marseille","lat":43.23962,"lon":5.36649,"is_reserved":false,"is_disabled":false,"rental_uris":{"android":"levelo://app?vid=b14bb5e1-7882-4380-b389-98bb380dac81","ios":"levelo://app?vid=b14bb5e1-7882-4380-b389-98bb380dac81"},"vehicle_type_id":"4","last_reported":1774113398,"current_range_meters":3600,"station_id":"ce4bhi12rcd13ifvqfp0","pricing_plan_id":"cebpf4jnsgd1na2vs0mg"},{"bike_id":"63374dd1-bdb2-4956-a4e5-e028aa893baf","system_id":"levelo_inurba_marseille","lat":43.28455,"lon":5.38409,"is_reserved":false,"is_disabled":true,"rental_uris":{"android":"levelo://app?vid=63374dd1-bdb2-4956-a4e5-e028aa893baf","ios":"levelo://app?vid=63374dd1-bdb2-4956-a4e5-e028aa893baf"},"vehicle_type_id":"4","last_reported":1774113398,"current_range_meters":4000,"station_id":"ce4bh512rcd13ifvqe3g","pricing_plan_id":"cebpf4jnsgd1na2vs0mg"},{"bike_id":"77f8a8b1-2bdb-42b0-adbe-1a8ec0f6e7dc","system_id":"levelo_inurba_marseille","lat":43.29798,"lon":5.441,"is_reserved":false,"is_disabled":false,"rental_uris":{"android":"levelo://app?vid=77f8a8b1-2bdb-42b0-adbe-1a8ec0f6e7dc","ios":"levelo://app?vid=77f8a8b1-2bdb-42b0-adbe-1a8ec0f6e7dc"},"vehicle_type_id":"4","last_reported":1774113398,"current_range_meters":4000,"station_id":"st_d3jp68qikq2c7381ktn0","pricing_plan_id":"cebpf4jnsgd1na2vs0mg"},{"bike_id":"1a850d96-e491-454a-94c6-10cad439777e","system_id":"levelo_inurba_marseille","lat":43.32287,"lon":5.38271,"is_reserved":false,"is_disabled":false,"rental_uris":{"android":"levelo://app?vid=1a850d96-e491-454a-94c6-10cad439777e","ios":"levelo://app?vid=1a850d96-e491-454a-94c6-10cad439777e"},"vehicle_type_id":"4","last_reported":1774113398,"current_range_meters":4000,"station_id":"ce4bhr12rcd13ifvqhqg","pricing_plan_id":"cebpf4jnsgd1na2vs0mg"},{"bike_id":"0f699794-8202-4161-a052-1d39a341c5fa","system_id":"levelo_inurba_marseille","lat":43.31181,"lon":5.3872,"is_reserved":false,"is_disabled":true,"rental_uris":{"android":"levelo://app?vid=0f699794-8202-4161-a052-1d39a341c5fa","ios":"levelo://app?vid=0f699794-8202-4161-a052-1d39a341c5fa"},"vehicle_type_id":"4","last_reported":1774113398,"current_range_meters":4000,"station_id":"ce4bgv12rcd13ifvqcp0","pricing_plan_id":"cebpf4jnsgd1na2vs0mg"},{"bike_id":"25711bef-13f9-48fd-8f33-592148b8dc65","system_id":"levelo_inurba_marseille","lat":43.25339,"lon":5.42164,"is_reserved":false,"is_disabled":false,"rental_uris":{"android":"levelo://app?vid=25711bef-13f9-48fd-8f33-592148b8dc65","ios":"levelo://app?vid=25711bef-13f9-48fd-8f33-592148b8dc65"},"vehicle_type_id":"4","last_reported":1774113398,"current_range_meters":4000,"station_id":"st_d2m65c5bi1j21697t3ng","pricing_plan_id":"cebpf4jnsgd1na2vs0mg"},{"bike_id":"5ee2d6d4-0cab-4a6c-803f-cbc003d1c4c2","system_id":"levelo_inurba_marseille","lat":43.24396,"lon":5.37071,"is_reserved":false,"is_disabled":false,"rental_uris":{"android":"levelo://app?vid=5ee2d6d4-0cab-4a6c-803f-cbc003d1c4c2","ios":"levelo://app?vid=5ee2d6d4-0cab-4a6c-803f-cbc003d1c4c2"},"vehicle_type_id":"4","last_reported":1774113398,"current_range_meters":4000,"station_id":"ce4bhhh2rcd13ifvqfk0","pricing_plan_id":"cebpf4jnsgd1na2vs0mg"},{"bike_id":"b937ab80-0364-40df-9428-30aa2a2f6fe6","system_id":"levelo_inurba_marseille","lat":43.29783,"lon":5.39338,"is_reserved":false,"is_disabled":false,"rental_uris":{"android":"levelo://app?vid=b937ab80-0364-40df-9428-30aa2a2f6fe6","ios":"levelo://app?vid=b937ab80-0364-40df-9428-30aa2a2f6fe6"},"vehicle_type_id":"4","last_reported":1774113398,"current_range_meters":4000,"station_id":"chh1huq6cuj3fo74tm60","pricing_plan_id":"cebpf4jnsgd1na2vs0mg"},{"bike_id":"691349c0-5d0b-4441-80fe-f4ec78315eb7","system_id":"levelo_inurba_marseille","lat":43.28724,"lon":5.36096,"is_reserved":false,"is_disabled":false,"rental_uris":{"android":"levelo://app?vid=691349c0-5d0b-4441-80fe-f4ec78315eb7","ios":"levelo://app?vid=691349c0-5d0b-4441-80fe-f4ec78315eb7"},"vehicle_type_id":"4","last_reported":1774113398,"current_range_meters":4000,"station_id":"cki0cbj6b192h4jlfktg","pricing_plan_id":"cebpf4jnsgd1na2vs0mg"},{"bike_id":"82a85fe8-2a62-4218-9dbc-257728af1488","system_id":"levelo_inurba_marseille","lat":43.29199,"lon":5.39318,"is_reserved":false,"is_disabled":false,"rental_uris":{"android":"levelo://app?vid=82a85fe8-2a62-4218-9dbc-257728af1488","ios":"levelo://app?vid=82a85fe8-2a62-4218-9dbc-257728af1488"},"vehicle_type_id":"4","last_reported":1774113398,"current_range_meters":4000,"station_id":"ce4bh192rcd13ifvqdd0","pricing_plan_id":"cebpf4jnsgd1na2vs0mg"},{"bike_id":"f8274183-6abd-4b49-af24-29bdc25541f5","system_id":"levelo_inurba_marseille","lat":43.311159,"lon":5.388556,"is_reserved":false,"is_disabled":false,"rental_uris":{"android":"levelo://app?vid=f8274183-6abd-4b49-af24-29bdc25541f5","ios":"levelo://app?vid=f8274183-6abd-4b49-af24-29bdc25541f5"},"vehicle_type_id":"4","last_reported":1774113398,"current_range_meters":4000,"station_id":"ce4bgup2rcd13ifvqco0","pricing_plan_id":"cebpf4jnsgd1na2vs0mg"},{"bike_id":"7fa64d84-cd92-4f02-a79d-c348b129b15f","system_id":"levelo_inurba_marseille","lat":43.24173,"lon":5.36446,"is_reserved":false,"is_disabled":false,"rental_uris":{"android":"levelo://app?vid=7fa64d84-cd92-4f02-a79d-c348b129b15f","ios":"levelo://app?vid=7fa64d84-cd92-4f02-a79d-c348b129b15f"},"vehicle_type_id":"4","last_reported":1774113398,"current_range_meters":4000,"station_id":"cpo36qri1sfpv3e86is0","pricing_plan_id":"cebpf4jnsgd1na2vs0mg"},{"bike_id":"57a2828c-6077-42a8-91df-3b89bead445f","system_id":"levelo_inurba_marseille","lat":43.26032,"lon":5.37555,"is_reserved":false,"is_disabled":false,"rental_uris":{"android":"levelo://app?vid=57a2828c-6077-42a8-91df-3b89bead445f","ios":"levelo://app?vid=57a2828c-6077-42a8-91df-3b89bead445f"},"vehicle_type_id":"4","last_reported":1774113398,"current_range_meters":4000,"station_id":"ce4bhgh2rcd13ifvqfa0","pricing_plan_id":"cebpf4jnsgd1na2vs0mg"},{"bike_id":"0c90fc2b-6ce1-473d-bbf5-ba5ee52644ab","system_id":"levelo_inurba_marseille","lat":43.29252,"lon":5.40908,"is_reserved":false,"is_disabled":false,"rental_uris":{"android":"levelo://app?vid=0c90fc2b-6ce1-473d-bbf5-ba5ee52644ab","ios":"levelo://app?vid=0c90fc2b-6ce1-473d-bbf5-ba5ee52644ab"},"vehicle_type_id":"4","last_reported":1774113398,"current_range_meters":4000,"station_id":"ce4bh192rcd13ifvqdc0","pricing_plan_id":"cebpf4jnsgd1na2vs0mg"},{"bike_id":"20c7c083-2762-4e4f-900f-4a26becbe6c7","system_id":"levelo_inurba_marseille","lat":43.2903,"lon":5.38645,"is_reserved":false,"is_disabled":false,"rental_uris":{"android":"levelo://app?vid=20c7c083-2762-4e4f-900f-4a26becbe6c7","ios":"levelo://app?vid=20c7c083-2762-4e4f-900f-4a26becbe6c7"},"vehicle_type_id":"4","last_reported":1774113398,"current_range_meters":4000,"station_id":"ce4bh4p2rcd13ifvqe0g","pricing_plan_id":"cebpf4jnsgd1na2vs0mg"},{"bike_id":"d900e32d-42d1-4632-b25c-553986256e8a","system_id":"levelo_inurba_marseille","lat":43.29692,"lon":5.37297,"is_reserved":false,"is_disabled":false,"rental_uris":{"android":"levelo://app?vid=d900e32d-42d1-4632-b25c-553986256e8a","ios":"levelo://app?vid=d900e32d-42d1-4632-b25c-553986256e8a"},"vehicle_type_id":"4","last_reported":1774113398,"current_range_meters":4000,"station_id":"ce4bgk12rcd13ifvqbj0","pricing_plan_id":"cebpf4jnsgd1na2vs0mg"},{"bike_id":"7747eda5-c179-46c3-a309-0f316347ae53","system_id":"levelo_inurba_marseille","lat":43.25577,"lon":5.3824,"is_reserved":false,"is_disabled":false,"rental_uris":{"android":"levelo://app?vid=7747eda5-c179-46c3-a309-0f316347ae53","ios":"levelo://app?vid=7747eda5-c179-46c3-a309-0f316347ae53"},"vehicle_type_id":"4","last_reported":1774113398,"current_range_meters":4000,"station_id":"ce4bhih2rcd13ifvqfs0","pricing_plan_id":"cebpf4jnsgd1na2vs0mg"},{"bike_id":"76e3a855-6bf4-460f-ac74-ec562db94e69","system_id":"levelo_inurba_marseille","lat":43.30818,"lon":5.40001,"is_reserved":false,"is_disabled":false,"rental_uris":{"android":"levelo://app?vid=76e3a855-6bf4-460f-ac74-ec562db94e69","ios":"levelo://app?vid=76e3a855-6bf4-460f-ac74-ec562db94e69"},"vehicle_type_id":"4","last_reported":1774113398,"current_range_meters":4000,"station_id":"","pricing_plan_id":"cebpf4jnsgd1na2vs0mg"},{"bike_id":"308c8315-364c-47b8-a01c-691a4c9602c5","system_id":"levelo_inurba_marseille","lat":43.24393,"lon":5.37067,"is_reserved":false,"is_disabled":false,"rental_uris":{"android":"levelo://app?vid=308c8315-364c-47b8-a01c-691a4c9602c5","ios":"levelo://app?vid=308c8315-364c-47b8-a01c-691a4c9602c5"},"vehicle_type_id":"4","last_reported":1774113398,"current_range_meters":4400,"station_id":"ce4bhhh2rcd13ifvqfk0","pricing_plan_id":"cebpf4jnsgd1na2vs0mg"},{"bike_id":"8aeb1ffc-b432-4235-8304-c0a4c58e7fe3","system_id":"levelo_inurba_marseille","lat":43.29753,"lon":5.38377,"is_reserved":false,"is_disabled":false,"rental_uris":{"android":"levelo://app?vid=8aeb1ffc-b432-4235-8304-c0a4c58e7fe3","ios":"levelo://app?vid=8aeb1ffc-b432-4235-8304-c0a4c58e7fe3"},"vehicle_type_id":"4","last_reported":1774113398,"current_range_meters":4400,"station_id":"","pricing_plan_id":"cebpf4jnsgd1na2vs0mg"},{"bike_id":"bc398ecf-f942-4bfc-a54a-d88839d57af0","system_id":"levelo_inurba_marseille","lat":43.21191,"lon":5.35067,"is_reserved":false,"is_disabled":false,"rental_uris":{"android":"levelo://app?vid=bc398ecf-f942-4bfc-a54a-d88839d57af0","ios":"levelo://app?vid=bc398ecf-f942-4bfc-a54a-d88839d57af0"},"vehicle_type_id":"4","last_reported":1774113398,"current_range_meters":4400,"station_id":"st_cvj6sg6p6f1abm77japg","pricing_plan_id":"cebpf4jnsgd1na2vs0mg"},{"bike_id":"21dd4a56-6728-4f1a-b964-cafc960d1abf","system_id":"levelo_inurba_marseille","lat":43.2953,"lon":5.38543,"is_reserved":false,"is_disabled":false,"rental_uris":{"android":"levelo://app?vid=21dd4a56-6728-4f1a-b964-cafc960d1abf","ios":"levelo://app?vid=21dd4a56-6728-4f1a-b964-cafc960d1abf"},"vehicle_type_id":"4","last_reported":1774113398,"current_range_meters":4400,"station_id":"ce4bgih2rcd13ifvqba0","pricing_plan_id":"cebpf4jnsgd1na2vs0mg"},{"bike_id":"dcb7fa85-9576-461b-9db4-bfb93259aa75","system_id":"levelo_inurba_marseille","lat":43.25505,"lon":5.37666,"is_reserved":false,"is_disabled":true,"rental_uris":{"android":"levelo://app?vid=dcb7fa85-9576-461b-9db4-bfb93259aa75","ios":"levelo://app?vid=dcb7fa85-9576-461b-9db4-bfb93259aa75"},"vehicle_type_id":"4","last_reported":1774113398,"current_range_meters":4400,"station_id":"ce4bhh12rcd13ifvqff0","pricing_plan_id":"cebpf4jnsgd1na2vs0mg"},{"bike_id":"31528981-1955-41e1-a2f1-fe23362a8aaa","system_id":"levelo_inurba_marseille","lat":43.29631,"lon":5.40613,"is_reserved":false,"is_disabled":false,"rental_uris":{"android":"levelo://app?vid=31528981-1955-41e1-a2f1-fe23362a8aaa","ios":"levelo://app?vid=31528981-1955-41e1-a2f1-fe23362a8aaa"},"vehicle_type_id":"4","last_reported":1774113398,"current_range_meters":4400,"station_id":"ce4bh0h2rcd13ifvqd60","pricing_plan_id":"cebpf4jnsgd1na2vs0mg"},{"bike_id":"7ba80008-60b8-4bf7-9180-542631266876","system_id":"levelo_inurba_marseille","lat":43.33518,"lon":5.37462,"is_reserved":false,"is_disabled":false,"rental_uris":{"android":"levelo://app?vid=7ba80008-60b8-4bf7-9180-542631266876","ios":"levelo://app?vid=7ba80008-60b8-4bf7-9180-542631266876"},"vehicle_type_id":"4","last_reported":1774113398,"current_range_meters":4400,"station_id":"st_d46tts09ee8s73dlu43g","pricing_plan_id":"cebpf4jnsgd1na2vs0mg"},{"bike_id":"9bedb971-6887-4d43-88c8-1762430f453d","system_id":"levelo_inurba_marseille","lat":43.24678,"lon":5.38174,"is_reserved":false,"is_disabled":true,"rental_uris":{"android":"levelo://app?vid=9bedb971-6887-4d43-88c8-1762430f453d","ios":"levelo://app?vid=9bedb971-6887-4d43-88c8-1762430f453d"},"vehicle_type_id":"4","last_reported":1774113398,"current_range_meters":4400,"station_id":"ce4bhih2rcd13ifvqfr0","pricing_plan_id":"cebpf4jnsgd1na2vs0mg"},{"bike_id":"d9931b98-5904-418b-b01c-294ac62e583a","system_id":"levelo_inurba_marseille","lat":43.28404,"lon":5.37513,"is_reserved":false,"is_disabled":false,"rental_uris":{"android":"levelo://app?vid=d9931b98-5904-418b-b01c-294ac62e583a","ios":"levelo://app?vid=d9931b98-5904-418b-b01c-294ac62e583a"},"vehicle_type_id":"4","last_reported":1774113398,"current_range_meters":4400,"station_id":"ce4bh412rcd13ifvqds0","pricing_plan_id":"cebpf4jnsgd1na2vs0mg"},{"bike_id":"da458ac0-b330-4433-9abb-7a3dd2ec3f34","system_id":"levelo_inurba_marseille","lat":43.29853,"lon":5.36279,"is_reserved":false,"is_disabled":false,"rental_uris":{"android":"levelo://app?vid=da458ac0-b330-4433-9abb-7a3dd2ec3f34","ios":"levelo://app?vid=da458ac0-b330-4433-9abb-7a3dd2ec3f34"},"vehicle_type_id":"4","last_reported":1774113398,"current_range_meters":4400,"station_id":"ce4bgpp2rcd13ifvqc3g","pricing_plan_id":"cebpf4jnsgd1na2vs0mg"},{"bike_id":"9ae4e98e-6d45-456e-a68a-69cf2ca20aa5","system_id":"levelo_inurba_marseille","lat":43.29299,"lon":5.37462,"is_reserved":false,"is_disabled":false,"rental_uris":{"android":"levelo://app?vid=9ae4e98e-6d45-456e-a68a-69cf2ca20aa5","ios":"levelo://app?vid=9ae4e98e-6d45-456e-a68a-69cf2ca20aa5"},"vehicle_type_id":"4","last_reported":1774113398,"current_range_meters":4400,"station_id":"ce4bgi12rcd13ifvqb70","pricing_plan_id":"cebpf4jnsgd1na2vs0mg"},{"bike_id":"fdc655d4-8c99-4d97-9c1e-46ec98ef8979","system_id":"levelo_inurba_marseille","lat":43.28609,"lon":5.35111,"is_reserved":false,"is_disabled":true,"rental_uris":{"android":"levelo://app?vid=fdc655d4-8c99-4d97-9c1e-46ec98ef8979","ios":"levelo://app?vid=fdc655d4-8c99-4d97-9c1e-46ec98ef8979"},"vehicle_type_id":"4","last_reported":1774113398,"current_range_meters":4800,"station_id":"","pricing_plan_id":"cebpf4jnsgd1na2vs0mg"},{"bike_id":"d7d8a07f-1cbd-4753-babc-73a2147a2802","system_id":"levelo_inurba_marseille","lat":43.29802,"lon":5.38089,"is_reserved":false,"is_disabled":false,"rental_uris":{"android":"levelo://app?vid=d7d8a07f-1cbd-4753-babc-73a2147a2802","ios":"levelo://app?vid=d7d8a07f-1cbd-4753-babc-73a2147a2802"},"vehicle_type_id":"4","last_reported":1774113398,"current_range_meters":4800,"station_id":"ce4bgip2rcd13ifvqbb0","pricing_plan_id":"cebpf4jnsgd1na2vs0mg"},{"bike_id":"c8f87935-b49c-40c3-8044-9e63b43c39f5","system_id":"levelo_inurba_marseille","lat":43.28629,"lon":5.3513,"is_reserved":false,"is_disabled":false,"rental_uris":{"android":"levelo://app?vid=c8f87935-b49c-40c3-8044-9e63b43c39f5","ios":"levelo://app?vid=c8f87935-b49c-40c3-8044-9e63b43c39f5"},"vehicle_type_id":"4","last_reported":1774113398,"current_range_meters":4800,"station_id":"ce4bhch2rcd13ifvqeug","pricing_plan_id":"cebpf4jnsgd1na2vs0mg"},{"bike_id":"e2420c11-4646-4145-aa2e-baedb91a43dc","system_id":"levelo_inurba_marseille","lat":43.32365,"lon":5.36769,"is_reserved":false,"is_disabled":false,"rental_uris":{"android":"levelo://app?vid=e2420c11-4646-4145-aa2e-baedb91a43dc","ios":"levelo://app?vid=e2420c11-4646-4145-aa2e-baedb91a43dc"},"vehicle_type_id":"4","last_reported":1774113398,"current_range_meters":4800,"station_id":"ce4bhsh2rcd13ifvqi2g","pricing_plan_id":"cebpf4jnsgd1na2vs0mg"},{"bike_id":"286fba00-1c70-49c5-9491-0b3044de24cb","system_id":"levelo_inurba_marseille","lat":43.2622,"lon":5.40451,"is_reserved":false,"is_disabled":true,"rental_uris":{"android":"levelo://app?vid=286fba00-1c70-49c5-9491-0b3044de24cb","ios":"levelo://app?vid=286fba00-1c70-49c5-9491-0b3044de24cb"},"vehicle_type_id":"4","last_reported":1774113398,"current_range_meters":4800,"station_id":"ce4bhmh2rcd13ifvqgmg","pricing_plan_id":"cebpf4jnsgd1na2vs0mg"},{"bike_id":"f3414e99-2d7c-4b03-96db-df8c1c6d3f2b","system_id":"levelo_inurba_marseille","lat":43.28495,"lon":5.48392,"is_reserved":false,"is_disabled":false,"rental_uris":{"android":"levelo://app?vid=f3414e99-2d7c-4b03-96db-df8c1c6d3f2b","ios":"levelo://app?vid=f3414e99-2d7c-4b03-96db-df8c1c6d3f2b"},"vehicle_type_id":"4","last_reported":1774113398,"current_range_meters":4800,"station_id":"","pricing_plan_id":"cebpf4jnsgd1na2vs0mg"},{"bike_id":"b2d6b40c-7678-4ba0-8bf4-4e8e6ccf14f1","system_id":"levelo_inurba_marseille","lat":43.28619,"lon":5.35107,"is_reserved":false,"is_disabled":false,"rental_uris":{"android":"levelo://app?vid=b2d6b40c-7678-4ba0-8bf4-4e8e6ccf14f1","ios":"levelo://app?vid=b2d6b40c-7678-4ba0-8bf4-4e8e6ccf14f1"},"vehicle_type_id":"4","last_reported":1774113398,"current_range_meters":4800,"station_id":"ce4bhch2rcd13ifvqeug","pricing_plan_id":"cebpf4jnsgd1na2vs0mg"},{"bike_id":"a8c8307b-e1e9-4950-a785-578e1a82f805","system_id":"levelo_inurba_marseille","lat":43.31264,"lon":5.37842,"is_reserved":false,"is_disabled":false,"rental_uris":{"android":"levelo://app?vid=a8c8307b-e1e9-4950-a785-578e1a82f805","ios":"levelo://app?vid=a8c8307b-e1e9-4950-a785-578e1a82f805"},"vehicle_type_id":"4","last_reported":1774113398,"current_range_meters":4800,"station_id":"","pricing_plan_id":"cebpf4jnsgd1na2vs0mg"},{"bike_id":"962e3e51-db50-4f61-a079-9b1c6a103eb5","system_id":"levelo_inurba_marseille","lat":43.30963,"lon":5.36814,"is_reserved":false,"is_disabled":false,"rental_uris":{"android":"levelo://app?vid=962e3e51-db50-4f61-a079-9b1c6a103eb5","ios":"levelo://app?vid=962e3e51-db50-4f61-a079-9b1c6a103eb5"},"vehicle_type_id":"4","last_reported":1774113398,"current_range_meters":4800,"station_id":"","pricing_plan_id":"cebpf4jnsgd1na2vs0mg"},{"bike_id":"2cea9d46-c32a-4a24-9abe-5dc099975957","system_id":"levelo_inurba_marseille","lat":43.28496,"lon":5.48403,"is_reserved":false,"is_disabled":false,"rental_uris":{"android":"levelo://app?vid=2cea9d46-c32a-4a24-9abe-5dc099975957","ios":"levelo://app?vid=2cea9d46-c32a-4a24-9abe-5dc099975957"},"vehicle_type_id":"4","last_reported":1774113398,"current_range_meters":4800,"station_id":"","pricing_plan_id":"cebpf4jnsgd1na2vs0mg"},{"bike_id":"2d9e4754-9b17-40b5-bbeb-5b1c9c5bbe64","system_id":"levelo_inurba_marseille","lat":43.30133,"lon":5.38772,"is_reserved":false,"is_disabled":true,"rental_uris":{"android":"levelo://app?vid=2d9e4754-9b17-40b5-bbeb-5b1c9c5bbe64","ios":"levelo://app?vid=2d9e4754-9b17-40b5-bbeb-5b1c9c5bbe64"},"vehicle_type_id":"4","last_reported":1774113398,"current_range_meters":4800,"station_id":"ce4bghh2rcd13ifvqb60","pricing_plan_id":"cebpf4jnsgd1na2vs0mg"},{"bike_id":"4e06c9ee-42ed-46bb-bf9a-40f829ac2460","system_id":"levelo_inurba_marseille","lat":43.22937,"lon":5.35378,"is_reserved":false,"is_disabled":false,"rental_uris":{"android":"levelo://app?vid=4e06c9ee-42ed-46bb-bf9a-40f829ac2460","ios":"levelo://app?vid=4e06c9ee-42ed-46bb-bf9a-40f829ac2460"},"vehicle_type_id":"4","last_reported":1774113398,"current_range_meters":4800,"station_id":"cpo3532slgdg3j2ikp40","pricing_plan_id":"cebpf4jnsgd1na2vs0mg"},{"bike_id":"7a854ad6-b634-49c3-962d-0e7321137d7c","system_id":"levelo_inurba_marseille","lat":43.29206,"lon":5.358,"is_reserved":false,"is_disabled":false,"rental_uris":{"android":"levelo://app?vid=7a854ad6-b634-49c3-962d-0e7321137d7c","ios":"levelo://app?vid=7a854ad6-b634-49c3-962d-0e7321137d7c"},"vehicle_type_id":"4","last_reported":1774113398,"current_range_meters":4800,"station_id":"ce4bhb12rcd13ifvqel0","pricing_plan_id":"cebpf4jnsgd1na2vs0mg"},{"bike_id":"80670c9f-1c55-4452-b088-0eea2a4f4d7f","system_id":"levelo_inurba_marseille","lat":43.29265,"lon":5.40899,"is_reserved":false,"is_disabled":false,"rental_uris":{"android":"levelo://app?vid=80670c9f-1c55-4452-b088-0eea2a4f4d7f","ios":"levelo://app?vid=80670c9f-1c55-4452-b088-0eea2a4f4d7f"},"vehicle_type_id":"4","last_reported":1774113398,"current_range_meters":4800,"station_id":"ce4bh192rcd13ifvqdc0","pricing_plan_id":"cebpf4jnsgd1na2vs0mg"},{"bike_id":"adc5ac07-5147-43c6-b3e9-46b364b058d3","system_id":"levelo_inurba_marseille","lat":43.21747,"lon":5.34605,"is_reserved":false,"is_disabled":true,"rental_uris":{"android":"levelo://app?vid=adc5ac07-5147-43c6-b3e9-46b364b058d3","ios":"levelo://app?vid=adc5ac07-5147-43c6-b3e9-46b364b058d3"},"vehicle_type_id":"4","last_reported":1774113398,"current_range_meters":4800,"station_id":"st_cvj6r9ubvosntc0bgbag","pricing_plan_id":"cebpf4jnsgd1na2vs0mg"},{"bike_id":"6900b554-4543-44f4-9a0e-250c30d5b73d","system_id":"levelo_inurba_marseille","lat":43.29908,"lon":5.38143,"is_reserved":false,"is_disabled":false,"rental_uris":{"android":"levelo://app?vid=6900b554-4543-44f4-9a0e-250c30d5b73d","ios":"levelo://app?vid=6900b554-4543-44f4-9a0e-250c30d5b73d"},"vehicle_type_id":"4","last_reported":1774113398,"current_range_meters":4800,"station_id":"ce4bgj12rcd13ifvqbc0","pricing_plan_id":"cebpf4jnsgd1na2vs0mg"},{"bike_id":"0dde093d-d975-459b-8a10-09ffef897b2f","system_id":"levelo_inurba_marseille","lat":43.2844,"lon":5.39207,"is_reserved":false,"is_disabled":false,"rental_uris":{"android":"levelo://app?vid=0dde093d-d975-459b-8a10-09ffef897b2f","ios":"levelo://app?vid=0dde093d-d975-459b-8a10-09ffef897b2f"},"vehicle_type_id":"4","last_reported":1774113398,"current_range_meters":4800,"station_id":"ce4bhoh2rcd13ifvqh5g","pricing_plan_id":"cebpf4jnsgd1na2vs0mg"},{"bike_id":"cc068a75-5b70-4660-8d8d-3a2a461ea05b","system_id":"levelo_inurba_marseille","lat":43.27384,"lon":5.36303,"is_reserved":false,"is_disabled":false,"rental_uris":{"android":"levelo://app?vid=cc068a75-5b70-4660-8d8d-3a2a461ea05b","ios":"levelo://app?vid=cc068a75-5b70-4660-8d8d-3a2a461ea05b"},"vehicle_type_id":"4","last_reported":1774113398,"current_range_meters":4800,"station_id":"ce4bhbh2rcd13ifvqeo0","pricing_plan_id":"cebpf4jnsgd1na2vs0mg"},{"bike_id":"1fb79137-86ac-4b4c-9eee-9f39cc4506ac","system_id":"levelo_inurba_marseille","lat":43.27619,"lon":5.3611,"is_reserved":false,"is_disabled":false,"rental_uris":{"android":"levelo://app?vid=1fb79137-86ac-4b4c-9eee-9f39cc4506ac","ios":"levelo://app?vid=1fb79137-86ac-4b4c-9eee-9f39cc4506ac"},"vehicle_type_id":"4","last_reported":1774113398,"current_range_meters":4800,"station_id":"ce4bgj92rcd13ifvqbe0","pricing_plan_id":"cebpf4jnsgd1na2vs0mg"},{"bike_id":"95eb3b06-b795-496b-bd52-db750e698058","system_id":"levelo_inurba_marseille","lat":43.28399,"lon":5.37505,"is_reserved":false,"is_disabled":false,"rental_uris":{"android":"levelo://app?vid=95eb3b06-b795-496b-bd52-db750e698058","ios":"levelo://app?vid=95eb3b06-b795-496b-bd52-db750e698058"},"vehicle_type_id":"4","last_reported":1774113398,"current_range_meters":5600,"station_id":"ce4bh412rcd13ifvqds0","pricing_plan_id":"cebpf4jnsgd1na2vs0mg"},{"bike_id":"53663f10-c972-4dad-83a0-96ec19d2a37e","system_id":"levelo_inurba_marseille","lat":43.2501,"lon":5.38907,"is_reserved":false,"is_disabled":true,"rental_uris":{"android":"levelo://app?vid=53663f10-c972-4dad-83a0-96ec19d2a37e","ios":"levelo://app?vid=53663f10-c972-4dad-83a0-96ec19d2a37e"},"vehicle_type_id":"4","last_reported":1774113398,"current_range_meters":5600,"station_id":"ce4bhgp2rcd13ifvqfd0","pricing_plan_id":"cebpf4jnsgd1na2vs0mg"},{"bike_id":"bf3ae4da-9c43-4e9f-a622-9a939f9c78a6","system_id":"levelo_inurba_marseille","lat":43.28466,"lon":5.35884,"is_reserved":false,"is_disabled":false,"rental_uris":{"android":"levelo://app?vid=bf3ae4da-9c43-4e9f-a622-9a939f9c78a6","ios":"levelo://app?vid=bf3ae4da-9c43-4e9f-a622-9a939f9c78a6"},"vehicle_type_id":"4","last_reported":1774113398,"current_range_meters":5600,"station_id":"ce4bhah2rcd13ifvqei0","pricing_plan_id":"cebpf4jnsgd1na2vs0mg"},{"bike_id":"8648ff3d-a49d-4491-be6c-bab3f9812603","system_id":"levelo_inurba_marseille","lat":43.28276,"lon":5.43845,"is_reserved":false,"is_disabled":false,"rental_uris":{"android":"levelo://app?vid=8648ff3d-a49d-4491-be6c-bab3f9812603","ios":"levelo://app?vid=8648ff3d-a49d-4491-be6c-bab3f9812603"},"vehicle_type_id":"4","last_reported":1774113398,"current_range_meters":5600,"station_id":"","pricing_plan_id":"cebpf4jnsgd1na2vs0mg"},{"bike_id":"aa1c74ba-e540-45ce-8e97-4868fa0e5a19","system_id":"levelo_inurba_marseille","lat":43.25382,"lon":5.41724,"is_reserved":false,"is_disabled":false,"rental_uris":{"android":"levelo://app?vid=aa1c74ba-e540-45ce-8e97-4868fa0e5a19","ios":"levelo://app?vid=aa1c74ba-e540-45ce-8e97-4868fa0e5a19"},"vehicle_type_id":"4","last_reported":1774113398,"current_range_meters":5600,"station_id":"","pricing_plan_id":"cebpf4jnsgd1na2vs0mg"},{"bike_id":"16fe25c4-6472-47d6-882b-5ff94101fa7d","system_id":"levelo_inurba_marseille","lat":43.21202,"lon":5.35092,"is_reserved":false,"is_disabled":false,"rental_uris":{"android":"levelo://app?vid=16fe25c4-6472-47d6-882b-5ff94101fa7d","ios":"levelo://app?vid=16fe25c4-6472-47d6-882b-5ff94101fa7d"},"vehicle_type_id":"4","last_reported":1774113398,"current_range_meters":5600,"station_id":"st_cvj6sg6p6f1abm77japg","pricing_plan_id":"cebpf4jnsgd1na2vs0mg"},{"bike_id":"9cb4ba0c-6005-4617-890e-c7f8d468355b","system_id":"levelo_inurba_marseille","lat":43.29367,"lon":5.37841,"is_reserved":false,"is_disabled":false,"rental_uris":{"android":"levelo://app?vid=9cb4ba0c-6005-4617-890e-c7f8d468355b","ios":"levelo://app?vid=9cb4ba0c-6005-4617-890e-c7f8d468355b"},"vehicle_type_id":"4","last_reported":1774113398,"current_range_meters":5600,"station_id":"ce4bgjh2rcd13ifvqbf0","pricing_plan_id":"cebpf4jnsgd1na2vs0mg"},{"bike_id":"619542b5-4098-4e0f-ad37-0cc7eecc4a2a","system_id":"levelo_inurba_marseille","lat":43.28668,"lon":5.36354,"is_reserved":false,"is_disabled":false,"rental_uris":{"android":"levelo://app?vid=619542b5-4098-4e0f-ad37-0cc7eecc4a2a","ios":"levelo://app?vid=619542b5-4098-4e0f-ad37-0cc7eecc4a2a"},"vehicle_type_id":"4","last_reported":1774113398,"current_range_meters":5600,"station_id":"ce4bhah2rcd13ifvqej0","pricing_plan_id":"cebpf4jnsgd1na2vs0mg"},{"bike_id":"a9dcfaf5-a311-487d-b172-10ec11a169d1","system_id":"levelo_inurba_marseille","lat":43.28612,"lon":5.35111,"is_reserved":false,"is_disabled":false,"rental_uris":{"android":"levelo://app?vid=a9dcfaf5-a311-487d-b172-10ec11a169d1","ios":"levelo://app?vid=a9dcfaf5-a311-487d-b172-10ec11a169d1"},"vehicle_type_id":"4","last_reported":1774113398,"current_range_meters":5600,"station_id":"ce4bhch2rcd13ifvqeug","pricing_plan_id":"cebpf4jnsgd1na2vs0mg"},{"bike_id":"a0208c94-6799-4aad-bc79-438bb36129bb","system_id":"levelo_inurba_marseille","lat":43.26057,"lon":5.39404,"is_reserved":false,"is_disabled":false,"rental_uris":{"android":"levelo://app?vid=a0208c94-6799-4aad-bc79-438bb36129bb","ios":"levelo://app?vid=a0208c94-6799-4aad-bc79-438bb36129bb"},"vehicle_type_id":"4","last_reported":1774113398,"current_range_meters":5600,"station_id":"ce4bhh92rcd13ifvqfj0","pricing_plan_id":"cebpf4jnsgd1na2vs0mg"},{"bike_id":"c89cc4bd-021d-4c23-88be-730110017500","system_id":"levelo_inurba_marseille","lat":43.27343,"lon":5.3622,"is_reserved":false,"is_disabled":true,"rental_uris":{"android":"levelo://app?vid=c89cc4bd-021d-4c23-88be-730110017500","ios":"levelo://app?vid=c89cc4bd-021d-4c23-88be-730110017500"},"vehicle_type_id":"4","last_reported":1774113398,"current_range_meters":6000,"station_id":"ce4bhbh2rcd13ifvqeo0","pricing_plan_id":"cebpf4jnsgd1na2vs0mg"},{"bike_id":"5672f140-f178-4766-bb60-5301b26a0e4e","system_id":"levelo_inurba_marseille","lat":43.28491,"lon":5.48378,"is_reserved":false,"is_disabled":false,"rental_uris":{"android":"levelo://app?vid=5672f140-f178-4766-bb60-5301b26a0e4e","ios":"levelo://app?vid=5672f140-f178-4766-bb60-5301b26a0e4e"},"vehicle_type_id":"4","last_reported":1774113398,"current_range_meters":6000,"station_id":"","pricing_plan_id":"cebpf4jnsgd1na2vs0mg"},{"bike_id":"561d39a9-9ee7-4de0-89fa-fa311359c492","system_id":"levelo_inurba_marseille","lat":43.23964,"lon":5.36633,"is_reserved":false,"is_disabled":false,"rental_uris":{"android":"levelo://app?vid=561d39a9-9ee7-4de0-89fa-fa311359c492","ios":"levelo://app?vid=561d39a9-9ee7-4de0-89fa-fa311359c492"},"vehicle_type_id":"4","last_reported":1774113398,"current_range_meters":6000,"station_id":"ce4bhi12rcd13ifvqfp0","pricing_plan_id":"cebpf4jnsgd1na2vs0mg"},{"bike_id":"72e035d0-dcc2-4dcf-8660-2e348be6861e","system_id":"levelo_inurba_marseille","lat":43.31482,"lon":5.45385,"is_reserved":false,"is_disabled":false,"rental_uris":{"android":"levelo://app?vid=72e035d0-dcc2-4dcf-8660-2e348be6861e","ios":"levelo://app?vid=72e035d0-dcc2-4dcf-8660-2e348be6861e"},"vehicle_type_id":"4","last_reported":1774113398,"current_range_meters":6000,"station_id":"","pricing_plan_id":"cebpf4jnsgd1na2vs0mg"},{"bike_id":"92f32112-8a58-4a2d-8380-c50aa46da344","system_id":"levelo_inurba_marseille","lat":43.2402,"lon":5.36373,"is_reserved":false,"is_disabled":false,"rental_uris":{"android":"levelo://app?vid=92f32112-8a58-4a2d-8380-c50aa46da344","ios":"levelo://app?vid=92f32112-8a58-4a2d-8380-c50aa46da344"},"vehicle_type_id":"4","last_reported":1774113398,"current_range_meters":6000,"station_id":"","pricing_plan_id":"cebpf4jnsgd1na2vs0mg"},{"bike_id":"51b084de-7dd2-4d0b-915e-9cfcb1d7b0cf","system_id":"levelo_inurba_marseille","lat":43.30947,"lon":5.39047,"is_reserved":false,"is_disabled":false,"rental_uris":{"android":"levelo://app?vid=51b084de-7dd2-4d0b-915e-9cfcb1d7b0cf","ios":"levelo://app?vid=51b084de-7dd2-4d0b-915e-9cfcb1d7b0cf"},"vehicle_type_id":"4","last_reported":1774113398,"current_range_meters":6000,"station_id":"ce4bgup2rcd13ifvqco0","pricing_plan_id":"cebpf4jnsgd1na2vs0mg"},{"bike_id":"cd201a44-3e99-4e03-8911-c2d256a52603","system_id":"levelo_inurba_marseille","lat":43.29847,"lon":5.36276,"is_reserved":false,"is_disabled":false,"rental_uris":{"android":"levelo://app?vid=cd201a44-3e99-4e03-8911-c2d256a52603","ios":"levelo://app?vid=cd201a44-3e99-4e03-8911-c2d256a52603"},"vehicle_type_id":"4","last_reported":1774113398,"current_range_meters":6000,"station_id":"ce4bgpp2rcd13ifvqc3g","pricing_plan_id":"cebpf4jnsgd1na2vs0mg"},{"bike_id":"a52ba6dc-1b15-4a85-8d00-b41ad0623a75","system_id":"levelo_inurba_marseille","lat":43.32363,"lon":5.36734,"is_reserved":false,"is_disabled":false,"rental_uris":{"android":"levelo://app?vid=a52ba6dc-1b15-4a85-8d00-b41ad0623a75","ios":"levelo://app?vid=a52ba6dc-1b15-4a85-8d00-b41ad0623a75"},"vehicle_type_id":"4","last_reported":1774113398,"current_range_meters":6000,"station_id":"ce4bhsh2rcd13ifvqi2g","pricing_plan_id":"cebpf4jnsgd1na2vs0mg"},{"bike_id":"939aec66-9e59-423d-a5ec-1f080684b112","system_id":"levelo_inurba_marseille","lat":43.26205,"lon":5.37925,"is_reserved":false,"is_disabled":false,"rental_uris":{"android":"levelo://app?vid=939aec66-9e59-423d-a5ec-1f080684b112","ios":"levelo://app?vid=939aec66-9e59-423d-a5ec-1f080684b112"},"vehicle_type_id":"4","last_reported":1774113398,"current_range_meters":6000,"station_id":"ce4bhjp2rcd13ifvqg90","pricing_plan_id":"cebpf4jnsgd1na2vs0mg"},{"bike_id":"eac935a8-eae3-459e-b334-83be2c4599e0","system_id":"levelo_inurba_marseille","lat":43.29792,"lon":5.37069,"is_reserved":false,"is_disabled":false,"rental_uris":{"android":"levelo://app?vid=eac935a8-eae3-459e-b334-83be2c4599e0","ios":"levelo://app?vid=eac935a8-eae3-459e-b334-83be2c4599e0"},"vehicle_type_id":"4","last_reported":1774113398,"current_range_meters":6000,"station_id":"ce4bgop2rcd13ifvqc1g","pricing_plan_id":"cebpf4jnsgd1na2vs0mg"},{"bike_id":"bd282f82-bbe7-4324-88cc-4ae7b6e96f43","system_id":"levelo_inurba_marseille","lat":43.30301,"lon":5.36907,"is_reserved":false,"is_disabled":false,"rental_uris":{"android":"levelo://app?vid=bd282f82-bbe7-4324-88cc-4ae7b6e96f43","ios":"levelo://app?vid=bd282f82-bbe7-4324-88cc-4ae7b6e96f43"},"vehicle_type_id":"4","last_reported":1774113398,"current_range_meters":6000,"station_id":"ce4bgqh2rcd13ifvqc5g","pricing_plan_id":"cebpf4jnsgd1na2vs0mg"},{"bike_id":"a48f6e87-1cf8-42e4-b7c6-304c645e2a94","system_id":"levelo_inurba_marseille","lat":43.297836,"lon":5.371022,"is_reserved":false,"is_disabled":false,"rental_uris":{"android":"levelo://app?vid=a48f6e87-1cf8-42e4-b7c6-304c645e2a94","ios":"levelo://app?vid=a48f6e87-1cf8-42e4-b7c6-304c645e2a94"},"vehicle_type_id":"4","last_reported":1774113398,"current_range_meters":6000,"station_id":"ce4bgop2rcd13ifvqc1g","pricing_plan_id":"cebpf4jnsgd1na2vs0mg"},{"bike_id":"708be56f-151e-496d-9076-542d9bcf6793","system_id":"levelo_inurba_marseille","lat":43.26223,"lon":5.40459,"is_reserved":false,"is_disabled":false,"rental_uris":{"android":"levelo://app?vid=708be56f-151e-496d-9076-542d9bcf6793","ios":"levelo://app?vid=708be56f-151e-496d-9076-542d9bcf6793"},"vehicle_type_id":"4","last_reported":1774113398,"current_range_meters":6000,"station_id":"ce4bhmh2rcd13ifvqgmg","pricing_plan_id":"cebpf4jnsgd1na2vs0mg"},{"bike_id":"ec531884-8bfa-420b-bd77-1512f322e6f0","system_id":"levelo_inurba_marseille","lat":43.29896,"lon":5.43671,"is_reserved":false,"is_disabled":false,"rental_uris":{"android":"levelo://app?vid=ec531884-8bfa-420b-bd77-1512f322e6f0","ios":"levelo://app?vid=ec531884-8bfa-420b-bd77-1512f322e6f0"},"vehicle_type_id":"4","last_reported":1774113398,"current_range_meters":6000,"station_id":"ce4bhpp2rcd13ifvqhfg","pricing_plan_id":"cebpf4jnsgd1na2vs0mg"},{"bike_id":"21dcff95-3114-402a-9713-10e340a8f8dd","system_id":"levelo_inurba_marseille","lat":43.29293,"lon":5.37158,"is_reserved":false,"is_disabled":false,"rental_uris":{"android":"levelo://app?vid=21dcff95-3114-402a-9713-10e340a8f8dd","ios":"levelo://app?vid=21dcff95-3114-402a-9713-10e340a8f8dd"},"vehicle_type_id":"4","last_reported":1774113398,"current_range_meters":6000,"station_id":"ce4bgh92rcd13ifvqb40","pricing_plan_id":"cebpf4jnsgd1na2vs0mg"},{"bike_id":"2b95ab51-b7a8-4c64-878d-7a39f8d5d9a1","system_id":"levelo_inurba_marseille","lat":43.30913,"lon":5.36847,"is_reserved":false,"is_disabled":false,"rental_uris":{"android":"levelo://app?vid=2b95ab51-b7a8-4c64-878d-7a39f8d5d9a1","ios":"levelo://app?vid=2b95ab51-b7a8-4c64-878d-7a39f8d5d9a1"},"vehicle_type_id":"4","last_reported":1774113398,"current_range_meters":6000,"station_id":"ce4bgn92rcd13ifvqbvg","pricing_plan_id":"cebpf4jnsgd1na2vs0mg"},{"bike_id":"b3bd9be4-f52d-434e-b9c8-28fda2c335df","system_id":"levelo_inurba_marseille","lat":43.30958,"lon":5.39044,"is_reserved":false,"is_disabled":false,"rental_uris":{"android":"levelo://app?vid=b3bd9be4-f52d-434e-b9c8-28fda2c335df","ios":"levelo://app?vid=b3bd9be4-f52d-434e-b9c8-28fda2c335df"},"vehicle_type_id":"4","last_reported":1774113398,"current_range_meters":6400,"station_id":"ce4bgup2rcd13ifvqco0","pricing_plan_id":"cebpf4jnsgd1na2vs0mg"},{"bike_id":"34afc9b4-5db6-4e8d-be8e-dc47f26831fb","system_id":"levelo_inurba_marseille","lat":43.23079,"lon":5.35475,"is_reserved":false,"is_disabled":false,"rental_uris":{"android":"levelo://app?vid=34afc9b4-5db6-4e8d-be8e-dc47f26831fb","ios":"levelo://app?vid=34afc9b4-5db6-4e8d-be8e-dc47f26831fb"},"vehicle_type_id":"4","last_reported":1774113398,"current_range_meters":6400,"station_id":"cpo3342slgdg3j2ifvpg","pricing_plan_id":"cebpf4jnsgd1na2vs0mg"},{"bike_id":"4d913bd6-b5bd-4d2c-9d0a-5b0233f96a75","system_id":"levelo_inurba_marseille","lat":43.23963,"lon":5.36645,"is_reserved":false,"is_disabled":false,"rental_uris":{"android":"levelo://app?vid=4d913bd6-b5bd-4d2c-9d0a-5b0233f96a75","ios":"levelo://app?vid=4d913bd6-b5bd-4d2c-9d0a-5b0233f96a75"},"vehicle_type_id":"4","last_reported":1774113398,"current_range_meters":6400,"station_id":"ce4bhi12rcd13ifvqfp0","pricing_plan_id":"cebpf4jnsgd1na2vs0mg"},{"bike_id":"bfa999de-7a32-454a-b31e-f99ace51a3fc","system_id":"levelo_inurba_marseille","lat":43.28475,"lon":5.48415,"is_reserved":false,"is_disabled":false,"rental_uris":{"android":"levelo://app?vid=bfa999de-7a32-454a-b31e-f99ace51a3fc","ios":"levelo://app?vid=bfa999de-7a32-454a-b31e-f99ace51a3fc"},"vehicle_type_id":"4","last_reported":1774113398,"current_range_meters":6400,"station_id":"","pricing_plan_id":"cebpf4jnsgd1na2vs0mg"},{"bike_id":"aca02e18-5940-4457-bade-a83a3729d2e4","system_id":"levelo_inurba_marseille","lat":43.29499,"lon":5.43307,"is_reserved":false,"is_disabled":false,"rental_uris":{"android":"levelo://app?vid=aca02e18-5940-4457-bade-a83a3729d2e4","ios":"levelo://app?vid=aca02e18-5940-4457-bade-a83a3729d2e4"},"vehicle_type_id":"4","last_reported":1774113398,"current_range_meters":6400,"station_id":"st_d3j5ugp08ojc73fj9d10","pricing_plan_id":"cebpf4jnsgd1na2vs0mg"},{"bike_id":"a068e9de-cdeb-4936-8a9b-bd068dca309c","system_id":"levelo_inurba_marseille","lat":43.23904,"lon":5.37498,"is_reserved":false,"is_disabled":false,"rental_uris":{"android":"levelo://app?vid=a068e9de-cdeb-4936-8a9b-bd068dca309c","ios":"levelo://app?vid=a068e9de-cdeb-4936-8a9b-bd068dca309c"},"vehicle_type_id":"4","last_reported":1774113398,"current_range_meters":6400,"station_id":"st_d6sm7csbq4hs73f8fpjg","pricing_plan_id":"cebpf4jnsgd1na2vs0mg"},{"bike_id":"36868064-7bb8-454e-a9ed-4b0cd1429545","system_id":"levelo_inurba_marseille","lat":43.28922,"lon":5.3841,"is_reserved":false,"is_disabled":false,"rental_uris":{"android":"levelo://app?vid=36868064-7bb8-454e-a9ed-4b0cd1429545","ios":"levelo://app?vid=36868064-7bb8-454e-a9ed-4b0cd1429545"},"vehicle_type_id":"4","last_reported":1774113398,"current_range_meters":6400,"station_id":"ce4bh612rcd13ifvqe6g","pricing_plan_id":"cebpf4jnsgd1na2vs0mg"},{"bike_id":"bc0d5355-fe23-4f18-bc60-b4e98be395d5","system_id":"levelo_inurba_marseille","lat":43.28463,"lon":5.3588,"is_reserved":false,"is_disabled":false,"rental_uris":{"android":"levelo://app?vid=bc0d5355-fe23-4f18-bc60-b4e98be395d5","ios":"levelo://app?vid=bc0d5355-fe23-4f18-bc60-b4e98be395d5"},"vehicle_type_id":"4","last_reported":1774113398,"current_range_meters":6400,"station_id":"ce4bhah2rcd13ifvqei0","pricing_plan_id":"cebpf4jnsgd1na2vs0mg"},{"bike_id":"3727d6e3-4577-49ea-959e-93a5e09450a3","system_id":"levelo_inurba_marseille","lat":43.31447,"lon":5.40063,"is_reserved":false,"is_disabled":false,"rental_uris":{"android":"levelo://app?vid=3727d6e3-4577-49ea-959e-93a5e09450a3","ios":"levelo://app?vid=3727d6e3-4577-49ea-959e-93a5e09450a3"},"vehicle_type_id":"4","last_reported":1774113398,"current_range_meters":6400,"station_id":"","pricing_plan_id":"cebpf4jnsgd1na2vs0mg"},{"bike_id":"405060f3-e53a-4cdb-8b82-9cde9e338c5d","system_id":"levelo_inurba_marseille","lat":43.30132,"lon":5.39844,"is_reserved":false,"is_disabled":false,"rental_uris":{"android":"levelo://app?vid=405060f3-e53a-4cdb-8b82-9cde9e338c5d","ios":"levelo://app?vid=405060f3-e53a-4cdb-8b82-9cde9e338c5d"},"vehicle_type_id":"4","last_reported":1774113398,"current_range_meters":6400,"station_id":"ce4bh0h2rcd13ifvqd40","pricing_plan_id":"cebpf4jnsgd1na2vs0mg"},{"bike_id":"e54d8196-dcee-437a-a40a-42230d827d04","system_id":"levelo_inurba_marseille","lat":43.29983,"lon":5.37184,"is_reserved":false,"is_disabled":false,"rental_uris":{"android":"levelo://app?vid=e54d8196-dcee-437a-a40a-42230d827d04","ios":"levelo://app?vid=e54d8196-dcee-437a-a40a-42230d827d04"},"vehicle_type_id":"4","last_reported":1774113398,"current_range_meters":6400,"station_id":"ce4bgr92rcd13ifvqc7g","pricing_plan_id":"cebpf4jnsgd1na2vs0mg"},{"bike_id":"3b38311d-a6ca-4137-ab71-ce43020b59fe","system_id":"levelo_inurba_marseille","lat":43.29254,"lon":5.38447,"is_reserved":false,"is_disabled":false,"rental_uris":{"android":"levelo://app?vid=3b38311d-a6ca-4137-ab71-ce43020b59fe","ios":"levelo://app?vid=3b38311d-a6ca-4137-ab71-ce43020b59fe"},"vehicle_type_id":"4","last_reported":1774113398,"current_range_meters":6400,"station_id":"ce4bh692rcd13ifvqea0","pricing_plan_id":"cebpf4jnsgd1na2vs0mg"},{"bike_id":"4a844474-a2bb-4ced-849d-b19aa422300d","system_id":"levelo_inurba_marseille","lat":43.28335,"lon":5.38102,"is_reserved":false,"is_disabled":false,"rental_uris":{"android":"levelo://app?vid=4a844474-a2bb-4ced-849d-b19aa422300d","ios":"levelo://app?vid=4a844474-a2bb-4ced-849d-b19aa422300d"},"vehicle_type_id":"4","last_reported":1774113398,"current_range_meters":6400,"station_id":"ce4bh412rcd13ifvqdr0","pricing_plan_id":"cebpf4jnsgd1na2vs0mg"},{"bike_id":"1e41aec6-a9be-4039-a5e8-02594aa4b121","system_id":"levelo_inurba_marseille","lat":43.211807,"lon":5.350772,"is_reserved":false,"is_disabled":false,"rental_uris":{"android":"levelo://app?vid=1e41aec6-a9be-4039-a5e8-02594aa4b121","ios":"levelo://app?vid=1e41aec6-a9be-4039-a5e8-02594aa4b121"},"vehicle_type_id":"4","last_reported":1774113398,"current_range_meters":6400,"station_id":"st_cvj6sg6p6f1abm77japg","pricing_plan_id":"cebpf4jnsgd1na2vs0mg"},{"bike_id":"b3901de5-e8fd-4803-9f29-223c0e417f1b","system_id":"levelo_inurba_marseille","lat":43.23968,"lon":5.36632,"is_reserved":false,"is_disabled":false,"rental_uris":{"android":"levelo://app?vid=b3901de5-e8fd-4803-9f29-223c0e417f1b","ios":"levelo://app?vid=b3901de5-e8fd-4803-9f29-223c0e417f1b"},"vehicle_type_id":"4","last_reported":1774113398,"current_range_meters":6800,"station_id":"ce4bhi12rcd13ifvqfp0","pricing_plan_id":"cebpf4jnsgd1na2vs0mg"},{"bike_id":"71389fc3-a4c3-46c5-a0f9-4330fcbb165b","system_id":"levelo_inurba_marseille","lat":43.27939,"lon":5.41061,"is_reserved":false,"is_disabled":true,"rental_uris":{"android":"levelo://app?vid=71389fc3-a4c3-46c5-a0f9-4330fcbb165b","ios":"levelo://app?vid=71389fc3-a4c3-46c5-a0f9-4330fcbb165b"},"vehicle_type_id":"4","last_reported":1774113398,"current_range_meters":6800,"station_id":"ce4bhnp2rcd13ifvqh0g","pricing_plan_id":"cebpf4jnsgd1na2vs0mg"},{"bike_id":"afab17fe-5945-4eab-9129-fe150d6e725c","system_id":"levelo_inurba_marseille","lat":43.31069,"lon":5.37165,"is_reserved":false,"is_disabled":false,"rental_uris":{"android":"levelo://app?vid=afab17fe-5945-4eab-9129-fe150d6e725c","ios":"levelo://app?vid=afab17fe-5945-4eab-9129-fe150d6e725c"},"vehicle_type_id":"4","last_reported":1774113398,"current_range_meters":6800,"station_id":"st_d4kl2rp97mjs73e7tdfg","pricing_plan_id":"cebpf4jnsgd1na2vs0mg"},{"bike_id":"8e70251c-8f02-4240-8304-f6a3026eaebe","system_id":"levelo_inurba_marseille","lat":43.30919,"lon":5.36853,"is_reserved":false,"is_disabled":false,"rental_uris":{"android":"levelo://app?vid=8e70251c-8f02-4240-8304-f6a3026eaebe","ios":"levelo://app?vid=8e70251c-8f02-4240-8304-f6a3026eaebe"},"vehicle_type_id":"4","last_reported":1774113398,"current_range_meters":6800,"station_id":"ce4bgn92rcd13ifvqbvg","pricing_plan_id":"cebpf4jnsgd1na2vs0mg"},{"bike_id":"755e7e99-142f-4384-8bbf-4ef177cc5502","system_id":"levelo_inurba_marseille","lat":43.33608,"lon":5.41037,"is_reserved":false,"is_disabled":false,"rental_uris":{"android":"levelo://app?vid=755e7e99-142f-4384-8bbf-4ef177cc5502","ios":"levelo://app?vid=755e7e99-142f-4384-8bbf-4ef177cc5502"},"vehicle_type_id":"4","last_reported":1774113398,"current_range_meters":6800,"station_id":"ce4bhqh2rcd13ifvqhmg","pricing_plan_id":"cebpf4jnsgd1na2vs0mg"},{"bike_id":"37fd8b91-bebb-483f-9ede-850904204da2","system_id":"levelo_inurba_marseille","lat":43.33437,"lon":5.35655,"is_reserved":false,"is_disabled":false,"rental_uris":{"android":"levelo://app?vid=37fd8b91-bebb-483f-9ede-850904204da2","ios":"levelo://app?vid=37fd8b91-bebb-483f-9ede-850904204da2"},"vehicle_type_id":"4","last_reported":1774113398,"current_range_meters":6800,"station_id":"","pricing_plan_id":"cebpf4jnsgd1na2vs0mg"},{"bike_id":"7735375d-1041-4f99-b2b7-719b8a41cb75","system_id":"levelo_inurba_marseille","lat":43.28148,"lon":5.42647,"is_reserved":false,"is_disabled":true,"rental_uris":{"android":"levelo://app?vid=7735375d-1041-4f99-b2b7-719b8a41cb75","ios":"levelo://app?vid=7735375d-1041-4f99-b2b7-719b8a41cb75"},"vehicle_type_id":"4","last_reported":1774113398,"current_range_meters":6800,"station_id":"ce4bhnh2rcd13ifvqgug","pricing_plan_id":"cebpf4jnsgd1na2vs0mg"},{"bike_id":"1028ab09-260c-4519-acf9-0b251691f063","system_id":"levelo_inurba_marseille","lat":43.31051,"lon":5.37162,"is_reserved":false,"is_disabled":false,"rental_uris":{"android":"levelo://app?vid=1028ab09-260c-4519-acf9-0b251691f063","ios":"levelo://app?vid=1028ab09-260c-4519-acf9-0b251691f063"},"vehicle_type_id":"4","last_reported":1774113398,"current_range_meters":6800,"station_id":"st_d4kl2rp97mjs73e7tdfg","pricing_plan_id":"cebpf4jnsgd1na2vs0mg"},{"bike_id":"8fe016fe-4ab1-495c-8165-a209d98dd64e","system_id":"levelo_inurba_marseille","lat":43.26207,"lon":5.37447,"is_reserved":false,"is_disabled":false,"rental_uris":{"android":"levelo://app?vid=8fe016fe-4ab1-495c-8165-a209d98dd64e","ios":"levelo://app?vid=8fe016fe-4ab1-495c-8165-a209d98dd64e"},"vehicle_type_id":"4","last_reported":1774113398,"current_range_meters":6800,"station_id":"ce4bhgp2rcd13ifvqfc0","pricing_plan_id":"cebpf4jnsgd1na2vs0mg"},{"bike_id":"4cfbfa6f-5626-4810-9e83-9f7d2f4044c0","system_id":"levelo_inurba_marseille","lat":43.29533,"lon":5.38545,"is_reserved":false,"is_disabled":false,"rental_uris":{"android":"levelo://app?vid=4cfbfa6f-5626-4810-9e83-9f7d2f4044c0","ios":"levelo://app?vid=4cfbfa6f-5626-4810-9e83-9f7d2f4044c0"},"vehicle_type_id":"4","last_reported":1774113398,"current_range_meters":6800,"station_id":"ce4bgih2rcd13ifvqba0","pricing_plan_id":"cebpf4jnsgd1na2vs0mg"},{"bike_id":"f238d9ca-152c-4edc-ab1d-3b52a1a3eded","system_id":"levelo_inurba_marseille","lat":43.28417,"lon":5.34993,"is_reserved":false,"is_disabled":false,"rental_uris":{"android":"levelo://app?vid=f238d9ca-152c-4edc-ab1d-3b52a1a3eded","ios":"levelo://app?vid=f238d9ca-152c-4edc-ab1d-3b52a1a3eded"},"vehicle_type_id":"4","last_reported":1774113398,"current_range_meters":6800,"station_id":"ce4bhbh2rcd13ifvqepg","pricing_plan_id":"cebpf4jnsgd1na2vs0mg"},{"bike_id":"a9516388-db80-4612-87bf-7a7b04fb5027","system_id":"levelo_inurba_marseille","lat":43.25002,"lon":5.38923,"is_reserved":false,"is_disabled":false,"rental_uris":{"android":"levelo://app?vid=a9516388-db80-4612-87bf-7a7b04fb5027","ios":"levelo://app?vid=a9516388-db80-4612-87bf-7a7b04fb5027"},"vehicle_type_id":"4","last_reported":1774113398,"current_range_meters":6800,"station_id":"ce4bhgp2rcd13ifvqfd0","pricing_plan_id":"cebpf4jnsgd1na2vs0mg"},{"bike_id":"9546ce83-8dfc-4c42-947c-e9d4b0982e24","system_id":"levelo_inurba_marseille","lat":43.29094,"lon":5.38168,"is_reserved":false,"is_disabled":false,"rental_uris":{"android":"levelo://app?vid=9546ce83-8dfc-4c42-947c-e9d4b0982e24","ios":"levelo://app?vid=9546ce83-8dfc-4c42-947c-e9d4b0982e24"},"vehicle_type_id":"4","last_reported":1774113398,"current_range_meters":6800,"station_id":"ce4bh512rcd13ifvqe2g","pricing_plan_id":"cebpf4jnsgd1na2vs0mg"},{"bike_id":"b8a201cd-e7dd-4b4f-a672-90bf70fac90e","system_id":"levelo_inurba_marseille","lat":43.29985,"lon":5.37179,"is_reserved":false,"is_disabled":false,"rental_uris":{"android":"levelo://app?vid=b8a201cd-e7dd-4b4f-a672-90bf70fac90e","ios":"levelo://app?vid=b8a201cd-e7dd-4b4f-a672-90bf70fac90e"},"vehicle_type_id":"4","last_reported":1774113398,"current_range_meters":6800,"station_id":"ce4bgr92rcd13ifvqc7g","pricing_plan_id":"cebpf4jnsgd1na2vs0mg"},{"bike_id":"0d92f880-9c2c-4db9-b8af-8bb53f7d6d54","system_id":"levelo_inurba_marseille","lat":43.29448,"lon":5.39745,"is_reserved":false,"is_disabled":false,"rental_uris":{"android":"levelo://app?vid=0d92f880-9c2c-4db9-b8af-8bb53f7d6d54","ios":"levelo://app?vid=0d92f880-9c2c-4db9-b8af-8bb53f7d6d54"},"vehicle_type_id":"4","last_reported":1774113398,"current_range_meters":6800,"station_id":"ce4bh3h2rcd13ifvqdo0","pricing_plan_id":"cebpf4jnsgd1na2vs0mg"},{"bike_id":"dac9aef8-a51d-4234-b7c9-efd3c254a7ee","system_id":"levelo_inurba_marseille","lat":43.29789,"lon":5.39361,"is_reserved":false,"is_disabled":false,"rental_uris":{"android":"levelo://app?vid=dac9aef8-a51d-4234-b7c9-efd3c254a7ee","ios":"levelo://app?vid=dac9aef8-a51d-4234-b7c9-efd3c254a7ee"},"vehicle_type_id":"4","last_reported":1774113398,"current_range_meters":6800,"station_id":"chh1huq6cuj3fo74tm60","pricing_plan_id":"cebpf4jnsgd1na2vs0mg"},{"bike_id":"b87d7938-28e4-46e7-994e-fdebd5392225","system_id":"levelo_inurba_marseille","lat":43.32093,"lon":5.36799,"is_reserved":false,"is_disabled":false,"rental_uris":{"android":"levelo://app?vid=b87d7938-28e4-46e7-994e-fdebd5392225","ios":"levelo://app?vid=b87d7938-28e4-46e7-994e-fdebd5392225"},"vehicle_type_id":"4","last_reported":1774113398,"current_range_meters":6800,"station_id":"ce4bhrh2rcd13ifvqhug","pricing_plan_id":"cebpf4jnsgd1na2vs0mg"},{"bike_id":"6720c7f2-8755-4839-b9fe-8dc5de077a5f","system_id":"levelo_inurba_marseille","lat":43.28407,"lon":5.37509,"is_reserved":false,"is_disabled":false,"rental_uris":{"android":"levelo://app?vid=6720c7f2-8755-4839-b9fe-8dc5de077a5f","ios":"levelo://app?vid=6720c7f2-8755-4839-b9fe-8dc5de077a5f"},"vehicle_type_id":"4","last_reported":1774113398,"current_range_meters":7200,"station_id":"ce4bh412rcd13ifvqds0","pricing_plan_id":"cebpf4jnsgd1na2vs0mg"},{"bike_id":"037af263-c94a-46ee-b673-7aa7948320d5","system_id":"levelo_inurba_marseille","lat":43.29263,"lon":5.38441,"is_reserved":false,"is_disabled":true,"rental_uris":{"android":"levelo://app?vid=037af263-c94a-46ee-b673-7aa7948320d5","ios":"levelo://app?vid=037af263-c94a-46ee-b673-7aa7948320d5"},"vehicle_type_id":"4","last_reported":1774113398,"current_range_meters":7200,"station_id":"ce4bh692rcd13ifvqea0","pricing_plan_id":"cebpf4jnsgd1na2vs0mg"},{"bike_id":"37752f22-4e24-4242-a38c-e44293abad6b","system_id":"levelo_inurba_marseille","lat":43.27994,"lon":5.38692,"is_reserved":false,"is_disabled":true,"rental_uris":{"android":"levelo://app?vid=37752f22-4e24-4242-a38c-e44293abad6b","ios":"levelo://app?vid=37752f22-4e24-4242-a38c-e44293abad6b"},"vehicle_type_id":"4","last_reported":1774113398,"current_range_meters":7200,"station_id":"ce4bhg12rcd13ifvqf80","pricing_plan_id":"cebpf4jnsgd1na2vs0mg"},{"bike_id":"d64fb104-80c5-42ae-aa8f-97a77003dda9","system_id":"levelo_inurba_marseille","lat":43.28847,"lon":5.35844,"is_reserved":false,"is_disabled":false,"rental_uris":{"android":"levelo://app?vid=d64fb104-80c5-42ae-aa8f-97a77003dda9","ios":"levelo://app?vid=d64fb104-80c5-42ae-aa8f-97a77003dda9"},"vehicle_type_id":"4","last_reported":1774113398,"current_range_meters":7200,"station_id":"ce4bhb12rcd13ifvqem0","pricing_plan_id":"cebpf4jnsgd1na2vs0mg"},{"bike_id":"3817bdac-eb66-415c-847b-aa9154acea21","system_id":"levelo_inurba_marseille","lat":43.2862,"lon":5.35105,"is_reserved":false,"is_disabled":false,"rental_uris":{"android":"levelo://app?vid=3817bdac-eb66-415c-847b-aa9154acea21","ios":"levelo://app?vid=3817bdac-eb66-415c-847b-aa9154acea21"},"vehicle_type_id":"4","last_reported":1774113398,"current_range_meters":7200,"station_id":"ce4bhch2rcd13ifvqeug","pricing_plan_id":"cebpf4jnsgd1na2vs0mg"},{"bike_id":"6e8f2015-93e7-4bc9-85c4-653010472974","system_id":"levelo_inurba_marseille","lat":43.30307,"lon":5.36898,"is_reserved":false,"is_disabled":false,"rental_uris":{"android":"levelo://app?vid=6e8f2015-93e7-4bc9-85c4-653010472974","ios":"levelo://app?vid=6e8f2015-93e7-4bc9-85c4-653010472974"},"vehicle_type_id":"4","last_reported":1774113398,"current_range_meters":7200,"station_id":"ce4bgqh2rcd13ifvqc5g","pricing_plan_id":"cebpf4jnsgd1na2vs0mg"},{"bike_id":"fb21b0cc-18ea-4601-ab16-40f2a065ae30","system_id":"levelo_inurba_marseille","lat":43.24807,"lon":5.37461,"is_reserved":false,"is_disabled":false,"rental_uris":{"android":"levelo://app?vid=fb21b0cc-18ea-4601-ab16-40f2a065ae30","ios":"levelo://app?vid=fb21b0cc-18ea-4601-ab16-40f2a065ae30"},"vehicle_type_id":"4","last_reported":1774113398,"current_range_meters":7200,"station_id":"ce4bhgh2rcd13ifvqfb0","pricing_plan_id":"cebpf4jnsgd1na2vs0mg"},{"bike_id":"d9a2340f-4dc0-456b-89f0-454af4d93a65","system_id":"levelo_inurba_marseille","lat":43.28498,"lon":5.35128,"is_reserved":false,"is_disabled":false,"rental_uris":{"android":"levelo://app?vid=d9a2340f-4dc0-456b-89f0-454af4d93a65","ios":"levelo://app?vid=d9a2340f-4dc0-456b-89f0-454af4d93a65"},"vehicle_type_id":"4","last_reported":1774113398,"current_range_meters":7200,"station_id":"","pricing_plan_id":"cebpf4jnsgd1na2vs0mg"},{"bike_id":"4da23caa-0561-4209-b6fc-b5189ab449a7","system_id":"levelo_inurba_marseille","lat":43.28421,"lon":5.349952,"is_reserved":false,"is_disabled":false,"rental_uris":{"android":"levelo://app?vid=4da23caa-0561-4209-b6fc-b5189ab449a7","ios":"levelo://app?vid=4da23caa-0561-4209-b6fc-b5189ab449a7"},"vehicle_type_id":"4","last_reported":1774113398,"current_range_meters":7200,"station_id":"ce4bhbh2rcd13ifvqepg","pricing_plan_id":"cebpf4jnsgd1na2vs0mg"},{"bike_id":"770b655d-cb45-4e65-9638-1ab2bf636c2c","system_id":"levelo_inurba_marseille","lat":43.29533,"lon":5.37516,"is_reserved":false,"is_disabled":false,"rental_uris":{"android":"levelo://app?vid=770b655d-cb45-4e65-9638-1ab2bf636c2c","ios":"levelo://app?vid=770b655d-cb45-4e65-9638-1ab2bf636c2c"},"vehicle_type_id":"4","last_reported":1774113398,"current_range_meters":7200,"station_id":"ce4bgkp2rcd13ifvqbmg","pricing_plan_id":"cebpf4jnsgd1na2vs0mg"},{"bike_id":"bb64248e-0e5d-4ee1-9d8f-d48a0dd77d66","system_id":"levelo_inurba_marseille","lat":43.21628,"lon":5.34479,"is_reserved":false,"is_disabled":false,"rental_uris":{"android":"levelo://app?vid=bb64248e-0e5d-4ee1-9d8f-d48a0dd77d66","ios":"levelo://app?vid=bb64248e-0e5d-4ee1-9d8f-d48a0dd77d66"},"vehicle_type_id":"4","last_reported":1774113398,"current_range_meters":7200,"station_id":"","pricing_plan_id":"cebpf4jnsgd1na2vs0mg"},{"bike_id":"308dedb8-3a57-4663-b400-db0338192d64","system_id":"levelo_inurba_marseille","lat":43.26506,"lon":5.39538,"is_reserved":false,"is_disabled":false,"rental_uris":{"android":"levelo://app?vid=308dedb8-3a57-4663-b400-db0338192d64","ios":"levelo://app?vid=308dedb8-3a57-4663-b400-db0338192d64"},"vehicle_type_id":"4","last_reported":1774113398,"current_range_meters":7200,"station_id":"ce4bhi12rcd13ifvqfq0","pricing_plan_id":"cebpf4jnsgd1na2vs0mg"},{"bike_id":"2269e68d-f48b-428d-993e-bfd909030469","system_id":"levelo_inurba_marseille","lat":43.28473,"lon":5.38835,"is_reserved":false,"is_disabled":false,"rental_uris":{"android":"levelo://app?vid=2269e68d-f48b-428d-993e-bfd909030469","ios":"levelo://app?vid=2269e68d-f48b-428d-993e-bfd909030469"},"vehicle_type_id":"4","last_reported":1774113398,"current_range_meters":7200,"station_id":"","pricing_plan_id":"cebpf4jnsgd1na2vs0mg"},{"bike_id":"1c8f4e90-be19-4c1b-bd1b-b9b8dac71575","system_id":"levelo_inurba_marseille","lat":43.295258,"lon":5.385417,"is_reserved":false,"is_disabled":false,"rental_uris":{"android":"levelo://app?vid=1c8f4e90-be19-4c1b-bd1b-b9b8dac71575","ios":"levelo://app?vid=1c8f4e90-be19-4c1b-bd1b-b9b8dac71575"},"vehicle_type_id":"4","last_reported":1774113398,"current_range_meters":7200,"station_id":"ce4bgih2rcd13ifvqba0","pricing_plan_id":"cebpf4jnsgd1na2vs0mg"},{"bike_id":"d47cc76f-1476-4fb7-b441-a28192bc5a70","system_id":"levelo_inurba_marseille","lat":43.28441,"lon":5.39212,"is_reserved":false,"is_disabled":false,"rental_uris":{"android":"levelo://app?vid=d47cc76f-1476-4fb7-b441-a28192bc5a70","ios":"levelo://app?vid=d47cc76f-1476-4fb7-b441-a28192bc5a70"},"vehicle_type_id":"4","last_reported":1774113398,"current_range_meters":7200,"station_id":"ce4bhoh2rcd13ifvqh5g","pricing_plan_id":"cebpf4jnsgd1na2vs0mg"},{"bike_id":"190ac252-5242-4b2b-86f5-67c93f33d240","system_id":"levelo_inurba_marseille","lat":43.25336,"lon":5.42177,"is_reserved":false,"is_disabled":false,"rental_uris":{"android":"levelo://app?vid=190ac252-5242-4b2b-86f5-67c93f33d240","ios":"levelo://app?vid=190ac252-5242-4b2b-86f5-67c93f33d240"},"vehicle_type_id":"4","last_reported":1774113398,"current_range_meters":8000,"station_id":"st_d2m65c5bi1j21697t3ng","pricing_plan_id":"cebpf4jnsgd1na2vs0mg"},{"bike_id":"9b4a1da8-a842-438e-94d2-f233074e802e","system_id":"levelo_inurba_marseille","lat":43.29184,"lon":5.37152,"is_reserved":false,"is_disabled":false,"rental_uris":{"android":"levelo://app?vid=9b4a1da8-a842-438e-94d2-f233074e802e","ios":"levelo://app?vid=9b4a1da8-a842-438e-94d2-f233074e802e"},"vehicle_type_id":"4","last_reported":1774113398,"current_range_meters":8000,"station_id":"ce4bha92rcd13ifvqeh0","pricing_plan_id":"cebpf4jnsgd1na2vs0mg"},{"bike_id":"89d5b053-9e40-4e31-a28a-65d06dc45ab9","system_id":"levelo_inurba_marseille","lat":43.28628,"lon":5.35126,"is_reserved":false,"is_disabled":false,"rental_uris":{"android":"levelo://app?vid=89d5b053-9e40-4e31-a28a-65d06dc45ab9","ios":"levelo://app?vid=89d5b053-9e40-4e31-a28a-65d06dc45ab9"},"vehicle_type_id":"4","last_reported":1774113398,"current_range_meters":8000,"station_id":"ce4bhch2rcd13ifvqeug","pricing_plan_id":"cebpf4jnsgd1na2vs0mg"},{"bike_id":"c083faf3-3f55-4288-b860-e7533e71cc8c","system_id":"levelo_inurba_marseille","lat":43.24392,"lon":5.37071,"is_reserved":false,"is_disabled":false,"rental_uris":{"android":"levelo://app?vid=c083faf3-3f55-4288-b860-e7533e71cc8c","ios":"levelo://app?vid=c083faf3-3f55-4288-b860-e7533e71cc8c"},"vehicle_type_id":"4","last_reported":1774113398,"current_range_meters":8000,"station_id":"ce4bhhh2rcd13ifvqfk0","pricing_plan_id":"cebpf4jnsgd1na2vs0mg"},{"bike_id":"bd57c195-6bba-4e11-a336-a5ae11164b89","system_id":"levelo_inurba_marseille","lat":43.2455,"lon":5.3952,"is_reserved":false,"is_disabled":false,"rental_uris":{"android":"levelo://app?vid=bd57c195-6bba-4e11-a336-a5ae11164b89","ios":"levelo://app?vid=bd57c195-6bba-4e11-a336-a5ae11164b89"},"vehicle_type_id":"4","last_reported":1774113398,"current_range_meters":8000,"station_id":"ce4bhlp2rcd13ifvqgjg","pricing_plan_id":"cebpf4jnsgd1na2vs0mg"},{"bike_id":"fb2fe282-db9f-4047-a00d-9fa8876597bc","system_id":"levelo_inurba_marseille","lat":43.28648,"lon":5.36356,"is_reserved":false,"is_disabled":false,"rental_uris":{"android":"levelo://app?vid=fb2fe282-db9f-4047-a00d-9fa8876597bc","ios":"levelo://app?vid=fb2fe282-db9f-4047-a00d-9fa8876597bc"},"vehicle_type_id":"4","last_reported":1774113398,"current_range_meters":8000,"station_id":"ce4bhah2rcd13ifvqej0","pricing_plan_id":"cebpf4jnsgd1na2vs0mg"},{"bike_id":"92125df4-2637-4665-a0a8-a08a53b4e621","system_id":"levelo_inurba_marseille","lat":43.23204,"lon":5.35537,"is_reserved":false,"is_disabled":false,"rental_uris":{"android":"levelo://app?vid=92125df4-2637-4665-a0a8-a08a53b4e621","ios":"levelo://app?vid=92125df4-2637-4665-a0a8-a08a53b4e621"},"vehicle_type_id":"4","last_reported":1774113398,"current_range_meters":8000,"station_id":"ce4bhu92rcd13ifvqi70","pricing_plan_id":"cebpf4jnsgd1na2vs0mg"},{"bike_id":"077ba1f4-9955-44ea-8995-8df9c4ed43ac","system_id":"levelo_inurba_marseille","lat":43.31046,"lon":5.37169,"is_reserved":false,"is_disabled":false,"rental_uris":{"android":"levelo://app?vid=077ba1f4-9955-44ea-8995-8df9c4ed43ac","ios":"levelo://app?vid=077ba1f4-9955-44ea-8995-8df9c4ed43ac"},"vehicle_type_id":"4","last_reported":1774113398,"current_range_meters":8000,"station_id":"st_d4kl2rp97mjs73e7tdfg","pricing_plan_id":"cebpf4jnsgd1na2vs0mg"},{"bike_id":"df5ad533-8354-43dd-b4db-d4118becde63","system_id":"levelo_inurba_marseille","lat":43.28543,"lon":5.48281,"is_reserved":false,"is_disabled":false,"rental_uris":{"android":"levelo://app?vid=df5ad533-8354-43dd-b4db-d4118becde63","ios":"levelo://app?vid=df5ad533-8354-43dd-b4db-d4118becde63"},"vehicle_type_id":"4","last_reported":1774113398,"current_range_meters":8000,"station_id":"","pricing_plan_id":"cebpf4jnsgd1na2vs0mg"},{"bike_id":"89926ba9-1602-4135-b1e9-de76a2758fef","system_id":"levelo_inurba_marseille","lat":43.2119,"lon":5.35073,"is_reserved":false,"is_disabled":false,"rental_uris":{"android":"levelo://app?vid=89926ba9-1602-4135-b1e9-de76a2758fef","ios":"levelo://app?vid=89926ba9-1602-4135-b1e9-de76a2758fef"},"vehicle_type_id":"4","last_reported":1774113398,"current_range_meters":8000,"station_id":"st_cvj6sg6p6f1abm77japg","pricing_plan_id":"cebpf4jnsgd1na2vs0mg"},{"bike_id":"7da7757f-73e8-4f4f-8998-8a7f2ac48f04","system_id":"levelo_inurba_marseille","lat":43.29578,"lon":5.39992,"is_reserved":false,"is_disabled":false,"rental_uris":{"android":"levelo://app?vid=7da7757f-73e8-4f4f-8998-8a7f2ac48f04","ios":"levelo://app?vid=7da7757f-73e8-4f4f-8998-8a7f2ac48f04"},"vehicle_type_id":"4","last_reported":1774113398,"current_range_meters":8000,"station_id":"ce4bh312rcd13ifvqdj0","pricing_plan_id":"cebpf4jnsgd1na2vs0mg"},{"bike_id":"5206b1c0-ea28-4288-9fb7-15de647e09fa","system_id":"levelo_inurba_marseille","lat":43.33566,"lon":5.37433,"is_reserved":false,"is_disabled":false,"rental_uris":{"android":"levelo://app?vid=5206b1c0-ea28-4288-9fb7-15de647e09fa","ios":"levelo://app?vid=5206b1c0-ea28-4288-9fb7-15de647e09fa"},"vehicle_type_id":"4","last_reported":1774113398,"current_range_meters":8000,"station_id":"st_d46tts09ee8s73dlu43g","pricing_plan_id":"cebpf4jnsgd1na2vs0mg"},{"bike_id":"84dc3d68-1c59-4a3a-a8d1-cca6c5afc7c9","system_id":"levelo_inurba_marseille","lat":43.28031,"lon":5.36947,"is_reserved":false,"is_disabled":false,"rental_uris":{"android":"levelo://app?vid=84dc3d68-1c59-4a3a-a8d1-cca6c5afc7c9","ios":"levelo://app?vid=84dc3d68-1c59-4a3a-a8d1-cca6c5afc7c9"},"vehicle_type_id":"4","last_reported":1774113398,"current_range_meters":8000,"station_id":"ce4bha12rcd13ifvqef0","pricing_plan_id":"cebpf4jnsgd1na2vs0mg"},{"bike_id":"4f3c83da-e553-4c00-a933-330b20f864c0","system_id":"levelo_inurba_marseille","lat":43.28723,"lon":5.36108,"is_reserved":false,"is_disabled":false,"rental_uris":{"android":"levelo://app?vid=4f3c83da-e553-4c00-a933-330b20f864c0","ios":"levelo://app?vid=4f3c83da-e553-4c00-a933-330b20f864c0"},"vehicle_type_id":"4","last_reported":1774113398,"current_range_meters":8000,"station_id":"cki0cbj6b192h4jlfktg","pricing_plan_id":"cebpf4jnsgd1na2vs0mg"},{"bike_id":"cb72e391-d372-4807-b4f7-8521c8b4fce2","system_id":"levelo_inurba_marseille","lat":43.29035,"lon":5.39964,"is_reserved":false,"is_disabled":false,"rental_uris":{"android":"levelo://app?vid=cb72e391-d372-4807-b4f7-8521c8b4fce2","ios":"levelo://app?vid=cb72e391-d372-4807-b4f7-8521c8b4fce2"},"vehicle_type_id":"4","last_reported":1774113398,"current_range_meters":8000,"station_id":"ce4bh392rcd13ifvqdm0","pricing_plan_id":"cebpf4jnsgd1na2vs0mg"},{"bike_id":"881552ad-57ca-4484-9a05-f159c58f50d9","system_id":"levelo_inurba_marseille","lat":43.31702,"lon":5.38696,"is_reserved":false,"is_disabled":false,"rental_uris":{"android":"levelo://app?vid=881552ad-57ca-4484-9a05-f159c58f50d9","ios":"levelo://app?vid=881552ad-57ca-4484-9a05-f159c58f50d9"},"vehicle_type_id":"4","last_reported":1774113398,"current_range_meters":8000,"station_id":"","pricing_plan_id":"cebpf4jnsgd1na2vs0mg"},{"bike_id":"703efbe1-feef-417d-a9e3-0fca1a7eab74","system_id":"levelo_inurba_marseille","lat":43.34935,"lon":5.37939,"is_reserved":false,"is_disabled":false,"rental_uris":{"android":"levelo://app?vid=703efbe1-feef-417d-a9e3-0fca1a7eab74","ios":"levelo://app?vid=703efbe1-feef-417d-a9e3-0fca1a7eab74"},"vehicle_type_id":"4","last_reported":1774113398,"current_range_meters":8000,"station_id":"","pricing_plan_id":"cebpf4jnsgd1na2vs0mg"},{"bike_id":"8ca88c55-1d8e-49f2-b73f-8eedb72a6e80","system_id":"levelo_inurba_marseille","lat":43.28459,"lon":5.35896,"is_reserved":false,"is_disabled":false,"rental_uris":{"android":"levelo://app?vid=8ca88c55-1d8e-49f2-b73f-8eedb72a6e80","ios":"levelo://app?vid=8ca88c55-1d8e-49f2-b73f-8eedb72a6e80"},"vehicle_type_id":"4","last_reported":1774113398,"current_range_meters":8000,"station_id":"ce4bhah2rcd13ifvqei0","pricing_plan_id":"cebpf4jnsgd1na2vs0mg"},{"bike_id":"d090a803-95a9-45d8-9d0c-efd95354e4ef","system_id":"levelo_inurba_marseille","lat":43.28621,"lon":5.35101,"is_reserved":false,"is_disabled":false,"rental_uris":{"android":"levelo://app?vid=d090a803-95a9-45d8-9d0c-efd95354e4ef","ios":"levelo://app?vid=d090a803-95a9-45d8-9d0c-efd95354e4ef"},"vehicle_type_id":"4","last_reported":1774113398,"current_range_meters":8000,"station_id":"ce4bhch2rcd13ifvqeug","pricing_plan_id":"cebpf4jnsgd1na2vs0mg"},{"bike_id":"2c6619c8-8a3c-4437-9546-a0ee6342329c","system_id":"levelo_inurba_marseille","lat":43.30538,"lon":5.36702,"is_reserved":false,"is_disabled":false,"rental_uris":{"android":"levelo://app?vid=2c6619c8-8a3c-4437-9546-a0ee6342329c","ios":"levelo://app?vid=2c6619c8-8a3c-4437-9546-a0ee6342329c"},"vehicle_type_id":"4","last_reported":1774113398,"current_range_meters":8000,"station_id":"ce4bgrp2rcd13ifvqc9g","pricing_plan_id":"cebpf4jnsgd1na2vs0mg"},{"bike_id":"0df7c1d5-7d46-46a8-9cee-0eb4a4421251","system_id":"levelo_inurba_marseille","lat":43.23897,"lon":5.37453,"is_reserved":false,"is_disabled":false,"rental_uris":{"android":"levelo://app?vid=0df7c1d5-7d46-46a8-9cee-0eb4a4421251","ios":"levelo://app?vid=0df7c1d5-7d46-46a8-9cee-0eb4a4421251"},"vehicle_type_id":"4","last_reported":1774113398,"current_range_meters":8000,"station_id":"st_d6sm7csbq4hs73f8fpjg","pricing_plan_id":"cebpf4jnsgd1na2vs0mg"},{"bike_id":"f0885dbb-64a6-4ff8-94fa-a07eaad87691","system_id":"levelo_inurba_marseille","lat":43.28411,"lon":5.3499,"is_reserved":false,"is_disabled":false,"rental_uris":{"android":"levelo://app?vid=f0885dbb-64a6-4ff8-94fa-a07eaad87691","ios":"levelo://app?vid=f0885dbb-64a6-4ff8-94fa-a07eaad87691"},"vehicle_type_id":"4","last_reported":1774113398,"current_range_meters":8400,"station_id":"ce4bhbh2rcd13ifvqepg","pricing_plan_id":"cebpf4jnsgd1na2vs0mg"},{"bike_id":"cdb1ed93-cc2b-4ff0-b547-a85a780fca45","system_id":"levelo_inurba_marseille","lat":43.30142,"lon":5.37423,"is_reserved":false,"is_disabled":false,"rental_uris":{"android":"levelo://app?vid=cdb1ed93-cc2b-4ff0-b547-a85a780fca45","ios":"levelo://app?vid=cdb1ed93-cc2b-4ff0-b547-a85a780fca45"},"vehicle_type_id":"4","last_reported":1774113398,"current_range_meters":8400,"station_id":"ce4bgs92rcd13ifvqcc0","pricing_plan_id":"cebpf4jnsgd1na2vs0mg"},{"bike_id":"6fbf9e1a-5ad3-420f-89dd-fdb96fe39086","system_id":"levelo_inurba_marseille","lat":43.31228,"lon":5.36843,"is_reserved":false,"is_disabled":false,"rental_uris":{"android":"levelo://app?vid=6fbf9e1a-5ad3-420f-89dd-fdb96fe39086","ios":"levelo://app?vid=6fbf9e1a-5ad3-420f-89dd-fdb96fe39086"},"vehicle_type_id":"4","last_reported":1774113398,"current_range_meters":8400,"station_id":"ce4bgl92rcd13ifvqbq0","pricing_plan_id":"cebpf4jnsgd1na2vs0mg"},{"bike_id":"98e9724f-99a0-4211-9167-d4868439ff24","system_id":"levelo_inurba_marseille","lat":43.24808,"lon":5.37455,"is_reserved":false,"is_disabled":false,"rental_uris":{"android":"levelo://app?vid=98e9724f-99a0-4211-9167-d4868439ff24","ios":"levelo://app?vid=98e9724f-99a0-4211-9167-d4868439ff24"},"vehicle_type_id":"4","last_reported":1774113398,"current_range_meters":8400,"station_id":"ce4bhgh2rcd13ifvqfb0","pricing_plan_id":"cebpf4jnsgd1na2vs0mg"},{"bike_id":"f8cc83d7-8cfc-43c5-a95c-950d60be7ca1","system_id":"levelo_inurba_marseille","lat":43.22925,"lon":5.35373,"is_reserved":false,"is_disabled":false,"rental_uris":{"android":"levelo://app?vid=f8cc83d7-8cfc-43c5-a95c-950d60be7ca1","ios":"levelo://app?vid=f8cc83d7-8cfc-43c5-a95c-950d60be7ca1"},"vehicle_type_id":"4","last_reported":1774113398,"current_range_meters":8400,"station_id":"cpo3532slgdg3j2ikp40","pricing_plan_id":"cebpf4jnsgd1na2vs0mg"},{"bike_id":"aa04aab8-5586-4225-9d8c-373c31bac1ba","system_id":"levelo_inurba_marseille","lat":43.29862,"lon":5.36269,"is_reserved":false,"is_disabled":false,"rental_uris":{"android":"levelo://app?vid=aa04aab8-5586-4225-9d8c-373c31bac1ba","ios":"levelo://app?vid=aa04aab8-5586-4225-9d8c-373c31bac1ba"},"vehicle_type_id":"4","last_reported":1774113398,"current_range_meters":8400,"station_id":"ce4bgpp2rcd13ifvqc3g","pricing_plan_id":"cebpf4jnsgd1na2vs0mg"},{"bike_id":"60751ca5-9923-4b16-854f-a14bfca5dada","system_id":"levelo_inurba_marseille","lat":43.23894,"lon":5.37475,"is_reserved":false,"is_disabled":false,"rental_uris":{"android":"levelo://app?vid=60751ca5-9923-4b16-854f-a14bfca5dada","ios":"levelo://app?vid=60751ca5-9923-4b16-854f-a14bfca5dada"},"vehicle_type_id":"4","last_reported":1774113398,"current_range_meters":8400,"station_id":"st_d6sm7csbq4hs73f8fpjg","pricing_plan_id":"cebpf4jnsgd1na2vs0mg"},{"bike_id":"0f8955a4-f9b7-4db6-80ef-f3090a580402","system_id":"levelo_inurba_marseille","lat":43.27832,"lon":5.39202,"is_reserved":false,"is_disabled":false,"rental_uris":{"android":"levelo://app?vid=0f8955a4-f9b7-4db6-80ef-f3090a580402","ios":"levelo://app?vid=0f8955a4-f9b7-4db6-80ef-f3090a580402"},"vehicle_type_id":"4","last_reported":1774113398,"current_range_meters":8400,"station_id":"ce4bhjp2rcd13ifvqga0","pricing_plan_id":"cebpf4jnsgd1na2vs0mg"},{"bike_id":"6a0e5f42-628b-49f9-be58-7186fc3dc8d5","system_id":"levelo_inurba_marseille","lat":43.23061,"lon":5.35498,"is_reserved":false,"is_disabled":false,"rental_uris":{"android":"levelo://app?vid=6a0e5f42-628b-49f9-be58-7186fc3dc8d5","ios":"levelo://app?vid=6a0e5f42-628b-49f9-be58-7186fc3dc8d5"},"vehicle_type_id":"4","last_reported":1774113398,"current_range_meters":8400,"station_id":"cpo3342slgdg3j2ifvpg","pricing_plan_id":"cebpf4jnsgd1na2vs0mg"},{"bike_id":"9d9e6702-dc85-4fae-8b1d-85030daa80d9","system_id":"levelo_inurba_marseille","lat":43.28704,"lon":5.37389,"is_reserved":false,"is_disabled":false,"rental_uris":{"android":"levelo://app?vid=9d9e6702-dc85-4fae-8b1d-85030daa80d9","ios":"levelo://app?vid=9d9e6702-dc85-4fae-8b1d-85030daa80d9"},"vehicle_type_id":"4","last_reported":1774113398,"current_range_meters":8400,"station_id":"ce4bh3p2rcd13ifvqdq0","pricing_plan_id":"cebpf4jnsgd1na2vs0mg"},{"bike_id":"280578b9-60d3-4d63-bb0d-4693a52f0b6d","system_id":"levelo_inurba_marseille","lat":43.29037,"lon":5.38142,"is_reserved":false,"is_disabled":true,"rental_uris":{"android":"levelo://app?vid=280578b9-60d3-4d63-bb0d-4693a52f0b6d","ios":"levelo://app?vid=280578b9-60d3-4d63-bb0d-4693a52f0b6d"},"vehicle_type_id":"4","last_reported":1774113398,"current_range_meters":8400,"station_id":"ce4bh4p2rcd13ifvqe1g","pricing_plan_id":"cebpf4jnsgd1na2vs0mg"},{"bike_id":"b1c64411-858a-4403-8b5b-5a95239593e2","system_id":"levelo_inurba_marseille","lat":43.29575,"lon":5.39959,"is_reserved":false,"is_disabled":false,"rental_uris":{"android":"levelo://app?vid=b1c64411-858a-4403-8b5b-5a95239593e2","ios":"levelo://app?vid=b1c64411-858a-4403-8b5b-5a95239593e2"},"vehicle_type_id":"4","last_reported":1774113398,"current_range_meters":8400,"station_id":"ce4bh312rcd13ifvqdj0","pricing_plan_id":"cebpf4jnsgd1na2vs0mg"},{"bike_id":"d65bd890-bd76-40b1-a464-add252f480e6","system_id":"levelo_inurba_marseille","lat":43.31736,"lon":5.38999,"is_reserved":false,"is_disabled":false,"rental_uris":{"android":"levelo://app?vid=d65bd890-bd76-40b1-a464-add252f480e6","ios":"levelo://app?vid=d65bd890-bd76-40b1-a464-add252f480e6"},"vehicle_type_id":"4","last_reported":1774113398,"current_range_meters":8400,"station_id":"ce4bhqp2rcd13ifvqhng","pricing_plan_id":"cebpf4jnsgd1na2vs0mg"},{"bike_id":"67e1f5f0-0006-4bed-ab6b-01d5f1dfc1ff","system_id":"levelo_inurba_marseille","lat":43.28744,"lon":5.35214,"is_reserved":false,"is_disabled":false,"rental_uris":{"android":"levelo://app?vid=67e1f5f0-0006-4bed-ab6b-01d5f1dfc1ff","ios":"levelo://app?vid=67e1f5f0-0006-4bed-ab6b-01d5f1dfc1ff"},"vehicle_type_id":"4","last_reported":1774113398,"current_range_meters":8400,"station_id":"","pricing_plan_id":"cebpf4jnsgd1na2vs0mg"},{"bike_id":"19033bba-4605-4486-bdc9-8668af139914","system_id":"levelo_inurba_marseille","lat":43.23156,"lon":5.43705,"is_reserved":false,"is_disabled":false,"rental_uris":{"android":"levelo://app?vid=19033bba-4605-4486-bdc9-8668af139914","ios":"levelo://app?vid=19033bba-4605-4486-bdc9-8668af139914"},"vehicle_type_id":"4","last_reported":1774113398,"current_range_meters":8400,"station_id":"ce4bhmp2rcd13ifvqgog","pricing_plan_id":"cebpf4jnsgd1na2vs0mg"},{"bike_id":"55d408ca-18ce-409d-b02b-9d36a5fbde81","system_id":"levelo_inurba_marseille","lat":43.29795,"lon":5.38099,"is_reserved":false,"is_disabled":false,"rental_uris":{"android":"levelo://app?vid=55d408ca-18ce-409d-b02b-9d36a5fbde81","ios":"levelo://app?vid=55d408ca-18ce-409d-b02b-9d36a5fbde81"},"vehicle_type_id":"4","last_reported":1774113398,"current_range_meters":8400,"station_id":"ce4bgip2rcd13ifvqbb0","pricing_plan_id":"cebpf4jnsgd1na2vs0mg"},{"bike_id":"789efab7-e151-49c3-b6a7-bd32e94cf0df","system_id":"levelo_inurba_marseille","lat":43.29194,"lon":5.39328,"is_reserved":false,"is_disabled":false,"rental_uris":{"android":"levelo://app?vid=789efab7-e151-49c3-b6a7-bd32e94cf0df","ios":"levelo://app?vid=789efab7-e151-49c3-b6a7-bd32e94cf0df"},"vehicle_type_id":"4","last_reported":1774113398,"current_range_meters":8400,"station_id":"ce4bh192rcd13ifvqdd0","pricing_plan_id":"cebpf4jnsgd1na2vs0mg"},{"bike_id":"60450f91-28f7-421a-8f2d-3d3b117e9d66","system_id":"levelo_inurba_marseille","lat":43.27995,"lon":5.41654,"is_reserved":false,"is_disabled":false,"rental_uris":{"android":"levelo://app?vid=60450f91-28f7-421a-8f2d-3d3b117e9d66","ios":"levelo://app?vid=60450f91-28f7-421a-8f2d-3d3b117e9d66"},"vehicle_type_id":"4","last_reported":1774113398,"current_range_meters":8400,"station_id":"ce4bho12rcd13ifvqh1g","pricing_plan_id":"cebpf4jnsgd1na2vs0mg"},{"bike_id":"efe4b101-a4c2-4a36-bd51-36393273087f","system_id":"levelo_inurba_marseille","lat":43.28486,"lon":5.48406,"is_reserved":false,"is_disabled":false,"rental_uris":{"android":"levelo://app?vid=efe4b101-a4c2-4a36-bd51-36393273087f","ios":"levelo://app?vid=efe4b101-a4c2-4a36-bd51-36393273087f"},"vehicle_type_id":"4","last_reported":1774113398,"current_range_meters":8400,"station_id":"","pricing_plan_id":"cebpf4jnsgd1na2vs0mg"},{"bike_id":"8774d195-f6de-4bb2-b3d2-076300f738cb","system_id":"levelo_inurba_marseille","lat":43.29984,"lon":5.37156,"is_reserved":false,"is_disabled":false,"rental_uris":{"android":"levelo://app?vid=8774d195-f6de-4bb2-b3d2-076300f738cb","ios":"levelo://app?vid=8774d195-f6de-4bb2-b3d2-076300f738cb"},"vehicle_type_id":"4","last_reported":1774113398,"current_range_meters":8400,"station_id":"ce4bgr92rcd13ifvqc7g","pricing_plan_id":"cebpf4jnsgd1na2vs0mg"},{"bike_id":"98267437-172d-4b85-9f40-51631d760029","system_id":"levelo_inurba_marseille","lat":43.29211,"lon":5.3932,"is_reserved":false,"is_disabled":false,"rental_uris":{"android":"levelo://app?vid=98267437-172d-4b85-9f40-51631d760029","ios":"levelo://app?vid=98267437-172d-4b85-9f40-51631d760029"},"vehicle_type_id":"4","last_reported":1774113398,"current_range_meters":8800,"station_id":"ce4bh192rcd13ifvqdd0","pricing_plan_id":"cebpf4jnsgd1na2vs0mg"},{"bike_id":"4c609f1b-bf1f-4e5d-93fd-eab9f8dcc8b5","system_id":"levelo_inurba_marseille","lat":43.29035,"lon":5.3757,"is_reserved":false,"is_disabled":false,"rental_uris":{"android":"levelo://app?vid=4c609f1b-bf1f-4e5d-93fd-eab9f8dcc8b5","ios":"levelo://app?vid=4c609f1b-bf1f-4e5d-93fd-eab9f8dcc8b5"},"vehicle_type_id":"4","last_reported":1774113398,"current_range_meters":8800,"station_id":"ce4bh692rcd13ifvqe90","pricing_plan_id":"cebpf4jnsgd1na2vs0mg"},{"bike_id":"9428c957-f603-4346-9e68-4f9e4a780b24","system_id":"levelo_inurba_marseille","lat":43.21753,"lon":5.34593,"is_reserved":false,"is_disabled":true,"rental_uris":{"android":"levelo://app?vid=9428c957-f603-4346-9e68-4f9e4a780b24","ios":"levelo://app?vid=9428c957-f603-4346-9e68-4f9e4a780b24"},"vehicle_type_id":"4","last_reported":1774113398,"current_range_meters":8800,"station_id":"st_cvj6r9ubvosntc0bgbag","pricing_plan_id":"cebpf4jnsgd1na2vs0mg"},{"bike_id":"62ccf4a8-0426-42c8-92c7-60b92e2221c9","system_id":"levelo_inurba_marseille","lat":43.28454,"lon":5.48449,"is_reserved":false,"is_disabled":false,"rental_uris":{"android":"levelo://app?vid=62ccf4a8-0426-42c8-92c7-60b92e2221c9","ios":"levelo://app?vid=62ccf4a8-0426-42c8-92c7-60b92e2221c9"},"vehicle_type_id":"4","last_reported":1774113398,"current_range_meters":8800,"station_id":"st_d3svhcjqgbts73a3dn0g","pricing_plan_id":"cebpf4jnsgd1na2vs0mg"},{"bike_id":"b6fffe2f-9423-41b9-a53f-4ddbccd10965","system_id":"levelo_inurba_marseille","lat":43.33533,"lon":5.37486,"is_reserved":false,"is_disabled":false,"rental_uris":{"android":"levelo://app?vid=b6fffe2f-9423-41b9-a53f-4ddbccd10965","ios":"levelo://app?vid=b6fffe2f-9423-41b9-a53f-4ddbccd10965"},"vehicle_type_id":"4","last_reported":1774113398,"current_range_meters":8800,"station_id":"st_d46tts09ee8s73dlu43g","pricing_plan_id":"cebpf4jnsgd1na2vs0mg"},{"bike_id":"c95c7dc0-a1ca-44d6-91a8-fee51c60aaa3","system_id":"levelo_inurba_marseille","lat":43.30562,"lon":5.38424,"is_reserved":false,"is_disabled":false,"rental_uris":{"android":"levelo://app?vid=c95c7dc0-a1ca-44d6-91a8-fee51c60aaa3","ios":"levelo://app?vid=c95c7dc0-a1ca-44d6-91a8-fee51c60aaa3"},"vehicle_type_id":"4","last_reported":1774113398,"current_range_meters":8800,"station_id":"ce4bgg92rcd13ifvqb30","pricing_plan_id":"cebpf4jnsgd1na2vs0mg"},{"bike_id":"7b0f0f3b-2681-48b9-a05a-ce2124e68777","system_id":"levelo_inurba_marseille","lat":43.23889,"lon":5.37454,"is_reserved":false,"is_disabled":false,"rental_uris":{"android":"levelo://app?vid=7b0f0f3b-2681-48b9-a05a-ce2124e68777","ios":"levelo://app?vid=7b0f0f3b-2681-48b9-a05a-ce2124e68777"},"vehicle_type_id":"4","last_reported":1774113398,"current_range_meters":8800,"station_id":"st_d6sm7csbq4hs73f8fpjg","pricing_plan_id":"cebpf4jnsgd1na2vs0mg"},{"bike_id":"fd31280b-87a6-4b99-8f5a-445024fb9e43","system_id":"levelo_inurba_marseille","lat":43.29853,"lon":5.36275,"is_reserved":false,"is_disabled":false,"rental_uris":{"android":"levelo://app?vid=fd31280b-87a6-4b99-8f5a-445024fb9e43","ios":"levelo://app?vid=fd31280b-87a6-4b99-8f5a-445024fb9e43"},"vehicle_type_id":"4","last_reported":1774113398,"current_range_meters":8800,"station_id":"ce4bgpp2rcd13ifvqc3g","pricing_plan_id":"cebpf4jnsgd1na2vs0mg"},{"bike_id":"f84df946-1fe9-4d68-b54f-3a23cc20fde7","system_id":"levelo_inurba_marseille","lat":43.29881,"lon":5.42104,"is_reserved":false,"is_disabled":false,"rental_uris":{"android":"levelo://app?vid=f84df946-1fe9-4d68-b54f-3a23cc20fde7","ios":"levelo://app?vid=f84df946-1fe9-4d68-b54f-3a23cc20fde7"},"vehicle_type_id":"4","last_reported":1774113398,"current_range_meters":8800,"station_id":"st_d6tc004otcvc738tfe70","pricing_plan_id":"cebpf4jnsgd1na2vs0mg"},{"bike_id":"22e36c3c-f900-4a5a-baa3-5ad9f551dc1b","system_id":"levelo_inurba_marseille","lat":43.29016,"lon":5.38632,"is_reserved":false,"is_disabled":false,"rental_uris":{"android":"levelo://app?vid=22e36c3c-f900-4a5a-baa3-5ad9f551dc1b","ios":"levelo://app?vid=22e36c3c-f900-4a5a-baa3-5ad9f551dc1b"},"vehicle_type_id":"4","last_reported":1774113398,"current_range_meters":8800,"station_id":"ce4bh4p2rcd13ifvqe0g","pricing_plan_id":"cebpf4jnsgd1na2vs0mg"},{"bike_id":"eb74fa1f-d519-473e-af9f-9829d43070ea","system_id":"levelo_inurba_marseille","lat":43.299745,"lon":5.371838,"is_reserved":false,"is_disabled":false,"rental_uris":{"android":"levelo://app?vid=eb74fa1f-d519-473e-af9f-9829d43070ea","ios":"levelo://app?vid=eb74fa1f-d519-473e-af9f-9829d43070ea"},"vehicle_type_id":"4","last_reported":1774113398,"current_range_meters":8800,"station_id":"ce4bgr92rcd13ifvqc7g","pricing_plan_id":"cebpf4jnsgd1na2vs0mg"},{"bike_id":"7dcde2ab-9323-4081-aed2-dd4348903c44","system_id":"levelo_inurba_marseille","lat":43.29579,"lon":5.39992,"is_reserved":false,"is_disabled":false,"rental_uris":{"android":"levelo://app?vid=7dcde2ab-9323-4081-aed2-dd4348903c44","ios":"levelo://app?vid=7dcde2ab-9323-4081-aed2-dd4348903c44"},"vehicle_type_id":"4","last_reported":1774113398,"current_range_meters":8800,"station_id":"ce4bh312rcd13ifvqdj0","pricing_plan_id":"cebpf4jnsgd1na2vs0mg"},{"bike_id":"8aae69ee-1386-423b-94ef-ac35e377a153","system_id":"levelo_inurba_marseille","lat":43.30021,"lon":5.36561,"is_reserved":false,"is_disabled":false,"rental_uris":{"android":"levelo://app?vid=8aae69ee-1386-423b-94ef-ac35e377a153","ios":"levelo://app?vid=8aae69ee-1386-423b-94ef-ac35e377a153"},"vehicle_type_id":"4","last_reported":1774113398,"current_range_meters":8800,"station_id":"","pricing_plan_id":"cebpf4jnsgd1na2vs0mg"},{"bike_id":"b19a626a-93cd-41bf-8d4f-8b63d7aeec08","system_id":"levelo_inurba_marseille","lat":43.3012,"lon":5.439,"is_reserved":false,"is_disabled":false,"rental_uris":{"android":"levelo://app?vid=b19a626a-93cd-41bf-8d4f-8b63d7aeec08","ios":"levelo://app?vid=b19a626a-93cd-41bf-8d4f-8b63d7aeec08"},"vehicle_type_id":"4","last_reported":1774113398,"current_range_meters":8800,"station_id":"","pricing_plan_id":"cebpf4jnsgd1na2vs0mg"},{"bike_id":"8827da7c-4553-4e45-8b96-33f6c2699a52","system_id":"levelo_inurba_marseille","lat":43.21743,"lon":5.34623,"is_reserved":false,"is_disabled":true,"rental_uris":{"android":"levelo://app?vid=8827da7c-4553-4e45-8b96-33f6c2699a52","ios":"levelo://app?vid=8827da7c-4553-4e45-8b96-33f6c2699a52"},"vehicle_type_id":"4","last_reported":1774113398,"current_range_meters":8800,"station_id":"st_cvj6r9ubvosntc0bgbag","pricing_plan_id":"cebpf4jnsgd1na2vs0mg"},{"bike_id":"5983d0de-1c77-4b28-adc0-5b2495683747","system_id":"levelo_inurba_marseille","lat":43.29684,"lon":5.37294,"is_reserved":false,"is_disabled":false,"rental_uris":{"android":"levelo://app?vid=5983d0de-1c77-4b28-adc0-5b2495683747","ios":"levelo://app?vid=5983d0de-1c77-4b28-adc0-5b2495683747"},"vehicle_type_id":"4","last_reported":1774113398,"current_range_meters":8800,"station_id":"ce4bgk12rcd13ifvqbj0","pricing_plan_id":"cebpf4jnsgd1na2vs0mg"},