{"last_updated":1769617401,"ttl":60,"version":"2.2","data":{"bikes":[{"bike_id":"954f219f-17bd-4a32-93cc-2c1d526f0bc0","system_id":"levelo_inurba_marseille","lat":43.27876,"lon":5.388057,"is_reserved":false,"is_disabled":false,"rental_uris":{"android":"levelo://app?vid=954f219f-17bd-4a32-93cc-2c1d526f0bc0","ios":"levelo://app?vid=954f219f-17bd-4a32-93cc-2c1d526f0bc0"},"vehicle_type_id":"4","last_reported":1769617402,"current_range_meters":2800,"station_id":"","pricing_plan_id":"cebpf4jnsgd1na2vs0mg"},{"bike_id":"b1c835b9-d1b0-4420-b1bf-6cfd071e73dc","system_id":"levelo_inurba_marseille","lat":43.24809,"lon":5.374435,"is_reserved":false,"is_disabled":false,"rental_uris":{"android":"levelo://app?vid=b1c835b9-d1b0-4420-b1bf-6cfd071e73dc","ios":"levelo://app?vid=b1c835b9-d1b0-4420-b1bf-6cfd071e73dc"},"vehicle_type_id":"4","last_reported":1769617402,"current_range_meters":2800,"station_id":"ce4bhgh2rcd13ifvqfb0","pricing_plan_id":"cebpf4jnsgd1na2vs0mg"},{"bike_id":"a4197ac1-f17c-4dde-8532-d7c6e6881287","system_id":"levelo_inurba_marseille","lat":43.23179,"lon":5.35561,"is_reserved":false,"is_disabled":false,"rental_uris":{"android":"levelo://app?vid=a4197ac1-f17c-4dde-8532-d7c6e6881287","ios":"levelo://app?vid=a4197ac1-f17c-4dde-8532-d7c6e6881287"},"vehicle_type_id":"4","last_reported":1769617402,"current_range_meters":2800,"station_id":"ce4bhu92rcd13ifvqi70","pricing_plan_id":"cebpf4jnsgd1na2vs0mg"},{"bike_id":"2d341e68-8682-48ca-86e7-ace06645ef34","system_id":"levelo_inurba_marseille","lat":43.24475,"lon":5.42534,"is_reserved":false,"is_disabled":false,"rental_uris":{"android":"levelo://app?vid=2d341e68-8682-48ca-86e7-ace06645ef34","ios":"levelo://app?vid=2d341e68-8682-48ca-86e7-ace06645ef34"},"vehicle_type_id":"4","last_reported":1769617402,"current_range_meters":2800,"station_id":"st_d4a3vfp97mjs738cd8kg","pricing_plan_id":"cebpf4jnsgd1na2vs0mg"},{"bike_id":"72e1ff24-6af7-4c0e-a0b5-18d5a81f63fe","system_id":"levelo_inurba_marseille","lat":43.27945,"lon":5.41057,"is_reserved":false,"is_disabled":false,"rental_uris":{"android":"levelo://app?vid=72e1ff24-6af7-4c0e-a0b5-18d5a81f63fe","ios":"levelo://app?vid=72e1ff24-6af7-4c0e-a0b5-18d5a81f63fe"},"vehicle_type_id":"4","last_reported":1769617402,"current_range_meters":2800,"station_id":"ce4bhnp2rcd13ifvqh0g","pricing_plan_id":"cebpf4jnsgd1na2vs0mg"},{"bike_id":"7d9982a5-bc45-4237-abe2-f8a80718bcf2","system_id":"levelo_inurba_marseille","lat":43.331636,"lon":5.376841,"is_reserved":false,"is_disabled":false,"rental_uris":{"android":"levelo://app?vid=7d9982a5-bc45-4237-abe2-f8a80718bcf2","ios":"levelo://app?vid=7d9982a5-bc45-4237-abe2-f8a80718bcf2"},"vehicle_type_id":"4","last_reported":1769617402,"current_range_meters":2800,"station_id":"st_d46cu089ee8s73dldbu0","pricing_plan_id":"cebpf4jnsgd1na2vs0mg"},{"bike_id":"4b3417a6-1f1f-4163-87a9-5c0d16767f2a","system_id":"levelo_inurba_marseille","lat":43.28482,"lon":5.48394,"is_reserved":false,"is_disabled":false,"rental_uris":{"android":"levelo://app?vid=4b3417a6-1f1f-4163-87a9-5c0d16767f2a","ios":"levelo://app?vid=4b3417a6-1f1f-4163-87a9-5c0d16767f2a"},"vehicle_type_id":"4","last_reported":1769617402,"current_range_meters":2800,"station_id":"st_d3svhcjqgbts73a3dn0g","pricing_plan_id":"cebpf4jnsgd1na2vs0mg"},{"bike_id":"877463e4-dfb6-40ef-9c0b-c1678ffc3e71","system_id":"levelo_inurba_marseille","lat":43.29064,"lon":5.37154,"is_reserved":false,"is_disabled":false,"rental_uris":{"android":"levelo://app?vid=877463e4-dfb6-40ef-9c0b-c1678ffc3e71","ios":"levelo://app?vid=877463e4-dfb6-40ef-9c0b-c1678ffc3e71"},"vehicle_type_id":"4","last_reported":1769617402,"current_range_meters":2800,"station_id":"ce4bh5p2rcd13ifvqe4g","pricing_plan_id":"cebpf4jnsgd1na2vs0mg"},{"bike_id":"03260b8b-dda8-412c-a7d4-f6232edc5d5b","system_id":"levelo_inurba_marseille","lat":43.29257,"lon":5.36854,"is_reserved":false,"is_disabled":false,"rental_uris":{"android":"levelo://app?vid=03260b8b-dda8-412c-a7d4-f6232edc5d5b","ios":"levelo://app?vid=03260b8b-dda8-412c-a7d4-f6232edc5d5b"},"vehicle_type_id":"4","last_reported":1769617402,"current_range_meters":2800,"station_id":"ce4bhbp2rcd13ifvqesg","pricing_plan_id":"cebpf4jnsgd1na2vs0mg"},{"bike_id":"e8af0cda-96bf-4fbc-a8f7-5b44c326731a","system_id":"levelo_inurba_marseille","lat":43.3053,"lon":5.36545,"is_reserved":false,"is_disabled":false,"rental_uris":{"android":"levelo://app?vid=e8af0cda-96bf-4fbc-a8f7-5b44c326731a","ios":"levelo://app?vid=e8af0cda-96bf-4fbc-a8f7-5b44c326731a"},"vehicle_type_id":"4","last_reported":1769617402,"current_range_meters":2800,"station_id":"ce4bgs12rcd13ifvqcag","pricing_plan_id":"cebpf4jnsgd1na2vs0mg"},{"bike_id":"78ca3fa5-5325-4fd9-b6b5-1bb6bd866233","system_id":"levelo_inurba_marseille","lat":43.26217,"lon":5.40435,"is_reserved":false,"is_disabled":false,"rental_uris":{"android":"levelo://app?vid=78ca3fa5-5325-4fd9-b6b5-1bb6bd866233","ios":"levelo://app?vid=78ca3fa5-5325-4fd9-b6b5-1bb6bd866233"},"vehicle_type_id":"4","last_reported":1769617402,"current_range_meters":3200,"station_id":"ce4bhmh2rcd13ifvqgmg","pricing_plan_id":"cebpf4jnsgd1na2vs0mg"},{"bike_id":"b0d26d6e-9e03-40c6-8895-c102d19e080c","system_id":"levelo_inurba_marseille","lat":43.32049,"lon":5.41523,"is_reserved":false,"is_disabled":false,"rental_uris":{"android":"levelo://app?vid=b0d26d6e-9e03-40c6-8895-c102d19e080c","ios":"levelo://app?vid=b0d26d6e-9e03-40c6-8895-c102d19e080c"},"vehicle_type_id":"4","last_reported":1769617402,"current_range_meters":3200,"station_id":"ce4bhq92rcd13ifvqhkg","pricing_plan_id":"cebpf4jnsgd1na2vs0mg"},{"bike_id":"d5188e92-ca36-42ed-a180-8630ed321f75","system_id":"levelo_inurba_marseille","lat":43.28699,"lon":5.37947,"is_reserved":false,"is_disabled":false,"rental_uris":{"android":"levelo://app?vid=d5188e92-ca36-42ed-a180-8630ed321f75","ios":"levelo://app?vid=d5188e92-ca36-42ed-a180-8630ed321f75"},"vehicle_type_id":"4","last_reported":1769617402,"current_range_meters":3200,"station_id":"ce4bh9p2rcd13ifvqec0","pricing_plan_id":"cebpf4jnsgd1na2vs0mg"},{"bike_id":"4f20eb8a-5ce0-4add-a816-58a1ea92c20b","system_id":"levelo_inurba_marseille","lat":43.282654,"lon":5.350586,"is_reserved":false,"is_disabled":false,"rental_uris":{"android":"levelo://app?vid=4f20eb8a-5ce0-4add-a816-58a1ea92c20b","ios":"levelo://app?vid=4f20eb8a-5ce0-4add-a816-58a1ea92c20b"},"vehicle_type_id":"4","last_reported":1769617402,"current_range_meters":3200,"station_id":"ce4bhbp2rcd13ifvqerg","pricing_plan_id":"cebpf4jnsgd1na2vs0mg"},{"bike_id":"ea7add94-21b7-450b-8bdf-3367973fb259","system_id":"levelo_inurba_marseille","lat":43.30535,"lon":5.3672,"is_reserved":false,"is_disabled":false,"rental_uris":{"android":"levelo://app?vid=ea7add94-21b7-450b-8bdf-3367973fb259","ios":"levelo://app?vid=ea7add94-21b7-450b-8bdf-3367973fb259"},"vehicle_type_id":"4","last_reported":1769617402,"current_range_meters":3600,"station_id":"ce4bgrp2rcd13ifvqc9g","pricing_plan_id":"cebpf4jnsgd1na2vs0mg"},{"bike_id":"51b8f39f-e87e-4327-a9b7-dad481cf0cba","system_id":"levelo_inurba_marseille","lat":43.23786,"lon":5.36636,"is_reserved":false,"is_disabled":false,"rental_uris":{"android":"levelo://app?vid=51b8f39f-e87e-4327-a9b7-dad481cf0cba","ios":"levelo://app?vid=51b8f39f-e87e-4327-a9b7-dad481cf0cba"},"vehicle_type_id":"4","last_reported":1769617402,"current_range_meters":3600,"station_id":"st_d3nk18o9ro0c73en2l3g","pricing_plan_id":"cebpf4jnsgd1na2vs0mg"},{"bike_id":"8a225959-9028-4e8e-bb41-43f7382c386a","system_id":"levelo_inurba_marseille","lat":43.25443,"lon":5.39569,"is_reserved":false,"is_disabled":false,"rental_uris":{"android":"levelo://app?vid=8a225959-9028-4e8e-bb41-43f7382c386a","ios":"levelo://app?vid=8a225959-9028-4e8e-bb41-43f7382c386a"},"vehicle_type_id":"4","last_reported":1769617402,"current_range_meters":3600,"station_id":"","pricing_plan_id":"cebpf4jnsgd1na2vs0mg"},{"bike_id":"855bf75b-12ae-4b2a-92a8-861a6f8702b2","system_id":"levelo_inurba_marseille","lat":43.23157,"lon":5.4371,"is_reserved":false,"is_disabled":false,"rental_uris":{"android":"levelo://app?vid=855bf75b-12ae-4b2a-92a8-861a6f8702b2","ios":"levelo://app?vid=855bf75b-12ae-4b2a-92a8-861a6f8702b2"},"vehicle_type_id":"4","last_reported":1769617402,"current_range_meters":3600,"station_id":"ce4bhmp2rcd13ifvqgog","pricing_plan_id":"cebpf4jnsgd1na2vs0mg"},{"bike_id":"0e3e56a8-c028-4a2f-88ed-6334be577f88","system_id":"levelo_inurba_marseille","lat":43.2314,"lon":5.43683,"is_reserved":false,"is_disabled":false,"rental_uris":{"android":"levelo://app?vid=0e3e56a8-c028-4a2f-88ed-6334be577f88","ios":"levelo://app?vid=0e3e56a8-c028-4a2f-88ed-6334be577f88"},"vehicle_type_id":"4","last_reported":1769617402,"current_range_meters":3600,"station_id":"ce4bhmp2rcd13ifvqgog","pricing_plan_id":"cebpf4jnsgd1na2vs0mg"},{"bike_id":"a885bc2c-3e2a-4fa8-a7be-4cc367f5e077","system_id":"levelo_inurba_marseille","lat":43.28463,"lon":5.35889,"is_reserved":false,"is_disabled":false,"rental_uris":{"android":"levelo://app?vid=a885bc2c-3e2a-4fa8-a7be-4cc367f5e077","ios":"levelo://app?vid=a885bc2c-3e2a-4fa8-a7be-4cc367f5e077"},"vehicle_type_id":"4","last_reported":1769617402,"current_range_meters":3600,"station_id":"ce4bhah2rcd13ifvqei0","pricing_plan_id":"cebpf4jnsgd1na2vs0mg"},{"bike_id":"db91af1c-8610-46d2-8811-cba210a8ff4f","system_id":"levelo_inurba_marseille","lat":43.33291,"lon":5.37964,"is_reserved":false,"is_disabled":false,"rental_uris":{"android":"levelo://app?vid=db91af1c-8610-46d2-8811-cba210a8ff4f","ios":"levelo://app?vid=db91af1c-8610-46d2-8811-cba210a8ff4f"},"vehicle_type_id":"4","last_reported":1769617402,"current_range_meters":3600,"station_id":"","pricing_plan_id":"cebpf4jnsgd1na2vs0mg"},{"bike_id":"caf214c6-f51e-422f-a150-65a2d01f29fe","system_id":"levelo_inurba_marseille","lat":43.33284,"lon":5.36624,"is_reserved":false,"is_disabled":false,"rental_uris":{"android":"levelo://app?vid=caf214c6-f51e-422f-a150-65a2d01f29fe","ios":"levelo://app?vid=caf214c6-f51e-422f-a150-65a2d01f29fe"},"vehicle_type_id":"4","last_reported":1769617402,"current_range_meters":3600,"station_id":"","pricing_plan_id":"cebpf4jnsgd1na2vs0mg"},{"bike_id":"730f088c-00d8-4b8f-a391-1a0afdcd34ad","system_id":"levelo_inurba_marseille","lat":43.25937,"lon":5.40912,"is_reserved":false,"is_disabled":false,"rental_uris":{"android":"levelo://app?vid=730f088c-00d8-4b8f-a391-1a0afdcd34ad","ios":"levelo://app?vid=730f088c-00d8-4b8f-a391-1a0afdcd34ad"},"vehicle_type_id":"4","last_reported":1769617402,"current_range_meters":4000,"station_id":"ce4bhm92rcd13ifvqglg","pricing_plan_id":"cebpf4jnsgd1na2vs0mg"},{"bike_id":"0538aed0-5895-4571-818b-3184e6ee8f33","system_id":"levelo_inurba_marseille","lat":43.24964,"lon":5.40494,"is_reserved":false,"is_disabled":false,"rental_uris":{"android":"levelo://app?vid=0538aed0-5895-4571-818b-3184e6ee8f33","ios":"levelo://app?vid=0538aed0-5895-4571-818b-3184e6ee8f33"},"vehicle_type_id":"4","last_reported":1769617402,"current_range_meters":4000,"station_id":"st_d2ngiaodas8pm72gd1h0","pricing_plan_id":"cebpf4jnsgd1na2vs0mg"},{"bike_id":"76993b8c-53e6-47a7-8ed7-6cbf06cde4d9","system_id":"levelo_inurba_marseille","lat":43.23184,"lon":5.3999,"is_reserved":false,"is_disabled":false,"rental_uris":{"android":"levelo://app?vid=76993b8c-53e6-47a7-8ed7-6cbf06cde4d9","ios":"levelo://app?vid=76993b8c-53e6-47a7-8ed7-6cbf06cde4d9"},"vehicle_type_id":"4","last_reported":1769617402,"current_range_meters":4000,"station_id":"ce4bhn12rcd13ifvqgqg","pricing_plan_id":"cebpf4jnsgd1na2vs0mg"},{"bike_id":"773a0794-9608-48d0-ac87-744f6b7bca0d","system_id":"levelo_inurba_marseille","lat":43.22561,"lon":5.41633,"is_reserved":false,"is_disabled":false,"rental_uris":{"android":"levelo://app?vid=773a0794-9608-48d0-ac87-744f6b7bca0d","ios":"levelo://app?vid=773a0794-9608-48d0-ac87-744f6b7bca0d"},"vehicle_type_id":"4","last_reported":1769617402,"current_range_meters":4000,"station_id":"st_d2o4gvlbi1j2169b742g","pricing_plan_id":"cebpf4jnsgd1na2vs0mg"},{"bike_id":"38939492-5112-461d-8788-f383260a8286","system_id":"levelo_inurba_marseille","lat":43.331601,"lon":5.37696,"is_reserved":false,"is_disabled":false,"rental_uris":{"android":"levelo://app?vid=38939492-5112-461d-8788-f383260a8286","ios":"levelo://app?vid=38939492-5112-461d-8788-f383260a8286"},"vehicle_type_id":"4","last_reported":1769617402,"current_range_meters":4000,"station_id":"st_d46cu089ee8s73dldbu0","pricing_plan_id":"cebpf4jnsgd1na2vs0mg"},{"bike_id":"958b43fb-8c80-4692-977b-3f50e641a707","system_id":"levelo_inurba_marseille","lat":43.25944,"lon":5.40904,"is_reserved":false,"is_disabled":false,"rental_uris":{"android":"levelo://app?vid=958b43fb-8c80-4692-977b-3f50e641a707","ios":"levelo://app?vid=958b43fb-8c80-4692-977b-3f50e641a707"},"vehicle_type_id":"4","last_reported":1769617402,"current_range_meters":4000,"station_id":"ce4bhm92rcd13ifvqglg","pricing_plan_id":"cebpf4jnsgd1na2vs0mg"},{"bike_id":"2e77998e-c517-4f35-8821-169fc0fea54e","system_id":"levelo_inurba_marseille","lat":43.23192,"lon":5.35551,"is_reserved":false,"is_disabled":false,"rental_uris":{"android":"levelo://app?vid=2e77998e-c517-4f35-8821-169fc0fea54e","ios":"levelo://app?vid=2e77998e-c517-4f35-8821-169fc0fea54e"},"vehicle_type_id":"4","last_reported":1769617402,"current_range_meters":4000,"station_id":"ce4bhu92rcd13ifvqi70","pricing_plan_id":"cebpf4jnsgd1na2vs0mg"},{"bike_id":"fa9cdf49-3805-4429-be46-3d158a754724","system_id":"levelo_inurba_marseille","lat":43.31649,"lon":5.37714,"is_reserved":false,"is_disabled":false,"rental_uris":{"android":"levelo://app?vid=fa9cdf49-3805-4429-be46-3d158a754724","ios":"levelo://app?vid=fa9cdf49-3805-4429-be46-3d158a754724"},"vehicle_type_id":"4","last_reported":1769617402,"current_range_meters":4400,"station_id":"ce4bgth2rcd13ifvqch0","pricing_plan_id":"cebpf4jnsgd1na2vs0mg"},{"bike_id":"d2c4eb74-42b0-4647-9a1a-00c8b86dfe4c","system_id":"levelo_inurba_marseille","lat":43.25835,"lon":5.39442,"is_reserved":false,"is_disabled":false,"rental_uris":{"android":"levelo://app?vid=d2c4eb74-42b0-4647-9a1a-00c8b86dfe4c","ios":"levelo://app?vid=d2c4eb74-42b0-4647-9a1a-00c8b86dfe4c"},"vehicle_type_id":"4","last_reported":1769617402,"current_range_meters":4400,"station_id":"ce4bhip2rcd13ifvqft0","pricing_plan_id":"cebpf4jnsgd1na2vs0mg"},{"bike_id":"5b541917-86b0-46e9-b782-3fdbd5f814c3","system_id":"levelo_inurba_marseille","lat":43.276809,"lon":5.388813,"is_reserved":false,"is_disabled":false,"rental_uris":{"android":"levelo://app?vid=5b541917-86b0-46e9-b782-3fdbd5f814c3","ios":"levelo://app?vid=5b541917-86b0-46e9-b782-3fdbd5f814c3"},"vehicle_type_id":"4","last_reported":1769617402,"current_range_meters":4400,"station_id":"ce4bhi12rcd13ifvqfo0","pricing_plan_id":"cebpf4jnsgd1na2vs0mg"},{"bike_id":"0a38684b-08e5-4ddd-8c04-5fbf7bea7235","system_id":"levelo_inurba_marseille","lat":43.28924,"lon":5.38368,"is_reserved":false,"is_disabled":false,"rental_uris":{"android":"levelo://app?vid=0a38684b-08e5-4ddd-8c04-5fbf7bea7235","ios":"levelo://app?vid=0a38684b-08e5-4ddd-8c04-5fbf7bea7235"},"vehicle_type_id":"4","last_reported":1769617402,"current_range_meters":4400,"station_id":"ce4bh612rcd13ifvqe6g","pricing_plan_id":"cebpf4jnsgd1na2vs0mg"},{"bike_id":"832ba7eb-1c35-43cb-be63-61f58639df63","system_id":"levelo_inurba_marseille","lat":43.32351,"lon":5.3672,"is_reserved":false,"is_disabled":false,"rental_uris":{"android":"levelo://app?vid=832ba7eb-1c35-43cb-be63-61f58639df63","ios":"levelo://app?vid=832ba7eb-1c35-43cb-be63-61f58639df63"},"vehicle_type_id":"4","last_reported":1769617402,"current_range_meters":4400,"station_id":"ce4bhsh2rcd13ifvqi2g","pricing_plan_id":"cebpf4jnsgd1na2vs0mg"},{"bike_id":"f69d2706-6b44-497c-bcf4-d72a9214a23a","system_id":"levelo_inurba_marseille","lat":43.30789,"lon":5.38158,"is_reserved":false,"is_disabled":false,"rental_uris":{"android":"levelo://app?vid=f69d2706-6b44-497c-bcf4-d72a9214a23a","ios":"levelo://app?vid=f69d2706-6b44-497c-bcf4-d72a9214a23a"},"vehicle_type_id":"4","last_reported":1769617402,"current_range_meters":4400,"station_id":"ce4bgt12rcd13ifvqce0","pricing_plan_id":"cebpf4jnsgd1na2vs0mg"},{"bike_id":"71042b96-000f-4e7a-bb56-f5d8e1c37566","system_id":"levelo_inurba_marseille","lat":43.307116,"lon":5.367907,"is_reserved":false,"is_disabled":false,"rental_uris":{"android":"levelo://app?vid=71042b96-000f-4e7a-bb56-f5d8e1c37566","ios":"levelo://app?vid=71042b96-000f-4e7a-bb56-f5d8e1c37566"},"vehicle_type_id":"4","last_reported":1769617402,"current_range_meters":4400,"station_id":"ce4bgn92rcd13ifvqbvg","pricing_plan_id":"cebpf4jnsgd1na2vs0mg"},{"bike_id":"d67982e4-367b-4d59-b226-5a77071a59c6","system_id":"levelo_inurba_marseille","lat":43.29199,"lon":5.39335,"is_reserved":false,"is_disabled":false,"rental_uris":{"android":"levelo://app?vid=d67982e4-367b-4d59-b226-5a77071a59c6","ios":"levelo://app?vid=d67982e4-367b-4d59-b226-5a77071a59c6"},"vehicle_type_id":"4","last_reported":1769617402,"current_range_meters":4400,"station_id":"ce4bh192rcd13ifvqdd0","pricing_plan_id":"cebpf4jnsgd1na2vs0mg"},{"bike_id":"3bc5eb93-5e52-4f30-bca7-1c72bb708566","system_id":"levelo_inurba_marseille","lat":43.30891,"lon":5.37182,"is_reserved":false,"is_disabled":false,"rental_uris":{"android":"levelo://app?vid=3bc5eb93-5e52-4f30-bca7-1c72bb708566","ios":"levelo://app?vid=3bc5eb93-5e52-4f30-bca7-1c72bb708566"},"vehicle_type_id":"4","last_reported":1769617402,"current_range_meters":4800,"station_id":"ce4bguh2rcd13ifvqckg","pricing_plan_id":"cebpf4jnsgd1na2vs0mg"},{"bike_id":"c9b350f9-bfc8-4c03-9fe6-afb0d3d9333f","system_id":"levelo_inurba_marseille","lat":43.30146,"lon":5.37433,"is_reserved":false,"is_disabled":false,"rental_uris":{"android":"levelo://app?vid=c9b350f9-bfc8-4c03-9fe6-afb0d3d9333f","ios":"levelo://app?vid=c9b350f9-bfc8-4c03-9fe6-afb0d3d9333f"},"vehicle_type_id":"4","last_reported":1769617402,"current_range_meters":4800,"station_id":"ce4bgs92rcd13ifvqcc0","pricing_plan_id":"cebpf4jnsgd1na2vs0mg"},{"bike_id":"923a0213-2b7b-477c-bb83-1a555326fabe","system_id":"levelo_inurba_marseille","lat":43.23157,"lon":5.43733,"is_reserved":false,"is_disabled":false,"rental_uris":{"android":"levelo://app?vid=923a0213-2b7b-477c-bb83-1a555326fabe","ios":"levelo://app?vid=923a0213-2b7b-477c-bb83-1a555326fabe"},"vehicle_type_id":"4","last_reported":1769617402,"current_range_meters":4800,"station_id":"ce4bhmp2rcd13ifvqgog","pricing_plan_id":"cebpf4jnsgd1na2vs0mg"},{"bike_id":"f71ecb27-b337-421a-ad97-4ddf3e30a0bc","system_id":"levelo_inurba_marseille","lat":43.28444,"lon":5.39205,"is_reserved":false,"is_disabled":false,"rental_uris":{"android":"levelo://app?vid=f71ecb27-b337-421a-ad97-4ddf3e30a0bc","ios":"levelo://app?vid=f71ecb27-b337-421a-ad97-4ddf3e30a0bc"},"vehicle_type_id":"4","last_reported":1769617402,"current_range_meters":4800,"station_id":"ce4bhoh2rcd13ifvqh5g","pricing_plan_id":"cebpf4jnsgd1na2vs0mg"},{"bike_id":"5204475b-2a81-4751-94d0-9c433ad9057c","system_id":"levelo_inurba_marseille","lat":43.270715,"lon":5.422874,"is_reserved":false,"is_disabled":false,"rental_uris":{"android":"levelo://app?vid=5204475b-2a81-4751-94d0-9c433ad9057c","ios":"levelo://app?vid=5204475b-2a81-4751-94d0-9c433ad9057c"},"vehicle_type_id":"4","last_reported":1769617402,"current_range_meters":4800,"station_id":"ce4bhk92rcd13ifvqgb0","pricing_plan_id":"cebpf4jnsgd1na2vs0mg"},{"bike_id":"30d5ad6b-daa5-4699-ad03-8950354a49a5","system_id":"levelo_inurba_marseille","lat":43.32121,"lon":5.36778,"is_reserved":false,"is_disabled":false,"rental_uris":{"android":"levelo://app?vid=30d5ad6b-daa5-4699-ad03-8950354a49a5","ios":"levelo://app?vid=30d5ad6b-daa5-4699-ad03-8950354a49a5"},"vehicle_type_id":"4","last_reported":1769617402,"current_range_meters":4800,"station_id":"ce4bhrh2rcd13ifvqhug","pricing_plan_id":"cebpf4jnsgd1na2vs0mg"},{"bike_id":"ff53f9d5-5f7e-430d-99ce-acc6122108c3","system_id":"levelo_inurba_marseille","lat":43.248092,"lon":5.374602,"is_reserved":false,"is_disabled":false,"rental_uris":{"android":"levelo://app?vid=ff53f9d5-5f7e-430d-99ce-acc6122108c3","ios":"levelo://app?vid=ff53f9d5-5f7e-430d-99ce-acc6122108c3"},"vehicle_type_id":"4","last_reported":1769617402,"current_range_meters":5600,"station_id":"ce4bhgh2rcd13ifvqfb0","pricing_plan_id":"cebpf4jnsgd1na2vs0mg"},{"bike_id":"8de525a9-5bd3-43a9-9291-a02ed36bbc58","system_id":"levelo_inurba_marseille","lat":43.33162,"lon":5.37693,"is_reserved":false,"is_disabled":false,"rental_uris":{"android":"levelo://app?vid=8de525a9-5bd3-43a9-9291-a02ed36bbc58","ios":"levelo://app?vid=8de525a9-5bd3-43a9-9291-a02ed36bbc58"},"vehicle_type_id":"4","last_reported":1769617402,"current_range_meters":5600,"station_id":"st_d46cu089ee8s73dldbu0","pricing_plan_id":"cebpf4jnsgd1na2vs0mg"},{"bike_id":"4d0a9454-f376-4ca0-88d1-9e080164d60d","system_id":"levelo_inurba_marseille","lat":43.24798,"lon":5.37452,"is_reserved":false,"is_disabled":false,"rental_uris":{"android":"levelo://app?vid=4d0a9454-f376-4ca0-88d1-9e080164d60d","ios":"levelo://app?vid=4d0a9454-f376-4ca0-88d1-9e080164d60d"},"vehicle_type_id":"4","last_reported":1769617402,"current_range_meters":5600,"station_id":"ce4bhgh2rcd13ifvqfb0","pricing_plan_id":"cebpf4jnsgd1na2vs0mg"},{"bike_id":"5432d7a0-1700-4fbb-98da-e9587b56686e","system_id":"levelo_inurba_marseille","lat":43.27607,"lon":5.36104,"is_reserved":false,"is_disabled":false,"rental_uris":{"android":"levelo://app?vid=5432d7a0-1700-4fbb-98da-e9587b56686e","ios":"levelo://app?vid=5432d7a0-1700-4fbb-98da-e9587b56686e"},"vehicle_type_id":"4","last_reported":1769617402,"current_range_meters":6000,"station_id":"ce4bgj92rcd13ifvqbe0","pricing_plan_id":"cebpf4jnsgd1na2vs0mg"},{"bike_id":"2923fe28-edbe-4c12-aad6-fc615c0ae048","system_id":"levelo_inurba_marseille","lat":43.292316,"lon":5.360598,"is_reserved":false,"is_disabled":false,"rental_uris":{"android":"levelo://app?vid=2923fe28-edbe-4c12-aad6-fc615c0ae048","ios":"levelo://app?vid=2923fe28-edbe-4c12-aad6-fc615c0ae048"},"vehicle_type_id":"4","last_reported":1769617402,"current_range_meters":6000,"station_id":"ce4bhbh2rcd13ifvqeqg","pricing_plan_id":"cebpf4jnsgd1na2vs0mg"},{"bike_id":"82a6b099-0577-4798-9a60-21fb38c2bbb7","system_id":"levelo_inurba_marseille","lat":43.29827,"lon":5.44052,"is_reserved":false,"is_disabled":false,"rental_uris":{"android":"levelo://app?vid=82a6b099-0577-4798-9a60-21fb38c2bbb7","ios":"levelo://app?vid=82a6b099-0577-4798-9a60-21fb38c2bbb7"},"vehicle_type_id":"4","last_reported":1769617402,"current_range_meters":6000,"station_id":"st_d3jp68qikq2c7381ktn0","pricing_plan_id":"cebpf4jnsgd1na2vs0mg"},{"bike_id":"83fc51a6-33d8-4514-8bb6-691df6dd60b4","system_id":"levelo_inurba_marseille","lat":43.301239,"lon":5.431217,"is_reserved":false,"is_disabled":false,"rental_uris":{"android":"levelo://app?vid=83fc51a6-33d8-4514-8bb6-691df6dd60b4","ios":"levelo://app?vid=83fc51a6-33d8-4514-8bb6-691df6dd60b4"},"vehicle_type_id":"4","last_reported":1769617402,"current_range_meters":6000,"station_id":"st_d3js3co5814s73ftftug","pricing_plan_id":"cebpf4jnsgd1na2vs0mg"},{"bike_id":"16339541-f3d1-4532-a8b0-a72ce5907e6f","system_id":"levelo_inurba_marseille","lat":43.25124,"lon":5.40329,"is_reserved":false,"is_disabled":false,"rental_uris":{"android":"levelo://app?vid=16339541-f3d1-4532-a8b0-a72ce5907e6f","ios":"levelo://app?vid=16339541-f3d1-4532-a8b0-a72ce5907e6f"},"vehicle_type_id":"4","last_reported":1769617402,"current_range_meters":6000,"station_id":"ce4bhlh2rcd13ifvqgig","pricing_plan_id":"cebpf4jnsgd1na2vs0mg"},{"bike_id":"7040bdbc-5052-46fd-9d78-6fb9765e379a","system_id":"levelo_inurba_marseille","lat":43.23968,"lon":5.36634,"is_reserved":false,"is_disabled":false,"rental_uris":{"android":"levelo://app?vid=7040bdbc-5052-46fd-9d78-6fb9765e379a","ios":"levelo://app?vid=7040bdbc-5052-46fd-9d78-6fb9765e379a"},"vehicle_type_id":"4","last_reported":1769617402,"current_range_meters":6000,"station_id":"ce4bhi12rcd13ifvqfp0","pricing_plan_id":"cebpf4jnsgd1na2vs0mg"},{"bike_id":"cd737560-f7db-4070-9139-519c55f31a04","system_id":"levelo_inurba_marseille","lat":43.23183,"lon":5.39998,"is_reserved":false,"is_disabled":false,"rental_uris":{"android":"levelo://app?vid=cd737560-f7db-4070-9139-519c55f31a04","ios":"levelo://app?vid=cd737560-f7db-4070-9139-519c55f31a04"},"vehicle_type_id":"4","last_reported":1769617402,"current_range_meters":6000,"station_id":"ce4bhn12rcd13ifvqgqg","pricing_plan_id":"cebpf4jnsgd1na2vs0mg"},{"bike_id":"5e315c55-0696-4832-b655-408576588f9e","system_id":"levelo_inurba_marseille","lat":43.26803,"lon":5.39409,"is_reserved":false,"is_disabled":false,"rental_uris":{"android":"levelo://app?vid=5e315c55-0696-4832-b655-408576588f9e","ios":"levelo://app?vid=5e315c55-0696-4832-b655-408576588f9e"},"vehicle_type_id":"4","last_reported":1769617402,"current_range_meters":6000,"station_id":"ce4bhh12rcd13ifvqfg0","pricing_plan_id":"cebpf4jnsgd1na2vs0mg"},{"bike_id":"53b5bea4-ab8b-497c-9929-d8f0d02f189b","system_id":"levelo_inurba_marseille","lat":43.2703,"lon":5.39301,"is_reserved":false,"is_disabled":false,"rental_uris":{"android":"levelo://app?vid=53b5bea4-ab8b-497c-9929-d8f0d02f189b","ios":"levelo://app?vid=53b5bea4-ab8b-497c-9929-d8f0d02f189b"},"vehicle_type_id":"4","last_reported":1769617402,"current_range_meters":6000,"station_id":"","pricing_plan_id":"cebpf4jnsgd1na2vs0mg"},{"bike_id":"d79437b2-ca90-408e-b855-945384ebb401","system_id":"levelo_inurba_marseille","lat":43.2551,"lon":5.37657,"is_reserved":false,"is_disabled":false,"rental_uris":{"android":"levelo://app?vid=d79437b2-ca90-408e-b855-945384ebb401","ios":"levelo://app?vid=d79437b2-ca90-408e-b855-945384ebb401"},"vehicle_type_id":"4","last_reported":1769617402,"current_range_meters":6000,"station_id":"ce4bhh12rcd13ifvqff0","pricing_plan_id":"cebpf4jnsgd1na2vs0mg"},{"bike_id":"561eeb7a-4070-4e5b-bd32-ec626501ffa5","system_id":"levelo_inurba_marseille","lat":43.31272,"lon":5.40174,"is_reserved":false,"is_disabled":false,"rental_uris":{"android":"levelo://app?vid=561eeb7a-4070-4e5b-bd32-ec626501ffa5","ios":"levelo://app?vid=561eeb7a-4070-4e5b-bd32-ec626501ffa5"},"vehicle_type_id":"4","last_reported":1769617402,"current_range_meters":6000,"station_id":"ce4bh092rcd13ifvqd30","pricing_plan_id":"cebpf4jnsgd1na2vs0mg"},{"bike_id":"ba47871c-f9e6-4dcc-be89-4ab32663c39b","system_id":"levelo_inurba_marseille","lat":43.26802,"lon":5.40263,"is_reserved":false,"is_disabled":false,"rental_uris":{"android":"levelo://app?vid=ba47871c-f9e6-4dcc-be89-4ab32663c39b","ios":"levelo://app?vid=ba47871c-f9e6-4dcc-be89-4ab32663c39b"},"vehicle_type_id":"4","last_reported":1769617402,"current_range_meters":6000,"station_id":"ce501612rcd8frsf0b60","pricing_plan_id":"cebpf4jnsgd1na2vs0mg"},{"bike_id":"69015cf3-bc6b-446f-9be5-f6f422a1478d","system_id":"levelo_inurba_marseille","lat":43.2889,"lon":5.42521,"is_reserved":false,"is_disabled":false,"rental_uris":{"android":"levelo://app?vid=69015cf3-bc6b-446f-9be5-f6f422a1478d","ios":"levelo://app?vid=69015cf3-bc6b-446f-9be5-f6f422a1478d"},"vehicle_type_id":"4","last_reported":1769617402,"current_range_meters":6000,"station_id":"st_d3b462108ojc7389ooeg","pricing_plan_id":"cebpf4jnsgd1na2vs0mg"},{"bike_id":"ce5fb302-4b92-4d60-bed6-6bc72a1ce264","system_id":"levelo_inurba_marseille","lat":43.30286,"lon":5.37706,"is_reserved":false,"is_disabled":false,"rental_uris":{"android":"levelo://app?vid=ce5fb302-4b92-4d60-bed6-6bc72a1ce264","ios":"levelo://app?vid=ce5fb302-4b92-4d60-bed6-6bc72a1ce264"},"vehicle_type_id":"4","last_reported":1769617402,"current_range_meters":6000,"station_id":"ce4bguh2rcd13ifvqcj0","pricing_plan_id":"cebpf4jnsgd1na2vs0mg"},{"bike_id":"1c28b0bd-3eca-46f6-a58a-d76a26f70029","system_id":"levelo_inurba_marseille","lat":43.25586,"lon":5.38237,"is_reserved":false,"is_disabled":false,"rental_uris":{"android":"levelo://app?vid=1c28b0bd-3eca-46f6-a58a-d76a26f70029","ios":"levelo://app?vid=1c28b0bd-3eca-46f6-a58a-d76a26f70029"},"vehicle_type_id":"4","last_reported":1769617402,"current_range_meters":6400,"station_id":"ce4bhih2rcd13ifvqfs0","pricing_plan_id":"cebpf4jnsgd1na2vs0mg"},{"bike_id":"2b025830-a75f-4dd0-9345-1f4a2853b8f8","system_id":"levelo_inurba_marseille","lat":43.32355,"lon":5.3673,"is_reserved":false,"is_disabled":false,"rental_uris":{"android":"levelo://app?vid=2b025830-a75f-4dd0-9345-1f4a2853b8f8","ios":"levelo://app?vid=2b025830-a75f-4dd0-9345-1f4a2853b8f8"},"vehicle_type_id":"4","last_reported":1769617402,"current_range_meters":6400,"station_id":"ce4bhsh2rcd13ifvqi2g","pricing_plan_id":"cebpf4jnsgd1na2vs0mg"},{"bike_id":"c9026cf3-bc60-41ac-ba3f-4fdf4bcb4586","system_id":"levelo_inurba_marseille","lat":43.2535,"lon":5.42157,"is_reserved":false,"is_disabled":false,"rental_uris":{"android":"levelo://app?vid=c9026cf3-bc60-41ac-ba3f-4fdf4bcb4586","ios":"levelo://app?vid=c9026cf3-bc60-41ac-ba3f-4fdf4bcb4586"},"vehicle_type_id":"4","last_reported":1769617402,"current_range_meters":6400,"station_id":"st_d2m65c5bi1j21697t3ng","pricing_plan_id":"cebpf4jnsgd1na2vs0mg"},{"bike_id":"7f17d0e0-c551-448a-9a02-7034a1e1a800","system_id":"levelo_inurba_marseille","lat":43.28689,"lon":5.38666,"is_reserved":false,"is_disabled":false,"rental_uris":{"android":"levelo://app?vid=7f17d0e0-c551-448a-9a02-7034a1e1a800","ios":"levelo://app?vid=7f17d0e0-c551-448a-9a02-7034a1e1a800"},"vehicle_type_id":"4","last_reported":1769617402,"current_range_meters":6400,"station_id":"ce4bh492rcd13ifvqdug","pricing_plan_id":"cebpf4jnsgd1na2vs0mg"},{"bike_id":"71474573-e139-42f3-bf94-d0fc6a99c0c9","system_id":"levelo_inurba_marseille","lat":43.28109,"lon":5.42649,"is_reserved":false,"is_disabled":false,"rental_uris":{"android":"levelo://app?vid=71474573-e139-42f3-bf94-d0fc6a99c0c9","ios":"levelo://app?vid=71474573-e139-42f3-bf94-d0fc6a99c0c9"},"vehicle_type_id":"4","last_reported":1769617402,"current_range_meters":6400,"station_id":"","pricing_plan_id":"cebpf4jnsgd1na2vs0mg"},{"bike_id":"72089be9-38d6-423c-b54b-444cdb64406b","system_id":"levelo_inurba_marseille","lat":43.28429,"lon":5.34983,"is_reserved":false,"is_disabled":false,"rental_uris":{"android":"levelo://app?vid=72089be9-38d6-423c-b54b-444cdb64406b","ios":"levelo://app?vid=72089be9-38d6-423c-b54b-444cdb64406b"},"vehicle_type_id":"4","last_reported":1769617402,"current_range_meters":6400,"station_id":"ce4bhbh2rcd13ifvqepg","pricing_plan_id":"cebpf4jnsgd1na2vs0mg"},{"bike_id":"a3951293-9c0a-44f5-ba95-d7309dbd4917","system_id":"levelo_inurba_marseille","lat":43.312025,"lon":5.368764,"is_reserved":false,"is_disabled":false,"rental_uris":{"android":"levelo://app?vid=a3951293-9c0a-44f5-ba95-d7309dbd4917","ios":"levelo://app?vid=a3951293-9c0a-44f5-ba95-d7309dbd4917"},"vehicle_type_id":"4","last_reported":1769617402,"current_range_meters":6400,"station_id":"ce4bgl92rcd13ifvqbq0","pricing_plan_id":"cebpf4jnsgd1na2vs0mg"},{"bike_id":"930c65a4-41b5-4fde-b2c8-b090ce1093d6","system_id":"levelo_inurba_marseille","lat":43.28463,"lon":5.35885,"is_reserved":false,"is_disabled":false,"rental_uris":{"android":"levelo://app?vid=930c65a4-41b5-4fde-b2c8-b090ce1093d6","ios":"levelo://app?vid=930c65a4-41b5-4fde-b2c8-b090ce1093d6"},"vehicle_type_id":"4","last_reported":1769617402,"current_range_meters":6400,"station_id":"ce4bhah2rcd13ifvqei0","pricing_plan_id":"cebpf4jnsgd1na2vs0mg"},{"bike_id":"edcf7268-9037-4d86-a040-f29b3b6258a5","system_id":"levelo_inurba_marseille","lat":43.32491,"lon":5.36552,"is_reserved":false,"is_disabled":false,"rental_uris":{"android":"levelo://app?vid=edcf7268-9037-4d86-a040-f29b3b6258a5","ios":"levelo://app?vid=edcf7268-9037-4d86-a040-f29b3b6258a5"},"vehicle_type_id":"4","last_reported":1769617402,"current_range_meters":6400,"station_id":"ce4bhs12rcd13ifvqhvg","pricing_plan_id":"cebpf4jnsgd1na2vs0mg"},{"bike_id":"fc7d0375-7a69-418a-b8eb-0a8fbf3eb6f6","system_id":"levelo_inurba_marseille","lat":43.26563,"lon":5.390185,"is_reserved":false,"is_disabled":false,"rental_uris":{"android":"levelo://app?vid=fc7d0375-7a69-418a-b8eb-0a8fbf3eb6f6","ios":"levelo://app?vid=fc7d0375-7a69-418a-b8eb-0a8fbf3eb6f6"},"vehicle_type_id":"4","last_reported":1769617402,"current_range_meters":6400,"station_id":"ce4bhe12rcd13ifvqf30","pricing_plan_id":"cebpf4jnsgd1na2vs0mg"},{"bike_id":"ad1ea07d-f058-48f6-9cbd-0a8a0608cbde","system_id":"levelo_inurba_marseille","lat":43.29169,"lon":5.37156,"is_reserved":false,"is_disabled":false,"rental_uris":{"android":"levelo://app?vid=ad1ea07d-f058-48f6-9cbd-0a8a0608cbde","ios":"levelo://app?vid=ad1ea07d-f058-48f6-9cbd-0a8a0608cbde"},"vehicle_type_id":"4","last_reported":1769617402,"current_range_meters":6400,"station_id":"ce4bha92rcd13ifvqeh0","pricing_plan_id":"cebpf4jnsgd1na2vs0mg"},{"bike_id":"7a311894-5a17-49f9-979a-12b9a9e84f5b","system_id":"levelo_inurba_marseille","lat":43.28477,"lon":5.38417,"is_reserved":false,"is_disabled":false,"rental_uris":{"android":"levelo://app?vid=7a311894-5a17-49f9-979a-12b9a9e84f5b","ios":"levelo://app?vid=7a311894-5a17-49f9-979a-12b9a9e84f5b"},"vehicle_type_id":"4","last_reported":1769617402,"current_range_meters":6400,"station_id":"ce4bh512rcd13ifvqe3g","pricing_plan_id":"cebpf4jnsgd1na2vs0mg"},{"bike_id":"7d3a2f26-7ddd-40c4-a513-ea176b6ec46c","system_id":"levelo_inurba_marseille","lat":43.29263,"lon":5.38442,"is_reserved":false,"is_disabled":false,"rental_uris":{"android":"levelo://app?vid=7d3a2f26-7ddd-40c4-a513-ea176b6ec46c","ios":"levelo://app?vid=7d3a2f26-7ddd-40c4-a513-ea176b6ec46c"},"vehicle_type_id":"4","last_reported":1769617402,"current_range_meters":6400,"station_id":"ce4bh692rcd13ifvqea0","pricing_plan_id":"cebpf4jnsgd1na2vs0mg"},{"bike_id":"dd025a3b-8d88-4cc7-98ea-d46d5c91c806","system_id":"levelo_inurba_marseille","lat":43.27191,"lon":5.40996,"is_reserved":false,"is_disabled":false,"rental_uris":{"android":"levelo://app?vid=dd025a3b-8d88-4cc7-98ea-d46d5c91c806","ios":"levelo://app?vid=dd025a3b-8d88-4cc7-98ea-d46d5c91c806"},"vehicle_type_id":"4","last_reported":1769617402,"current_range_meters":6400,"station_id":"ce4bhl12rcd13ifvqgf0","pricing_plan_id":"cebpf4jnsgd1na2vs0mg"},{"bike_id":"56e871dd-8754-4cfc-a2db-418fc1050e9e","system_id":"levelo_inurba_marseille","lat":43.292419,"lon":5.365913,"is_reserved":false,"is_disabled":false,"rental_uris":{"android":"levelo://app?vid=56e871dd-8754-4cfc-a2db-418fc1050e9e","ios":"levelo://app?vid=56e871dd-8754-4cfc-a2db-418fc1050e9e"},"vehicle_type_id":"4","last_reported":1769617402,"current_range_meters":6400,"station_id":"","pricing_plan_id":"cebpf4jnsgd1na2vs0mg"},{"bike_id":"a31218b5-45f9-4cee-ae20-3afb077962a4","system_id":"levelo_inurba_marseille","lat":43.26683,"lon":5.38259,"is_reserved":false,"is_disabled":false,"rental_uris":{"android":"levelo://app?vid=a31218b5-45f9-4cee-ae20-3afb077962a4","ios":"levelo://app?vid=a31218b5-45f9-4cee-ae20-3afb077962a4"},"vehicle_type_id":"4","last_reported":1769617402,"current_range_meters":6400,"station_id":"ce4bhg92rcd13ifvqf90","pricing_plan_id":"cebpf4jnsgd1na2vs0mg"},{"bike_id":"c54959d5-ccda-49c0-9aac-4d47f2b81a74","system_id":"levelo_inurba_marseille","lat":43.25099,"lon":5.40325,"is_reserved":false,"is_disabled":false,"rental_uris":{"android":"levelo://app?vid=c54959d5-ccda-49c0-9aac-4d47f2b81a74","ios":"levelo://app?vid=c54959d5-ccda-49c0-9aac-4d47f2b81a74"},"vehicle_type_id":"4","last_reported":1769617402,"current_range_meters":6400,"station_id":"ce4bhlh2rcd13ifvqgig","pricing_plan_id":"cebpf4jnsgd1na2vs0mg"},{"bike_id":"753648c8-897c-488f-b7e2-6221deebba5c","system_id":"levelo_inurba_marseille","lat":43.30415,"lon":5.4128,"is_reserved":false,"is_disabled":false,"rental_uris":{"android":"levelo://app?vid=753648c8-897c-488f-b7e2-6221deebba5c","ios":"levelo://app?vid=753648c8-897c-488f-b7e2-6221deebba5c"},"vehicle_type_id":"4","last_reported":1769617402,"current_range_meters":6400,"station_id":"ce4bhop2rcd13ifvqh8g","pricing_plan_id":"cebpf4jnsgd1na2vs0mg"},{"bike_id":"42f8414b-aac3-4531-a10a-d65bb6862d25","system_id":"levelo_inurba_marseille","lat":43.25336,"lon":5.42167,"is_reserved":false,"is_disabled":false,"rental_uris":{"android":"levelo://app?vid=42f8414b-aac3-4531-a10a-d65bb6862d25","ios":"levelo://app?vid=42f8414b-aac3-4531-a10a-d65bb6862d25"},"vehicle_type_id":"4","last_reported":1769617402,"current_range_meters":6400,"station_id":"st_d2m65c5bi1j21697t3ng","pricing_plan_id":"cebpf4jnsgd1na2vs0mg"},{"bike_id":"4f3ec72d-81fa-4535-b363-ea06e9ee6be1","system_id":"levelo_inurba_marseille","lat":43.305311,"lon":5.367278,"is_reserved":false,"is_disabled":false,"rental_uris":{"android":"levelo://app?vid=4f3ec72d-81fa-4535-b363-ea06e9ee6be1","ios":"levelo://app?vid=4f3ec72d-81fa-4535-b363-ea06e9ee6be1"},"vehicle_type_id":"4","last_reported":1769617402,"current_range_meters":6800,"station_id":"ce4bgrp2rcd13ifvqc9g","pricing_plan_id":"cebpf4jnsgd1na2vs0mg"},{"bike_id":"80877d4e-627b-4fb0-adb9-86ab4ea150c7","system_id":"levelo_inurba_marseille","lat":43.28612,"lon":5.37058,"is_reserved":false,"is_disabled":false,"rental_uris":{"android":"levelo://app?vid=80877d4e-627b-4fb0-adb9-86ab4ea150c7","ios":"levelo://app?vid=80877d4e-627b-4fb0-adb9-86ab4ea150c7"},"vehicle_type_id":"4","last_reported":1769617402,"current_range_meters":6800,"station_id":"ce4bht12rcd13ifvqi60","pricing_plan_id":"cebpf4jnsgd1na2vs0mg"},{"bike_id":"7c70a630-f080-4d65-8f79-af323dbedc62","system_id":"levelo_inurba_marseille","lat":43.3012,"lon":5.43081,"is_reserved":false,"is_disabled":false,"rental_uris":{"android":"levelo://app?vid=7c70a630-f080-4d65-8f79-af323dbedc62","ios":"levelo://app?vid=7c70a630-f080-4d65-8f79-af323dbedc62"},"vehicle_type_id":"4","last_reported":1769617402,"current_range_meters":6800,"station_id":"st_d3js3co5814s73ftftug","pricing_plan_id":"cebpf4jnsgd1na2vs0mg"},{"bike_id":"1b16a0fb-ecf4-42f7-8273-a4da665d2951","system_id":"levelo_inurba_marseille","lat":43.28366,"lon":5.38633,"is_reserved":false,"is_disabled":false,"rental_uris":{"android":"levelo://app?vid=1b16a0fb-ecf4-42f7-8273-a4da665d2951","ios":"levelo://app?vid=1b16a0fb-ecf4-42f7-8273-a4da665d2951"},"vehicle_type_id":"4","last_reported":1769617402,"current_range_meters":6800,"station_id":"ce4bh492rcd13ifvqdvg","pricing_plan_id":"cebpf4jnsgd1na2vs0mg"},{"bike_id":"9e90ef59-ad63-4e4b-b329-4f402964493b","system_id":"levelo_inurba_marseille","lat":43.24811,"lon":5.37459,"is_reserved":false,"is_disabled":false,"rental_uris":{"android":"levelo://app?vid=9e90ef59-ad63-4e4b-b329-4f402964493b","ios":"levelo://app?vid=9e90ef59-ad63-4e4b-b329-4f402964493b"},"vehicle_type_id":"4","last_reported":1769617402,"current_range_meters":6800,"station_id":"ce4bhgh2rcd13ifvqfb0","pricing_plan_id":"cebpf4jnsgd1na2vs0mg"},{"bike_id":"215d9242-cc67-4957-98e5-94a2159c71f8","system_id":"levelo_inurba_marseille","lat":43.32346,"lon":5.36752,"is_reserved":false,"is_disabled":false,"rental_uris":{"android":"levelo://app?vid=215d9242-cc67-4957-98e5-94a2159c71f8","ios":"levelo://app?vid=215d9242-cc67-4957-98e5-94a2159c71f8"},"vehicle_type_id":"4","last_reported":1769617402,"current_range_meters":6800,"station_id":"ce4bhsh2rcd13ifvqi2g","pricing_plan_id":"cebpf4jnsgd1na2vs0mg"},{"bike_id":"fa4f137b-a5cd-4c21-a300-5864eb1e4bc1","system_id":"levelo_inurba_marseille","lat":43.27973,"lon":5.38698,"is_reserved":false,"is_disabled":true,"rental_uris":{"android":"levelo://app?vid=fa4f137b-a5cd-4c21-a300-5864eb1e4bc1","ios":"levelo://app?vid=fa4f137b-a5cd-4c21-a300-5864eb1e4bc1"},"vehicle_type_id":"4","last_reported":1769617402,"current_range_meters":6800,"station_id":"ce4bhg12rcd13ifvqf80","pricing_plan_id":"cebpf4jnsgd1na2vs0mg"},{"bike_id":"60c02f49-2adf-4424-ade8-9c6070d15506","system_id":"levelo_inurba_marseille","lat":43.25006,"lon":5.38914,"is_reserved":false,"is_disabled":false,"rental_uris":{"android":"levelo://app?vid=60c02f49-2adf-4424-ade8-9c6070d15506","ios":"levelo://app?vid=60c02f49-2adf-4424-ade8-9c6070d15506"},"vehicle_type_id":"4","last_reported":1769617402,"current_range_meters":6800,"station_id":"ce4bhgp2rcd13ifvqfd0","pricing_plan_id":"cebpf4jnsgd1na2vs0mg"},{"bike_id":"284a4266-0db3-4ff1-a7d5-190cbb7efb7f","system_id":"levelo_inurba_marseille","lat":43.296286,"lon":5.377128,"is_reserved":false,"is_disabled":false,"rental_uris":{"android":"levelo://app?vid=284a4266-0db3-4ff1-a7d5-190cbb7efb7f","ios":"levelo://app?vid=284a4266-0db3-4ff1-a7d5-190cbb7efb7f"},"vehicle_type_id":"4","last_reported":1769617402,"current_range_meters":6800,"station_id":"ce4bgi92rcd13ifvqb90","pricing_plan_id":"cebpf4jnsgd1na2vs0mg"},{"bike_id":"0e67fe98-9108-433b-9434-394fc2106387","system_id":"levelo_inurba_marseille","lat":43.24634,"lon":5.4314,"is_reserved":false,"is_disabled":false,"rental_uris":{"android":"levelo://app?vid=0e67fe98-9108-433b-9434-394fc2106387","ios":"levelo://app?vid=0e67fe98-9108-433b-9434-394fc2106387"},"vehicle_type_id":"4","last_reported":1769617402,"current_range_meters":6800,"station_id":"st_d2m6c4gdas8pm72e190g","pricing_plan_id":"cebpf4jnsgd1na2vs0mg"},{"bike_id":"7685a49c-8aa3-4105-b6c4-9b0fdec5d0f8","system_id":"levelo_inurba_marseille","lat":43.315,"lon":5.3724,"is_reserved":false,"is_disabled":false,"rental_uris":{"android":"levelo://app?vid=7685a49c-8aa3-4105-b6c4-9b0fdec5d0f8","ios":"levelo://app?vid=7685a49c-8aa3-4105-b6c4-9b0fdec5d0f8"},"vehicle_type_id":"4","last_reported":1769617402,"current_range_meters":6800,"station_id":"","pricing_plan_id":"cebpf4jnsgd1na2vs0mg"},{"bike_id":"34e4ffb8-2cc5-4b74-9e94-1535ee81ef08","system_id":"levelo_inurba_marseille","lat":43.30295,"lon":5.37716,"is_reserved":false,"is_disabled":false,"rental_uris":{"android":"levelo://app?vid=34e4ffb8-2cc5-4b74-9e94-1535ee81ef08","ios":"levelo://app?vid=34e4ffb8-2cc5-4b74-9e94-1535ee81ef08"},"vehicle_type_id":"4","last_reported":1769617402,"current_range_meters":6800,"station_id":"ce4bguh2rcd13ifvqcj0","pricing_plan_id":"cebpf4jnsgd1na2vs0mg"},{"bike_id":"385cd7d7-7ec4-4bed-8246-2b2463e7e887","system_id":"levelo_inurba_marseille","lat":43.29567,"lon":5.37499,"is_reserved":false,"is_disabled":false,"rental_uris":{"android":"levelo://app?vid=385cd7d7-7ec4-4bed-8246-2b2463e7e887","ios":"levelo://app?vid=385cd7d7-7ec4-4bed-8246-2b2463e7e887"},"vehicle_type_id":"4","last_reported":1769617402,"current_range_meters":6800,"station_id":"ce4bgh92rcd13ifvqb50","pricing_plan_id":"cebpf4jnsgd1na2vs0mg"},{"bike_id":"8d798e6d-f25a-4bb0-a8e7-6f01b0dea7db","system_id":"levelo_inurba_marseille","lat":43.2962,"lon":5.37724,"is_reserved":false,"is_disabled":false,"rental_uris":{"android":"levelo://app?vid=8d798e6d-f25a-4bb0-a8e7-6f01b0dea7db","ios":"levelo://app?vid=8d798e6d-f25a-4bb0-a8e7-6f01b0dea7db"},"vehicle_type_id":"4","last_reported":1769617402,"current_range_meters":7200,"station_id":"ce4bgi92rcd13ifvqb90","pricing_plan_id":"cebpf4jnsgd1na2vs0mg"},{"bike_id":"5d05d531-ebc5-422e-a94d-fab2e789248e","system_id":"levelo_inurba_marseille","lat":43.25089,"lon":5.39483,"is_reserved":false,"is_disabled":false,"rental_uris":{"android":"levelo://app?vid=5d05d531-ebc5-422e-a94d-fab2e789248e","ios":"levelo://app?vid=5d05d531-ebc5-422e-a94d-fab2e789248e"},"vehicle_type_id":"4","last_reported":1769617402,"current_range_meters":7200,"station_id":"ce4bhm12rcd13ifvqgkg","pricing_plan_id":"cebpf4jnsgd1na2vs0mg"},{"bike_id":"e8f45a33-ec85-48b6-ae9b-6673515ea86a","system_id":"levelo_inurba_marseille","lat":43.303114,"lon":5.368904,"is_reserved":false,"is_disabled":false,"rental_uris":{"android":"levelo://app?vid=e8f45a33-ec85-48b6-ae9b-6673515ea86a","ios":"levelo://app?vid=e8f45a33-ec85-48b6-ae9b-6673515ea86a"},"vehicle_type_id":"4","last_reported":1769617402,"current_range_meters":7200,"station_id":"ce4bgqh2rcd13ifvqc5g","pricing_plan_id":"cebpf4jnsgd1na2vs0mg"},{"bike_id":"b519bc17-e693-4595-a4db-151d92295964","system_id":"levelo_inurba_marseille","lat":43.29281,"lon":5.37439,"is_reserved":false,"is_disabled":false,"rental_uris":{"android":"levelo://app?vid=b519bc17-e693-4595-a4db-151d92295964","ios":"levelo://app?vid=b519bc17-e693-4595-a4db-151d92295964"},"vehicle_type_id":"4","last_reported":1769617402,"current_range_meters":7200,"station_id":"ce4bgi12rcd13ifvqb70","pricing_plan_id":"cebpf4jnsgd1na2vs0mg"},{"bike_id":"8d5ad576-7df0-4e21-9440-3fe6a62ee683","system_id":"levelo_inurba_marseille","lat":43.29544,"lon":5.3904,"is_reserved":false,"is_disabled":false,"rental_uris":{"android":"levelo://app?vid=8d5ad576-7df0-4e21-9440-3fe6a62ee683","ios":"levelo://app?vid=8d5ad576-7df0-4e21-9440-3fe6a62ee683"},"vehicle_type_id":"4","last_reported":1769617402,"current_range_meters":7200,"station_id":"ce4bh3p2rcd13ifvqdp0","pricing_plan_id":"cebpf4jnsgd1na2vs0mg"},{"bike_id":"3a560c1d-76d6-45a6-9554-036aa12f4461","system_id":"levelo_inurba_marseille","lat":43.232,"lon":5.35548,"is_reserved":false,"is_disabled":false,"rental_uris":{"android":"levelo://app?vid=3a560c1d-76d6-45a6-9554-036aa12f4461","ios":"levelo://app?vid=3a560c1d-76d6-45a6-9554-036aa12f4461"},"vehicle_type_id":"4","last_reported":1769617402,"current_range_meters":7200,"station_id":"ce4bhu92rcd13ifvqi70","pricing_plan_id":"cebpf4jnsgd1na2vs0mg"},{"bike_id":"c00d1abe-f6f3-4677-9b5b-65f2d4348ca7","system_id":"levelo_inurba_marseille","lat":43.23207,"lon":5.3556,"is_reserved":false,"is_disabled":false,"rental_uris":{"android":"levelo://app?vid=c00d1abe-f6f3-4677-9b5b-65f2d4348ca7","ios":"levelo://app?vid=c00d1abe-f6f3-4677-9b5b-65f2d4348ca7"},"vehicle_type_id":"4","last_reported":1769617402,"current_range_meters":7200,"station_id":"ce4bhu92rcd13ifvqi70","pricing_plan_id":"cebpf4jnsgd1na2vs0mg"},{"bike_id":"b160d3e8-6013-4e1d-a5e2-a6cbcdd77ebd","system_id":"levelo_inurba_marseille","lat":43.301388,"lon":5.374131,"is_reserved":false,"is_disabled":false,"rental_uris":{"android":"levelo://app?vid=b160d3e8-6013-4e1d-a5e2-a6cbcdd77ebd","ios":"levelo://app?vid=b160d3e8-6013-4e1d-a5e2-a6cbcdd77ebd"},"vehicle_type_id":"4","last_reported":1769617402,"current_range_meters":7200,"station_id":"ce4bgs92rcd13ifvqcc0","pricing_plan_id":"cebpf4jnsgd1na2vs0mg"},{"bike_id":"c9a15f5a-f34f-4068-abb3-230d98931250","system_id":"levelo_inurba_marseille","lat":43.24555,"lon":5.39499,"is_reserved":false,"is_disabled":false,"rental_uris":{"android":"levelo://app?vid=c9a15f5a-f34f-4068-abb3-230d98931250","ios":"levelo://app?vid=c9a15f5a-f34f-4068-abb3-230d98931250"},"vehicle_type_id":"4","last_reported":1769617402,"current_range_meters":7200,"station_id":"ce4bhlp2rcd13ifvqgjg","pricing_plan_id":"cebpf4jnsgd1na2vs0mg"},{"bike_id":"ca4d0992-10b9-4132-be65-5b3c83c06cd8","system_id":"levelo_inurba_marseille","lat":43.30164,"lon":5.38078,"is_reserved":false,"is_disabled":false,"rental_uris":{"android":"levelo://app?vid=ca4d0992-10b9-4132-be65-5b3c83c06cd8","ios":"levelo://app?vid=ca4d0992-10b9-4132-be65-5b3c83c06cd8"},"vehicle_type_id":"4","last_reported":1769617402,"current_range_meters":7200,"station_id":"ce4bgjp2rcd13ifvqbh0","pricing_plan_id":"cebpf4jnsgd1na2vs0mg"},{"bike_id":"4a39372c-0ef2-41b6-bdd5-fbaa3b123a7c","system_id":"levelo_inurba_marseille","lat":43.26558,"lon":5.37288,"is_reserved":false,"is_disabled":false,"rental_uris":{"android":"levelo://app?vid=4a39372c-0ef2-41b6-bdd5-fbaa3b123a7c","ios":"levelo://app?vid=4a39372c-0ef2-41b6-bdd5-fbaa3b123a7c"},"vehicle_type_id":"4","last_reported":1769617402,"current_range_meters":7200,"station_id":"ce4bhg12rcd13ifvqf70","pricing_plan_id":"cebpf4jnsgd1na2vs0mg"},{"bike_id":"b7483a6a-29bd-44f7-9fdd-a1249e164ff5","system_id":"levelo_inurba_marseille","lat":43.2897,"lon":5.3783,"is_reserved":false,"is_disabled":false,"rental_uris":{"android":"levelo://app?vid=b7483a6a-29bd-44f7-9fdd-a1249e164ff5","ios":"levelo://app?vid=b7483a6a-29bd-44f7-9fdd-a1249e164ff5"},"vehicle_type_id":"4","last_reported":1769617402,"current_range_meters":7200,"station_id":"ce4bh9p2rcd13ifvqed0","pricing_plan_id":"cebpf4jnsgd1na2vs0mg"},{"bike_id":"41c91ad2-73b9-4699-b23d-1b5a65edd284","system_id":"levelo_inurba_marseille","lat":43.33533,"lon":5.37466,"is_reserved":false,"is_disabled":false,"rental_uris":{"android":"levelo://app?vid=41c91ad2-73b9-4699-b23d-1b5a65edd284","ios":"levelo://app?vid=41c91ad2-73b9-4699-b23d-1b5a65edd284"},"vehicle_type_id":"4","last_reported":1769617402,"current_range_meters":7200,"station_id":"","pricing_plan_id":"cebpf4jnsgd1na2vs0mg"},{"bike_id":"740fad17-5127-45bb-8498-fe239cbc1b96","system_id":"levelo_inurba_marseille","lat":43.25335,"lon":5.42177,"is_reserved":false,"is_disabled":false,"rental_uris":{"android":"levelo://app?vid=740fad17-5127-45bb-8498-fe239cbc1b96","ios":"levelo://app?vid=740fad17-5127-45bb-8498-fe239cbc1b96"},"vehicle_type_id":"4","last_reported":1769617402,"current_range_meters":7200,"station_id":"st_d2m65c5bi1j21697t3ng","pricing_plan_id":"cebpf4jnsgd1na2vs0mg"},{"bike_id":"1da9b424-d7be-48bd-a0cd-971ca3c57be4","system_id":"levelo_inurba_marseille","lat":43.29567,"lon":5.37479,"is_reserved":false,"is_disabled":false,"rental_uris":{"android":"levelo://app?vid=1da9b424-d7be-48bd-a0cd-971ca3c57be4","ios":"levelo://app?vid=1da9b424-d7be-48bd-a0cd-971ca3c57be4"},"vehicle_type_id":"4","last_reported":1769617402,"current_range_meters":7200,"station_id":"ce4bgh92rcd13ifvqb50","pricing_plan_id":"cebpf4jnsgd1na2vs0mg"},{"bike_id":"0742544d-4cad-4f38-bacd-71d9b4def1ec","system_id":"levelo_inurba_marseille","lat":43.29567,"lon":5.37508,"is_reserved":false,"is_disabled":false,"rental_uris":{"android":"levelo://app?vid=0742544d-4cad-4f38-bacd-71d9b4def1ec","ios":"levelo://app?vid=0742544d-4cad-4f38-bacd-71d9b4def1ec"},"vehicle_type_id":"4","last_reported":1769617402,"current_range_meters":7200,"station_id":"ce4bgh92rcd13ifvqb50","pricing_plan_id":"cebpf4jnsgd1na2vs0mg"},{"bike_id":"11c0b822-ed21-4cc4-ae23-9767ba2abb5a","system_id":"levelo_inurba_marseille","lat":43.3054,"lon":5.36527,"is_reserved":false,"is_disabled":false,"rental_uris":{"android":"levelo://app?vid=11c0b822-ed21-4cc4-ae23-9767ba2abb5a","ios":"levelo://app?vid=11c0b822-ed21-4cc4-ae23-9767ba2abb5a"},"vehicle_type_id":"4","last_reported":1769617402,"current_range_meters":8000,"station_id":"ce4bgs12rcd13ifvqcag","pricing_plan_id":"cebpf4jnsgd1na2vs0mg"},{"bike_id":"603e9204-5870-4f45-bd5a-da05fb6c44a2","system_id":"levelo_inurba_marseille","lat":43.31289,"lon":5.40174,"is_reserved":false,"is_disabled":false,"rental_uris":{"android":"levelo://app?vid=603e9204-5870-4f45-bd5a-da05fb6c44a2","ios":"levelo://app?vid=603e9204-5870-4f45-bd5a-da05fb6c44a2"},"vehicle_type_id":"4","last_reported":1769617402,"current_range_meters":8000,"station_id":"ce4bh092rcd13ifvqd30","pricing_plan_id":"cebpf4jnsgd1na2vs0mg"},{"bike_id":"69a8705c-622c-4687-befc-0e95f406c55e","system_id":"levelo_inurba_marseille","lat":43.22566,"lon":5.41629,"is_reserved":false,"is_disabled":false,"rental_uris":{"android":"levelo://app?vid=69a8705c-622c-4687-befc-0e95f406c55e","ios":"levelo://app?vid=69a8705c-622c-4687-befc-0e95f406c55e"},"vehicle_type_id":"4","last_reported":1769617402,"current_range_meters":8000,"station_id":"st_d2o4gvlbi1j2169b742g","pricing_plan_id":"cebpf4jnsgd1na2vs0mg"},{"bike_id":"c7e4813a-c248-4d27-817f-f64ef50a11f2","system_id":"levelo_inurba_marseille","lat":43.25936,"lon":5.40892,"is_reserved":false,"is_disabled":false,"rental_uris":{"android":"levelo://app?vid=c7e4813a-c248-4d27-817f-f64ef50a11f2","ios":"levelo://app?vid=c7e4813a-c248-4d27-817f-f64ef50a11f2"},"vehicle_type_id":"4","last_reported":1769617402,"current_range_meters":8000,"station_id":"ce4bhm92rcd13ifvqglg","pricing_plan_id":"cebpf4jnsgd1na2vs0mg"},{"bike_id":"24dcd320-5c94-4733-84a5-fedd766ecdd0","system_id":"levelo_inurba_marseille","lat":43.2869,"lon":5.3865,"is_reserved":false,"is_disabled":false,"rental_uris":{"android":"levelo://app?vid=24dcd320-5c94-4733-84a5-fedd766ecdd0","ios":"levelo://app?vid=24dcd320-5c94-4733-84a5-fedd766ecdd0"},"vehicle_type_id":"4","last_reported":1769617402,"current_range_meters":8000,"station_id":"ce4bh492rcd13ifvqdug","pricing_plan_id":"cebpf4jnsgd1na2vs0mg"},{"bike_id":"8f81f246-6d5d-41c6-a914-40ca18e88edd","system_id":"levelo_inurba_marseille","lat":43.33196,"lon":5.40209,"is_reserved":false,"is_disabled":false,"rental_uris":{"android":"levelo://app?vid=8f81f246-6d5d-41c6-a914-40ca18e88edd","ios":"levelo://app?vid=8f81f246-6d5d-41c6-a914-40ca18e88edd"},"vehicle_type_id":"4","last_reported":1769617402,"current_range_meters":8000,"station_id":"","pricing_plan_id":"cebpf4jnsgd1na2vs0mg"},{"bike_id":"a69253cf-ad14-45b4-a376-a0b74b0251db","system_id":"levelo_inurba_marseille","lat":43.29591,"lon":5.38109,"is_reserved":false,"is_disabled":false,"rental_uris":{"android":"levelo://app?vid=a69253cf-ad14-45b4-a376-a0b74b0251db","ios":"levelo://app?vid=a69253cf-ad14-45b4-a376-a0b74b0251db"},"vehicle_type_id":"4","last_reported":1769617402,"current_range_meters":8000,"station_id":"ce4bgl12rcd13ifvqbo0","pricing_plan_id":"cebpf4jnsgd1na2vs0mg"},{"bike_id":"266b0834-654b-47d2-95f5-e9ad274f17f8","system_id":"levelo_inurba_marseille","lat":43.23778,"lon":5.36634,"is_reserved":false,"is_disabled":false,"rental_uris":{"android":"levelo://app?vid=266b0834-654b-47d2-95f5-e9ad274f17f8","ios":"levelo://app?vid=266b0834-654b-47d2-95f5-e9ad274f17f8"},"vehicle_type_id":"4","last_reported":1769617402,"current_range_meters":8000,"station_id":"st_d3nk18o9ro0c73en2l3g","pricing_plan_id":"cebpf4jnsgd1na2vs0mg"},{"bike_id":"d9ab31f1-fe46-4f91-985d-ebfdc0597bca","system_id":"levelo_inurba_marseille","lat":43.29914,"lon":5.38148,"is_reserved":false,"is_disabled":false,"rental_uris":{"android":"levelo://app?vid=d9ab31f1-fe46-4f91-985d-ebfdc0597bca","ios":"levelo://app?vid=d9ab31f1-fe46-4f91-985d-ebfdc0597bca"},"vehicle_type_id":"4","last_reported":1769617402,"current_range_meters":8000,"station_id":"ce4bgj12rcd13ifvqbc0","pricing_plan_id":"cebpf4jnsgd1na2vs0mg"},{"bike_id":"11ea5605-7882-4487-a008-b5f4221886b5","system_id":"levelo_inurba_marseille","lat":43.31384,"lon":5.37404,"is_reserved":false,"is_disabled":false,"rental_uris":{"android":"levelo://app?vid=11ea5605-7882-4487-a008-b5f4221886b5","ios":"levelo://app?vid=11ea5605-7882-4487-a008-b5f4221886b5"},"vehicle_type_id":"4","last_reported":1769617402,"current_range_meters":8000,"station_id":"","pricing_plan_id":"cebpf4jnsgd1na2vs0mg"},{"bike_id":"9ba0872b-a869-4522-9809-2326ba94ec06","system_id":"levelo_inurba_marseille","lat":43.3054,"lon":5.36522,"is_reserved":false,"is_disabled":false,"rental_uris":{"android":"levelo://app?vid=9ba0872b-a869-4522-9809-2326ba94ec06","ios":"levelo://app?vid=9ba0872b-a869-4522-9809-2326ba94ec06"},"vehicle_type_id":"4","last_reported":1769617402,"current_range_meters":8000,"station_id":"ce4bgs12rcd13ifvqcag","pricing_plan_id":"cebpf4jnsgd1na2vs0mg"},{"bike_id":"2fdd7372-7a1a-41fc-b3d0-637003fe8700","system_id":"levelo_inurba_marseille","lat":43.26215,"lon":5.37926,"is_reserved":false,"is_disabled":false,"rental_uris":{"android":"levelo://app?vid=2fdd7372-7a1a-41fc-b3d0-637003fe8700","ios":"levelo://app?vid=2fdd7372-7a1a-41fc-b3d0-637003fe8700"},"vehicle_type_id":"4","last_reported":1769617402,"current_range_meters":8000,"station_id":"ce4bhjp2rcd13ifvqg90","pricing_plan_id":"cebpf4jnsgd1na2vs0mg"},{"bike_id":"5a5d772f-ff59-441b-a0c8-ef4b179ca1f3","system_id":"levelo_inurba_marseille","lat":43.23153,"lon":5.43698,"is_reserved":false,"is_disabled":false,"rental_uris":{"android":"levelo://app?vid=5a5d772f-ff59-441b-a0c8-ef4b179ca1f3","ios":"levelo://app?vid=5a5d772f-ff59-441b-a0c8-ef4b179ca1f3"},"vehicle_type_id":"4","last_reported":1769617402,"current_range_meters":8000,"station_id":"ce4bhmp2rcd13ifvqgog","pricing_plan_id":"cebpf4jnsgd1na2vs0mg"},{"bike_id":"1ffbda22-e3ce-449b-8cf2-1a8499f4ffd7","system_id":"levelo_inurba_marseille","lat":43.26957,"lon":5.38642,"is_reserved":false,"is_disabled":true,"rental_uris":{"android":"levelo://app?vid=1ffbda22-e3ce-449b-8cf2-1a8499f4ffd7","ios":"levelo://app?vid=1ffbda22-e3ce-449b-8cf2-1a8499f4ffd7"},"vehicle_type_id":"4","last_reported":1769617402,"current_range_meters":8000,"station_id":"ce4bhh92rcd13ifvqfh0","pricing_plan_id":"cebpf4jnsgd1na2vs0mg"},{"bike_id":"9328d8d0-a319-4fb2-9d4a-db2606a87040","system_id":"levelo_inurba_marseille","lat":43.2416,"lon":5.36397,"is_reserved":false,"is_disabled":false,"rental_uris":{"android":"levelo://app?vid=9328d8d0-a319-4fb2-9d4a-db2606a87040","ios":"levelo://app?vid=9328d8d0-a319-4fb2-9d4a-db2606a87040"},"vehicle_type_id":"4","last_reported":1769617402,"current_range_meters":8000,"station_id":"cpo36qri1sfpv3e86is0","pricing_plan_id":"cebpf4jnsgd1na2vs0mg"},{"bike_id":"a097c751-bb29-4ebe-bc02-881e85889070","system_id":"levelo_inurba_marseille","lat":43.28865,"lon":5.4251,"is_reserved":false,"is_disabled":false,"rental_uris":{"android":"levelo://app?vid=a097c751-bb29-4ebe-bc02-881e85889070","ios":"levelo://app?vid=a097c751-bb29-4ebe-bc02-881e85889070"},"vehicle_type_id":"4","last_reported":1769617402,"current_range_meters":8000,"station_id":"st_d3b462108ojc7389ooeg","pricing_plan_id":"cebpf4jnsgd1na2vs0mg"},{"bike_id":"adcf69d8-1927-438e-b914-5f915ba575b2","system_id":"levelo_inurba_marseille","lat":43.25577,"lon":5.38238,"is_reserved":false,"is_disabled":false,"rental_uris":{"android":"levelo://app?vid=adcf69d8-1927-438e-b914-5f915ba575b2","ios":"levelo://app?vid=adcf69d8-1927-438e-b914-5f915ba575b2"},"vehicle_type_id":"4","last_reported":1769617402,"current_range_meters":8000,"station_id":"ce4bhih2rcd13ifvqfs0","pricing_plan_id":"cebpf4jnsgd1na2vs0mg"},{"bike_id":"2cc795da-43f1-4cae-ab77-d5cdccbf14a1","system_id":"levelo_inurba_marseille","lat":43.29623,"lon":5.37723,"is_reserved":false,"is_disabled":false,"rental_uris":{"android":"levelo://app?vid=2cc795da-43f1-4cae-ab77-d5cdccbf14a1","ios":"levelo://app?vid=2cc795da-43f1-4cae-ab77-d5cdccbf14a1"},"vehicle_type_id":"4","last_reported":1769617402,"current_range_meters":8000,"station_id":"ce4bgi92rcd13ifvqb90","pricing_plan_id":"cebpf4jnsgd1na2vs0mg"},{"bike_id":"9bdb1099-5090-4ad5-a1d6-31f1a1ea458e","system_id":"levelo_inurba_marseille","lat":43.27383,"lon":5.36272,"is_reserved":false,"is_disabled":false,"rental_uris":{"android":"levelo://app?vid=9bdb1099-5090-4ad5-a1d6-31f1a1ea458e","ios":"levelo://app?vid=9bdb1099-5090-4ad5-a1d6-31f1a1ea458e"},"vehicle_type_id":"4","last_reported":1769617402,"current_range_meters":8000,"station_id":"ce4bhbh2rcd13ifvqeo0","pricing_plan_id":"cebpf4jnsgd1na2vs0mg"},{"bike_id":"d3666cf3-53c3-441d-bd0c-5bc92320bb94","system_id":"levelo_inurba_marseille","lat":43.265533,"lon":5.372873,"is_reserved":false,"is_disabled":false,"rental_uris":{"android":"levelo://app?vid=d3666cf3-53c3-441d-bd0c-5bc92320bb94","ios":"levelo://app?vid=d3666cf3-53c3-441d-bd0c-5bc92320bb94"},"vehicle_type_id":"4","last_reported":1769617402,"current_range_meters":8000,"station_id":"ce4bhg12rcd13ifvqf70","pricing_plan_id":"cebpf4jnsgd1na2vs0mg"},{"bike_id":"b45c8d2c-8d88-4cef-8b61-a19c2da1c61e","system_id":"levelo_inurba_marseille","lat":43.33543,"lon":5.3747,"is_reserved":false,"is_disabled":false,"rental_uris":{"android":"levelo://app?vid=b45c8d2c-8d88-4cef-8b61-a19c2da1c61e","ios":"levelo://app?vid=b45c8d2c-8d88-4cef-8b61-a19c2da1c61e"},"vehicle_type_id":"4","last_reported":1769617402,"current_range_meters":8400,"station_id":"st_d46tts09ee8s73dlu43g","pricing_plan_id":"cebpf4jnsgd1na2vs0mg"},{"bike_id":"4ecc53a1-1b7f-4ab1-81c8-9659a6fdab6d","system_id":"levelo_inurba_marseille","lat":43.3021,"lon":5.39473,"is_reserved":false,"is_disabled":false,"rental_uris":{"android":"levelo://app?vid=4ecc53a1-1b7f-4ab1-81c8-9659a6fdab6d","ios":"levelo://app?vid=4ecc53a1-1b7f-4ab1-81c8-9659a6fdab6d"},"vehicle_type_id":"4","last_reported":1769617402,"current_range_meters":8400,"station_id":"ce4bh0p2rcd13ifvqd70","pricing_plan_id":"cebpf4jnsgd1na2vs0mg"},{"bike_id":"4ae21097-68ff-4a44-bcb7-3e142e11d517","system_id":"levelo_inurba_marseille","lat":43.24174,"lon":5.36394,"is_reserved":false,"is_disabled":false,"rental_uris":{"android":"levelo://app?vid=4ae21097-68ff-4a44-bcb7-3e142e11d517","ios":"levelo://app?vid=4ae21097-68ff-4a44-bcb7-3e142e11d517"},"vehicle_type_id":"4","last_reported":1769617402,"current_range_meters":8400,"station_id":"cpo36qri1sfpv3e86is0","pricing_plan_id":"cebpf4jnsgd1na2vs0mg"},{"bike_id":"b96775b7-8954-4f94-990f-968813344c58","system_id":"levelo_inurba_marseille","lat":43.312698,"lon":5.37799,"is_reserved":false,"is_disabled":false,"rental_uris":{"android":"levelo://app?vid=b96775b7-8954-4f94-990f-968813344c58","ios":"levelo://app?vid=b96775b7-8954-4f94-990f-968813344c58"},"vehicle_type_id":"4","last_reported":1769617402,"current_range_meters":8400,"station_id":"","pricing_plan_id":"cebpf4jnsgd1na2vs0mg"},{"bike_id":"ec92a3d7-0aaf-40cf-9513-2fb7d35cc0c4","system_id":"levelo_inurba_marseille","lat":43.23045,"lon":5.35497,"is_reserved":false,"is_disabled":false,"rental_uris":{"android":"levelo://app?vid=ec92a3d7-0aaf-40cf-9513-2fb7d35cc0c4","ios":"levelo://app?vid=ec92a3d7-0aaf-40cf-9513-2fb7d35cc0c4"},"vehicle_type_id":"4","last_reported":1769617402,"current_range_meters":8400,"station_id":"cpo3342slgdg3j2ifvpg","pricing_plan_id":"cebpf4jnsgd1na2vs0mg"},{"bike_id":"3eec611c-d8cb-4b54-9748-ae62ab9ddb70","system_id":"levelo_inurba_marseille","lat":43.22933,"lon":5.35367,"is_reserved":false,"is_disabled":false,"rental_uris":{"android":"levelo://app?vid=3eec611c-d8cb-4b54-9748-ae62ab9ddb70","ios":"levelo://app?vid=3eec611c-d8cb-4b54-9748-ae62ab9ddb70"},"vehicle_type_id":"4","last_reported":1769617402,"current_range_meters":8400,"station_id":"cpo3532slgdg3j2ikp40","pricing_plan_id":"cebpf4jnsgd1na2vs0mg"},{"bike_id":"8e9ef9c5-51d7-4081-874e-0eacc591463e","system_id":"levelo_inurba_marseille","lat":43.3081,"lon":5.38141,"is_reserved":false,"is_disabled":false,"rental_uris":{"android":"levelo://app?vid=8e9ef9c5-51d7-4081-874e-0eacc591463e","ios":"levelo://app?vid=8e9ef9c5-51d7-4081-874e-0eacc591463e"},"vehicle_type_id":"4","last_reported":1769617402,"current_range_meters":8400,"station_id":"ce4bgt12rcd13ifvqce0","pricing_plan_id":"cebpf4jnsgd1na2vs0mg"},{"bike_id":"c98b11d0-0520-418d-bfc6-d6149e6ffac9","system_id":"levelo_inurba_marseille","lat":43.2848,"lon":5.48392,"is_reserved":false,"is_disabled":false,"rental_uris":{"android":"levelo://app?vid=c98b11d0-0520-418d-bfc6-d6149e6ffac9","ios":"levelo://app?vid=c98b11d0-0520-418d-bfc6-d6149e6ffac9"},"vehicle_type_id":"4","last_reported":1769617402,"current_range_meters":8400,"station_id":"st_d3svhcjqgbts73a3dn0g","pricing_plan_id":"cebpf4jnsgd1na2vs0mg"},{"bike_id":"79009d73-0523-4c6d-91de-5993a965a866","system_id":"levelo_inurba_marseille","lat":43.25947,"lon":5.40898,"is_reserved":false,"is_disabled":false,"rental_uris":{"android":"levelo://app?vid=79009d73-0523-4c6d-91de-5993a965a866","ios":"levelo://app?vid=79009d73-0523-4c6d-91de-5993a965a866"},"vehicle_type_id":"4","last_reported":1769617402,"current_range_meters":8400,"station_id":"ce4bhm92rcd13ifvqglg","pricing_plan_id":"cebpf4jnsgd1na2vs0mg"},{"bike_id":"7814df40-9301-40b7-aba2-c38d6a9d242a","system_id":"levelo_inurba_marseille","lat":43.24949,"lon":5.4049,"is_reserved":false,"is_disabled":false,"rental_uris":{"android":"levelo://app?vid=7814df40-9301-40b7-aba2-c38d6a9d242a","ios":"levelo://app?vid=7814df40-9301-40b7-aba2-c38d6a9d242a"},"vehicle_type_id":"4","last_reported":1769617402,"current_range_meters":8400,"station_id":"st_d2ngiaodas8pm72gd1h0","pricing_plan_id":"cebpf4jnsgd1na2vs0mg"},{"bike_id":"9183a072-7ef7-40b6-9d57-92fed5e7631a","system_id":"levelo_inurba_marseille","lat":43.301266,"lon":5.431189,"is_reserved":false,"is_disabled":false,"rental_uris":{"android":"levelo://app?vid=9183a072-7ef7-40b6-9d57-92fed5e7631a","ios":"levelo://app?vid=9183a072-7ef7-40b6-9d57-92fed5e7631a"},"vehicle_type_id":"4","last_reported":1769617402,"current_range_meters":8800,"station_id":"st_d3js3co5814s73ftftug","pricing_plan_id":"cebpf4jnsgd1na2vs0mg"},{"bike_id":"bc230eaa-6d54-4e2d-8428-bb3463d83558","system_id":"levelo_inurba_marseille","lat":43.27319,"lon":5.39107,"is_reserved":false,"is_disabled":true,"rental_uris":{"android":"levelo://app?vid=bc230eaa-6d54-4e2d-8428-bb3463d83558","ios":"levelo://app?vid=bc230eaa-6d54-4e2d-8428-bb3463d83558"},"vehicle_type_id":"4","last_reported":1769617402,"current_range_meters":8800,"station_id":"ce4bhgp2rcd13ifvqfe0","pricing_plan_id":"cebpf4jnsgd1na2vs0mg"},{"bike_id":"9806da0f-d7e9-4daf-99fc-e3fd22a4da76","system_id":"levelo_inurba_marseille","lat":43.25935,"lon":5.40881,"is_reserved":false,"is_disabled":false,"rental_uris":{"android":"levelo://app?vid=9806da0f-d7e9-4daf-99fc-e3fd22a4da76","ios":"levelo://app?vid=9806da0f-d7e9-4daf-99fc-e3fd22a4da76"},"vehicle_type_id":"4","last_reported":1769617402,"current_range_meters":8800,"station_id":"ce4bhm92rcd13ifvqglg","pricing_plan_id":"cebpf4jnsgd1na2vs0mg"},{"bike_id":"d58f344c-cd0b-44a8-8dbf-ba727762a67b","system_id":"levelo_inurba_marseille","lat":43.231553,"lon":5.437145,"is_reserved":false,"is_disabled":false,"rental_uris":{"android":"levelo://app?vid=d58f344c-cd0b-44a8-8dbf-ba727762a67b","ios":"levelo://app?vid=d58f344c-cd0b-44a8-8dbf-ba727762a67b"},"vehicle_type_id":"4","last_reported":1769617402,"current_range_meters":8800,"station_id":"ce4bhmp2rcd13ifvqgog","pricing_plan_id":"cebpf4jnsgd1na2vs0mg"},{"bike_id":"3e6599b3-80f5-4cb4-a947-9865a5671465","system_id":"levelo_inurba_marseille","lat":43.27624,"lon":5.36098,"is_reserved":false,"is_disabled":false,"rental_uris":{"android":"levelo://app?vid=3e6599b3-80f5-4cb4-a947-9865a5671465","ios":"levelo://app?vid=3e6599b3-80f5-4cb4-a947-9865a5671465"},"vehicle_type_id":"4","last_reported":1769617402,"current_range_meters":8800,"station_id":"ce4bgj92rcd13ifvqbe0","pricing_plan_id":"cebpf4jnsgd1na2vs0mg"},{"bike_id":"b429b966-0050-4ea1-b7b9-c7d25fe61968","system_id":"levelo_inurba_marseille","lat":43.31365,"lon":5.38487,"is_reserved":false,"is_disabled":false,"rental_uris":{"android":"levelo://app?vid=b429b966-0050-4ea1-b7b9-c7d25fe61968","ios":"levelo://app?vid=b429b966-0050-4ea1-b7b9-c7d25fe61968"},"vehicle_type_id":"4","last_reported":1769617402,"current_range_meters":8800,"station_id":"ce4bgt92rcd13ifvqcf0","pricing_plan_id":"cebpf4jnsgd1na2vs0mg"},{"bike_id":"00291af5-ec22-4614-b75d-6464de594e46","system_id":"levelo_inurba_marseille","lat":43.29715,"lon":5.36624,"is_reserved":false,"is_disabled":false,"rental_uris":{"android":"levelo://app?vid=00291af5-ec22-4614-b75d-6464de594e46","ios":"levelo://app?vid=00291af5-ec22-4614-b75d-6464de594e46"},"vehicle_type_id":"4","last_reported":1769617402,"current_range_meters":8800,"station_id":"ce4bgn12rcd13ifvqbt0","pricing_plan_id":"cebpf4jnsgd1na2vs0mg"},{"bike_id":"dcc20a74-9ba4-4119-a5f5-ce0a76ef7ac9","system_id":"levelo_inurba_marseille","lat":43.22557,"lon":5.41634,"is_reserved":false,"is_disabled":false,"rental_uris":{"android":"levelo://app?vid=dcc20a74-9ba4-4119-a5f5-ce0a76ef7ac9","ios":"levelo://app?vid=dcc20a74-9ba4-4119-a5f5-ce0a76ef7ac9"},"vehicle_type_id":"4","last_reported":1769617402,"current_range_meters":8800,"station_id":"st_d2o4gvlbi1j2169b742g","pricing_plan_id":"cebpf4jnsgd1na2vs0mg"},{"bike_id":"541aab47-c46a-45ce-9946-ea87420fea14","system_id":"levelo_inurba_marseille","lat":43.23191,"lon":5.3997,"is_reserved":false,"is_disabled":false,"rental_uris":{"android":"levelo://app?vid=541aab47-c46a-45ce-9946-ea87420fea14","ios":"levelo://app?vid=541aab47-c46a-45ce-9946-ea87420fea14"},"vehicle_type_id":"4","last_reported":1769617402,"current_range_meters":8800,"station_id":"ce4bhn12rcd13ifvqgqg","pricing_plan_id":"cebpf4jnsgd1na2vs0mg"},{"bike_id":"d6347785-7f4b-4520-b64a-bf5bb0e98944","system_id":"levelo_inurba_marseille","lat":43.25032,"lon":5.38917,"is_reserved":false,"is_disabled":false,"rental_uris":{"android":"levelo://app?vid=d6347785-7f4b-4520-b64a-bf5bb0e98944","ios":"levelo://app?vid=d6347785-7f4b-4520-b64a-bf5bb0e98944"},"vehicle_type_id":"4","last_reported":1769617402,"current_range_meters":8800,"station_id":"ce4bhgp2rcd13ifvqfd0","pricing_plan_id":"cebpf4jnsgd1na2vs0mg"},{"bike_id":"f52ff7bd-303f-46aa-8ed6-7ece3160556f","system_id":"levelo_inurba_marseille","lat":43.29203,"lon":5.39325,"is_reserved":false,"is_disabled":false,"rental_uris":{"android":"levelo://app?vid=f52ff7bd-303f-46aa-8ed6-7ece3160556f","ios":"levelo://app?vid=f52ff7bd-303f-46aa-8ed6-7ece3160556f"},"vehicle_type_id":"4","last_reported":1769617402,"current_range_meters":8800,"station_id":"ce4bh192rcd13ifvqdd0","pricing_plan_id":"cebpf4jnsgd1na2vs0mg"},{"bike_id":"c7802c4d-80f3-4f87-9df7-794ace2c59b6","system_id":"levelo_inurba_marseille","lat":43.27923,"lon":5.39594,"is_reserved":false,"is_disabled":false,"rental_uris":{"android":"levelo://app?vid=c7802c4d-80f3-4f87-9df7-794ace2c59b6","ios":"levelo://app?vid=c7802c4d-80f3-4f87-9df7-794ace2c59b6"},"vehicle_type_id":"4","last_reported":1769617402,"current_range_meters":8800,"station_id":"ce4bhf92rcd13ifvqf40","pricing_plan_id":"cebpf4jnsgd1na2vs0mg"},{"bike_id":"8fdc1c7a-25d1-4e64-953d-e07a656683da","system_id":"levelo_inurba_marseille","lat":43.25936,"lon":5.40919,"is_reserved":false,"is_disabled":false,"rental_uris":{"android":"levelo://app?vid=8fdc1c7a-25d1-4e64-953d-e07a656683da","ios":"levelo://app?vid=8fdc1c7a-25d1-4e64-953d-e07a656683da"},"vehicle_type_id":"4","last_reported":1769617402,"current_range_meters":8800,"station_id":"ce4bhm92rcd13ifvqglg","pricing_plan_id":"cebpf4jnsgd1na2vs0mg"},{"bike_id":"acd96625-8bb2-4602-a347-89dd6b6fe562","system_id":"levelo_inurba_marseille","lat":43.27814,"lon":5.40705,"is_reserved":false,"is_disabled":false,"rental_uris":{"android":"levelo://app?vid=acd96625-8bb2-4602-a347-89dd6b6fe562","ios":"levelo://app?vid=acd96625-8bb2-4602-a347-89dd6b6fe562"},"vehicle_type_id":"4","last_reported":1769617402,"current_range_meters":8800,"station_id":"ce4bhnh2rcd13ifvqgtg","pricing_plan_id":"cebpf4jnsgd1na2vs0mg"},{"bike_id":"8c50cc1b-6957-4db2-9b96-76d9d37bac03","system_id":"levelo_inurba_marseille","lat":43.2256,"lon":5.41636,"is_reserved":false,"is_disabled":false,"rental_uris":{"android":"levelo://app?vid=8c50cc1b-6957-4db2-9b96-76d9d37bac03","ios":"levelo://app?vid=8c50cc1b-6957-4db2-9b96-76d9d37bac03"},"vehicle_type_id":"4","last_reported":1769617402,"current_range_meters":8800,"station_id":"st_d2o4gvlbi1j2169b742g","pricing_plan_id":"cebpf4jnsgd1na2vs0mg"},{"bike_id":"afdc24cc-9a53-4aed-97d6-3d64d7b8b7d7","system_id":"levelo_inurba_marseille","lat":43.29259,"lon":5.37615,"is_reserved":false,"is_disabled":false,"rental_uris":{"android":"levelo://app?vid=afdc24cc-9a53-4aed-97d6-3d64d7b8b7d7","ios":"levelo://app?vid=afdc24cc-9a53-4aed-97d6-3d64d7b8b7d7"},"vehicle_type_id":"4","last_reported":1769617402,"current_range_meters":8800,"station_id":"ce4bgi12rcd13ifvqb80","pricing_plan_id":"cebpf4jnsgd1na2vs0mg"},{"bike_id":"36855e79-f7ac-4112-b45f-3779dd796963","system_id":"levelo_inurba_marseille","lat":43.30189,"lon":5.37375,"is_reserved":false,"is_disabled":false,"rental_uris":{"android":"levelo://app?vid=36855e79-f7ac-4112-b45f-3779dd796963","ios":"levelo://app?vid=36855e79-f7ac-4112-b45f-3779dd796963"},"vehicle_type_id":"4","last_reported":1769617402,"current_range_meters":8800,"station_id":"","pricing_plan_id":"cebpf4jnsgd1na2vs0mg"},{"bike_id":"87bf4af5-83ae-4178-bcd8-7b8589eff09a","system_id":"levelo_inurba_marseille","lat":43.297821,"lon":5.39341,"is_reserved":false,"is_disabled":false,"rental_uris":{"android":"levelo://app?vid=87bf4af5-83ae-4178-bcd8-7b8589eff09a","ios":"levelo://app?vid=87bf4af5-83ae-4178-bcd8-7b8589eff09a"},"vehicle_type_id":"4","last_reported":1769617402,"current_range_meters":8800,"station_id":"chh1huq6cuj3fo74tm60","pricing_plan_id":"cebpf4jnsgd1na2vs0mg"},{"bike_id":"12d18314-b173-4f53-8c34-39de8e2a6514","system_id":"levelo_inurba_marseille","lat":43.28437,"lon":5.38775,"is_reserved":false,"is_disabled":false,"rental_uris":{"android":"levelo://app?vid=12d18314-b173-4f53-8c34-39de8e2a6514","ios":"levelo://app?vid=12d18314-b173-4f53-8c34-39de8e2a6514"},"vehicle_type_id":"4","last_reported":1769617402,"current_range_meters":9200,"station_id":"","pricing_plan_id":"cebpf4jnsgd1na2vs0mg"},{"bike_id":"fddf3715-62d2-4b24-baf0-841e87ac1807","system_id":"levelo_inurba_marseille","lat":43.29098,"lon":5.38151,"is_reserved":false,"is_disabled":false,"rental_uris":{"android":"levelo://app?vid=fddf3715-62d2-4b24-baf0-841e87ac1807","ios":"levelo://app?vid=fddf3715-62d2-4b24-baf0-841e87ac1807"},"vehicle_type_id":"4","last_reported":1769617402,"current_range_meters":9200,"station_id":"ce4bh512rcd13ifvqe2g","pricing_plan_id":"cebpf4jnsgd1na2vs0mg"},{"bike_id":"a9d61f59-4fb7-4f9c-8f78-ddfcb7d9a59d","system_id":"levelo_inurba_marseille","lat":43.30169,"lon":5.38091,"is_reserved":false,"is_disabled":false,"rental_uris":{"android":"levelo://app?vid=a9d61f59-4fb7-4f9c-8f78-ddfcb7d9a59d","ios":"levelo://app?vid=a9d61f59-4fb7-4f9c-8f78-ddfcb7d9a59d"},"vehicle_type_id":"4","last_reported":1769617402,"current_range_meters":9200,"station_id":"ce4bgjp2rcd13ifvqbh0","pricing_plan_id":"cebpf4jnsgd1na2vs0mg"},{"bike_id":"82693396-ff61-48ee-9772-fee51d6503d4","system_id":"levelo_inurba_marseille","lat":43.29559,"lon":5.42266,"is_reserved":false,"is_disabled":false,"rental_uris":{"android":"levelo://app?vid=82693396-ff61-48ee-9772-fee51d6503d4","ios":"levelo://app?vid=82693396-ff61-48ee-9772-fee51d6503d4"},"vehicle_type_id":"4","last_reported":1769617402,"current_range_meters":9200,"station_id":"ce4bhph2rcd13ifvqhdg","pricing_plan_id":"cebpf4jnsgd1na2vs0mg"},{"bike_id":"01e080c5-1a4f-426d-9ba3-d140acdb45e9","system_id":"levelo_inurba_marseille","lat":43.31371,"lon":5.38498,"is_reserved":false,"is_disabled":false,"rental_uris":{"android":"levelo://app?vid=01e080c5-1a4f-426d-9ba3-d140acdb45e9","ios":"levelo://app?vid=01e080c5-1a4f-426d-9ba3-d140acdb45e9"},"vehicle_type_id":"4","last_reported":1769617402,"current_range_meters":9200,"station_id":"ce4bgt92rcd13ifvqcf0","pricing_plan_id":"cebpf4jnsgd1na2vs0mg"},{"bike_id":"3d405854-a3e9-4cc4-bcac-5ce2eff49e57","system_id":"levelo_inurba_marseille","lat":43.23193,"lon":5.39982,"is_reserved":false,"is_disabled":false,"rental_uris":{"android":"levelo://app?vid=3d405854-a3e9-4cc4-bcac-5ce2eff49e57","ios":"levelo://app?vid=3d405854-a3e9-4cc4-bcac-5ce2eff49e57"},"vehicle_type_id":"4","last_reported":1769617402,"current_range_meters":9200,"station_id":"ce4bhn12rcd13ifvqgqg","pricing_plan_id":"cebpf4jnsgd1na2vs0mg"},{"bike_id":"802f6e05-7249-407a-aac4-32d2041628b8","system_id":"levelo_inurba_marseille","lat":43.23066,"lon":5.35493,"is_reserved":false,"is_disabled":false,"rental_uris":{"android":"levelo://app?vid=802f6e05-7249-407a-aac4-32d2041628b8","ios":"levelo://app?vid=802f6e05-7249-407a-aac4-32d2041628b8"},"vehicle_type_id":"4","last_reported":1769617402,"current_range_meters":9200,"station_id":"cpo3342slgdg3j2ifvpg","pricing_plan_id":"cebpf4jnsgd1na2vs0mg"},{"bike_id":"35f15010-0cea-4062-a96d-4fa73c967036","system_id":"levelo_inurba_marseille","lat":43.30333,"lon":5.40433,"is_reserved":false,"is_disabled":false,"rental_uris":{"android":"levelo://app?vid=35f15010-0cea-4062-a96d-4fa73c967036","ios":"levelo://app?vid=35f15010-0cea-4062-a96d-4fa73c967036"},"vehicle_type_id":"4","last_reported":1769617402,"current_range_meters":9200,"station_id":"ce4bh012rcd13ifvqd10","pricing_plan_id":"cebpf4jnsgd1na2vs0mg"},{"bike_id":"cb954134-7a8b-40c9-b8c9-84bc8465956e","system_id":"levelo_inurba_marseille","lat":43.230858,"lon":5.364286,"is_reserved":false,"is_disabled":false,"rental_uris":{"android":"levelo://app?vid=cb954134-7a8b-40c9-b8c9-84bc8465956e","ios":"levelo://app?vid=cb954134-7a8b-40c9-b8c9-84bc8465956e"},"vehicle_type_id":"4","last_reported":1769617402,"current_range_meters":9200,"station_id":"st_d3nk18o9ro0c73en2l3g","pricing_plan_id":"cebpf4jnsgd1na2vs0mg"},{"bike_id":"58561bee-b9b4-40cb-a81c-4908ef2f3de1","system_id":"levelo_inurba_marseille","lat":43.27363,"lon":5.3624,"is_reserved":false,"is_disabled":false,"rental_uris":{"android":"levelo://app?vid=58561bee-b9b4-40cb-a81c-4908ef2f3de1","ios":"levelo://app?vid=58561bee-b9b4-40cb-a81c-4908ef2f3de1"},"vehicle_type_id":"4","last_reported":1769617402,"current_range_meters":9200,"station_id":"ce4bhbh2rcd13ifvqeo0","pricing_plan_id":"cebpf4jnsgd1na2vs0mg"},{"bike_id":"ba94ad88-2d86-4f15-a70c-04c6ad4ea30f","system_id":"levelo_inurba_marseille","lat":43.33141,"lon":5.37728,"is_reserved":false,"is_disabled":false,"rental_uris":{"android":"levelo://app?vid=ba94ad88-2d86-4f15-a70c-04c6ad4ea30f","ios":"levelo://app?vid=ba94ad88-2d86-4f15-a70c-04c6ad4ea30f"},"vehicle_type_id":"4","last_reported":1769617402,"current_range_meters":9200,"station_id":"st_d46cu089ee8s73dldbu0","pricing_plan_id":"cebpf4jnsgd1na2vs0mg"},{"bike_id":"deeef887-0bb4-4222-9aa5-3cc8ee9118f5","system_id":"levelo_inurba_marseille","lat":43.24178,"lon":5.39727,"is_reserved":false,"is_disabled":false,"rental_uris":{"android":"levelo://app?vid=deeef887-0bb4-4222-9aa5-3cc8ee9118f5","ios":"levelo://app?vid=deeef887-0bb4-4222-9aa5-3cc8ee9118f5"},"vehicle_type_id":"4","last_reported":1769617402,"current_range_meters":9200,"station_id":"ce4bhn12rcd13ifvqgpg","pricing_plan_id":"cebpf4jnsgd1na2vs0mg"},{"bike_id":"cef89498-fbf9-4ad5-afa6-46a5eea10249","system_id":"levelo_inurba_marseille","lat":43.27353,"lon":5.40952,"is_reserved":false,"is_disabled":false,"rental_uris":{"android":"levelo://app?vid=cef89498-fbf9-4ad5-afa6-46a5eea10249","ios":"levelo://app?vid=cef89498-fbf9-4ad5-afa6-46a5eea10249"},"vehicle_type_id":"4","last_reported":1769617402,"current_range_meters":9200,"station_id":"","pricing_plan_id":"cebpf4jnsgd1na2vs0mg"},{"bike_id":"29e658f4-2359-46f1-90c1-df0499696a70","system_id":"levelo_inurba_marseille","lat":43.3012,"lon":5.43123,"is_reserved":false,"is_disabled":false,"rental_uris":{"android":"levelo://app?vid=29e658f4-2359-46f1-90c1-df0499696a70","ios":"levelo://app?vid=29e658f4-2359-46f1-90c1-df0499696a70"},"vehicle_type_id":"4","last_reported":1769617402,"current_range_meters":9600,"station_id":"st_d3js3co5814s73ftftug","pricing_plan_id":"cebpf4jnsgd1na2vs0mg"},{"bike_id":"9530e525-99a6-44ef-9550-48c35496d598","system_id":"levelo_inurba_marseille","lat":43.335393,"lon":5.374691,"is_reserved":false,"is_disabled":false,"rental_uris":{"android":"levelo://app?vid=9530e525-99a6-44ef-9550-48c35496d598","ios":"levelo://app?vid=9530e525-99a6-44ef-9550-48c35496d598"},"vehicle_type_id":"4","last_reported":1769617402,"current_range_meters":9600,"station_id":"st_d46tts09ee8s73dlu43g","pricing_plan_id":"cebpf4jnsgd1na2vs0mg"},{"bike_id":"fa3935ca-5664-431b-81b3-d462965b7a2a","system_id":"levelo_inurba_marseille","lat":43.23146,"lon":5.43706,"is_reserved":false,"is_disabled":false,"rental_uris":{"android":"levelo://app?vid=fa3935ca-5664-431b-81b3-d462965b7a2a","ios":"levelo://app?vid=fa3935ca-5664-431b-81b3-d462965b7a2a"},"vehicle_type_id":"4","last_reported":1769617402,"current_range_meters":9600,"station_id":"ce4bhmp2rcd13ifvqgog","pricing_plan_id":"cebpf4jnsgd1na2vs0mg"},{"bike_id":"22dd7102-5e9d-4ffe-ae0f-c40e1137ef8e","system_id":"levelo_inurba_marseille","lat":43.30144,"lon":5.37417,"is_reserved":false,"is_disabled":false,"rental_uris":{"android":"levelo://app?vid=22dd7102-5e9d-4ffe-ae0f-c40e1137ef8e","ios":"levelo://app?vid=22dd7102-5e9d-4ffe-ae0f-c40e1137ef8e"},"vehicle_type_id":"4","last_reported":1769617402,"current_range_meters":9600,"station_id":"ce4bgs92rcd13ifvqcc0","pricing_plan_id":"cebpf4jnsgd1na2vs0mg"},{"bike_id":"f6f91ef8-0b02-4d84-a7ce-57102fb1df94","system_id":"levelo_inurba_marseille","lat":43.245483,"lon":5.395303,"is_reserved":false,"is_disabled":false,"rental_uris":{"android":"levelo://app?vid=f6f91ef8-0b02-4d84-a7ce-57102fb1df94","ios":"levelo://app?vid=f6f91ef8-0b02-4d84-a7ce-57102fb1df94"},"vehicle_type_id":"4","last_reported":1769617402,"current_range_meters":9600,"station_id":"ce4bhlp2rcd13ifvqgjg","pricing_plan_id":"cebpf4jnsgd1na2vs0mg"},{"bike_id":"16199858-b735-4ef4-aea3-a073cd0a7000","system_id":"levelo_inurba_marseille","lat":43.255796,"lon":5.382321,"is_reserved":false,"is_disabled":false,"rental_uris":{"android":"levelo://app?vid=16199858-b735-4ef4-aea3-a073cd0a7000","ios":"levelo://app?vid=16199858-b735-4ef4-aea3-a073cd0a7000"},"vehicle_type_id":"4","last_reported":1769617402,"current_range_meters":9600,"station_id":"ce4bhih2rcd13ifvqfs0","pricing_plan_id":"cebpf4jnsgd1na2vs0mg"},{"bike_id":"70c8e946-935d-472e-a5f3-1a97a017c367","system_id":"levelo_inurba_marseille","lat":43.32487,"lon":5.36561,"is_reserved":false,"is_disabled":false,"rental_uris":{"android":"levelo://app?vid=70c8e946-935d-472e-a5f3-1a97a017c367","ios":"levelo://app?vid=70c8e946-935d-472e-a5f3-1a97a017c367"},"vehicle_type_id":"4","last_reported":1769617402,"current_range_meters":9600,"station_id":"ce4bhs12rcd13ifvqhvg","pricing_plan_id":"cebpf4jnsgd1na2vs0mg"},{"bike_id":"85b1b1e1-c458-4711-86a6-2ddb2584b733","system_id":"levelo_inurba_marseille","lat":43.33547,"lon":5.37465,"is_reserved":false,"is_disabled":false,"rental_uris":{"android":"levelo://app?vid=85b1b1e1-c458-4711-86a6-2ddb2584b733","ios":"levelo://app?vid=85b1b1e1-c458-4711-86a6-2ddb2584b733"},"vehicle_type_id":"4","last_reported":1769617402,"current_range_meters":9600,"station_id":"st_d46tts09ee8s73dlu43g","pricing_plan_id":"cebpf4jnsgd1na2vs0mg"},{"bike_id":"e236f0a6-2e87-48ed-94ce-e49f696f4842","system_id":"levelo_inurba_marseille","lat":43.265931,"lon":5.375035,"is_reserved":false,"is_disabled":false,"rental_uris":{"android":"levelo://app?vid=e236f0a6-2e87-48ed-94ce-e49f696f4842","ios":"levelo://app?vid=e236f0a6-2e87-48ed-94ce-e49f696f4842"},"vehicle_type_id":"4","last_reported":1769617402,"current_range_meters":9600,"station_id":"","pricing_plan_id":"cebpf4jnsgd1na2vs0mg"},{"bike_id":"a58dc732-5bf5-4207-8eae-ec0e6318e474","system_id":"levelo_inurba_marseille","lat":43.28484,"lon":5.38425,"is_reserved":false,"is_disabled":false,"rental_uris":{"android":"levelo://app?vid=a58dc732-5bf5-4207-8eae-ec0e6318e474","ios":"levelo://app?vid=a58dc732-5bf5-4207-8eae-ec0e6318e474"},"vehicle_type_id":"4","last_reported":1769617402,"current_range_meters":9600,"station_id":"ce4bh512rcd13ifvqe3g","pricing_plan_id":"cebpf4jnsgd1na2vs0mg"},{"bike_id":"59cbeb58-8810-4391-87bf-67d8c1a0726a","system_id":"levelo_inurba_marseille","lat":43.26943,"lon":5.38921,"is_reserved":false,"is_disabled":false,"rental_uris":{"android":"levelo://app?vid=59cbeb58-8810-4391-87bf-67d8c1a0726a","ios":"levelo://app?vid=59cbeb58-8810-4391-87bf-67d8c1a0726a"},"vehicle_type_id":"4","last_reported":1769617402,"current_range_meters":9600,"station_id":"ce4bhhh2rcd13ifvqfl0","pricing_plan_id":"cebpf4jnsgd1na2vs0mg"},{"bike_id":"1bfe2930-bdb0-4422-9fe9-421cffed6f81","system_id":"levelo_inurba_marseille","lat":43.25925,"lon":5.40915,"is_reserved":false,"is_disabled":false,"rental_uris":{"android":"levelo://app?vid=1bfe2930-bdb0-4422-9fe9-421cffed6f81","ios":"levelo://app?vid=1bfe2930-bdb0-4422-9fe9-421cffed6f81"},"vehicle_type_id":"4","last_reported":1769617402,"current_range_meters":9600,"station_id":"ce4bhm92rcd13ifvqglg","pricing_plan_id":"cebpf4jnsgd1na2vs0mg"},{"bike_id":"91c320d2-3861-4d9c-b122-2378e23c9a68","system_id":"levelo_inurba_marseille","lat":43.24814,"lon":5.37468,"is_reserved":false,"is_disabled":false,"rental_uris":{"android":"levelo://app?vid=91c320d2-3861-4d9c-b122-2378e23c9a68","ios":"levelo://app?vid=91c320d2-3861-4d9c-b122-2378e23c9a68"},"vehicle_type_id":"4","last_reported":1769617402,"current_range_meters":9600,"station_id":"ce4bhgh2rcd13ifvqfb0","pricing_plan_id":"cebpf4jnsgd1na2vs0mg"},{"bike_id":"de9f3d40-ab0b-4815-9ff8-6a221add92bf","system_id":"levelo_inurba_marseille","lat":43.3316,"lon":5.37691,"is_reserved":false,"is_disabled":false,"rental_uris":{"android":"levelo://app?vid=de9f3d40-ab0b-4815-9ff8-6a221add92bf","ios":"levelo://app?vid=de9f3d40-ab0b-4815-9ff8-6a221add92bf"},"vehicle_type_id":"4","last_reported":1769617402,"current_range_meters":9600,"station_id":"st_d46cu089ee8s73dldbu0","pricing_plan_id":"cebpf4jnsgd1na2vs0mg"},{"bike_id":"4bd6cb39-f26e-431f-9c48-bc9838a79167","system_id":"levelo_inurba_marseille","lat":43.29805,"lon":5.44063,"is_reserved":false,"is_disabled":false,"rental_uris":{"android":"levelo://app?vid=4bd6cb39-f26e-431f-9c48-bc9838a79167","ios":"levelo://app?vid=4bd6cb39-f26e-431f-9c48-bc9838a79167"},"vehicle_type_id":"4","last_reported":1769617402,"current_range_meters":9600,"station_id":"st_d3jp68qikq2c7381ktn0","pricing_plan_id":"cebpf4jnsgd1na2vs0mg"},{"bike_id":"bbf12486-e043-443d-8c79-9a273772c204","system_id":"levelo_inurba_marseille","lat":43.23194,"lon":5.39974,"is_reserved":false,"is_disabled":false,"rental_uris":{"android":"levelo://app?vid=bbf12486-e043-443d-8c79-9a273772c204","ios":"levelo://app?vid=bbf12486-e043-443d-8c79-9a273772c204"},"vehicle_type_id":"4","last_reported":1769617402,"current_range_meters":10000,"station_id":"ce4bhn12rcd13ifvqgqg","pricing_plan_id":"cebpf4jnsgd1na2vs0mg"},{"bike_id":"f9f433f8-c18c-4a42-bb0c-796736b3decc","system_id":"levelo_inurba_marseille","lat":43.23792,"lon":5.36626,"is_reserved":false,"is_disabled":false,"rental_uris":{"android":"levelo://app?vid=f9f433f8-c18c-4a42-bb0c-796736b3decc","ios":"levelo://app?vid=f9f433f8-c18c-4a42-bb0c-796736b3decc"},"vehicle_type_id":"4","last_reported":1769617402,"current_range_meters":10000,"station_id":"st_d3nk18o9ro0c73en2l3g","pricing_plan_id":"cebpf4jnsgd1na2vs0mg"},{"bike_id":"60ebce89-9b49-41d8-b1d5-1fdb022bac99","system_id":"levelo_inurba_marseille","lat":43.33674,"lon":5.37358,"is_reserved":false,"is_disabled":false,"rental_uris":{"android":"levelo://app?vid=60ebce89-9b49-41d8-b1d5-1fdb022bac99","ios":"levelo://app?vid=60ebce89-9b49-41d8-b1d5-1fdb022bac99"},"vehicle_type_id":"4","last_reported":1769617402,"current_range_meters":10000,"station_id":"","pricing_plan_id":"cebpf4jnsgd1na2vs0mg"},{"bike_id":"7b6d8a8b-d351-4282-bf84-c6e7865bd8af","system_id":"levelo_inurba_marseille","lat":43.24631,"lon":5.38899,"is_reserved":false,"is_disabled":false,"rental_uris":{"android":"levelo://app?vid=7b6d8a8b-d351-4282-bf84-c6e7865bd8af","ios":"levelo://app?vid=7b6d8a8b-d351-4282-bf84-c6e7865bd8af"},"vehicle_type_id":"4","last_reported":1769617402,"current_range_meters":10000,"station_id":"ce4bhg12rcd13ifvqf60","pricing_plan_id":"cebpf4jnsgd1na2vs0mg"},{"bike_id":"49240dba-9adf-49d7-95a1-45579491cf97","system_id":"levelo_inurba_marseille","lat":43.28435,"lon":5.39184,"is_reserved":false,"is_disabled":true,"rental_uris":{"android":"levelo://app?vid=49240dba-9adf-49d7-95a1-45579491cf97","ios":"levelo://app?vid=49240dba-9adf-49d7-95a1-45579491cf97"},"vehicle_type_id":"4","last_reported":1769617402,"current_range_meters":10000,"station_id":"ce4bhoh2rcd13ifvqh5g","pricing_plan_id":"cebpf4jnsgd1na2vs0mg"},{"bike_id":"bb6db0b0-a7e3-42a8-992e-e2e55dc89d52","system_id":"levelo_inurba_marseille","lat":43.33164,"lon":5.37689,"is_reserved":false,"is_disabled":false,"rental_uris":{"android":"levelo://app?vid=bb6db0b0-a7e3-42a8-992e-e2e55dc89d52","ios":"levelo://app?vid=bb6db0b0-a7e3-42a8-992e-e2e55dc89d52"},"vehicle_type_id":"4","last_reported":1769617402,"current_range_meters":10000,"station_id":"st_d46cu089ee8s73dldbu0","pricing_plan_id":"cebpf4jnsgd1na2vs0mg"},{"bike_id":"5ac42f77-e34f-41fe-bd32-78022533dad4","system_id":"levelo_inurba_marseille","lat":43.30154,"lon":5.38091,"is_reserved":false,"is_disabled":false,"rental_uris":{"android":"levelo://app?vid=5ac42f77-e34f-41fe-bd32-78022533dad4","ios":"levelo://app?vid=5ac42f77-e34f-41fe-bd32-78022533dad4"},"vehicle_type_id":"4","last_reported":1769617402,"current_range_meters":10000,"station_id":"ce4bgjp2rcd13ifvqbh0","pricing_plan_id":"cebpf4jnsgd1na2vs0mg"},{"bike_id":"404cd129-cc8d-4d81-bd34-c17cab37f293","system_id":"levelo_inurba_marseille","lat":43.292575,"lon":5.376178,"is_reserved":false,"is_disabled":false,"rental_uris":{"android":"levelo://app?vid=404cd129-cc8d-4d81-bd34-c17cab37f293","ios":"levelo://app?vid=404cd129-cc8d-4d81-bd34-c17cab37f293"},"vehicle_type_id":"4","last_reported":1769617402,"current_range_meters":10000,"station_id":"ce4bgi12rcd13ifvqb80","pricing_plan_id":"cebpf4jnsgd1na2vs0mg"},{"bike_id":"4981ea48-1021-4b8b-808e-cccde9eb9b5b","system_id":"levelo_inurba_marseille","lat":43.29574,"lon":5.39983,"is_reserved":false,"is_disabled":false,"rental_uris":{"android":"levelo://app?vid=4981ea48-1021-4b8b-808e-cccde9eb9b5b","ios":"levelo://app?vid=4981ea48-1021-4b8b-808e-cccde9eb9b5b"},"vehicle_type_id":"4","last_reported":1769617402,"current_range_meters":10000,"station_id":"ce4bh312rcd13ifvqdj0","pricing_plan_id":"cebpf4jnsgd1na2vs0mg"},{"bike_id":"5b9af9c8-ab19-441d-acd8-7342e6f59eff","system_id":"levelo_inurba_marseille","lat":43.260318,"lon":5.375463,"is_reserved":false,"is_disabled":false,"rental_uris":{"android":"levelo://app?vid=5b9af9c8-ab19-441d-acd8-7342e6f59eff","ios":"levelo://app?vid=5b9af9c8-ab19-441d-acd8-7342e6f59eff"},"vehicle_type_id":"4","last_reported":1769617402,"current_range_meters":10000,"station_id":"ce4bhgh2rcd13ifvqfa0","pricing_plan_id":"cebpf4jnsgd1na2vs0mg"},{"bike_id":"92ac9ca0-f0b4-4afa-9cdd-b121e9de80a9","system_id":"levelo_inurba_marseille","lat":43.2621,"lon":5.37444,"is_reserved":false,"is_disabled":false,"rental_uris":{"android":"levelo://app?vid=92ac9ca0-f0b4-4afa-9cdd-b121e9de80a9","ios":"levelo://app?vid=92ac9ca0-f0b4-4afa-9cdd-b121e9de80a9"},"vehicle_type_id":"4","last_reported":1769617402,"current_range_meters":10000,"station_id":"ce4bhgp2rcd13ifvqfc0","pricing_plan_id":"cebpf4jnsgd1na2vs0mg"},{"bike_id":"65eb5cb0-a6f7-4de3-a9be-a5e0a4386045","system_id":"levelo_inurba_marseille","lat":43.33157,"lon":5.37701,"is_reserved":false,"is_disabled":false,"rental_uris":{"android":"levelo://app?vid=65eb5cb0-a6f7-4de3-a9be-a5e0a4386045","ios":"levelo://app?vid=65eb5cb0-a6f7-4de3-a9be-a5e0a4386045"},"vehicle_type_id":"4","last_reported":1769617402,"current_range_meters":10000,"station_id":"st_d46cu089ee8s73dldbu0","pricing_plan_id":"cebpf4jnsgd1na2vs0mg"},{"bike_id":"6d88ae14-0c65-4e4e-9655-eb3c763e3e25","system_id":"levelo_inurba_marseille","lat":43.29523,"lon":5.38529,"is_reserved":false,"is_disabled":false,"rental_uris":{"android":"levelo://app?vid=6d88ae14-0c65-4e4e-9655-eb3c763e3e25","ios":"levelo://app?vid=6d88ae14-0c65-4e4e-9655-eb3c763e3e25"},"vehicle_type_id":"4","last_reported":1769617402,"current_range_meters":10000,"station_id":"ce4bgih2rcd13ifvqba0","pricing_plan_id":"cebpf4jnsgd1na2vs0mg"},{"bike_id":"e6253678-846f-4727-94ff-291485141698","system_id":"levelo_inurba_marseille","lat":43.23788,"lon":5.36639,"is_reserved":false,"is_disabled":false,"rental_uris":{"android":"levelo://app?vid=e6253678-846f-4727-94ff-291485141698","ios":"levelo://app?vid=e6253678-846f-4727-94ff-291485141698"},"vehicle_type_id":"4","last_reported":1769617402,"current_range_meters":10000,"station_id":"st_d3nk18o9ro0c73en2l3g","pricing_plan_id":"cebpf4jnsgd1na2vs0mg"},{"bike_id":"a1adbbcc-56be-41a6-a560-f4a5e4282b51","system_id":"levelo_inurba_marseille","lat":43.28427,"lon":5.34987,"is_reserved":false,"is_disabled":false,"rental_uris":{"android":"levelo://app?vid=a1adbbcc-56be-41a6-a560-f4a5e4282b51","ios":"levelo://app?vid=a1adbbcc-56be-41a6-a560-f4a5e4282b51"},"vehicle_type_id":"4","last_reported":1769617402,"current_range_meters":10000,"station_id":"ce4bhbh2rcd13ifvqepg","pricing_plan_id":"cebpf4jnsgd1na2vs0mg"},{"bike_id":"819981c6-c09c-48f5-aa65-3e2fffd4d035","system_id":"levelo_inurba_marseille","lat":43.27213,"lon":5.39165,"is_reserved":false,"is_disabled":false,"rental_uris":{"android":"levelo://app?vid=819981c6-c09c-48f5-aa65-3e2fffd4d035","ios":"levelo://app?vid=819981c6-c09c-48f5-aa65-3e2fffd4d035"},"vehicle_type_id":"4","last_reported":1769617402,"current_range_meters":10000,"station_id":"ce4bhhp2rcd13ifvqfm0","pricing_plan_id":"cebpf4jnsgd1na2vs0mg"},{"bike_id":"a29e34a5-6ea0-4157-bd12-47c6b3d7ba54","system_id":"levelo_inurba_marseille","lat":43.26201,"lon":5.3745,"is_reserved":false,"is_disabled":false,"rental_uris":{"android":"levelo://app?vid=a29e34a5-6ea0-4157-bd12-47c6b3d7ba54","ios":"levelo://app?vid=a29e34a5-6ea0-4157-bd12-47c6b3d7ba54"},"vehicle_type_id":"4","last_reported":1769617402,"current_range_meters":10000,"station_id":"ce4bhgp2rcd13ifvqfc0","pricing_plan_id":"cebpf4jnsgd1na2vs0mg"},{"bike_id":"2d655a97-bd06-49e9-b2b4-efa072ca5fda","system_id":"levelo_inurba_marseille","lat":43.32113,"lon":5.36771,"is_reserved":false,"is_disabled":false,"rental_uris":{"android":"levelo://app?vid=2d655a97-bd06-49e9-b2b4-efa072ca5fda","ios":"levelo://app?vid=2d655a97-bd06-49e9-b2b4-efa072ca5fda"},"vehicle_type_id":"4","last_reported":1769617402,"current_range_meters":10000,"station_id":"ce4bhrh2rcd13ifvqhug","pricing_plan_id":"cebpf4jnsgd1na2vs0mg"},{"bike_id":"9b87a7c0-d21e-4c7f-be9f-555ccd2d3a4f","system_id":"levelo_inurba_marseille","lat":43.32113,"lon":5.36766,"is_reserved":false,"is_disabled":false,"rental_uris":{"android":"levelo://app?vid=9b87a7c0-d21e-4c7f-be9f-555ccd2d3a4f","ios":"levelo://app?vid=9b87a7c0-d21e-4c7f-be9f-555ccd2d3a4f"},"vehicle_type_id":"4","last_reported":1769617402,"current_range_meters":10000,"station_id":"ce4bhrh2rcd13ifvqhug","pricing_plan_id":"cebpf4jnsgd1na2vs0mg"},{"bike_id":"51e33b43-0b63-43c6-8dbf-365699605da8","system_id":"levelo_inurba_marseille","lat":43.27014,"lon":5.3983,"is_reserved":false,"is_disabled":false,"rental_uris":{"android":"levelo://app?vid=51e33b43-0b63-43c6-8dbf-365699605da8","ios":"levelo://app?vid=51e33b43-0b63-43c6-8dbf-365699605da8"},"vehicle_type_id":"4","last_reported":1769617402,"current_range_meters":10000,"station_id":"","pricing_plan_id":"cebpf4jnsgd1na2vs0mg"},{"bike_id":"11577d07-4c5a-4629-8399-e23278222e08","system_id":"levelo_inurba_marseille","lat":43.30112,"lon":5.43114,"is_reserved":false,"is_disabled":false,"rental_uris":{"android":"levelo://app?vid=11577d07-4c5a-4629-8399-e23278222e08","ios":"levelo://app?vid=11577d07-4c5a-4629-8399-e23278222e08"},"vehicle_type_id":"4","last_reported":1769617402,"current_range_meters":10000,"station_id":"st_d3js3co5814s73ftftug","pricing_plan_id":"cebpf4jnsgd1na2vs0mg"},{"bike_id":"b29e7274-ffc6-441c-86dc-feff20fb7668","system_id":"levelo_inurba_marseille","lat":43.28349,"lon":5.38092,"is_reserved":false,"is_disabled":false,"rental_uris":{"android":"levelo://app?vid=b29e7274-ffc6-441c-86dc-feff20fb7668","ios":"levelo://app?vid=b29e7274-ffc6-441c-86dc-feff20fb7668"},"vehicle_type_id":"4","last_reported":1769617402,"current_range_meters":10000,"station_id":"ce4bh412rcd13ifvqdr0","pricing_plan_id":"cebpf4jnsgd1na2vs0mg"},{"bike_id":"626f2e49-da66-4aca-b419-36ccc5e515c3","system_id":"levelo_inurba_marseille","lat":43.24625,"lon":5.43148,"is_reserved":false,"is_disabled":false,"rental_uris":{"android":"levelo://app?vid=626f2e49-da66-4aca-b419-36ccc5e515c3","ios":"levelo://app?vid=626f2e49-da66-4aca-b419-36ccc5e515c3"},"vehicle_type_id":"4","last_reported":1769617402,"current_range_meters":10000,"station_id":"st_d2m6c4gdas8pm72e190g","pricing_plan_id":"cebpf4jnsgd1na2vs0mg"},{"bike_id":"39753960-3c7e-4e4a-acb2-25c74c17dd07","system_id":"levelo_inurba_marseille","lat":43.22932,"lon":5.3538,"is_reserved":false,"is_disabled":false,"rental_uris":{"android":"levelo://app?vid=39753960-3c7e-4e4a-acb2-25c74c17dd07","ios":"levelo://app?vid=39753960-3c7e-4e4a-acb2-25c74c17dd07"},"vehicle_type_id":"4","last_reported":1769617402,"current_range_meters":10000,"station_id":"cpo3532slgdg3j2ikp40","pricing_plan_id":"cebpf4jnsgd1na2vs0mg"},{"bike_id":"c02630d1-3d60-4c64-9c08-77c4d3092b31","system_id":"levelo_inurba_marseille","lat":43.24793,"lon":5.37449,"is_reserved":false,"is_disabled":false,"rental_uris":{"android":"levelo://app?vid=c02630d1-3d60-4c64-9c08-77c4d3092b31","ios":"levelo://app?vid=c02630d1-3d60-4c64-9c08-77c4d3092b31"},"vehicle_type_id":"4","last_reported":1769617402,"current_range_meters":10800,"station_id":"ce4bhgh2rcd13ifvqfb0","pricing_plan_id":"cebpf4jnsgd1na2vs0mg"},{"bike_id":"9dedcc28-2519-4d62-9c5f-d449159d27d0","system_id":"levelo_inurba_marseille","lat":43.26548,"lon":5.37304,"is_reserved":false,"is_disabled":false,"rental_uris":{"android":"levelo://app?vid=9dedcc28-2519-4d62-9c5f-d449159d27d0","ios":"levelo://app?vid=9dedcc28-2519-4d62-9c5f-d449159d27d0"},"vehicle_type_id":"4","last_reported":1769617402,"current_range_meters":10800,"station_id":"ce4bhg12rcd13ifvqf70","pricing_plan_id":"cebpf4jnsgd1na2vs0mg"},{"bike_id":"e44d6c0d-4cdc-487c-87b1-e5cf7cd1bdd8","system_id":"levelo_inurba_marseille","lat":43.27693,"lon":5.38868,"is_reserved":false,"is_disabled":false,"rental_uris":{"android":"levelo://app?vid=e44d6c0d-4cdc-487c-87b1-e5cf7cd1bdd8","ios":"levelo://app?vid=e44d6c0d-4cdc-487c-87b1-e5cf7cd1bdd8"},"vehicle_type_id":"4","last_reported":1769617402,"current_range_meters":10800,"station_id":"ce4bhi12rcd13ifvqfo0","pricing_plan_id":"cebpf4jnsgd1na2vs0mg"},{"bike_id":"8252e483-8cd2-4e1f-8159-245c555c915e","system_id":"levelo_inurba_marseille","lat":43.22933,"lon":5.35379,"is_reserved":false,"is_disabled":false,"rental_uris":{"android":"levelo://app?vid=8252e483-8cd2-4e1f-8159-245c555c915e","ios":"levelo://app?vid=8252e483-8cd2-4e1f-8159-245c555c915e"},"vehicle_type_id":"4","last_reported":1769617402,"current_range_meters":10800,"station_id":"cpo3532slgdg3j2ikp40","pricing_plan_id":"cebpf4jnsgd1na2vs0mg"},{"bike_id":"bd551aec-24c2-4aba-b573-e89c13f76575","system_id":"levelo_inurba_marseille","lat":43.25594,"lon":5.38221,"is_reserved":false,"is_disabled":false,"rental_uris":{"android":"levelo://app?vid=bd551aec-24c2-4aba-b573-e89c13f76575","ios":"levelo://app?vid=bd551aec-24c2-4aba-b573-e89c13f76575"},"vehicle_type_id":"4","last_reported":1769617402,"current_range_meters":10800,"station_id":"ce4bhih2rcd13ifvqfs0","pricing_plan_id":"cebpf4jnsgd1na2vs0mg"},{"bike_id":"8105c3bf-c953-47dc-a669-68ce6c5070bb","system_id":"levelo_inurba_marseille","lat":43.31601,"lon":5.37332,"is_reserved":false,"is_disabled":true,"rental_uris":{"android":"levelo://app?vid=8105c3bf-c953-47dc-a669-68ce6c5070bb","ios":"levelo://app?vid=8105c3bf-c953-47dc-a669-68ce6c5070bb"},"vehicle_type_id":"4","last_reported":1769617402,"current_range_meters":10800,"station_id":"","pricing_plan_id":"cebpf4jnsgd1na2vs0mg"},{"bike_id":"3d61244e-0dde-42a1-8efa-05e556593c38","system_id":"levelo_inurba_marseille","lat":43.22539,"lon":5.41665,"is_reserved":false,"is_disabled":false,"rental_uris":{"android":"levelo://app?vid=3d61244e-0dde-42a1-8efa-05e556593c38","ios":"levelo://app?vid=3d61244e-0dde-42a1-8efa-05e556593c38"},"vehicle_type_id":"4","last_reported":1769617402,"current_range_meters":10800,"station_id":"st_d2o4gvlbi1j2169b742g","pricing_plan_id":"cebpf4jnsgd1na2vs0mg"},{"bike_id":"c0696abc-372a-454c-bbf6-807b3165d2b0","system_id":"levelo_inurba_marseille","lat":43.2397,"lon":5.3662,"is_reserved":false,"is_disabled":false,"rental_uris":{"android":"levelo://app?vid=c0696abc-372a-454c-bbf6-807b3165d2b0","ios":"levelo://app?vid=c0696abc-372a-454c-bbf6-807b3165d2b0"},"vehicle_type_id":"4","last_reported":1769617402,"current_range_meters":10800,"station_id":"ce4bhi12rcd13ifvqfp0","pricing_plan_id":"cebpf4jnsgd1na2vs0mg"},{"bike_id":"c2dbc2d9-f503-42b9-8a28-5a086e3533c8","system_id":"levelo_inurba_marseille","lat":43.28414,"lon":5.34987,"is_reserved":false,"is_disabled":false,"rental_uris":{"android":"levelo://app?vid=c2dbc2d9-f503-42b9-8a28-5a086e3533c8","ios":"levelo://app?vid=c2dbc2d9-f503-42b9-8a28-5a086e3533c8"},"vehicle_type_id":"4","last_reported":1769617402,"current_range_meters":10800,"station_id":"ce4bhbh2rcd13ifvqepg","pricing_plan_id":"cebpf4jnsgd1na2vs0mg"},{"bike_id":"360bd922-c036-43fc-9f95-f2099189cf17","system_id":"levelo_inurba_marseille","lat":43.2501,"lon":5.38909,"is_reserved":false,"is_disabled":false,"rental_uris":{"android":"levelo://app?vid=360bd922-c036-43fc-9f95-f2099189cf17","ios":"levelo://app?vid=360bd922-c036-43fc-9f95-f2099189cf17"},"vehicle_type_id":"4","last_reported":1769617402,"current_range_meters":10800,"station_id":"ce4bhgp2rcd13ifvqfd0","pricing_plan_id":"cebpf4jnsgd1na2vs0mg"},{"bike_id":"7c0a542b-1d4f-4ae8-a764-41dd6310c159","system_id":"levelo_inurba_marseille","lat":43.28416,"lon":5.34976,"is_reserved":false,"is_disabled":false,"rental_uris":{"android":"levelo://app?vid=7c0a542b-1d4f-4ae8-a764-41dd6310c159","ios":"levelo://app?vid=7c0a542b-1d4f-4ae8-a764-41dd6310c159"},"vehicle_type_id":"4","last_reported":1769617402,"current_range_meters":10800,"station_id":"ce4bhbh2rcd13ifvqepg","pricing_plan_id":"cebpf4jnsgd1na2vs0mg"},