{"last_updated":1753139440,"ttl":60,"version":"2.2","data":{"bikes":[{"bike_id":"53b742a7-31ae-4272-9bba-7740339e2a2f","system_id":"levelo_inurba_marseille","lat":43.33747,"lon":5.37463,"is_reserved":false,"is_disabled":false,"rental_uris":{"android":"levelo://app?vid=53b742a7-31ae-4272-9bba-7740339e2a2f","ios":"levelo://app?vid=53b742a7-31ae-4272-9bba-7740339e2a2f"},"vehicle_type_id":"1","last_reported":1753139440,"current_range_meters":4400,"station_id":"","pricing_plan_id":"cebpf4jnsgd1na2vs0mg"},{"bike_id":"8a18d014-946d-43f9-aa69-27d725c9595a","system_id":"levelo_inurba_marseille","lat":43.261861,"lon":5.374569,"is_reserved":false,"is_disabled":true,"rental_uris":{"android":"levelo://app?vid=8a18d014-946d-43f9-aa69-27d725c9595a","ios":"levelo://app?vid=8a18d014-946d-43f9-aa69-27d725c9595a"},"vehicle_type_id":"4","last_reported":1753139440,"current_range_meters":3200,"station_id":"ce4bhgp2rcd13ifvqfc0","pricing_plan_id":"cebpf4jnsgd1na2vs0mg"},{"bike_id":"433415c1-acea-4306-b3ad-c55437db8988","system_id":"levelo_inurba_marseille","lat":43.29481,"lon":5.38192,"is_reserved":false,"is_disabled":false,"rental_uris":{"android":"levelo://app?vid=433415c1-acea-4306-b3ad-c55437db8988","ios":"levelo://app?vid=433415c1-acea-4306-b3ad-c55437db8988"},"vehicle_type_id":"4","last_reported":1753139440,"current_range_meters":3200,"station_id":"","pricing_plan_id":"cebpf4jnsgd1na2vs0mg"},{"bike_id":"2faa6e12-b370-4964-b1dd-53ea56df10d3","system_id":"levelo_inurba_marseille","lat":43.28727,"lon":5.3609,"is_reserved":false,"is_disabled":false,"rental_uris":{"android":"levelo://app?vid=2faa6e12-b370-4964-b1dd-53ea56df10d3","ios":"levelo://app?vid=2faa6e12-b370-4964-b1dd-53ea56df10d3"},"vehicle_type_id":"4","last_reported":1753139440,"current_range_meters":3200,"station_id":"cki0cbj6b192h4jlfktg","pricing_plan_id":"cebpf4jnsgd1na2vs0mg"},{"bike_id":"79f623af-b6ef-4037-9284-20513371799c","system_id":"levelo_inurba_marseille","lat":43.25735,"lon":5.41113,"is_reserved":false,"is_disabled":false,"rental_uris":{"android":"levelo://app?vid=79f623af-b6ef-4037-9284-20513371799c","ios":"levelo://app?vid=79f623af-b6ef-4037-9284-20513371799c"},"vehicle_type_id":"4","last_reported":1753139440,"current_range_meters":3200,"station_id":"ce4bhkp2rcd13ifvqgd0","pricing_plan_id":"cebpf4jnsgd1na2vs0mg"},{"bike_id":"34a3b462-749e-4ee8-80f7-0f2b28b6edc4","system_id":"levelo_inurba_marseille","lat":43.30723,"lon":5.42415,"is_reserved":false,"is_disabled":false,"rental_uris":{"android":"levelo://app?vid=34a3b462-749e-4ee8-80f7-0f2b28b6edc4","ios":"levelo://app?vid=34a3b462-749e-4ee8-80f7-0f2b28b6edc4"},"vehicle_type_id":"4","last_reported":1753139440,"current_range_meters":4000,"station_id":"st_cvj6ca6bvosntc0bfgr0","pricing_plan_id":"cebpf4jnsgd1na2vs0mg"},{"bike_id":"99018e6f-be29-46d5-b70d-582b90eadf7b","system_id":"levelo_inurba_marseille","lat":43.27889,"lon":5.38005,"is_reserved":false,"is_disabled":false,"rental_uris":{"android":"levelo://app?vid=99018e6f-be29-46d5-b70d-582b90eadf7b","ios":"levelo://app?vid=99018e6f-be29-46d5-b70d-582b90eadf7b"},"vehicle_type_id":"4","last_reported":1753139440,"current_range_meters":4000,"station_id":"ce4bhf92rcd13ifvqf50","pricing_plan_id":"cebpf4jnsgd1na2vs0mg"},{"bike_id":"736c363b-3641-43dd-b890-bd43d8fd5283","system_id":"levelo_inurba_marseille","lat":43.33774,"lon":5.3747,"is_reserved":false,"is_disabled":false,"rental_uris":{"android":"levelo://app?vid=736c363b-3641-43dd-b890-bd43d8fd5283","ios":"levelo://app?vid=736c363b-3641-43dd-b890-bd43d8fd5283"},"vehicle_type_id":"4","last_reported":1753139440,"current_range_meters":4400,"station_id":"","pricing_plan_id":"cebpf4jnsgd1na2vs0mg"},{"bike_id":"ed415a14-b4b4-4caf-8a06-7fd1c907bac5","system_id":"levelo_inurba_marseille","lat":43.21518,"lon":5.34618,"is_reserved":false,"is_disabled":false,"rental_uris":{"android":"levelo://app?vid=ed415a14-b4b4-4caf-8a06-7fd1c907bac5","ios":"levelo://app?vid=ed415a14-b4b4-4caf-8a06-7fd1c907bac5"},"vehicle_type_id":"4","last_reported":1753139440,"current_range_meters":4400,"station_id":"","pricing_plan_id":"cebpf4jnsgd1na2vs0mg"},{"bike_id":"2c7d6c1d-8165-4a19-9372-ffec4b1d60d7","system_id":"levelo_inurba_marseille","lat":43.28362,"lon":5.3863,"is_reserved":false,"is_disabled":false,"rental_uris":{"android":"levelo://app?vid=2c7d6c1d-8165-4a19-9372-ffec4b1d60d7","ios":"levelo://app?vid=2c7d6c1d-8165-4a19-9372-ffec4b1d60d7"},"vehicle_type_id":"4","last_reported":1753139440,"current_range_meters":4800,"station_id":"ce4bh492rcd13ifvqdvg","pricing_plan_id":"cebpf4jnsgd1na2vs0mg"},{"bike_id":"c974a723-6854-4bcd-a108-8fcdb3e5b10f","system_id":"levelo_inurba_marseille","lat":43.29277,"lon":5.40108,"is_reserved":false,"is_disabled":false,"rental_uris":{"android":"levelo://app?vid=c974a723-6854-4bcd-a108-8fcdb3e5b10f","ios":"levelo://app?vid=c974a723-6854-4bcd-a108-8fcdb3e5b10f"},"vehicle_type_id":"4","last_reported":1753139440,"current_range_meters":4800,"station_id":"ce4bh312rcd13ifvqdk0","pricing_plan_id":"cebpf4jnsgd1na2vs0mg"},{"bike_id":"a6de290b-5c15-427b-bc37-8301607e1735","system_id":"levelo_inurba_marseille","lat":43.337725,"lon":5.374294,"is_reserved":false,"is_disabled":false,"rental_uris":{"android":"levelo://app?vid=a6de290b-5c15-427b-bc37-8301607e1735","ios":"levelo://app?vid=a6de290b-5c15-427b-bc37-8301607e1735"},"vehicle_type_id":"4","last_reported":1753139440,"current_range_meters":5600,"station_id":"","pricing_plan_id":"cebpf4jnsgd1na2vs0mg"},{"bike_id":"630e83cd-6fcf-4ccd-bb9a-cce7e93f11d6","system_id":"levelo_inurba_marseille","lat":43.27367,"lon":5.36257,"is_reserved":false,"is_disabled":true,"rental_uris":{"android":"levelo://app?vid=630e83cd-6fcf-4ccd-bb9a-cce7e93f11d6","ios":"levelo://app?vid=630e83cd-6fcf-4ccd-bb9a-cce7e93f11d6"},"vehicle_type_id":"4","last_reported":1753139440,"current_range_meters":6000,"station_id":"ce4bhbh2rcd13ifvqeo0","pricing_plan_id":"cebpf4jnsgd1na2vs0mg"},{"bike_id":"e0970957-01ab-48d1-a9c0-d8f89b64ae56","system_id":"levelo_inurba_marseille","lat":43.27362,"lon":5.36205,"is_reserved":false,"is_disabled":true,"rental_uris":{"android":"levelo://app?vid=e0970957-01ab-48d1-a9c0-d8f89b64ae56","ios":"levelo://app?vid=e0970957-01ab-48d1-a9c0-d8f89b64ae56"},"vehicle_type_id":"4","last_reported":1753139440,"current_range_meters":6000,"station_id":"","pricing_plan_id":"cebpf4jnsgd1na2vs0mg"},{"bike_id":"f18952d9-de72-4b00-ac50-ca46d1bc16b9","system_id":"levelo_inurba_marseille","lat":43.21189,"lon":5.35074,"is_reserved":false,"is_disabled":false,"rental_uris":{"android":"levelo://app?vid=f18952d9-de72-4b00-ac50-ca46d1bc16b9","ios":"levelo://app?vid=f18952d9-de72-4b00-ac50-ca46d1bc16b9"},"vehicle_type_id":"4","last_reported":1753139440,"current_range_meters":6000,"station_id":"st_cvj6sg6p6f1abm77japg","pricing_plan_id":"cebpf4jnsgd1na2vs0mg"},{"bike_id":"ef5c1446-37bd-4830-b7b0-ea420576a56f","system_id":"levelo_inurba_marseille","lat":43.26808,"lon":5.40264,"is_reserved":false,"is_disabled":true,"rental_uris":{"android":"levelo://app?vid=ef5c1446-37bd-4830-b7b0-ea420576a56f","ios":"levelo://app?vid=ef5c1446-37bd-4830-b7b0-ea420576a56f"},"vehicle_type_id":"4","last_reported":1753139440,"current_range_meters":6000,"station_id":"ce501612rcd8frsf0b60","pricing_plan_id":"cebpf4jnsgd1na2vs0mg"},{"bike_id":"64053951-11ab-4c5b-afcd-bee1a35f84be","system_id":"levelo_inurba_marseille","lat":43.29203,"lon":5.35814,"is_reserved":false,"is_disabled":true,"rental_uris":{"android":"levelo://app?vid=64053951-11ab-4c5b-afcd-bee1a35f84be","ios":"levelo://app?vid=64053951-11ab-4c5b-afcd-bee1a35f84be"},"vehicle_type_id":"4","last_reported":1753139440,"current_range_meters":6400,"station_id":"ce4bhb12rcd13ifvqel0","pricing_plan_id":"cebpf4jnsgd1na2vs0mg"},{"bike_id":"82c715ba-be5b-4829-9f92-ce7aeba5d3df","system_id":"levelo_inurba_marseille","lat":43.29801,"lon":5.38089,"is_reserved":false,"is_disabled":false,"rental_uris":{"android":"levelo://app?vid=82c715ba-be5b-4829-9f92-ce7aeba5d3df","ios":"levelo://app?vid=82c715ba-be5b-4829-9f92-ce7aeba5d3df"},"vehicle_type_id":"4","last_reported":1753139440,"current_range_meters":6800,"station_id":"ce4bgip2rcd13ifvqbb0","pricing_plan_id":"cebpf4jnsgd1na2vs0mg"},{"bike_id":"54c62cfd-190d-4a0a-99a0-7a5cc5804e08","system_id":"levelo_inurba_marseille","lat":43.21185,"lon":5.35071,"is_reserved":false,"is_disabled":false,"rental_uris":{"android":"levelo://app?vid=54c62cfd-190d-4a0a-99a0-7a5cc5804e08","ios":"levelo://app?vid=54c62cfd-190d-4a0a-99a0-7a5cc5804e08"},"vehicle_type_id":"4","last_reported":1753139440,"current_range_meters":7200,"station_id":"st_cvj6sg6p6f1abm77japg","pricing_plan_id":"cebpf4jnsgd1na2vs0mg"},{"bike_id":"574953d5-8575-4a74-bdc7-0262f8fcbf01","system_id":"levelo_inurba_marseille","lat":43.283345,"lon":5.381128,"is_reserved":false,"is_disabled":true,"rental_uris":{"android":"levelo://app?vid=574953d5-8575-4a74-bdc7-0262f8fcbf01","ios":"levelo://app?vid=574953d5-8575-4a74-bdc7-0262f8fcbf01"},"vehicle_type_id":"4","last_reported":1753139440,"current_range_meters":7200,"station_id":"ce4bh412rcd13ifvqdr0","pricing_plan_id":"cebpf4jnsgd1na2vs0mg"},{"bike_id":"06333f60-d9ea-43c9-ba2a-80c3002c726d","system_id":"levelo_inurba_marseille","lat":43.21183,"lon":5.35107,"is_reserved":false,"is_disabled":false,"rental_uris":{"android":"levelo://app?vid=06333f60-d9ea-43c9-ba2a-80c3002c726d","ios":"levelo://app?vid=06333f60-d9ea-43c9-ba2a-80c3002c726d"},"vehicle_type_id":"4","last_reported":1753139440,"current_range_meters":7200,"station_id":"st_cvj6sg6p6f1abm77japg","pricing_plan_id":"cebpf4jnsgd1na2vs0mg"},{"bike_id":"e7349e47-8188-4fc1-98e6-c175d05fdb3f","system_id":"levelo_inurba_marseille","lat":43.29206,"lon":5.36049,"is_reserved":false,"is_disabled":true,"rental_uris":{"android":"levelo://app?vid=e7349e47-8188-4fc1-98e6-c175d05fdb3f","ios":"levelo://app?vid=e7349e47-8188-4fc1-98e6-c175d05fdb3f"},"vehicle_type_id":"4","last_reported":1753139440,"current_range_meters":7200,"station_id":"ce4bhbh2rcd13ifvqeqg","pricing_plan_id":"cebpf4jnsgd1na2vs0mg"},{"bike_id":"2d5b8d2a-4bc9-4903-9a4e-7e2860e12b59","system_id":"levelo_inurba_marseille","lat":43.26207,"lon":5.37926,"is_reserved":false,"is_disabled":true,"rental_uris":{"android":"levelo://app?vid=2d5b8d2a-4bc9-4903-9a4e-7e2860e12b59","ios":"levelo://app?vid=2d5b8d2a-4bc9-4903-9a4e-7e2860e12b59"},"vehicle_type_id":"4","last_reported":1753139440,"current_range_meters":8000,"station_id":"ce4bhjp2rcd13ifvqg90","pricing_plan_id":"cebpf4jnsgd1na2vs0mg"},{"bike_id":"37d8cb1b-1988-4390-9e4c-4eca73c82c19","system_id":"levelo_inurba_marseille","lat":43.26197,"lon":5.37449,"is_reserved":false,"is_disabled":true,"rental_uris":{"android":"levelo://app?vid=37d8cb1b-1988-4390-9e4c-4eca73c82c19","ios":"levelo://app?vid=37d8cb1b-1988-4390-9e4c-4eca73c82c19"},"vehicle_type_id":"4","last_reported":1753139440,"current_range_meters":8400,"station_id":"ce4bhgp2rcd13ifvqfc0","pricing_plan_id":"cebpf4jnsgd1na2vs0mg"},{"bike_id":"428942ae-179c-4d5f-8592-8493a768c578","system_id":"levelo_inurba_marseille","lat":43.23959,"lon":5.366249,"is_reserved":false,"is_disabled":true,"rental_uris":{"android":"levelo://app?vid=428942ae-179c-4d5f-8592-8493a768c578","ios":"levelo://app?vid=428942ae-179c-4d5f-8592-8493a768c578"},"vehicle_type_id":"4","last_reported":1753139440,"current_range_meters":8400,"station_id":"ce4bhi12rcd13ifvqfp0","pricing_plan_id":"cebpf4jnsgd1na2vs0mg"},{"bike_id":"5dc5e8a4-a1f3-4ddd-b7c7-8897c9df659a","system_id":"levelo_inurba_marseille","lat":43.31138,"lon":5.387388,"is_reserved":false,"is_disabled":false,"rental_uris":{"android":"levelo://app?vid=5dc5e8a4-a1f3-4ddd-b7c7-8897c9df659a","ios":"levelo://app?vid=5dc5e8a4-a1f3-4ddd-b7c7-8897c9df659a"},"vehicle_type_id":"4","last_reported":1753139440,"current_range_meters":8400,"station_id":"","pricing_plan_id":"cebpf4jnsgd1na2vs0mg"},{"bike_id":"c7cd3ac0-135d-4860-9d52-8358946ef537","system_id":"levelo_inurba_marseille","lat":43.27803,"lon":5.35505,"is_reserved":false,"is_disabled":false,"rental_uris":{"android":"levelo://app?vid=c7cd3ac0-135d-4860-9d52-8358946ef537","ios":"levelo://app?vid=c7cd3ac0-135d-4860-9d52-8358946ef537"},"vehicle_type_id":"4","last_reported":1753139440,"current_range_meters":9200,"station_id":"","pricing_plan_id":"cebpf4jnsgd1na2vs0mg"},{"bike_id":"1e555319-0412-4eda-b722-17068ecff861","system_id":"levelo_inurba_marseille","lat":43.305968,"lon":5.37217,"is_reserved":false,"is_disabled":false,"rental_uris":{"android":"levelo://app?vid=1e555319-0412-4eda-b722-17068ecff861","ios":"levelo://app?vid=1e555319-0412-4eda-b722-17068ecff861"},"vehicle_type_id":"4","last_reported":1753139440,"current_range_meters":9200,"station_id":"ce4bgqh2rcd13ifvqc4g","pricing_plan_id":"cebpf4jnsgd1na2vs0mg"},{"bike_id":"e022a396-1cda-41e1-a581-20bbc6133ccf","system_id":"levelo_inurba_marseille","lat":43.21195,"lon":5.35099,"is_reserved":false,"is_disabled":false,"rental_uris":{"android":"levelo://app?vid=e022a396-1cda-41e1-a581-20bbc6133ccf","ios":"levelo://app?vid=e022a396-1cda-41e1-a581-20bbc6133ccf"},"vehicle_type_id":"4","last_reported":1753139440,"current_range_meters":9200,"station_id":"st_cvj6sg6p6f1abm77japg","pricing_plan_id":"cebpf4jnsgd1na2vs0mg"},{"bike_id":"b7082957-3a9f-4d91-9a0b-08d65eafeb7f","system_id":"levelo_inurba_marseille","lat":43.25001,"lon":5.38921,"is_reserved":false,"is_disabled":true,"rental_uris":{"android":"levelo://app?vid=b7082957-3a9f-4d91-9a0b-08d65eafeb7f","ios":"levelo://app?vid=b7082957-3a9f-4d91-9a0b-08d65eafeb7f"},"vehicle_type_id":"4","last_reported":1753139440,"current_range_meters":9200,"station_id":"ce4bhgp2rcd13ifvqfd0","pricing_plan_id":"cebpf4jnsgd1na2vs0mg"},{"bike_id":"6e837423-a768-4e49-b62b-1db542db5549","system_id":"levelo_inurba_marseille","lat":43.27914,"lon":5.3958,"is_reserved":false,"is_disabled":false,"rental_uris":{"android":"levelo://app?vid=6e837423-a768-4e49-b62b-1db542db5549","ios":"levelo://app?vid=6e837423-a768-4e49-b62b-1db542db5549"},"vehicle_type_id":"4","last_reported":1753139440,"current_range_meters":9200,"station_id":"ce4bhf92rcd13ifvqf40","pricing_plan_id":"cebpf4jnsgd1na2vs0mg"},{"bike_id":"c3622956-1ba0-4f60-b9ef-b69da0bf1e85","system_id":"levelo_inurba_marseille","lat":43.27623,"lon":5.36121,"is_reserved":false,"is_disabled":false,"rental_uris":{"android":"levelo://app?vid=c3622956-1ba0-4f60-b9ef-b69da0bf1e85","ios":"levelo://app?vid=c3622956-1ba0-4f60-b9ef-b69da0bf1e85"},"vehicle_type_id":"4","last_reported":1753139440,"current_range_meters":9200,"station_id":"ce4bgj92rcd13ifvqbe0","pricing_plan_id":"cebpf4jnsgd1na2vs0mg"},{"bike_id":"0cb2c80a-7457-4a4a-ad92-f0361b5225d6","system_id":"levelo_inurba_marseille","lat":43.244389,"lon":5.37466,"is_reserved":false,"is_disabled":true,"rental_uris":{"android":"levelo://app?vid=0cb2c80a-7457-4a4a-ad92-f0361b5225d6","ios":"levelo://app?vid=0cb2c80a-7457-4a4a-ad92-f0361b5225d6"},"vehicle_type_id":"4","last_reported":1753139440,"current_range_meters":9200,"station_id":"","pricing_plan_id":"cebpf4jnsgd1na2vs0mg"},{"bike_id":"a975590e-350d-4593-be4d-6d5d23aa3251","system_id":"levelo_inurba_marseille","lat":43.24662,"lon":5.3816,"is_reserved":false,"is_disabled":false,"rental_uris":{"android":"levelo://app?vid=a975590e-350d-4593-be4d-6d5d23aa3251","ios":"levelo://app?vid=a975590e-350d-4593-be4d-6d5d23aa3251"},"vehicle_type_id":"4","last_reported":1753139440,"current_range_meters":9200,"station_id":"ce4bhih2rcd13ifvqfr0","pricing_plan_id":"cebpf4jnsgd1na2vs0mg"},{"bike_id":"c695f162-6b42-40d7-8780-ed224e75f8e8","system_id":"levelo_inurba_marseille","lat":43.33764,"lon":5.37482,"is_reserved":false,"is_disabled":false,"rental_uris":{"android":"levelo://app?vid=c695f162-6b42-40d7-8780-ed224e75f8e8","ios":"levelo://app?vid=c695f162-6b42-40d7-8780-ed224e75f8e8"},"vehicle_type_id":"4","last_reported":1753139440,"current_range_meters":9600,"station_id":"","pricing_plan_id":"cebpf4jnsgd1na2vs0mg"},{"bike_id":"c51ea2ac-307e-42c7-bac6-ee6cafb66ec8","system_id":"levelo_inurba_marseille","lat":43.29094,"lon":5.39983,"is_reserved":false,"is_disabled":false,"rental_uris":{"android":"levelo://app?vid=c51ea2ac-307e-42c7-bac6-ee6cafb66ec8","ios":"levelo://app?vid=c51ea2ac-307e-42c7-bac6-ee6cafb66ec8"},"vehicle_type_id":"4","last_reported":1753139440,"current_range_meters":9600,"station_id":"","pricing_plan_id":"cebpf4jnsgd1na2vs0mg"},{"bike_id":"34385a62-f6e3-48e2-9f49-00e46f767438","system_id":"levelo_inurba_marseille","lat":43.26576,"lon":5.39008,"is_reserved":false,"is_disabled":false,"rental_uris":{"android":"levelo://app?vid=34385a62-f6e3-48e2-9f49-00e46f767438","ios":"levelo://app?vid=34385a62-f6e3-48e2-9f49-00e46f767438"},"vehicle_type_id":"4","last_reported":1753139440,"current_range_meters":9600,"station_id":"ce4bhe12rcd13ifvqf30","pricing_plan_id":"cebpf4jnsgd1na2vs0mg"},{"bike_id":"523d528a-80ef-4c0a-986f-e24abf3cd641","system_id":"levelo_inurba_marseille","lat":43.27313,"lon":5.39108,"is_reserved":false,"is_disabled":true,"rental_uris":{"android":"levelo://app?vid=523d528a-80ef-4c0a-986f-e24abf3cd641","ios":"levelo://app?vid=523d528a-80ef-4c0a-986f-e24abf3cd641"},"vehicle_type_id":"4","last_reported":1753139440,"current_range_meters":10000,"station_id":"ce4bhgp2rcd13ifvqfe0","pricing_plan_id":"cebpf4jnsgd1na2vs0mg"},{"bike_id":"ca46dfc0-057f-4aa6-95b6-876d52b87971","system_id":"levelo_inurba_marseille","lat":43.311298,"lon":5.377635,"is_reserved":false,"is_disabled":false,"rental_uris":{"android":"levelo://app?vid=ca46dfc0-057f-4aa6-95b6-876d52b87971","ios":"levelo://app?vid=ca46dfc0-057f-4aa6-95b6-876d52b87971"},"vehicle_type_id":"4","last_reported":1753139440,"current_range_meters":10000,"station_id":"ce4bgt92rcd13ifvqcg0","pricing_plan_id":"cebpf4jnsgd1na2vs0mg"},{"bike_id":"dfc0589b-3d8e-4b8a-9a4c-38d3060f8636","system_id":"levelo_inurba_marseille","lat":43.24166,"lon":5.36408,"is_reserved":false,"is_disabled":false,"rental_uris":{"android":"levelo://app?vid=dfc0589b-3d8e-4b8a-9a4c-38d3060f8636","ios":"levelo://app?vid=dfc0589b-3d8e-4b8a-9a4c-38d3060f8636"},"vehicle_type_id":"4","last_reported":1753139440,"current_range_meters":10800,"station_id":"cpo36qri1sfpv3e86is0","pricing_plan_id":"cebpf4jnsgd1na2vs0mg"},{"bike_id":"9afb9259-892c-4773-a946-99dec38fba0d","system_id":"levelo_inurba_marseille","lat":43.25147,"lon":5.40349,"is_reserved":false,"is_disabled":false,"rental_uris":{"android":"levelo://app?vid=9afb9259-892c-4773-a946-99dec38fba0d","ios":"levelo://app?vid=9afb9259-892c-4773-a946-99dec38fba0d"},"vehicle_type_id":"4","last_reported":1753139440,"current_range_meters":10800,"station_id":"","pricing_plan_id":"cebpf4jnsgd1na2vs0mg"},{"bike_id":"f2d6a093-3173-4017-a0d0-07ecd701a9c7","system_id":"levelo_inurba_marseille","lat":43.25485,"lon":5.37656,"is_reserved":false,"is_disabled":true,"rental_uris":{"android":"levelo://app?vid=f2d6a093-3173-4017-a0d0-07ecd701a9c7","ios":"levelo://app?vid=f2d6a093-3173-4017-a0d0-07ecd701a9c7"},"vehicle_type_id":"4","last_reported":1753139440,"current_range_meters":10800,"station_id":"ce4bhh12rcd13ifvqff0","pricing_plan_id":"cebpf4jnsgd1na2vs0mg"},{"bike_id":"38b21c36-20f7-4023-93fa-4356edc8f88e","system_id":"levelo_inurba_marseille","lat":43.30236,"lon":5.40065,"is_reserved":false,"is_disabled":false,"rental_uris":{"android":"levelo://app?vid=38b21c36-20f7-4023-93fa-4356edc8f88e","ios":"levelo://app?vid=38b21c36-20f7-4023-93fa-4356edc8f88e"},"vehicle_type_id":"4","last_reported":1753139440,"current_range_meters":10800,"station_id":"ce4bgvh2rcd13ifvqcs0","pricing_plan_id":"cebpf4jnsgd1na2vs0mg"},{"bike_id":"f8d4901c-1955-42a6-bf5b-32cc66454dec","system_id":"levelo_inurba_marseille","lat":43.28411,"lon":5.3751,"is_reserved":false,"is_disabled":false,"rental_uris":{"android":"levelo://app?vid=f8d4901c-1955-42a6-bf5b-32cc66454dec","ios":"levelo://app?vid=f8d4901c-1955-42a6-bf5b-32cc66454dec"},"vehicle_type_id":"4","last_reported":1753139440,"current_range_meters":10800,"station_id":"ce4bh412rcd13ifvqds0","pricing_plan_id":"cebpf4jnsgd1na2vs0mg"},{"bike_id":"96a19b6d-f4d9-4c94-a779-af14526dce6c","system_id":"levelo_inurba_marseille","lat":43.292054,"lon":5.393208,"is_reserved":false,"is_disabled":false,"rental_uris":{"android":"levelo://app?vid=96a19b6d-f4d9-4c94-a779-af14526dce6c","ios":"levelo://app?vid=96a19b6d-f4d9-4c94-a779-af14526dce6c"},"vehicle_type_id":"4","last_reported":1753139440,"current_range_meters":10800,"station_id":"ce4bh192rcd13ifvqdd0","pricing_plan_id":"cebpf4jnsgd1na2vs0mg"},{"bike_id":"1bdc5e80-6d38-4620-9007-55ce514df051","system_id":"levelo_inurba_marseille","lat":43.23059,"lon":5.35539,"is_reserved":false,"is_disabled":false,"rental_uris":{"android":"levelo://app?vid=1bdc5e80-6d38-4620-9007-55ce514df051","ios":"levelo://app?vid=1bdc5e80-6d38-4620-9007-55ce514df051"},"vehicle_type_id":"4","last_reported":1753139440,"current_range_meters":11200,"station_id":"cpo3342slgdg3j2ifvpg","pricing_plan_id":"cebpf4jnsgd1na2vs0mg"},{"bike_id":"07481afa-6635-4dc1-8a31-8a97247e4afb","system_id":"levelo_inurba_marseille","lat":43.21202,"lon":5.35061,"is_reserved":false,"is_disabled":false,"rental_uris":{"android":"levelo://app?vid=07481afa-6635-4dc1-8a31-8a97247e4afb","ios":"levelo://app?vid=07481afa-6635-4dc1-8a31-8a97247e4afb"},"vehicle_type_id":"4","last_reported":1753139440,"current_range_meters":11200,"station_id":"st_cvj6sg6p6f1abm77japg","pricing_plan_id":"cebpf4jnsgd1na2vs0mg"},{"bike_id":"2e8d116a-61e3-4c96-a083-703b0b748cde","system_id":"levelo_inurba_marseille","lat":43.298728,"lon":5.389155,"is_reserved":false,"is_disabled":false,"rental_uris":{"android":"levelo://app?vid=2e8d116a-61e3-4c96-a083-703b0b748cde","ios":"levelo://app?vid=2e8d116a-61e3-4c96-a083-703b0b748cde"},"vehicle_type_id":"4","last_reported":1753139440,"current_range_meters":11200,"station_id":"ce4bh392rcd13ifvqdl0","pricing_plan_id":"cebpf4jnsgd1na2vs0mg"},{"bike_id":"0aaaaf32-fc77-4ec3-9fa6-8c4706d1391c","system_id":"levelo_inurba_marseille","lat":43.28273,"lon":5.35077,"is_reserved":false,"is_disabled":false,"rental_uris":{"android":"levelo://app?vid=0aaaaf32-fc77-4ec3-9fa6-8c4706d1391c","ios":"levelo://app?vid=0aaaaf32-fc77-4ec3-9fa6-8c4706d1391c"},"vehicle_type_id":"4","last_reported":1753139440,"current_range_meters":11200,"station_id":"ce4bhbp2rcd13ifvqerg","pricing_plan_id":"cebpf4jnsgd1na2vs0mg"},{"bike_id":"0921f7df-2f57-4078-aed8-d9e6f4afda21","system_id":"levelo_inurba_marseille","lat":43.241702,"lon":5.363989,"is_reserved":false,"is_disabled":false,"rental_uris":{"android":"levelo://app?vid=0921f7df-2f57-4078-aed8-d9e6f4afda21","ios":"levelo://app?vid=0921f7df-2f57-4078-aed8-d9e6f4afda21"},"vehicle_type_id":"4","last_reported":1753139440,"current_range_meters":11200,"station_id":"cpo36qri1sfpv3e86is0","pricing_plan_id":"cebpf4jnsgd1na2vs0mg"},{"bike_id":"b355686e-9711-4834-88a1-57b23f58ae4b","system_id":"levelo_inurba_marseille","lat":43.23194,"lon":5.3555,"is_reserved":false,"is_disabled":false,"rental_uris":{"android":"levelo://app?vid=b355686e-9711-4834-88a1-57b23f58ae4b","ios":"levelo://app?vid=b355686e-9711-4834-88a1-57b23f58ae4b"},"vehicle_type_id":"4","last_reported":1753139440,"current_range_meters":11200,"station_id":"ce4bhu92rcd13ifvqi70","pricing_plan_id":"cebpf4jnsgd1na2vs0mg"},{"bike_id":"08e756f4-b091-4b20-aee2-1f808a549d5c","system_id":"levelo_inurba_marseille","lat":43.29549,"lon":5.42277,"is_reserved":false,"is_disabled":false,"rental_uris":{"android":"levelo://app?vid=08e756f4-b091-4b20-aee2-1f808a549d5c","ios":"levelo://app?vid=08e756f4-b091-4b20-aee2-1f808a549d5c"},"vehicle_type_id":"4","last_reported":1753139440,"current_range_meters":11200,"station_id":"ce4bhph2rcd13ifvqhdg","pricing_plan_id":"cebpf4jnsgd1na2vs0mg"},{"bike_id":"b733389d-7834-4f19-afee-c06c38ee7158","system_id":"levelo_inurba_marseille","lat":43.24397,"lon":5.37063,"is_reserved":false,"is_disabled":false,"rental_uris":{"android":"levelo://app?vid=b733389d-7834-4f19-afee-c06c38ee7158","ios":"levelo://app?vid=b733389d-7834-4f19-afee-c06c38ee7158"},"vehicle_type_id":"4","last_reported":1753139440,"current_range_meters":11200,"station_id":"ce4bhhh2rcd13ifvqfk0","pricing_plan_id":"cebpf4jnsgd1na2vs0mg"},{"bike_id":"a85423c1-c5e4-4af3-806a-2b1bf2f2d17b","system_id":"levelo_inurba_marseille","lat":43.2929,"lon":5.40147,"is_reserved":false,"is_disabled":false,"rental_uris":{"android":"levelo://app?vid=a85423c1-c5e4-4af3-806a-2b1bf2f2d17b","ios":"levelo://app?vid=a85423c1-c5e4-4af3-806a-2b1bf2f2d17b"},"vehicle_type_id":"4","last_reported":1753139440,"current_range_meters":11200,"station_id":"ce4bh312rcd13ifvqdk0","pricing_plan_id":"cebpf4jnsgd1na2vs0mg"},{"bike_id":"273841aa-1acb-4ebc-a28a-ec2ead0be0aa","system_id":"levelo_inurba_marseille","lat":43.29872,"lon":5.39729,"is_reserved":false,"is_disabled":false,"rental_uris":{"android":"levelo://app?vid=273841aa-1acb-4ebc-a28a-ec2ead0be0aa","ios":"levelo://app?vid=273841aa-1acb-4ebc-a28a-ec2ead0be0aa"},"vehicle_type_id":"4","last_reported":1753139440,"current_range_meters":11600,"station_id":"ce4bh0h2rcd13ifvqd50","pricing_plan_id":"cebpf4jnsgd1na2vs0mg"},{"bike_id":"ef2ea37e-6c12-4acb-808d-c4a4158852a4","system_id":"levelo_inurba_marseille","lat":43.250951,"lon":5.395241,"is_reserved":false,"is_disabled":false,"rental_uris":{"android":"levelo://app?vid=ef2ea37e-6c12-4acb-808d-c4a4158852a4","ios":"levelo://app?vid=ef2ea37e-6c12-4acb-808d-c4a4158852a4"},"vehicle_type_id":"4","last_reported":1753139440,"current_range_meters":11600,"station_id":"ce4bhm12rcd13ifvqgkg","pricing_plan_id":"cebpf4jnsgd1na2vs0mg"},{"bike_id":"5c4d228e-f1dc-4e50-9cfa-8fb802e4d124","system_id":"levelo_inurba_marseille","lat":43.28623,"lon":5.3822,"is_reserved":false,"is_disabled":false,"rental_uris":{"android":"levelo://app?vid=5c4d228e-f1dc-4e50-9cfa-8fb802e4d124","ios":"levelo://app?vid=5c4d228e-f1dc-4e50-9cfa-8fb802e4d124"},"vehicle_type_id":"4","last_reported":1753139440,"current_range_meters":11600,"station_id":"","pricing_plan_id":"cebpf4jnsgd1na2vs0mg"},{"bike_id":"8863f2bf-0c9e-488b-a75c-647fa4faf792","system_id":"levelo_inurba_marseille","lat":43.24075,"lon":5.37758,"is_reserved":false,"is_disabled":false,"rental_uris":{"android":"levelo://app?vid=8863f2bf-0c9e-488b-a75c-647fa4faf792","ios":"levelo://app?vid=8863f2bf-0c9e-488b-a75c-647fa4faf792"},"vehicle_type_id":"4","last_reported":1753139440,"current_range_meters":11600,"station_id":"ce4bhnp2rcd13ifvqgvg","pricing_plan_id":"cebpf4jnsgd1na2vs0mg"},{"bike_id":"82a225ee-4a15-4cbf-b361-80abad8a8b3d","system_id":"levelo_inurba_marseille","lat":43.27567,"lon":5.38422,"is_reserved":false,"is_disabled":false,"rental_uris":{"android":"levelo://app?vid=82a225ee-4a15-4cbf-b361-80abad8a8b3d","ios":"levelo://app?vid=82a225ee-4a15-4cbf-b361-80abad8a8b3d"},"vehicle_type_id":"4","last_reported":1753139440,"current_range_meters":11600,"station_id":"ce4bhh92rcd13ifvqfi0","pricing_plan_id":"cebpf4jnsgd1na2vs0mg"},{"bike_id":"ac49738a-4d4f-43d3-9c67-46980e61ae95","system_id":"levelo_inurba_marseille","lat":43.31725,"lon":5.37663,"is_reserved":false,"is_disabled":false,"rental_uris":{"android":"levelo://app?vid=ac49738a-4d4f-43d3-9c67-46980e61ae95","ios":"levelo://app?vid=ac49738a-4d4f-43d3-9c67-46980e61ae95"},"vehicle_type_id":"4","last_reported":1753139440,"current_range_meters":11600,"station_id":"","pricing_plan_id":"cebpf4jnsgd1na2vs0mg"},{"bike_id":"829915d1-e486-4f77-a21a-1a0a65722b23","system_id":"levelo_inurba_marseille","lat":43.270724,"lon":5.422882,"is_reserved":false,"is_disabled":true,"rental_uris":{"android":"levelo://app?vid=829915d1-e486-4f77-a21a-1a0a65722b23","ios":"levelo://app?vid=829915d1-e486-4f77-a21a-1a0a65722b23"},"vehicle_type_id":"4","last_reported":1753139440,"current_range_meters":11600,"station_id":"ce4bhk92rcd13ifvqgb0","pricing_plan_id":"cebpf4jnsgd1na2vs0mg"},{"bike_id":"223e13ef-7d06-4f85-889e-6f3740f9035a","system_id":"levelo_inurba_marseille","lat":43.30571,"lon":5.39342,"is_reserved":false,"is_disabled":false,"rental_uris":{"android":"levelo://app?vid=223e13ef-7d06-4f85-889e-6f3740f9035a","ios":"levelo://app?vid=223e13ef-7d06-4f85-889e-6f3740f9035a"},"vehicle_type_id":"4","last_reported":1753139440,"current_range_meters":12000,"station_id":"ce4bh0p2rcd13ifvqd80","pricing_plan_id":"cebpf4jnsgd1na2vs0mg"},{"bike_id":"2d9e50df-3619-414b-8197-61383b3bc244","system_id":"levelo_inurba_marseille","lat":43.28358,"lon":5.38108,"is_reserved":false,"is_disabled":false,"rental_uris":{"android":"levelo://app?vid=2d9e50df-3619-414b-8197-61383b3bc244","ios":"levelo://app?vid=2d9e50df-3619-414b-8197-61383b3bc244"},"vehicle_type_id":"4","last_reported":1753139440,"current_range_meters":12000,"station_id":"ce4bh412rcd13ifvqdr0","pricing_plan_id":"cebpf4jnsgd1na2vs0mg"},{"bike_id":"9c838529-2f8d-4cf1-ba58-27067ac84219","system_id":"levelo_inurba_marseille","lat":43.24176,"lon":5.36401,"is_reserved":false,"is_disabled":false,"rental_uris":{"android":"levelo://app?vid=9c838529-2f8d-4cf1-ba58-27067ac84219","ios":"levelo://app?vid=9c838529-2f8d-4cf1-ba58-27067ac84219"},"vehicle_type_id":"4","last_reported":1753139440,"current_range_meters":12000,"station_id":"cpo36qri1sfpv3e86is0","pricing_plan_id":"cebpf4jnsgd1na2vs0mg"},{"bike_id":"6af8e47e-5fe5-4b8c-9d07-a38c4cde5d71","system_id":"levelo_inurba_marseille","lat":43.24081,"lon":5.37771,"is_reserved":false,"is_disabled":false,"rental_uris":{"android":"levelo://app?vid=6af8e47e-5fe5-4b8c-9d07-a38c4cde5d71","ios":"levelo://app?vid=6af8e47e-5fe5-4b8c-9d07-a38c4cde5d71"},"vehicle_type_id":"4","last_reported":1753139440,"current_range_meters":12000,"station_id":"ce4bhnp2rcd13ifvqgvg","pricing_plan_id":"cebpf4jnsgd1na2vs0mg"},{"bike_id":"d485f597-db0c-4d03-a6b7-f0eec45f33b2","system_id":"levelo_inurba_marseille","lat":43.29278,"lon":5.36843,"is_reserved":false,"is_disabled":true,"rental_uris":{"android":"levelo://app?vid=d485f597-db0c-4d03-a6b7-f0eec45f33b2","ios":"levelo://app?vid=d485f597-db0c-4d03-a6b7-f0eec45f33b2"},"vehicle_type_id":"4","last_reported":1753139440,"current_range_meters":12000,"station_id":"ce4bhbp2rcd13ifvqesg","pricing_plan_id":"cebpf4jnsgd1na2vs0mg"},{"bike_id":"eaff56b1-d219-42d3-ad41-870cb8ed5924","system_id":"levelo_inurba_marseille","lat":43.27896,"lon":5.380205,"is_reserved":false,"is_disabled":false,"rental_uris":{"android":"levelo://app?vid=eaff56b1-d219-42d3-ad41-870cb8ed5924","ios":"levelo://app?vid=eaff56b1-d219-42d3-ad41-870cb8ed5924"},"vehicle_type_id":"4","last_reported":1753139440,"current_range_meters":12000,"station_id":"ce4bhf92rcd13ifvqf50","pricing_plan_id":"cebpf4jnsgd1na2vs0mg"},{"bike_id":"328e472f-5ae1-4ad9-833e-8bfd84d0df0a","system_id":"levelo_inurba_marseille","lat":43.28024,"lon":5.39823,"is_reserved":false,"is_disabled":false,"rental_uris":{"android":"levelo://app?vid=328e472f-5ae1-4ad9-833e-8bfd84d0df0a","ios":"levelo://app?vid=328e472f-5ae1-4ad9-833e-8bfd84d0df0a"},"vehicle_type_id":"4","last_reported":1753139440,"current_range_meters":12400,"station_id":"","pricing_plan_id":"cebpf4jnsgd1na2vs0mg"},{"bike_id":"082bead9-81cd-445f-b749-08d2f0bd61d0","system_id":"levelo_inurba_marseille","lat":43.22912,"lon":5.35395,"is_reserved":false,"is_disabled":true,"rental_uris":{"android":"levelo://app?vid=082bead9-81cd-445f-b749-08d2f0bd61d0","ios":"levelo://app?vid=082bead9-81cd-445f-b749-08d2f0bd61d0"},"vehicle_type_id":"4","last_reported":1753139440,"current_range_meters":12400,"station_id":"cpo3532slgdg3j2ikp40","pricing_plan_id":"cebpf4jnsgd1na2vs0mg"},{"bike_id":"781d153d-8193-4f8d-9f81-8070aed1d0b5","system_id":"levelo_inurba_marseille","lat":43.28941,"lon":5.36389,"is_reserved":false,"is_disabled":false,"rental_uris":{"android":"levelo://app?vid=781d153d-8193-4f8d-9f81-8070aed1d0b5","ios":"levelo://app?vid=781d153d-8193-4f8d-9f81-8070aed1d0b5"},"vehicle_type_id":"4","last_reported":1753139440,"current_range_meters":12400,"station_id":"ce4bhc92rcd13ifvqetg","pricing_plan_id":"cebpf4jnsgd1na2vs0mg"},{"bike_id":"3117258b-a0b2-4038-960e-7505313a6719","system_id":"levelo_inurba_marseille","lat":43.32136,"lon":5.36781,"is_reserved":false,"is_disabled":false,"rental_uris":{"android":"levelo://app?vid=3117258b-a0b2-4038-960e-7505313a6719","ios":"levelo://app?vid=3117258b-a0b2-4038-960e-7505313a6719"},"vehicle_type_id":"4","last_reported":1753139440,"current_range_meters":12400,"station_id":"ce4bhrh2rcd13ifvqhug","pricing_plan_id":"cebpf4jnsgd1na2vs0mg"},{"bike_id":"18a559b1-d0e0-4c64-bb26-9de38c17c032","system_id":"levelo_inurba_marseille","lat":43.27072,"lon":5.42275,"is_reserved":false,"is_disabled":false,"rental_uris":{"android":"levelo://app?vid=18a559b1-d0e0-4c64-bb26-9de38c17c032","ios":"levelo://app?vid=18a559b1-d0e0-4c64-bb26-9de38c17c032"},"vehicle_type_id":"4","last_reported":1753139440,"current_range_meters":12400,"station_id":"ce4bhk92rcd13ifvqgb0","pricing_plan_id":"cebpf4jnsgd1na2vs0mg"},{"bike_id":"983d4263-f897-41cb-ada9-22b842710b92","system_id":"levelo_inurba_marseille","lat":43.28159,"lon":5.42647,"is_reserved":false,"is_disabled":false,"rental_uris":{"android":"levelo://app?vid=983d4263-f897-41cb-ada9-22b842710b92","ios":"levelo://app?vid=983d4263-f897-41cb-ada9-22b842710b92"},"vehicle_type_id":"4","last_reported":1753139440,"current_range_meters":12400,"station_id":"ce4bhnh2rcd13ifvqgug","pricing_plan_id":"cebpf4jnsgd1na2vs0mg"},{"bike_id":"e4b55522-467a-4377-8969-f50926b52bc5","system_id":"levelo_inurba_marseille","lat":43.31118,"lon":5.37769,"is_reserved":false,"is_disabled":false,"rental_uris":{"android":"levelo://app?vid=e4b55522-467a-4377-8969-f50926b52bc5","ios":"levelo://app?vid=e4b55522-467a-4377-8969-f50926b52bc5"},"vehicle_type_id":"4","last_reported":1753139440,"current_range_meters":12400,"station_id":"ce4bgt92rcd13ifvqcg0","pricing_plan_id":"cebpf4jnsgd1na2vs0mg"},{"bike_id":"71cbc4b9-db61-47db-848f-072b0a7e341e","system_id":"levelo_inurba_marseille","lat":43.28083,"lon":5.36807,"is_reserved":false,"is_disabled":false,"rental_uris":{"android":"levelo://app?vid=71cbc4b9-db61-47db-848f-072b0a7e341e","ios":"levelo://app?vid=71cbc4b9-db61-47db-848f-072b0a7e341e"},"vehicle_type_id":"4","last_reported":1753139440,"current_range_meters":12400,"station_id":"","pricing_plan_id":"cebpf4jnsgd1na2vs0mg"},{"bike_id":"2814fa79-5ad0-4958-8e9b-65a71a7a118a","system_id":"levelo_inurba_marseille","lat":43.291383,"lon":5.441747,"is_reserved":false,"is_disabled":false,"rental_uris":{"android":"levelo://app?vid=2814fa79-5ad0-4958-8e9b-65a71a7a118a","ios":"levelo://app?vid=2814fa79-5ad0-4958-8e9b-65a71a7a118a"},"vehicle_type_id":"4","last_reported":1753139440,"current_range_meters":12400,"station_id":"","pricing_plan_id":"cebpf4jnsgd1na2vs0mg"},{"bike_id":"7347599e-b85b-4370-902c-7d96e95ce228","system_id":"levelo_inurba_marseille","lat":43.28193,"lon":5.42686,"is_reserved":false,"is_disabled":false,"rental_uris":{"android":"levelo://app?vid=7347599e-b85b-4370-902c-7d96e95ce228","ios":"levelo://app?vid=7347599e-b85b-4370-902c-7d96e95ce228"},"vehicle_type_id":"4","last_reported":1753139440,"current_range_meters":12800,"station_id":"","pricing_plan_id":"cebpf4jnsgd1na2vs0mg"},{"bike_id":"e2a3d231-b3ab-46ea-8ac4-61447fd9e627","system_id":"levelo_inurba_marseille","lat":43.30732,"lon":5.42437,"is_reserved":false,"is_disabled":false,"rental_uris":{"android":"levelo://app?vid=e2a3d231-b3ab-46ea-8ac4-61447fd9e627","ios":"levelo://app?vid=e2a3d231-b3ab-46ea-8ac4-61447fd9e627"},"vehicle_type_id":"4","last_reported":1753139440,"current_range_meters":12800,"station_id":"st_cvj6ca6bvosntc0bfgr0","pricing_plan_id":"cebpf4jnsgd1na2vs0mg"},{"bike_id":"cd5639e0-14d4-4153-9341-a1d864305b1b","system_id":"levelo_inurba_marseille","lat":43.29893,"lon":5.43671,"is_reserved":false,"is_disabled":false,"rental_uris":{"android":"levelo://app?vid=cd5639e0-14d4-4153-9341-a1d864305b1b","ios":"levelo://app?vid=cd5639e0-14d4-4153-9341-a1d864305b1b"},"vehicle_type_id":"4","last_reported":1753139440,"current_range_meters":12800,"station_id":"ce4bhpp2rcd13ifvqhfg","pricing_plan_id":"cebpf4jnsgd1na2vs0mg"},{"bike_id":"667be1b5-d9c2-4b20-9ef6-81dd5e39a1ee","system_id":"levelo_inurba_marseille","lat":43.27069,"lon":5.42271,"is_reserved":false,"is_disabled":false,"rental_uris":{"android":"levelo://app?vid=667be1b5-d9c2-4b20-9ef6-81dd5e39a1ee","ios":"levelo://app?vid=667be1b5-d9c2-4b20-9ef6-81dd5e39a1ee"},"vehicle_type_id":"4","last_reported":1753139440,"current_range_meters":13600,"station_id":"ce4bhk92rcd13ifvqgb0","pricing_plan_id":"cebpf4jnsgd1na2vs0mg"},{"bike_id":"c4ddf749-008b-4a14-af16-f3a13a431402","system_id":"levelo_inurba_marseille","lat":43.21191,"lon":5.35118,"is_reserved":false,"is_disabled":false,"rental_uris":{"android":"levelo://app?vid=c4ddf749-008b-4a14-af16-f3a13a431402","ios":"levelo://app?vid=c4ddf749-008b-4a14-af16-f3a13a431402"},"vehicle_type_id":"4","last_reported":1753139440,"current_range_meters":13600,"station_id":"st_cvj6sg6p6f1abm77japg","pricing_plan_id":"cebpf4jnsgd1na2vs0mg"},{"bike_id":"62a2d252-8746-417c-91c2-a6803c4b585f","system_id":"levelo_inurba_marseille","lat":43.29257,"lon":5.409,"is_reserved":false,"is_disabled":false,"rental_uris":{"android":"levelo://app?vid=62a2d252-8746-417c-91c2-a6803c4b585f","ios":"levelo://app?vid=62a2d252-8746-417c-91c2-a6803c4b585f"},"vehicle_type_id":"4","last_reported":1753139440,"current_range_meters":13600,"station_id":"ce4bh192rcd13ifvqdc0","pricing_plan_id":"cebpf4jnsgd1na2vs0mg"},{"bike_id":"95ad42ea-7a03-4c56-9db4-019357f24f84","system_id":"levelo_inurba_marseille","lat":43.23178,"lon":5.39987,"is_reserved":false,"is_disabled":false,"rental_uris":{"android":"levelo://app?vid=95ad42ea-7a03-4c56-9db4-019357f24f84","ios":"levelo://app?vid=95ad42ea-7a03-4c56-9db4-019357f24f84"},"vehicle_type_id":"4","last_reported":1753139440,"current_range_meters":13600,"station_id":"ce4bhn12rcd13ifvqgqg","pricing_plan_id":"cebpf4jnsgd1na2vs0mg"},{"bike_id":"2e53d9f8-1df5-48f5-b763-5f8396a6577a","system_id":"levelo_inurba_marseille","lat":43.23197,"lon":5.35557,"is_reserved":false,"is_disabled":false,"rental_uris":{"android":"levelo://app?vid=2e53d9f8-1df5-48f5-b763-5f8396a6577a","ios":"levelo://app?vid=2e53d9f8-1df5-48f5-b763-5f8396a6577a"},"vehicle_type_id":"4","last_reported":1753139440,"current_range_meters":13600,"station_id":"ce4bhu92rcd13ifvqi70","pricing_plan_id":"cebpf4jnsgd1na2vs0mg"},{"bike_id":"1c22819b-ef69-41c3-af80-068c7a58af48","system_id":"levelo_inurba_marseille","lat":43.320823,"lon":5.36811,"is_reserved":false,"is_disabled":false,"rental_uris":{"android":"levelo://app?vid=1c22819b-ef69-41c3-af80-068c7a58af48","ios":"levelo://app?vid=1c22819b-ef69-41c3-af80-068c7a58af48"},"vehicle_type_id":"4","last_reported":1753139440,"current_range_meters":13600,"station_id":"ce4bhrh2rcd13ifvqhug","pricing_plan_id":"cebpf4jnsgd1na2vs0mg"},{"bike_id":"ec84aa5c-77e8-4caf-b79f-8fd3d205d300","system_id":"levelo_inurba_marseille","lat":43.28275,"lon":5.35079,"is_reserved":false,"is_disabled":true,"rental_uris":{"android":"levelo://app?vid=ec84aa5c-77e8-4caf-b79f-8fd3d205d300","ios":"levelo://app?vid=ec84aa5c-77e8-4caf-b79f-8fd3d205d300"},"vehicle_type_id":"4","last_reported":1753139440,"current_range_meters":13600,"station_id":"ce4bhbp2rcd13ifvqerg","pricing_plan_id":"cebpf4jnsgd1na2vs0mg"},{"bike_id":"cb647221-7677-445d-8b11-41b91c0088a2","system_id":"levelo_inurba_marseille","lat":43.29486,"lon":5.38545,"is_reserved":false,"is_disabled":false,"rental_uris":{"android":"levelo://app?vid=cb647221-7677-445d-8b11-41b91c0088a2","ios":"levelo://app?vid=cb647221-7677-445d-8b11-41b91c0088a2"},"vehicle_type_id":"4","last_reported":1753139440,"current_range_meters":13600,"station_id":"ce4bgih2rcd13ifvqba0","pricing_plan_id":"cebpf4jnsgd1na2vs0mg"},{"bike_id":"b592fbf0-8789-44e9-8ae3-ef3f58485ff3","system_id":"levelo_inurba_marseille","lat":43.311929,"lon":5.386949,"is_reserved":false,"is_disabled":false,"rental_uris":{"android":"levelo://app?vid=b592fbf0-8789-44e9-8ae3-ef3f58485ff3","ios":"levelo://app?vid=b592fbf0-8789-44e9-8ae3-ef3f58485ff3"},"vehicle_type_id":"4","last_reported":1753139440,"current_range_meters":14400,"station_id":"ce4bgv12rcd13ifvqcp0","pricing_plan_id":"cebpf4jnsgd1na2vs0mg"},{"bike_id":"c43c3a06-ea1e-48f3-8d6b-d403c2218d7e","system_id":"levelo_inurba_marseille","lat":43.2894,"lon":5.3963,"is_reserved":false,"is_disabled":false,"rental_uris":{"android":"levelo://app?vid=c43c3a06-ea1e-48f3-8d6b-d403c2218d7e","ios":"levelo://app?vid=c43c3a06-ea1e-48f3-8d6b-d403c2218d7e"},"vehicle_type_id":"4","last_reported":1753139440,"current_range_meters":14000,"station_id":"ce4bh3h2rcd13ifvqdn0","pricing_plan_id":"cebpf4jnsgd1na2vs0mg"},{"bike_id":"b0ca60a9-198b-40cd-80f5-851fb33960f4","system_id":"levelo_inurba_marseille","lat":43.28084,"lon":5.39654,"is_reserved":false,"is_disabled":false,"rental_uris":{"android":"levelo://app?vid=b0ca60a9-198b-40cd-80f5-851fb33960f4","ios":"levelo://app?vid=b0ca60a9-198b-40cd-80f5-851fb33960f4"},"vehicle_type_id":"4","last_reported":1753139440,"current_range_meters":14000,"station_id":"ce4bho12rcd13ifvqh2g","pricing_plan_id":"cebpf4jnsgd1na2vs0mg"},{"bike_id":"58cbfa7e-c704-4866-ba9b-204648f1391a","system_id":"levelo_inurba_marseille","lat":43.33063,"lon":5.37648,"is_reserved":false,"is_disabled":false,"rental_uris":{"android":"levelo://app?vid=58cbfa7e-c704-4866-ba9b-204648f1391a","ios":"levelo://app?vid=58cbfa7e-c704-4866-ba9b-204648f1391a"},"vehicle_type_id":"4","last_reported":1753139440,"current_range_meters":14000,"station_id":"","pricing_plan_id":"cebpf4jnsgd1na2vs0mg"},{"bike_id":"d0d3aa49-8b6f-4a01-b368-8d7a86d391dd","system_id":"levelo_inurba_marseille","lat":43.27625,"lon":5.36106,"is_reserved":false,"is_disabled":false,"rental_uris":{"android":"levelo://app?vid=d0d3aa49-8b6f-4a01-b368-8d7a86d391dd","ios":"levelo://app?vid=d0d3aa49-8b6f-4a01-b368-8d7a86d391dd"},"vehicle_type_id":"4","last_reported":1753139440,"current_range_meters":14000,"station_id":"ce4bgj92rcd13ifvqbe0","pricing_plan_id":"cebpf4jnsgd1na2vs0mg"},{"bike_id":"85b008dd-0f9f-4205-aa28-4f549082c3e6","system_id":"levelo_inurba_marseille","lat":43.21191,"lon":5.35067,"is_reserved":false,"is_disabled":false,"rental_uris":{"android":"levelo://app?vid=85b008dd-0f9f-4205-aa28-4f549082c3e6","ios":"levelo://app?vid=85b008dd-0f9f-4205-aa28-4f549082c3e6"},"vehicle_type_id":"4","last_reported":1753139440,"current_range_meters":14400,"station_id":"st_cvj6sg6p6f1abm77japg","pricing_plan_id":"cebpf4jnsgd1na2vs0mg"},{"bike_id":"dcf3708e-28f1-439c-a33c-3314b62f6374","system_id":"levelo_inurba_marseille","lat":43.28085,"lon":5.39673,"is_reserved":false,"is_disabled":false,"rental_uris":{"android":"levelo://app?vid=dcf3708e-28f1-439c-a33c-3314b62f6374","ios":"levelo://app?vid=dcf3708e-28f1-439c-a33c-3314b62f6374"},"vehicle_type_id":"4","last_reported":1753139440,"current_range_meters":14400,"station_id":"ce4bho12rcd13ifvqh2g","pricing_plan_id":"cebpf4jnsgd1na2vs0mg"},{"bike_id":"ba2b3a99-8668-4f5d-bab3-0079c47bd454","system_id":"levelo_inurba_marseille","lat":43.32538,"lon":5.41455,"is_reserved":false,"is_disabled":true,"rental_uris":{"android":"levelo://app?vid=ba2b3a99-8668-4f5d-bab3-0079c47bd454","ios":"levelo://app?vid=ba2b3a99-8668-4f5d-bab3-0079c47bd454"},"vehicle_type_id":"4","last_reported":1753139440,"current_range_meters":14400,"station_id":"ce4bhq12rcd13ifvqhhg","pricing_plan_id":"cebpf4jnsgd1na2vs0mg"},{"bike_id":"289b7b04-082d-4df4-bce3-77c2c7e6429a","system_id":"levelo_inurba_marseille","lat":43.23184,"lon":5.39985,"is_reserved":false,"is_disabled":false,"rental_uris":{"android":"levelo://app?vid=289b7b04-082d-4df4-bce3-77c2c7e6429a","ios":"levelo://app?vid=289b7b04-082d-4df4-bce3-77c2c7e6429a"},"vehicle_type_id":"4","last_reported":1753139440,"current_range_meters":14400,"station_id":"ce4bhn12rcd13ifvqgqg","pricing_plan_id":"cebpf4jnsgd1na2vs0mg"},{"bike_id":"4bfba9d8-2088-4783-8f94-183d94cdfb12","system_id":"levelo_inurba_marseille","lat":43.30878,"lon":5.40395,"is_reserved":false,"is_disabled":false,"rental_uris":{"android":"levelo://app?vid=4bfba9d8-2088-4783-8f94-183d94cdfb12","ios":"levelo://app?vid=4bfba9d8-2088-4783-8f94-183d94cdfb12"},"vehicle_type_id":"4","last_reported":1753139440,"current_range_meters":14400,"station_id":"","pricing_plan_id":"cebpf4jnsgd1na2vs0mg"},{"bike_id":"46f2b854-76a5-40db-8d6e-f537fc51a465","system_id":"levelo_inurba_marseille","lat":43.25866,"lon":5.39898,"is_reserved":false,"is_disabled":false,"rental_uris":{"android":"levelo://app?vid=46f2b854-76a5-40db-8d6e-f537fc51a465","ios":"levelo://app?vid=46f2b854-76a5-40db-8d6e-f537fc51a465"},"vehicle_type_id":"4","last_reported":1753139440,"current_range_meters":14400,"station_id":"ce4bhl92rcd13ifvqghg","pricing_plan_id":"cebpf4jnsgd1na2vs0mg"},{"bike_id":"50d16da1-39af-48c8-9080-8fc1a2184959","system_id":"levelo_inurba_marseille","lat":43.211876,"lon":5.350714,"is_reserved":false,"is_disabled":false,"rental_uris":{"android":"levelo://app?vid=50d16da1-39af-48c8-9080-8fc1a2184959","ios":"levelo://app?vid=50d16da1-39af-48c8-9080-8fc1a2184959"},"vehicle_type_id":"4","last_reported":1753139440,"current_range_meters":14400,"station_id":"st_cvj6sg6p6f1abm77japg","pricing_plan_id":"cebpf4jnsgd1na2vs0mg"},{"bike_id":"8623e104-31b9-42b2-96cf-b9f1ba7058fc","system_id":"levelo_inurba_marseille","lat":43.21176,"lon":5.35066,"is_reserved":false,"is_disabled":false,"rental_uris":{"android":"levelo://app?vid=8623e104-31b9-42b2-96cf-b9f1ba7058fc","ios":"levelo://app?vid=8623e104-31b9-42b2-96cf-b9f1ba7058fc"},"vehicle_type_id":"4","last_reported":1753139440,"current_range_meters":14400,"station_id":"st_cvj6sg6p6f1abm77japg","pricing_plan_id":"cebpf4jnsgd1na2vs0mg"},{"bike_id":"534002a1-1a8f-4e8e-b0fe-b9465de21736","system_id":"levelo_inurba_marseille","lat":43.27186,"lon":5.40995,"is_reserved":false,"is_disabled":false,"rental_uris":{"android":"levelo://app?vid=534002a1-1a8f-4e8e-b0fe-b9465de21736","ios":"levelo://app?vid=534002a1-1a8f-4e8e-b0fe-b9465de21736"},"vehicle_type_id":"4","last_reported":1753139440,"current_range_meters":14400,"station_id":"ce4bhl12rcd13ifvqgf0","pricing_plan_id":"cebpf4jnsgd1na2vs0mg"},{"bike_id":"3a720939-29fa-4f4f-b70d-5ad24683127e","system_id":"levelo_inurba_marseille","lat":43.28147,"lon":5.42631,"is_reserved":false,"is_disabled":false,"rental_uris":{"android":"levelo://app?vid=3a720939-29fa-4f4f-b70d-5ad24683127e","ios":"levelo://app?vid=3a720939-29fa-4f4f-b70d-5ad24683127e"},"vehicle_type_id":"4","last_reported":1753139440,"current_range_meters":14800,"station_id":"ce4bhnh2rcd13ifvqgug","pricing_plan_id":"cebpf4jnsgd1na2vs0mg"},{"bike_id":"e57606de-d549-4a50-8b75-91216215a181","system_id":"levelo_inurba_marseille","lat":43.275043,"lon":5.424471,"is_reserved":false,"is_disabled":true,"rental_uris":{"android":"levelo://app?vid=e57606de-d549-4a50-8b75-91216215a181","ios":"levelo://app?vid=e57606de-d549-4a50-8b75-91216215a181"},"vehicle_type_id":"4","last_reported":1753139440,"current_range_meters":14800,"station_id":"ce4bhn92rcd13ifvqgrg","pricing_plan_id":"cebpf4jnsgd1na2vs0mg"},{"bike_id":"8423e589-47bf-47a8-b90f-452fc938c46b","system_id":"levelo_inurba_marseille","lat":43.32366,"lon":5.36771,"is_reserved":false,"is_disabled":false,"rental_uris":{"android":"levelo://app?vid=8423e589-47bf-47a8-b90f-452fc938c46b","ios":"levelo://app?vid=8423e589-47bf-47a8-b90f-452fc938c46b"},"vehicle_type_id":"4","last_reported":1753139440,"current_range_meters":14800,"station_id":"ce4bhsh2rcd13ifvqi2g","pricing_plan_id":"cebpf4jnsgd1na2vs0mg"},{"bike_id":"04692de7-10df-4745-bc03-6fad09e46a85","system_id":"levelo_inurba_marseille","lat":43.30876,"lon":5.39642,"is_reserved":false,"is_disabled":false,"rental_uris":{"android":"levelo://app?vid=04692de7-10df-4745-bc03-6fad09e46a85","ios":"levelo://app?vid=04692de7-10df-4745-bc03-6fad09e46a85"},"vehicle_type_id":"4","last_reported":1753139440,"current_range_meters":14400,"station_id":"ce4bh012rcd13ifvqcv0","pricing_plan_id":"cebpf4jnsgd1na2vs0mg"},{"bike_id":"6ecd5a2b-6dae-44b3-a162-e5286af43d43","system_id":"levelo_inurba_marseille","lat":43.22535,"lon":5.34785,"is_reserved":false,"is_disabled":false,"rental_uris":{"android":"levelo://app?vid=6ecd5a2b-6dae-44b3-a162-e5286af43d43","ios":"levelo://app?vid=6ecd5a2b-6dae-44b3-a162-e5286af43d43"},"vehicle_type_id":"4","last_reported":1753139440,"current_range_meters":14800,"station_id":"st_cvj5dfep6f1abm77gieg","pricing_plan_id":"cebpf4jnsgd1na2vs0mg"},{"bike_id":"bdff3499-1d7e-4e90-a13d-e43595e48949","system_id":"levelo_inurba_marseille","lat":43.27073,"lon":5.4227,"is_reserved":false,"is_disabled":false,"rental_uris":{"android":"levelo://app?vid=bdff3499-1d7e-4e90-a13d-e43595e48949","ios":"levelo://app?vid=bdff3499-1d7e-4e90-a13d-e43595e48949"},"vehicle_type_id":"4","last_reported":1753139440,"current_range_meters":15200,"station_id":"ce4bhk92rcd13ifvqgb0","pricing_plan_id":"cebpf4jnsgd1na2vs0mg"},{"bike_id":"b0d5fc67-cc7a-42e1-a0f9-9115e5a35031","system_id":"levelo_inurba_marseille","lat":43.295184,"lon":5.385466,"is_reserved":false,"is_disabled":false,"rental_uris":{"android":"levelo://app?vid=b0d5fc67-cc7a-42e1-a0f9-9115e5a35031","ios":"levelo://app?vid=b0d5fc67-cc7a-42e1-a0f9-9115e5a35031"},"vehicle_type_id":"4","last_reported":1753139440,"current_range_meters":15200,"station_id":"ce4bgih2rcd13ifvqba0","pricing_plan_id":"cebpf4jnsgd1na2vs0mg"},{"bike_id":"a5d420c1-6f63-4560-9fe2-e08db2c4fecb","system_id":"levelo_inurba_marseille","lat":43.2119,"lon":5.35063,"is_reserved":false,"is_disabled":false,"rental_uris":{"android":"levelo://app?vid=a5d420c1-6f63-4560-9fe2-e08db2c4fecb","ios":"levelo://app?vid=a5d420c1-6f63-4560-9fe2-e08db2c4fecb"},"vehicle_type_id":"4","last_reported":1753139440,"current_range_meters":15200,"station_id":"st_cvj6sg6p6f1abm77japg","pricing_plan_id":"cebpf4jnsgd1na2vs0mg"},{"bike_id":"32439151-bc56-437b-a2fd-5b51983e6dbc","system_id":"levelo_inurba_marseille","lat":43.30376,"lon":5.42485,"is_reserved":false,"is_disabled":false,"rental_uris":{"android":"levelo://app?vid=32439151-bc56-437b-a2fd-5b51983e6dbc","ios":"levelo://app?vid=32439151-bc56-437b-a2fd-5b51983e6dbc"},"vehicle_type_id":"4","last_reported":1753139440,"current_range_meters":15200,"station_id":"ce4bhoh2rcd13ifvqh6g","pricing_plan_id":"cebpf4jnsgd1na2vs0mg"},{"bike_id":"769199fd-60e5-49a7-b677-579827ce6603","system_id":"levelo_inurba_marseille","lat":43.30645,"lon":5.40086,"is_reserved":false,"is_disabled":false,"rental_uris":{"android":"levelo://app?vid=769199fd-60e5-49a7-b677-579827ce6603","ios":"levelo://app?vid=769199fd-60e5-49a7-b677-579827ce6603"},"vehicle_type_id":"4","last_reported":1753139440,"current_range_meters":15200,"station_id":"ce4bh112rcd13ifvqda0","pricing_plan_id":"cebpf4jnsgd1na2vs0mg"},{"bike_id":"5c60ff00-8a7a-4c46-b539-0227854b2074","system_id":"levelo_inurba_marseille","lat":43.297777,"lon":5.381044,"is_reserved":false,"is_disabled":true,"rental_uris":{"android":"levelo://app?vid=5c60ff00-8a7a-4c46-b539-0227854b2074","ios":"levelo://app?vid=5c60ff00-8a7a-4c46-b539-0227854b2074"},"vehicle_type_id":"4","last_reported":1753139440,"current_range_meters":15200,"station_id":"ce4bgip2rcd13ifvqbb0","pricing_plan_id":"cebpf4jnsgd1na2vs0mg"},{"bike_id":"996ec95e-5fe9-4d4e-8f13-61a9f9dafa5d","system_id":"levelo_inurba_marseille","lat":43.2407,"lon":5.37759,"is_reserved":false,"is_disabled":false,"rental_uris":{"android":"levelo://app?vid=996ec95e-5fe9-4d4e-8f13-61a9f9dafa5d","ios":"levelo://app?vid=996ec95e-5fe9-4d4e-8f13-61a9f9dafa5d"},"vehicle_type_id":"4","last_reported":1753139440,"current_range_meters":15200,"station_id":"ce4bhnp2rcd13ifvqgvg","pricing_plan_id":"cebpf4jnsgd1na2vs0mg"},{"bike_id":"0d04369e-f201-4daa-bf5d-cbf094f424a0","system_id":"levelo_inurba_marseille","lat":43.27466,"lon":5.42466,"is_reserved":false,"is_disabled":false,"rental_uris":{"android":"levelo://app?vid=0d04369e-f201-4daa-bf5d-cbf094f424a0","ios":"levelo://app?vid=0d04369e-f201-4daa-bf5d-cbf094f424a0"},"vehicle_type_id":"4","last_reported":1753139440,"current_range_meters":15200,"station_id":"ce4bhn92rcd13ifvqgrg","pricing_plan_id":"cebpf4jnsgd1na2vs0mg"},{"bike_id":"2d6095ea-f882-494d-a187-fa879408181e","system_id":"levelo_inurba_marseille","lat":43.25141,"lon":5.37348,"is_reserved":false,"is_disabled":false,"rental_uris":{"android":"levelo://app?vid=2d6095ea-f882-494d-a187-fa879408181e","ios":"levelo://app?vid=2d6095ea-f882-494d-a187-fa879408181e"},"vehicle_type_id":"4","last_reported":1753139440,"current_range_meters":15200,"station_id":"","pricing_plan_id":"cebpf4jnsgd1na2vs0mg"},{"bike_id":"76e8a4c7-1966-4c02-a21a-c2d4f4e224d8","system_id":"levelo_inurba_marseille","lat":43.29267,"lon":5.37627,"is_reserved":false,"is_disabled":true,"rental_uris":{"android":"levelo://app?vid=76e8a4c7-1966-4c02-a21a-c2d4f4e224d8","ios":"levelo://app?vid=76e8a4c7-1966-4c02-a21a-c2d4f4e224d8"},"vehicle_type_id":"4","last_reported":1753139440,"current_range_meters":16000,"station_id":"ce4bgi12rcd13ifvqb80","pricing_plan_id":"cebpf4jnsgd1na2vs0mg"},{"bike_id":"b6191c96-af83-462f-a3cc-e4778a781fff","system_id":"levelo_inurba_marseille","lat":43.21189,"lon":5.35078,"is_reserved":false,"is_disabled":false,"rental_uris":{"android":"levelo://app?vid=b6191c96-af83-462f-a3cc-e4778a781fff","ios":"levelo://app?vid=b6191c96-af83-462f-a3cc-e4778a781fff"},"vehicle_type_id":"4","last_reported":1753139440,"current_range_meters":16000,"station_id":"st_cvj6sg6p6f1abm77japg","pricing_plan_id":"cebpf4jnsgd1na2vs0mg"},{"bike_id":"45ae6a17-015a-4eb5-8301-dac17ebae2db","system_id":"levelo_inurba_marseille","lat":43.305457,"lon":5.384288,"is_reserved":false,"is_disabled":false,"rental_uris":{"android":"levelo://app?vid=45ae6a17-015a-4eb5-8301-dac17ebae2db","ios":"levelo://app?vid=45ae6a17-015a-4eb5-8301-dac17ebae2db"},"vehicle_type_id":"4","last_reported":1753139440,"current_range_meters":16000,"station_id":"ce4bgg92rcd13ifvqb30","pricing_plan_id":"cebpf4jnsgd1na2vs0mg"},{"bike_id":"f62ab40e-daf8-443c-a309-2af313963782","system_id":"levelo_inurba_marseille","lat":43.28099,"lon":5.37838,"is_reserved":false,"is_disabled":false,"rental_uris":{"android":"levelo://app?vid=f62ab40e-daf8-443c-a309-2af313963782","ios":"levelo://app?vid=f62ab40e-daf8-443c-a309-2af313963782"},"vehicle_type_id":"4","last_reported":1753139440,"current_range_meters":16000,"station_id":"ce4bha12rcd13ifvqee0","pricing_plan_id":"cebpf4jnsgd1na2vs0mg"},{"bike_id":"0cb19f5e-6a19-4fc0-9b18-698188d68bf4","system_id":"levelo_inurba_marseille","lat":43.29726,"lon":5.43265,"is_reserved":false,"is_disabled":false,"rental_uris":{"android":"levelo://app?vid=0cb19f5e-6a19-4fc0-9b18-698188d68bf4","ios":"levelo://app?vid=0cb19f5e-6a19-4fc0-9b18-698188d68bf4"},"vehicle_type_id":"4","last_reported":1753139440,"current_range_meters":16000,"station_id":"","pricing_plan_id":"cebpf4jnsgd1na2vs0mg"},{"bike_id":"68ad25bf-3ce4-4219-aae6-b4b4ca3df214","system_id":"levelo_inurba_marseille","lat":43.224933,"lon":5.34795,"is_reserved":false,"is_disabled":false,"rental_uris":{"android":"levelo://app?vid=68ad25bf-3ce4-4219-aae6-b4b4ca3df214","ios":"levelo://app?vid=68ad25bf-3ce4-4219-aae6-b4b4ca3df214"},"vehicle_type_id":"4","last_reported":1753139440,"current_range_meters":16000,"station_id":"st_cvj5dfep6f1abm77gieg","pricing_plan_id":"cebpf4jnsgd1na2vs0mg"},{"bike_id":"23ac7249-5357-42e5-abe4-d290ecb69c60","system_id":"levelo_inurba_marseille","lat":43.25106,"lon":5.40322,"is_reserved":false,"is_disabled":false,"rental_uris":{"android":"levelo://app?vid=23ac7249-5357-42e5-abe4-d290ecb69c60","ios":"levelo://app?vid=23ac7249-5357-42e5-abe4-d290ecb69c60"},"vehicle_type_id":"4","last_reported":1753139440,"current_range_meters":16000,"station_id":"ce4bhlh2rcd13ifvqgig","pricing_plan_id":"cebpf4jnsgd1na2vs0mg"},{"bike_id":"88439197-cc39-49d6-8c70-df0a4da4d37d","system_id":"levelo_inurba_marseille","lat":43.28653,"lon":5.38677,"is_reserved":false,"is_disabled":false,"rental_uris":{"android":"levelo://app?vid=88439197-cc39-49d6-8c70-df0a4da4d37d","ios":"levelo://app?vid=88439197-cc39-49d6-8c70-df0a4da4d37d"},"vehicle_type_id":"4","last_reported":1753139440,"current_range_meters":16000,"station_id":"ce4bh492rcd13ifvqdug","pricing_plan_id":"cebpf4jnsgd1na2vs0mg"},{"bike_id":"91faf937-6768-4101-98da-411036d125c4","system_id":"levelo_inurba_marseille","lat":43.22929,"lon":5.35387,"is_reserved":false,"is_disabled":false,"rental_uris":{"android":"levelo://app?vid=91faf937-6768-4101-98da-411036d125c4","ios":"levelo://app?vid=91faf937-6768-4101-98da-411036d125c4"},"vehicle_type_id":"4","last_reported":1753139440,"current_range_meters":16000,"station_id":"cpo3532slgdg3j2ikp40","pricing_plan_id":"cebpf4jnsgd1na2vs0mg"},{"bike_id":"6940e707-2866-429c-af31-7f2bd9c2bc86","system_id":"levelo_inurba_marseille","lat":43.241674,"lon":5.363926,"is_reserved":false,"is_disabled":false,"rental_uris":{"android":"levelo://app?vid=6940e707-2866-429c-af31-7f2bd9c2bc86","ios":"levelo://app?vid=6940e707-2866-429c-af31-7f2bd9c2bc86"},"vehicle_type_id":"4","last_reported":1753139440,"current_range_meters":16000,"station_id":"cpo36qri1sfpv3e86is0","pricing_plan_id":"cebpf4jnsgd1na2vs0mg"},{"bike_id":"7230cb4d-8cd2-4957-9d99-c27265ab6ce1","system_id":"levelo_inurba_marseille","lat":43.29299,"lon":5.37168,"is_reserved":false,"is_disabled":true,"rental_uris":{"android":"levelo://app?vid=7230cb4d-8cd2-4957-9d99-c27265ab6ce1","ios":"levelo://app?vid=7230cb4d-8cd2-4957-9d99-c27265ab6ce1"},"vehicle_type_id":"4","last_reported":1753139440,"current_range_meters":16000,"station_id":"ce4bgh92rcd13ifvqb40","pricing_plan_id":"cebpf4jnsgd1na2vs0mg"},{"bike_id":"b82ab8d8-ac6e-48f4-8862-872e240e275f","system_id":"levelo_inurba_marseille","lat":43.27685,"lon":5.38882,"is_reserved":false,"is_disabled":false,"rental_uris":{"android":"levelo://app?vid=b82ab8d8-ac6e-48f4-8862-872e240e275f","ios":"levelo://app?vid=b82ab8d8-ac6e-48f4-8862-872e240e275f"},"vehicle_type_id":"4","last_reported":1753139440,"current_range_meters":16000,"station_id":"ce4bhi12rcd13ifvqfo0","pricing_plan_id":"cebpf4jnsgd1na2vs0mg"},{"bike_id":"b5c60976-b303-4045-bb3e-e4bc1f5075ab","system_id":"levelo_inurba_marseille","lat":43.289515,"lon":5.366332,"is_reserved":false,"is_disabled":false,"rental_uris":{"android":"levelo://app?vid=b5c60976-b303-4045-bb3e-e4bc1f5075ab","ios":"levelo://app?vid=b5c60976-b303-4045-bb3e-e4bc1f5075ab"},"vehicle_type_id":"4","last_reported":1753139440,"current_range_meters":16400,"station_id":"ce4bhap2rcd13ifvqek0","pricing_plan_id":"cebpf4jnsgd1na2vs0mg"},{"bike_id":"30024855-0441-48a8-a6a8-7584d6af22c8","system_id":"levelo_inurba_marseille","lat":43.30914,"lon":5.40164,"is_reserved":false,"is_disabled":false,"rental_uris":{"android":"levelo://app?vid=30024855-0441-48a8-a6a8-7584d6af22c8","ios":"levelo://app?vid=30024855-0441-48a8-a6a8-7584d6af22c8"},"vehicle_type_id":"4","last_reported":1753139440,"current_range_meters":16400,"station_id":"ce4bgvp2rcd13ifvqct0","pricing_plan_id":"cebpf4jnsgd1na2vs0mg"},{"bike_id":"4d2fb385-600a-460f-817d-c81c8838ad28","system_id":"levelo_inurba_marseille","lat":43.323682,"lon":5.367642,"is_reserved":false,"is_disabled":false,"rental_uris":{"android":"levelo://app?vid=4d2fb385-600a-460f-817d-c81c8838ad28","ios":"levelo://app?vid=4d2fb385-600a-460f-817d-c81c8838ad28"},"vehicle_type_id":"4","last_reported":1753139440,"current_range_meters":16400,"station_id":"ce4bhsh2rcd13ifvqi2g","pricing_plan_id":"cebpf4jnsgd1na2vs0mg"},{"bike_id":"d966d4c6-23ef-4295-a97c-8501cde6adca","system_id":"levelo_inurba_marseille","lat":43.30885,"lon":5.39644,"is_reserved":false,"is_disabled":false,"rental_uris":{"android":"levelo://app?vid=d966d4c6-23ef-4295-a97c-8501cde6adca","ios":"levelo://app?vid=d966d4c6-23ef-4295-a97c-8501cde6adca"},"vehicle_type_id":"4","last_reported":1753139440,"current_range_meters":16800,"station_id":"ce4bh012rcd13ifvqcv0","pricing_plan_id":"cebpf4jnsgd1na2vs0mg"},{"bike_id":"f6d4a8bf-8662-4c91-923f-e6d2ca5b0092","system_id":"levelo_inurba_marseille","lat":43.28419,"lon":5.37516,"is_reserved":false,"is_disabled":false,"rental_uris":{"android":"levelo://app?vid=f6d4a8bf-8662-4c91-923f-e6d2ca5b0092","ios":"levelo://app?vid=f6d4a8bf-8662-4c91-923f-e6d2ca5b0092"},"vehicle_type_id":"4","last_reported":1753139440,"current_range_meters":16400,"station_id":"ce4bh412rcd13ifvqds0","pricing_plan_id":"cebpf4jnsgd1na2vs0mg"},{"bike_id":"808dd876-fffc-4c40-9cca-4585a30b4bd0","system_id":"levelo_inurba_marseille","lat":43.29555,"lon":5.42292,"is_reserved":false,"is_disabled":false,"rental_uris":{"android":"levelo://app?vid=808dd876-fffc-4c40-9cca-4585a30b4bd0","ios":"levelo://app?vid=808dd876-fffc-4c40-9cca-4585a30b4bd0"},"vehicle_type_id":"4","last_reported":1753139440,"current_range_meters":16000,"station_id":"ce4bhph2rcd13ifvqhdg","pricing_plan_id":"cebpf4jnsgd1na2vs0mg"},{"bike_id":"47a5eaf0-6b20-4c2b-a695-5b65d12f3ea4","system_id":"levelo_inurba_marseille","lat":43.291961,"lon":5.39317,"is_reserved":false,"is_disabled":false,"rental_uris":{"android":"levelo://app?vid=47a5eaf0-6b20-4c2b-a695-5b65d12f3ea4","ios":"levelo://app?vid=47a5eaf0-6b20-4c2b-a695-5b65d12f3ea4"},"vehicle_type_id":"4","last_reported":1753139440,"current_range_meters":16400,"station_id":"ce4bh192rcd13ifvqdd0","pricing_plan_id":"cebpf4jnsgd1na2vs0mg"},{"bike_id":"432a6d1c-d6b0-4cd8-b81a-9efa2d33c2c6","system_id":"levelo_inurba_marseille","lat":43.28485,"lon":5.38536,"is_reserved":false,"is_disabled":false,"rental_uris":{"android":"levelo://app?vid=432a6d1c-d6b0-4cd8-b81a-9efa2d33c2c6","ios":"levelo://app?vid=432a6d1c-d6b0-4cd8-b81a-9efa2d33c2c6"},"vehicle_type_id":"4","last_reported":1753139440,"current_range_meters":16800,"station_id":"","pricing_plan_id":"cebpf4jnsgd1na2vs0mg"},{"bike_id":"2c65fd0c-8341-4809-b3b2-6854e35356df","system_id":"levelo_inurba_marseille","lat":43.30649,"lon":5.40089,"is_reserved":false,"is_disabled":false,"rental_uris":{"android":"levelo://app?vid=2c65fd0c-8341-4809-b3b2-6854e35356df","ios":"levelo://app?vid=2c65fd0c-8341-4809-b3b2-6854e35356df"},"vehicle_type_id":"4","last_reported":1753139440,"current_range_meters":16800,"station_id":"ce4bh112rcd13ifvqda0","pricing_plan_id":"cebpf4jnsgd1na2vs0mg"},{"bike_id":"1e4aba36-501c-43eb-92b1-fb6195feae92","system_id":"levelo_inurba_marseille","lat":43.30938,"lon":5.40143,"is_reserved":false,"is_disabled":false,"rental_uris":{"android":"levelo://app?vid=1e4aba36-501c-43eb-92b1-fb6195feae92","ios":"levelo://app?vid=1e4aba36-501c-43eb-92b1-fb6195feae92"},"vehicle_type_id":"4","last_reported":1753139440,"current_range_meters":16800,"station_id":"ce4bgvp2rcd13ifvqct0","pricing_plan_id":"cebpf4jnsgd1na2vs0mg"},{"bike_id":"95edc4fd-6e7e-4cbf-9a0a-4d182eeb659c","system_id":"levelo_inurba_marseille","lat":43.30928,"lon":5.40142,"is_reserved":false,"is_disabled":false,"rental_uris":{"android":"levelo://app?vid=95edc4fd-6e7e-4cbf-9a0a-4d182eeb659c","ios":"levelo://app?vid=95edc4fd-6e7e-4cbf-9a0a-4d182eeb659c"},"vehicle_type_id":"4","last_reported":1753139440,"current_range_meters":16800,"station_id":"ce4bgvp2rcd13ifvqct0","pricing_plan_id":"cebpf4jnsgd1na2vs0mg"},{"bike_id":"d05bc00b-7e16-4441-9e07-1ae48a2b4f5f","system_id":"levelo_inurba_marseille","lat":43.27489,"lon":5.42442,"is_reserved":false,"is_disabled":false,"rental_uris":{"android":"levelo://app?vid=d05bc00b-7e16-4441-9e07-1ae48a2b4f5f","ios":"levelo://app?vid=d05bc00b-7e16-4441-9e07-1ae48a2b4f5f"},"vehicle_type_id":"4","last_reported":1753139440,"current_range_meters":16800,"station_id":"ce4bhn92rcd13ifvqgrg","pricing_plan_id":"cebpf4jnsgd1na2vs0mg"},{"bike_id":"034fb144-e964-4bcb-aafe-c2009eb12513","system_id":"levelo_inurba_marseille","lat":43.2978,"lon":5.39347,"is_reserved":false,"is_disabled":false,"rental_uris":{"android":"levelo://app?vid=034fb144-e964-4bcb-aafe-c2009eb12513","ios":"levelo://app?vid=034fb144-e964-4bcb-aafe-c2009eb12513"},"vehicle_type_id":"4","last_reported":1753139440,"current_range_meters":16800,"station_id":"chh1huq6cuj3fo74tm60","pricing_plan_id":"cebpf4jnsgd1na2vs0mg"},{"bike_id":"fe732a6c-bff8-47cc-932a-3c976c2c7a76","system_id":"levelo_inurba_marseille","lat":43.280363,"lon":5.369555,"is_reserved":false,"is_disabled":true,"rental_uris":{"android":"levelo://app?vid=fe732a6c-bff8-47cc-932a-3c976c2c7a76","ios":"levelo://app?vid=fe732a6c-bff8-47cc-932a-3c976c2c7a76"},"vehicle_type_id":"4","last_reported":1753139440,"current_range_meters":17200,"station_id":"","pricing_plan_id":"cebpf4jnsgd1na2vs0mg"},{"bike_id":"7ff4fc28-cadd-40d7-90f6-f685780a72ea","system_id":"levelo_inurba_marseille","lat":43.24395,"lon":5.37045,"is_reserved":false,"is_disabled":false,"rental_uris":{"android":"levelo://app?vid=7ff4fc28-cadd-40d7-90f6-f685780a72ea","ios":"levelo://app?vid=7ff4fc28-cadd-40d7-90f6-f685780a72ea"},"vehicle_type_id":"4","last_reported":1753139440,"current_range_meters":17200,"station_id":"ce4bhhh2rcd13ifvqfk0","pricing_plan_id":"cebpf4jnsgd1na2vs0mg"},{"bike_id":"67db1a2b-f59b-4d47-b4d5-6f939adc4475","system_id":"levelo_inurba_marseille","lat":43.279068,"lon":5.39586,"is_reserved":false,"is_disabled":false,"rental_uris":{"android":"levelo://app?vid=67db1a2b-f59b-4d47-b4d5-6f939adc4475","ios":"levelo://app?vid=67db1a2b-f59b-4d47-b4d5-6f939adc4475"},"vehicle_type_id":"4","last_reported":1753139440,"current_range_meters":17200,"station_id":"ce4bhf92rcd13ifvqf40","pricing_plan_id":"cebpf4jnsgd1na2vs0mg"},{"bike_id":"de4e98c3-82ca-4c88-9379-c8eb99022426","system_id":"levelo_inurba_marseille","lat":43.22937,"lon":5.35371,"is_reserved":false,"is_disabled":true,"rental_uris":{"android":"levelo://app?vid=de4e98c3-82ca-4c88-9379-c8eb99022426","ios":"levelo://app?vid=de4e98c3-82ca-4c88-9379-c8eb99022426"},"vehicle_type_id":"4","last_reported":1753139440,"current_range_meters":17200,"station_id":"cpo3532slgdg3j2ikp40","pricing_plan_id":"cebpf4jnsgd1na2vs0mg"},{"bike_id":"a521607d-1c0a-4b41-a0f1-43c2608320f8","system_id":"levelo_inurba_marseille","lat":43.28227,"lon":5.3953,"is_reserved":false,"is_disabled":false,"rental_uris":{"android":"levelo://app?vid=a521607d-1c0a-4b41-a0f1-43c2608320f8","ios":"levelo://app?vid=a521607d-1c0a-4b41-a0f1-43c2608320f8"},"vehicle_type_id":"4","last_reported":1753139440,"current_range_meters":17200,"station_id":"","pricing_plan_id":"cebpf4jnsgd1na2vs0mg"},{"bike_id":"1ba771b0-5212-4f98-b002-d31b9afe16c2","system_id":"levelo_inurba_marseille","lat":43.27632,"lon":5.36143,"is_reserved":false,"is_disabled":false,"rental_uris":{"android":"levelo://app?vid=1ba771b0-5212-4f98-b002-d31b9afe16c2","ios":"levelo://app?vid=1ba771b0-5212-4f98-b002-d31b9afe16c2"},"vehicle_type_id":"4","last_reported":1753139440,"current_range_meters":17200,"station_id":"ce4bgj92rcd13ifvqbe0","pricing_plan_id":"cebpf4jnsgd1na2vs0mg"},{"bike_id":"51931bf6-1eb4-445c-8f29-98888cfaefc7","system_id":"levelo_inurba_marseille","lat":43.29399,"lon":5.3985,"is_reserved":false,"is_disabled":false,"rental_uris":{"android":"levelo://app?vid=51931bf6-1eb4-445c-8f29-98888cfaefc7","ios":"levelo://app?vid=51931bf6-1eb4-445c-8f29-98888cfaefc7"},"vehicle_type_id":"4","last_reported":1753139440,"current_range_meters":17200,"station_id":"","pricing_plan_id":"cebpf4jnsgd1na2vs0mg"},{"bike_id":"d063c1cd-0f91-45f5-b7d1-cb578dd52878","system_id":"levelo_inurba_marseille","lat":43.28962,"lon":5.39621,"is_reserved":false,"is_disabled":false,"rental_uris":{"android":"levelo://app?vid=d063c1cd-0f91-45f5-b7d1-cb578dd52878","ios":"levelo://app?vid=d063c1cd-0f91-45f5-b7d1-cb578dd52878"},"vehicle_type_id":"4","last_reported":1753139440,"current_range_meters":17200,"station_id":"ce4bh3h2rcd13ifvqdn0","pricing_plan_id":"cebpf4jnsgd1na2vs0mg"},{"bike_id":"b050b2a0-6d4d-4d6b-b7de-6a89501ce2b7","system_id":"levelo_inurba_marseille","lat":43.28906,"lon":5.36389,"is_reserved":false,"is_disabled":true,"rental_uris":{"android":"levelo://app?vid=b050b2a0-6d4d-4d6b-b7de-6a89501ce2b7","ios":"levelo://app?vid=b050b2a0-6d4d-4d6b-b7de-6a89501ce2b7"},"vehicle_type_id":"4","last_reported":1753139440,"current_range_meters":17600,"station_id":"ce4bhc92rcd13ifvqetg","pricing_plan_id":"cebpf4jnsgd1na2vs0mg"},{"bike_id":"abc5489a-f823-4dc4-b736-76f0b8370bbd","system_id":"levelo_inurba_marseille","lat":43.24157,"lon":5.36407,"is_reserved":false,"is_disabled":false,"rental_uris":{"android":"levelo://app?vid=abc5489a-f823-4dc4-b736-76f0b8370bbd","ios":"levelo://app?vid=abc5489a-f823-4dc4-b736-76f0b8370bbd"},"vehicle_type_id":"4","last_reported":1753139440,"current_range_meters":17200,"station_id":"cpo36qri1sfpv3e86is0","pricing_plan_id":"cebpf4jnsgd1na2vs0mg"},{"bike_id":"6946ec64-5b7a-49dc-84d4-991e4fc1c8eb","system_id":"levelo_inurba_marseille","lat":43.30311,"lon":5.36874,"is_reserved":false,"is_disabled":false,"rental_uris":{"android":"levelo://app?vid=6946ec64-5b7a-49dc-84d4-991e4fc1c8eb","ios":"levelo://app?vid=6946ec64-5b7a-49dc-84d4-991e4fc1c8eb"},"vehicle_type_id":"4","last_reported":1753139440,"current_range_meters":17200,"station_id":"ce4bgqh2rcd13ifvqc5g","pricing_plan_id":"cebpf4jnsgd1na2vs0mg"},{"bike_id":"668bfa40-7ae0-42dd-a6b6-6631a40f0c0f","system_id":"levelo_inurba_marseille","lat":43.33137,"lon":5.38601,"is_reserved":false,"is_disabled":false,"rental_uris":{"android":"levelo://app?vid=668bfa40-7ae0-42dd-a6b6-6631a40f0c0f","ios":"levelo://app?vid=668bfa40-7ae0-42dd-a6b6-6631a40f0c0f"},"vehicle_type_id":"4","last_reported":1753139440,"current_range_meters":17200,"station_id":"","pricing_plan_id":"cebpf4jnsgd1na2vs0mg"},{"bike_id":"b001fe33-a25d-4a40-a985-edaab45fa237","system_id":"levelo_inurba_marseille","lat":43.2407,"lon":5.37765,"is_reserved":false,"is_disabled":false,"rental_uris":{"android":"levelo://app?vid=b001fe33-a25d-4a40-a985-edaab45fa237","ios":"levelo://app?vid=b001fe33-a25d-4a40-a985-edaab45fa237"},"vehicle_type_id":"4","last_reported":1753139440,"current_range_meters":17200,"station_id":"ce4bhnp2rcd13ifvqgvg","pricing_plan_id":"cebpf4jnsgd1na2vs0mg"},{"bike_id":"b52df7e2-ad75-4d6b-a395-f1eb700f2fd1","system_id":"levelo_inurba_marseille","lat":43.241741,"lon":5.363958,"is_reserved":false,"is_disabled":false,"rental_uris":{"android":"levelo://app?vid=b52df7e2-ad75-4d6b-a395-f1eb700f2fd1","ios":"levelo://app?vid=b52df7e2-ad75-4d6b-a395-f1eb700f2fd1"},"vehicle_type_id":"4","last_reported":1753139440,"current_range_meters":17200,"station_id":"cpo36qri1sfpv3e86is0","pricing_plan_id":"cebpf4jnsgd1na2vs0mg"},{"bike_id":"6d7a288a-8de7-4bea-a642-11a5f42068c7","system_id":"levelo_inurba_marseille","lat":43.295222,"lon":5.390403,"is_reserved":false,"is_disabled":false,"rental_uris":{"android":"levelo://app?vid=6d7a288a-8de7-4bea-a642-11a5f42068c7","ios":"levelo://app?vid=6d7a288a-8de7-4bea-a642-11a5f42068c7"},"vehicle_type_id":"4","last_reported":1753139440,"current_range_meters":17200,"station_id":"ce4bh3p2rcd13ifvqdp0","pricing_plan_id":"cebpf4jnsgd1na2vs0mg"},{"bike_id":"38cbbc2f-2178-4d0e-8130-6cf5abd60741","system_id":"levelo_inurba_marseille","lat":43.26027,"lon":5.37542,"is_reserved":false,"is_disabled":true,"rental_uris":{"android":"levelo://app?vid=38cbbc2f-2178-4d0e-8130-6cf5abd60741","ios":"levelo://app?vid=38cbbc2f-2178-4d0e-8130-6cf5abd60741"},"vehicle_type_id":"4","last_reported":1753139440,"current_range_meters":17600,"station_id":"ce4bhgh2rcd13ifvqfa0","pricing_plan_id":"cebpf4jnsgd1na2vs0mg"},{"bike_id":"f1fbf846-f3f1-417d-8c94-d51d64694164","system_id":"levelo_inurba_marseille","lat":43.30583,"lon":5.3935,"is_reserved":false,"is_disabled":false,"rental_uris":{"android":"levelo://app?vid=f1fbf846-f3f1-417d-8c94-d51d64694164","ios":"levelo://app?vid=f1fbf846-f3f1-417d-8c94-d51d64694164"},"vehicle_type_id":"4","last_reported":1753139440,"current_range_meters":17600,"station_id":"ce4bh0p2rcd13ifvqd80","pricing_plan_id":"cebpf4jnsgd1na2vs0mg"},{"bike_id":"0252eab3-c3f3-4486-b893-58cb3f957c57","system_id":"levelo_inurba_marseille","lat":43.31712,"lon":5.38482,"is_reserved":false,"is_disabled":false,"rental_uris":{"android":"levelo://app?vid=0252eab3-c3f3-4486-b893-58cb3f957c57","ios":"levelo://app?vid=0252eab3-c3f3-4486-b893-58cb3f957c57"},"vehicle_type_id":"4","last_reported":1753139440,"current_range_meters":17600,"station_id":"","pricing_plan_id":"cebpf4jnsgd1na2vs0mg"},{"bike_id":"13adf853-6ca7-4ebd-8c9f-f4512dd3a322","system_id":"levelo_inurba_marseille","lat":43.33226,"lon":5.39829,"is_reserved":false,"is_disabled":true,"rental_uris":{"android":"levelo://app?vid=13adf853-6ca7-4ebd-8c9f-f4512dd3a322","ios":"levelo://app?vid=13adf853-6ca7-4ebd-8c9f-f4512dd3a322"},"vehicle_type_id":"4","last_reported":1753139440,"current_range_meters":17600,"station_id":"","pricing_plan_id":"cebpf4jnsgd1na2vs0mg"},{"bike_id":"c256de2c-3769-4e71-9bf8-220fcbafc1d6","system_id":"levelo_inurba_marseille","lat":43.33554,"lon":5.36152,"is_reserved":false,"is_disabled":false,"rental_uris":{"android":"levelo://app?vid=c256de2c-3769-4e71-9bf8-220fcbafc1d6","ios":"levelo://app?vid=c256de2c-3769-4e71-9bf8-220fcbafc1d6"},"vehicle_type_id":"4","last_reported":1753139440,"current_range_meters":17600,"station_id":"","pricing_plan_id":"cebpf4jnsgd1na2vs0mg"},{"bike_id":"b4c1aa2a-e931-4ce6-8816-30ad77bdd520","system_id":"levelo_inurba_marseille","lat":43.241448,"lon":5.363743,"is_reserved":false,"is_disabled":false,"rental_uris":{"android":"levelo://app?vid=b4c1aa2a-e931-4ce6-8816-30ad77bdd520","ios":"levelo://app?vid=b4c1aa2a-e931-4ce6-8816-30ad77bdd520"},"vehicle_type_id":"4","last_reported":1753139440,"current_range_meters":17600,"station_id":"","pricing_plan_id":"cebpf4jnsgd1na2vs0mg"},{"bike_id":"3f433ebd-3701-478f-a1e6-92c3813f640b","system_id":"levelo_inurba_marseille","lat":43.25107,"lon":5.40324,"is_reserved":false,"is_disabled":true,"rental_uris":{"android":"levelo://app?vid=3f433ebd-3701-478f-a1e6-92c3813f640b","ios":"levelo://app?vid=3f433ebd-3701-478f-a1e6-92c3813f640b"},"vehicle_type_id":"4","last_reported":1753139440,"current_range_meters":17600,"station_id":"ce4bhlh2rcd13ifvqgig","pricing_plan_id":"cebpf4jnsgd1na2vs0mg"},{"bike_id":"7227f2a0-48ac-47a6-aa2d-661ad6a7a763","system_id":"levelo_inurba_marseille","lat":43.29058,"lon":5.3717,"is_reserved":false,"is_disabled":true,"rental_uris":{"android":"levelo://app?vid=7227f2a0-48ac-47a6-aa2d-661ad6a7a763","ios":"levelo://app?vid=7227f2a0-48ac-47a6-aa2d-661ad6a7a763"},"vehicle_type_id":"4","last_reported":1753139440,"current_range_meters":17600,"station_id":"ce4bgh92rcd13ifvqb40","pricing_plan_id":"cebpf4jnsgd1na2vs0mg"},{"bike_id":"87bc9e6f-1d5b-4237-a1df-3b5cfd8a9777","system_id":"levelo_inurba_marseille","lat":43.2118,"lon":5.35095,"is_reserved":false,"is_disabled":false,"rental_uris":{"android":"levelo://app?vid=87bc9e6f-1d5b-4237-a1df-3b5cfd8a9777","ios":"levelo://app?vid=87bc9e6f-1d5b-4237-a1df-3b5cfd8a9777"},"vehicle_type_id":"4","last_reported":1753139440,"current_range_meters":17600,"station_id":"st_cvj6sg6p6f1abm77japg","pricing_plan_id":"cebpf4jnsgd1na2vs0mg"},{"bike_id":"ccd77118-adb1-4f97-b60f-22666a3679b2","system_id":"levelo_inurba_marseille","lat":43.30801,"lon":5.3817,"is_reserved":false,"is_disabled":false,"rental_uris":{"android":"levelo://app?vid=ccd77118-adb1-4f97-b60f-22666a3679b2","ios":"levelo://app?vid=ccd77118-adb1-4f97-b60f-22666a3679b2"},"vehicle_type_id":"4","last_reported":1753139440,"current_range_meters":17200,"station_id":"ce4bgt12rcd13ifvqce0","pricing_plan_id":"cebpf4jnsgd1na2vs0mg"},{"bike_id":"c5445fa5-9221-4e5d-b2bc-b87ec0aac921","system_id":"levelo_inurba_marseille","lat":43.22929,"lon":5.35384,"is_reserved":false,"is_disabled":false,"rental_uris":{"android":"levelo://app?vid=c5445fa5-9221-4e5d-b2bc-b87ec0aac921","ios":"levelo://app?vid=c5445fa5-9221-4e5d-b2bc-b87ec0aac921"},"vehicle_type_id":"4","last_reported":1753139440,"current_range_meters":17600,"station_id":"cpo3532slgdg3j2ikp40","pricing_plan_id":"cebpf4jnsgd1na2vs0mg"},{"bike_id":"6270388c-e1bf-41b4-83eb-3d2f1008ca14","system_id":"levelo_inurba_marseille","lat":43.32736,"lon":5.37722,"is_reserved":false,"is_disabled":false,"rental_uris":{"android":"levelo://app?vid=6270388c-e1bf-41b4-83eb-3d2f1008ca14","ios":"levelo://app?vid=6270388c-e1bf-41b4-83eb-3d2f1008ca14"},"vehicle_type_id":"4","last_reported":1753139440,"current_range_meters":17600,"station_id":"","pricing_plan_id":"cebpf4jnsgd1na2vs0mg"},{"bike_id":"3efb8627-b62c-4b71-8160-f40d63794d64","system_id":"levelo_inurba_marseille","lat":43.30882,"lon":5.39639,"is_reserved":false,"is_disabled":false,"rental_uris":{"android":"levelo://app?vid=3efb8627-b62c-4b71-8160-f40d63794d64","ios":"levelo://app?vid=3efb8627-b62c-4b71-8160-f40d63794d64"},"vehicle_type_id":"4","last_reported":1753139440,"current_range_meters":17200,"station_id":"ce4bh012rcd13ifvqcv0","pricing_plan_id":"cebpf4jnsgd1na2vs0mg"},{"bike_id":"5e7786c0-b9df-45d9-9800-77100c3aac18","system_id":"levelo_inurba_marseille","lat":43.28844,"lon":5.39327,"is_reserved":false,"is_disabled":false,"rental_uris":{"android":"levelo://app?vid=5e7786c0-b9df-45d9-9800-77100c3aac18","ios":"levelo://app?vid=5e7786c0-b9df-45d9-9800-77100c3aac18"},"vehicle_type_id":"4","last_reported":1753139440,"current_range_meters":18000,"station_id":"ce4bh2p2rcd13ifvqdi0","pricing_plan_id":"cebpf4jnsgd1na2vs0mg"},{"bike_id":"35373130-f4cd-44cb-876f-f02868a8f40f","system_id":"levelo_inurba_marseille","lat":43.28413,"lon":5.37524,"is_reserved":false,"is_disabled":false,"rental_uris":{"android":"levelo://app?vid=35373130-f4cd-44cb-876f-f02868a8f40f","ios":"levelo://app?vid=35373130-f4cd-44cb-876f-f02868a8f40f"},"vehicle_type_id":"4","last_reported":1753139440,"current_range_meters":18000,"station_id":"ce4bh412rcd13ifvqds0","pricing_plan_id":"cebpf4jnsgd1na2vs0mg"},{"bike_id":"8e4e2af9-87bb-4db2-8b15-c43a626f4db0","system_id":"levelo_inurba_marseille","lat":43.2894,"lon":5.36638,"is_reserved":false,"is_disabled":false,"rental_uris":{"android":"levelo://app?vid=8e4e2af9-87bb-4db2-8b15-c43a626f4db0","ios":"levelo://app?vid=8e4e2af9-87bb-4db2-8b15-c43a626f4db0"},"vehicle_type_id":"4","last_reported":1753139440,"current_range_meters":18000,"station_id":"ce4bhap2rcd13ifvqek0","pricing_plan_id":"cebpf4jnsgd1na2vs0mg"},{"bike_id":"2d5abf02-1f47-4a68-9f8e-2e92083d2f8c","system_id":"levelo_inurba_marseille","lat":43.28845,"lon":5.39325,"is_reserved":false,"is_disabled":false,"rental_uris":{"android":"levelo://app?vid=2d5abf02-1f47-4a68-9f8e-2e92083d2f8c","ios":"levelo://app?vid=2d5abf02-1f47-4a68-9f8e-2e92083d2f8c"},"vehicle_type_id":"4","last_reported":1753139440,"current_range_meters":18000,"station_id":"ce4bh2p2rcd13ifvqdi0","pricing_plan_id":"cebpf4jnsgd1na2vs0mg"},{"bike_id":"c45e611d-5926-4140-8c71-cffe4b30e34c","system_id":"levelo_inurba_marseille","lat":43.2956,"lon":5.42291,"is_reserved":false,"is_disabled":false,"rental_uris":{"android":"levelo://app?vid=c45e611d-5926-4140-8c71-cffe4b30e34c","ios":"levelo://app?vid=c45e611d-5926-4140-8c71-cffe4b30e34c"},"vehicle_type_id":"4","last_reported":1753139440,"current_range_meters":18000,"station_id":"ce4bhph2rcd13ifvqhdg","pricing_plan_id":"cebpf4jnsgd1na2vs0mg"},{"bike_id":"1367b248-8421-4a8a-b4ce-b5b27d626155","system_id":"levelo_inurba_marseille","lat":43.28037,"lon":5.36937,"is_reserved":false,"is_disabled":false,"rental_uris":{"android":"levelo://app?vid=1367b248-8421-4a8a-b4ce-b5b27d626155","ios":"levelo://app?vid=1367b248-8421-4a8a-b4ce-b5b27d626155"},"vehicle_type_id":"4","last_reported":1753139440,"current_range_meters":18000,"station_id":"ce4bha12rcd13ifvqef0","pricing_plan_id":"cebpf4jnsgd1na2vs0mg"},{"bike_id":"da3d806a-4a4b-4164-9c55-529538ed2115","system_id":"levelo_inurba_marseille","lat":43.31221,"lon":5.36849,"is_reserved":false,"is_disabled":false,"rental_uris":{"android":"levelo://app?vid=da3d806a-4a4b-4164-9c55-529538ed2115","ios":"levelo://app?vid=da3d806a-4a4b-4164-9c55-529538ed2115"},"vehicle_type_id":"4","last_reported":1753139440,"current_range_meters":18000,"station_id":"ce4bgl92rcd13ifvqbq0","pricing_plan_id":"cebpf4jnsgd1na2vs0mg"},{"bike_id":"5ddbdee7-b7ea-4b2d-b685-5aed40e5e0d4","system_id":"levelo_inurba_marseille","lat":43.284089,"lon":5.375173,"is_reserved":false,"is_disabled":false,"rental_uris":{"android":"levelo://app?vid=5ddbdee7-b7ea-4b2d-b685-5aed40e5e0d4","ios":"levelo://app?vid=5ddbdee7-b7ea-4b2d-b685-5aed40e5e0d4"},"vehicle_type_id":"4","last_reported":1753139440,"current_range_meters":18000,"station_id":"ce4bh412rcd13ifvqds0","pricing_plan_id":"cebpf4jnsgd1na2vs0mg"},{"bike_id":"02bda465-5730-4d42-a0d1-5ffc89217a3f","system_id":"levelo_inurba_marseille","lat":43.30658,"lon":5.38184,"is_reserved":false,"is_disabled":false,"rental_uris":{"android":"levelo://app?vid=02bda465-5730-4d42-a0d1-5ffc89217a3f","ios":"levelo://app?vid=02bda465-5730-4d42-a0d1-5ffc89217a3f"},"vehicle_type_id":"4","last_reported":1753139440,"current_range_meters":18000,"station_id":"","pricing_plan_id":"cebpf4jnsgd1na2vs0mg"},{"bike_id":"d07ff534-1665-489b-a018-336fa7d38374","system_id":"levelo_inurba_marseille","lat":43.25105,"lon":5.40329,"is_reserved":false,"is_disabled":false,"rental_uris":{"android":"levelo://app?vid=d07ff534-1665-489b-a018-336fa7d38374","ios":"levelo://app?vid=d07ff534-1665-489b-a018-336fa7d38374"},"vehicle_type_id":"4","last_reported":1753139440,"current_range_meters":18000,"station_id":"ce4bhlh2rcd13ifvqgig","pricing_plan_id":"cebpf4jnsgd1na2vs0mg"},{"bike_id":"110f9473-bd3c-4208-82cd-f2032b96da1f","system_id":"levelo_inurba_marseille","lat":43.309,"lon":5.37203,"is_reserved":false,"is_disabled":false,"rental_uris":{"android":"levelo://app?vid=110f9473-bd3c-4208-82cd-f2032b96da1f","ios":"levelo://app?vid=110f9473-bd3c-4208-82cd-f2032b96da1f"},"vehicle_type_id":"4","last_reported":1753139440,"current_range_meters":18000,"station_id":"ce4bguh2rcd13ifvqckg","pricing_plan_id":"cebpf4jnsgd1na2vs0mg"},{"bike_id":"b29393d9-e8f4-4c61-b1ac-673a12ba9d9e","system_id":"levelo_inurba_marseille","lat":43.27179,"lon":5.40461,"is_reserved":false,"is_disabled":false,"rental_uris":{"android":"levelo://app?vid=b29393d9-e8f4-4c61-b1ac-673a12ba9d9e","ios":"levelo://app?vid=b29393d9-e8f4-4c61-b1ac-673a12ba9d9e"},"vehicle_type_id":"4","last_reported":1753139440,"current_range_meters":18000,"station_id":"","pricing_plan_id":"cebpf4jnsgd1na2vs0mg"},{"bike_id":"3c7f072f-3158-420f-bc51-68912fc0c6a8","system_id":"levelo_inurba_marseille","lat":43.29027,"lon":5.37552,"is_reserved":false,"is_disabled":true,"rental_uris":{"android":"levelo://app?vid=3c7f072f-3158-420f-bc51-68912fc0c6a8","ios":"levelo://app?vid=3c7f072f-3158-420f-bc51-68912fc0c6a8"},"vehicle_type_id":"4","last_reported":1753139440,"current_range_meters":18000,"station_id":"ce4bh692rcd13ifvqe90","pricing_plan_id":"cebpf4jnsgd1na2vs0mg"},{"bike_id":"c3071153-d15b-437d-b33d-8b8d9d500df0","system_id":"levelo_inurba_marseille","lat":43.24082,"lon":5.37753,"is_reserved":false,"is_disabled":false,"rental_uris":{"android":"levelo://app?vid=c3071153-d15b-437d-b33d-8b8d9d500df0","ios":"levelo://app?vid=c3071153-d15b-437d-b33d-8b8d9d500df0"},"vehicle_type_id":"4","last_reported":1753139440,"current_range_meters":18800,"station_id":"ce4bhnp2rcd13ifvqgvg","pricing_plan_id":"cebpf4jnsgd1na2vs0mg"},{"bike_id":"86aac9db-6c15-4e25-9797-1dd908852ef0","system_id":"levelo_inurba_marseille","lat":43.301301,"lon":5.398539,"is_reserved":false,"is_disabled":false,"rental_uris":{"android":"levelo://app?vid=86aac9db-6c15-4e25-9797-1dd908852ef0","ios":"levelo://app?vid=86aac9db-6c15-4e25-9797-1dd908852ef0"},"vehicle_type_id":"4","last_reported":1753139440,"current_range_meters":18800,"station_id":"ce4bh0h2rcd13ifvqd40","pricing_plan_id":"cebpf4jnsgd1na2vs0mg"},{"bike_id":"d711fcbb-c9cd-4a2b-b8be-a2a44eb61440","system_id":"levelo_inurba_marseille","lat":43.26553,"lon":5.37288,"is_reserved":false,"is_disabled":false,"rental_uris":{"android":"levelo://app?vid=d711fcbb-c9cd-4a2b-b8be-a2a44eb61440","ios":"levelo://app?vid=d711fcbb-c9cd-4a2b-b8be-a2a44eb61440"},"vehicle_type_id":"4","last_reported":1753139440,"current_range_meters":18800,"station_id":"ce4bhg12rcd13ifvqf70","pricing_plan_id":"cebpf4jnsgd1na2vs0mg"},{"bike_id":"f5767321-03ff-4c6c-8a78-ad57e022e0a0","system_id":"levelo_inurba_marseille","lat":43.29034,"lon":5.38139,"is_reserved":false,"is_disabled":true,"rental_uris":{"android":"levelo://app?vid=f5767321-03ff-4c6c-8a78-ad57e022e0a0","ios":"levelo://app?vid=f5767321-03ff-4c6c-8a78-ad57e022e0a0"},"vehicle_type_id":"4","last_reported":1753139440,"current_range_meters":18800,"station_id":"ce4bh4p2rcd13ifvqe1g","pricing_plan_id":"cebpf4jnsgd1na2vs0mg"},{"bike_id":"5153e984-1abc-4d5b-91ef-21249865a3e6","system_id":"levelo_inurba_marseille","lat":43.211896,"lon":5.350764,"is_reserved":false,"is_disabled":false,"rental_uris":{"android":"levelo://app?vid=5153e984-1abc-4d5b-91ef-21249865a3e6","ios":"levelo://app?vid=5153e984-1abc-4d5b-91ef-21249865a3e6"},"vehicle_type_id":"4","last_reported":1753139440,"current_range_meters":18800,"station_id":"st_cvj6sg6p6f1abm77japg","pricing_plan_id":"cebpf4jnsgd1na2vs0mg"},{"bike_id":"494f97be-feb6-4ce2-84dd-bdc5f14db45d","system_id":"levelo_inurba_marseille","lat":43.27502,"lon":5.42453,"is_reserved":false,"is_disabled":false,"rental_uris":{"android":"levelo://app?vid=494f97be-feb6-4ce2-84dd-bdc5f14db45d","ios":"levelo://app?vid=494f97be-feb6-4ce2-84dd-bdc5f14db45d"},"vehicle_type_id":"4","last_reported":1753139440,"current_range_meters":18800,"station_id":"ce4bhn92rcd13ifvqgrg","pricing_plan_id":"cebpf4jnsgd1na2vs0mg"},{"bike_id":"de5426ba-ae67-47a4-bece-c11c7065cd1e","system_id":"levelo_inurba_marseille","lat":43.211909,"lon":5.350799,"is_reserved":false,"is_disabled":false,"rental_uris":{"android":"levelo://app?vid=de5426ba-ae67-47a4-bece-c11c7065cd1e","ios":"levelo://app?vid=de5426ba-ae67-47a4-bece-c11c7065cd1e"},"vehicle_type_id":"4","last_reported":1753139440,"current_range_meters":18800,"station_id":"st_cvj6sg6p6f1abm77japg","pricing_plan_id":"cebpf4jnsgd1na2vs0mg"},{"bike_id":"64a2f514-4942-458d-b3fc-7d7fd0dfd1b1","system_id":"levelo_inurba_marseille","lat":43.21209,"lon":5.35075,"is_reserved":false,"is_disabled":false,"rental_uris":{"android":"levelo://app?vid=64a2f514-4942-458d-b3fc-7d7fd0dfd1b1","ios":"levelo://app?vid=64a2f514-4942-458d-b3fc-7d7fd0dfd1b1"},"vehicle_type_id":"4","last_reported":1753139440,"current_range_meters":18800,"station_id":"st_cvj6sg6p6f1abm77japg","pricing_plan_id":"cebpf4jnsgd1na2vs0mg"},{"bike_id":"fd678af6-c39f-4009-9cd4-36a5e361e94e","system_id":"levelo_inurba_marseille","lat":43.29177,"lon":5.35796,"is_reserved":false,"is_disabled":true,"rental_uris":{"android":"levelo://app?vid=fd678af6-c39f-4009-9cd4-36a5e361e94e","ios":"levelo://app?vid=fd678af6-c39f-4009-9cd4-36a5e361e94e"},"vehicle_type_id":"4","last_reported":1753139440,"current_range_meters":18800,"station_id":"ce4bhb12rcd13ifvqel0","pricing_plan_id":"cebpf4jnsgd1na2vs0mg"},{"bike_id":"dda96cde-9f78-4371-a72f-1d24145c396a","system_id":"levelo_inurba_marseille","lat":43.211869,"lon":5.35074,"is_reserved":false,"is_disabled":false,"rental_uris":{"android":"levelo://app?vid=dda96cde-9f78-4371-a72f-1d24145c396a","ios":"levelo://app?vid=dda96cde-9f78-4371-a72f-1d24145c396a"},"vehicle_type_id":"4","last_reported":1753139440,"current_range_meters":19200,"station_id":"st_cvj6sg6p6f1abm77japg","pricing_plan_id":"cebpf4jnsgd1na2vs0mg"},{"bike_id":"90988acb-bd8d-4d14-8409-567e5d4b3fc7","system_id":"levelo_inurba_marseille","lat":43.29691,"lon":5.36565,"is_reserved":false,"is_disabled":false,"rental_uris":{"android":"levelo://app?vid=90988acb-bd8d-4d14-8409-567e5d4b3fc7","ios":"levelo://app?vid=90988acb-bd8d-4d14-8409-567e5d4b3fc7"},"vehicle_type_id":"4","last_reported":1753139440,"current_range_meters":19200,"station_id":"","pricing_plan_id":"cebpf4jnsgd1na2vs0mg"},{"bike_id":"e730d36a-13f0-49bb-86fb-4a20da2e6767","system_id":"levelo_inurba_marseille","lat":43.24167,"lon":5.36403,"is_reserved":false,"is_disabled":false,"rental_uris":{"android":"levelo://app?vid=e730d36a-13f0-49bb-86fb-4a20da2e6767","ios":"levelo://app?vid=e730d36a-13f0-49bb-86fb-4a20da2e6767"},"vehicle_type_id":"4","last_reported":1753139440,"current_range_meters":19200,"station_id":"cpo36qri1sfpv3e86is0","pricing_plan_id":"cebpf4jnsgd1na2vs0mg"},{"bike_id":"b47ad263-b470-461d-92b7-b7b442115caf","system_id":"levelo_inurba_marseille","lat":43.28342,"lon":5.38113,"is_reserved":false,"is_disabled":false,"rental_uris":{"android":"levelo://app?vid=b47ad263-b470-461d-92b7-b7b442115caf","ios":"levelo://app?vid=b47ad263-b470-461d-92b7-b7b442115caf"},"vehicle_type_id":"4","last_reported":1753139440,"current_range_meters":19200,"station_id":"ce4bh412rcd13ifvqdr0","pricing_plan_id":"cebpf4jnsgd1na2vs0mg"},{"bike_id":"e80f062d-07e0-4564-b2a0-f9c94e191f16","system_id":"levelo_inurba_marseille","lat":43.261945,"lon":5.374545,"is_reserved":false,"is_disabled":false,"rental_uris":{"android":"levelo://app?vid=e80f062d-07e0-4564-b2a0-f9c94e191f16","ios":"levelo://app?vid=e80f062d-07e0-4564-b2a0-f9c94e191f16"},"vehicle_type_id":"4","last_reported":1753139440,"current_range_meters":19200,"station_id":"ce4bhgp2rcd13ifvqfc0","pricing_plan_id":"cebpf4jnsgd1na2vs0mg"},{"bike_id":"ac4e9fda-4086-43d7-9dc4-afe6942bea08","system_id":"levelo_inurba_marseille","lat":43.230673,"lon":5.35496,"is_reserved":false,"is_disabled":false,"rental_uris":{"android":"levelo://app?vid=ac4e9fda-4086-43d7-9dc4-afe6942bea08","ios":"levelo://app?vid=ac4e9fda-4086-43d7-9dc4-afe6942bea08"},"vehicle_type_id":"4","last_reported":1753139440,"current_range_meters":19200,"station_id":"cpo3342slgdg3j2ifvpg","pricing_plan_id":"cebpf4jnsgd1na2vs0mg"},{"bike_id":"754b4024-68fd-497f-8612-44217b088a37","system_id":"levelo_inurba_marseille","lat":43.28856,"lon":5.39321,"is_reserved":false,"is_disabled":false,"rental_uris":{"android":"levelo://app?vid=754b4024-68fd-497f-8612-44217b088a37","ios":"levelo://app?vid=754b4024-68fd-497f-8612-44217b088a37"},"vehicle_type_id":"4","last_reported":1753139440,"current_range_meters":19200,"station_id":"ce4bh2p2rcd13ifvqdi0","pricing_plan_id":"cebpf4jnsgd1na2vs0mg"},{"bike_id":"7a3e8286-d23a-436c-a229-6ffa0c627ba2","system_id":"levelo_inurba_marseille","lat":43.21169,"lon":5.35123,"is_reserved":false,"is_disabled":false,"rental_uris":{"android":"levelo://app?vid=7a3e8286-d23a-436c-a229-6ffa0c627ba2","ios":"levelo://app?vid=7a3e8286-d23a-436c-a229-6ffa0c627ba2"},"vehicle_type_id":"4","last_reported":1753139440,"current_range_meters":19200,"station_id":"st_cvj6sg6p6f1abm77japg","pricing_plan_id":"cebpf4jnsgd1na2vs0mg"},{"bike_id":"91d08a97-f4ec-47ae-aba7-eb40d08db0f5","system_id":"levelo_inurba_marseille","lat":43.21203,"lon":5.35096,"is_reserved":false,"is_disabled":false,"rental_uris":{"android":"levelo://app?vid=91d08a97-f4ec-47ae-aba7-eb40d08db0f5","ios":"levelo://app?vid=91d08a97-f4ec-47ae-aba7-eb40d08db0f5"},"vehicle_type_id":"4","last_reported":1753139440,"current_range_meters":19200,"station_id":"st_cvj6sg6p6f1abm77japg","pricing_plan_id":"cebpf4jnsgd1na2vs0mg"},{"bike_id":"5055e185-49d5-4f8a-861f-322590396430","system_id":"levelo_inurba_marseille","lat":43.25085,"lon":5.3951,"is_reserved":false,"is_disabled":false,"rental_uris":{"android":"levelo://app?vid=5055e185-49d5-4f8a-861f-322590396430","ios":"levelo://app?vid=5055e185-49d5-4f8a-861f-322590396430"},"vehicle_type_id":"4","last_reported":1753139440,"current_range_meters":19200,"station_id":"ce4bhm12rcd13ifvqgkg","pricing_plan_id":"cebpf4jnsgd1na2vs0mg"},{"bike_id":"b198fa61-3b60-4ce7-a31e-5d07288b367a","system_id":"levelo_inurba_marseille","lat":43.28897,"lon":5.38753,"is_reserved":false,"is_disabled":false,"rental_uris":{"android":"levelo://app?vid=b198fa61-3b60-4ce7-a31e-5d07288b367a","ios":"levelo://app?vid=b198fa61-3b60-4ce7-a31e-5d07288b367a"},"vehicle_type_id":"4","last_reported":1753139440,"current_range_meters":19200,"station_id":"","pricing_plan_id":"cebpf4jnsgd1na2vs0mg"},{"bike_id":"0fd97491-f014-4587-958c-19c5da0d0f96","system_id":"levelo_inurba_marseille","lat":43.29451,"lon":5.38635,"is_reserved":false,"is_disabled":false,"rental_uris":{"android":"levelo://app?vid=0fd97491-f014-4587-958c-19c5da0d0f96","ios":"levelo://app?vid=0fd97491-f014-4587-958c-19c5da0d0f96"},"vehicle_type_id":"4","last_reported":1753139440,"current_range_meters":19200,"station_id":"","pricing_plan_id":"cebpf4jnsgd1na2vs0mg"},{"bike_id":"0c18c21b-8232-4709-94a5-191396b3881b","system_id":"levelo_inurba_marseille","lat":43.27504,"lon":5.42467,"is_reserved":false,"is_disabled":false,"rental_uris":{"android":"levelo://app?vid=0c18c21b-8232-4709-94a5-191396b3881b","ios":"levelo://app?vid=0c18c21b-8232-4709-94a5-191396b3881b"},"vehicle_type_id":"4","last_reported":1753139440,"current_range_meters":19200,"station_id":"ce4bhn92rcd13ifvqgrg","pricing_plan_id":"cebpf4jnsgd1na2vs0mg"},{"bike_id":"aca2180c-7571-4637-a645-be9be63c1b96","system_id":"levelo_inurba_marseille","lat":43.31109,"lon":5.37749,"is_reserved":false,"is_disabled":false,"rental_uris":{"android":"levelo://app?vid=aca2180c-7571-4637-a645-be9be63c1b96","ios":"levelo://app?vid=aca2180c-7571-4637-a645-be9be63c1b96"},"vehicle_type_id":"4","last_reported":1753139440,"current_range_meters":19200,"station_id":"ce4bgt92rcd13ifvqcg0","pricing_plan_id":"cebpf4jnsgd1na2vs0mg"},{"bike_id":"bbd67bd2-1efc-4893-babd-f774d305e4ff","system_id":"levelo_inurba_marseille","lat":43.309357,"lon":5.401417,"is_reserved":false,"is_disabled":false,"rental_uris":{"android":"levelo://app?vid=bbd67bd2-1efc-4893-babd-f774d305e4ff","ios":"levelo://app?vid=bbd67bd2-1efc-4893-babd-f774d305e4ff"},"vehicle_type_id":"4","last_reported":1753139440,"current_range_meters":19200,"station_id":"ce4bgvp2rcd13ifvqct0","pricing_plan_id":"cebpf4jnsgd1na2vs0mg"},{"bike_id":"ab40aaba-fabe-4484-9a90-f92c8f6d4e61","system_id":"levelo_inurba_marseille","lat":43.306536,"lon":5.400807,"is_reserved":false,"is_disabled":false,"rental_uris":{"android":"levelo://app?vid=ab40aaba-fabe-4484-9a90-f92c8f6d4e61","ios":"levelo://app?vid=ab40aaba-fabe-4484-9a90-f92c8f6d4e61"},"vehicle_type_id":"4","last_reported":1753139440,"current_range_meters":19600,"station_id":"","pricing_plan_id":"cebpf4jnsgd1na2vs0mg"},{"bike_id":"013ba670-d36d-4e11-a3a9-be2cd39748e0","system_id":"levelo_inurba_marseille","lat":43.29954,"lon":5.3755,"is_reserved":false,"is_disabled":false,"rental_uris":{"android":"levelo://app?vid=013ba670-d36d-4e11-a3a9-be2cd39748e0","ios":"levelo://app?vid=013ba670-d36d-4e11-a3a9-be2cd39748e0"},"vehicle_type_id":"4","last_reported":1753139440,"current_range_meters":19600,"station_id":"","pricing_plan_id":"cebpf4jnsgd1na2vs0mg"},{"bike_id":"c1f7afaf-8897-4331-b0b5-62f91865a395","system_id":"levelo_inurba_marseille","lat":43.27914,"lon":5.39576,"is_reserved":false,"is_disabled":false,"rental_uris":{"android":"levelo://app?vid=c1f7afaf-8897-4331-b0b5-62f91865a395","ios":"levelo://app?vid=c1f7afaf-8897-4331-b0b5-62f91865a395"},"vehicle_type_id":"4","last_reported":1753139440,"current_range_meters":19600,"station_id":"ce4bhf92rcd13ifvqf40","pricing_plan_id":"cebpf4jnsgd1na2vs0mg"},{"bike_id":"1dc72a77-8530-40c5-8cb6-a0eaf92ad83b","system_id":"levelo_inurba_marseille","lat":43.29887,"lon":5.39726,"is_reserved":false,"is_disabled":false,"rental_uris":{"android":"levelo://app?vid=1dc72a77-8530-40c5-8cb6-a0eaf92ad83b","ios":"levelo://app?vid=1dc72a77-8530-40c5-8cb6-a0eaf92ad83b"},"vehicle_type_id":"4","last_reported":1753139440,"current_range_meters":19600,"station_id":"ce4bh0h2rcd13ifvqd50","pricing_plan_id":"cebpf4jnsgd1na2vs0mg"},{"bike_id":"09ce1f37-5b07-45c4-a76c-7ba0d0176051","system_id":"levelo_inurba_marseille","lat":43.32374,"lon":5.36785,"is_reserved":false,"is_disabled":false,"rental_uris":{"android":"levelo://app?vid=09ce1f37-5b07-45c4-a76c-7ba0d0176051","ios":"levelo://app?vid=09ce1f37-5b07-45c4-a76c-7ba0d0176051"},"vehicle_type_id":"4","last_reported":1753139440,"current_range_meters":19600,"station_id":"ce4bhsh2rcd13ifvqi2g","pricing_plan_id":"cebpf4jnsgd1na2vs0mg"},{"bike_id":"91f528de-626e-46cf-ba56-2b41f50873fe","system_id":"levelo_inurba_marseille","lat":43.29771,"lon":5.38126,"is_reserved":false,"is_disabled":false,"rental_uris":{"android":"levelo://app?vid=91f528de-626e-46cf-ba56-2b41f50873fe","ios":"levelo://app?vid=91f528de-626e-46cf-ba56-2b41f50873fe"},"vehicle_type_id":"4","last_reported":1753139440,"current_range_meters":19600,"station_id":"ce4bgip2rcd13ifvqbb0","pricing_plan_id":"cebpf4jnsgd1na2vs0mg"},{"bike_id":"f901e5a3-69ac-43f9-8e1f-5ecaf169d290","system_id":"levelo_inurba_marseille","lat":43.24391,"lon":5.37054,"is_reserved":false,"is_disabled":false,"rental_uris":{"android":"levelo://app?vid=f901e5a3-69ac-43f9-8e1f-5ecaf169d290","ios":"levelo://app?vid=f901e5a3-69ac-43f9-8e1f-5ecaf169d290"},"vehicle_type_id":"4","last_reported":1753139440,"current_range_meters":19600,"station_id":"ce4bhhh2rcd13ifvqfk0","pricing_plan_id":"cebpf4jnsgd1na2vs0mg"},{"bike_id":"2975a10e-052a-4ed4-8afb-b52549159b49","system_id":"levelo_inurba_marseille","lat":43.32917,"lon":5.37607,"is_reserved":false,"is_disabled":false,"rental_uris":{"android":"levelo://app?vid=2975a10e-052a-4ed4-8afb-b52549159b49","ios":"levelo://app?vid=2975a10e-052a-4ed4-8afb-b52549159b49"},"vehicle_type_id":"4","last_reported":1753139440,"current_range_meters":19600,"station_id":"","pricing_plan_id":"cebpf4jnsgd1na2vs0mg"},{"bike_id":"cbbbcc55-91c3-4089-bec9-fe96602008f6","system_id":"levelo_inurba_marseille","lat":43.28157,"lon":5.42635,"is_reserved":false,"is_disabled":false,"rental_uris":{"android":"levelo://app?vid=cbbbcc55-91c3-4089-bec9-fe96602008f6","ios":"levelo://app?vid=cbbbcc55-91c3-4089-bec9-fe96602008f6"},"vehicle_type_id":"4","last_reported":1753139440,"current_range_meters":19600,"station_id":"ce4bhnh2rcd13ifvqgug","pricing_plan_id":"cebpf4jnsgd1na2vs0mg"},{"bike_id":"815b0b45-4cd2-43fa-9cd5-3e64d39dbc16","system_id":"levelo_inurba_marseille","lat":43.30621,"lon":5.37205,"is_reserved":false,"is_disabled":true,"rental_uris":{"android":"levelo://app?vid=815b0b45-4cd2-43fa-9cd5-3e64d39dbc16","ios":"levelo://app?vid=815b0b45-4cd2-43fa-9cd5-3e64d39dbc16"},"vehicle_type_id":"4","last_reported":1753139440,"current_range_meters":19600,"station_id":"ce4bgqh2rcd13ifvqc4g","pricing_plan_id":"cebpf4jnsgd1na2vs0mg"},{"bike_id":"3876af6e-a868-4aa6-afbb-deb3bffdb10a","system_id":"levelo_inurba_marseille","lat":43.229272,"lon":5.353748,"is_reserved":false,"is_disabled":false,"rental_uris":{"android":"levelo://app?vid=3876af6e-a868-4aa6-afbb-deb3bffdb10a","ios":"levelo://app?vid=3876af6e-a868-4aa6-afbb-deb3bffdb10a"},"vehicle_type_id":"4","last_reported":1753139440,"current_range_meters":20000,"station_id":"cpo3532slgdg3j2ikp40","pricing_plan_id":"cebpf4jnsgd1na2vs0mg"},{"bike_id":"eb382477-4226-4b4c-8e95-1421d9024f04","system_id":"levelo_inurba_marseille","lat":43.2803,"lon":5.36941,"is_reserved":false,"is_disabled":false,"rental_uris":{"android":"levelo://app?vid=eb382477-4226-4b4c-8e95-1421d9024f04","ios":"levelo://app?vid=eb382477-4226-4b4c-8e95-1421d9024f04"},"vehicle_type_id":"4","last_reported":1753139440,"current_range_meters":20000,"station_id":"ce4bha12rcd13ifvqef0","pricing_plan_id":"cebpf4jnsgd1na2vs0mg"},{"bike_id":"a7fce724-bb42-4faf-bd28-907e651a062f","system_id":"levelo_inurba_marseille","lat":43.29073,"lon":5.39992,"is_reserved":false,"is_disabled":true,"rental_uris":{"android":"levelo://app?vid=a7fce724-bb42-4faf-bd28-907e651a062f","ios":"levelo://app?vid=a7fce724-bb42-4faf-bd28-907e651a062f"},"vehicle_type_id":"4","last_reported":1753139440,"current_range_meters":20000,"station_id":"ce4bh392rcd13ifvqdm0","pricing_plan_id":"cebpf4jnsgd1na2vs0mg"},{"bike_id":"70af1341-188e-406a-b2ec-90bf0d535b24","system_id":"levelo_inurba_marseille","lat":43.30129,"lon":5.39863,"is_reserved":false,"is_disabled":false,"rental_uris":{"android":"levelo://app?vid=70af1341-188e-406a-b2ec-90bf0d535b24","ios":"levelo://app?vid=70af1341-188e-406a-b2ec-90bf0d535b24"},"vehicle_type_id":"4","last_reported":1753139440,"current_range_meters":19600,"station_id":"ce4bh0h2rcd13ifvqd40","pricing_plan_id":"cebpf4jnsgd1na2vs0mg"},{"bike_id":"9dfe6cee-5748-4814-9bc6-2dcd0040a397","system_id":"levelo_inurba_marseille","lat":43.29891,"lon":5.39716,"is_reserved":false,"is_disabled":false,"rental_uris":{"android":"levelo://app?vid=9dfe6cee-5748-4814-9bc6-2dcd0040a397","ios":"levelo://app?vid=9dfe6cee-5748-4814-9bc6-2dcd0040a397"},"vehicle_type_id":"4","last_reported":1753139440,"current_range_meters":20000,"station_id":"ce4bh0h2rcd13ifvqd50","pricing_plan_id":"cebpf4jnsgd1na2vs0mg"},