{"last_updated":1707080722,"ttl":30,"version":"2.2","data":{"bikes":[{"bike_id":"fe9d2c7f-9e4c-4c7d-8fdd-830777cdee4b","system_id":"levelo_inurba_marseille","lat":43.313445,"lon":5.36714,"is_reserved":false,"is_disabled":false,"rental_uris":{"android":"levelo://app?vid=fe9d2c7f-9e4c-4c7d-8fdd-830777cdee4b","ios":"levelo://app?vid=fe9d2c7f-9e4c-4c7d-8fdd-830777cdee4b"},"vehicle_type_id":"4","last_reported":1707080722,"current_range_meters":30000,"station_id":"ce4bgr92rcd13ifvqc6g","pricing_plan_id":"free"},{"bike_id":"32461a5d-86c2-4398-af94-304070cecd33","system_id":"levelo_inurba_marseille","lat":43.313588,"lon":5.367116,"is_reserved":false,"is_disabled":false,"rental_uris":{"android":"levelo://app?vid=32461a5d-86c2-4398-af94-304070cecd33","ios":"levelo://app?vid=32461a5d-86c2-4398-af94-304070cecd33"},"vehicle_type_id":"4","last_reported":1707080722,"current_range_meters":0,"station_id":"","pricing_plan_id":"free"},{"bike_id":"be714dbf-6c3c-4dfa-a584-a8f58f297942","system_id":"levelo_inurba_marseille","lat":43.312239,"lon":5.368562,"is_reserved":false,"is_disabled":false,"rental_uris":{"android":"levelo://app?vid=be714dbf-6c3c-4dfa-a584-a8f58f297942","ios":"levelo://app?vid=be714dbf-6c3c-4dfa-a584-a8f58f297942"},"vehicle_type_id":"4","last_reported":1707080722,"current_range_meters":8800,"station_id":"ce4bgl92rcd13ifvqbq0","pricing_plan_id":"free"},{"bike_id":"9bc4c218-3b42-4255-89f4-7740be8a3655","system_id":"levelo_inurba_marseille","lat":43.312239,"lon":5.368562,"is_reserved":false,"is_disabled":false,"rental_uris":{"android":"levelo://app?vid=9bc4c218-3b42-4255-89f4-7740be8a3655","ios":"levelo://app?vid=9bc4c218-3b42-4255-89f4-7740be8a3655"},"vehicle_type_id":"4","last_reported":1707080722,"current_range_meters":9200,"station_id":"ce4bgl92rcd13ifvqbq0","pricing_plan_id":"free"},{"bike_id":"ef755315-c283-4045-851b-bbf39cf7b7e8","system_id":"levelo_inurba_marseille","lat":43.309039,"lon":5.371797,"is_reserved":false,"is_disabled":false,"rental_uris":{"android":"levelo://app?vid=ef755315-c283-4045-851b-bbf39cf7b7e8","ios":"levelo://app?vid=ef755315-c283-4045-851b-bbf39cf7b7e8"},"vehicle_type_id":"4","last_reported":1707080722,"current_range_meters":30000,"station_id":"ce4bguh2rcd13ifvqckg","pricing_plan_id":"free"},{"bike_id":"3a2412bb-739b-4f4a-9e45-d3e584381306","system_id":"levelo_inurba_marseille","lat":43.306978,"lon":5.373008,"is_reserved":false,"is_disabled":false,"rental_uris":{"android":"levelo://app?vid=3a2412bb-739b-4f4a-9e45-d3e584381306","ios":"levelo://app?vid=3a2412bb-739b-4f4a-9e45-d3e584381306"},"vehicle_type_id":"4","last_reported":1707080722,"current_range_meters":0,"station_id":"","pricing_plan_id":"free"},{"bike_id":"fe0b74fb-295b-4eb1-8fb2-09ffa2035da3","system_id":"levelo_inurba_marseille","lat":43.305989,"lon":5.37225,"is_reserved":false,"is_disabled":false,"rental_uris":{"android":"levelo://app?vid=fe0b74fb-295b-4eb1-8fb2-09ffa2035da3","ios":"levelo://app?vid=fe0b74fb-295b-4eb1-8fb2-09ffa2035da3"},"vehicle_type_id":"4","last_reported":1707080722,"current_range_meters":14400,"station_id":"ce4bgqh2rcd13ifvqc4g","pricing_plan_id":"free"},{"bike_id":"79fea6c1-9fdd-4910-b43e-a1e017de0635","system_id":"levelo_inurba_marseille","lat":43.311131,"lon":5.377651,"is_reserved":false,"is_disabled":false,"rental_uris":{"android":"levelo://app?vid=79fea6c1-9fdd-4910-b43e-a1e017de0635","ios":"levelo://app?vid=79fea6c1-9fdd-4910-b43e-a1e017de0635"},"vehicle_type_id":"4","last_reported":1707080722,"current_range_meters":25200,"station_id":"ce4bgt92rcd13ifvqcg0","pricing_plan_id":"free"},{"bike_id":"d4a60fc7-fa80-4aa4-9bfa-2e189d90b2d9","system_id":"levelo_inurba_marseille","lat":43.311131,"lon":5.377651,"is_reserved":false,"is_disabled":false,"rental_uris":{"android":"levelo://app?vid=d4a60fc7-fa80-4aa4-9bfa-2e189d90b2d9","ios":"levelo://app?vid=d4a60fc7-fa80-4aa4-9bfa-2e189d90b2d9"},"vehicle_type_id":"4","last_reported":1707080722,"current_range_meters":0,"station_id":"ce4bgt92rcd13ifvqcg0","pricing_plan_id":"free"},{"bike_id":"83fe865e-065d-4d49-a3c1-4ea3d58a0a9e","system_id":"levelo_inurba_marseille","lat":43.311131,"lon":5.377651,"is_reserved":false,"is_disabled":false,"rental_uris":{"android":"levelo://app?vid=83fe865e-065d-4d49-a3c1-4ea3d58a0a9e","ios":"levelo://app?vid=83fe865e-065d-4d49-a3c1-4ea3d58a0a9e"},"vehicle_type_id":"4","last_reported":1707080722,"current_range_meters":25600,"station_id":"ce4bgt92rcd13ifvqcg0","pricing_plan_id":"free"},{"bike_id":"c60e7252-bcc2-4201-a624-aec62d3d6b5d","system_id":"levelo_inurba_marseille","lat":43.316473,"lon":5.376847,"is_reserved":false,"is_disabled":false,"rental_uris":{"android":"levelo://app?vid=c60e7252-bcc2-4201-a624-aec62d3d6b5d","ios":"levelo://app?vid=c60e7252-bcc2-4201-a624-aec62d3d6b5d"},"vehicle_type_id":"4","last_reported":1707080722,"current_range_meters":400,"station_id":"","pricing_plan_id":"free"},{"bike_id":"b2e0946a-0aa7-4a4e-bee5-685c9d256745","system_id":"levelo_inurba_marseille","lat":43.307945,"lon":5.376487,"is_reserved":false,"is_disabled":false,"rental_uris":{"android":"levelo://app?vid=b2e0946a-0aa7-4a4e-bee5-685c9d256745","ios":"levelo://app?vid=b2e0946a-0aa7-4a4e-bee5-685c9d256745"},"vehicle_type_id":"4","last_reported":1707080722,"current_range_meters":26800,"station_id":"ce4bgv92rcd13ifvqcq0","pricing_plan_id":"free"},{"bike_id":"0ef47422-aed9-4612-bf70-7d4b2c3bc7f0","system_id":"levelo_inurba_marseille","lat":43.317075,"lon":5.377367,"is_reserved":false,"is_disabled":false,"rental_uris":{"android":"levelo://app?vid=0ef47422-aed9-4612-bf70-7d4b2c3bc7f0","ios":"levelo://app?vid=0ef47422-aed9-4612-bf70-7d4b2c3bc7f0"},"vehicle_type_id":"4","last_reported":1707080722,"current_range_meters":30400,"station_id":"ce4bgth2rcd13ifvqch0","pricing_plan_id":"free"},{"bike_id":"020a1fc9-3d9c-4746-b562-96a6c827806d","system_id":"levelo_inurba_marseille","lat":43.315293,"lon":5.380349,"is_reserved":false,"is_disabled":false,"rental_uris":{"android":"levelo://app?vid=020a1fc9-3d9c-4746-b562-96a6c827806d","ios":"levelo://app?vid=020a1fc9-3d9c-4746-b562-96a6c827806d"},"vehicle_type_id":"4","last_reported":1707080722,"current_range_meters":8800,"station_id":"ce4bhsp2rcd13ifvqi50","pricing_plan_id":"free"},{"bike_id":"fd650877-ace2-4e6d-b4f2-4f208c4bf433","system_id":"levelo_inurba_marseille","lat":43.308012,"lon":5.381511,"is_reserved":false,"is_disabled":false,"rental_uris":{"android":"levelo://app?vid=fd650877-ace2-4e6d-b4f2-4f208c4bf433","ios":"levelo://app?vid=fd650877-ace2-4e6d-b4f2-4f208c4bf433"},"vehicle_type_id":"4","last_reported":1707080722,"current_range_meters":28400,"station_id":"ce4bgt12rcd13ifvqce0","pricing_plan_id":"free"},{"bike_id":"d2f79042-3b25-448a-9911-a5f84bb75dbb","system_id":"levelo_inurba_marseille","lat":43.30462,"lon":5.37896,"is_reserved":false,"is_disabled":false,"rental_uris":{"android":"levelo://app?vid=d2f79042-3b25-448a-9911-a5f84bb75dbb","ios":"levelo://app?vid=d2f79042-3b25-448a-9911-a5f84bb75dbb"},"vehicle_type_id":"4","last_reported":1707080722,"current_range_meters":8400,"station_id":"ce4bgup2rcd13ifvqcn0","pricing_plan_id":"free"},{"bike_id":"834a9baf-7056-4f18-b5f1-94d46f8b3e91","system_id":"levelo_inurba_marseille","lat":43.30465,"lon":5.379,"is_reserved":false,"is_disabled":false,"rental_uris":{"android":"levelo://app?vid=834a9baf-7056-4f18-b5f1-94d46f8b3e91","ios":"levelo://app?vid=834a9baf-7056-4f18-b5f1-94d46f8b3e91"},"vehicle_type_id":"4","last_reported":1707080722,"current_range_meters":14800,"station_id":"ce4bgup2rcd13ifvqcn0","pricing_plan_id":"free"},{"bike_id":"d857196a-a759-4aba-9437-ba57d1dceab9","system_id":"levelo_inurba_marseille","lat":43.324771,"lon":5.36557,"is_reserved":false,"is_disabled":false,"rental_uris":{"android":"levelo://app?vid=d857196a-a759-4aba-9437-ba57d1dceab9","ios":"levelo://app?vid=d857196a-a759-4aba-9437-ba57d1dceab9"},"vehicle_type_id":"4","last_reported":1707080722,"current_range_meters":0,"station_id":"ce4bhs12rcd13ifvqhvg","pricing_plan_id":"free"},{"bike_id":"a211890a-8784-45e7-a2a7-0247d172eb29","system_id":"levelo_inurba_marseille","lat":43.324771,"lon":5.36557,"is_reserved":false,"is_disabled":false,"rental_uris":{"android":"levelo://app?vid=a211890a-8784-45e7-a2a7-0247d172eb29","ios":"levelo://app?vid=a211890a-8784-45e7-a2a7-0247d172eb29"},"vehicle_type_id":"4","last_reported":1707080722,"current_range_meters":12800,"station_id":"ce4bhs12rcd13ifvqhvg","pricing_plan_id":"free"},{"bike_id":"cc1f1f55-cfe9-4d66-88ed-570dd139ade7","system_id":"levelo_inurba_marseille","lat":43.32481,"lon":5.365578,"is_reserved":false,"is_disabled":false,"rental_uris":{"android":"levelo://app?vid=cc1f1f55-cfe9-4d66-88ed-570dd139ade7","ios":"levelo://app?vid=cc1f1f55-cfe9-4d66-88ed-570dd139ade7"},"vehicle_type_id":"4","last_reported":1707080722,"current_range_meters":3200,"station_id":"ce4bhs12rcd13ifvqhvg","pricing_plan_id":"free"},{"bike_id":"bc974708-dcbd-4a8a-ac0d-164e8d7c65dc","system_id":"levelo_inurba_marseille","lat":43.32481,"lon":5.36554,"is_reserved":false,"is_disabled":false,"rental_uris":{"android":"levelo://app?vid=bc974708-dcbd-4a8a-ac0d-164e8d7c65dc","ios":"levelo://app?vid=bc974708-dcbd-4a8a-ac0d-164e8d7c65dc"},"vehicle_type_id":"4","last_reported":1707080722,"current_range_meters":20400,"station_id":"ce4bhs12rcd13ifvqhvg","pricing_plan_id":"free"},{"bike_id":"0ca91c92-c7c2-4055-bf1b-07d2914cf37b","system_id":"levelo_inurba_marseille","lat":43.31077,"lon":5.38353,"is_reserved":false,"is_disabled":false,"rental_uris":{"android":"levelo://app?vid=0ca91c92-c7c2-4055-bf1b-07d2914cf37b","ios":"levelo://app?vid=0ca91c92-c7c2-4055-bf1b-07d2914cf37b"},"vehicle_type_id":"4","last_reported":1707080722,"current_range_meters":27600,"station_id":"ce4bgv92rcd13ifvqcr0","pricing_plan_id":"free"},{"bike_id":"7ab3f1c0-5e1f-4d1c-9104-38b168e3a08c","system_id":"levelo_inurba_marseille","lat":43.310804,"lon":5.38359,"is_reserved":false,"is_disabled":false,"rental_uris":{"android":"levelo://app?vid=7ab3f1c0-5e1f-4d1c-9104-38b168e3a08c","ios":"levelo://app?vid=7ab3f1c0-5e1f-4d1c-9104-38b168e3a08c"},"vehicle_type_id":"4","last_reported":1707080722,"current_range_meters":2400,"station_id":"ce4bgv92rcd13ifvqcr0","pricing_plan_id":"free"},{"bike_id":"7edaf5e6-4177-4195-8f17-9591afb2c275","system_id":"levelo_inurba_marseille","lat":43.310804,"lon":5.38359,"is_reserved":false,"is_disabled":false,"rental_uris":{"android":"levelo://app?vid=7edaf5e6-4177-4195-8f17-9591afb2c275","ios":"levelo://app?vid=7edaf5e6-4177-4195-8f17-9591afb2c275"},"vehicle_type_id":"4","last_reported":1707080722,"current_range_meters":8000,"station_id":"ce4bgv92rcd13ifvqcr0","pricing_plan_id":"free"},{"bike_id":"41f36db4-ce90-4ac0-910f-db7d977875b4","system_id":"levelo_inurba_marseille","lat":43.310717,"lon":5.383597,"is_reserved":false,"is_disabled":false,"rental_uris":{"android":"levelo://app?vid=41f36db4-ce90-4ac0-910f-db7d977875b4","ios":"levelo://app?vid=41f36db4-ce90-4ac0-910f-db7d977875b4"},"vehicle_type_id":"4","last_reported":1707080722,"current_range_meters":0,"station_id":"ce4bgv92rcd13ifvqcr0","pricing_plan_id":"free"},{"bike_id":"ed525504-c6e4-4dcb-afab-b1d02cda983b","system_id":"levelo_inurba_marseille","lat":43.31073,"lon":5.3836,"is_reserved":false,"is_disabled":false,"rental_uris":{"android":"levelo://app?vid=ed525504-c6e4-4dcb-afab-b1d02cda983b","ios":"levelo://app?vid=ed525504-c6e4-4dcb-afab-b1d02cda983b"},"vehicle_type_id":"4","last_reported":1707080722,"current_range_meters":0,"station_id":"ce4bgv92rcd13ifvqcr0","pricing_plan_id":"free"},{"bike_id":"ddccbc53-5131-4f50-a085-0a473977e0a5","system_id":"levelo_inurba_marseille","lat":43.30135,"lon":5.37423,"is_reserved":false,"is_disabled":false,"rental_uris":{"android":"levelo://app?vid=ddccbc53-5131-4f50-a085-0a473977e0a5","ios":"levelo://app?vid=ddccbc53-5131-4f50-a085-0a473977e0a5"},"vehicle_type_id":"4","last_reported":1707080722,"current_range_meters":19200,"station_id":"ce4bgs92rcd13ifvqcc0","pricing_plan_id":"free"},{"bike_id":"f4722360-683c-4330-a41f-ae15de548a95","system_id":"levelo_inurba_marseille","lat":43.319935,"lon":5.381699,"is_reserved":false,"is_disabled":false,"rental_uris":{"android":"levelo://app?vid=f4722360-683c-4330-a41f-ae15de548a95","ios":"levelo://app?vid=f4722360-683c-4330-a41f-ae15de548a95"},"vehicle_type_id":"4","last_reported":1707080722,"current_range_meters":28800,"station_id":"ce4bhr12rcd13ifvqhpg","pricing_plan_id":"free"},{"bike_id":"8b9b37e5-bd91-4441-a7a4-b3f06bf9b063","system_id":"levelo_inurba_marseille","lat":43.299724,"lon":5.371829,"is_reserved":false,"is_disabled":false,"rental_uris":{"android":"levelo://app?vid=8b9b37e5-bd91-4441-a7a4-b3f06bf9b063","ios":"levelo://app?vid=8b9b37e5-bd91-4441-a7a4-b3f06bf9b063"},"vehicle_type_id":"4","last_reported":1707080722,"current_range_meters":0,"station_id":"ce4bgr92rcd13ifvqc7g","pricing_plan_id":"free"},{"bike_id":"d73908e2-2bfd-489b-804e-d4e95fac72d2","system_id":"levelo_inurba_marseille","lat":43.326525,"lon":5.36078,"is_reserved":false,"is_disabled":false,"rental_uris":{"android":"levelo://app?vid=d73908e2-2bfd-489b-804e-d4e95fac72d2","ios":"levelo://app?vid=d73908e2-2bfd-489b-804e-d4e95fac72d2"},"vehicle_type_id":"4","last_reported":1707080722,"current_range_meters":20800,"station_id":"","pricing_plan_id":"free"},{"bike_id":"dda919da-b4cd-4a9f-a180-9e8be61d124e","system_id":"levelo_inurba_marseille","lat":43.32288,"lon":5.38266,"is_reserved":false,"is_disabled":false,"rental_uris":{"android":"levelo://app?vid=dda919da-b4cd-4a9f-a180-9e8be61d124e","ios":"levelo://app?vid=dda919da-b4cd-4a9f-a180-9e8be61d124e"},"vehicle_type_id":"4","last_reported":1707080722,"current_range_meters":23200,"station_id":"ce4bhr12rcd13ifvqhqg","pricing_plan_id":"free"},{"bike_id":"8b023912-5267-4e1c-a403-4d70b425cebe","system_id":"levelo_inurba_marseille","lat":43.322872,"lon":5.382756,"is_reserved":false,"is_disabled":false,"rental_uris":{"android":"levelo://app?vid=8b023912-5267-4e1c-a403-4d70b425cebe","ios":"levelo://app?vid=8b023912-5267-4e1c-a403-4d70b425cebe"},"vehicle_type_id":"4","last_reported":1707080722,"current_range_meters":30400,"station_id":"ce4bhr12rcd13ifvqhqg","pricing_plan_id":"free"},{"bike_id":"5c6c02f4-664b-4898-bf3f-0e1b2ccd9983","system_id":"levelo_inurba_marseille","lat":43.32825,"lon":5.36669,"is_reserved":false,"is_disabled":false,"rental_uris":{"android":"levelo://app?vid=5c6c02f4-664b-4898-bf3f-0e1b2ccd9983","ios":"levelo://app?vid=5c6c02f4-664b-4898-bf3f-0e1b2ccd9983"},"vehicle_type_id":"4","last_reported":1707080722,"current_range_meters":31200,"station_id":"ce4bhs92rcd13ifvqi0g","pricing_plan_id":"free"},{"bike_id":"1900e2ea-9239-49b1-933e-57903fa99707","system_id":"levelo_inurba_marseille","lat":43.32826,"lon":5.36695,"is_reserved":false,"is_disabled":false,"rental_uris":{"android":"levelo://app?vid=1900e2ea-9239-49b1-933e-57903fa99707","ios":"levelo://app?vid=1900e2ea-9239-49b1-933e-57903fa99707"},"vehicle_type_id":"4","last_reported":1707080722,"current_range_meters":9600,"station_id":"ce4bhs92rcd13ifvqi0g","pricing_plan_id":"free"},{"bike_id":"536f5307-f798-4ec9-86a8-2c183333a95a","system_id":"levelo_inurba_marseille","lat":43.328371,"lon":5.366909,"is_reserved":false,"is_disabled":false,"rental_uris":{"android":"levelo://app?vid=536f5307-f798-4ec9-86a8-2c183333a95a","ios":"levelo://app?vid=536f5307-f798-4ec9-86a8-2c183333a95a"},"vehicle_type_id":"4","last_reported":1707080722,"current_range_meters":12000,"station_id":"ce4bhs92rcd13ifvqi0g","pricing_plan_id":"free"},{"bike_id":"0c67a4c0-65a3-4545-98f1-5ee9ddb7f5c7","system_id":"levelo_inurba_marseille","lat":43.328371,"lon":5.366909,"is_reserved":false,"is_disabled":false,"rental_uris":{"android":"levelo://app?vid=0c67a4c0-65a3-4545-98f1-5ee9ddb7f5c7","ios":"levelo://app?vid=0c67a4c0-65a3-4545-98f1-5ee9ddb7f5c7"},"vehicle_type_id":"4","last_reported":1707080722,"current_range_meters":30000,"station_id":"ce4bhs92rcd13ifvqi0g","pricing_plan_id":"free"},{"bike_id":"567d3dff-b6c7-4d43-94e1-c093395365df","system_id":"levelo_inurba_marseille","lat":43.297163,"lon":5.365866,"is_reserved":false,"is_disabled":false,"rental_uris":{"android":"levelo://app?vid=567d3dff-b6c7-4d43-94e1-c093395365df","ios":"levelo://app?vid=567d3dff-b6c7-4d43-94e1-c093395365df"},"vehicle_type_id":"4","last_reported":1707080722,"current_range_meters":22000,"station_id":"ce4bgn12rcd13ifvqbt0","pricing_plan_id":"free"},{"bike_id":"8bea6ee2-bb12-4611-84ff-9527b54da0c8","system_id":"levelo_inurba_marseille","lat":43.29668,"lon":5.36784,"is_reserved":false,"is_disabled":false,"rental_uris":{"android":"levelo://app?vid=8bea6ee2-bb12-4611-84ff-9527b54da0c8","ios":"levelo://app?vid=8bea6ee2-bb12-4611-84ff-9527b54da0c8"},"vehicle_type_id":"4","last_reported":1707080722,"current_range_meters":27600,"station_id":"","pricing_plan_id":"free"},{"bike_id":"62d378d5-0f8f-451a-83e1-03606cdd4bf8","system_id":"levelo_inurba_marseille","lat":43.29573,"lon":5.367355,"is_reserved":false,"is_disabled":false,"rental_uris":{"android":"levelo://app?vid=62d378d5-0f8f-451a-83e1-03606cdd4bf8","ios":"levelo://app?vid=62d378d5-0f8f-451a-83e1-03606cdd4bf8"},"vehicle_type_id":"4","last_reported":1707080722,"current_range_meters":15600,"station_id":"ce4bgph2rcd13ifvqc2g","pricing_plan_id":"free"},{"bike_id":"977159a3-c1e4-441d-89ce-a993387fbc54","system_id":"levelo_inurba_marseille","lat":43.296921,"lon":5.376579,"is_reserved":false,"is_disabled":false,"rental_uris":{"android":"levelo://app?vid=977159a3-c1e4-441d-89ce-a993387fbc54","ios":"levelo://app?vid=977159a3-c1e4-441d-89ce-a993387fbc54"},"vehicle_type_id":"4","last_reported":1707080722,"current_range_meters":30400,"station_id":"ce4bgkh2rcd13ifvqbl0","pricing_plan_id":"free"},{"bike_id":"5667a9b8-2b04-44cd-a729-68a187e8e579","system_id":"levelo_inurba_marseille","lat":43.317557,"lon":5.390173,"is_reserved":false,"is_disabled":false,"rental_uris":{"android":"levelo://app?vid=5667a9b8-2b04-44cd-a729-68a187e8e579","ios":"levelo://app?vid=5667a9b8-2b04-44cd-a729-68a187e8e579"},"vehicle_type_id":"4","last_reported":1707080722,"current_range_meters":19600,"station_id":"ce4bhqp2rcd13ifvqhng","pricing_plan_id":"free"},{"bike_id":"2a286b63-3c4a-4893-8f11-dd6a58a41ee4","system_id":"levelo_inurba_marseille","lat":43.31758,"lon":5.3902,"is_reserved":false,"is_disabled":false,"rental_uris":{"android":"levelo://app?vid=2a286b63-3c4a-4893-8f11-dd6a58a41ee4","ios":"levelo://app?vid=2a286b63-3c4a-4893-8f11-dd6a58a41ee4"},"vehicle_type_id":"4","last_reported":1707080722,"current_range_meters":9600,"station_id":"ce4bhqp2rcd13ifvqhng","pricing_plan_id":"free"},{"bike_id":"1033b78d-f901-4cfa-8cae-54cb1e173be4","system_id":"levelo_inurba_marseille","lat":43.317557,"lon":5.390173,"is_reserved":false,"is_disabled":false,"rental_uris":{"android":"levelo://app?vid=1033b78d-f901-4cfa-8cae-54cb1e173be4","ios":"levelo://app?vid=1033b78d-f901-4cfa-8cae-54cb1e173be4"},"vehicle_type_id":"4","last_reported":1707080722,"current_range_meters":29600,"station_id":"ce4bhqp2rcd13ifvqhng","pricing_plan_id":"free"},{"bike_id":"40a85205-af79-43c2-bdc9-257280312aae","system_id":"levelo_inurba_marseille","lat":43.317528,"lon":5.39026,"is_reserved":false,"is_disabled":false,"rental_uris":{"android":"levelo://app?vid=40a85205-af79-43c2-bdc9-257280312aae","ios":"levelo://app?vid=40a85205-af79-43c2-bdc9-257280312aae"},"vehicle_type_id":"4","last_reported":1707080722,"current_range_meters":27600,"station_id":"ce4bhqp2rcd13ifvqhng","pricing_plan_id":"free"},{"bike_id":"86eba5ee-3f3e-465e-879d-a26eca611b6f","system_id":"levelo_inurba_marseille","lat":43.318279,"lon":5.390267,"is_reserved":false,"is_disabled":false,"rental_uris":{"android":"levelo://app?vid=86eba5ee-3f3e-465e-879d-a26eca611b6f","ios":"levelo://app?vid=86eba5ee-3f3e-465e-879d-a26eca611b6f"},"vehicle_type_id":"4","last_reported":1707080722,"current_range_meters":16000,"station_id":"","pricing_plan_id":"free"},{"bike_id":"efa201ba-54d0-4202-a699-7d5fedc6d45d","system_id":"levelo_inurba_marseille","lat":43.30442,"lon":5.38882,"is_reserved":false,"is_disabled":false,"rental_uris":{"android":"levelo://app?vid=efa201ba-54d0-4202-a699-7d5fedc6d45d","ios":"levelo://app?vid=efa201ba-54d0-4202-a699-7d5fedc6d45d"},"vehicle_type_id":"4","last_reported":1707080722,"current_range_meters":2800,"station_id":"ce4bgk12rcd13ifvqbi0","pricing_plan_id":"free"},{"bike_id":"b083c31b-ec35-4537-b9a9-4c15717d9236","system_id":"levelo_inurba_marseille","lat":43.304274,"lon":5.388873,"is_reserved":false,"is_disabled":false,"rental_uris":{"android":"levelo://app?vid=b083c31b-ec35-4537-b9a9-4c15717d9236","ios":"levelo://app?vid=b083c31b-ec35-4537-b9a9-4c15717d9236"},"vehicle_type_id":"4","last_reported":1707080722,"current_range_meters":30400,"station_id":"ce4bgk12rcd13ifvqbi0","pricing_plan_id":"free"},{"bike_id":"6a8705b9-de70-4086-9427-baa4b2653c8a","system_id":"levelo_inurba_marseille","lat":43.295748,"lon":5.37522,"is_reserved":false,"is_disabled":false,"rental_uris":{"android":"levelo://app?vid=6a8705b9-de70-4086-9427-baa4b2653c8a","ios":"levelo://app?vid=6a8705b9-de70-4086-9427-baa4b2653c8a"},"vehicle_type_id":"4","last_reported":1707080722,"current_range_meters":4400,"station_id":"ce4bgh92rcd13ifvqb50","pricing_plan_id":"free"},{"bike_id":"af366f25-0836-404f-8c03-9e5a3178766f","system_id":"levelo_inurba_marseille","lat":43.304274,"lon":5.388873,"is_reserved":false,"is_disabled":false,"rental_uris":{"android":"levelo://app?vid=af366f25-0836-404f-8c03-9e5a3178766f","ios":"levelo://app?vid=af366f25-0836-404f-8c03-9e5a3178766f"},"vehicle_type_id":"4","last_reported":1707080722,"current_range_meters":23600,"station_id":"ce4bgk12rcd13ifvqbi0","pricing_plan_id":"free"},{"bike_id":"4646fa6f-bed0-4661-98bc-249ad9c048db","system_id":"levelo_inurba_marseille","lat":43.296277,"lon":5.377108,"is_reserved":false,"is_disabled":false,"rental_uris":{"android":"levelo://app?vid=4646fa6f-bed0-4661-98bc-249ad9c048db","ios":"levelo://app?vid=4646fa6f-bed0-4661-98bc-249ad9c048db"},"vehicle_type_id":"4","last_reported":1707080722,"current_range_meters":29600,"station_id":"ce4bgi92rcd13ifvqb90","pricing_plan_id":"free"},{"bike_id":"c8b53b2b-5969-4fa1-ba16-53fa60584a80","system_id":"levelo_inurba_marseille","lat":43.295373,"lon":5.374993,"is_reserved":false,"is_disabled":false,"rental_uris":{"android":"levelo://app?vid=c8b53b2b-5969-4fa1-ba16-53fa60584a80","ios":"levelo://app?vid=c8b53b2b-5969-4fa1-ba16-53fa60584a80"},"vehicle_type_id":"4","last_reported":1707080722,"current_range_meters":0,"station_id":"ce4bgkp2rcd13ifvqbmg","pricing_plan_id":"free"},{"bike_id":"7b1a7953-86fd-48ab-bd1d-d0a5b32fa289","system_id":"levelo_inurba_marseille","lat":43.299707,"lon":5.384859,"is_reserved":false,"is_disabled":false,"rental_uris":{"android":"levelo://app?vid=7b1a7953-86fd-48ab-bd1d-d0a5b32fa289","ios":"levelo://app?vid=7b1a7953-86fd-48ab-bd1d-d0a5b32fa289"},"vehicle_type_id":"4","last_reported":1707080722,"current_range_meters":28400,"station_id":"ce4bgj92rcd13ifvqbd0","pricing_plan_id":"free"},{"bike_id":"e7a95a5a-7d13-48ff-a856-827ce0771044","system_id":"levelo_inurba_marseille","lat":43.32362,"lon":5.3888,"is_reserved":false,"is_disabled":false,"rental_uris":{"android":"levelo://app?vid=e7a95a5a-7d13-48ff-a856-827ce0771044","ios":"levelo://app?vid=e7a95a5a-7d13-48ff-a856-827ce0771044"},"vehicle_type_id":"4","last_reported":1707080722,"current_range_meters":25200,"station_id":"ce4bhqp2rcd13ifvqhog","pricing_plan_id":"free"},{"bike_id":"f459bcc8-96d9-431d-bb45-ce1f50e6d398","system_id":"levelo_inurba_marseille","lat":43.32359,"lon":5.38883,"is_reserved":false,"is_disabled":false,"rental_uris":{"android":"levelo://app?vid=f459bcc8-96d9-431d-bb45-ce1f50e6d398","ios":"levelo://app?vid=f459bcc8-96d9-431d-bb45-ce1f50e6d398"},"vehicle_type_id":"4","last_reported":1707080722,"current_range_meters":1200,"station_id":"ce4bhqp2rcd13ifvqhog","pricing_plan_id":"free"},{"bike_id":"999af2fa-7743-40b1-ad5a-09d74cc1efed","system_id":"levelo_inurba_marseille","lat":43.32364,"lon":5.38881,"is_reserved":false,"is_disabled":false,"rental_uris":{"android":"levelo://app?vid=999af2fa-7743-40b1-ad5a-09d74cc1efed","ios":"levelo://app?vid=999af2fa-7743-40b1-ad5a-09d74cc1efed"},"vehicle_type_id":"4","last_reported":1707080722,"current_range_meters":21600,"station_id":"ce4bhqp2rcd13ifvqhog","pricing_plan_id":"free"},{"bike_id":"ee0b2543-3432-41f6-af25-63fb60196ed6","system_id":"levelo_inurba_marseille","lat":43.32367,"lon":5.388836,"is_reserved":false,"is_disabled":false,"rental_uris":{"android":"levelo://app?vid=ee0b2543-3432-41f6-af25-63fb60196ed6","ios":"levelo://app?vid=ee0b2543-3432-41f6-af25-63fb60196ed6"},"vehicle_type_id":"4","last_reported":1707080722,"current_range_meters":4800,"station_id":"ce4bhqp2rcd13ifvqhog","pricing_plan_id":"free"},{"bike_id":"8de15d3c-03c3-4ab0-8d3d-1e33fd14e876","system_id":"levelo_inurba_marseille","lat":43.32367,"lon":5.388836,"is_reserved":false,"is_disabled":false,"rental_uris":{"android":"levelo://app?vid=8de15d3c-03c3-4ab0-8d3d-1e33fd14e876","ios":"levelo://app?vid=8de15d3c-03c3-4ab0-8d3d-1e33fd14e876"},"vehicle_type_id":"4","last_reported":1707080722,"current_range_meters":14800,"station_id":"ce4bhqp2rcd13ifvqhog","pricing_plan_id":"free"},{"bike_id":"11b2ff84-0922-45f3-a024-496c98d9bbfe","system_id":"levelo_inurba_marseille","lat":43.295933,"lon":5.380987,"is_reserved":false,"is_disabled":false,"rental_uris":{"android":"levelo://app?vid=11b2ff84-0922-45f3-a024-496c98d9bbfe","ios":"levelo://app?vid=11b2ff84-0922-45f3-a024-496c98d9bbfe"},"vehicle_type_id":"4","last_reported":1707080722,"current_range_meters":0,"station_id":"ce4bgl12rcd13ifvqbo0","pricing_plan_id":"free"},{"bike_id":"81548712-9e13-4824-b6c8-8dfe8dcee892","system_id":"levelo_inurba_marseille","lat":43.29306,"lon":5.37175,"is_reserved":false,"is_disabled":false,"rental_uris":{"android":"levelo://app?vid=81548712-9e13-4824-b6c8-8dfe8dcee892","ios":"levelo://app?vid=81548712-9e13-4824-b6c8-8dfe8dcee892"},"vehicle_type_id":"4","last_reported":1707080722,"current_range_meters":16400,"station_id":"ce4bgh92rcd13ifvqb40","pricing_plan_id":"free"},{"bike_id":"2feb2358-61b8-4360-b5c3-78fdf1612bea","system_id":"levelo_inurba_marseille","lat":43.29302,"lon":5.37165,"is_reserved":false,"is_disabled":false,"rental_uris":{"android":"levelo://app?vid=2feb2358-61b8-4360-b5c3-78fdf1612bea","ios":"levelo://app?vid=2feb2358-61b8-4360-b5c3-78fdf1612bea"},"vehicle_type_id":"4","last_reported":1707080722,"current_range_meters":8800,"station_id":"ce4bgh92rcd13ifvqb40","pricing_plan_id":"free"},{"bike_id":"0f90d953-2b5d-4548-9aee-1fb6d84320c1","system_id":"levelo_inurba_marseille","lat":43.29272,"lon":5.3684,"is_reserved":false,"is_disabled":false,"rental_uris":{"android":"levelo://app?vid=0f90d953-2b5d-4548-9aee-1fb6d84320c1","ios":"levelo://app?vid=0f90d953-2b5d-4548-9aee-1fb6d84320c1"},"vehicle_type_id":"4","last_reported":1707080722,"current_range_meters":0,"station_id":"ce4bhbp2rcd13ifvqesg","pricing_plan_id":"free"},{"bike_id":"9cbe8268-c74a-47e4-91b5-3a67cc01dfce","system_id":"levelo_inurba_marseille","lat":43.30601,"lon":5.39347,"is_reserved":false,"is_disabled":false,"rental_uris":{"android":"levelo://app?vid=9cbe8268-c74a-47e4-91b5-3a67cc01dfce","ios":"levelo://app?vid=9cbe8268-c74a-47e4-91b5-3a67cc01dfce"},"vehicle_type_id":"4","last_reported":1707080722,"current_range_meters":21200,"station_id":"ce4bh0p2rcd13ifvqd80","pricing_plan_id":"free"},{"bike_id":"23d7ba28-37cd-45b7-8fc1-1d4764243323","system_id":"levelo_inurba_marseille","lat":43.305994,"lon":5.393687,"is_reserved":false,"is_disabled":false,"rental_uris":{"android":"levelo://app?vid=23d7ba28-37cd-45b7-8fc1-1d4764243323","ios":"levelo://app?vid=23d7ba28-37cd-45b7-8fc1-1d4764243323"},"vehicle_type_id":"4","last_reported":1707080722,"current_range_meters":0,"station_id":"ce4bh0p2rcd13ifvqd80","pricing_plan_id":"free"},{"bike_id":"cbe71edd-3f53-4515-abba-5f061462d524","system_id":"levelo_inurba_marseille","lat":43.306035,"lon":5.393558,"is_reserved":false,"is_disabled":false,"rental_uris":{"android":"levelo://app?vid=cbe71edd-3f53-4515-abba-5f061462d524","ios":"levelo://app?vid=cbe71edd-3f53-4515-abba-5f061462d524"},"vehicle_type_id":"4","last_reported":1707080722,"current_range_meters":28000,"station_id":"ce4bh0p2rcd13ifvqd80","pricing_plan_id":"free"},{"bike_id":"7473e499-ea70-46aa-9e18-f327688d74ef","system_id":"levelo_inurba_marseille","lat":43.305915,"lon":5.393555,"is_reserved":false,"is_disabled":false,"rental_uris":{"android":"levelo://app?vid=7473e499-ea70-46aa-9e18-f327688d74ef","ios":"levelo://app?vid=7473e499-ea70-46aa-9e18-f327688d74ef"},"vehicle_type_id":"4","last_reported":1707080722,"current_range_meters":24800,"station_id":"ce4bh0p2rcd13ifvqd80","pricing_plan_id":"free"},{"bike_id":"d3df372e-6b0e-482c-b10e-487dab3ab99e","system_id":"levelo_inurba_marseille","lat":43.30601,"lon":5.39364,"is_reserved":false,"is_disabled":false,"rental_uris":{"android":"levelo://app?vid=d3df372e-6b0e-482c-b10e-487dab3ab99e","ios":"levelo://app?vid=d3df372e-6b0e-482c-b10e-487dab3ab99e"},"vehicle_type_id":"4","last_reported":1707080722,"current_range_meters":800,"station_id":"ce4bh0p2rcd13ifvqd80","pricing_plan_id":"free"},{"bike_id":"b46e9818-e930-4133-adf9-66257c3f17cc","system_id":"levelo_inurba_marseille","lat":43.303002,"lon":5.392142,"is_reserved":false,"is_disabled":false,"rental_uris":{"android":"levelo://app?vid=b46e9818-e930-4133-adf9-66257c3f17cc","ios":"levelo://app?vid=b46e9818-e930-4133-adf9-66257c3f17cc"},"vehicle_type_id":"4","last_reported":1707080722,"current_range_meters":28800,"station_id":"ce4bgkh2rcd13ifvqbk0","pricing_plan_id":"free"},{"bike_id":"d5d46b64-c4f7-4a60-ae5e-0f064dc83448","system_id":"levelo_inurba_marseille","lat":43.303002,"lon":5.392142,"is_reserved":false,"is_disabled":false,"rental_uris":{"android":"levelo://app?vid=d5d46b64-c4f7-4a60-ae5e-0f064dc83448","ios":"levelo://app?vid=d5d46b64-c4f7-4a60-ae5e-0f064dc83448"},"vehicle_type_id":"4","last_reported":1707080722,"current_range_meters":27600,"station_id":"ce4bgkh2rcd13ifvqbk0","pricing_plan_id":"free"},{"bike_id":"8fed18e1-ed02-405d-9bb4-ebe9373e36d3","system_id":"levelo_inurba_marseille","lat":43.302992,"lon":5.392136,"is_reserved":false,"is_disabled":false,"rental_uris":{"android":"levelo://app?vid=8fed18e1-ed02-405d-9bb4-ebe9373e36d3","ios":"levelo://app?vid=8fed18e1-ed02-405d-9bb4-ebe9373e36d3"},"vehicle_type_id":"4","last_reported":1707080722,"current_range_meters":30400,"station_id":"ce4bgkh2rcd13ifvqbk0","pricing_plan_id":"free"},{"bike_id":"2c174866-960d-4bca-9772-10dd37273ca7","system_id":"levelo_inurba_marseille","lat":43.302992,"lon":5.392136,"is_reserved":false,"is_disabled":false,"rental_uris":{"android":"levelo://app?vid=2c174866-960d-4bca-9772-10dd37273ca7","ios":"levelo://app?vid=2c174866-960d-4bca-9772-10dd37273ca7"},"vehicle_type_id":"4","last_reported":1707080722,"current_range_meters":16800,"station_id":"ce4bgkh2rcd13ifvqbk0","pricing_plan_id":"free"},{"bike_id":"1a930b74-5fba-4cf2-8256-9246de47efbf","system_id":"levelo_inurba_marseille","lat":43.302992,"lon":5.392136,"is_reserved":false,"is_disabled":false,"rental_uris":{"android":"levelo://app?vid=1a930b74-5fba-4cf2-8256-9246de47efbf","ios":"levelo://app?vid=1a930b74-5fba-4cf2-8256-9246de47efbf"},"vehicle_type_id":"4","last_reported":1707080722,"current_range_meters":30800,"station_id":"ce4bgkh2rcd13ifvqbk0","pricing_plan_id":"free"},{"bike_id":"86ea99ba-b6ba-47a0-be70-c008c46718a4","system_id":"levelo_inurba_marseille","lat":43.30101,"lon":5.39076,"is_reserved":false,"is_disabled":false,"rental_uris":{"android":"levelo://app?vid=86ea99ba-b6ba-47a0-be70-c008c46718a4","ios":"levelo://app?vid=86ea99ba-b6ba-47a0-be70-c008c46718a4"},"vehicle_type_id":"4","last_reported":1707080722,"current_range_meters":17200,"station_id":"ce4bh192rcd13ifvqdb0","pricing_plan_id":"free"},{"bike_id":"91903973-c2f7-40fe-8410-eb6682056b4e","system_id":"levelo_inurba_marseille","lat":43.300972,"lon":5.390758,"is_reserved":false,"is_disabled":false,"rental_uris":{"android":"levelo://app?vid=91903973-c2f7-40fe-8410-eb6682056b4e","ios":"levelo://app?vid=91903973-c2f7-40fe-8410-eb6682056b4e"},"vehicle_type_id":"4","last_reported":1707080722,"current_range_meters":4800,"station_id":"ce4bh192rcd13ifvqdb0","pricing_plan_id":"free"},{"bike_id":"10765507-56bf-4013-8a80-290ec7525965","system_id":"levelo_inurba_marseille","lat":43.300949,"lon":5.390872,"is_reserved":false,"is_disabled":false,"rental_uris":{"android":"levelo://app?vid=10765507-56bf-4013-8a80-290ec7525965","ios":"levelo://app?vid=10765507-56bf-4013-8a80-290ec7525965"},"vehicle_type_id":"4","last_reported":1707080722,"current_range_meters":1200,"station_id":"ce4bh192rcd13ifvqdb0","pricing_plan_id":"free"},{"bike_id":"09465133-3d22-43bd-91a8-42196316e8b0","system_id":"levelo_inurba_marseille","lat":43.300852,"lon":5.390859,"is_reserved":false,"is_disabled":false,"rental_uris":{"android":"levelo://app?vid=09465133-3d22-43bd-91a8-42196316e8b0","ios":"levelo://app?vid=09465133-3d22-43bd-91a8-42196316e8b0"},"vehicle_type_id":"4","last_reported":1707080722,"current_range_meters":24000,"station_id":"ce4bh192rcd13ifvqdb0","pricing_plan_id":"free"},{"bike_id":"a3d69861-f57d-4340-8693-2b17b45394fc","system_id":"levelo_inurba_marseille","lat":43.298764,"lon":5.388973,"is_reserved":false,"is_disabled":false,"rental_uris":{"android":"levelo://app?vid=a3d69861-f57d-4340-8693-2b17b45394fc","ios":"levelo://app?vid=a3d69861-f57d-4340-8693-2b17b45394fc"},"vehicle_type_id":"4","last_reported":1707080722,"current_range_meters":12800,"station_id":"ce4bh392rcd13ifvqdl0","pricing_plan_id":"free"},{"bike_id":"de778a10-ce34-4345-b0d9-7d913936a696","system_id":"levelo_inurba_marseille","lat":43.291675,"lon":5.371583,"is_reserved":false,"is_disabled":false,"rental_uris":{"android":"levelo://app?vid=de778a10-ce34-4345-b0d9-7d913936a696","ios":"levelo://app?vid=de778a10-ce34-4345-b0d9-7d913936a696"},"vehicle_type_id":"4","last_reported":1707080722,"current_range_meters":14400,"station_id":"ce4bha92rcd13ifvqeh0","pricing_plan_id":"free"},{"bike_id":"644c46c7-90e1-4280-ab6d-68e38567eeb4","system_id":"levelo_inurba_marseille","lat":43.293009,"lon":5.374584,"is_reserved":false,"is_disabled":false,"rental_uris":{"android":"levelo://app?vid=644c46c7-90e1-4280-ab6d-68e38567eeb4","ios":"levelo://app?vid=644c46c7-90e1-4280-ab6d-68e38567eeb4"},"vehicle_type_id":"4","last_reported":1707080722,"current_range_meters":26000,"station_id":"ce4bgi12rcd13ifvqb70","pricing_plan_id":"free"},{"bike_id":"6ef51a8f-1eea-46d3-b835-ac52293b7b21","system_id":"levelo_inurba_marseille","lat":43.298764,"lon":5.388973,"is_reserved":false,"is_disabled":false,"rental_uris":{"android":"levelo://app?vid=6ef51a8f-1eea-46d3-b835-ac52293b7b21","ios":"levelo://app?vid=6ef51a8f-1eea-46d3-b835-ac52293b7b21"},"vehicle_type_id":"4","last_reported":1707080722,"current_range_meters":22400,"station_id":"ce4bh392rcd13ifvqdl0","pricing_plan_id":"free"},{"bike_id":"5ac75b53-aaca-45c9-b858-8fb756a3f531","system_id":"levelo_inurba_marseille","lat":43.291675,"lon":5.371583,"is_reserved":false,"is_disabled":false,"rental_uris":{"android":"levelo://app?vid=5ac75b53-aaca-45c9-b858-8fb756a3f531","ios":"levelo://app?vid=5ac75b53-aaca-45c9-b858-8fb756a3f531"},"vehicle_type_id":"4","last_reported":1707080722,"current_range_meters":24000,"station_id":"ce4bha92rcd13ifvqeh0","pricing_plan_id":"free"},{"bike_id":"f23d0523-b914-4fd7-8957-b97bcc3d2363","system_id":"levelo_inurba_marseille","lat":43.291671,"lon":5.371575,"is_reserved":false,"is_disabled":false,"rental_uris":{"android":"levelo://app?vid=f23d0523-b914-4fd7-8957-b97bcc3d2363","ios":"levelo://app?vid=f23d0523-b914-4fd7-8957-b97bcc3d2363"},"vehicle_type_id":"4","last_reported":1707080722,"current_range_meters":13600,"station_id":"ce4bha92rcd13ifvqeh0","pricing_plan_id":"free"},{"bike_id":"579fc067-862b-4dd0-a941-fc509ea115a5","system_id":"levelo_inurba_marseille","lat":43.309047,"lon":5.396551,"is_reserved":false,"is_disabled":false,"rental_uris":{"android":"levelo://app?vid=579fc067-862b-4dd0-a941-fc509ea115a5","ios":"levelo://app?vid=579fc067-862b-4dd0-a941-fc509ea115a5"},"vehicle_type_id":"4","last_reported":1707080722,"current_range_meters":31600,"station_id":"ce4bh012rcd13ifvqcv0","pricing_plan_id":"free"},{"bike_id":"8aa8ff21-5ba8-4c2a-b066-9f244dd3fe08","system_id":"levelo_inurba_marseille","lat":43.291994,"lon":5.357886,"is_reserved":false,"is_disabled":false,"rental_uris":{"android":"levelo://app?vid=8aa8ff21-5ba8-4c2a-b066-9f244dd3fe08","ios":"levelo://app?vid=8aa8ff21-5ba8-4c2a-b066-9f244dd3fe08"},"vehicle_type_id":"4","last_reported":1707080722,"current_range_meters":4000,"station_id":"ce4bhb12rcd13ifvqel0","pricing_plan_id":"free"},{"bike_id":"50de95a1-553b-4956-9d1b-46a74624600d","system_id":"levelo_inurba_marseille","lat":43.291994,"lon":5.357886,"is_reserved":false,"is_disabled":false,"rental_uris":{"android":"levelo://app?vid=50de95a1-553b-4956-9d1b-46a74624600d","ios":"levelo://app?vid=50de95a1-553b-4956-9d1b-46a74624600d"},"vehicle_type_id":"4","last_reported":1707080722,"current_range_meters":24000,"station_id":"ce4bhb12rcd13ifvqel0","pricing_plan_id":"free"},{"bike_id":"399d86b7-e68d-449a-b212-10271aecf020","system_id":"levelo_inurba_marseille","lat":43.291994,"lon":5.357886,"is_reserved":false,"is_disabled":false,"rental_uris":{"android":"levelo://app?vid=399d86b7-e68d-449a-b212-10271aecf020","ios":"levelo://app?vid=399d86b7-e68d-449a-b212-10271aecf020"},"vehicle_type_id":"4","last_reported":1707080722,"current_range_meters":28800,"station_id":"ce4bhb12rcd13ifvqel0","pricing_plan_id":"free"},{"bike_id":"9d9534b4-a890-4d08-9bc6-c010182cbdf9","system_id":"levelo_inurba_marseille","lat":43.291994,"lon":5.357886,"is_reserved":false,"is_disabled":false,"rental_uris":{"android":"levelo://app?vid=9d9534b4-a890-4d08-9bc6-c010182cbdf9","ios":"levelo://app?vid=9d9534b4-a890-4d08-9bc6-c010182cbdf9"},"vehicle_type_id":"4","last_reported":1707080722,"current_range_meters":20000,"station_id":"ce4bhb12rcd13ifvqel0","pricing_plan_id":"free"},{"bike_id":"8c605089-0b47-4239-9a3f-eb622dc559d0","system_id":"levelo_inurba_marseille","lat":43.3133,"lon":5.39685,"is_reserved":false,"is_disabled":false,"rental_uris":{"android":"levelo://app?vid=8c605089-0b47-4239-9a3f-eb622dc559d0","ios":"levelo://app?vid=8c605089-0b47-4239-9a3f-eb622dc559d0"},"vehicle_type_id":"4","last_reported":1707080722,"current_range_meters":15600,"station_id":"ce4bgvp2rcd13ifvqcu0","pricing_plan_id":"free"},{"bike_id":"6c874cfe-4464-4696-afa3-480e01c3a358","system_id":"levelo_inurba_marseille","lat":43.291946,"lon":5.357999,"is_reserved":false,"is_disabled":false,"rental_uris":{"android":"levelo://app?vid=6c874cfe-4464-4696-afa3-480e01c3a358","ios":"levelo://app?vid=6c874cfe-4464-4696-afa3-480e01c3a358"},"vehicle_type_id":"4","last_reported":1707080722,"current_range_meters":23200,"station_id":"ce4bhb12rcd13ifvqel0","pricing_plan_id":"free"},{"bike_id":"76debd98-f9f4-4ead-b7ea-f1cd59031c65","system_id":"levelo_inurba_marseille","lat":43.309038,"lon":5.396546,"is_reserved":false,"is_disabled":false,"rental_uris":{"android":"levelo://app?vid=76debd98-f9f4-4ead-b7ea-f1cd59031c65","ios":"levelo://app?vid=76debd98-f9f4-4ead-b7ea-f1cd59031c65"},"vehicle_type_id":"4","last_reported":1707080722,"current_range_meters":9200,"station_id":"ce4bh012rcd13ifvqcv0","pricing_plan_id":"free"},{"bike_id":"c04ece00-56e9-45a8-a961-5fdd3fc649a4","system_id":"levelo_inurba_marseille","lat":43.291927,"lon":5.35802,"is_reserved":false,"is_disabled":false,"rental_uris":{"android":"levelo://app?vid=c04ece00-56e9-45a8-a961-5fdd3fc649a4","ios":"levelo://app?vid=c04ece00-56e9-45a8-a961-5fdd3fc649a4"},"vehicle_type_id":"4","last_reported":1707080722,"current_range_meters":31200,"station_id":"ce4bhb12rcd13ifvqel0","pricing_plan_id":"free"},{"bike_id":"f79b3125-7a67-4727-af67-06b004a67391","system_id":"levelo_inurba_marseille","lat":43.29196,"lon":5.35787,"is_reserved":false,"is_disabled":false,"rental_uris":{"android":"levelo://app?vid=f79b3125-7a67-4727-af67-06b004a67391","ios":"levelo://app?vid=f79b3125-7a67-4727-af67-06b004a67391"},"vehicle_type_id":"4","last_reported":1707080722,"current_range_meters":10800,"station_id":"ce4bhb12rcd13ifvqel0","pricing_plan_id":"free"},{"bike_id":"f3a2864a-68bf-45cb-a563-c2398c508bec","system_id":"levelo_inurba_marseille","lat":43.31331,"lon":5.39689,"is_reserved":false,"is_disabled":false,"rental_uris":{"android":"levelo://app?vid=f3a2864a-68bf-45cb-a563-c2398c508bec","ios":"levelo://app?vid=f3a2864a-68bf-45cb-a563-c2398c508bec"},"vehicle_type_id":"4","last_reported":1707080722,"current_range_meters":25200,"station_id":"ce4bgvp2rcd13ifvqcu0","pricing_plan_id":"free"},{"bike_id":"c898ef4a-617f-46e2-8929-feaad6092a07","system_id":"levelo_inurba_marseille","lat":43.309038,"lon":5.396546,"is_reserved":false,"is_disabled":false,"rental_uris":{"android":"levelo://app?vid=c898ef4a-617f-46e2-8929-feaad6092a07","ios":"levelo://app?vid=c898ef4a-617f-46e2-8929-feaad6092a07"},"vehicle_type_id":"4","last_reported":1707080722,"current_range_meters":22800,"station_id":"ce4bh012rcd13ifvqcv0","pricing_plan_id":"free"},{"bike_id":"3ea33bf4-a27b-4f80-9fe1-a0f87a1d2150","system_id":"levelo_inurba_marseille","lat":43.31333,"lon":5.39693,"is_reserved":false,"is_disabled":false,"rental_uris":{"android":"levelo://app?vid=3ea33bf4-a27b-4f80-9fe1-a0f87a1d2150","ios":"levelo://app?vid=3ea33bf4-a27b-4f80-9fe1-a0f87a1d2150"},"vehicle_type_id":"4","last_reported":1707080722,"current_range_meters":16400,"station_id":"ce4bgvp2rcd13ifvqcu0","pricing_plan_id":"free"},{"bike_id":"cb0adc17-b24c-4353-9bb7-6064290cd099","system_id":"levelo_inurba_marseille","lat":43.309047,"lon":5.396551,"is_reserved":false,"is_disabled":false,"rental_uris":{"android":"levelo://app?vid=cb0adc17-b24c-4353-9bb7-6064290cd099","ios":"levelo://app?vid=cb0adc17-b24c-4353-9bb7-6064290cd099"},"vehicle_type_id":"4","last_reported":1707080722,"current_range_meters":32000,"station_id":"ce4bh012rcd13ifvqcv0","pricing_plan_id":"free"},{"bike_id":"98fb478c-2c90-4367-b2fe-e3ba20dfacae","system_id":"levelo_inurba_marseille","lat":43.313291,"lon":5.396838,"is_reserved":false,"is_disabled":false,"rental_uris":{"android":"levelo://app?vid=98fb478c-2c90-4367-b2fe-e3ba20dfacae","ios":"levelo://app?vid=98fb478c-2c90-4367-b2fe-e3ba20dfacae"},"vehicle_type_id":"4","last_reported":1707080722,"current_range_meters":27600,"station_id":"ce4bgvp2rcd13ifvqcu0","pricing_plan_id":"free"},{"bike_id":"a0c92d8c-bef3-44ad-bf0f-f18a01f28bb8","system_id":"levelo_inurba_marseille","lat":43.309047,"lon":5.396551,"is_reserved":false,"is_disabled":false,"rental_uris":{"android":"levelo://app?vid=a0c92d8c-bef3-44ad-bf0f-f18a01f28bb8","ios":"levelo://app?vid=a0c92d8c-bef3-44ad-bf0f-f18a01f28bb8"},"vehicle_type_id":"4","last_reported":1707080722,"current_range_meters":23600,"station_id":"ce4bh012rcd13ifvqcv0","pricing_plan_id":"free"},{"bike_id":"d1e8a7cd-20a2-4bb7-8268-0ed4acb27f0d","system_id":"levelo_inurba_marseille","lat":43.309047,"lon":5.396551,"is_reserved":false,"is_disabled":false,"rental_uris":{"android":"levelo://app?vid=d1e8a7cd-20a2-4bb7-8268-0ed4acb27f0d","ios":"levelo://app?vid=d1e8a7cd-20a2-4bb7-8268-0ed4acb27f0d"},"vehicle_type_id":"4","last_reported":1707080722,"current_range_meters":16400,"station_id":"ce4bh012rcd13ifvqcv0","pricing_plan_id":"free"},{"bike_id":"6b9e30aa-bb59-400a-bb19-9a7017d73ce6","system_id":"levelo_inurba_marseille","lat":43.309038,"lon":5.396546,"is_reserved":false,"is_disabled":false,"rental_uris":{"android":"levelo://app?vid=6b9e30aa-bb59-400a-bb19-9a7017d73ce6","ios":"levelo://app?vid=6b9e30aa-bb59-400a-bb19-9a7017d73ce6"},"vehicle_type_id":"4","last_reported":1707080722,"current_range_meters":32000,"station_id":"ce4bh012rcd13ifvqcv0","pricing_plan_id":"free"},{"bike_id":"66edd7ba-de69-441c-9323-0a4b6c020232","system_id":"levelo_inurba_marseille","lat":43.31327,"lon":5.39703,"is_reserved":false,"is_disabled":false,"rental_uris":{"android":"levelo://app?vid=66edd7ba-de69-441c-9323-0a4b6c020232","ios":"levelo://app?vid=66edd7ba-de69-441c-9323-0a4b6c020232"},"vehicle_type_id":"4","last_reported":1707080722,"current_range_meters":17600,"station_id":"ce4bgvp2rcd13ifvqcu0","pricing_plan_id":"free"},{"bike_id":"e7189582-81a4-4866-90b6-f1957663c419","system_id":"levelo_inurba_marseille","lat":43.30885,"lon":5.3966,"is_reserved":false,"is_disabled":false,"rental_uris":{"android":"levelo://app?vid=e7189582-81a4-4866-90b6-f1957663c419","ios":"levelo://app?vid=e7189582-81a4-4866-90b6-f1957663c419"},"vehicle_type_id":"4","last_reported":1707080722,"current_range_meters":0,"station_id":"ce4bh012rcd13ifvqcv0","pricing_plan_id":"free"},{"bike_id":"32dabd55-cee9-47b2-aa62-238ab74b6c41","system_id":"levelo_inurba_marseille","lat":43.29529,"lon":5.385581,"is_reserved":false,"is_disabled":false,"rental_uris":{"android":"levelo://app?vid=32dabd55-cee9-47b2-aa62-238ab74b6c41","ios":"levelo://app?vid=32dabd55-cee9-47b2-aa62-238ab74b6c41"},"vehicle_type_id":"4","last_reported":1707080722,"current_range_meters":26000,"station_id":"ce4bgih2rcd13ifvqba0","pricing_plan_id":"free"},{"bike_id":"6b0bdce9-30ad-4b2f-a3ff-7b983749ed4e","system_id":"levelo_inurba_marseille","lat":43.29529,"lon":5.385581,"is_reserved":false,"is_disabled":false,"rental_uris":{"android":"levelo://app?vid=6b0bdce9-30ad-4b2f-a3ff-7b983749ed4e","ios":"levelo://app?vid=6b0bdce9-30ad-4b2f-a3ff-7b983749ed4e"},"vehicle_type_id":"4","last_reported":1707080722,"current_range_meters":12000,"station_id":"ce4bgih2rcd13ifvqba0","pricing_plan_id":"free"},{"bike_id":"64a67b52-059c-4b0e-a80e-b329b83c11fd","system_id":"levelo_inurba_marseille","lat":43.29529,"lon":5.385581,"is_reserved":false,"is_disabled":false,"rental_uris":{"android":"levelo://app?vid=64a67b52-059c-4b0e-a80e-b329b83c11fd","ios":"levelo://app?vid=64a67b52-059c-4b0e-a80e-b329b83c11fd"},"vehicle_type_id":"4","last_reported":1707080722,"current_range_meters":30800,"station_id":"ce4bgih2rcd13ifvqba0","pricing_plan_id":"free"},{"bike_id":"4419a724-5255-4916-9ab6-08c2c5ae2fc3","system_id":"levelo_inurba_marseille","lat":43.31638,"lon":5.39678,"is_reserved":false,"is_disabled":false,"rental_uris":{"android":"levelo://app?vid=4419a724-5255-4916-9ab6-08c2c5ae2fc3","ios":"levelo://app?vid=4419a724-5255-4916-9ab6-08c2c5ae2fc3"},"vehicle_type_id":"4","last_reported":1707080722,"current_range_meters":27200,"station_id":"","pricing_plan_id":"free"},{"bike_id":"44f4cdd2-bf2d-4be9-881f-34e4b95ae472","system_id":"levelo_inurba_marseille","lat":43.29535,"lon":5.38553,"is_reserved":false,"is_disabled":false,"rental_uris":{"android":"levelo://app?vid=44f4cdd2-bf2d-4be9-881f-34e4b95ae472","ios":"levelo://app?vid=44f4cdd2-bf2d-4be9-881f-34e4b95ae472"},"vehicle_type_id":"4","last_reported":1707080722,"current_range_meters":400,"station_id":"ce4bgih2rcd13ifvqba0","pricing_plan_id":"free"},{"bike_id":"dff90036-33b6-4e6f-a75b-69b644b62394","system_id":"levelo_inurba_marseille","lat":43.290779,"lon":5.371482,"is_reserved":false,"is_disabled":false,"rental_uris":{"android":"levelo://app?vid=dff90036-33b6-4e6f-a75b-69b644b62394","ios":"levelo://app?vid=dff90036-33b6-4e6f-a75b-69b644b62394"},"vehicle_type_id":"4","last_reported":1707080722,"current_range_meters":26800,"station_id":"ce4bh5p2rcd13ifvqe4g","pricing_plan_id":"free"},{"bike_id":"523ef0a8-e4a9-4f83-b840-7f8944980afe","system_id":"levelo_inurba_marseille","lat":43.290779,"lon":5.371482,"is_reserved":false,"is_disabled":false,"rental_uris":{"android":"levelo://app?vid=523ef0a8-e4a9-4f83-b840-7f8944980afe","ios":"levelo://app?vid=523ef0a8-e4a9-4f83-b840-7f8944980afe"},"vehicle_type_id":"4","last_reported":1707080722,"current_range_meters":27200,"station_id":"ce4bh5p2rcd13ifvqe4g","pricing_plan_id":"free"},{"bike_id":"0de69da3-f487-4842-bfb4-1b31ab09fbe8","system_id":"levelo_inurba_marseille","lat":43.302008,"lon":5.394694,"is_reserved":false,"is_disabled":false,"rental_uris":{"android":"levelo://app?vid=0de69da3-f487-4842-bfb4-1b31ab09fbe8","ios":"levelo://app?vid=0de69da3-f487-4842-bfb4-1b31ab09fbe8"},"vehicle_type_id":"4","last_reported":1707080722,"current_range_meters":8800,"station_id":"ce4bh0p2rcd13ifvqd70","pricing_plan_id":"free"},{"bike_id":"6a7657c6-1be2-4059-98ec-2dc3870e9f2e","system_id":"levelo_inurba_marseille","lat":43.302008,"lon":5.394694,"is_reserved":false,"is_disabled":false,"rental_uris":{"android":"levelo://app?vid=6a7657c6-1be2-4059-98ec-2dc3870e9f2e","ios":"levelo://app?vid=6a7657c6-1be2-4059-98ec-2dc3870e9f2e"},"vehicle_type_id":"4","last_reported":1707080722,"current_range_meters":21200,"station_id":"ce4bh0p2rcd13ifvqd70","pricing_plan_id":"free"},{"bike_id":"e4b6cb2d-568f-4630-a844-6eaf3cd26a39","system_id":"levelo_inurba_marseille","lat":43.302008,"lon":5.394694,"is_reserved":false,"is_disabled":false,"rental_uris":{"android":"levelo://app?vid=e4b6cb2d-568f-4630-a844-6eaf3cd26a39","ios":"levelo://app?vid=e4b6cb2d-568f-4630-a844-6eaf3cd26a39"},"vehicle_type_id":"4","last_reported":1707080722,"current_range_meters":24800,"station_id":"ce4bh0p2rcd13ifvqd70","pricing_plan_id":"free"},{"bike_id":"4a848189-bd42-4e10-8699-d4f4e027ca65","system_id":"levelo_inurba_marseille","lat":43.29046,"lon":5.35929,"is_reserved":false,"is_disabled":false,"rental_uris":{"android":"levelo://app?vid=4a848189-bd42-4e10-8699-d4f4e027ca65","ios":"levelo://app?vid=4a848189-bd42-4e10-8699-d4f4e027ca65"},"vehicle_type_id":"4","last_reported":1707080722,"current_range_meters":26400,"station_id":"ce4bha92rcd13ifvqeg0","pricing_plan_id":"free"},{"bike_id":"9ef4faee-7f5b-4860-abd4-add5d7de070e","system_id":"levelo_inurba_marseille","lat":43.290624,"lon":5.359245,"is_reserved":false,"is_disabled":false,"rental_uris":{"android":"levelo://app?vid=9ef4faee-7f5b-4860-abd4-add5d7de070e","ios":"levelo://app?vid=9ef4faee-7f5b-4860-abd4-add5d7de070e"},"vehicle_type_id":"4","last_reported":1707080722,"current_range_meters":7200,"station_id":"ce4bha92rcd13ifvqeg0","pricing_plan_id":"free"},{"bike_id":"3fbf1e07-bed2-4ceb-94b0-b99cc7e05d64","system_id":"levelo_inurba_marseille","lat":43.29042,"lon":5.35908,"is_reserved":false,"is_disabled":false,"rental_uris":{"android":"levelo://app?vid=3fbf1e07-bed2-4ceb-94b0-b99cc7e05d64","ios":"levelo://app?vid=3fbf1e07-bed2-4ceb-94b0-b99cc7e05d64"},"vehicle_type_id":"4","last_reported":1707080722,"current_range_meters":24800,"station_id":"ce4bha92rcd13ifvqeg0","pricing_plan_id":"free"},{"bike_id":"023b2a6d-e263-440d-91bc-599f0116af19","system_id":"levelo_inurba_marseille","lat":43.29038,"lon":5.35915,"is_reserved":false,"is_disabled":false,"rental_uris":{"android":"levelo://app?vid=023b2a6d-e263-440d-91bc-599f0116af19","ios":"levelo://app?vid=023b2a6d-e263-440d-91bc-599f0116af19"},"vehicle_type_id":"4","last_reported":1707080722,"current_range_meters":26400,"station_id":"ce4bha92rcd13ifvqeg0","pricing_plan_id":"free"},{"bike_id":"77c77d1c-bf81-46cf-907f-29b45a916f5d","system_id":"levelo_inurba_marseille","lat":43.294153,"lon":5.386305,"is_reserved":false,"is_disabled":false,"rental_uris":{"android":"levelo://app?vid=77c77d1c-bf81-46cf-907f-29b45a916f5d","ios":"levelo://app?vid=77c77d1c-bf81-46cf-907f-29b45a916f5d"},"vehicle_type_id":"4","last_reported":1707080722,"current_range_meters":27600,"station_id":"ce4bh2h2rcd13ifvqdh0","pricing_plan_id":"free"},{"bike_id":"a8bfe123-0561-4946-bf33-19b296c1d265","system_id":"levelo_inurba_marseille","lat":43.294153,"lon":5.386305,"is_reserved":false,"is_disabled":false,"rental_uris":{"android":"levelo://app?vid=a8bfe123-0561-4946-bf33-19b296c1d265","ios":"levelo://app?vid=a8bfe123-0561-4946-bf33-19b296c1d265"},"vehicle_type_id":"4","last_reported":1707080722,"current_range_meters":23200,"station_id":"ce4bh2h2rcd13ifvqdh0","pricing_plan_id":"free"},{"bike_id":"10a15801-8ce1-4e9c-bb53-eca988e528fc","system_id":"levelo_inurba_marseille","lat":43.294153,"lon":5.386305,"is_reserved":false,"is_disabled":false,"rental_uris":{"android":"levelo://app?vid=10a15801-8ce1-4e9c-bb53-eca988e528fc","ios":"levelo://app?vid=10a15801-8ce1-4e9c-bb53-eca988e528fc"},"vehicle_type_id":"4","last_reported":1707080722,"current_range_meters":21200,"station_id":"ce4bh2h2rcd13ifvqdh0","pricing_plan_id":"free"},{"bike_id":"fc2a0728-719b-461a-8a6a-92ec177f2d2b","system_id":"levelo_inurba_marseille","lat":43.294153,"lon":5.386305,"is_reserved":false,"is_disabled":false,"rental_uris":{"android":"levelo://app?vid=fc2a0728-719b-461a-8a6a-92ec177f2d2b","ios":"levelo://app?vid=fc2a0728-719b-461a-8a6a-92ec177f2d2b"},"vehicle_type_id":"4","last_reported":1707080722,"current_range_meters":22800,"station_id":"ce4bh2h2rcd13ifvqdh0","pricing_plan_id":"free"},{"bike_id":"a946d68a-6403-499b-b597-305251eb7fc6","system_id":"levelo_inurba_marseille","lat":43.294153,"lon":5.386305,"is_reserved":false,"is_disabled":false,"rental_uris":{"android":"levelo://app?vid=a946d68a-6403-499b-b597-305251eb7fc6","ios":"levelo://app?vid=a946d68a-6403-499b-b597-305251eb7fc6"},"vehicle_type_id":"4","last_reported":1707080722,"current_range_meters":5200,"station_id":"ce4bh2h2rcd13ifvqdh0","pricing_plan_id":"free"},{"bike_id":"f5ea1359-636d-4541-a2fa-f6c93c404c88","system_id":"levelo_inurba_marseille","lat":43.294162,"lon":5.386292,"is_reserved":false,"is_disabled":false,"rental_uris":{"android":"levelo://app?vid=f5ea1359-636d-4541-a2fa-f6c93c404c88","ios":"levelo://app?vid=f5ea1359-636d-4541-a2fa-f6c93c404c88"},"vehicle_type_id":"4","last_reported":1707080722,"current_range_meters":6800,"station_id":"ce4bh2h2rcd13ifvqdh0","pricing_plan_id":"free"},{"bike_id":"f26f3ae0-2546-4125-9ff4-f67bf0bdd465","system_id":"levelo_inurba_marseille","lat":43.294162,"lon":5.386292,"is_reserved":false,"is_disabled":false,"rental_uris":{"android":"levelo://app?vid=f26f3ae0-2546-4125-9ff4-f67bf0bdd465","ios":"levelo://app?vid=f26f3ae0-2546-4125-9ff4-f67bf0bdd465"},"vehicle_type_id":"4","last_reported":1707080722,"current_range_meters":29200,"station_id":"ce4bh2h2rcd13ifvqdh0","pricing_plan_id":"free"},{"bike_id":"a82eb0d1-d158-4e76-9f96-b9506917ec84","system_id":"levelo_inurba_marseille","lat":43.294162,"lon":5.386292,"is_reserved":false,"is_disabled":false,"rental_uris":{"android":"levelo://app?vid=a82eb0d1-d158-4e76-9f96-b9506917ec84","ios":"levelo://app?vid=a82eb0d1-d158-4e76-9f96-b9506917ec84"},"vehicle_type_id":"4","last_reported":1707080722,"current_range_meters":31600,"station_id":"ce4bh2h2rcd13ifvqdh0","pricing_plan_id":"free"},{"bike_id":"78acf450-6ba9-419c-8496-e719e414f7d8","system_id":"levelo_inurba_marseille","lat":43.294162,"lon":5.386292,"is_reserved":false,"is_disabled":false,"rental_uris":{"android":"levelo://app?vid=78acf450-6ba9-419c-8496-e719e414f7d8","ios":"levelo://app?vid=78acf450-6ba9-419c-8496-e719e414f7d8"},"vehicle_type_id":"4","last_reported":1707080722,"current_range_meters":28000,"station_id":"ce4bh2h2rcd13ifvqdh0","pricing_plan_id":"free"},{"bike_id":"de95af1e-cd11-4ba3-baa5-3d2b0753cee5","system_id":"levelo_inurba_marseille","lat":43.289184,"lon":5.366408,"is_reserved":false,"is_disabled":false,"rental_uris":{"android":"levelo://app?vid=de95af1e-cd11-4ba3-baa5-3d2b0753cee5","ios":"levelo://app?vid=de95af1e-cd11-4ba3-baa5-3d2b0753cee5"},"vehicle_type_id":"4","last_reported":1707080722,"current_range_meters":22800,"station_id":"ce4bhap2rcd13ifvqek0","pricing_plan_id":"free"},{"bike_id":"e91f4d88-932f-4998-a7f8-469c00830d91","system_id":"levelo_inurba_marseille","lat":43.29032,"lon":5.37557,"is_reserved":false,"is_disabled":false,"rental_uris":{"android":"levelo://app?vid=e91f4d88-932f-4998-a7f8-469c00830d91","ios":"levelo://app?vid=e91f4d88-932f-4998-a7f8-469c00830d91"},"vehicle_type_id":"4","last_reported":1707080722,"current_range_meters":26800,"station_id":"ce4bh692rcd13ifvqe90","pricing_plan_id":"free"},{"bike_id":"800df3b4-0056-4430-9dce-21c6c32d97ab","system_id":"levelo_inurba_marseille","lat":43.294153,"lon":5.386305,"is_reserved":false,"is_disabled":false,"rental_uris":{"android":"levelo://app?vid=800df3b4-0056-4430-9dce-21c6c32d97ab","ios":"levelo://app?vid=800df3b4-0056-4430-9dce-21c6c32d97ab"},"vehicle_type_id":"4","last_reported":1707080722,"current_range_meters":29200,"station_id":"ce4bh2h2rcd13ifvqdh0","pricing_plan_id":"free"},{"bike_id":"0f55e0c3-acd1-4079-bee0-791c361e020d","system_id":"levelo_inurba_marseille","lat":43.294153,"lon":5.386305,"is_reserved":false,"is_disabled":false,"rental_uris":{"android":"levelo://app?vid=0f55e0c3-acd1-4079-bee0-791c361e020d","ios":"levelo://app?vid=0f55e0c3-acd1-4079-bee0-791c361e020d"},"vehicle_type_id":"4","last_reported":1707080722,"current_range_meters":10800,"station_id":"ce4bh2h2rcd13ifvqdh0","pricing_plan_id":"free"},{"bike_id":"59c89e8d-d072-4bb4-8df0-5827fe535173","system_id":"levelo_inurba_marseille","lat":43.294162,"lon":5.386292,"is_reserved":false,"is_disabled":false,"rental_uris":{"android":"levelo://app?vid=59c89e8d-d072-4bb4-8df0-5827fe535173","ios":"levelo://app?vid=59c89e8d-d072-4bb4-8df0-5827fe535173"},"vehicle_type_id":"4","last_reported":1707080722,"current_range_meters":16000,"station_id":"ce4bh2h2rcd13ifvqdh0","pricing_plan_id":"free"},{"bike_id":"94068124-8585-405d-b77d-29577c565c58","system_id":"levelo_inurba_marseille","lat":43.289403,"lon":5.366347,"is_reserved":false,"is_disabled":false,"rental_uris":{"android":"levelo://app?vid=94068124-8585-405d-b77d-29577c565c58","ios":"levelo://app?vid=94068124-8585-405d-b77d-29577c565c58"},"vehicle_type_id":"4","last_reported":1707080722,"current_range_meters":18800,"station_id":"ce4bhap2rcd13ifvqek0","pricing_plan_id":"free"},{"bike_id":"9aa90812-3cc4-47b2-ab07-2746901f4b13","system_id":"levelo_inurba_marseille","lat":43.292642,"lon":5.384254,"is_reserved":false,"is_disabled":false,"rental_uris":{"android":"levelo://app?vid=9aa90812-3cc4-47b2-ab07-2746901f4b13","ios":"levelo://app?vid=9aa90812-3cc4-47b2-ab07-2746901f4b13"},"vehicle_type_id":"4","last_reported":1707080722,"current_range_meters":16800,"station_id":"ce4bh692rcd13ifvqea0","pricing_plan_id":"free"},{"bike_id":"60dd482e-15ce-42cc-aaf1-3f32112ec1a9","system_id":"levelo_inurba_marseille","lat":43.294162,"lon":5.386292,"is_reserved":false,"is_disabled":false,"rental_uris":{"android":"levelo://app?vid=60dd482e-15ce-42cc-aaf1-3f32112ec1a9","ios":"levelo://app?vid=60dd482e-15ce-42cc-aaf1-3f32112ec1a9"},"vehicle_type_id":"4","last_reported":1707080722,"current_range_meters":16800,"station_id":"ce4bh2h2rcd13ifvqdh0","pricing_plan_id":"free"},{"bike_id":"3586158b-ae47-466d-adaf-c9b367c3de2d","system_id":"levelo_inurba_marseille","lat":43.289468,"lon":5.363719,"is_reserved":false,"is_disabled":false,"rental_uris":{"android":"levelo://app?vid=3586158b-ae47-466d-adaf-c9b367c3de2d","ios":"levelo://app?vid=3586158b-ae47-466d-adaf-c9b367c3de2d"},"vehicle_type_id":"4","last_reported":1707080722,"current_range_meters":23600,"station_id":"ce4bhc92rcd13ifvqetg","pricing_plan_id":"free"},{"bike_id":"75c26767-4d83-4196-9184-16e3b3999c1a","system_id":"levelo_inurba_marseille","lat":43.292644,"lon":5.384257,"is_reserved":false,"is_disabled":false,"rental_uris":{"android":"levelo://app?vid=75c26767-4d83-4196-9184-16e3b3999c1a","ios":"levelo://app?vid=75c26767-4d83-4196-9184-16e3b3999c1a"},"vehicle_type_id":"4","last_reported":1707080722,"current_range_meters":26800,"station_id":"ce4bh692rcd13ifvqea0","pricing_plan_id":"free"},{"bike_id":"027d6ec8-2bde-49c4-b805-1ac483cfdf7d","system_id":"levelo_inurba_marseille","lat":43.30441,"lon":5.39742,"is_reserved":false,"is_disabled":false,"rental_uris":{"android":"levelo://app?vid=027d6ec8-2bde-49c4-b805-1ac483cfdf7d","ios":"levelo://app?vid=027d6ec8-2bde-49c4-b805-1ac483cfdf7d"},"vehicle_type_id":"4","last_reported":1707080722,"current_range_meters":14800,"station_id":"ce4bh092rcd13ifvqd20","pricing_plan_id":"free"},{"bike_id":"3ade90f4-7acb-42fc-91bc-fbd5699c6095","system_id":"levelo_inurba_marseille","lat":43.292786,"lon":5.384516,"is_reserved":false,"is_disabled":false,"rental_uris":{"android":"levelo://app?vid=3ade90f4-7acb-42fc-91bc-fbd5699c6095","ios":"levelo://app?vid=3ade90f4-7acb-42fc-91bc-fbd5699c6095"},"vehicle_type_id":"4","last_reported":1707080722,"current_range_meters":13200,"station_id":"ce4bh692rcd13ifvqea0","pricing_plan_id":"free"},{"bike_id":"10336e24-2748-41f6-a02e-06ee364210b7","system_id":"levelo_inurba_marseille","lat":43.30432,"lon":5.39742,"is_reserved":false,"is_disabled":false,"rental_uris":{"android":"levelo://app?vid=10336e24-2748-41f6-a02e-06ee364210b7","ios":"levelo://app?vid=10336e24-2748-41f6-a02e-06ee364210b7"},"vehicle_type_id":"4","last_reported":1707080722,"current_range_meters":31200,"station_id":"ce4bh092rcd13ifvqd20","pricing_plan_id":"free"},{"bike_id":"d2ade661-e9b4-4888-901b-665905bc8e89","system_id":"levelo_inurba_marseille","lat":43.304274,"lon":5.397513,"is_reserved":false,"is_disabled":false,"rental_uris":{"android":"levelo://app?vid=d2ade661-e9b4-4888-901b-665905bc8e89","ios":"levelo://app?vid=d2ade661-e9b4-4888-901b-665905bc8e89"},"vehicle_type_id":"4","last_reported":1707080722,"current_range_meters":22000,"station_id":"ce4bh092rcd13ifvqd20","pricing_plan_id":"free"},{"bike_id":"d0f6d2d1-c57b-49ff-ad34-8bae9c3dd0f2","system_id":"levelo_inurba_marseille","lat":43.304273,"lon":5.39745,"is_reserved":false,"is_disabled":false,"rental_uris":{"android":"levelo://app?vid=d0f6d2d1-c57b-49ff-ad34-8bae9c3dd0f2","ios":"levelo://app?vid=d0f6d2d1-c57b-49ff-ad34-8bae9c3dd0f2"},"vehicle_type_id":"4","last_reported":1707080722,"current_range_meters":22800,"station_id":"ce4bh092rcd13ifvqd20","pricing_plan_id":"free"},{"bike_id":"7a07006a-6ba3-48b2-8396-1dd58b0ebcab","system_id":"levelo_inurba_marseille","lat":43.304296,"lon":5.397513,"is_reserved":false,"is_disabled":false,"rental_uris":{"android":"levelo://app?vid=7a07006a-6ba3-48b2-8396-1dd58b0ebcab","ios":"levelo://app?vid=7a07006a-6ba3-48b2-8396-1dd58b0ebcab"},"vehicle_type_id":"4","last_reported":1707080722,"current_range_meters":16800,"station_id":"ce4bh092rcd13ifvqd20","pricing_plan_id":"free"},{"bike_id":"db136c49-d14c-421d-b970-1904ac12bfaf","system_id":"levelo_inurba_marseille","lat":43.304274,"lon":5.397513,"is_reserved":false,"is_disabled":false,"rental_uris":{"android":"levelo://app?vid=db136c49-d14c-421d-b970-1904ac12bfaf","ios":"levelo://app?vid=db136c49-d14c-421d-b970-1904ac12bfaf"},"vehicle_type_id":"4","last_reported":1707080722,"current_range_meters":26800,"station_id":"ce4bh092rcd13ifvqd20","pricing_plan_id":"free"},{"bike_id":"7c206cca-a361-4f40-b7e4-4ca501cd770a","system_id":"levelo_inurba_marseille","lat":43.29264,"lon":5.38442,"is_reserved":false,"is_disabled":false,"rental_uris":{"android":"levelo://app?vid=7c206cca-a361-4f40-b7e4-4ca501cd770a","ios":"levelo://app?vid=7c206cca-a361-4f40-b7e4-4ca501cd770a"},"vehicle_type_id":"4","last_reported":1707080722,"current_range_meters":31600,"station_id":"ce4bh692rcd13ifvqea0","pricing_plan_id":"free"},{"bike_id":"08dd0f49-c5d4-4cf0-9996-9227e29b539d","system_id":"levelo_inurba_marseille","lat":43.29259,"lon":5.38438,"is_reserved":false,"is_disabled":false,"rental_uris":{"android":"levelo://app?vid=08dd0f49-c5d4-4cf0-9996-9227e29b539d","ios":"levelo://app?vid=08dd0f49-c5d4-4cf0-9996-9227e29b539d"},"vehicle_type_id":"4","last_reported":1707080722,"current_range_meters":29200,"station_id":"ce4bh692rcd13ifvqea0","pricing_plan_id":"free"},{"bike_id":"47977dcd-35d9-4902-97d7-cb119ec4da5b","system_id":"levelo_inurba_marseille","lat":43.29265,"lon":5.38452,"is_reserved":false,"is_disabled":false,"rental_uris":{"android":"levelo://app?vid=47977dcd-35d9-4902-97d7-cb119ec4da5b","ios":"levelo://app?vid=47977dcd-35d9-4902-97d7-cb119ec4da5b"},"vehicle_type_id":"4","last_reported":1707080722,"current_range_meters":30800,"station_id":"ce4bh692rcd13ifvqea0","pricing_plan_id":"free"},{"bike_id":"8a666497-95df-4faa-b0c9-9a1079ccf6b2","system_id":"levelo_inurba_marseille","lat":43.30415,"lon":5.39749,"is_reserved":false,"is_disabled":false,"rental_uris":{"android":"levelo://app?vid=8a666497-95df-4faa-b0c9-9a1079ccf6b2","ios":"levelo://app?vid=8a666497-95df-4faa-b0c9-9a1079ccf6b2"},"vehicle_type_id":"4","last_reported":1707080722,"current_range_meters":10800,"station_id":"ce4bh092rcd13ifvqd20","pricing_plan_id":"free"},{"bike_id":"08128a37-407c-493f-a86f-67a034111734","system_id":"levelo_inurba_marseille","lat":43.292578,"lon":5.384418,"is_reserved":false,"is_disabled":false,"rental_uris":{"android":"levelo://app?vid=08128a37-407c-493f-a86f-67a034111734","ios":"levelo://app?vid=08128a37-407c-493f-a86f-67a034111734"},"vehicle_type_id":"4","last_reported":1707080722,"current_range_meters":31200,"station_id":"ce4bh692rcd13ifvqea0","pricing_plan_id":"free"},{"bike_id":"dbb7148c-b5c9-4561-b322-f316c5fc5ed0","system_id":"levelo_inurba_marseille","lat":43.30422,"lon":5.39755,"is_reserved":false,"is_disabled":false,"rental_uris":{"android":"levelo://app?vid=dbb7148c-b5c9-4561-b322-f316c5fc5ed0","ios":"levelo://app?vid=dbb7148c-b5c9-4561-b322-f316c5fc5ed0"},"vehicle_type_id":"4","last_reported":1707080722,"current_range_meters":31200,"station_id":"ce4bh092rcd13ifvqd20","pricing_plan_id":"free"},{"bike_id":"a414ea05-2955-4f5c-ad76-d9d4a581a15a","system_id":"levelo_inurba_marseille","lat":43.290995,"lon":5.381361,"is_reserved":false,"is_disabled":false,"rental_uris":{"android":"levelo://app?vid=a414ea05-2955-4f5c-ad76-d9d4a581a15a","ios":"levelo://app?vid=a414ea05-2955-4f5c-ad76-d9d4a581a15a"},"vehicle_type_id":"4","last_reported":1707080722,"current_range_meters":31600,"station_id":"ce4bh512rcd13ifvqe2g","pricing_plan_id":"free"},{"bike_id":"ae7e07b7-9681-4939-b20f-1de0a767a00f","system_id":"levelo_inurba_marseille","lat":43.290995,"lon":5.381361,"is_reserved":false,"is_disabled":false,"rental_uris":{"android":"levelo://app?vid=ae7e07b7-9681-4939-b20f-1de0a767a00f","ios":"levelo://app?vid=ae7e07b7-9681-4939-b20f-1de0a767a00f"},"vehicle_type_id":"4","last_reported":1707080722,"current_range_meters":21600,"station_id":"ce4bh512rcd13ifvqe2g","pricing_plan_id":"free"},{"bike_id":"eac22eab-e406-4bb5-adfc-d1ccb622a3d4","system_id":"levelo_inurba_marseille","lat":43.2979,"lon":5.39333,"is_reserved":false,"is_disabled":false,"rental_uris":{"android":"levelo://app?vid=eac22eab-e406-4bb5-adfc-d1ccb622a3d4","ios":"levelo://app?vid=eac22eab-e406-4bb5-adfc-d1ccb622a3d4"},"vehicle_type_id":"4","last_reported":1707080722,"current_range_meters":0,"station_id":"chh1huq6cuj3fo74tm60","pricing_plan_id":"free"},{"bike_id":"48bdcb4f-8d71-452e-99ff-6171ea5b9651","system_id":"levelo_inurba_marseille","lat":43.297815,"lon":5.393548,"is_reserved":false,"is_disabled":false,"rental_uris":{"android":"levelo://app?vid=48bdcb4f-8d71-452e-99ff-6171ea5b9651","ios":"levelo://app?vid=48bdcb4f-8d71-452e-99ff-6171ea5b9651"},"vehicle_type_id":"4","last_reported":1707080722,"current_range_meters":17600,"station_id":"chh1huq6cuj3fo74tm60","pricing_plan_id":"free"},{"bike_id":"9fd860ae-1365-408f-b143-b5e6a0e95d7e","system_id":"levelo_inurba_marseille","lat":43.29784,"lon":5.39337,"is_reserved":false,"is_disabled":false,"rental_uris":{"android":"levelo://app?vid=9fd860ae-1365-408f-b143-b5e6a0e95d7e","ios":"levelo://app?vid=9fd860ae-1365-408f-b143-b5e6a0e95d7e"},"vehicle_type_id":"4","last_reported":1707080722,"current_range_meters":21200,"station_id":"chh1huq6cuj3fo74tm60","pricing_plan_id":"free"},{"bike_id":"b2d64768-2663-4e45-af21-b425e1e93f02","system_id":"levelo_inurba_marseille","lat":43.2979,"lon":5.39344,"is_reserved":false,"is_disabled":false,"rental_uris":{"android":"levelo://app?vid=b2d64768-2663-4e45-af21-b425e1e93f02","ios":"levelo://app?vid=b2d64768-2663-4e45-af21-b425e1e93f02"},"vehicle_type_id":"4","last_reported":1707080722,"current_range_meters":16000,"station_id":"chh1huq6cuj3fo74tm60","pricing_plan_id":"free"},{"bike_id":"383724b6-bd12-4a20-b684-4d58d786ee6a","system_id":"levelo_inurba_marseille","lat":43.297815,"lon":5.393548,"is_reserved":false,"is_disabled":false,"rental_uris":{"android":"levelo://app?vid=383724b6-bd12-4a20-b684-4d58d786ee6a","ios":"levelo://app?vid=383724b6-bd12-4a20-b684-4d58d786ee6a"},"vehicle_type_id":"4","last_reported":1707080722,"current_range_meters":14000,"station_id":"chh1huq6cuj3fo74tm60","pricing_plan_id":"free"},{"bike_id":"70264658-2e92-4dd1-81e1-255da50e5aa3","system_id":"levelo_inurba_marseille","lat":43.297815,"lon":5.393548,"is_reserved":false,"is_disabled":false,"rental_uris":{"android":"levelo://app?vid=70264658-2e92-4dd1-81e1-255da50e5aa3","ios":"levelo://app?vid=70264658-2e92-4dd1-81e1-255da50e5aa3"},"vehicle_type_id":"4","last_reported":1707080722,"current_range_meters":14800,"station_id":"chh1huq6cuj3fo74tm60","pricing_plan_id":"free"},{"bike_id":"fcfc6361-5024-4e2a-ae18-9e03ec4a09d2","system_id":"levelo_inurba_marseille","lat":43.297815,"lon":5.393548,"is_reserved":false,"is_disabled":false,"rental_uris":{"android":"levelo://app?vid=fcfc6361-5024-4e2a-ae18-9e03ec4a09d2","ios":"levelo://app?vid=fcfc6361-5024-4e2a-ae18-9e03ec4a09d2"},"vehicle_type_id":"4","last_reported":1707080722,"current_range_meters":9200,"station_id":"chh1huq6cuj3fo74tm60","pricing_plan_id":"free"},{"bike_id":"36dcf795-21eb-42cc-a480-af859cb90eab","system_id":"levelo_inurba_marseille","lat":43.330442,"lon":5.389148,"is_reserved":false,"is_disabled":false,"rental_uris":{"android":"levelo://app?vid=36dcf795-21eb-42cc-a480-af859cb90eab","ios":"levelo://app?vid=36dcf795-21eb-42cc-a480-af859cb90eab"},"vehicle_type_id":"4","last_reported":1707080722,"current_range_meters":31200,"station_id":"ce4bhr92rcd13ifvqhrg","pricing_plan_id":"free"},{"bike_id":"0c96d0b5-97db-4cc9-8a5a-d96ca1072be4","system_id":"levelo_inurba_marseille","lat":43.33022,"lon":5.39036,"is_reserved":false,"is_disabled":false,"rental_uris":{"android":"levelo://app?vid=0c96d0b5-97db-4cc9-8a5a-d96ca1072be4","ios":"levelo://app?vid=0c96d0b5-97db-4cc9-8a5a-d96ca1072be4"},"vehicle_type_id":"4","last_reported":1707080722,"current_range_meters":22400,"station_id":"ce4bhr92rcd13ifvqhrg","pricing_plan_id":"free"},{"bike_id":"afbd84a6-16b4-457e-a524-5916acf0d4ff","system_id":"levelo_inurba_marseille","lat":43.33025,"lon":5.39033,"is_reserved":false,"is_disabled":false,"rental_uris":{"android":"levelo://app?vid=afbd84a6-16b4-457e-a524-5916acf0d4ff","ios":"levelo://app?vid=afbd84a6-16b4-457e-a524-5916acf0d4ff"},"vehicle_type_id":"4","last_reported":1707080722,"current_range_meters":15200,"station_id":"ce4bhr92rcd13ifvqhrg","pricing_plan_id":"free"},{"bike_id":"c59d3be2-de19-4d66-b080-98ec53e3b789","system_id":"levelo_inurba_marseille","lat":43.289743,"lon":5.378304,"is_reserved":false,"is_disabled":false,"rental_uris":{"android":"levelo://app?vid=c59d3be2-de19-4d66-b080-98ec53e3b789","ios":"levelo://app?vid=c59d3be2-de19-4d66-b080-98ec53e3b789"},"vehicle_type_id":"4","last_reported":1707080722,"current_range_meters":30800,"station_id":"ce4bh9p2rcd13ifvqed0","pricing_plan_id":"free"},{"bike_id":"3f9872e9-f028-4264-aef5-adff0a350603","system_id":"levelo_inurba_marseille","lat":43.330442,"lon":5.389148,"is_reserved":false,"is_disabled":false,"rental_uris":{"android":"levelo://app?vid=3f9872e9-f028-4264-aef5-adff0a350603","ios":"levelo://app?vid=3f9872e9-f028-4264-aef5-adff0a350603"},"vehicle_type_id":"4","last_reported":1707080722,"current_range_meters":12000,"station_id":"ce4bhr92rcd13ifvqhrg","pricing_plan_id":"free"},{"bike_id":"4270893e-7646-43e8-9278-a14d6af412e0","system_id":"levelo_inurba_marseille","lat":43.330442,"lon":5.389148,"is_reserved":false,"is_disabled":false,"rental_uris":{"android":"levelo://app?vid=4270893e-7646-43e8-9278-a14d6af412e0","ios":"levelo://app?vid=4270893e-7646-43e8-9278-a14d6af412e0"},"vehicle_type_id":"4","last_reported":1707080722,"current_range_meters":27600,"station_id":"ce4bhr92rcd13ifvqhrg","pricing_plan_id":"free"},{"bike_id":"97805670-d2b7-48e6-a1bd-7544ad1e4dcf","system_id":"levelo_inurba_marseille","lat":43.330442,"lon":5.389148,"is_reserved":false,"is_disabled":false,"rental_uris":{"android":"levelo://app?vid=97805670-d2b7-48e6-a1bd-7544ad1e4dcf","ios":"levelo://app?vid=97805670-d2b7-48e6-a1bd-7544ad1e4dcf"},"vehicle_type_id":"4","last_reported":1707080722,"current_range_meters":30000,"station_id":"ce4bhr92rcd13ifvqhrg","pricing_plan_id":"free"},{"bike_id":"291aaf63-a488-43b5-8680-f0c35b710160","system_id":"levelo_inurba_marseille","lat":43.33025,"lon":5.39045,"is_reserved":false,"is_disabled":false,"rental_uris":{"android":"levelo://app?vid=291aaf63-a488-43b5-8680-f0c35b710160","ios":"levelo://app?vid=291aaf63-a488-43b5-8680-f0c35b710160"},"vehicle_type_id":"4","last_reported":1707080722,"current_range_meters":22400,"station_id":"ce4bhr92rcd13ifvqhrg","pricing_plan_id":"free"},{"bike_id":"7922278f-e753-46e9-b741-678b4d20bbb8","system_id":"levelo_inurba_marseille","lat":43.2901,"lon":5.381269,"is_reserved":false,"is_disabled":false,"rental_uris":{"android":"levelo://app?vid=7922278f-e753-46e9-b741-678b4d20bbb8","ios":"levelo://app?vid=7922278f-e753-46e9-b741-678b4d20bbb8"},"vehicle_type_id":"4","last_reported":1707080722,"current_range_meters":5200,"station_id":"ce4bh4p2rcd13ifvqe1g","pricing_plan_id":"free"},{"bike_id":"b1be1a91-fdd0-40ce-bb1d-e56181c0d8c9","system_id":"levelo_inurba_marseille","lat":43.2901,"lon":5.381269,"is_reserved":false,"is_disabled":false,"rental_uris":{"android":"levelo://app?vid=b1be1a91-fdd0-40ce-bb1d-e56181c0d8c9","ios":"levelo://app?vid=b1be1a91-fdd0-40ce-bb1d-e56181c0d8c9"},"vehicle_type_id":"4","last_reported":1707080722,"current_range_meters":10800,"station_id":"ce4bh4p2rcd13ifvqe1g","pricing_plan_id":"free"},{"bike_id":"8a7c51c6-76bd-4081-b087-925e7f9ff946","system_id":"levelo_inurba_marseille","lat":43.28856,"lon":5.358371,"is_reserved":false,"is_disabled":false,"rental_uris":{"android":"levelo://app?vid=8a7c51c6-76bd-4081-b087-925e7f9ff946","ios":"levelo://app?vid=8a7c51c6-76bd-4081-b087-925e7f9ff946"},"vehicle_type_id":"4","last_reported":1707080722,"current_range_meters":3200,"station_id":"ce4bhb12rcd13ifvqem0","pricing_plan_id":"free"},{"bike_id":"7907524f-a11a-4b50-b5da-d783ca85d18e","system_id":"levelo_inurba_marseille","lat":43.28856,"lon":5.358371,"is_reserved":false,"is_disabled":false,"rental_uris":{"android":"levelo://app?vid=7907524f-a11a-4b50-b5da-d783ca85d18e","ios":"levelo://app?vid=7907524f-a11a-4b50-b5da-d783ca85d18e"},"vehicle_type_id":"4","last_reported":1707080722,"current_range_meters":0,"station_id":"ce4bhb12rcd13ifvqem0","pricing_plan_id":"free"},{"bike_id":"a5556570-14ec-4be7-8d01-526bca1510fb","system_id":"levelo_inurba_marseille","lat":43.28856,"lon":5.358371,"is_reserved":false,"is_disabled":false,"rental_uris":{"android":"levelo://app?vid=a5556570-14ec-4be7-8d01-526bca1510fb","ios":"levelo://app?vid=a5556570-14ec-4be7-8d01-526bca1510fb"},"vehicle_type_id":"4","last_reported":1707080722,"current_range_meters":18000,"station_id":"ce4bhb12rcd13ifvqem0","pricing_plan_id":"free"},{"bike_id":"2e4b6690-9593-4c7e-8432-1392ed63863f","system_id":"levelo_inurba_marseille","lat":43.28856,"lon":5.358371,"is_reserved":false,"is_disabled":false,"rental_uris":{"android":"levelo://app?vid=2e4b6690-9593-4c7e-8432-1392ed63863f","ios":"levelo://app?vid=2e4b6690-9593-4c7e-8432-1392ed63863f"},"vehicle_type_id":"4","last_reported":1707080722,"current_range_meters":2000,"station_id":"ce4bhb12rcd13ifvqem0","pricing_plan_id":"free"},{"bike_id":"777418ef-da6d-4b2f-ace9-42046b9d65e1","system_id":"levelo_inurba_marseille","lat":43.28849,"lon":5.35872,"is_reserved":false,"is_disabled":false,"rental_uris":{"android":"levelo://app?vid=777418ef-da6d-4b2f-ace9-42046b9d65e1","ios":"levelo://app?vid=777418ef-da6d-4b2f-ace9-42046b9d65e1"},"vehicle_type_id":"4","last_reported":1707080722,"current_range_meters":4000,"station_id":"ce4bhb12rcd13ifvqem0","pricing_plan_id":"free"},{"bike_id":"c71e2a63-7aa3-41e2-b967-ad4b7bae3467","system_id":"levelo_inurba_marseille","lat":43.28856,"lon":5.358371,"is_reserved":false,"is_disabled":false,"rental_uris":{"android":"levelo://app?vid=c71e2a63-7aa3-41e2-b967-ad4b7bae3467","ios":"levelo://app?vid=c71e2a63-7aa3-41e2-b967-ad4b7bae3467"},"vehicle_type_id":"4","last_reported":1707080722,"current_range_meters":2800,"station_id":"ce4bhb12rcd13ifvqem0","pricing_plan_id":"free"},{"bike_id":"eb6c9c7c-a7a4-491d-a668-be71616a9703","system_id":"levelo_inurba_marseille","lat":43.288473,"lon":5.358357,"is_reserved":false,"is_disabled":false,"rental_uris":{"android":"levelo://app?vid=eb6c9c7c-a7a4-491d-a668-be71616a9703","ios":"levelo://app?vid=eb6c9c7c-a7a4-491d-a668-be71616a9703"},"vehicle_type_id":"4","last_reported":1707080722,"current_range_meters":26400,"station_id":"ce4bhb12rcd13ifvqem0","pricing_plan_id":"free"},{"bike_id":"a5669c53-0a26-4ba6-b086-36278082f5ba","system_id":"levelo_inurba_marseille","lat":43.288432,"lon":5.35832,"is_reserved":false,"is_disabled":false,"rental_uris":{"android":"levelo://app?vid=a5669c53-0a26-4ba6-b086-36278082f5ba","ios":"levelo://app?vid=a5669c53-0a26-4ba6-b086-36278082f5ba"},"vehicle_type_id":"4","last_reported":1707080722,"current_range_meters":23600,"station_id":"ce4bhb12rcd13ifvqem0","pricing_plan_id":"free"},{"bike_id":"8440e124-6ba5-462e-ac35-1ecd2f79562a","system_id":"levelo_inurba_marseille","lat":43.312609,"lon":5.401662,"is_reserved":false,"is_disabled":false,"rental_uris":{"android":"levelo://app?vid=8440e124-6ba5-462e-ac35-1ecd2f79562a","ios":"levelo://app?vid=8440e124-6ba5-462e-ac35-1ecd2f79562a"},"vehicle_type_id":"4","last_reported":1707080722,"current_range_meters":23200,"station_id":"ce4bh092rcd13ifvqd30","pricing_plan_id":"free"},{"bike_id":"83ba999c-e089-415f-b2d3-3e81da60599f","system_id":"levelo_inurba_marseille","lat":43.312609,"lon":5.401662,"is_reserved":false,"is_disabled":false,"rental_uris":{"android":"levelo://app?vid=83ba999c-e089-415f-b2d3-3e81da60599f","ios":"levelo://app?vid=83ba999c-e089-415f-b2d3-3e81da60599f"},"vehicle_type_id":"4","last_reported":1707080722,"current_range_meters":29200,"station_id":"ce4bh092rcd13ifvqd30","pricing_plan_id":"free"},{"bike_id":"d417c8e2-0918-4527-adbe-ffc6355f5f58","system_id":"levelo_inurba_marseille","lat":43.312609,"lon":5.401662,"is_reserved":false,"is_disabled":false,"rental_uris":{"android":"levelo://app?vid=d417c8e2-0918-4527-adbe-ffc6355f5f58","ios":"levelo://app?vid=d417c8e2-0918-4527-adbe-ffc6355f5f58"},"vehicle_type_id":"4","last_reported":1707080722,"current_range_meters":10000,"station_id":"ce4bh092rcd13ifvqd30","pricing_plan_id":"free"},{"bike_id":"e8286b09-2b87-4c56-9291-16e467004c88","system_id":"levelo_inurba_marseille","lat":43.312609,"lon":5.401662,"is_reserved":false,"is_disabled":false,"rental_uris":{"android":"levelo://app?vid=e8286b09-2b87-4c56-9291-16e467004c88","ios":"levelo://app?vid=e8286b09-2b87-4c56-9291-16e467004c88"},"vehicle_type_id":"4","last_reported":1707080722,"current_range_meters":0,"station_id":"ce4bh092rcd13ifvqd30","pricing_plan_id":"free"},{"bike_id":"0af38d84-b449-4fe9-8d3a-bb549e971224","system_id":"levelo_inurba_marseille","lat":43.309371,"lon":5.401449,"is_reserved":false,"is_disabled":false,"rental_uris":{"android":"levelo://app?vid=0af38d84-b449-4fe9-8d3a-bb549e971224","ios":"levelo://app?vid=0af38d84-b449-4fe9-8d3a-bb549e971224"},"vehicle_type_id":"4","last_reported":1707080722,"current_range_meters":5200,"station_id":"ce4bgvp2rcd13ifvqct0","pricing_plan_id":"free"},{"bike_id":"749abfdf-7606-42aa-87a4-69f5859403ee","system_id":"levelo_inurba_marseille","lat":43.309371,"lon":5.401449,"is_reserved":false,"is_disabled":false,"rental_uris":{"android":"levelo://app?vid=749abfdf-7606-42aa-87a4-69f5859403ee","ios":"levelo://app?vid=749abfdf-7606-42aa-87a4-69f5859403ee"},"vehicle_type_id":"4","last_reported":1707080722,"current_range_meters":13600,"station_id":"ce4bgvp2rcd13ifvqct0","pricing_plan_id":"free"},{"bike_id":"47dc16ab-0a5e-4cb4-a072-cedc6c1314a7","system_id":"levelo_inurba_marseille","lat":43.309371,"lon":5.401449,"is_reserved":false,"is_disabled":false,"rental_uris":{"android":"levelo://app?vid=47dc16ab-0a5e-4cb4-a072-cedc6c1314a7","ios":"levelo://app?vid=47dc16ab-0a5e-4cb4-a072-cedc6c1314a7"},"vehicle_type_id":"4","last_reported":1707080722,"current_range_meters":12400,"station_id":"ce4bgvp2rcd13ifvqct0","pricing_plan_id":"free"},{"bike_id":"77808c9a-b998-4658-aedb-b25e3472d80a","system_id":"levelo_inurba_marseille","lat":43.309371,"lon":5.401449,"is_reserved":false,"is_disabled":false,"rental_uris":{"android":"levelo://app?vid=77808c9a-b998-4658-aedb-b25e3472d80a","ios":"levelo://app?vid=77808c9a-b998-4658-aedb-b25e3472d80a"},"vehicle_type_id":"4","last_reported":1707080722,"current_range_meters":28800,"station_id":"ce4bgvp2rcd13ifvqct0","pricing_plan_id":"free"},{"bike_id":"c88b544a-7d5f-44cd-9e90-26ffcf31651a","system_id":"levelo_inurba_marseille","lat":43.32686,"lon":5.39586,"is_reserved":false,"is_disabled":false,"rental_uris":{"android":"levelo://app?vid=c88b544a-7d5f-44cd-9e90-26ffcf31651a","ios":"levelo://app?vid=c88b544a-7d5f-44cd-9e90-26ffcf31651a"},"vehicle_type_id":"4","last_reported":1707080722,"current_range_meters":12400,"station_id":"","pricing_plan_id":"free"},{"bike_id":"f2e81707-ac8c-4a5b-99db-026cb037029a","system_id":"levelo_inurba_marseille","lat":43.309371,"lon":5.401449,"is_reserved":false,"is_disabled":false,"rental_uris":{"android":"levelo://app?vid=f2e81707-ac8c-4a5b-99db-026cb037029a","ios":"levelo://app?vid=f2e81707-ac8c-4a5b-99db-026cb037029a"},"vehicle_type_id":"4","last_reported":1707080722,"current_range_meters":23600,"station_id":"ce4bgvp2rcd13ifvqct0","pricing_plan_id":"free"},{"bike_id":"32258fa7-13e8-4e66-875e-93e46fd28aed","system_id":"levelo_inurba_marseille","lat":43.30928,"lon":5.401449,"is_reserved":false,"is_disabled":false,"rental_uris":{"android":"levelo://app?vid=32258fa7-13e8-4e66-875e-93e46fd28aed","ios":"levelo://app?vid=32258fa7-13e8-4e66-875e-93e46fd28aed"},"vehicle_type_id":"4","last_reported":1707080722,"current_range_meters":29600,"station_id":"ce4bgvp2rcd13ifvqct0","pricing_plan_id":"free"},{"bike_id":"d5dcde49-b4e7-46c7-a9fc-d5e75d6f184a","system_id":"levelo_inurba_marseille","lat":43.309371,"lon":5.401449,"is_reserved":false,"is_disabled":false,"rental_uris":{"android":"levelo://app?vid=d5dcde49-b4e7-46c7-a9fc-d5e75d6f184a","ios":"levelo://app?vid=d5dcde49-b4e7-46c7-a9fc-d5e75d6f184a"},"vehicle_type_id":"4","last_reported":1707080722,"current_range_meters":400,"station_id":"ce4bgvp2rcd13ifvqct0","pricing_plan_id":"free"},{"bike_id":"169e3eef-b05b-46a5-87d2-f706d1d68c0b","system_id":"levelo_inurba_marseille","lat":43.30642,"lon":5.401031,"is_reserved":false,"is_disabled":false,"rental_uris":{"android":"levelo://app?vid=169e3eef-b05b-46a5-87d2-f706d1d68c0b","ios":"levelo://app?vid=169e3eef-b05b-46a5-87d2-f706d1d68c0b"},"vehicle_type_id":"4","last_reported":1707080722,"current_range_meters":25600,"station_id":"ce4bh112rcd13ifvqda0","pricing_plan_id":"free"},{"bike_id":"63fb55b5-1897-41e1-b3c4-3273acbbb106","system_id":"levelo_inurba_marseille","lat":43.306554,"lon":5.400958,"is_reserved":false,"is_disabled":false,"rental_uris":{"android":"levelo://app?vid=63fb55b5-1897-41e1-b3c4-3273acbbb106","ios":"levelo://app?vid=63fb55b5-1897-41e1-b3c4-3273acbbb106"},"vehicle_type_id":"4","last_reported":1707080722,"current_range_meters":31200,"station_id":"ce4bh112rcd13ifvqda0","pricing_plan_id":"free"},{"bike_id":"586bbd20-04e2-4797-80ae-8ed348243c57","system_id":"levelo_inurba_marseille","lat":43.306412,"lon":5.401035,"is_reserved":false,"is_disabled":false,"rental_uris":{"android":"levelo://app?vid=586bbd20-04e2-4797-80ae-8ed348243c57","ios":"levelo://app?vid=586bbd20-04e2-4797-80ae-8ed348243c57"},"vehicle_type_id":"4","last_reported":1707080722,"current_range_meters":30400,"station_id":"ce4bh112rcd13ifvqda0","pricing_plan_id":"free"},{"bike_id":"1f45da71-28ee-42fe-bc4f-53d17080d26a","system_id":"levelo_inurba_marseille","lat":43.301117,"lon":5.398795,"is_reserved":false,"is_disabled":false,"rental_uris":{"android":"levelo://app?vid=1f45da71-28ee-42fe-bc4f-53d17080d26a","ios":"levelo://app?vid=1f45da71-28ee-42fe-bc4f-53d17080d26a"},"vehicle_type_id":"4","last_reported":1707080722,"current_range_meters":13600,"station_id":"ce4bh0h2rcd13ifvqd40","pricing_plan_id":"free"},{"bike_id":"b5c8cd35-34dd-45ee-b3e7-3050ef3cbe6a","system_id":"levelo_inurba_marseille","lat":43.337673,"lon":5.374918,"is_reserved":false,"is_disabled":false,"rental_uris":{"android":"levelo://app?vid=b5c8cd35-34dd-45ee-b3e7-3050ef3cbe6a","ios":"levelo://app?vid=b5c8cd35-34dd-45ee-b3e7-3050ef3cbe6a"},"vehicle_type_id":"4","last_reported":1707080722,"current_range_meters":11200,"station_id":"","pricing_plan_id":"free"},{"bike_id":"d31b4f00-b310-4a2a-ac4c-ec3f7ea37043","system_id":"levelo_inurba_marseille","lat":43.286961,"lon":5.373785,"is_reserved":false,"is_disabled":false,"rental_uris":{"android":"levelo://app?vid=d31b4f00-b310-4a2a-ac4c-ec3f7ea37043","ios":"levelo://app?vid=d31b4f00-b310-4a2a-ac4c-ec3f7ea37043"},"vehicle_type_id":"4","last_reported":1707080722,"current_range_meters":31600,"station_id":"ce4bh3p2rcd13ifvqdq0","pricing_plan_id":"free"},{"bike_id":"6721da53-8925-4b6a-8983-862c4221afa2","system_id":"levelo_inurba_marseille","lat":43.298681,"lon":5.397225,"is_reserved":false,"is_disabled":false,"rental_uris":{"android":"levelo://app?vid=6721da53-8925-4b6a-8983-862c4221afa2","ios":"levelo://app?vid=6721da53-8925-4b6a-8983-862c4221afa2"},"vehicle_type_id":"4","last_reported":1707080722,"current_range_meters":19200,"station_id":"ce4bh0h2rcd13ifvqd50","pricing_plan_id":"free"},{"bike_id":"0c2869af-56c9-43d6-9a59-38b28dacd238","system_id":"levelo_inurba_marseille","lat":43.286591,"lon":5.363346,"is_reserved":false,"is_disabled":false,"rental_uris":{"android":"levelo://app?vid=0c2869af-56c9-43d6-9a59-38b28dacd238","ios":"levelo://app?vid=0c2869af-56c9-43d6-9a59-38b28dacd238"},"vehicle_type_id":"4","last_reported":1707080722,"current_range_meters":3600,"station_id":"ce4bhah2rcd13ifvqej0","pricing_plan_id":"free"},{"bike_id":"362c7919-6546-4715-a462-4ebbb454c1d1","system_id":"levelo_inurba_marseille","lat":43.298681,"lon":5.397225,"is_reserved":false,"is_disabled":false,"rental_uris":{"android":"levelo://app?vid=362c7919-6546-4715-a462-4ebbb454c1d1","ios":"levelo://app?vid=362c7919-6546-4715-a462-4ebbb454c1d1"},"vehicle_type_id":"4","last_reported":1707080722,"current_range_meters":22800,"station_id":"ce4bh0h2rcd13ifvqd50","pricing_plan_id":"free"},{"bike_id":"d305468d-3382-4123-b4a1-2a15b35d942c","system_id":"levelo_inurba_marseille","lat":43.286655,"lon":5.36352,"is_reserved":false,"is_disabled":false,"rental_uris":{"android":"levelo://app?vid=d305468d-3382-4123-b4a1-2a15b35d942c","ios":"levelo://app?vid=d305468d-3382-4123-b4a1-2a15b35d942c"},"vehicle_type_id":"4","last_reported":1707080722,"current_range_meters":8400,"station_id":"ce4bhah2rcd13ifvqej0","pricing_plan_id":"free"},{"bike_id":"c7be1fb7-fb9d-45ae-a6c2-8f802b19461d","system_id":"levelo_inurba_marseille","lat":43.298681,"lon":5.397225,"is_reserved":false,"is_disabled":false,"rental_uris":{"android":"levelo://app?vid=c7be1fb7-fb9d-45ae-a6c2-8f802b19461d","ios":"levelo://app?vid=c7be1fb7-fb9d-45ae-a6c2-8f802b19461d"},"vehicle_type_id":"4","last_reported":1707080722,"current_range_meters":25200,"station_id":"ce4bh0h2rcd13ifvqd50","pricing_plan_id":"free"},{"bike_id":"d3c77141-db99-4e33-9afb-da595021ea08","system_id":"levelo_inurba_marseille","lat":43.286961,"lon":5.373785,"is_reserved":false,"is_disabled":false,"rental_uris":{"android":"levelo://app?vid=d3c77141-db99-4e33-9afb-da595021ea08","ios":"levelo://app?vid=d3c77141-db99-4e33-9afb-da595021ea08"},"vehicle_type_id":"4","last_reported":1707080722,"current_range_meters":12800,"station_id":"ce4bh3p2rcd13ifvqdq0","pricing_plan_id":"free"},{"bike_id":"a0a14721-270e-4074-b3e0-98180ca828d5","system_id":"levelo_inurba_marseille","lat":43.295196,"lon":5.39397,"is_reserved":false,"is_disabled":false,"rental_uris":{"android":"levelo://app?vid=a0a14721-270e-4074-b3e0-98180ca828d5","ios":"levelo://app?vid=a0a14721-270e-4074-b3e0-98180ca828d5"},"vehicle_type_id":"4","last_reported":1707080722,"current_range_meters":22000,"station_id":"ce4bh292rcd13ifvqdf0","pricing_plan_id":"free"},{"bike_id":"a409a350-c4c6-49d8-af92-98f847538709","system_id":"levelo_inurba_marseille","lat":43.286961,"lon":5.373785,"is_reserved":false,"is_disabled":false,"rental_uris":{"android":"levelo://app?vid=a409a350-c4c6-49d8-af92-98f847538709","ios":"levelo://app?vid=a409a350-c4c6-49d8-af92-98f847538709"},"vehicle_type_id":"4","last_reported":1707080722,"current_range_meters":19600,"station_id":"ce4bh3p2rcd13ifvqdq0","pricing_plan_id":"free"},{"bike_id":"1ad268b0-e64d-4518-ac82-6c535a7c3ae9","system_id":"levelo_inurba_marseille","lat":43.295196,"lon":5.39397,"is_reserved":false,"is_disabled":false,"rental_uris":{"android":"levelo://app?vid=1ad268b0-e64d-4518-ac82-6c535a7c3ae9","ios":"levelo://app?vid=1ad268b0-e64d-4518-ac82-6c535a7c3ae9"},"vehicle_type_id":"4","last_reported":1707080722,"current_range_meters":2800,"station_id":"ce4bh292rcd13ifvqdf0","pricing_plan_id":"free"},{"bike_id":"f1ad9eb9-b72a-4c3e-ada6-a185e3c30c7c","system_id":"levelo_inurba_marseille","lat":43.286591,"lon":5.363346,"is_reserved":false,"is_disabled":false,"rental_uris":{"android":"levelo://app?vid=f1ad9eb9-b72a-4c3e-ada6-a185e3c30c7c","ios":"levelo://app?vid=f1ad9eb9-b72a-4c3e-ada6-a185e3c30c7c"},"vehicle_type_id":"4","last_reported":1707080722,"current_range_meters":31200,"station_id":"ce4bhah2rcd13ifvqej0","pricing_plan_id":"free"},{"bike_id":"98a9397d-8e6d-47a5-8c1a-533c55ba0b71","system_id":"levelo_inurba_marseille","lat":43.295196,"lon":5.39397,"is_reserved":false,"is_disabled":false,"rental_uris":{"android":"levelo://app?vid=98a9397d-8e6d-47a5-8c1a-533c55ba0b71","ios":"levelo://app?vid=98a9397d-8e6d-47a5-8c1a-533c55ba0b71"},"vehicle_type_id":"4","last_reported":1707080722,"current_range_meters":20800,"station_id":"ce4bh292rcd13ifvqdf0","pricing_plan_id":"free"},{"bike_id":"d809d0e6-ab58-405c-9e3f-5833899b5a8b","system_id":"levelo_inurba_marseille","lat":43.295196,"lon":5.39397,"is_reserved":false,"is_disabled":false,"rental_uris":{"android":"levelo://app?vid=d809d0e6-ab58-405c-9e3f-5833899b5a8b","ios":"levelo://app?vid=d809d0e6-ab58-405c-9e3f-5833899b5a8b"},"vehicle_type_id":"4","last_reported":1707080722,"current_range_meters":30800,"station_id":"ce4bh292rcd13ifvqdf0","pricing_plan_id":"free"},{"bike_id":"e893ba87-ddae-4369-89e3-84ef6788b51e","system_id":"levelo_inurba_marseille","lat":43.295196,"lon":5.39397,"is_reserved":false,"is_disabled":false,"rental_uris":{"android":"levelo://app?vid=e893ba87-ddae-4369-89e3-84ef6788b51e","ios":"levelo://app?vid=e893ba87-ddae-4369-89e3-84ef6788b51e"},"vehicle_type_id":"4","last_reported":1707080722,"current_range_meters":30800,"station_id":"ce4bh292rcd13ifvqdf0","pricing_plan_id":"free"},{"bike_id":"3468834e-403e-476a-96cc-b80fd9b608d9","system_id":"levelo_inurba_marseille","lat":43.295194,"lon":5.39397,"is_reserved":false,"is_disabled":false,"rental_uris":{"android":"levelo://app?vid=3468834e-403e-476a-96cc-b80fd9b608d9","ios":"levelo://app?vid=3468834e-403e-476a-96cc-b80fd9b608d9"},"vehicle_type_id":"4","last_reported":1707080722,"current_range_meters":15200,"station_id":"ce4bh292rcd13ifvqdf0","pricing_plan_id":"free"},{"bike_id":"9e1c3f8e-1e1f-433f-90a3-9ce9bd38a5a7","system_id":"levelo_inurba_marseille","lat":43.295194,"lon":5.39397,"is_reserved":false,"is_disabled":false,"rental_uris":{"android":"levelo://app?vid=9e1c3f8e-1e1f-433f-90a3-9ce9bd38a5a7","ios":"levelo://app?vid=9e1c3f8e-1e1f-433f-90a3-9ce9bd38a5a7"},"vehicle_type_id":"4","last_reported":1707080722,"current_range_meters":26800,"station_id":"ce4bh292rcd13ifvqdf0","pricing_plan_id":"free"},{"bike_id":"76838ced-6c08-4a78-b6e6-dbb603fbe4b5","system_id":"levelo_inurba_marseille","lat":43.295196,"lon":5.39397,"is_reserved":false,"is_disabled":false,"rental_uris":{"android":"levelo://app?vid=76838ced-6c08-4a78-b6e6-dbb603fbe4b5","ios":"levelo://app?vid=76838ced-6c08-4a78-b6e6-dbb603fbe4b5"},"vehicle_type_id":"4","last_reported":1707080722,"current_range_meters":23200,"station_id":"ce4bh292rcd13ifvqdf0","pricing_plan_id":"free"},{"bike_id":"9f6672e9-ec0f-446b-ad44-ce032d373c23","system_id":"levelo_inurba_marseille","lat":43.295194,"lon":5.39397,"is_reserved":false,"is_disabled":false,"rental_uris":{"android":"levelo://app?vid=9f6672e9-ec0f-446b-ad44-ce032d373c23","ios":"levelo://app?vid=9f6672e9-ec0f-446b-ad44-ce032d373c23"},"vehicle_type_id":"4","last_reported":1707080722,"current_range_meters":12400,"station_id":"ce4bh292rcd13ifvqdf0","pricing_plan_id":"free"},{"bike_id":"9366c147-af07-44a2-a94a-6d32d39f8218","system_id":"levelo_inurba_marseille","lat":43.302759,"lon":5.400793,"is_reserved":false,"is_disabled":false,"rental_uris":{"android":"levelo://app?vid=9366c147-af07-44a2-a94a-6d32d39f8218","ios":"levelo://app?vid=9366c147-af07-44a2-a94a-6d32d39f8218"},"vehicle_type_id":"4","last_reported":1707080722,"current_range_meters":7600,"station_id":"ce4bgvh2rcd13ifvqcs0","pricing_plan_id":"free"},{"bike_id":"682db7ed-5d95-4e21-8164-92cfb6eb0d26","system_id":"levelo_inurba_marseille","lat":43.286593,"lon":5.363346,"is_reserved":false,"is_disabled":false,"rental_uris":{"android":"levelo://app?vid=682db7ed-5d95-4e21-8164-92cfb6eb0d26","ios":"levelo://app?vid=682db7ed-5d95-4e21-8164-92cfb6eb0d26"},"vehicle_type_id":"4","last_reported":1707080722,"current_range_meters":20800,"station_id":"ce4bhah2rcd13ifvqej0","pricing_plan_id":"free"},{"bike_id":"a06d6466-397f-4a86-b12f-61ff3d921911","system_id":"levelo_inurba_marseille","lat":43.287184,"lon":5.37937,"is_reserved":false,"is_disabled":false,"rental_uris":{"android":"levelo://app?vid=a06d6466-397f-4a86-b12f-61ff3d921911","ios":"levelo://app?vid=a06d6466-397f-4a86-b12f-61ff3d921911"},"vehicle_type_id":"4","last_reported":1707080722,"current_range_meters":30800,"station_id":"ce4bh9p2rcd13ifvqec0","pricing_plan_id":"free"},{"bike_id":"0c2164e6-9270-4137-ab4d-a8f9ca4c5514","system_id":"levelo_inurba_marseille","lat":43.316828,"lon":5.404723,"is_reserved":false,"is_disabled":false,"rental_uris":{"android":"levelo://app?vid=0c2164e6-9270-4137-ab4d-a8f9ca4c5514","ios":"levelo://app?vid=0c2164e6-9270-4137-ab4d-a8f9ca4c5514"},"vehicle_type_id":"4","last_reported":1707080722,"current_range_meters":20400,"station_id":"ce4bh012rcd13ifvqd00","pricing_plan_id":"free"},{"bike_id":"a7cd7ba1-03f2-4e0f-8a65-6363fa717d53","system_id":"levelo_inurba_marseille","lat":43.316821,"lon":5.404737,"is_reserved":false,"is_disabled":false,"rental_uris":{"android":"levelo://app?vid=a7cd7ba1-03f2-4e0f-8a65-6363fa717d53","ios":"levelo://app?vid=a7cd7ba1-03f2-4e0f-8a65-6363fa717d53"},"vehicle_type_id":"4","last_reported":1707080722,"current_range_meters":13200,"station_id":"ce4bh012rcd13ifvqd00","pricing_plan_id":"free"},{"bike_id":"a185d0ae-bd02-4ae3-b524-d01d2c25aed7","system_id":"levelo_inurba_marseille","lat":43.316828,"lon":5.404723,"is_reserved":false,"is_disabled":false,"rental_uris":{"android":"levelo://app?vid=a185d0ae-bd02-4ae3-b524-d01d2c25aed7","ios":"levelo://app?vid=a185d0ae-bd02-4ae3-b524-d01d2c25aed7"},"vehicle_type_id":"4","last_reported":1707080722,"current_range_meters":0,"station_id":"ce4bh012rcd13ifvqd00","pricing_plan_id":"free"},{"bike_id":"b4bd041e-12d0-4b2a-9246-5ab3ae89acc1","system_id":"levelo_inurba_marseille","lat":43.31698,"lon":5.4047,"is_reserved":false,"is_disabled":false,"rental_uris":{"android":"levelo://app?vid=b4bd041e-12d0-4b2a-9246-5ab3ae89acc1","ios":"levelo://app?vid=b4bd041e-12d0-4b2a-9246-5ab3ae89acc1"},"vehicle_type_id":"4","last_reported":1707080722,"current_range_meters":5600,"station_id":"ce4bh012rcd13ifvqd00","pricing_plan_id":"free"},{"bike_id":"b1252978-b2d4-410e-815f-b83cd02c402b","system_id":"levelo_inurba_marseille","lat":43.31709,"lon":5.40471,"is_reserved":false,"is_disabled":false,"rental_uris":{"android":"levelo://app?vid=b1252978-b2d4-410e-815f-b83cd02c402b","ios":"levelo://app?vid=b1252978-b2d4-410e-815f-b83cd02c402b"},"vehicle_type_id":"4","last_reported":1707080722,"current_range_meters":30800,"station_id":"ce4bh012rcd13ifvqd00","pricing_plan_id":"free"},{"bike_id":"e8bd5e12-fbf4-4872-95ca-a621090b934b","system_id":"levelo_inurba_marseille","lat":43.291994,"lon":5.392907,"is_reserved":false,"is_disabled":false,"rental_uris":{"android":"levelo://app?vid=e8bd5e12-fbf4-4872-95ca-a621090b934b","ios":"levelo://app?vid=e8bd5e12-fbf4-4872-95ca-a621090b934b"},"vehicle_type_id":"4","last_reported":1707080722,"current_range_meters":9600,"station_id":"ce4bh192rcd13ifvqdd0","pricing_plan_id":"free"},{"bike_id":"3736f762-3495-441a-ae3b-406a2a664208","system_id":"levelo_inurba_marseille","lat":43.291994,"lon":5.392907,"is_reserved":false,"is_disabled":false,"rental_uris":{"android":"levelo://app?vid=3736f762-3495-441a-ae3b-406a2a664208","ios":"levelo://app?vid=3736f762-3495-441a-ae3b-406a2a664208"},"vehicle_type_id":"4","last_reported":1707080722,"current_range_meters":31600,"station_id":"ce4bh192rcd13ifvqdd0","pricing_plan_id":"free"},{"bike_id":"8946d89d-045f-44bf-9be1-b1e027890ef3","system_id":"levelo_inurba_marseille","lat":43.291994,"lon":5.392907,"is_reserved":false,"is_disabled":false,"rental_uris":{"android":"levelo://app?vid=8946d89d-045f-44bf-9be1-b1e027890ef3","ios":"levelo://app?vid=8946d89d-045f-44bf-9be1-b1e027890ef3"},"vehicle_type_id":"4","last_reported":1707080722,"current_range_meters":8800,"station_id":"ce4bh192rcd13ifvqdd0","pricing_plan_id":"free"},{"bike_id":"c212c8c2-af5d-46ed-ae3a-dd84ef825d2e","system_id":"levelo_inurba_marseille","lat":43.291994,"lon":5.392907,"is_reserved":false,"is_disabled":false,"rental_uris":{"android":"levelo://app?vid=c212c8c2-af5d-46ed-ae3a-dd84ef825d2e","ios":"levelo://app?vid=c212c8c2-af5d-46ed-ae3a-dd84ef825d2e"},"vehicle_type_id":"4","last_reported":1707080722,"current_range_meters":8800,"station_id":"ce4bh192rcd13ifvqdd0","pricing_plan_id":"free"},{"bike_id":"55c33ddd-a0fd-4445-a99a-85d064b17025","system_id":"levelo_inurba_marseille","lat":43.291994,"lon":5.392907,"is_reserved":false,"is_disabled":false,"rental_uris":{"android":"levelo://app?vid=55c33ddd-a0fd-4445-a99a-85d064b17025","ios":"levelo://app?vid=55c33ddd-a0fd-4445-a99a-85d064b17025"},"vehicle_type_id":"4","last_reported":1707080722,"current_range_meters":26400,"station_id":"ce4bh192rcd13ifvqdd0","pricing_plan_id":"free"},{"bike_id":"01287ab5-b2e3-4dbd-9752-e9d8923fea17","system_id":"levelo_inurba_marseille","lat":43.291994,"lon":5.392907,"is_reserved":false,"is_disabled":false,"rental_uris":{"android":"levelo://app?vid=01287ab5-b2e3-4dbd-9752-e9d8923fea17","ios":"levelo://app?vid=01287ab5-b2e3-4dbd-9752-e9d8923fea17"},"vehicle_type_id":"4","last_reported":1707080722,"current_range_meters":11600,"station_id":"ce4bh192rcd13ifvqdd0","pricing_plan_id":"free"},{"bike_id":"da081a0c-b851-4574-a6dc-9a25cfde35f2","system_id":"levelo_inurba_marseille","lat":43.291994,"lon":5.392907,"is_reserved":false,"is_disabled":false,"rental_uris":{"android":"levelo://app?vid=da081a0c-b851-4574-a6dc-9a25cfde35f2","ios":"levelo://app?vid=da081a0c-b851-4574-a6dc-9a25cfde35f2"},"vehicle_type_id":"4","last_reported":1707080722,"current_range_meters":6800,"station_id":"ce4bh192rcd13ifvqdd0","pricing_plan_id":"free"},{"bike_id":"799d91a4-4aa3-4677-9398-69c6644e1413","system_id":"levelo_inurba_marseille","lat":43.291994,"lon":5.392907,"is_reserved":false,"is_disabled":false,"rental_uris":{"android":"levelo://app?vid=799d91a4-4aa3-4677-9398-69c6644e1413","ios":"levelo://app?vid=799d91a4-4aa3-4677-9398-69c6644e1413"},"vehicle_type_id":"4","last_reported":1707080722,"current_range_meters":30000,"station_id":"ce4bh192rcd13ifvqdd0","pricing_plan_id":"free"},{"bike_id":"880c1adf-4dff-4872-befc-7c059d295e6c","system_id":"levelo_inurba_marseille","lat":43.291994,"lon":5.392907,"is_reserved":false,"is_disabled":false,"rental_uris":{"android":"levelo://app?vid=880c1adf-4dff-4872-befc-7c059d295e6c","ios":"levelo://app?vid=880c1adf-4dff-4872-befc-7c059d295e6c"},"vehicle_type_id":"4","last_reported":1707080722,"current_range_meters":22800,"station_id":"ce4bh192rcd13ifvqdd0","pricing_plan_id":"free"},