{"last_updated":1741882340,"ttl":60,"version":"2.2","data":{"bikes":[{"bike_id":"1d1290cf-da89-4e5e-9676-250f65cf5c33","system_id":"levelo_inurba_marseille","lat":43.2955,"lon":5.42281,"is_reserved":false,"is_disabled":false,"rental_uris":{"android":"levelo://app?vid=1d1290cf-da89-4e5e-9676-250f65cf5c33","ios":"levelo://app?vid=1d1290cf-da89-4e5e-9676-250f65cf5c33"},"vehicle_type_id":"4","last_reported":1741882340,"current_range_meters":2800,"station_id":"ce4bhph2rcd13ifvqhdg","pricing_plan_id":"cebpf4jnsgd1na2vs0mg"},{"bike_id":"673c8e25-b8fc-4e0f-92ad-90b16344a7d3","system_id":"levelo_inurba_marseille","lat":43.29024,"lon":5.38125,"is_reserved":false,"is_disabled":false,"rental_uris":{"android":"levelo://app?vid=673c8e25-b8fc-4e0f-92ad-90b16344a7d3","ios":"levelo://app?vid=673c8e25-b8fc-4e0f-92ad-90b16344a7d3"},"vehicle_type_id":"4","last_reported":1741882340,"current_range_meters":2800,"station_id":"ce4bh4p2rcd13ifvqe1g","pricing_plan_id":"cebpf4jnsgd1na2vs0mg"},{"bike_id":"e1cd5735-7c0d-4c9d-86fb-25a6650a927a","system_id":"levelo_inurba_marseille","lat":43.25585,"lon":5.38223,"is_reserved":false,"is_disabled":false,"rental_uris":{"android":"levelo://app?vid=e1cd5735-7c0d-4c9d-86fb-25a6650a927a","ios":"levelo://app?vid=e1cd5735-7c0d-4c9d-86fb-25a6650a927a"},"vehicle_type_id":"4","last_reported":1741882340,"current_range_meters":2000,"station_id":"ce4bhih2rcd13ifvqfs0","pricing_plan_id":"cebpf4jnsgd1na2vs0mg"},{"bike_id":"bb2f008a-fbf1-4bcf-a2e8-1a20badd35a3","system_id":"levelo_inurba_marseille","lat":43.29534,"lon":5.38545,"is_reserved":false,"is_disabled":false,"rental_uris":{"android":"levelo://app?vid=bb2f008a-fbf1-4bcf-a2e8-1a20badd35a3","ios":"levelo://app?vid=bb2f008a-fbf1-4bcf-a2e8-1a20badd35a3"},"vehicle_type_id":"4","last_reported":1741882340,"current_range_meters":3600,"station_id":"ce4bgih2rcd13ifvqba0","pricing_plan_id":"cebpf4jnsgd1na2vs0mg"},{"bike_id":"624b9971-2691-4d9a-8412-9ecd6feb3d24","system_id":"levelo_inurba_marseille","lat":43.24649,"lon":5.3889,"is_reserved":false,"is_disabled":false,"rental_uris":{"android":"levelo://app?vid=624b9971-2691-4d9a-8412-9ecd6feb3d24","ios":"levelo://app?vid=624b9971-2691-4d9a-8412-9ecd6feb3d24"},"vehicle_type_id":"4","last_reported":1741882340,"current_range_meters":3600,"station_id":"ce4bhg12rcd13ifvqf60","pricing_plan_id":"cebpf4jnsgd1na2vs0mg"},{"bike_id":"204f295d-826e-453b-9105-f2ef990a6a91","system_id":"levelo_inurba_marseille","lat":43.29056,"lon":5.35914,"is_reserved":false,"is_disabled":false,"rental_uris":{"android":"levelo://app?vid=204f295d-826e-453b-9105-f2ef990a6a91","ios":"levelo://app?vid=204f295d-826e-453b-9105-f2ef990a6a91"},"vehicle_type_id":"4","last_reported":1741882340,"current_range_meters":3200,"station_id":"ce4bha92rcd13ifvqeg0","pricing_plan_id":"cebpf4jnsgd1na2vs0mg"},{"bike_id":"adbda2a1-ca40-4a09-829f-0e2a70c54f1c","system_id":"levelo_inurba_marseille","lat":43.2835,"lon":5.38106,"is_reserved":false,"is_disabled":false,"rental_uris":{"android":"levelo://app?vid=adbda2a1-ca40-4a09-829f-0e2a70c54f1c","ios":"levelo://app?vid=adbda2a1-ca40-4a09-829f-0e2a70c54f1c"},"vehicle_type_id":"4","last_reported":1741882340,"current_range_meters":3600,"station_id":"ce4bh412rcd13ifvqdr0","pricing_plan_id":"cebpf4jnsgd1na2vs0mg"},{"bike_id":"db15fbfd-f47d-4001-8e32-720d63f11405","system_id":"levelo_inurba_marseille","lat":43.3342,"lon":5.40076,"is_reserved":false,"is_disabled":false,"rental_uris":{"android":"levelo://app?vid=db15fbfd-f47d-4001-8e32-720d63f11405","ios":"levelo://app?vid=db15fbfd-f47d-4001-8e32-720d63f11405"},"vehicle_type_id":"4","last_reported":1741882340,"current_range_meters":4000,"station_id":"","pricing_plan_id":"cebpf4jnsgd1na2vs0mg"},{"bike_id":"0d1030b4-7a9e-42fb-a00b-4c7fbc1abd65","system_id":"levelo_inurba_marseille","lat":43.27617,"lon":5.36108,"is_reserved":false,"is_disabled":false,"rental_uris":{"android":"levelo://app?vid=0d1030b4-7a9e-42fb-a00b-4c7fbc1abd65","ios":"levelo://app?vid=0d1030b4-7a9e-42fb-a00b-4c7fbc1abd65"},"vehicle_type_id":"4","last_reported":1741882340,"current_range_meters":4000,"station_id":"ce4bgj92rcd13ifvqbe0","pricing_plan_id":"cebpf4jnsgd1na2vs0mg"},{"bike_id":"b7750009-6836-4f4d-8e60-d86893e18e14","system_id":"levelo_inurba_marseille","lat":43.31068,"lon":5.37103,"is_reserved":false,"is_disabled":false,"rental_uris":{"android":"levelo://app?vid=b7750009-6836-4f4d-8e60-d86893e18e14","ios":"levelo://app?vid=b7750009-6836-4f4d-8e60-d86893e18e14"},"vehicle_type_id":"4","last_reported":1741882340,"current_range_meters":4000,"station_id":"","pricing_plan_id":"cebpf4jnsgd1na2vs0mg"},{"bike_id":"db2bdd25-d774-4bf6-87f5-1c5357cf7d5a","system_id":"levelo_inurba_marseille","lat":43.28314,"lon":5.38095,"is_reserved":false,"is_disabled":false,"rental_uris":{"android":"levelo://app?vid=db2bdd25-d774-4bf6-87f5-1c5357cf7d5a","ios":"levelo://app?vid=db2bdd25-d774-4bf6-87f5-1c5357cf7d5a"},"vehicle_type_id":"4","last_reported":1741882340,"current_range_meters":4000,"station_id":"ce4bh412rcd13ifvqdr0","pricing_plan_id":"cebpf4jnsgd1na2vs0mg"},{"bike_id":"d506a175-d16b-417e-8a3a-f2241e0e262e","system_id":"levelo_inurba_marseille","lat":43.30918,"lon":5.379,"is_reserved":false,"is_disabled":false,"rental_uris":{"android":"levelo://app?vid=d506a175-d16b-417e-8a3a-f2241e0e262e","ios":"levelo://app?vid=d506a175-d16b-417e-8a3a-f2241e0e262e"},"vehicle_type_id":"4","last_reported":1741882340,"current_range_meters":4400,"station_id":"","pricing_plan_id":"cebpf4jnsgd1na2vs0mg"},{"bike_id":"91919df0-a609-4174-9c4e-96f0a7ea657d","system_id":"levelo_inurba_marseille","lat":43.26578,"lon":5.39018,"is_reserved":false,"is_disabled":false,"rental_uris":{"android":"levelo://app?vid=91919df0-a609-4174-9c4e-96f0a7ea657d","ios":"levelo://app?vid=91919df0-a609-4174-9c4e-96f0a7ea657d"},"vehicle_type_id":"4","last_reported":1741882340,"current_range_meters":4800,"station_id":"ce4bhe12rcd13ifvqf30","pricing_plan_id":"cebpf4jnsgd1na2vs0mg"},{"bike_id":"3e258b50-260e-4770-a0bd-9a4d42b137f6","system_id":"levelo_inurba_marseille","lat":43.24801,"lon":5.37463,"is_reserved":false,"is_disabled":false,"rental_uris":{"android":"levelo://app?vid=3e258b50-260e-4770-a0bd-9a4d42b137f6","ios":"levelo://app?vid=3e258b50-260e-4770-a0bd-9a4d42b137f6"},"vehicle_type_id":"4","last_reported":1741882340,"current_range_meters":4400,"station_id":"ce4bhgh2rcd13ifvqfb0","pricing_plan_id":"cebpf4jnsgd1na2vs0mg"},{"bike_id":"1eda09f9-7928-4493-a4d9-0caede03b8f1","system_id":"levelo_inurba_marseille","lat":43.28126,"lon":5.38327,"is_reserved":false,"is_disabled":false,"rental_uris":{"android":"levelo://app?vid=1eda09f9-7928-4493-a4d9-0caede03b8f1","ios":"levelo://app?vid=1eda09f9-7928-4493-a4d9-0caede03b8f1"},"vehicle_type_id":"4","last_reported":1741882340,"current_range_meters":4400,"station_id":"ce4bgjh2rcd13ifvqbf0","pricing_plan_id":"cebpf4jnsgd1na2vs0mg"},{"bike_id":"d9fbb953-140c-4d25-bdec-8af757eb3e95","system_id":"levelo_inurba_marseille","lat":43.26804,"lon":5.40263,"is_reserved":false,"is_disabled":false,"rental_uris":{"android":"levelo://app?vid=d9fbb953-140c-4d25-bdec-8af757eb3e95","ios":"levelo://app?vid=d9fbb953-140c-4d25-bdec-8af757eb3e95"},"vehicle_type_id":"4","last_reported":1741882340,"current_range_meters":4800,"station_id":"ce501612rcd8frsf0b60","pricing_plan_id":"cebpf4jnsgd1na2vs0mg"},{"bike_id":"1037cff6-822c-49d5-9283-5c846265ca63","system_id":"levelo_inurba_marseille","lat":43.26228,"lon":5.40454,"is_reserved":false,"is_disabled":false,"rental_uris":{"android":"levelo://app?vid=1037cff6-822c-49d5-9283-5c846265ca63","ios":"levelo://app?vid=1037cff6-822c-49d5-9283-5c846265ca63"},"vehicle_type_id":"4","last_reported":1741882340,"current_range_meters":4800,"station_id":"ce4bhmh2rcd13ifvqgmg","pricing_plan_id":"cebpf4jnsgd1na2vs0mg"},{"bike_id":"3f4cecea-72af-4138-a111-a8b527bd52fe","system_id":"levelo_inurba_marseille","lat":43.31718,"lon":5.42396,"is_reserved":false,"is_disabled":false,"rental_uris":{"android":"levelo://app?vid=3f4cecea-72af-4138-a111-a8b527bd52fe","ios":"levelo://app?vid=3f4cecea-72af-4138-a111-a8b527bd52fe"},"vehicle_type_id":"4","last_reported":1741882340,"current_range_meters":4400,"station_id":"ce4bhp92rcd13ifvqhbg","pricing_plan_id":"cebpf4jnsgd1na2vs0mg"},{"bike_id":"21fef093-a9dd-474c-bd8d-4f81ea646a81","system_id":"levelo_inurba_marseille","lat":43.26496,"lon":5.39533,"is_reserved":false,"is_disabled":false,"rental_uris":{"android":"levelo://app?vid=21fef093-a9dd-474c-bd8d-4f81ea646a81","ios":"levelo://app?vid=21fef093-a9dd-474c-bd8d-4f81ea646a81"},"vehicle_type_id":"4","last_reported":1741882340,"current_range_meters":4800,"station_id":"ce4bhi12rcd13ifvqfq0","pricing_plan_id":"cebpf4jnsgd1na2vs0mg"},{"bike_id":"6d7ccffa-d11b-4106-a503-c64dafa22e9b","system_id":"levelo_inurba_marseille","lat":43.29258,"lon":5.38431,"is_reserved":false,"is_disabled":false,"rental_uris":{"android":"levelo://app?vid=6d7ccffa-d11b-4106-a503-c64dafa22e9b","ios":"levelo://app?vid=6d7ccffa-d11b-4106-a503-c64dafa22e9b"},"vehicle_type_id":"4","last_reported":1741882340,"current_range_meters":4800,"station_id":"ce4bh692rcd13ifvqea0","pricing_plan_id":"cebpf4jnsgd1na2vs0mg"},{"bike_id":"ede9cdcd-d1e4-4cc0-90bd-cfb7cc135dc4","system_id":"levelo_inurba_marseille","lat":43.24177,"lon":5.39746,"is_reserved":false,"is_disabled":true,"rental_uris":{"android":"levelo://app?vid=ede9cdcd-d1e4-4cc0-90bd-cfb7cc135dc4","ios":"levelo://app?vid=ede9cdcd-d1e4-4cc0-90bd-cfb7cc135dc4"},"vehicle_type_id":"4","last_reported":1741882340,"current_range_meters":5600,"station_id":"ce4bhn12rcd13ifvqgpg","pricing_plan_id":"cebpf4jnsgd1na2vs0mg"},{"bike_id":"81ac0329-83b7-4a31-b8d0-f379d17c3e01","system_id":"levelo_inurba_marseille","lat":43.32331,"lon":5.40616,"is_reserved":false,"is_disabled":false,"rental_uris":{"android":"levelo://app?vid=81ac0329-83b7-4a31-b8d0-f379d17c3e01","ios":"levelo://app?vid=81ac0329-83b7-4a31-b8d0-f379d17c3e01"},"vehicle_type_id":"4","last_reported":1741882340,"current_range_meters":5600,"station_id":"ce4bhq92rcd13ifvqhjg","pricing_plan_id":"cebpf4jnsgd1na2vs0mg"},{"bike_id":"e65f842e-69b2-436a-a201-83a06add3a55","system_id":"levelo_inurba_marseille","lat":43.250114,"lon":5.389166,"is_reserved":false,"is_disabled":false,"rental_uris":{"android":"levelo://app?vid=e65f842e-69b2-436a-a201-83a06add3a55","ios":"levelo://app?vid=e65f842e-69b2-436a-a201-83a06add3a55"},"vehicle_type_id":"4","last_reported":1741882340,"current_range_meters":5600,"station_id":"ce4bhgp2rcd13ifvqfd0","pricing_plan_id":"cebpf4jnsgd1na2vs0mg"},{"bike_id":"8d616053-dbeb-464d-9881-1a1dc94b9f3d","system_id":"levelo_inurba_marseille","lat":43.29205,"lon":5.39324,"is_reserved":false,"is_disabled":false,"rental_uris":{"android":"levelo://app?vid=8d616053-dbeb-464d-9881-1a1dc94b9f3d","ios":"levelo://app?vid=8d616053-dbeb-464d-9881-1a1dc94b9f3d"},"vehicle_type_id":"4","last_reported":1741882340,"current_range_meters":6000,"station_id":"ce4bh192rcd13ifvqdd0","pricing_plan_id":"cebpf4jnsgd1na2vs0mg"},{"bike_id":"253ccc1a-4f5d-4c30-aa6f-9b89ff8f6409","system_id":"levelo_inurba_marseille","lat":43.30115,"lon":5.39871,"is_reserved":false,"is_disabled":false,"rental_uris":{"android":"levelo://app?vid=253ccc1a-4f5d-4c30-aa6f-9b89ff8f6409","ios":"levelo://app?vid=253ccc1a-4f5d-4c30-aa6f-9b89ff8f6409"},"vehicle_type_id":"4","last_reported":1741882340,"current_range_meters":6000,"station_id":"ce4bh0h2rcd13ifvqd40","pricing_plan_id":"cebpf4jnsgd1na2vs0mg"},{"bike_id":"0e1454f0-c501-449b-b78c-ddfc8f4d9aab","system_id":"levelo_inurba_marseille","lat":43.33768,"lon":5.3749,"is_reserved":false,"is_disabled":false,"rental_uris":{"android":"levelo://app?vid=0e1454f0-c501-449b-b78c-ddfc8f4d9aab","ios":"levelo://app?vid=0e1454f0-c501-449b-b78c-ddfc8f4d9aab"},"vehicle_type_id":"4","last_reported":1741882340,"current_range_meters":6000,"station_id":"","pricing_plan_id":"cebpf4jnsgd1na2vs0mg"},{"bike_id":"2a69e639-a0be-4da5-b497-a75be2f56c13","system_id":"levelo_inurba_marseille","lat":43.25123,"lon":5.39512,"is_reserved":false,"is_disabled":false,"rental_uris":{"android":"levelo://app?vid=2a69e639-a0be-4da5-b497-a75be2f56c13","ios":"levelo://app?vid=2a69e639-a0be-4da5-b497-a75be2f56c13"},"vehicle_type_id":"4","last_reported":1741882340,"current_range_meters":6000,"station_id":"ce4bhm12rcd13ifvqgkg","pricing_plan_id":"cebpf4jnsgd1na2vs0mg"},{"bike_id":"a664d1b4-63b5-4224-a83b-38effcbc9814","system_id":"levelo_inurba_marseille","lat":43.3088,"lon":5.39636,"is_reserved":false,"is_disabled":false,"rental_uris":{"android":"levelo://app?vid=a664d1b4-63b5-4224-a83b-38effcbc9814","ios":"levelo://app?vid=a664d1b4-63b5-4224-a83b-38effcbc9814"},"vehicle_type_id":"4","last_reported":1741882340,"current_range_meters":6000,"station_id":"ce4bh012rcd13ifvqcv0","pricing_plan_id":"cebpf4jnsgd1na2vs0mg"},{"bike_id":"8a5be889-430b-4f3c-ad97-bb7a2b97f12e","system_id":"levelo_inurba_marseille","lat":43.29546,"lon":5.4228,"is_reserved":false,"is_disabled":false,"rental_uris":{"android":"levelo://app?vid=8a5be889-430b-4f3c-ad97-bb7a2b97f12e","ios":"levelo://app?vid=8a5be889-430b-4f3c-ad97-bb7a2b97f12e"},"vehicle_type_id":"4","last_reported":1741882340,"current_range_meters":6400,"station_id":"ce4bhph2rcd13ifvqhdg","pricing_plan_id":"cebpf4jnsgd1na2vs0mg"},{"bike_id":"f1077625-0232-49a4-a55f-c012ff95a0be","system_id":"levelo_inurba_marseille","lat":43.23963,"lon":5.36647,"is_reserved":false,"is_disabled":false,"rental_uris":{"android":"levelo://app?vid=f1077625-0232-49a4-a55f-c012ff95a0be","ios":"levelo://app?vid=f1077625-0232-49a4-a55f-c012ff95a0be"},"vehicle_type_id":"4","last_reported":1741882340,"current_range_meters":6400,"station_id":"ce4bhi12rcd13ifvqfp0","pricing_plan_id":"cebpf4jnsgd1na2vs0mg"},{"bike_id":"616a435f-89dc-43cc-870e-cd4d9550de2e","system_id":"levelo_inurba_marseille","lat":43.31415,"lon":5.3763,"is_reserved":false,"is_disabled":false,"rental_uris":{"android":"levelo://app?vid=616a435f-89dc-43cc-870e-cd4d9550de2e","ios":"levelo://app?vid=616a435f-89dc-43cc-870e-cd4d9550de2e"},"vehicle_type_id":"4","last_reported":1741882340,"current_range_meters":6400,"station_id":"","pricing_plan_id":"cebpf4jnsgd1na2vs0mg"},{"bike_id":"3a6f4a08-7097-425e-ba9b-503eb294df3b","system_id":"levelo_inurba_marseille","lat":43.278173,"lon":5.407173,"is_reserved":false,"is_disabled":false,"rental_uris":{"android":"levelo://app?vid=3a6f4a08-7097-425e-ba9b-503eb294df3b","ios":"levelo://app?vid=3a6f4a08-7097-425e-ba9b-503eb294df3b"},"vehicle_type_id":"4","last_reported":1741882340,"current_range_meters":6400,"station_id":"ce4bhnh2rcd13ifvqgtg","pricing_plan_id":"cebpf4jnsgd1na2vs0mg"},{"bike_id":"cb567277-cc92-473f-ba27-13f9d7cbb613","system_id":"levelo_inurba_marseille","lat":43.25015,"lon":5.38916,"is_reserved":false,"is_disabled":false,"rental_uris":{"android":"levelo://app?vid=cb567277-cc92-473f-ba27-13f9d7cbb613","ios":"levelo://app?vid=cb567277-cc92-473f-ba27-13f9d7cbb613"},"vehicle_type_id":"4","last_reported":1741882340,"current_range_meters":6400,"station_id":"ce4bhgp2rcd13ifvqfd0","pricing_plan_id":"cebpf4jnsgd1na2vs0mg"},{"bike_id":"cef0be39-cdac-4c22-99a1-d2643fb788b5","system_id":"levelo_inurba_marseille","lat":43.29885,"lon":5.38904,"is_reserved":false,"is_disabled":false,"rental_uris":{"android":"levelo://app?vid=cef0be39-cdac-4c22-99a1-d2643fb788b5","ios":"levelo://app?vid=cef0be39-cdac-4c22-99a1-d2643fb788b5"},"vehicle_type_id":"4","last_reported":1741882340,"current_range_meters":6400,"station_id":"ce4bh392rcd13ifvqdl0","pricing_plan_id":"cebpf4jnsgd1na2vs0mg"},{"bike_id":"39df283f-35a5-4c44-9f0d-6dd6923a19a4","system_id":"levelo_inurba_marseille","lat":43.3211,"lon":5.36766,"is_reserved":false,"is_disabled":false,"rental_uris":{"android":"levelo://app?vid=39df283f-35a5-4c44-9f0d-6dd6923a19a4","ios":"levelo://app?vid=39df283f-35a5-4c44-9f0d-6dd6923a19a4"},"vehicle_type_id":"4","last_reported":1741882340,"current_range_meters":6400,"station_id":"ce4bhrh2rcd13ifvqhug","pricing_plan_id":"cebpf4jnsgd1na2vs0mg"},{"bike_id":"32aebc3a-14c2-412a-9dd1-139c73270c7f","system_id":"levelo_inurba_marseille","lat":43.25003,"lon":5.3892,"is_reserved":false,"is_disabled":false,"rental_uris":{"android":"levelo://app?vid=32aebc3a-14c2-412a-9dd1-139c73270c7f","ios":"levelo://app?vid=32aebc3a-14c2-412a-9dd1-139c73270c7f"},"vehicle_type_id":"4","last_reported":1741882340,"current_range_meters":6800,"station_id":"ce4bhgp2rcd13ifvqfd0","pricing_plan_id":"cebpf4jnsgd1na2vs0mg"},{"bike_id":"57dd54e3-4a62-4d62-a03b-5320a176e579","system_id":"levelo_inurba_marseille","lat":43.24172,"lon":5.36405,"is_reserved":false,"is_disabled":false,"rental_uris":{"android":"levelo://app?vid=57dd54e3-4a62-4d62-a03b-5320a176e579","ios":"levelo://app?vid=57dd54e3-4a62-4d62-a03b-5320a176e579"},"vehicle_type_id":"4","last_reported":1741882340,"current_range_meters":6800,"station_id":"cpo36qri1sfpv3e86is0","pricing_plan_id":"cebpf4jnsgd1na2vs0mg"},{"bike_id":"50321210-a982-4767-8b93-b454a3ce0001","system_id":"levelo_inurba_marseille","lat":43.26058,"lon":5.39401,"is_reserved":false,"is_disabled":false,"rental_uris":{"android":"levelo://app?vid=50321210-a982-4767-8b93-b454a3ce0001","ios":"levelo://app?vid=50321210-a982-4767-8b93-b454a3ce0001"},"vehicle_type_id":"4","last_reported":1741882340,"current_range_meters":6800,"station_id":"ce4bhh92rcd13ifvqfj0","pricing_plan_id":"cebpf4jnsgd1na2vs0mg"},{"bike_id":"49edbadd-62d0-4cf0-8144-b83b73a691bd","system_id":"levelo_inurba_marseille","lat":43.2936,"lon":5.37846,"is_reserved":false,"is_disabled":false,"rental_uris":{"android":"levelo://app?vid=49edbadd-62d0-4cf0-8144-b83b73a691bd","ios":"levelo://app?vid=49edbadd-62d0-4cf0-8144-b83b73a691bd"},"vehicle_type_id":"4","last_reported":1741882340,"current_range_meters":6800,"station_id":"ce4bgjh2rcd13ifvqbf0","pricing_plan_id":"cebpf4jnsgd1na2vs0mg"},{"bike_id":"99cd4659-bcc4-4174-a160-083ddf3d852d","system_id":"levelo_inurba_marseille","lat":43.27919,"lon":5.39587,"is_reserved":false,"is_disabled":false,"rental_uris":{"android":"levelo://app?vid=99cd4659-bcc4-4174-a160-083ddf3d852d","ios":"levelo://app?vid=99cd4659-bcc4-4174-a160-083ddf3d852d"},"vehicle_type_id":"4","last_reported":1741882340,"current_range_meters":6800,"station_id":"ce4bhf92rcd13ifvqf40","pricing_plan_id":"cebpf4jnsgd1na2vs0mg"},{"bike_id":"7d07957f-27c9-4e8f-a808-d55dd0845db8","system_id":"levelo_inurba_marseille","lat":43.26213,"lon":5.40479,"is_reserved":false,"is_disabled":false,"rental_uris":{"android":"levelo://app?vid=7d07957f-27c9-4e8f-a808-d55dd0845db8","ios":"levelo://app?vid=7d07957f-27c9-4e8f-a808-d55dd0845db8"},"vehicle_type_id":"4","last_reported":1741882340,"current_range_meters":6800,"station_id":"ce4bhmh2rcd13ifvqgmg","pricing_plan_id":"cebpf4jnsgd1na2vs0mg"},{"bike_id":"3f88af1a-8c2a-4742-bc6b-bf606f110521","system_id":"levelo_inurba_marseille","lat":43.32287,"lon":5.38264,"is_reserved":false,"is_disabled":false,"rental_uris":{"android":"levelo://app?vid=3f88af1a-8c2a-4742-bc6b-bf606f110521","ios":"levelo://app?vid=3f88af1a-8c2a-4742-bc6b-bf606f110521"},"vehicle_type_id":"4","last_reported":1741882340,"current_range_meters":6800,"station_id":"ce4bhr12rcd13ifvqhqg","pricing_plan_id":"cebpf4jnsgd1na2vs0mg"},{"bike_id":"d5ae4600-476e-4c8a-b248-76c73ec9f040","system_id":"levelo_inurba_marseille","lat":43.24999,"lon":5.38915,"is_reserved":false,"is_disabled":false,"rental_uris":{"android":"levelo://app?vid=d5ae4600-476e-4c8a-b248-76c73ec9f040","ios":"levelo://app?vid=d5ae4600-476e-4c8a-b248-76c73ec9f040"},"vehicle_type_id":"4","last_reported":1741882340,"current_range_meters":7200,"station_id":"ce4bhgp2rcd13ifvqfd0","pricing_plan_id":"cebpf4jnsgd1na2vs0mg"},{"bike_id":"e872f5ef-8b73-4001-8ad4-057654930544","system_id":"levelo_inurba_marseille","lat":43.302,"lon":5.40031,"is_reserved":false,"is_disabled":true,"rental_uris":{"android":"levelo://app?vid=e872f5ef-8b73-4001-8ad4-057654930544","ios":"levelo://app?vid=e872f5ef-8b73-4001-8ad4-057654930544"},"vehicle_type_id":"4","last_reported":1741882340,"current_range_meters":7200,"station_id":"ce4bgvh2rcd13ifvqcs0","pricing_plan_id":"cebpf4jnsgd1na2vs0mg"},{"bike_id":"d3c579f7-2474-4986-b83b-caeb037705ca","system_id":"levelo_inurba_marseille","lat":43.31326,"lon":5.3969,"is_reserved":false,"is_disabled":false,"rental_uris":{"android":"levelo://app?vid=d3c579f7-2474-4986-b83b-caeb037705ca","ios":"levelo://app?vid=d3c579f7-2474-4986-b83b-caeb037705ca"},"vehicle_type_id":"4","last_reported":1741882340,"current_range_meters":7200,"station_id":"ce4bgvp2rcd13ifvqcu0","pricing_plan_id":"cebpf4jnsgd1na2vs0mg"},{"bike_id":"4961e487-7be6-4bde-ac99-76f7ed009eba","system_id":"levelo_inurba_marseille","lat":43.28674,"lon":5.38659,"is_reserved":false,"is_disabled":false,"rental_uris":{"android":"levelo://app?vid=4961e487-7be6-4bde-ac99-76f7ed009eba","ios":"levelo://app?vid=4961e487-7be6-4bde-ac99-76f7ed009eba"},"vehicle_type_id":"4","last_reported":1741882340,"current_range_meters":7200,"station_id":"ce4bh492rcd13ifvqdug","pricing_plan_id":"cebpf4jnsgd1na2vs0mg"},{"bike_id":"7f97dab3-6641-4c6a-9b12-3940cae11793","system_id":"levelo_inurba_marseille","lat":43.25006,"lon":5.38916,"is_reserved":false,"is_disabled":false,"rental_uris":{"android":"levelo://app?vid=7f97dab3-6641-4c6a-9b12-3940cae11793","ios":"levelo://app?vid=7f97dab3-6641-4c6a-9b12-3940cae11793"},"vehicle_type_id":"4","last_reported":1741882340,"current_range_meters":7200,"station_id":"ce4bhgp2rcd13ifvqfd0","pricing_plan_id":"cebpf4jnsgd1na2vs0mg"},{"bike_id":"2fe54254-5b11-4939-bb74-6fb31c1295ea","system_id":"levelo_inurba_marseille","lat":43.22933,"lon":5.35377,"is_reserved":false,"is_disabled":false,"rental_uris":{"android":"levelo://app?vid=2fe54254-5b11-4939-bb74-6fb31c1295ea","ios":"levelo://app?vid=2fe54254-5b11-4939-bb74-6fb31c1295ea"},"vehicle_type_id":"4","last_reported":1741882340,"current_range_meters":7200,"station_id":"cpo3532slgdg3j2ikp40","pricing_plan_id":"cebpf4jnsgd1na2vs0mg"},{"bike_id":"15818832-22a2-4c03-b56c-fcfd42f5fb3f","system_id":"levelo_inurba_marseille","lat":43.25108,"lon":5.40323,"is_reserved":false,"is_disabled":false,"rental_uris":{"android":"levelo://app?vid=15818832-22a2-4c03-b56c-fcfd42f5fb3f","ios":"levelo://app?vid=15818832-22a2-4c03-b56c-fcfd42f5fb3f"},"vehicle_type_id":"4","last_reported":1741882340,"current_range_meters":7200,"station_id":"ce4bhlh2rcd13ifvqgig","pricing_plan_id":"cebpf4jnsgd1na2vs0mg"},{"bike_id":"8ca720cf-8cc7-4201-a29c-e07b0ffda00a","system_id":"levelo_inurba_marseille","lat":43.23184,"lon":5.39988,"is_reserved":false,"is_disabled":false,"rental_uris":{"android":"levelo://app?vid=8ca720cf-8cc7-4201-a29c-e07b0ffda00a","ios":"levelo://app?vid=8ca720cf-8cc7-4201-a29c-e07b0ffda00a"},"vehicle_type_id":"4","last_reported":1741882340,"current_range_meters":7200,"station_id":"ce4bhn12rcd13ifvqgqg","pricing_plan_id":"cebpf4jnsgd1na2vs0mg"},{"bike_id":"4952e20d-ba51-4f46-9657-7d0610d5b6c7","system_id":"levelo_inurba_marseille","lat":43.31084,"lon":5.42428,"is_reserved":false,"is_disabled":false,"rental_uris":{"android":"levelo://app?vid=4952e20d-ba51-4f46-9657-7d0610d5b6c7","ios":"levelo://app?vid=4952e20d-ba51-4f46-9657-7d0610d5b6c7"},"vehicle_type_id":"4","last_reported":1741882340,"current_range_meters":7200,"station_id":"ce4bhp92rcd13ifvqhag","pricing_plan_id":"cebpf4jnsgd1na2vs0mg"},{"bike_id":"28cd2e82-5ec9-4af4-82a6-0279e5cdf721","system_id":"levelo_inurba_marseille","lat":43.27815,"lon":5.40707,"is_reserved":false,"is_disabled":false,"rental_uris":{"android":"levelo://app?vid=28cd2e82-5ec9-4af4-82a6-0279e5cdf721","ios":"levelo://app?vid=28cd2e82-5ec9-4af4-82a6-0279e5cdf721"},"vehicle_type_id":"4","last_reported":1741882340,"current_range_meters":7200,"station_id":"ce4bhnh2rcd13ifvqgtg","pricing_plan_id":"cebpf4jnsgd1na2vs0mg"},{"bike_id":"05f96acf-17fa-4179-ab64-e08a126a436c","system_id":"levelo_inurba_marseille","lat":43.30811,"lon":5.38179,"is_reserved":false,"is_disabled":false,"rental_uris":{"android":"levelo://app?vid=05f96acf-17fa-4179-ab64-e08a126a436c","ios":"levelo://app?vid=05f96acf-17fa-4179-ab64-e08a126a436c"},"vehicle_type_id":"4","last_reported":1741882340,"current_range_meters":7200,"station_id":"ce4bgt12rcd13ifvqce0","pricing_plan_id":"cebpf4jnsgd1na2vs0mg"},{"bike_id":"d7cf3da4-03cf-4eae-b183-47670a6b872f","system_id":"levelo_inurba_marseille","lat":43.23187,"lon":5.3556,"is_reserved":false,"is_disabled":false,"rental_uris":{"android":"levelo://app?vid=d7cf3da4-03cf-4eae-b183-47670a6b872f","ios":"levelo://app?vid=d7cf3da4-03cf-4eae-b183-47670a6b872f"},"vehicle_type_id":"4","last_reported":1741882340,"current_range_meters":8000,"station_id":"ce4bhu92rcd13ifvqi70","pricing_plan_id":"cebpf4jnsgd1na2vs0mg"},{"bike_id":"d7d0cdbd-3f6b-4af6-9958-1322ed4e09c5","system_id":"levelo_inurba_marseille","lat":43.31022,"lon":5.37539,"is_reserved":false,"is_disabled":false,"rental_uris":{"android":"levelo://app?vid=d7d0cdbd-3f6b-4af6-9958-1322ed4e09c5","ios":"levelo://app?vid=d7d0cdbd-3f6b-4af6-9958-1322ed4e09c5"},"vehicle_type_id":"4","last_reported":1741882340,"current_range_meters":8000,"station_id":"","pricing_plan_id":"cebpf4jnsgd1na2vs0mg"},{"bike_id":"cc8a2482-a3e5-474a-a273-2523eaeb753f","system_id":"levelo_inurba_marseille","lat":43.26782,"lon":5.3942,"is_reserved":false,"is_disabled":false,"rental_uris":{"android":"levelo://app?vid=cc8a2482-a3e5-474a-a273-2523eaeb753f","ios":"levelo://app?vid=cc8a2482-a3e5-474a-a273-2523eaeb753f"},"vehicle_type_id":"4","last_reported":1741882340,"current_range_meters":8000,"station_id":"ce4bhh12rcd13ifvqfg0","pricing_plan_id":"cebpf4jnsgd1na2vs0mg"},{"bike_id":"ccde3be1-4144-427e-acc2-fed605e4915f","system_id":"levelo_inurba_marseille","lat":43.281101,"lon":5.398574,"is_reserved":false,"is_disabled":false,"rental_uris":{"android":"levelo://app?vid=ccde3be1-4144-427e-acc2-fed605e4915f","ios":"levelo://app?vid=ccde3be1-4144-427e-acc2-fed605e4915f"},"vehicle_type_id":"4","last_reported":1741882340,"current_range_meters":8000,"station_id":"","pricing_plan_id":"cebpf4jnsgd1na2vs0mg"},{"bike_id":"b945d8d0-7f7e-44e7-a580-44ad2dfbe250","system_id":"levelo_inurba_marseille","lat":43.25936,"lon":5.4091,"is_reserved":false,"is_disabled":false,"rental_uris":{"android":"levelo://app?vid=b945d8d0-7f7e-44e7-a580-44ad2dfbe250","ios":"levelo://app?vid=b945d8d0-7f7e-44e7-a580-44ad2dfbe250"},"vehicle_type_id":"4","last_reported":1741882340,"current_range_meters":8000,"station_id":"ce4bhm92rcd13ifvqglg","pricing_plan_id":"cebpf4jnsgd1na2vs0mg"},{"bike_id":"7d69acf2-34cb-4569-8599-934c38bb8152","system_id":"levelo_inurba_marseille","lat":43.3041,"lon":5.41292,"is_reserved":false,"is_disabled":false,"rental_uris":{"android":"levelo://app?vid=7d69acf2-34cb-4569-8599-934c38bb8152","ios":"levelo://app?vid=7d69acf2-34cb-4569-8599-934c38bb8152"},"vehicle_type_id":"4","last_reported":1741882340,"current_range_meters":8000,"station_id":"ce4bhop2rcd13ifvqh8g","pricing_plan_id":"cebpf4jnsgd1na2vs0mg"},{"bike_id":"931a65f6-98be-4189-b167-a49aeaf4dc43","system_id":"levelo_inurba_marseille","lat":43.25023,"lon":5.38907,"is_reserved":false,"is_disabled":false,"rental_uris":{"android":"levelo://app?vid=931a65f6-98be-4189-b167-a49aeaf4dc43","ios":"levelo://app?vid=931a65f6-98be-4189-b167-a49aeaf4dc43"},"vehicle_type_id":"4","last_reported":1741882340,"current_range_meters":8000,"station_id":"ce4bhgp2rcd13ifvqfd0","pricing_plan_id":"cebpf4jnsgd1na2vs0mg"},{"bike_id":"44b141dd-d922-435b-95cf-d52537d6e998","system_id":"levelo_inurba_marseille","lat":43.28029,"lon":5.36948,"is_reserved":false,"is_disabled":false,"rental_uris":{"android":"levelo://app?vid=44b141dd-d922-435b-95cf-d52537d6e998","ios":"levelo://app?vid=44b141dd-d922-435b-95cf-d52537d6e998"},"vehicle_type_id":"4","last_reported":1741882340,"current_range_meters":8400,"station_id":"ce4bha12rcd13ifvqef0","pricing_plan_id":"cebpf4jnsgd1na2vs0mg"},{"bike_id":"a6ec3840-a71e-4429-9497-7114487e5327","system_id":"levelo_inurba_marseille","lat":43.29253,"lon":5.37614,"is_reserved":false,"is_disabled":false,"rental_uris":{"android":"levelo://app?vid=a6ec3840-a71e-4429-9497-7114487e5327","ios":"levelo://app?vid=a6ec3840-a71e-4429-9497-7114487e5327"},"vehicle_type_id":"4","last_reported":1741882340,"current_range_meters":8400,"station_id":"ce4bgi12rcd13ifvqb80","pricing_plan_id":"cebpf4jnsgd1na2vs0mg"},{"bike_id":"66dedbcd-86e4-4407-9834-f963fc926dd0","system_id":"levelo_inurba_marseille","lat":43.26583,"lon":5.3728,"is_reserved":false,"is_disabled":false,"rental_uris":{"android":"levelo://app?vid=66dedbcd-86e4-4407-9834-f963fc926dd0","ios":"levelo://app?vid=66dedbcd-86e4-4407-9834-f963fc926dd0"},"vehicle_type_id":"4","last_reported":1741882340,"current_range_meters":8400,"station_id":"ce4bhg12rcd13ifvqf70","pricing_plan_id":"cebpf4jnsgd1na2vs0mg"},{"bike_id":"5edb4362-8160-41d4-9b56-b614de14e9d5","system_id":"levelo_inurba_marseille","lat":43.27914,"lon":5.39578,"is_reserved":false,"is_disabled":false,"rental_uris":{"android":"levelo://app?vid=5edb4362-8160-41d4-9b56-b614de14e9d5","ios":"levelo://app?vid=5edb4362-8160-41d4-9b56-b614de14e9d5"},"vehicle_type_id":"4","last_reported":1741882340,"current_range_meters":8400,"station_id":"ce4bhf92rcd13ifvqf40","pricing_plan_id":"cebpf4jnsgd1na2vs0mg"},{"bike_id":"060975f0-9c7a-428e-9ead-ef621294f129","system_id":"levelo_inurba_marseille","lat":43.31059,"lon":5.3835,"is_reserved":false,"is_disabled":false,"rental_uris":{"android":"levelo://app?vid=060975f0-9c7a-428e-9ead-ef621294f129","ios":"levelo://app?vid=060975f0-9c7a-428e-9ead-ef621294f129"},"vehicle_type_id":"4","last_reported":1741882340,"current_range_meters":8400,"station_id":"ce4bgv92rcd13ifvqcr0","pricing_plan_id":"cebpf4jnsgd1na2vs0mg"},{"bike_id":"da92525d-691b-4e51-989f-b5c466d8ec4c","system_id":"levelo_inurba_marseille","lat":43.22936,"lon":5.35377,"is_reserved":false,"is_disabled":false,"rental_uris":{"android":"levelo://app?vid=da92525d-691b-4e51-989f-b5c466d8ec4c","ios":"levelo://app?vid=da92525d-691b-4e51-989f-b5c466d8ec4c"},"vehicle_type_id":"4","last_reported":1741882340,"current_range_meters":8800,"station_id":"cpo3532slgdg3j2ikp40","pricing_plan_id":"cebpf4jnsgd1na2vs0mg"},{"bike_id":"965125e4-007e-49f4-8e1c-3f859e7a40a1","system_id":"levelo_inurba_marseille","lat":43.31332,"lon":5.39689,"is_reserved":false,"is_disabled":false,"rental_uris":{"android":"levelo://app?vid=965125e4-007e-49f4-8e1c-3f859e7a40a1","ios":"levelo://app?vid=965125e4-007e-49f4-8e1c-3f859e7a40a1"},"vehicle_type_id":"4","last_reported":1741882340,"current_range_meters":8800,"station_id":"ce4bgvp2rcd13ifvqcu0","pricing_plan_id":"cebpf4jnsgd1na2vs0mg"},{"bike_id":"441d2ddc-39dd-48e4-898d-eee7c497f120","system_id":"levelo_inurba_marseille","lat":43.30532,"lon":5.36542,"is_reserved":false,"is_disabled":false,"rental_uris":{"android":"levelo://app?vid=441d2ddc-39dd-48e4-898d-eee7c497f120","ios":"levelo://app?vid=441d2ddc-39dd-48e4-898d-eee7c497f120"},"vehicle_type_id":"4","last_reported":1741882340,"current_range_meters":9200,"station_id":"ce4bgs12rcd13ifvqcag","pricing_plan_id":"cebpf4jnsgd1na2vs0mg"},{"bike_id":"b6d8ba2a-aca4-4c1c-a0ae-1b9b91f76e1f","system_id":"levelo_inurba_marseille","lat":43.2654,"lon":5.37298,"is_reserved":false,"is_disabled":false,"rental_uris":{"android":"levelo://app?vid=b6d8ba2a-aca4-4c1c-a0ae-1b9b91f76e1f","ios":"levelo://app?vid=b6d8ba2a-aca4-4c1c-a0ae-1b9b91f76e1f"},"vehicle_type_id":"4","last_reported":1741882340,"current_range_meters":9200,"station_id":"ce4bhg12rcd13ifvqf70","pricing_plan_id":"cebpf4jnsgd1na2vs0mg"},{"bike_id":"41300c69-dac2-414a-90f5-723515bbe27a","system_id":"levelo_inurba_marseille","lat":43.23186,"lon":5.35547,"is_reserved":false,"is_disabled":false,"rental_uris":{"android":"levelo://app?vid=41300c69-dac2-414a-90f5-723515bbe27a","ios":"levelo://app?vid=41300c69-dac2-414a-90f5-723515bbe27a"},"vehicle_type_id":"4","last_reported":1741882340,"current_range_meters":9200,"station_id":"ce4bhu92rcd13ifvqi70","pricing_plan_id":"cebpf4jnsgd1na2vs0mg"},{"bike_id":"fe2dbfad-2b3c-45be-b26a-7ab6c0dcbc97","system_id":"levelo_inurba_marseille","lat":43.30152,"lon":5.37705,"is_reserved":false,"is_disabled":false,"rental_uris":{"android":"levelo://app?vid=fe2dbfad-2b3c-45be-b26a-7ab6c0dcbc97","ios":"levelo://app?vid=fe2dbfad-2b3c-45be-b26a-7ab6c0dcbc97"},"vehicle_type_id":"4","last_reported":1741882340,"current_range_meters":9200,"station_id":"","pricing_plan_id":"cebpf4jnsgd1na2vs0mg"},{"bike_id":"97ba1768-fb66-4214-8ccc-a93a364823cb","system_id":"levelo_inurba_marseille","lat":43.24175,"lon":5.39721,"is_reserved":false,"is_disabled":false,"rental_uris":{"android":"levelo://app?vid=97ba1768-fb66-4214-8ccc-a93a364823cb","ios":"levelo://app?vid=97ba1768-fb66-4214-8ccc-a93a364823cb"},"vehicle_type_id":"4","last_reported":1741882340,"current_range_meters":9200,"station_id":"ce4bhn12rcd13ifvqgpg","pricing_plan_id":"cebpf4jnsgd1na2vs0mg"},{"bike_id":"b3fead73-4c4c-401e-81a0-a7fad437c748","system_id":"levelo_inurba_marseille","lat":43.25009,"lon":5.38915,"is_reserved":false,"is_disabled":false,"rental_uris":{"android":"levelo://app?vid=b3fead73-4c4c-401e-81a0-a7fad437c748","ios":"levelo://app?vid=b3fead73-4c4c-401e-81a0-a7fad437c748"},"vehicle_type_id":"4","last_reported":1741882340,"current_range_meters":9200,"station_id":"ce4bhgp2rcd13ifvqfd0","pricing_plan_id":"cebpf4jnsgd1na2vs0mg"},{"bike_id":"aa308cfd-9139-4403-a420-046cc461e3cc","system_id":"levelo_inurba_marseille","lat":43.29925,"lon":5.36545,"is_reserved":false,"is_disabled":false,"rental_uris":{"android":"levelo://app?vid=aa308cfd-9139-4403-a420-046cc461e3cc","ios":"levelo://app?vid=aa308cfd-9139-4403-a420-046cc461e3cc"},"vehicle_type_id":"4","last_reported":1741882340,"current_range_meters":9200,"station_id":"ce4bgm92rcd13ifvqbr0","pricing_plan_id":"cebpf4jnsgd1na2vs0mg"},{"bike_id":"6c03d175-cc2e-4636-b00c-86ee27eae2d7","system_id":"levelo_inurba_marseille","lat":43.30134,"lon":5.39861,"is_reserved":false,"is_disabled":false,"rental_uris":{"android":"levelo://app?vid=6c03d175-cc2e-4636-b00c-86ee27eae2d7","ios":"levelo://app?vid=6c03d175-cc2e-4636-b00c-86ee27eae2d7"},"vehicle_type_id":"4","last_reported":1741882340,"current_range_meters":9600,"station_id":"ce4bh0h2rcd13ifvqd40","pricing_plan_id":"cebpf4jnsgd1na2vs0mg"},{"bike_id":"36ebfc17-b6ab-4767-a5e0-c94c11aba8a2","system_id":"levelo_inurba_marseille","lat":43.32367,"lon":5.38882,"is_reserved":false,"is_disabled":false,"rental_uris":{"android":"levelo://app?vid=36ebfc17-b6ab-4767-a5e0-c94c11aba8a2","ios":"levelo://app?vid=36ebfc17-b6ab-4767-a5e0-c94c11aba8a2"},"vehicle_type_id":"4","last_reported":1741882340,"current_range_meters":9600,"station_id":"ce4bhqp2rcd13ifvqhog","pricing_plan_id":"cebpf4jnsgd1na2vs0mg"},{"bike_id":"d0be61ee-8c6c-4bf7-99b6-f099a281a656","system_id":"levelo_inurba_marseille","lat":43.25005,"lon":5.38912,"is_reserved":false,"is_disabled":false,"rental_uris":{"android":"levelo://app?vid=d0be61ee-8c6c-4bf7-99b6-f099a281a656","ios":"levelo://app?vid=d0be61ee-8c6c-4bf7-99b6-f099a281a656"},"vehicle_type_id":"4","last_reported":1741882340,"current_range_meters":9600,"station_id":"ce4bhgp2rcd13ifvqfd0","pricing_plan_id":"cebpf4jnsgd1na2vs0mg"},{"bike_id":"d3cb55a0-77fb-4171-b130-b389f3153302","system_id":"levelo_inurba_marseille","lat":43.25719,"lon":5.41113,"is_reserved":false,"is_disabled":true,"rental_uris":{"android":"levelo://app?vid=d3cb55a0-77fb-4171-b130-b389f3153302","ios":"levelo://app?vid=d3cb55a0-77fb-4171-b130-b389f3153302"},"vehicle_type_id":"4","last_reported":1741882340,"current_range_meters":9600,"station_id":"ce4bhkp2rcd13ifvqgd0","pricing_plan_id":"cebpf4jnsgd1na2vs0mg"},{"bike_id":"2cc2195b-1550-4c77-a789-8fc30ac54fcb","system_id":"levelo_inurba_marseille","lat":43.28397,"lon":5.37527,"is_reserved":false,"is_disabled":false,"rental_uris":{"android":"levelo://app?vid=2cc2195b-1550-4c77-a789-8fc30ac54fcb","ios":"levelo://app?vid=2cc2195b-1550-4c77-a789-8fc30ac54fcb"},"vehicle_type_id":"4","last_reported":1741882340,"current_range_meters":9600,"station_id":"ce4bh412rcd13ifvqds0","pricing_plan_id":"cebpf4jnsgd1na2vs0mg"},{"bike_id":"83f26668-6783-42ea-ac69-ba064de8dc92","system_id":"levelo_inurba_marseille","lat":43.30801,"lon":5.43525,"is_reserved":false,"is_disabled":false,"rental_uris":{"android":"levelo://app?vid=83f26668-6783-42ea-ac69-ba064de8dc92","ios":"levelo://app?vid=83f26668-6783-42ea-ac69-ba064de8dc92"},"vehicle_type_id":"4","last_reported":1741882340,"current_range_meters":10000,"station_id":"ce4bhph2rcd13ifvqheg","pricing_plan_id":"cebpf4jnsgd1na2vs0mg"},{"bike_id":"5a0002da-b687-4872-932d-20fcc86b0c9d","system_id":"levelo_inurba_marseille","lat":43.25007,"lon":5.38919,"is_reserved":false,"is_disabled":false,"rental_uris":{"android":"levelo://app?vid=5a0002da-b687-4872-932d-20fcc86b0c9d","ios":"levelo://app?vid=5a0002da-b687-4872-932d-20fcc86b0c9d"},"vehicle_type_id":"4","last_reported":1741882340,"current_range_meters":10000,"station_id":"ce4bhgp2rcd13ifvqfd0","pricing_plan_id":"cebpf4jnsgd1na2vs0mg"},{"bike_id":"abb4d827-d99d-447a-b69c-566f9402f115","system_id":"levelo_inurba_marseille","lat":43.25914,"lon":5.40863,"is_reserved":false,"is_disabled":false,"rental_uris":{"android":"levelo://app?vid=abb4d827-d99d-447a-b69c-566f9402f115","ios":"levelo://app?vid=abb4d827-d99d-447a-b69c-566f9402f115"},"vehicle_type_id":"4","last_reported":1741882340,"current_range_meters":10000,"station_id":"ce4bhm92rcd13ifvqglg","pricing_plan_id":"cebpf4jnsgd1na2vs0mg"},{"bike_id":"76a1a065-7414-4909-8e1f-d9664a62f90e","system_id":"levelo_inurba_marseille","lat":43.28035,"lon":5.36942,"is_reserved":false,"is_disabled":false,"rental_uris":{"android":"levelo://app?vid=76a1a065-7414-4909-8e1f-d9664a62f90e","ios":"levelo://app?vid=76a1a065-7414-4909-8e1f-d9664a62f90e"},"vehicle_type_id":"4","last_reported":1741882340,"current_range_meters":10000,"station_id":"ce4bha12rcd13ifvqef0","pricing_plan_id":"cebpf4jnsgd1na2vs0mg"},{"bike_id":"1179ea35-4831-4438-984a-d67269a5255b","system_id":"levelo_inurba_marseille","lat":43.23204,"lon":5.35557,"is_reserved":false,"is_disabled":false,"rental_uris":{"android":"levelo://app?vid=1179ea35-4831-4438-984a-d67269a5255b","ios":"levelo://app?vid=1179ea35-4831-4438-984a-d67269a5255b"},"vehicle_type_id":"4","last_reported":1741882340,"current_range_meters":10000,"station_id":"ce4bhu92rcd13ifvqi70","pricing_plan_id":"cebpf4jnsgd1na2vs0mg"},{"bike_id":"44f1a9d4-49f6-46ee-9789-06bafc6bd946","system_id":"levelo_inurba_marseille","lat":43.30921,"lon":5.37545,"is_reserved":false,"is_disabled":false,"rental_uris":{"android":"levelo://app?vid=44f1a9d4-49f6-46ee-9789-06bafc6bd946","ios":"levelo://app?vid=44f1a9d4-49f6-46ee-9789-06bafc6bd946"},"vehicle_type_id":"4","last_reported":1741882340,"current_range_meters":10000,"station_id":"","pricing_plan_id":"cebpf4jnsgd1na2vs0mg"},{"bike_id":"154d0f4a-7cf1-4b4a-8919-807104d462e1","system_id":"levelo_inurba_marseille","lat":43.26661,"lon":5.3861,"is_reserved":false,"is_disabled":false,"rental_uris":{"android":"levelo://app?vid=154d0f4a-7cf1-4b4a-8919-807104d462e1","ios":"levelo://app?vid=154d0f4a-7cf1-4b4a-8919-807104d462e1"},"vehicle_type_id":"4","last_reported":1741882340,"current_range_meters":10000,"station_id":"","pricing_plan_id":"cebpf4jnsgd1na2vs0mg"},{"bike_id":"079f3adc-4b20-4152-b0b0-dabdb04df937","system_id":"levelo_inurba_marseille","lat":43.29848,"lon":5.3627,"is_reserved":false,"is_disabled":false,"rental_uris":{"android":"levelo://app?vid=079f3adc-4b20-4152-b0b0-dabdb04df937","ios":"levelo://app?vid=079f3adc-4b20-4152-b0b0-dabdb04df937"},"vehicle_type_id":"4","last_reported":1741882340,"current_range_meters":10000,"station_id":"ce4bgpp2rcd13ifvqc3g","pricing_plan_id":"cebpf4jnsgd1na2vs0mg"},{"bike_id":"1cbeb49c-8d51-46f2-ad03-8af78ea79d9a","system_id":"levelo_inurba_marseille","lat":43.2417,"lon":5.39711,"is_reserved":false,"is_disabled":false,"rental_uris":{"android":"levelo://app?vid=1cbeb49c-8d51-46f2-ad03-8af78ea79d9a","ios":"levelo://app?vid=1cbeb49c-8d51-46f2-ad03-8af78ea79d9a"},"vehicle_type_id":"4","last_reported":1741882340,"current_range_meters":10000,"station_id":"ce4bhn12rcd13ifvqgpg","pricing_plan_id":"cebpf4jnsgd1na2vs0mg"},{"bike_id":"a34a4fee-ba6b-4d63-9b08-ccacb07eff19","system_id":"levelo_inurba_marseille","lat":43.24653,"lon":5.38894,"is_reserved":false,"is_disabled":false,"rental_uris":{"android":"levelo://app?vid=a34a4fee-ba6b-4d63-9b08-ccacb07eff19","ios":"levelo://app?vid=a34a4fee-ba6b-4d63-9b08-ccacb07eff19"},"vehicle_type_id":"4","last_reported":1741882340,"current_range_meters":10000,"station_id":"ce4bhg12rcd13ifvqf60","pricing_plan_id":"cebpf4jnsgd1na2vs0mg"},{"bike_id":"810ea6e7-fd85-4e57-944f-adbc40f3290d","system_id":"levelo_inurba_marseille","lat":43.2707,"lon":5.42281,"is_reserved":false,"is_disabled":false,"rental_uris":{"android":"levelo://app?vid=810ea6e7-fd85-4e57-944f-adbc40f3290d","ios":"levelo://app?vid=810ea6e7-fd85-4e57-944f-adbc40f3290d"},"vehicle_type_id":"4","last_reported":1741882340,"current_range_meters":10000,"station_id":"ce4bhk92rcd13ifvqgb0","pricing_plan_id":"cebpf4jnsgd1na2vs0mg"},{"bike_id":"e4f8780c-8f27-44f2-96ac-95b8912e90d0","system_id":"levelo_inurba_marseille","lat":43.27176,"lon":5.40992,"is_reserved":false,"is_disabled":false,"rental_uris":{"android":"levelo://app?vid=e4f8780c-8f27-44f2-96ac-95b8912e90d0","ios":"levelo://app?vid=e4f8780c-8f27-44f2-96ac-95b8912e90d0"},"vehicle_type_id":"4","last_reported":1741882340,"current_range_meters":10000,"station_id":"ce4bhl12rcd13ifvqgf0","pricing_plan_id":"cebpf4jnsgd1na2vs0mg"},{"bike_id":"db521371-88a9-4b97-9111-40ee37381e5a","system_id":"levelo_inurba_marseille","lat":43.295327,"lon":5.385562,"is_reserved":false,"is_disabled":false,"rental_uris":{"android":"levelo://app?vid=db521371-88a9-4b97-9111-40ee37381e5a","ios":"levelo://app?vid=db521371-88a9-4b97-9111-40ee37381e5a"},"vehicle_type_id":"4","last_reported":1741882340,"current_range_meters":10800,"station_id":"","pricing_plan_id":"cebpf4jnsgd1na2vs0mg"},{"bike_id":"13e8b225-d777-49b2-8b2d-2d884a055204","system_id":"levelo_inurba_marseille","lat":43.28611,"lon":5.35105,"is_reserved":false,"is_disabled":false,"rental_uris":{"android":"levelo://app?vid=13e8b225-d777-49b2-8b2d-2d884a055204","ios":"levelo://app?vid=13e8b225-d777-49b2-8b2d-2d884a055204"},"vehicle_type_id":"4","last_reported":1741882340,"current_range_meters":10800,"station_id":"ce4bhch2rcd13ifvqeug","pricing_plan_id":"cebpf4jnsgd1na2vs0mg"},{"bike_id":"5dccc8a7-8ddb-402f-82c5-afb5774dae74","system_id":"levelo_inurba_marseille","lat":43.31329,"lon":5.39692,"is_reserved":false,"is_disabled":false,"rental_uris":{"android":"levelo://app?vid=5dccc8a7-8ddb-402f-82c5-afb5774dae74","ios":"levelo://app?vid=5dccc8a7-8ddb-402f-82c5-afb5774dae74"},"vehicle_type_id":"4","last_reported":1741882340,"current_range_meters":10800,"station_id":"ce4bgvp2rcd13ifvqcu0","pricing_plan_id":"cebpf4jnsgd1na2vs0mg"},{"bike_id":"d041a7b5-732c-474f-b556-c0142a8f7b8d","system_id":"levelo_inurba_marseille","lat":43.31237,"lon":5.36859,"is_reserved":false,"is_disabled":false,"rental_uris":{"android":"levelo://app?vid=d041a7b5-732c-474f-b556-c0142a8f7b8d","ios":"levelo://app?vid=d041a7b5-732c-474f-b556-c0142a8f7b8d"},"vehicle_type_id":"4","last_reported":1741882340,"current_range_meters":10800,"station_id":"ce4bgl92rcd13ifvqbq0","pricing_plan_id":"cebpf4jnsgd1na2vs0mg"},{"bike_id":"5233e443-1736-449b-bfef-634509c8ee4b","system_id":"levelo_inurba_marseille","lat":43.29478,"lon":5.38645,"is_reserved":false,"is_disabled":false,"rental_uris":{"android":"levelo://app?vid=5233e443-1736-449b-bfef-634509c8ee4b","ios":"levelo://app?vid=5233e443-1736-449b-bfef-634509c8ee4b"},"vehicle_type_id":"4","last_reported":1741882340,"current_range_meters":10800,"station_id":"","pricing_plan_id":"cebpf4jnsgd1na2vs0mg"},{"bike_id":"304c1540-0a25-4231-ae30-2aed968d0307","system_id":"levelo_inurba_marseille","lat":43.26055,"lon":5.39394,"is_reserved":false,"is_disabled":false,"rental_uris":{"android":"levelo://app?vid=304c1540-0a25-4231-ae30-2aed968d0307","ios":"levelo://app?vid=304c1540-0a25-4231-ae30-2aed968d0307"},"vehicle_type_id":"4","last_reported":1741882340,"current_range_meters":10800,"station_id":"ce4bhh92rcd13ifvqfj0","pricing_plan_id":"cebpf4jnsgd1na2vs0mg"},{"bike_id":"db1d9945-452a-48d1-a218-9d250e8fb884","system_id":"levelo_inurba_marseille","lat":43.31323,"lon":5.39687,"is_reserved":false,"is_disabled":false,"rental_uris":{"android":"levelo://app?vid=db1d9945-452a-48d1-a218-9d250e8fb884","ios":"levelo://app?vid=db1d9945-452a-48d1-a218-9d250e8fb884"},"vehicle_type_id":"4","last_reported":1741882340,"current_range_meters":10800,"station_id":"ce4bgvp2rcd13ifvqcu0","pricing_plan_id":"cebpf4jnsgd1na2vs0mg"},{"bike_id":"09b596d2-9fb8-4407-91a7-ec4b3d2d3af7","system_id":"levelo_inurba_marseille","lat":43.25584,"lon":5.38233,"is_reserved":false,"is_disabled":false,"rental_uris":{"android":"levelo://app?vid=09b596d2-9fb8-4407-91a7-ec4b3d2d3af7","ios":"levelo://app?vid=09b596d2-9fb8-4407-91a7-ec4b3d2d3af7"},"vehicle_type_id":"4","last_reported":1741882340,"current_range_meters":11200,"station_id":"ce4bhih2rcd13ifvqfs0","pricing_plan_id":"cebpf4jnsgd1na2vs0mg"},{"bike_id":"2a357399-1074-43a4-92c9-fe4475f3d914","system_id":"levelo_inurba_marseille","lat":43.2737,"lon":5.36257,"is_reserved":false,"is_disabled":false,"rental_uris":{"android":"levelo://app?vid=2a357399-1074-43a4-92c9-fe4475f3d914","ios":"levelo://app?vid=2a357399-1074-43a4-92c9-fe4475f3d914"},"vehicle_type_id":"4","last_reported":1741882340,"current_range_meters":11200,"station_id":"ce4bhbh2rcd13ifvqeo0","pricing_plan_id":"cebpf4jnsgd1na2vs0mg"},{"bike_id":"ff1049bf-8707-4935-b2e2-d55bf6270f91","system_id":"levelo_inurba_marseille","lat":43.30428,"lon":5.39741,"is_reserved":false,"is_disabled":false,"rental_uris":{"android":"levelo://app?vid=ff1049bf-8707-4935-b2e2-d55bf6270f91","ios":"levelo://app?vid=ff1049bf-8707-4935-b2e2-d55bf6270f91"},"vehicle_type_id":"4","last_reported":1741882340,"current_range_meters":11200,"station_id":"ce4bh092rcd13ifvqd20","pricing_plan_id":"cebpf4jnsgd1na2vs0mg"},{"bike_id":"4760c4a3-2ebc-4787-9bfd-517781e41b15","system_id":"levelo_inurba_marseille","lat":43.28608,"lon":5.37068,"is_reserved":false,"is_disabled":false,"rental_uris":{"android":"levelo://app?vid=4760c4a3-2ebc-4787-9bfd-517781e41b15","ios":"levelo://app?vid=4760c4a3-2ebc-4787-9bfd-517781e41b15"},"vehicle_type_id":"4","last_reported":1741882340,"current_range_meters":11200,"station_id":"ce4bht12rcd13ifvqi60","pricing_plan_id":"cebpf4jnsgd1na2vs0mg"},{"bike_id":"630f3509-7859-4c48-b59a-511d4877ffeb","system_id":"levelo_inurba_marseille","lat":43.30799,"lon":5.38148,"is_reserved":false,"is_disabled":false,"rental_uris":{"android":"levelo://app?vid=630f3509-7859-4c48-b59a-511d4877ffeb","ios":"levelo://app?vid=630f3509-7859-4c48-b59a-511d4877ffeb"},"vehicle_type_id":"4","last_reported":1741882340,"current_range_meters":11200,"station_id":"ce4bgt12rcd13ifvqce0","pricing_plan_id":"cebpf4jnsgd1na2vs0mg"},{"bike_id":"10c3bf9d-17ce-4781-ac3a-9b353dbf2f67","system_id":"levelo_inurba_marseille","lat":43.28373,"lon":5.38627,"is_reserved":false,"is_disabled":false,"rental_uris":{"android":"levelo://app?vid=10c3bf9d-17ce-4781-ac3a-9b353dbf2f67","ios":"levelo://app?vid=10c3bf9d-17ce-4781-ac3a-9b353dbf2f67"},"vehicle_type_id":"4","last_reported":1741882340,"current_range_meters":11200,"station_id":"ce4bh492rcd13ifvqdvg","pricing_plan_id":"cebpf4jnsgd1na2vs0mg"},{"bike_id":"5cce8c68-ab9c-4191-af50-cc1d03765c2b","system_id":"levelo_inurba_marseille","lat":43.25945,"lon":5.40908,"is_reserved":false,"is_disabled":false,"rental_uris":{"android":"levelo://app?vid=5cce8c68-ab9c-4191-af50-cc1d03765c2b","ios":"levelo://app?vid=5cce8c68-ab9c-4191-af50-cc1d03765c2b"},"vehicle_type_id":"4","last_reported":1741882340,"current_range_meters":11600,"station_id":"ce4bhm92rcd13ifvqglg","pricing_plan_id":"cebpf4jnsgd1na2vs0mg"},{"bike_id":"61b9ad25-9195-424f-875c-94c04a329ec9","system_id":"levelo_inurba_marseille","lat":43.33017,"lon":5.39046,"is_reserved":false,"is_disabled":false,"rental_uris":{"android":"levelo://app?vid=61b9ad25-9195-424f-875c-94c04a329ec9","ios":"levelo://app?vid=61b9ad25-9195-424f-875c-94c04a329ec9"},"vehicle_type_id":"4","last_reported":1741882340,"current_range_meters":11600,"station_id":"ce4bhr92rcd13ifvqhrg","pricing_plan_id":"cebpf4jnsgd1na2vs0mg"},{"bike_id":"4f2ddad8-944b-4f7f-88fd-24992043188c","system_id":"levelo_inurba_marseille","lat":43.30929,"lon":5.40149,"is_reserved":false,"is_disabled":false,"rental_uris":{"android":"levelo://app?vid=4f2ddad8-944b-4f7f-88fd-24992043188c","ios":"levelo://app?vid=4f2ddad8-944b-4f7f-88fd-24992043188c"},"vehicle_type_id":"4","last_reported":1741882340,"current_range_meters":11600,"station_id":"ce4bgvp2rcd13ifvqct0","pricing_plan_id":"cebpf4jnsgd1na2vs0mg"},{"bike_id":"218491b0-92fa-4602-b565-d03fde32cba5","system_id":"levelo_inurba_marseille","lat":43.29972,"lon":5.37165,"is_reserved":false,"is_disabled":false,"rental_uris":{"android":"levelo://app?vid=218491b0-92fa-4602-b565-d03fde32cba5","ios":"levelo://app?vid=218491b0-92fa-4602-b565-d03fde32cba5"},"vehicle_type_id":"4","last_reported":1741882340,"current_range_meters":11600,"station_id":"ce4bgr92rcd13ifvqc7g","pricing_plan_id":"cebpf4jnsgd1na2vs0mg"},{"bike_id":"6944bb06-8a8c-4cf4-86a1-ca9561cf4ee4","system_id":"levelo_inurba_marseille","lat":43.23061,"lon":5.35492,"is_reserved":false,"is_disabled":false,"rental_uris":{"android":"levelo://app?vid=6944bb06-8a8c-4cf4-86a1-ca9561cf4ee4","ios":"levelo://app?vid=6944bb06-8a8c-4cf4-86a1-ca9561cf4ee4"},"vehicle_type_id":"4","last_reported":1741882340,"current_range_meters":11600,"station_id":"cpo3342slgdg3j2ifvpg","pricing_plan_id":"cebpf4jnsgd1na2vs0mg"},{"bike_id":"e30a448a-2202-4448-a31e-efdc025569ea","system_id":"levelo_inurba_marseille","lat":43.28937,"lon":5.39627,"is_reserved":false,"is_disabled":false,"rental_uris":{"android":"levelo://app?vid=e30a448a-2202-4448-a31e-efdc025569ea","ios":"levelo://app?vid=e30a448a-2202-4448-a31e-efdc025569ea"},"vehicle_type_id":"4","last_reported":1741882340,"current_range_meters":11600,"station_id":"ce4bh3h2rcd13ifvqdn0","pricing_plan_id":"cebpf4jnsgd1na2vs0mg"},{"bike_id":"414a87d8-0320-4da5-94cb-1c2e9eb2c2e2","system_id":"levelo_inurba_marseille","lat":43.25831,"lon":5.39443,"is_reserved":false,"is_disabled":false,"rental_uris":{"android":"levelo://app?vid=414a87d8-0320-4da5-94cb-1c2e9eb2c2e2","ios":"levelo://app?vid=414a87d8-0320-4da5-94cb-1c2e9eb2c2e2"},"vehicle_type_id":"4","last_reported":1741882340,"current_range_meters":12000,"station_id":"ce4bhip2rcd13ifvqft0","pricing_plan_id":"cebpf4jnsgd1na2vs0mg"},{"bike_id":"8492cf29-0135-44fd-8919-2c4c92afc8fe","system_id":"levelo_inurba_marseille","lat":43.27817,"lon":5.40714,"is_reserved":false,"is_disabled":false,"rental_uris":{"android":"levelo://app?vid=8492cf29-0135-44fd-8919-2c4c92afc8fe","ios":"levelo://app?vid=8492cf29-0135-44fd-8919-2c4c92afc8fe"},"vehicle_type_id":"4","last_reported":1741882340,"current_range_meters":12000,"station_id":"ce4bhnh2rcd13ifvqgtg","pricing_plan_id":"cebpf4jnsgd1na2vs0mg"},{"bike_id":"317454e4-dd48-4611-814d-533bcc596415","system_id":"levelo_inurba_marseille","lat":43.2903,"lon":5.37555,"is_reserved":false,"is_disabled":false,"rental_uris":{"android":"levelo://app?vid=317454e4-dd48-4611-814d-533bcc596415","ios":"levelo://app?vid=317454e4-dd48-4611-814d-533bcc596415"},"vehicle_type_id":"4","last_reported":1741882340,"current_range_meters":12000,"station_id":"ce4bh692rcd13ifvqe90","pricing_plan_id":"cebpf4jnsgd1na2vs0mg"},{"bike_id":"7e88b6c2-925f-4ed5-9881-a1e5cd09e856","system_id":"levelo_inurba_marseille","lat":43.31327,"lon":5.39699,"is_reserved":false,"is_disabled":false,"rental_uris":{"android":"levelo://app?vid=7e88b6c2-925f-4ed5-9881-a1e5cd09e856","ios":"levelo://app?vid=7e88b6c2-925f-4ed5-9881-a1e5cd09e856"},"vehicle_type_id":"4","last_reported":1741882340,"current_range_meters":12000,"station_id":"ce4bgvp2rcd13ifvqcu0","pricing_plan_id":"cebpf4jnsgd1na2vs0mg"},{"bike_id":"34b566fc-874c-48b2-9e2a-1f6edfb033df","system_id":"levelo_inurba_marseille","lat":43.31321,"lon":5.39697,"is_reserved":false,"is_disabled":false,"rental_uris":{"android":"levelo://app?vid=34b566fc-874c-48b2-9e2a-1f6edfb033df","ios":"levelo://app?vid=34b566fc-874c-48b2-9e2a-1f6edfb033df"},"vehicle_type_id":"4","last_reported":1741882340,"current_range_meters":12000,"station_id":"ce4bgvp2rcd13ifvqcu0","pricing_plan_id":"cebpf4jnsgd1na2vs0mg"},{"bike_id":"9db5f361-402f-483a-bcdc-9e6d2c49648d","system_id":"levelo_inurba_marseille","lat":43.28125,"lon":5.3779,"is_reserved":false,"is_disabled":false,"rental_uris":{"android":"levelo://app?vid=9db5f361-402f-483a-bcdc-9e6d2c49648d","ios":"levelo://app?vid=9db5f361-402f-483a-bcdc-9e6d2c49648d"},"vehicle_type_id":"4","last_reported":1741882340,"current_range_meters":12400,"station_id":"ce4bha12rcd13ifvqee0","pricing_plan_id":"cebpf4jnsgd1na2vs0mg"},{"bike_id":"ac8a0769-c424-4dcd-905b-21c5e1aa7ce2","system_id":"levelo_inurba_marseille","lat":43.31326,"lon":5.39694,"is_reserved":false,"is_disabled":false,"rental_uris":{"android":"levelo://app?vid=ac8a0769-c424-4dcd-905b-21c5e1aa7ce2","ios":"levelo://app?vid=ac8a0769-c424-4dcd-905b-21c5e1aa7ce2"},"vehicle_type_id":"4","last_reported":1741882340,"current_range_meters":12400,"station_id":"ce4bgvp2rcd13ifvqcu0","pricing_plan_id":"cebpf4jnsgd1na2vs0mg"},{"bike_id":"8e17715f-c74e-43f6-ada7-f6c63b953dbf","system_id":"levelo_inurba_marseille","lat":43.30809,"lon":5.37395,"is_reserved":false,"is_disabled":false,"rental_uris":{"android":"levelo://app?vid=8e17715f-c74e-43f6-ada7-f6c63b953dbf","ios":"levelo://app?vid=8e17715f-c74e-43f6-ada7-f6c63b953dbf"},"vehicle_type_id":"4","last_reported":1741882340,"current_range_meters":12800,"station_id":"","pricing_plan_id":"cebpf4jnsgd1na2vs0mg"},{"bike_id":"1c8be55f-994c-40a0-857c-739dc45c5b57","system_id":"levelo_inurba_marseille","lat":43.29597,"lon":5.38113,"is_reserved":false,"is_disabled":false,"rental_uris":{"android":"levelo://app?vid=1c8be55f-994c-40a0-857c-739dc45c5b57","ios":"levelo://app?vid=1c8be55f-994c-40a0-857c-739dc45c5b57"},"vehicle_type_id":"4","last_reported":1741882340,"current_range_meters":12400,"station_id":"ce4bgl12rcd13ifvqbo0","pricing_plan_id":"cebpf4jnsgd1na2vs0mg"},{"bike_id":"45f5800a-99c6-4c7e-892e-8047007584fe","system_id":"levelo_inurba_marseille","lat":43.29852,"lon":5.36276,"is_reserved":false,"is_disabled":false,"rental_uris":{"android":"levelo://app?vid=45f5800a-99c6-4c7e-892e-8047007584fe","ios":"levelo://app?vid=45f5800a-99c6-4c7e-892e-8047007584fe"},"vehicle_type_id":"4","last_reported":1741882340,"current_range_meters":12400,"station_id":"ce4bgpp2rcd13ifvqc3g","pricing_plan_id":"cebpf4jnsgd1na2vs0mg"},{"bike_id":"640613c1-b766-4095-ab85-ca6590ae3dc3","system_id":"levelo_inurba_marseille","lat":43.30137,"lon":5.39853,"is_reserved":false,"is_disabled":false,"rental_uris":{"android":"levelo://app?vid=640613c1-b766-4095-ab85-ca6590ae3dc3","ios":"levelo://app?vid=640613c1-b766-4095-ab85-ca6590ae3dc3"},"vehicle_type_id":"4","last_reported":1741882340,"current_range_meters":12800,"station_id":"ce4bh0h2rcd13ifvqd40","pricing_plan_id":"cebpf4jnsgd1na2vs0mg"},{"bike_id":"73dcc6a7-b2b1-4401-a27e-7c79a43471a2","system_id":"levelo_inurba_marseille","lat":43.23197,"lon":5.35553,"is_reserved":false,"is_disabled":false,"rental_uris":{"android":"levelo://app?vid=73dcc6a7-b2b1-4401-a27e-7c79a43471a2","ios":"levelo://app?vid=73dcc6a7-b2b1-4401-a27e-7c79a43471a2"},"vehicle_type_id":"4","last_reported":1741882340,"current_range_meters":12800,"station_id":"ce4bhu92rcd13ifvqi70","pricing_plan_id":"cebpf4jnsgd1na2vs0mg"},{"bike_id":"7121d818-13e2-43ed-b445-7134fefdd64f","system_id":"levelo_inurba_marseille","lat":43.23197,"lon":5.35545,"is_reserved":false,"is_disabled":false,"rental_uris":{"android":"levelo://app?vid=7121d818-13e2-43ed-b445-7134fefdd64f","ios":"levelo://app?vid=7121d818-13e2-43ed-b445-7134fefdd64f"},"vehicle_type_id":"4","last_reported":1741882340,"current_range_meters":12800,"station_id":"ce4bhu92rcd13ifvqi70","pricing_plan_id":"cebpf4jnsgd1na2vs0mg"},{"bike_id":"9b750467-87e2-4fdb-93d7-edcb536818eb","system_id":"levelo_inurba_marseille","lat":43.30536,"lon":5.367,"is_reserved":false,"is_disabled":false,"rental_uris":{"android":"levelo://app?vid=9b750467-87e2-4fdb-93d7-edcb536818eb","ios":"levelo://app?vid=9b750467-87e2-4fdb-93d7-edcb536818eb"},"vehicle_type_id":"4","last_reported":1741882340,"current_range_meters":12800,"station_id":"ce4bgrp2rcd13ifvqc9g","pricing_plan_id":"cebpf4jnsgd1na2vs0mg"},{"bike_id":"3363e5ed-aafd-4c83-9f97-12270e6ffcf4","system_id":"levelo_inurba_marseille","lat":43.24878,"lon":5.4066,"is_reserved":false,"is_disabled":false,"rental_uris":{"android":"levelo://app?vid=3363e5ed-aafd-4c83-9f97-12270e6ffcf4","ios":"levelo://app?vid=3363e5ed-aafd-4c83-9f97-12270e6ffcf4"},"vehicle_type_id":"4","last_reported":1741882340,"current_range_meters":12800,"station_id":"","pricing_plan_id":"cebpf4jnsgd1na2vs0mg"},{"bike_id":"36ec5a15-215b-4367-a3ca-336aadd9a251","system_id":"levelo_inurba_marseille","lat":43.33746,"lon":5.3745,"is_reserved":false,"is_disabled":false,"rental_uris":{"android":"levelo://app?vid=36ec5a15-215b-4367-a3ca-336aadd9a251","ios":"levelo://app?vid=36ec5a15-215b-4367-a3ca-336aadd9a251"},"vehicle_type_id":"4","last_reported":1741882340,"current_range_meters":12800,"station_id":"","pricing_plan_id":"cebpf4jnsgd1na2vs0mg"},{"bike_id":"436bf6fd-98f0-4c70-968c-7fcac8f398a5","system_id":"levelo_inurba_marseille","lat":43.25102,"lon":5.41041,"is_reserved":false,"is_disabled":false,"rental_uris":{"android":"levelo://app?vid=436bf6fd-98f0-4c70-968c-7fcac8f398a5","ios":"levelo://app?vid=436bf6fd-98f0-4c70-968c-7fcac8f398a5"},"vehicle_type_id":"4","last_reported":1741882340,"current_range_meters":13600,"station_id":"","pricing_plan_id":"cebpf4jnsgd1na2vs0mg"},{"bike_id":"491400b7-47b7-4d62-8f28-71e22fe7e092","system_id":"levelo_inurba_marseille","lat":43.31325,"lon":5.39693,"is_reserved":false,"is_disabled":false,"rental_uris":{"android":"levelo://app?vid=491400b7-47b7-4d62-8f28-71e22fe7e092","ios":"levelo://app?vid=491400b7-47b7-4d62-8f28-71e22fe7e092"},"vehicle_type_id":"4","last_reported":1741882340,"current_range_meters":13600,"station_id":"ce4bgvp2rcd13ifvqcu0","pricing_plan_id":"cebpf4jnsgd1na2vs0mg"},{"bike_id":"f7cdc0ba-7a2a-4f87-b096-fe9d38686168","system_id":"levelo_inurba_marseille","lat":43.30881,"lon":5.39642,"is_reserved":false,"is_disabled":false,"rental_uris":{"android":"levelo://app?vid=f7cdc0ba-7a2a-4f87-b096-fe9d38686168","ios":"levelo://app?vid=f7cdc0ba-7a2a-4f87-b096-fe9d38686168"},"vehicle_type_id":"4","last_reported":1741882340,"current_range_meters":13600,"station_id":"ce4bh012rcd13ifvqcv0","pricing_plan_id":"cebpf4jnsgd1na2vs0mg"},{"bike_id":"68be4077-811a-44a3-81fd-ed26801cdef8","system_id":"levelo_inurba_marseille","lat":43.326813,"lon":5.409421,"is_reserved":false,"is_disabled":false,"rental_uris":{"android":"levelo://app?vid=68be4077-811a-44a3-81fd-ed26801cdef8","ios":"levelo://app?vid=68be4077-811a-44a3-81fd-ed26801cdef8"},"vehicle_type_id":"4","last_reported":1741882340,"current_range_meters":13600,"station_id":"ce4bhpp2rcd13ifvqhgg","pricing_plan_id":"cebpf4jnsgd1na2vs0mg"},{"bike_id":"4078ae31-3c28-4811-a96d-e5898683501c","system_id":"levelo_inurba_marseille","lat":43.27815,"lon":5.40707,"is_reserved":false,"is_disabled":false,"rental_uris":{"android":"levelo://app?vid=4078ae31-3c28-4811-a96d-e5898683501c","ios":"levelo://app?vid=4078ae31-3c28-4811-a96d-e5898683501c"},"vehicle_type_id":"4","last_reported":1741882340,"current_range_meters":13600,"station_id":"ce4bhnh2rcd13ifvqgtg","pricing_plan_id":"cebpf4jnsgd1na2vs0mg"},{"bike_id":"b634fcd7-4303-4fed-a2f8-fcd04ed2a4dd","system_id":"levelo_inurba_marseille","lat":43.23058,"lon":5.35469,"is_reserved":false,"is_disabled":false,"rental_uris":{"android":"levelo://app?vid=b634fcd7-4303-4fed-a2f8-fcd04ed2a4dd","ios":"levelo://app?vid=b634fcd7-4303-4fed-a2f8-fcd04ed2a4dd"},"vehicle_type_id":"4","last_reported":1741882340,"current_range_meters":13600,"station_id":"cpo3342slgdg3j2ifvpg","pricing_plan_id":"cebpf4jnsgd1na2vs0mg"},{"bike_id":"9a719051-5115-4a08-8e7b-ae42f9cbb7fe","system_id":"levelo_inurba_marseille","lat":43.31115,"lon":5.37784,"is_reserved":false,"is_disabled":false,"rental_uris":{"android":"levelo://app?vid=9a719051-5115-4a08-8e7b-ae42f9cbb7fe","ios":"levelo://app?vid=9a719051-5115-4a08-8e7b-ae42f9cbb7fe"},"vehicle_type_id":"4","last_reported":1741882340,"current_range_meters":13600,"station_id":"ce4bgt92rcd13ifvqcg0","pricing_plan_id":"cebpf4jnsgd1na2vs0mg"},{"bike_id":"42da062f-60d2-4cf8-9fe1-10fe0ff15775","system_id":"levelo_inurba_marseille","lat":43.27914,"lon":5.39578,"is_reserved":false,"is_disabled":false,"rental_uris":{"android":"levelo://app?vid=42da062f-60d2-4cf8-9fe1-10fe0ff15775","ios":"levelo://app?vid=42da062f-60d2-4cf8-9fe1-10fe0ff15775"},"vehicle_type_id":"4","last_reported":1741882340,"current_range_meters":13600,"station_id":"ce4bhf92rcd13ifvqf40","pricing_plan_id":"cebpf4jnsgd1na2vs0mg"},{"bike_id":"2ebf8855-69ba-4dd3-9393-5f33650f45be","system_id":"levelo_inurba_marseille","lat":43.29024,"lon":5.38635,"is_reserved":false,"is_disabled":false,"rental_uris":{"android":"levelo://app?vid=2ebf8855-69ba-4dd3-9393-5f33650f45be","ios":"levelo://app?vid=2ebf8855-69ba-4dd3-9393-5f33650f45be"},"vehicle_type_id":"4","last_reported":1741882340,"current_range_meters":13600,"station_id":"ce4bh4p2rcd13ifvqe0g","pricing_plan_id":"cebpf4jnsgd1na2vs0mg"},{"bike_id":"e99b197a-b334-4bc9-8466-f6ddf5fa6679","system_id":"levelo_inurba_marseille","lat":43.30288,"lon":5.39216,"is_reserved":false,"is_disabled":false,"rental_uris":{"android":"levelo://app?vid=e99b197a-b334-4bc9-8466-f6ddf5fa6679","ios":"levelo://app?vid=e99b197a-b334-4bc9-8466-f6ddf5fa6679"},"vehicle_type_id":"4","last_reported":1741882340,"current_range_meters":13600,"station_id":"ce4bgkh2rcd13ifvqbk0","pricing_plan_id":"cebpf4jnsgd1na2vs0mg"},{"bike_id":"d71c7109-41aa-4810-80b5-3941266d1101","system_id":"levelo_inurba_marseille","lat":43.26803,"lon":5.40267,"is_reserved":false,"is_disabled":false,"rental_uris":{"android":"levelo://app?vid=d71c7109-41aa-4810-80b5-3941266d1101","ios":"levelo://app?vid=d71c7109-41aa-4810-80b5-3941266d1101"},"vehicle_type_id":"4","last_reported":1741882340,"current_range_meters":14000,"station_id":"ce501612rcd8frsf0b60","pricing_plan_id":"cebpf4jnsgd1na2vs0mg"},{"bike_id":"8cb18bb7-79d8-40f5-a72f-de705783beb0","system_id":"levelo_inurba_marseille","lat":43.31234,"lon":5.38487,"is_reserved":false,"is_disabled":false,"rental_uris":{"android":"levelo://app?vid=8cb18bb7-79d8-40f5-a72f-de705783beb0","ios":"levelo://app?vid=8cb18bb7-79d8-40f5-a72f-de705783beb0"},"vehicle_type_id":"4","last_reported":1741882340,"current_range_meters":14000,"station_id":"ce4bhr92rcd13ifvqhsg","pricing_plan_id":"cebpf4jnsgd1na2vs0mg"},{"bike_id":"096a1e4b-823e-43d9-9050-7088dea44509","system_id":"levelo_inurba_marseille","lat":43.22932,"lon":5.35377,"is_reserved":false,"is_disabled":false,"rental_uris":{"android":"levelo://app?vid=096a1e4b-823e-43d9-9050-7088dea44509","ios":"levelo://app?vid=096a1e4b-823e-43d9-9050-7088dea44509"},"vehicle_type_id":"4","last_reported":1741882340,"current_range_meters":14000,"station_id":"cpo3532slgdg3j2ikp40","pricing_plan_id":"cebpf4jnsgd1na2vs0mg"},{"bike_id":"80f8c0b8-846e-4b0b-b34c-dc38eecd837b","system_id":"levelo_inurba_marseille","lat":43.29601,"lon":5.38099,"is_reserved":false,"is_disabled":false,"rental_uris":{"android":"levelo://app?vid=80f8c0b8-846e-4b0b-b34c-dc38eecd837b","ios":"levelo://app?vid=80f8c0b8-846e-4b0b-b34c-dc38eecd837b"},"vehicle_type_id":"4","last_reported":1741882340,"current_range_meters":14000,"station_id":"ce4bgl12rcd13ifvqbo0","pricing_plan_id":"cebpf4jnsgd1na2vs0mg"},{"bike_id":"2a458cc1-a675-416c-8fb9-381b717822e6","system_id":"levelo_inurba_marseille","lat":43.30544,"lon":5.36531,"is_reserved":false,"is_disabled":false,"rental_uris":{"android":"levelo://app?vid=2a458cc1-a675-416c-8fb9-381b717822e6","ios":"levelo://app?vid=2a458cc1-a675-416c-8fb9-381b717822e6"},"vehicle_type_id":"4","last_reported":1741882340,"current_range_meters":14400,"station_id":"ce4bgs12rcd13ifvqcag","pricing_plan_id":"cebpf4jnsgd1na2vs0mg"},{"bike_id":"7a2528c7-fc51-47b3-b130-bcfcd01c1079","system_id":"levelo_inurba_marseille","lat":43.25925,"lon":5.40921,"is_reserved":false,"is_disabled":false,"rental_uris":{"android":"levelo://app?vid=7a2528c7-fc51-47b3-b130-bcfcd01c1079","ios":"levelo://app?vid=7a2528c7-fc51-47b3-b130-bcfcd01c1079"},"vehicle_type_id":"4","last_reported":1741882340,"current_range_meters":14400,"station_id":"ce4bhm92rcd13ifvqglg","pricing_plan_id":"cebpf4jnsgd1na2vs0mg"},{"bike_id":"001e6a95-adc6-4ffb-9675-9d56b901098c","system_id":"levelo_inurba_marseille","lat":43.31071,"lon":5.38356,"is_reserved":false,"is_disabled":false,"rental_uris":{"android":"levelo://app?vid=001e6a95-adc6-4ffb-9675-9d56b901098c","ios":"levelo://app?vid=001e6a95-adc6-4ffb-9675-9d56b901098c"},"vehicle_type_id":"4","last_reported":1741882340,"current_range_meters":14400,"station_id":"ce4bgv92rcd13ifvqcr0","pricing_plan_id":"cebpf4jnsgd1na2vs0mg"},{"bike_id":"ad74c1b4-8792-48b9-814a-56d4041a649a","system_id":"levelo_inurba_marseille","lat":43.29533,"lon":5.3904,"is_reserved":false,"is_disabled":false,"rental_uris":{"android":"levelo://app?vid=ad74c1b4-8792-48b9-814a-56d4041a649a","ios":"levelo://app?vid=ad74c1b4-8792-48b9-814a-56d4041a649a"},"vehicle_type_id":"4","last_reported":1741882340,"current_range_meters":14400,"station_id":"ce4bh3p2rcd13ifvqdp0","pricing_plan_id":"cebpf4jnsgd1na2vs0mg"},{"bike_id":"36fa1bfb-4451-41ac-ac56-73ee9f3feeab","system_id":"levelo_inurba_marseille","lat":43.31235,"lon":5.36857,"is_reserved":false,"is_disabled":false,"rental_uris":{"android":"levelo://app?vid=36fa1bfb-4451-41ac-ac56-73ee9f3feeab","ios":"levelo://app?vid=36fa1bfb-4451-41ac-ac56-73ee9f3feeab"},"vehicle_type_id":"4","last_reported":1741882340,"current_range_meters":14400,"station_id":"ce4bgl92rcd13ifvqbq0","pricing_plan_id":"cebpf4jnsgd1na2vs0mg"},{"bike_id":"59f75169-2a32-4671-b2e9-92d812c787ff","system_id":"levelo_inurba_marseille","lat":43.28459,"lon":5.35893,"is_reserved":false,"is_disabled":false,"rental_uris":{"android":"levelo://app?vid=59f75169-2a32-4671-b2e9-92d812c787ff","ios":"levelo://app?vid=59f75169-2a32-4671-b2e9-92d812c787ff"},"vehicle_type_id":"4","last_reported":1741882340,"current_range_meters":14400,"station_id":"ce4bhah2rcd13ifvqei0","pricing_plan_id":"cebpf4jnsgd1na2vs0mg"},{"bike_id":"a1865482-901a-461f-bbbf-89cc5aaa4978","system_id":"levelo_inurba_marseille","lat":43.31286,"lon":5.37894,"is_reserved":false,"is_disabled":false,"rental_uris":{"android":"levelo://app?vid=a1865482-901a-461f-bbbf-89cc5aaa4978","ios":"levelo://app?vid=a1865482-901a-461f-bbbf-89cc5aaa4978"},"vehicle_type_id":"4","last_reported":1741882340,"current_range_meters":14800,"station_id":"ce4bgj92rcd13ifvqbd0","pricing_plan_id":"cebpf4jnsgd1na2vs0mg"},{"bike_id":"c7270f94-cd37-4cfa-9ef1-d0cdc754a19d","system_id":"levelo_inurba_marseille","lat":43.33024,"lon":5.39038,"is_reserved":false,"is_disabled":false,"rental_uris":{"android":"levelo://app?vid=c7270f94-cd37-4cfa-9ef1-d0cdc754a19d","ios":"levelo://app?vid=c7270f94-cd37-4cfa-9ef1-d0cdc754a19d"},"vehicle_type_id":"4","last_reported":1741882340,"current_range_meters":14800,"station_id":"ce4bhr92rcd13ifvqhrg","pricing_plan_id":"cebpf4jnsgd1na2vs0mg"},{"bike_id":"a5e71948-735a-4229-b2ca-74d55fc62066","system_id":"levelo_inurba_marseille","lat":43.28042,"lon":5.36942,"is_reserved":false,"is_disabled":false,"rental_uris":{"android":"levelo://app?vid=a5e71948-735a-4229-b2ca-74d55fc62066","ios":"levelo://app?vid=a5e71948-735a-4229-b2ca-74d55fc62066"},"vehicle_type_id":"4","last_reported":1741882340,"current_range_meters":14800,"station_id":"ce4bha12rcd13ifvqef0","pricing_plan_id":"cebpf4jnsgd1na2vs0mg"},{"bike_id":"c1fb842c-8600-415a-ae8f-7258f02546ef","system_id":"levelo_inurba_marseille","lat":43.30795,"lon":5.3766,"is_reserved":false,"is_disabled":false,"rental_uris":{"android":"levelo://app?vid=c1fb842c-8600-415a-ae8f-7258f02546ef","ios":"levelo://app?vid=c1fb842c-8600-415a-ae8f-7258f02546ef"},"vehicle_type_id":"4","last_reported":1741882340,"current_range_meters":14800,"station_id":"ce4bgv92rcd13ifvqcq0","pricing_plan_id":"cebpf4jnsgd1na2vs0mg"},{"bike_id":"c36d1500-f4d5-46bc-8fde-f914dc989473","system_id":"levelo_inurba_marseille","lat":43.29959,"lon":5.41326,"is_reserved":false,"is_disabled":false,"rental_uris":{"android":"levelo://app?vid=c36d1500-f4d5-46bc-8fde-f914dc989473","ios":"levelo://app?vid=c36d1500-f4d5-46bc-8fde-f914dc989473"},"vehicle_type_id":"4","last_reported":1741882340,"current_range_meters":14800,"station_id":"ce4bhp12rcd13ifvqh9g","pricing_plan_id":"cebpf4jnsgd1na2vs0mg"},{"bike_id":"fdb9547a-e7de-4140-9c95-154052444bd4","system_id":"levelo_inurba_marseille","lat":43.25006,"lon":5.389,"is_reserved":false,"is_disabled":false,"rental_uris":{"android":"levelo://app?vid=fdb9547a-e7de-4140-9c95-154052444bd4","ios":"levelo://app?vid=fdb9547a-e7de-4140-9c95-154052444bd4"},"vehicle_type_id":"4","last_reported":1741882340,"current_range_meters":14800,"station_id":"ce4bhgp2rcd13ifvqfd0","pricing_plan_id":"cebpf4jnsgd1na2vs0mg"},{"bike_id":"3aeff672-7456-496c-bfff-dd04d48418ec","system_id":"levelo_inurba_marseille","lat":43.29631,"lon":5.40597,"is_reserved":false,"is_disabled":false,"rental_uris":{"android":"levelo://app?vid=3aeff672-7456-496c-bfff-dd04d48418ec","ios":"levelo://app?vid=3aeff672-7456-496c-bfff-dd04d48418ec"},"vehicle_type_id":"4","last_reported":1741882340,"current_range_meters":14400,"station_id":"ce4bh0h2rcd13ifvqd60","pricing_plan_id":"cebpf4jnsgd1na2vs0mg"},{"bike_id":"840fe58d-702c-4643-802b-02b7904775ac","system_id":"levelo_inurba_marseille","lat":43.30807,"lon":5.43523,"is_reserved":false,"is_disabled":false,"rental_uris":{"android":"levelo://app?vid=840fe58d-702c-4643-802b-02b7904775ac","ios":"levelo://app?vid=840fe58d-702c-4643-802b-02b7904775ac"},"vehicle_type_id":"4","last_reported":1741882340,"current_range_meters":14800,"station_id":"ce4bhph2rcd13ifvqheg","pricing_plan_id":"cebpf4jnsgd1na2vs0mg"},{"bike_id":"8b13cda8-b5de-44e1-8b94-06240d85aa18","system_id":"levelo_inurba_marseille","lat":43.3079,"lon":5.37641,"is_reserved":false,"is_disabled":false,"rental_uris":{"android":"levelo://app?vid=8b13cda8-b5de-44e1-8b94-06240d85aa18","ios":"levelo://app?vid=8b13cda8-b5de-44e1-8b94-06240d85aa18"},"vehicle_type_id":"4","last_reported":1741882340,"current_range_meters":14800,"station_id":"ce4bgv92rcd13ifvqcq0","pricing_plan_id":"cebpf4jnsgd1na2vs0mg"},{"bike_id":"4002e5af-b85a-40c3-b9b5-60305521f9e9","system_id":"levelo_inurba_marseille","lat":43.28935,"lon":5.36642,"is_reserved":false,"is_disabled":false,"rental_uris":{"android":"levelo://app?vid=4002e5af-b85a-40c3-b9b5-60305521f9e9","ios":"levelo://app?vid=4002e5af-b85a-40c3-b9b5-60305521f9e9"},"vehicle_type_id":"4","last_reported":1741882340,"current_range_meters":14800,"station_id":"ce4bhap2rcd13ifvqek0","pricing_plan_id":"cebpf4jnsgd1na2vs0mg"},{"bike_id":"d15dbcb6-cfa3-48e5-8e18-e7ccdbf5d58c","system_id":"levelo_inurba_marseille","lat":43.30887,"lon":5.39629,"is_reserved":false,"is_disabled":false,"rental_uris":{"android":"levelo://app?vid=d15dbcb6-cfa3-48e5-8e18-e7ccdbf5d58c","ios":"levelo://app?vid=d15dbcb6-cfa3-48e5-8e18-e7ccdbf5d58c"},"vehicle_type_id":"4","last_reported":1741882340,"current_range_meters":15200,"station_id":"ce4bh012rcd13ifvqcv0","pricing_plan_id":"cebpf4jnsgd1na2vs0mg"},{"bike_id":"a7995408-8293-45f1-957c-9e79df1d45b8","system_id":"levelo_inurba_marseille","lat":43.29873,"lon":5.39739,"is_reserved":false,"is_disabled":false,"rental_uris":{"android":"levelo://app?vid=a7995408-8293-45f1-957c-9e79df1d45b8","ios":"levelo://app?vid=a7995408-8293-45f1-957c-9e79df1d45b8"},"vehicle_type_id":"4","last_reported":1741882340,"current_range_meters":15200,"station_id":"ce4bh0h2rcd13ifvqd50","pricing_plan_id":"cebpf4jnsgd1na2vs0mg"},{"bike_id":"e514d185-4131-49cd-8a7c-317241865033","system_id":"levelo_inurba_marseille","lat":43.31496,"lon":5.37313,"is_reserved":false,"is_disabled":false,"rental_uris":{"android":"levelo://app?vid=e514d185-4131-49cd-8a7c-317241865033","ios":"levelo://app?vid=e514d185-4131-49cd-8a7c-317241865033"},"vehicle_type_id":"4","last_reported":1741882340,"current_range_meters":15200,"station_id":"ce4bgt12rcd13ifvqcd0","pricing_plan_id":"cebpf4jnsgd1na2vs0mg"},{"bike_id":"3bfa1071-7ef7-4602-a2f9-7c08147ce343","system_id":"levelo_inurba_marseille","lat":43.2762,"lon":5.36111,"is_reserved":false,"is_disabled":false,"rental_uris":{"android":"levelo://app?vid=3bfa1071-7ef7-4602-a2f9-7c08147ce343","ios":"levelo://app?vid=3bfa1071-7ef7-4602-a2f9-7c08147ce343"},"vehicle_type_id":"4","last_reported":1741882340,"current_range_meters":15200,"station_id":"ce4bgj92rcd13ifvqbe0","pricing_plan_id":"cebpf4jnsgd1na2vs0mg"},{"bike_id":"cf4b3d98-dbd8-492b-9076-852032f46d69","system_id":"levelo_inurba_marseille","lat":43.29031,"lon":5.38654,"is_reserved":false,"is_disabled":false,"rental_uris":{"android":"levelo://app?vid=cf4b3d98-dbd8-492b-9076-852032f46d69","ios":"levelo://app?vid=cf4b3d98-dbd8-492b-9076-852032f46d69"},"vehicle_type_id":"4","last_reported":1741882340,"current_range_meters":14800,"station_id":"ce4bh4p2rcd13ifvqe0g","pricing_plan_id":"cebpf4jnsgd1na2vs0mg"},{"bike_id":"594a33ea-5c85-49b0-893b-48b1f5e1011a","system_id":"levelo_inurba_marseille","lat":43.3092,"lon":5.40144,"is_reserved":false,"is_disabled":true,"rental_uris":{"android":"levelo://app?vid=594a33ea-5c85-49b0-893b-48b1f5e1011a","ios":"levelo://app?vid=594a33ea-5c85-49b0-893b-48b1f5e1011a"},"vehicle_type_id":"4","last_reported":1741882340,"current_range_meters":15200,"station_id":"ce4bgvp2rcd13ifvqct0","pricing_plan_id":"cebpf4jnsgd1na2vs0mg"},{"bike_id":"3e33256a-d861-45c0-af01-75642132ca20","system_id":"levelo_inurba_marseille","lat":43.33033,"lon":5.39398,"is_reserved":false,"is_disabled":false,"rental_uris":{"android":"levelo://app?vid=3e33256a-d861-45c0-af01-75642132ca20","ios":"levelo://app?vid=3e33256a-d861-45c0-af01-75642132ca20"},"vehicle_type_id":"4","last_reported":1741882340,"current_range_meters":15200,"station_id":"","pricing_plan_id":"cebpf4jnsgd1na2vs0mg"},{"bike_id":"aeec4843-e0cf-441f-b4d2-907b0f5fbe59","system_id":"levelo_inurba_marseille","lat":43.25826,"lon":5.39435,"is_reserved":false,"is_disabled":false,"rental_uris":{"android":"levelo://app?vid=aeec4843-e0cf-441f-b4d2-907b0f5fbe59","ios":"levelo://app?vid=aeec4843-e0cf-441f-b4d2-907b0f5fbe59"},"vehicle_type_id":"4","last_reported":1741882340,"current_range_meters":16000,"station_id":"ce4bhip2rcd13ifvqft0","pricing_plan_id":"cebpf4jnsgd1na2vs0mg"},{"bike_id":"6ae8267a-d35e-43bd-a4e6-ed7f917696e3","system_id":"levelo_inurba_marseille","lat":43.30886,"lon":5.39656,"is_reserved":false,"is_disabled":false,"rental_uris":{"android":"levelo://app?vid=6ae8267a-d35e-43bd-a4e6-ed7f917696e3","ios":"levelo://app?vid=6ae8267a-d35e-43bd-a4e6-ed7f917696e3"},"vehicle_type_id":"4","last_reported":1741882340,"current_range_meters":16000,"station_id":"ce4bh012rcd13ifvqcv0","pricing_plan_id":"cebpf4jnsgd1na2vs0mg"},{"bike_id":"069c8f5b-8764-4b60-8252-1e58f1bb26d7","system_id":"levelo_inurba_marseille","lat":43.31074,"lon":5.38355,"is_reserved":false,"is_disabled":false,"rental_uris":{"android":"levelo://app?vid=069c8f5b-8764-4b60-8252-1e58f1bb26d7","ios":"levelo://app?vid=069c8f5b-8764-4b60-8252-1e58f1bb26d7"},"vehicle_type_id":"4","last_reported":1741882340,"current_range_meters":16000,"station_id":"ce4bgv92rcd13ifvqcr0","pricing_plan_id":"cebpf4jnsgd1na2vs0mg"},{"bike_id":"ea03c59c-5b0e-43ff-8239-9860d2b3ec58","system_id":"levelo_inurba_marseille","lat":43.31165,"lon":5.38721,"is_reserved":false,"is_disabled":false,"rental_uris":{"android":"levelo://app?vid=ea03c59c-5b0e-43ff-8239-9860d2b3ec58","ios":"levelo://app?vid=ea03c59c-5b0e-43ff-8239-9860d2b3ec58"},"vehicle_type_id":"4","last_reported":1741882340,"current_range_meters":16000,"station_id":"ce4bgv12rcd13ifvqcp0","pricing_plan_id":"cebpf4jnsgd1na2vs0mg"},{"bike_id":"ae0cb6ae-d8b5-4dc3-b181-0ba82cfd635b","system_id":"levelo_inurba_marseille","lat":43.27367,"lon":5.36245,"is_reserved":false,"is_disabled":false,"rental_uris":{"android":"levelo://app?vid=ae0cb6ae-d8b5-4dc3-b181-0ba82cfd635b","ios":"levelo://app?vid=ae0cb6ae-d8b5-4dc3-b181-0ba82cfd635b"},"vehicle_type_id":"4","last_reported":1741882340,"current_range_meters":16000,"station_id":"ce4bhbh2rcd13ifvqeo0","pricing_plan_id":"cebpf4jnsgd1na2vs0mg"},{"bike_id":"29832e81-b63f-44c3-a8ae-1ccbc505bd58","system_id":"levelo_inurba_marseille","lat":43.27824,"lon":5.40714,"is_reserved":false,"is_disabled":false,"rental_uris":{"android":"levelo://app?vid=29832e81-b63f-44c3-a8ae-1ccbc505bd58","ios":"levelo://app?vid=29832e81-b63f-44c3-a8ae-1ccbc505bd58"},"vehicle_type_id":"4","last_reported":1741882340,"current_range_meters":16000,"station_id":"ce4bhnh2rcd13ifvqgtg","pricing_plan_id":"cebpf4jnsgd1na2vs0mg"},{"bike_id":"796a9c3c-d006-4f72-92ae-af64cf7e484e","system_id":"levelo_inurba_marseille","lat":43.28591,"lon":5.35077,"is_reserved":false,"is_disabled":false,"rental_uris":{"android":"levelo://app?vid=796a9c3c-d006-4f72-92ae-af64cf7e484e","ios":"levelo://app?vid=796a9c3c-d006-4f72-92ae-af64cf7e484e"},"vehicle_type_id":"4","last_reported":1741882340,"current_range_meters":16000,"station_id":"ce4bhch2rcd13ifvqeug","pricing_plan_id":"cebpf4jnsgd1na2vs0mg"},{"bike_id":"dc2dc920-7061-4611-9ad3-02d4898aaa15","system_id":"levelo_inurba_marseille","lat":43.23187,"lon":5.399683,"is_reserved":false,"is_disabled":false,"rental_uris":{"android":"levelo://app?vid=dc2dc920-7061-4611-9ad3-02d4898aaa15","ios":"levelo://app?vid=dc2dc920-7061-4611-9ad3-02d4898aaa15"},"vehicle_type_id":"4","last_reported":1741882340,"current_range_meters":16000,"station_id":"ce4bhn12rcd13ifvqgqg","pricing_plan_id":"cebpf4jnsgd1na2vs0mg"},{"bike_id":"075a7328-5c33-4d29-810a-ac380fc45d29","system_id":"levelo_inurba_marseille","lat":43.30877,"lon":5.39657,"is_reserved":false,"is_disabled":false,"rental_uris":{"android":"levelo://app?vid=075a7328-5c33-4d29-810a-ac380fc45d29","ios":"levelo://app?vid=075a7328-5c33-4d29-810a-ac380fc45d29"},"vehicle_type_id":"4","last_reported":1741882340,"current_range_meters":16000,"station_id":"ce4bh012rcd13ifvqcv0","pricing_plan_id":"cebpf4jnsgd1na2vs0mg"},{"bike_id":"44a915de-5ab5-4382-91c5-32428895ca30","system_id":"levelo_inurba_marseille","lat":43.29976,"lon":5.37174,"is_reserved":false,"is_disabled":false,"rental_uris":{"android":"levelo://app?vid=44a915de-5ab5-4382-91c5-32428895ca30","ios":"levelo://app?vid=44a915de-5ab5-4382-91c5-32428895ca30"},"vehicle_type_id":"4","last_reported":1741882340,"current_range_meters":16000,"station_id":"ce4bgrh2rcd13ifvqc8g","pricing_plan_id":"cebpf4jnsgd1na2vs0mg"},{"bike_id":"4bf2ea98-259a-44fc-b697-2b81c84ab670","system_id":"levelo_inurba_marseille","lat":43.315842,"lon":5.418645,"is_reserved":false,"is_disabled":false,"rental_uris":{"android":"levelo://app?vid=4bf2ea98-259a-44fc-b697-2b81c84ab670","ios":"levelo://app?vid=4bf2ea98-259a-44fc-b697-2b81c84ab670"},"vehicle_type_id":"4","last_reported":1741882340,"current_range_meters":15200,"station_id":"ce4bhp92rcd13ifvqhbg","pricing_plan_id":"cebpf4jnsgd1na2vs0mg"},{"bike_id":"77cc074f-a4fc-4efc-9943-a45c92a22bc2","system_id":"levelo_inurba_marseille","lat":43.31229,"lon":5.36877,"is_reserved":false,"is_disabled":false,"rental_uris":{"android":"levelo://app?vid=77cc074f-a4fc-4efc-9943-a45c92a22bc2","ios":"levelo://app?vid=77cc074f-a4fc-4efc-9943-a45c92a22bc2"},"vehicle_type_id":"4","last_reported":1741882340,"current_range_meters":16000,"station_id":"ce4bgl92rcd13ifvqbq0","pricing_plan_id":"cebpf4jnsgd1na2vs0mg"},{"bike_id":"5f876ba3-5a1c-487f-84f2-92d0f5eb53f8","system_id":"levelo_inurba_marseille","lat":43.28465,"lon":5.35899,"is_reserved":false,"is_disabled":false,"rental_uris":{"android":"levelo://app?vid=5f876ba3-5a1c-487f-84f2-92d0f5eb53f8","ios":"levelo://app?vid=5f876ba3-5a1c-487f-84f2-92d0f5eb53f8"},"vehicle_type_id":"4","last_reported":1741882340,"current_range_meters":16000,"station_id":"ce4bhah2rcd13ifvqei0","pricing_plan_id":"cebpf4jnsgd1na2vs0mg"},{"bike_id":"927893d8-1fd7-4ca0-acff-8661b64c9fc2","system_id":"levelo_inurba_marseille","lat":43.26789,"lon":5.39415,"is_reserved":false,"is_disabled":false,"rental_uris":{"android":"levelo://app?vid=927893d8-1fd7-4ca0-acff-8661b64c9fc2","ios":"levelo://app?vid=927893d8-1fd7-4ca0-acff-8661b64c9fc2"},"vehicle_type_id":"4","last_reported":1741882340,"current_range_meters":16400,"station_id":"ce4bhh12rcd13ifvqfg0","pricing_plan_id":"cebpf4jnsgd1na2vs0mg"},{"bike_id":"7689a030-0147-43ab-bcf7-a773f28b7e74","system_id":"levelo_inurba_marseille","lat":43.27373,"lon":5.36251,"is_reserved":false,"is_disabled":false,"rental_uris":{"android":"levelo://app?vid=7689a030-0147-43ab-bcf7-a773f28b7e74","ios":"levelo://app?vid=7689a030-0147-43ab-bcf7-a773f28b7e74"},"vehicle_type_id":"4","last_reported":1741882340,"current_range_meters":16400,"station_id":"ce4bhbh2rcd13ifvqeo0","pricing_plan_id":"cebpf4jnsgd1na2vs0mg"},{"bike_id":"3a0ca2ac-ad4f-4f28-856e-a8dc668ca745","system_id":"levelo_inurba_marseille","lat":43.2396,"lon":5.36641,"is_reserved":false,"is_disabled":false,"rental_uris":{"android":"levelo://app?vid=3a0ca2ac-ad4f-4f28-856e-a8dc668ca745","ios":"levelo://app?vid=3a0ca2ac-ad4f-4f28-856e-a8dc668ca745"},"vehicle_type_id":"4","last_reported":1741882340,"current_range_meters":16400,"station_id":"ce4bhi12rcd13ifvqfp0","pricing_plan_id":"cebpf4jnsgd1na2vs0mg"},{"bike_id":"348247b2-48e0-4dcc-a715-962b70792810","system_id":"levelo_inurba_marseille","lat":43.24651,"lon":5.38892,"is_reserved":false,"is_disabled":false,"rental_uris":{"android":"levelo://app?vid=348247b2-48e0-4dcc-a715-962b70792810","ios":"levelo://app?vid=348247b2-48e0-4dcc-a715-962b70792810"},"vehicle_type_id":"4","last_reported":1741882340,"current_range_meters":16400,"station_id":"ce4bhg12rcd13ifvqf60","pricing_plan_id":"cebpf4jnsgd1na2vs0mg"},{"bike_id":"7f367cd2-0f2a-4bd2-8e5a-51c54ab62014","system_id":"levelo_inurba_marseille","lat":43.28562,"lon":5.39498,"is_reserved":false,"is_disabled":false,"rental_uris":{"android":"levelo://app?vid=7f367cd2-0f2a-4bd2-8e5a-51c54ab62014","ios":"levelo://app?vid=7f367cd2-0f2a-4bd2-8e5a-51c54ab62014"},"vehicle_type_id":"4","last_reported":1741882340,"current_range_meters":16400,"station_id":"ce4bh292rcd13ifvqdg0","pricing_plan_id":"cebpf4jnsgd1na2vs0mg"},{"bike_id":"b722bf1d-ebdf-4a97-8c23-0958cc0bf579","system_id":"levelo_inurba_marseille","lat":43.290405,"lon":5.37548,"is_reserved":false,"is_disabled":false,"rental_uris":{"android":"levelo://app?vid=b722bf1d-ebdf-4a97-8c23-0958cc0bf579","ios":"levelo://app?vid=b722bf1d-ebdf-4a97-8c23-0958cc0bf579"},"vehicle_type_id":"4","last_reported":1741882340,"current_range_meters":16400,"station_id":"ce4bh3p2rcd13ifvqdp0","pricing_plan_id":"cebpf4jnsgd1na2vs0mg"},{"bike_id":"092fe319-987a-4748-aacb-203be90128af","system_id":"levelo_inurba_marseille","lat":43.2707,"lon":5.42276,"is_reserved":false,"is_disabled":false,"rental_uris":{"android":"levelo://app?vid=092fe319-987a-4748-aacb-203be90128af","ios":"levelo://app?vid=092fe319-987a-4748-aacb-203be90128af"},"vehicle_type_id":"4","last_reported":1741882340,"current_range_meters":16400,"station_id":"ce4bhk92rcd13ifvqgb0","pricing_plan_id":"cebpf4jnsgd1na2vs0mg"},{"bike_id":"a0a6a763-e390-4047-a826-dd9dece614ef","system_id":"levelo_inurba_marseille","lat":43.27002,"lon":5.36553,"is_reserved":false,"is_disabled":false,"rental_uris":{"android":"levelo://app?vid=a0a6a763-e390-4047-a826-dd9dece614ef","ios":"levelo://app?vid=a0a6a763-e390-4047-a826-dd9dece614ef"},"vehicle_type_id":"4","last_reported":1741882340,"current_range_meters":16400,"station_id":"","pricing_plan_id":"cebpf4jnsgd1na2vs0mg"},{"bike_id":"8f7fc6e3-4f34-40c4-a1c6-220f2c5ee70c","system_id":"levelo_inurba_marseille","lat":43.28421,"lon":5.37523,"is_reserved":false,"is_disabled":false,"rental_uris":{"android":"levelo://app?vid=8f7fc6e3-4f34-40c4-a1c6-220f2c5ee70c","ios":"levelo://app?vid=8f7fc6e3-4f34-40c4-a1c6-220f2c5ee70c"},"vehicle_type_id":"4","last_reported":1741882340,"current_range_meters":16400,"station_id":"ce4bh412rcd13ifvqds0","pricing_plan_id":"cebpf4jnsgd1na2vs0mg"},{"bike_id":"de4383a4-4f18-4f67-bd89-cb8db6d7af98","system_id":"levelo_inurba_marseille","lat":43.27999,"lon":5.400218,"is_reserved":false,"is_disabled":false,"rental_uris":{"android":"levelo://app?vid=de4383a4-4f18-4f67-bd89-cb8db6d7af98","ios":"levelo://app?vid=de4383a4-4f18-4f67-bd89-cb8db6d7af98"},"vehicle_type_id":"4","last_reported":1741882340,"current_range_meters":16800,"station_id":"ce4bho92rcd13ifvqh4g","pricing_plan_id":"cebpf4jnsgd1na2vs0mg"},{"bike_id":"ba0ff314-18b8-4ef6-b3f3-756e797defc3","system_id":"levelo_inurba_marseille","lat":43.30789,"lon":5.376585,"is_reserved":false,"is_disabled":false,"rental_uris":{"android":"levelo://app?vid=ba0ff314-18b8-4ef6-b3f3-756e797defc3","ios":"levelo://app?vid=ba0ff314-18b8-4ef6-b3f3-756e797defc3"},"vehicle_type_id":"4","last_reported":1741882340,"current_range_meters":16800,"station_id":"ce4bgv92rcd13ifvqcq0","pricing_plan_id":"cebpf4jnsgd1na2vs0mg"},{"bike_id":"3bafd1d7-3646-4020-aeb3-67bf45c8d4c3","system_id":"levelo_inurba_marseille","lat":43.28661,"lon":5.38606,"is_reserved":false,"is_disabled":false,"rental_uris":{"android":"levelo://app?vid=3bafd1d7-3646-4020-aeb3-67bf45c8d4c3","ios":"levelo://app?vid=3bafd1d7-3646-4020-aeb3-67bf45c8d4c3"},"vehicle_type_id":"4","last_reported":1741882340,"current_range_meters":16800,"station_id":"","pricing_plan_id":"cebpf4jnsgd1na2vs0mg"},{"bike_id":"708f786b-5fcf-4bf6-95b0-9fd4dcd89ffc","system_id":"levelo_inurba_marseille","lat":43.30886,"lon":5.39654,"is_reserved":false,"is_disabled":false,"rental_uris":{"android":"levelo://app?vid=708f786b-5fcf-4bf6-95b0-9fd4dcd89ffc","ios":"levelo://app?vid=708f786b-5fcf-4bf6-95b0-9fd4dcd89ffc"},"vehicle_type_id":"4","last_reported":1741882340,"current_range_meters":16800,"station_id":"ce4bh012rcd13ifvqcv0","pricing_plan_id":"cebpf4jnsgd1na2vs0mg"},{"bike_id":"b18d4dc3-ed33-4884-8170-f0329c21a3e0","system_id":"levelo_inurba_marseille","lat":43.27812,"lon":5.40724,"is_reserved":false,"is_disabled":false,"rental_uris":{"android":"levelo://app?vid=b18d4dc3-ed33-4884-8170-f0329c21a3e0","ios":"levelo://app?vid=b18d4dc3-ed33-4884-8170-f0329c21a3e0"},"vehicle_type_id":"4","last_reported":1741882340,"current_range_meters":16800,"station_id":"ce4bhnh2rcd13ifvqgtg","pricing_plan_id":"cebpf4jnsgd1na2vs0mg"},{"bike_id":"2a074725-5311-4716-9bee-6deb445d84f9","system_id":"levelo_inurba_marseille","lat":43.26499,"lon":5.39537,"is_reserved":false,"is_disabled":false,"rental_uris":{"android":"levelo://app?vid=2a074725-5311-4716-9bee-6deb445d84f9","ios":"levelo://app?vid=2a074725-5311-4716-9bee-6deb445d84f9"},"vehicle_type_id":"4","last_reported":1741882340,"current_range_meters":17200,"station_id":"ce4bhi12rcd13ifvqfq0","pricing_plan_id":"cebpf4jnsgd1na2vs0mg"},{"bike_id":"357c208f-3106-4228-a20a-04e892f984bc","system_id":"levelo_inurba_marseille","lat":43.32352,"lon":5.36744,"is_reserved":false,"is_disabled":false,"rental_uris":{"android":"levelo://app?vid=357c208f-3106-4228-a20a-04e892f984bc","ios":"levelo://app?vid=357c208f-3106-4228-a20a-04e892f984bc"},"vehicle_type_id":"4","last_reported":1741882340,"current_range_meters":16800,"station_id":"ce4bhsh2rcd13ifvqi2g","pricing_plan_id":"cebpf4jnsgd1na2vs0mg"},{"bike_id":"b8d433fe-ef1f-4898-8c27-0d671afc629e","system_id":"levelo_inurba_marseille","lat":43.30804,"lon":5.3815,"is_reserved":false,"is_disabled":false,"rental_uris":{"android":"levelo://app?vid=b8d433fe-ef1f-4898-8c27-0d671afc629e","ios":"levelo://app?vid=b8d433fe-ef1f-4898-8c27-0d671afc629e"},"vehicle_type_id":"4","last_reported":1741882340,"current_range_meters":16800,"station_id":"ce4bgt12rcd13ifvqce0","pricing_plan_id":"cebpf4jnsgd1na2vs0mg"},{"bike_id":"31c8862d-1f7d-4f69-a37f-93c25c9ce4d5","system_id":"levelo_inurba_marseille","lat":43.25002,"lon":5.38928,"is_reserved":false,"is_disabled":false,"rental_uris":{"android":"levelo://app?vid=31c8862d-1f7d-4f69-a37f-93c25c9ce4d5","ios":"levelo://app?vid=31c8862d-1f7d-4f69-a37f-93c25c9ce4d5"},"vehicle_type_id":"4","last_reported":1741882340,"current_range_meters":16800,"station_id":"ce4bhgp2rcd13ifvqfd0","pricing_plan_id":"cebpf4jnsgd1na2vs0mg"},{"bike_id":"d98e5f37-4f71-4a36-9b3b-496f87de0d61","system_id":"levelo_inurba_marseille","lat":43.310993,"lon":5.37584,"is_reserved":false,"is_disabled":false,"rental_uris":{"android":"levelo://app?vid=d98e5f37-4f71-4a36-9b3b-496f87de0d61","ios":"levelo://app?vid=d98e5f37-4f71-4a36-9b3b-496f87de0d61"},"vehicle_type_id":"4","last_reported":1741882340,"current_range_meters":16800,"station_id":"","pricing_plan_id":"cebpf4jnsgd1na2vs0mg"},{"bike_id":"55ccb224-acdb-40c0-9250-20b5e51fc613","system_id":"levelo_inurba_marseille","lat":43.31191,"lon":5.36811,"is_reserved":false,"is_disabled":false,"rental_uris":{"android":"levelo://app?vid=55ccb224-acdb-40c0-9250-20b5e51fc613","ios":"levelo://app?vid=55ccb224-acdb-40c0-9250-20b5e51fc613"},"vehicle_type_id":"4","last_reported":1741882340,"current_range_meters":16800,"station_id":"ce4bgl92rcd13ifvqbq0","pricing_plan_id":"cebpf4jnsgd1na2vs0mg"},{"bike_id":"50742753-7042-4a5d-a6cd-4034a48c9dd9","system_id":"levelo_inurba_marseille","lat":43.29253,"lon":5.40905,"is_reserved":false,"is_disabled":false,"rental_uris":{"android":"levelo://app?vid=50742753-7042-4a5d-a6cd-4034a48c9dd9","ios":"levelo://app?vid=50742753-7042-4a5d-a6cd-4034a48c9dd9"},"vehicle_type_id":"4","last_reported":1741882340,"current_range_meters":16800,"station_id":"ce4bh192rcd13ifvqdc0","pricing_plan_id":"cebpf4jnsgd1na2vs0mg"},{"bike_id":"c811e880-e684-47ad-bf80-9174d682eae3","system_id":"levelo_inurba_marseille","lat":43.29426,"lon":5.38627,"is_reserved":false,"is_disabled":false,"rental_uris":{"android":"levelo://app?vid=c811e880-e684-47ad-bf80-9174d682eae3","ios":"levelo://app?vid=c811e880-e684-47ad-bf80-9174d682eae3"},"vehicle_type_id":"4","last_reported":1741882340,"current_range_meters":16800,"station_id":"ce4bh2h2rcd13ifvqdh0","pricing_plan_id":"cebpf4jnsgd1na2vs0mg"},{"bike_id":"58f2603d-8c15-4f5b-a36a-bb90cf43714d","system_id":"levelo_inurba_marseille","lat":43.29098,"lon":5.38152,"is_reserved":false,"is_disabled":false,"rental_uris":{"android":"levelo://app?vid=58f2603d-8c15-4f5b-a36a-bb90cf43714d","ios":"levelo://app?vid=58f2603d-8c15-4f5b-a36a-bb90cf43714d"},"vehicle_type_id":"4","last_reported":1741882340,"current_range_meters":17200,"station_id":"ce4bh512rcd13ifvqe2g","pricing_plan_id":"cebpf4jnsgd1na2vs0mg"},{"bike_id":"59822710-2d10-4517-868b-42cfab329759","system_id":"levelo_inurba_marseille","lat":43.23187,"lon":5.35555,"is_reserved":false,"is_disabled":false,"rental_uris":{"android":"levelo://app?vid=59822710-2d10-4517-868b-42cfab329759","ios":"levelo://app?vid=59822710-2d10-4517-868b-42cfab329759"},"vehicle_type_id":"4","last_reported":1741882340,"current_range_meters":17200,"station_id":"ce4bhu92rcd13ifvqi70","pricing_plan_id":"cebpf4jnsgd1na2vs0mg"},{"bike_id":"f172a2ec-bf91-4029-a1ad-e09ae8595902","system_id":"levelo_inurba_marseille","lat":43.25108,"lon":5.4032,"is_reserved":false,"is_disabled":false,"rental_uris":{"android":"levelo://app?vid=f172a2ec-bf91-4029-a1ad-e09ae8595902","ios":"levelo://app?vid=f172a2ec-bf91-4029-a1ad-e09ae8595902"},"vehicle_type_id":"4","last_reported":1741882340,"current_range_meters":17200,"station_id":"ce4bhlh2rcd13ifvqgig","pricing_plan_id":"cebpf4jnsgd1na2vs0mg"},{"bike_id":"3b5238ed-e6ef-44c4-ac93-f8e070990b1c","system_id":"levelo_inurba_marseille","lat":43.25688,"lon":5.41114,"is_reserved":false,"is_disabled":false,"rental_uris":{"android":"levelo://app?vid=3b5238ed-e6ef-44c4-ac93-f8e070990b1c","ios":"levelo://app?vid=3b5238ed-e6ef-44c4-ac93-f8e070990b1c"},"vehicle_type_id":"4","last_reported":1741882340,"current_range_meters":17200,"station_id":"ce4bhkp2rcd13ifvqgd0","pricing_plan_id":"cebpf4jnsgd1na2vs0mg"},{"bike_id":"297849d4-80e0-4762-9623-281120e0564a","system_id":"levelo_inurba_marseille","lat":43.31386,"lon":5.3759,"is_reserved":false,"is_disabled":false,"rental_uris":{"android":"levelo://app?vid=297849d4-80e0-4762-9623-281120e0564a","ios":"levelo://app?vid=297849d4-80e0-4762-9623-281120e0564a"},"vehicle_type_id":"4","last_reported":1741882340,"current_range_meters":17200,"station_id":"","pricing_plan_id":"cebpf4jnsgd1na2vs0mg"},{"bike_id":"bd7fb638-a561-41df-90ca-f32685780427","system_id":"levelo_inurba_marseille","lat":43.229265,"lon":5.353742,"is_reserved":false,"is_disabled":false,"rental_uris":{"android":"levelo://app?vid=bd7fb638-a561-41df-90ca-f32685780427","ios":"levelo://app?vid=bd7fb638-a561-41df-90ca-f32685780427"},"vehicle_type_id":"4","last_reported":1741882340,"current_range_meters":17200,"station_id":"cpo3532slgdg3j2ikp40","pricing_plan_id":"cebpf4jnsgd1na2vs0mg"},{"bike_id":"a095ab76-70b4-4b06-bf63-6dcce3e8cf39","system_id":"levelo_inurba_marseille","lat":43.305655,"lon":5.366808,"is_reserved":false,"is_disabled":false,"rental_uris":{"android":"levelo://app?vid=a095ab76-70b4-4b06-bf63-6dcce3e8cf39","ios":"levelo://app?vid=a095ab76-70b4-4b06-bf63-6dcce3e8cf39"},"vehicle_type_id":"4","last_reported":1741882340,"current_range_meters":17200,"station_id":"ce4bgrp2rcd13ifvqc9g","pricing_plan_id":"cebpf4jnsgd1na2vs0mg"},{"bike_id":"ecb9b478-8006-4756-b61d-650f1759b154","system_id":"levelo_inurba_marseille","lat":43.25581,"lon":5.38231,"is_reserved":false,"is_disabled":false,"rental_uris":{"android":"levelo://app?vid=ecb9b478-8006-4756-b61d-650f1759b154","ios":"levelo://app?vid=ecb9b478-8006-4756-b61d-650f1759b154"},"vehicle_type_id":"4","last_reported":1741882340,"current_range_meters":17200,"station_id":"ce4bhih2rcd13ifvqfs0","pricing_plan_id":"cebpf4jnsgd1na2vs0mg"},{"bike_id":"87bcc7c4-df7c-4aea-b5ad-ddb2ad9e3664","system_id":"levelo_inurba_marseille","lat":43.30623,"lon":5.39353,"is_reserved":false,"is_disabled":false,"rental_uris":{"android":"levelo://app?vid=87bcc7c4-df7c-4aea-b5ad-ddb2ad9e3664","ios":"levelo://app?vid=87bcc7c4-df7c-4aea-b5ad-ddb2ad9e3664"},"vehicle_type_id":"4","last_reported":1741882340,"current_range_meters":16000,"station_id":"ce4bh0p2rcd13ifvqd80","pricing_plan_id":"cebpf4jnsgd1na2vs0mg"},{"bike_id":"4694c8a2-1c3b-4c37-ad9c-5714a388a8cc","system_id":"levelo_inurba_marseille","lat":43.29264,"lon":5.38431,"is_reserved":false,"is_disabled":false,"rental_uris":{"android":"levelo://app?vid=4694c8a2-1c3b-4c37-ad9c-5714a388a8cc","ios":"levelo://app?vid=4694c8a2-1c3b-4c37-ad9c-5714a388a8cc"},"vehicle_type_id":"4","last_reported":1741882340,"current_range_meters":17600,"station_id":"ce4bh692rcd13ifvqea0","pricing_plan_id":"cebpf4jnsgd1na2vs0mg"},{"bike_id":"d3ff7df7-0ff3-4003-bf2c-90cee9c65df4","system_id":"levelo_inurba_marseille","lat":43.24385,"lon":5.37056,"is_reserved":false,"is_disabled":false,"rental_uris":{"android":"levelo://app?vid=d3ff7df7-0ff3-4003-bf2c-90cee9c65df4","ios":"levelo://app?vid=d3ff7df7-0ff3-4003-bf2c-90cee9c65df4"},"vehicle_type_id":"4","last_reported":1741882340,"current_range_meters":17600,"station_id":"ce4bhhh2rcd13ifvqfk0","pricing_plan_id":"cebpf4jnsgd1na2vs0mg"},{"bike_id":"04f149c6-a120-4218-b435-a952d9eb67d0","system_id":"levelo_inurba_marseille","lat":43.24871,"lon":5.40646,"is_reserved":false,"is_disabled":false,"rental_uris":{"android":"levelo://app?vid=04f149c6-a120-4218-b435-a952d9eb67d0","ios":"levelo://app?vid=04f149c6-a120-4218-b435-a952d9eb67d0"},"vehicle_type_id":"4","last_reported":1741882340,"current_range_meters":17600,"station_id":"","pricing_plan_id":"cebpf4jnsgd1na2vs0mg"},{"bike_id":"a2a32e04-e1d2-43fc-a4a0-cfe7b0f6919a","system_id":"levelo_inurba_marseille","lat":43.29544,"lon":5.39385,"is_reserved":false,"is_disabled":false,"rental_uris":{"android":"levelo://app?vid=a2a32e04-e1d2-43fc-a4a0-cfe7b0f6919a","ios":"levelo://app?vid=a2a32e04-e1d2-43fc-a4a0-cfe7b0f6919a"},"vehicle_type_id":"4","last_reported":1741882340,"current_range_meters":17600,"station_id":"ce4bh292rcd13ifvqdf0","pricing_plan_id":"cebpf4jnsgd1na2vs0mg"},{"bike_id":"a1994db3-f96d-43e3-a7c8-04c677d428a2","system_id":"levelo_inurba_marseille","lat":43.26939,"lon":5.38917,"is_reserved":false,"is_disabled":false,"rental_uris":{"android":"levelo://app?vid=a1994db3-f96d-43e3-a7c8-04c677d428a2","ios":"levelo://app?vid=a1994db3-f96d-43e3-a7c8-04c677d428a2"},"vehicle_type_id":"4","last_reported":1741882340,"current_range_meters":17600,"station_id":"ce4bhhh2rcd13ifvqfl0","pricing_plan_id":"cebpf4jnsgd1na2vs0mg"},{"bike_id":"e034a574-4c09-40c3-873e-c08966b928b6","system_id":"levelo_inurba_marseille","lat":43.30299,"lon":5.36891,"is_reserved":false,"is_disabled":false,"rental_uris":{"android":"levelo://app?vid=e034a574-4c09-40c3-873e-c08966b928b6","ios":"levelo://app?vid=e034a574-4c09-40c3-873e-c08966b928b6"},"vehicle_type_id":"4","last_reported":1741882340,"current_range_meters":18000,"station_id":"ce4bgqh2rcd13ifvqc5g","pricing_plan_id":"cebpf4jnsgd1na2vs0mg"},{"bike_id":"07c72146-04d2-40c0-8674-54cd753f78e1","system_id":"levelo_inurba_marseille","lat":43.25007,"lon":5.38913,"is_reserved":false,"is_disabled":false,"rental_uris":{"android":"levelo://app?vid=07c72146-04d2-40c0-8674-54cd753f78e1","ios":"levelo://app?vid=07c72146-04d2-40c0-8674-54cd753f78e1"},"vehicle_type_id":"4","last_reported":1741882340,"current_range_meters":18000,"station_id":"ce4bhgp2rcd13ifvqfd0","pricing_plan_id":"cebpf4jnsgd1na2vs0mg"},{"bike_id":"df542c31-83e8-4446-8cd7-f18484cb0d40","system_id":"levelo_inurba_marseille","lat":43.29892,"lon":5.38907,"is_reserved":false,"is_disabled":false,"rental_uris":{"android":"levelo://app?vid=df542c31-83e8-4446-8cd7-f18484cb0d40","ios":"levelo://app?vid=df542c31-83e8-4446-8cd7-f18484cb0d40"},"vehicle_type_id":"4","last_reported":1741882340,"current_range_meters":18000,"station_id":"ce4bh392rcd13ifvqdl0","pricing_plan_id":"cebpf4jnsgd1na2vs0mg"},{"bike_id":"3ca9a27a-66cf-48c2-8c48-3d6b58c44b8a","system_id":"levelo_inurba_marseille","lat":43.23959,"lon":5.36631,"is_reserved":false,"is_disabled":false,"rental_uris":{"android":"levelo://app?vid=3ca9a27a-66cf-48c2-8c48-3d6b58c44b8a","ios":"levelo://app?vid=3ca9a27a-66cf-48c2-8c48-3d6b58c44b8a"},"vehicle_type_id":"4","last_reported":1741882340,"current_range_meters":18000,"station_id":"ce4bhi12rcd13ifvqfp0","pricing_plan_id":"cebpf4jnsgd1na2vs0mg"},{"bike_id":"4e3fd386-b0ab-4266-96d1-23720cd599ac","system_id":"levelo_inurba_marseille","lat":43.29434,"lon":5.38617,"is_reserved":false,"is_disabled":false,"rental_uris":{"android":"levelo://app?vid=4e3fd386-b0ab-4266-96d1-23720cd599ac","ios":"levelo://app?vid=4e3fd386-b0ab-4266-96d1-23720cd599ac"},"vehicle_type_id":"4","last_reported":1741882340,"current_range_meters":18000,"station_id":"ce4bh2h2rcd13ifvqdh0","pricing_plan_id":"cebpf4jnsgd1na2vs0mg"},{"bike_id":"64fb44bc-e92a-469c-b3ef-5e96c2bc219e","system_id":"levelo_inurba_marseille","lat":43.29603,"lon":5.37713,"is_reserved":false,"is_disabled":false,"rental_uris":{"android":"levelo://app?vid=64fb44bc-e92a-469c-b3ef-5e96c2bc219e","ios":"levelo://app?vid=64fb44bc-e92a-469c-b3ef-5e96c2bc219e"},"vehicle_type_id":"4","last_reported":1741882340,"current_range_meters":18000,"station_id":"ce4bgi92rcd13ifvqb90","pricing_plan_id":"cebpf4jnsgd1na2vs0mg"},{"bike_id":"97bfb8c0-4f7b-4ef4-ae46-bad7e53e4b0c","system_id":"levelo_inurba_marseille","lat":43.30805,"lon":5.38158,"is_reserved":false,"is_disabled":false,"rental_uris":{"android":"levelo://app?vid=97bfb8c0-4f7b-4ef4-ae46-bad7e53e4b0c","ios":"levelo://app?vid=97bfb8c0-4f7b-4ef4-ae46-bad7e53e4b0c"},"vehicle_type_id":"4","last_reported":1741882340,"current_range_meters":18000,"station_id":"ce4bgt12rcd13ifvqce0","pricing_plan_id":"cebpf4jnsgd1na2vs0mg"},{"bike_id":"2e9f54ea-c760-46f4-8d35-da830ce9ff5f","system_id":"levelo_inurba_marseille","lat":43.30663,"lon":5.37097,"is_reserved":false,"is_disabled":false,"rental_uris":{"android":"levelo://app?vid=2e9f54ea-c760-46f4-8d35-da830ce9ff5f","ios":"levelo://app?vid=2e9f54ea-c760-46f4-8d35-da830ce9ff5f"},