{"last_updated":1730642893,"ttl":60,"version":"2.2","data":{"bikes":[{"bike_id":"daa5500f-6039-4d77-bf02-00710b3acec6","system_id":"levelo_inurba_marseille","lat":43.25931,"lon":5.40907,"is_reserved":false,"is_disabled":false,"rental_uris":{"android":"levelo://app?vid=daa5500f-6039-4d77-bf02-00710b3acec6","ios":"levelo://app?vid=daa5500f-6039-4d77-bf02-00710b3acec6"},"vehicle_type_id":"4","last_reported":1730642893,"current_range_meters":4400,"station_id":"ce4bhm92rcd13ifvqglg","pricing_plan_id":"cebpf4jnsgd1na2vs0mg"},{"bike_id":"136c1005-c772-40e5-9166-fe26b6688845","system_id":"levelo_inurba_marseille","lat":43.32052,"lon":5.41556,"is_reserved":false,"is_disabled":false,"rental_uris":{"android":"levelo://app?vid=136c1005-c772-40e5-9166-fe26b6688845","ios":"levelo://app?vid=136c1005-c772-40e5-9166-fe26b6688845"},"vehicle_type_id":"4","last_reported":1730642893,"current_range_meters":37600,"station_id":"ce4bhq92rcd13ifvqhkg","pricing_plan_id":"cebpf4jnsgd1na2vs0mg"},{"bike_id":"5662c3ec-16ac-4646-ad92-7b800105b64d","system_id":"levelo_inurba_marseille","lat":43.25101,"lon":5.40325,"is_reserved":false,"is_disabled":false,"rental_uris":{"android":"levelo://app?vid=5662c3ec-16ac-4646-ad92-7b800105b64d","ios":"levelo://app?vid=5662c3ec-16ac-4646-ad92-7b800105b64d"},"vehicle_type_id":"4","last_reported":1730642893,"current_range_meters":6800,"station_id":"ce4bhlh2rcd13ifvqgig","pricing_plan_id":"cebpf4jnsgd1na2vs0mg"},{"bike_id":"b1a5d8bf-78df-4903-8c94-0f7e53534319","system_id":"levelo_inurba_marseille","lat":43.28153,"lon":5.4265,"is_reserved":false,"is_disabled":false,"rental_uris":{"android":"levelo://app?vid=b1a5d8bf-78df-4903-8c94-0f7e53534319","ios":"levelo://app?vid=b1a5d8bf-78df-4903-8c94-0f7e53534319"},"vehicle_type_id":"4","last_reported":1730642893,"current_range_meters":3600,"station_id":"ce4bhnh2rcd13ifvqgug","pricing_plan_id":"cebpf4jnsgd1na2vs0mg"},{"bike_id":"8c2cc48d-9ab8-4fc0-82ef-7cafd31d7aa7","system_id":"levelo_inurba_marseille","lat":43.32473,"lon":5.36563,"is_reserved":false,"is_disabled":false,"rental_uris":{"android":"levelo://app?vid=8c2cc48d-9ab8-4fc0-82ef-7cafd31d7aa7","ios":"levelo://app?vid=8c2cc48d-9ab8-4fc0-82ef-7cafd31d7aa7"},"vehicle_type_id":"4","last_reported":1730642893,"current_range_meters":18000,"station_id":"ce4bhs12rcd13ifvqhvg","pricing_plan_id":"cebpf4jnsgd1na2vs0mg"},{"bike_id":"84254659-2dee-4aa5-8185-6dbc5d2f0da7","system_id":"levelo_inurba_marseille","lat":43.2396,"lon":5.36622,"is_reserved":false,"is_disabled":false,"rental_uris":{"android":"levelo://app?vid=84254659-2dee-4aa5-8185-6dbc5d2f0da7","ios":"levelo://app?vid=84254659-2dee-4aa5-8185-6dbc5d2f0da7"},"vehicle_type_id":"4","last_reported":1730642893,"current_range_meters":12800,"station_id":"ce4bhi12rcd13ifvqfp0","pricing_plan_id":"cebpf4jnsgd1na2vs0mg"},{"bike_id":"d56dffff-d591-437b-a433-17bfae5c9ed9","system_id":"levelo_inurba_marseille","lat":43.295331,"lon":5.393967,"is_reserved":false,"is_disabled":false,"rental_uris":{"android":"levelo://app?vid=d56dffff-d591-437b-a433-17bfae5c9ed9","ios":"levelo://app?vid=d56dffff-d591-437b-a433-17bfae5c9ed9"},"vehicle_type_id":"4","last_reported":1730642893,"current_range_meters":37600,"station_id":"ce4bh292rcd13ifvqdf0","pricing_plan_id":"cebpf4jnsgd1na2vs0mg"},{"bike_id":"f09a2e3e-a687-4ccb-9ce7-accc19389448","system_id":"levelo_inurba_marseille","lat":43.23959,"lon":5.36635,"is_reserved":false,"is_disabled":false,"rental_uris":{"android":"levelo://app?vid=f09a2e3e-a687-4ccb-9ce7-accc19389448","ios":"levelo://app?vid=f09a2e3e-a687-4ccb-9ce7-accc19389448"},"vehicle_type_id":"4","last_reported":1730642893,"current_range_meters":38800,"station_id":"ce4bhi12rcd13ifvqfp0","pricing_plan_id":"cebpf4jnsgd1na2vs0mg"},{"bike_id":"478fab93-45e1-422f-bb58-b8205e41dc7d","system_id":"levelo_inurba_marseille","lat":43.30529,"lon":5.36551,"is_reserved":false,"is_disabled":false,"rental_uris":{"android":"levelo://app?vid=478fab93-45e1-422f-bb58-b8205e41dc7d","ios":"levelo://app?vid=478fab93-45e1-422f-bb58-b8205e41dc7d"},"vehicle_type_id":"4","last_reported":1730642893,"current_range_meters":7200,"station_id":"ce4bgs12rcd13ifvqcag","pricing_plan_id":"cebpf4jnsgd1na2vs0mg"},{"bike_id":"92a0073c-20f6-4c2f-a53a-1975e2f6500a","system_id":"levelo_inurba_marseille","lat":43.2306,"lon":5.35486,"is_reserved":false,"is_disabled":false,"rental_uris":{"android":"levelo://app?vid=92a0073c-20f6-4c2f-a53a-1975e2f6500a","ios":"levelo://app?vid=92a0073c-20f6-4c2f-a53a-1975e2f6500a"},"vehicle_type_id":"4","last_reported":1730642893,"current_range_meters":14400,"station_id":"cpo3342slgdg3j2ifvpg","pricing_plan_id":"cebpf4jnsgd1na2vs0mg"},{"bike_id":"4aefef0f-5754-4c42-9a58-49191aa2ce05","system_id":"levelo_inurba_marseille","lat":43.336,"lon":5.41033,"is_reserved":false,"is_disabled":false,"rental_uris":{"android":"levelo://app?vid=4aefef0f-5754-4c42-9a58-49191aa2ce05","ios":"levelo://app?vid=4aefef0f-5754-4c42-9a58-49191aa2ce05"},"vehicle_type_id":"4","last_reported":1730642893,"current_range_meters":7200,"station_id":"ce4bhqh2rcd13ifvqhmg","pricing_plan_id":"cebpf4jnsgd1na2vs0mg"},{"bike_id":"b6746235-1c9c-4789-b1ab-4c149fe22457","system_id":"levelo_inurba_marseille","lat":43.26209,"lon":5.37447,"is_reserved":false,"is_disabled":false,"rental_uris":{"android":"levelo://app?vid=b6746235-1c9c-4789-b1ab-4c149fe22457","ios":"levelo://app?vid=b6746235-1c9c-4789-b1ab-4c149fe22457"},"vehicle_type_id":"4","last_reported":1730642893,"current_range_meters":28800,"station_id":"ce4bhgp2rcd13ifvqfc0","pricing_plan_id":"cebpf4jnsgd1na2vs0mg"},{"bike_id":"4a7fc2b8-1796-4c4e-a92c-ac60a62e7d7a","system_id":"levelo_inurba_marseille","lat":43.28616,"lon":5.351,"is_reserved":false,"is_disabled":false,"rental_uris":{"android":"levelo://app?vid=4a7fc2b8-1796-4c4e-a92c-ac60a62e7d7a","ios":"levelo://app?vid=4a7fc2b8-1796-4c4e-a92c-ac60a62e7d7a"},"vehicle_type_id":"4","last_reported":1730642893,"current_range_meters":36400,"station_id":"ce4bhch2rcd13ifvqeug","pricing_plan_id":"cebpf4jnsgd1na2vs0mg"},{"bike_id":"cc125771-aee1-4ad2-93df-dc49f9b2d265","system_id":"levelo_inurba_marseille","lat":43.239538,"lon":5.366476,"is_reserved":false,"is_disabled":false,"rental_uris":{"android":"levelo://app?vid=cc125771-aee1-4ad2-93df-dc49f9b2d265","ios":"levelo://app?vid=cc125771-aee1-4ad2-93df-dc49f9b2d265"},"vehicle_type_id":"4","last_reported":1730642893,"current_range_meters":36800,"station_id":"ce4bhi12rcd13ifvqfp0","pricing_plan_id":"cebpf4jnsgd1na2vs0mg"},{"bike_id":"5818a6ac-2d40-4bf0-a920-aefa2e8a89fa","system_id":"levelo_inurba_marseille","lat":43.26484,"lon":5.39554,"is_reserved":false,"is_disabled":false,"rental_uris":{"android":"levelo://app?vid=5818a6ac-2d40-4bf0-a920-aefa2e8a89fa","ios":"levelo://app?vid=5818a6ac-2d40-4bf0-a920-aefa2e8a89fa"},"vehicle_type_id":"4","last_reported":1730642893,"current_range_meters":24000,"station_id":"ce4bhi12rcd13ifvqfq0","pricing_plan_id":"cebpf4jnsgd1na2vs0mg"},{"bike_id":"61356c6b-1241-4ee2-a6f1-920efe897ab4","system_id":"levelo_inurba_marseille","lat":43.24391,"lon":5.37059,"is_reserved":false,"is_disabled":false,"rental_uris":{"android":"levelo://app?vid=61356c6b-1241-4ee2-a6f1-920efe897ab4","ios":"levelo://app?vid=61356c6b-1241-4ee2-a6f1-920efe897ab4"},"vehicle_type_id":"4","last_reported":1730642893,"current_range_meters":6400,"station_id":"ce4bhhh2rcd13ifvqfk0","pricing_plan_id":"cebpf4jnsgd1na2vs0mg"},{"bike_id":"3aae935e-f19b-4b82-860a-9e86c4796487","system_id":"levelo_inurba_marseille","lat":43.25855,"lon":5.39892,"is_reserved":false,"is_disabled":false,"rental_uris":{"android":"levelo://app?vid=3aae935e-f19b-4b82-860a-9e86c4796487","ios":"levelo://app?vid=3aae935e-f19b-4b82-860a-9e86c4796487"},"vehicle_type_id":"4","last_reported":1730642893,"current_range_meters":3600,"station_id":"ce4bhl92rcd13ifvqghg","pricing_plan_id":"cebpf4jnsgd1na2vs0mg"},{"bike_id":"c5550cd3-a332-4b05-910d-1a2cb5c3c20a","system_id":"levelo_inurba_marseille","lat":43.23191,"lon":5.35557,"is_reserved":false,"is_disabled":false,"rental_uris":{"android":"levelo://app?vid=c5550cd3-a332-4b05-910d-1a2cb5c3c20a","ios":"levelo://app?vid=c5550cd3-a332-4b05-910d-1a2cb5c3c20a"},"vehicle_type_id":"4","last_reported":1730642893,"current_range_meters":35200,"station_id":"ce4bhu92rcd13ifvqi70","pricing_plan_id":"cebpf4jnsgd1na2vs0mg"},{"bike_id":"5070999d-f382-41c2-830e-ae0134a9f306","system_id":"levelo_inurba_marseille","lat":43.26213,"lon":5.37443,"is_reserved":false,"is_disabled":false,"rental_uris":{"android":"levelo://app?vid=5070999d-f382-41c2-830e-ae0134a9f306","ios":"levelo://app?vid=5070999d-f382-41c2-830e-ae0134a9f306"},"vehicle_type_id":"4","last_reported":1730642893,"current_range_meters":17600,"station_id":"ce4bhgp2rcd13ifvqfc0","pricing_plan_id":"cebpf4jnsgd1na2vs0mg"},{"bike_id":"3c330f08-508b-4866-b688-f0374209e3dc","system_id":"levelo_inurba_marseille","lat":43.2511,"lon":5.40312,"is_reserved":false,"is_disabled":false,"rental_uris":{"android":"levelo://app?vid=3c330f08-508b-4866-b688-f0374209e3dc","ios":"levelo://app?vid=3c330f08-508b-4866-b688-f0374209e3dc"},"vehicle_type_id":"4","last_reported":1730642893,"current_range_meters":37600,"station_id":"ce4bhlh2rcd13ifvqgig","pricing_plan_id":"cebpf4jnsgd1na2vs0mg"},{"bike_id":"4147bbfb-4b14-4aca-b782-8ec6c0473609","system_id":"levelo_inurba_marseille","lat":43.2359,"lon":5.40344,"is_reserved":false,"is_disabled":false,"rental_uris":{"android":"levelo://app?vid=4147bbfb-4b14-4aca-b782-8ec6c0473609","ios":"levelo://app?vid=4147bbfb-4b14-4aca-b782-8ec6c0473609"},"vehicle_type_id":"4","last_reported":1730642893,"current_range_meters":20800,"station_id":"","pricing_plan_id":"cebpf4jnsgd1na2vs0mg"},{"bike_id":"22e0687f-e2cc-4582-8141-7137fc3d70c2","system_id":"levelo_inurba_marseille","lat":43.24804,"lon":5.37452,"is_reserved":false,"is_disabled":false,"rental_uris":{"android":"levelo://app?vid=22e0687f-e2cc-4582-8141-7137fc3d70c2","ios":"levelo://app?vid=22e0687f-e2cc-4582-8141-7137fc3d70c2"},"vehicle_type_id":"4","last_reported":1730642893,"current_range_meters":18800,"station_id":"ce4bhgh2rcd13ifvqfb0","pricing_plan_id":"cebpf4jnsgd1na2vs0mg"},{"bike_id":"768ab267-68c0-4d75-ab7e-f70793be3c63","system_id":"levelo_inurba_marseille","lat":43.28615,"lon":5.35097,"is_reserved":false,"is_disabled":false,"rental_uris":{"android":"levelo://app?vid=768ab267-68c0-4d75-ab7e-f70793be3c63","ios":"levelo://app?vid=768ab267-68c0-4d75-ab7e-f70793be3c63"},"vehicle_type_id":"4","last_reported":1730642893,"current_range_meters":37600,"station_id":"ce4bhch2rcd13ifvqeug","pricing_plan_id":"cebpf4jnsgd1na2vs0mg"},{"bike_id":"04a2c752-46b2-4be6-bd08-dc3b6ce21740","system_id":"levelo_inurba_marseille","lat":43.23955,"lon":5.36633,"is_reserved":false,"is_disabled":false,"rental_uris":{"android":"levelo://app?vid=04a2c752-46b2-4be6-bd08-dc3b6ce21740","ios":"levelo://app?vid=04a2c752-46b2-4be6-bd08-dc3b6ce21740"},"vehicle_type_id":"4","last_reported":1730642893,"current_range_meters":28800,"station_id":"ce4bhi12rcd13ifvqfp0","pricing_plan_id":"cebpf4jnsgd1na2vs0mg"},{"bike_id":"eeda0a49-c95e-447a-b118-263faeb6a58f","system_id":"levelo_inurba_marseille","lat":43.31442,"lon":5.3738,"is_reserved":false,"is_disabled":false,"rental_uris":{"android":"levelo://app?vid=eeda0a49-c95e-447a-b118-263faeb6a58f","ios":"levelo://app?vid=eeda0a49-c95e-447a-b118-263faeb6a58f"},"vehicle_type_id":"4","last_reported":1730642893,"current_range_meters":14800,"station_id":"","pricing_plan_id":"cebpf4jnsgd1na2vs0mg"},{"bike_id":"606a935e-1222-44f3-9729-6ce8493d6cf1","system_id":"levelo_inurba_marseille","lat":43.26561,"lon":5.37284,"is_reserved":false,"is_disabled":false,"rental_uris":{"android":"levelo://app?vid=606a935e-1222-44f3-9729-6ce8493d6cf1","ios":"levelo://app?vid=606a935e-1222-44f3-9729-6ce8493d6cf1"},"vehicle_type_id":"4","last_reported":1730642893,"current_range_meters":28800,"station_id":"ce4bhg12rcd13ifvqf70","pricing_plan_id":"cebpf4jnsgd1na2vs0mg"},{"bike_id":"0e93e300-48fa-4764-b7d1-04a256e13558","system_id":"levelo_inurba_marseille","lat":43.22926,"lon":5.35377,"is_reserved":false,"is_disabled":false,"rental_uris":{"android":"levelo://app?vid=0e93e300-48fa-4764-b7d1-04a256e13558","ios":"levelo://app?vid=0e93e300-48fa-4764-b7d1-04a256e13558"},"vehicle_type_id":"4","last_reported":1730642893,"current_range_meters":4800,"station_id":"cpo3532slgdg3j2ikp40","pricing_plan_id":"cebpf4jnsgd1na2vs0mg"},{"bike_id":"19a6d47e-53d7-42cf-9934-34fc3fd9053c","system_id":"levelo_inurba_marseille","lat":43.32287,"lon":5.38269,"is_reserved":false,"is_disabled":false,"rental_uris":{"android":"levelo://app?vid=19a6d47e-53d7-42cf-9934-34fc3fd9053c","ios":"levelo://app?vid=19a6d47e-53d7-42cf-9934-34fc3fd9053c"},"vehicle_type_id":"4","last_reported":1730642893,"current_range_meters":34000,"station_id":"ce4bhr12rcd13ifvqhqg","pricing_plan_id":"cebpf4jnsgd1na2vs0mg"},{"bike_id":"0c134fa5-bacf-4992-9469-2ff7aea126e4","system_id":"levelo_inurba_marseille","lat":43.28271,"lon":5.35071,"is_reserved":false,"is_disabled":false,"rental_uris":{"android":"levelo://app?vid=0c134fa5-bacf-4992-9469-2ff7aea126e4","ios":"levelo://app?vid=0c134fa5-bacf-4992-9469-2ff7aea126e4"},"vehicle_type_id":"4","last_reported":1730642893,"current_range_meters":33600,"station_id":"ce4bhbp2rcd13ifvqerg","pricing_plan_id":"cebpf4jnsgd1na2vs0mg"},{"bike_id":"0823e016-fbdb-4dbd-857c-17b9d461e3bf","system_id":"levelo_inurba_marseille","lat":43.26205,"lon":5.37453,"is_reserved":false,"is_disabled":false,"rental_uris":{"android":"levelo://app?vid=0823e016-fbdb-4dbd-857c-17b9d461e3bf","ios":"levelo://app?vid=0823e016-fbdb-4dbd-857c-17b9d461e3bf"},"vehicle_type_id":"4","last_reported":1730642893,"current_range_meters":38800,"station_id":"ce4bhgp2rcd13ifvqfc0","pricing_plan_id":"cebpf4jnsgd1na2vs0mg"},{"bike_id":"34096eea-261f-43c7-b982-bc68ad81068b","system_id":"levelo_inurba_marseille","lat":43.31073,"lon":5.38354,"is_reserved":false,"is_disabled":false,"rental_uris":{"android":"levelo://app?vid=34096eea-261f-43c7-b982-bc68ad81068b","ios":"levelo://app?vid=34096eea-261f-43c7-b982-bc68ad81068b"},"vehicle_type_id":"4","last_reported":1730642893,"current_range_meters":8000,"station_id":"ce4bgv92rcd13ifvqcr0","pricing_plan_id":"cebpf4jnsgd1na2vs0mg"},{"bike_id":"fbb69f4b-3dc6-4e69-8496-70ed995da3c8","system_id":"levelo_inurba_marseille","lat":43.28416,"lon":5.34996,"is_reserved":false,"is_disabled":false,"rental_uris":{"android":"levelo://app?vid=fbb69f4b-3dc6-4e69-8496-70ed995da3c8","ios":"levelo://app?vid=fbb69f4b-3dc6-4e69-8496-70ed995da3c8"},"vehicle_type_id":"4","last_reported":1730642893,"current_range_meters":39200,"station_id":"ce4bhbh2rcd13ifvqepg","pricing_plan_id":"cebpf4jnsgd1na2vs0mg"},{"bike_id":"c9e22a39-c83d-4d72-b835-4eba40c8b8cf","system_id":"levelo_inurba_marseille","lat":43.28416,"lon":5.34995,"is_reserved":false,"is_disabled":false,"rental_uris":{"android":"levelo://app?vid=c9e22a39-c83d-4d72-b835-4eba40c8b8cf","ios":"levelo://app?vid=c9e22a39-c83d-4d72-b835-4eba40c8b8cf"},"vehicle_type_id":"4","last_reported":1730642893,"current_range_meters":20800,"station_id":"ce4bhbh2rcd13ifvqepg","pricing_plan_id":"cebpf4jnsgd1na2vs0mg"},{"bike_id":"598535da-1e32-42e0-bd65-4ba25549dd70","system_id":"levelo_inurba_marseille","lat":43.31458,"lon":5.37378,"is_reserved":false,"is_disabled":false,"rental_uris":{"android":"levelo://app?vid=598535da-1e32-42e0-bd65-4ba25549dd70","ios":"levelo://app?vid=598535da-1e32-42e0-bd65-4ba25549dd70"},"vehicle_type_id":"4","last_reported":1730642893,"current_range_meters":30000,"station_id":"","pricing_plan_id":"cebpf4jnsgd1na2vs0mg"},{"bike_id":"2378f453-72a7-4eb2-ab3b-946285d406fd","system_id":"levelo_inurba_marseille","lat":43.29218,"lon":5.3774,"is_reserved":false,"is_disabled":false,"rental_uris":{"android":"levelo://app?vid=2378f453-72a7-4eb2-ab3b-946285d406fd","ios":"levelo://app?vid=2378f453-72a7-4eb2-ab3b-946285d406fd"},"vehicle_type_id":"4","last_reported":1730642893,"current_range_meters":12800,"station_id":"ce4bgi12rcd13ifvqb70","pricing_plan_id":"cebpf4jnsgd1na2vs0mg"},{"bike_id":"8e526b37-6c7f-4eb0-b6c1-598a862ea86d","system_id":"levelo_inurba_marseille","lat":43.27069,"lon":5.42287,"is_reserved":false,"is_disabled":false,"rental_uris":{"android":"levelo://app?vid=8e526b37-6c7f-4eb0-b6c1-598a862ea86d","ios":"levelo://app?vid=8e526b37-6c7f-4eb0-b6c1-598a862ea86d"},"vehicle_type_id":"4","last_reported":1730642893,"current_range_meters":24400,"station_id":"ce4bhk92rcd13ifvqgb0","pricing_plan_id":"cebpf4jnsgd1na2vs0mg"},{"bike_id":"ea6eac24-7b51-434a-8f51-d28eece06440","system_id":"levelo_inurba_marseille","lat":43.288038,"lon":5.361008,"is_reserved":false,"is_disabled":false,"rental_uris":{"android":"levelo://app?vid=ea6eac24-7b51-434a-8f51-d28eece06440","ios":"levelo://app?vid=ea6eac24-7b51-434a-8f51-d28eece06440"},"vehicle_type_id":"4","last_reported":1730642893,"current_range_meters":8800,"station_id":"","pricing_plan_id":"cebpf4jnsgd1na2vs0mg"},{"bike_id":"7f6f0238-5304-4d40-b3fc-318b49abc989","system_id":"levelo_inurba_marseille","lat":43.28416,"lon":5.34986,"is_reserved":false,"is_disabled":false,"rental_uris":{"android":"levelo://app?vid=7f6f0238-5304-4d40-b3fc-318b49abc989","ios":"levelo://app?vid=7f6f0238-5304-4d40-b3fc-318b49abc989"},"vehicle_type_id":"4","last_reported":1730642893,"current_range_meters":38800,"station_id":"ce4bhbh2rcd13ifvqepg","pricing_plan_id":"cebpf4jnsgd1na2vs0mg"},{"bike_id":"2139192a-4508-4261-9837-0aa4c64d85ec","system_id":"levelo_inurba_marseille","lat":43.23063,"lon":5.35489,"is_reserved":false,"is_disabled":false,"rental_uris":{"android":"levelo://app?vid=2139192a-4508-4261-9837-0aa4c64d85ec","ios":"levelo://app?vid=2139192a-4508-4261-9837-0aa4c64d85ec"},"vehicle_type_id":"4","last_reported":1730642893,"current_range_meters":20400,"station_id":"cpo3342slgdg3j2ifvpg","pricing_plan_id":"cebpf4jnsgd1na2vs0mg"},{"bike_id":"a1ec2dcd-2526-4b25-98b6-5aab15754bd3","system_id":"levelo_inurba_marseille","lat":43.24386,"lon":5.37066,"is_reserved":false,"is_disabled":false,"rental_uris":{"android":"levelo://app?vid=a1ec2dcd-2526-4b25-98b6-5aab15754bd3","ios":"levelo://app?vid=a1ec2dcd-2526-4b25-98b6-5aab15754bd3"},"vehicle_type_id":"4","last_reported":1730642893,"current_range_meters":33600,"station_id":"ce4bhhh2rcd13ifvqfk0","pricing_plan_id":"cebpf4jnsgd1na2vs0mg"},{"bike_id":"d6e9ba07-8ec2-4b9a-bba8-91760d5204ec","system_id":"levelo_inurba_marseille","lat":43.28422,"lon":5.3498,"is_reserved":false,"is_disabled":false,"rental_uris":{"android":"levelo://app?vid=d6e9ba07-8ec2-4b9a-bba8-91760d5204ec","ios":"levelo://app?vid=d6e9ba07-8ec2-4b9a-bba8-91760d5204ec"},"vehicle_type_id":"4","last_reported":1730642893,"current_range_meters":28400,"station_id":"ce4bhbh2rcd13ifvqepg","pricing_plan_id":"cebpf4jnsgd1na2vs0mg"},{"bike_id":"24a1026e-c9f7-409b-9e15-b79b11e64525","system_id":"levelo_inurba_marseille","lat":43.27374,"lon":5.36266,"is_reserved":false,"is_disabled":false,"rental_uris":{"android":"levelo://app?vid=24a1026e-c9f7-409b-9e15-b79b11e64525","ios":"levelo://app?vid=24a1026e-c9f7-409b-9e15-b79b11e64525"},"vehicle_type_id":"4","last_reported":1730642893,"current_range_meters":6800,"station_id":"ce4bhbh2rcd13ifvqeo0","pricing_plan_id":"cebpf4jnsgd1na2vs0mg"},{"bike_id":"c8893d8e-f81f-4744-85fb-448d69741653","system_id":"levelo_inurba_marseille","lat":43.27612,"lon":5.36119,"is_reserved":false,"is_disabled":false,"rental_uris":{"android":"levelo://app?vid=c8893d8e-f81f-4744-85fb-448d69741653","ios":"levelo://app?vid=c8893d8e-f81f-4744-85fb-448d69741653"},"vehicle_type_id":"4","last_reported":1730642893,"current_range_meters":11200,"station_id":"ce4bgj92rcd13ifvqbe0","pricing_plan_id":"cebpf4jnsgd1na2vs0mg"},{"bike_id":"580fe4d0-b5f4-4e25-8a67-18f55789441e","system_id":"levelo_inurba_marseille","lat":43.29262,"lon":5.40909,"is_reserved":false,"is_disabled":false,"rental_uris":{"android":"levelo://app?vid=580fe4d0-b5f4-4e25-8a67-18f55789441e","ios":"levelo://app?vid=580fe4d0-b5f4-4e25-8a67-18f55789441e"},"vehicle_type_id":"4","last_reported":1730642893,"current_range_meters":38800,"station_id":"ce4bh192rcd13ifvqdc0","pricing_plan_id":"cebpf4jnsgd1na2vs0mg"},{"bike_id":"39f8ece7-febe-4cf7-8ccf-a5b15afb746e","system_id":"levelo_inurba_marseille","lat":43.29049,"lon":5.35911,"is_reserved":false,"is_disabled":false,"rental_uris":{"android":"levelo://app?vid=39f8ece7-febe-4cf7-8ccf-a5b15afb746e","ios":"levelo://app?vid=39f8ece7-febe-4cf7-8ccf-a5b15afb746e"},"vehicle_type_id":"4","last_reported":1730642893,"current_range_meters":6000,"station_id":"ce4bha92rcd13ifvqeg0","pricing_plan_id":"cebpf4jnsgd1na2vs0mg"},{"bike_id":"a3a06886-2b21-481b-80ed-d7f51c9cae48","system_id":"levelo_inurba_marseille","lat":43.29785,"lon":5.40411,"is_reserved":false,"is_disabled":false,"rental_uris":{"android":"levelo://app?vid=a3a06886-2b21-481b-80ed-d7f51c9cae48","ios":"levelo://app?vid=a3a06886-2b21-481b-80ed-d7f51c9cae48"},"vehicle_type_id":"4","last_reported":1730642893,"current_range_meters":13600,"station_id":"ce4bh112rcd13ifvqd90","pricing_plan_id":"cebpf4jnsgd1na2vs0mg"},{"bike_id":"0c0e9036-82c0-4ae7-8f06-f2a0e4e21cf1","system_id":"levelo_inurba_marseille","lat":43.27369,"lon":5.36275,"is_reserved":false,"is_disabled":false,"rental_uris":{"android":"levelo://app?vid=0c0e9036-82c0-4ae7-8f06-f2a0e4e21cf1","ios":"levelo://app?vid=0c0e9036-82c0-4ae7-8f06-f2a0e4e21cf1"},"vehicle_type_id":"4","last_reported":1730642893,"current_range_meters":33200,"station_id":"ce4bhbh2rcd13ifvqeo0","pricing_plan_id":"cebpf4jnsgd1na2vs0mg"},{"bike_id":"dcda6d62-942d-4cfc-b0c3-e7315a082712","system_id":"levelo_inurba_marseille","lat":43.2781,"lon":5.40711,"is_reserved":false,"is_disabled":false,"rental_uris":{"android":"levelo://app?vid=dcda6d62-942d-4cfc-b0c3-e7315a082712","ios":"levelo://app?vid=dcda6d62-942d-4cfc-b0c3-e7315a082712"},"vehicle_type_id":"4","last_reported":1730642893,"current_range_meters":36800,"station_id":"ce4bhnh2rcd13ifvqgtg","pricing_plan_id":"cebpf4jnsgd1na2vs0mg"},{"bike_id":"8fb11455-81b1-4f0b-b936-422517ccff63","system_id":"levelo_inurba_marseille","lat":43.24815,"lon":5.37463,"is_reserved":false,"is_disabled":false,"rental_uris":{"android":"levelo://app?vid=8fb11455-81b1-4f0b-b936-422517ccff63","ios":"levelo://app?vid=8fb11455-81b1-4f0b-b936-422517ccff63"},"vehicle_type_id":"4","last_reported":1730642893,"current_range_meters":6800,"station_id":"ce4bhgh2rcd13ifvqfb0","pricing_plan_id":"cebpf4jnsgd1na2vs0mg"},{"bike_id":"75576e24-6890-4288-9aa5-db2804891d6f","system_id":"levelo_inurba_marseille","lat":43.26939,"lon":5.40247,"is_reserved":false,"is_disabled":false,"rental_uris":{"android":"levelo://app?vid=75576e24-6890-4288-9aa5-db2804891d6f","ios":"levelo://app?vid=75576e24-6890-4288-9aa5-db2804891d6f"},"vehicle_type_id":"4","last_reported":1730642893,"current_range_meters":38000,"station_id":"cjm6bp8fraef2m0cb0m0","pricing_plan_id":"cebpf4jnsgd1na2vs0mg"},{"bike_id":"54337fac-085e-4782-bad6-db9a84abd2e2","system_id":"levelo_inurba_marseille","lat":43.31711,"lon":5.37761,"is_reserved":false,"is_disabled":false,"rental_uris":{"android":"levelo://app?vid=54337fac-085e-4782-bad6-db9a84abd2e2","ios":"levelo://app?vid=54337fac-085e-4782-bad6-db9a84abd2e2"},"vehicle_type_id":"4","last_reported":1730642893,"current_range_meters":39200,"station_id":"ce4bgth2rcd13ifvqch0","pricing_plan_id":"cebpf4jnsgd1na2vs0mg"},{"bike_id":"791b215e-cb2d-4eab-9fb2-3ab5f0951911","system_id":"levelo_inurba_marseille","lat":43.31521,"lon":5.38055,"is_reserved":false,"is_disabled":false,"rental_uris":{"android":"levelo://app?vid=791b215e-cb2d-4eab-9fb2-3ab5f0951911","ios":"levelo://app?vid=791b215e-cb2d-4eab-9fb2-3ab5f0951911"},"vehicle_type_id":"4","last_reported":1730642893,"current_range_meters":36800,"station_id":"ce4bhsp2rcd13ifvqi50","pricing_plan_id":"cebpf4jnsgd1na2vs0mg"},{"bike_id":"a9e32352-0ca8-4535-87fc-d3cfff86084b","system_id":"levelo_inurba_marseille","lat":43.32477,"lon":5.36562,"is_reserved":false,"is_disabled":false,"rental_uris":{"android":"levelo://app?vid=a9e32352-0ca8-4535-87fc-d3cfff86084b","ios":"levelo://app?vid=a9e32352-0ca8-4535-87fc-d3cfff86084b"},"vehicle_type_id":"4","last_reported":1730642893,"current_range_meters":31200,"station_id":"ce4bhs12rcd13ifvqhvg","pricing_plan_id":"cebpf4jnsgd1na2vs0mg"},{"bike_id":"933e88ac-d979-43a7-a64b-221565f81a6f","system_id":"levelo_inurba_marseille","lat":43.23951,"lon":5.36633,"is_reserved":false,"is_disabled":false,"rental_uris":{"android":"levelo://app?vid=933e88ac-d979-43a7-a64b-221565f81a6f","ios":"levelo://app?vid=933e88ac-d979-43a7-a64b-221565f81a6f"},"vehicle_type_id":"4","last_reported":1730642893,"current_range_meters":37600,"station_id":"ce4bhi12rcd13ifvqfp0","pricing_plan_id":"cebpf4jnsgd1na2vs0mg"},{"bike_id":"05ce730c-be4d-41f9-bdc3-24a9557532bc","system_id":"levelo_inurba_marseille","lat":43.28421,"lon":5.34983,"is_reserved":false,"is_disabled":false,"rental_uris":{"android":"levelo://app?vid=05ce730c-be4d-41f9-bdc3-24a9557532bc","ios":"levelo://app?vid=05ce730c-be4d-41f9-bdc3-24a9557532bc"},"vehicle_type_id":"4","last_reported":1730642893,"current_range_meters":38800,"station_id":"ce4bhbh2rcd13ifvqepg","pricing_plan_id":"cebpf4jnsgd1na2vs0mg"},{"bike_id":"9871620c-a3ac-4995-b682-c70b76b9c645","system_id":"levelo_inurba_marseille","lat":43.23063,"lon":5.3549,"is_reserved":false,"is_disabled":false,"rental_uris":{"android":"levelo://app?vid=9871620c-a3ac-4995-b682-c70b76b9c645","ios":"levelo://app?vid=9871620c-a3ac-4995-b682-c70b76b9c645"},"vehicle_type_id":"4","last_reported":1730642893,"current_range_meters":8400,"station_id":"cpo3342slgdg3j2ifvpg","pricing_plan_id":"cebpf4jnsgd1na2vs0mg"},{"bike_id":"f3a01ca6-67d1-4d2a-a85e-aa7742c2c8b1","system_id":"levelo_inurba_marseille","lat":43.30792,"lon":5.37655,"is_reserved":false,"is_disabled":false,"rental_uris":{"android":"levelo://app?vid=f3a01ca6-67d1-4d2a-a85e-aa7742c2c8b1","ios":"levelo://app?vid=f3a01ca6-67d1-4d2a-a85e-aa7742c2c8b1"},"vehicle_type_id":"4","last_reported":1730642893,"current_range_meters":37600,"station_id":"ce4bgv92rcd13ifvqcq0","pricing_plan_id":"cebpf4jnsgd1na2vs0mg"},{"bike_id":"4ccfb213-532a-472a-a14e-201947f1b58f","system_id":"levelo_inurba_marseille","lat":43.31111,"lon":5.3777,"is_reserved":false,"is_disabled":false,"rental_uris":{"android":"levelo://app?vid=4ccfb213-532a-472a-a14e-201947f1b58f","ios":"levelo://app?vid=4ccfb213-532a-472a-a14e-201947f1b58f"},"vehicle_type_id":"4","last_reported":1730642893,"current_range_meters":10000,"station_id":"ce4bgt92rcd13ifvqcg0","pricing_plan_id":"cebpf4jnsgd1na2vs0mg"},{"bike_id":"e7b2e8ea-c807-4d28-9da9-d79d6f447019","system_id":"levelo_inurba_marseille","lat":43.22935,"lon":5.35379,"is_reserved":false,"is_disabled":false,"rental_uris":{"android":"levelo://app?vid=e7b2e8ea-c807-4d28-9da9-d79d6f447019","ios":"levelo://app?vid=e7b2e8ea-c807-4d28-9da9-d79d6f447019"},"vehicle_type_id":"4","last_reported":1730642893,"current_range_meters":18000,"station_id":"cpo3532slgdg3j2ikp40","pricing_plan_id":"cebpf4jnsgd1na2vs0mg"},{"bike_id":"a1402143-fdf9-42ff-8d51-661c242c062d","system_id":"levelo_inurba_marseille","lat":43.23063,"lon":5.35489,"is_reserved":false,"is_disabled":false,"rental_uris":{"android":"levelo://app?vid=a1402143-fdf9-42ff-8d51-661c242c062d","ios":"levelo://app?vid=a1402143-fdf9-42ff-8d51-661c242c062d"},"vehicle_type_id":"4","last_reported":1730642893,"current_range_meters":2000,"station_id":"cpo3342slgdg3j2ifvpg","pricing_plan_id":"cebpf4jnsgd1na2vs0mg"},{"bike_id":"ef4605d0-0092-431e-a4ca-61a73c5643e4","system_id":"levelo_inurba_marseille","lat":43.243896,"lon":5.37066,"is_reserved":false,"is_disabled":false,"rental_uris":{"android":"levelo://app?vid=ef4605d0-0092-431e-a4ca-61a73c5643e4","ios":"levelo://app?vid=ef4605d0-0092-431e-a4ca-61a73c5643e4"},"vehicle_type_id":"4","last_reported":1730642893,"current_range_meters":17200,"station_id":"ce4bh312rcd13ifvqdj0","pricing_plan_id":"cebpf4jnsgd1na2vs0mg"},{"bike_id":"edfdb860-42dc-435b-bd84-6131d3205c36","system_id":"levelo_inurba_marseille","lat":43.27071,"lon":5.4228,"is_reserved":false,"is_disabled":false,"rental_uris":{"android":"levelo://app?vid=edfdb860-42dc-435b-bd84-6131d3205c36","ios":"levelo://app?vid=edfdb860-42dc-435b-bd84-6131d3205c36"},"vehicle_type_id":"4","last_reported":1730642893,"current_range_meters":10000,"station_id":"ce4bhk92rcd13ifvqgb0","pricing_plan_id":"cebpf4jnsgd1na2vs0mg"},{"bike_id":"18ef7ffa-8577-4346-bcaf-a8910e825ad6","system_id":"levelo_inurba_marseille","lat":43.28933,"lon":5.38385,"is_reserved":false,"is_disabled":false,"rental_uris":{"android":"levelo://app?vid=18ef7ffa-8577-4346-bcaf-a8910e825ad6","ios":"levelo://app?vid=18ef7ffa-8577-4346-bcaf-a8910e825ad6"},"vehicle_type_id":"4","last_reported":1730642893,"current_range_meters":22800,"station_id":"ce4bh612rcd13ifvqe6g","pricing_plan_id":"cebpf4jnsgd1na2vs0mg"},{"bike_id":"425b376c-120f-4f5b-b93b-801eb209dd75","system_id":"levelo_inurba_marseille","lat":43.27947,"lon":5.41055,"is_reserved":false,"is_disabled":false,"rental_uris":{"android":"levelo://app?vid=425b376c-120f-4f5b-b93b-801eb209dd75","ios":"levelo://app?vid=425b376c-120f-4f5b-b93b-801eb209dd75"},"vehicle_type_id":"4","last_reported":1730642893,"current_range_meters":8000,"station_id":"ce4bhnp2rcd13ifvqh0g","pricing_plan_id":"cebpf4jnsgd1na2vs0mg"},{"bike_id":"3f56e2a1-9964-474b-90d0-5f9bcd944bbc","system_id":"levelo_inurba_marseille","lat":43.29014,"lon":5.37556,"is_reserved":false,"is_disabled":false,"rental_uris":{"android":"levelo://app?vid=3f56e2a1-9964-474b-90d0-5f9bcd944bbc","ios":"levelo://app?vid=3f56e2a1-9964-474b-90d0-5f9bcd944bbc"},"vehicle_type_id":"4","last_reported":1730642893,"current_range_meters":8800,"station_id":"ce4bh692rcd13ifvqe90","pricing_plan_id":"cebpf4jnsgd1na2vs0mg"},{"bike_id":"d0369684-a3cf-462d-88ca-c7ab36abacec","system_id":"levelo_inurba_marseille","lat":43.2418,"lon":5.39738,"is_reserved":false,"is_disabled":false,"rental_uris":{"android":"levelo://app?vid=d0369684-a3cf-462d-88ca-c7ab36abacec","ios":"levelo://app?vid=d0369684-a3cf-462d-88ca-c7ab36abacec"},"vehicle_type_id":"4","last_reported":1730642893,"current_range_meters":12400,"station_id":"ce4bhn12rcd13ifvqgpg","pricing_plan_id":"cebpf4jnsgd1na2vs0mg"},{"bike_id":"6e0ef204-c495-4cbc-87b4-0fd3e26f628b","system_id":"levelo_inurba_marseille","lat":43.275862,"lon":5.389459,"is_reserved":false,"is_disabled":false,"rental_uris":{"android":"levelo://app?vid=6e0ef204-c495-4cbc-87b4-0fd3e26f628b","ios":"levelo://app?vid=6e0ef204-c495-4cbc-87b4-0fd3e26f628b"},"vehicle_type_id":"4","last_reported":1730642893,"current_range_meters":25600,"station_id":"ce4bhi12rcd13ifvqfo0","pricing_plan_id":"cebpf4jnsgd1na2vs0mg"},{"bike_id":"ef11cc93-f30b-4864-9c47-a06ba98b6168","system_id":"levelo_inurba_marseille","lat":43.24387,"lon":5.37058,"is_reserved":false,"is_disabled":false,"rental_uris":{"android":"levelo://app?vid=ef11cc93-f30b-4864-9c47-a06ba98b6168","ios":"levelo://app?vid=ef11cc93-f30b-4864-9c47-a06ba98b6168"},"vehicle_type_id":"4","last_reported":1730642893,"current_range_meters":34800,"station_id":"ce4bhhh2rcd13ifvqfk0","pricing_plan_id":"cebpf4jnsgd1na2vs0mg"},{"bike_id":"ca1b5efc-c25e-4578-8ed4-153e1091bba7","system_id":"levelo_inurba_marseille","lat":43.25862,"lon":5.39898,"is_reserved":false,"is_disabled":false,"rental_uris":{"android":"levelo://app?vid=ca1b5efc-c25e-4578-8ed4-153e1091bba7","ios":"levelo://app?vid=ca1b5efc-c25e-4578-8ed4-153e1091bba7"},"vehicle_type_id":"4","last_reported":1730642893,"current_range_meters":16400,"station_id":"ce4bhl92rcd13ifvqghg","pricing_plan_id":"cebpf4jnsgd1na2vs0mg"},{"bike_id":"e6002474-a723-4dab-a717-6c9989dad2b8","system_id":"levelo_inurba_marseille","lat":43.24168,"lon":5.36397,"is_reserved":false,"is_disabled":false,"rental_uris":{"android":"levelo://app?vid=e6002474-a723-4dab-a717-6c9989dad2b8","ios":"levelo://app?vid=e6002474-a723-4dab-a717-6c9989dad2b8"},"vehicle_type_id":"4","last_reported":1730642893,"current_range_meters":33600,"station_id":"cpo36qri1sfpv3e86is0","pricing_plan_id":"cebpf4jnsgd1na2vs0mg"},{"bike_id":"61497ec0-6b91-4085-893e-2dc4cbab5392","system_id":"levelo_inurba_marseille","lat":43.32364,"lon":5.38897,"is_reserved":false,"is_disabled":false,"rental_uris":{"android":"levelo://app?vid=61497ec0-6b91-4085-893e-2dc4cbab5392","ios":"levelo://app?vid=61497ec0-6b91-4085-893e-2dc4cbab5392"},"vehicle_type_id":"4","last_reported":1730642893,"current_range_meters":22400,"station_id":"ce4bhqp2rcd13ifvqhog","pricing_plan_id":"cebpf4jnsgd1na2vs0mg"},{"bike_id":"c1aa7170-41b9-4bac-9fb1-bde259cbc0ef","system_id":"levelo_inurba_marseille","lat":43.26925,"lon":5.38923,"is_reserved":false,"is_disabled":false,"rental_uris":{"android":"levelo://app?vid=c1aa7170-41b9-4bac-9fb1-bde259cbc0ef","ios":"levelo://app?vid=c1aa7170-41b9-4bac-9fb1-bde259cbc0ef"},"vehicle_type_id":"4","last_reported":1730642893,"current_range_meters":3600,"station_id":"ce4bhhh2rcd13ifvqfl0","pricing_plan_id":"cebpf4jnsgd1na2vs0mg"},{"bike_id":"12e2a17d-b267-46ea-b046-7d399d7c3544","system_id":"levelo_inurba_marseille","lat":43.33727,"lon":5.3918,"is_reserved":false,"is_disabled":false,"rental_uris":{"android":"levelo://app?vid=12e2a17d-b267-46ea-b046-7d399d7c3544","ios":"levelo://app?vid=12e2a17d-b267-46ea-b046-7d399d7c3544"},"vehicle_type_id":"4","last_reported":1730642893,"current_range_meters":11600,"station_id":"ce4bhr92rcd13ifvqhsg","pricing_plan_id":"cebpf4jnsgd1na2vs0mg"},{"bike_id":"12361ba2-021f-49a4-8e05-c77e2c439122","system_id":"levelo_inurba_marseille","lat":43.28467,"lon":5.38428,"is_reserved":false,"is_disabled":false,"rental_uris":{"android":"levelo://app?vid=12361ba2-021f-49a4-8e05-c77e2c439122","ios":"levelo://app?vid=12361ba2-021f-49a4-8e05-c77e2c439122"},"vehicle_type_id":"4","last_reported":1730642893,"current_range_meters":38800,"station_id":"ce4bh512rcd13ifvqe3g","pricing_plan_id":"cebpf4jnsgd1na2vs0mg"},{"bike_id":"4e890ffa-3093-48ce-accc-e8cec613ba94","system_id":"levelo_inurba_marseille","lat":43.29628,"lon":5.40596,"is_reserved":false,"is_disabled":false,"rental_uris":{"android":"levelo://app?vid=4e890ffa-3093-48ce-accc-e8cec613ba94","ios":"levelo://app?vid=4e890ffa-3093-48ce-accc-e8cec613ba94"},"vehicle_type_id":"4","last_reported":1730642893,"current_range_meters":28400,"station_id":"ce4bh0h2rcd13ifvqd60","pricing_plan_id":"cebpf4jnsgd1na2vs0mg"},{"bike_id":"50c61d10-796e-41ff-8615-d9fb252ecb98","system_id":"levelo_inurba_marseille","lat":43.23946,"lon":5.36635,"is_reserved":false,"is_disabled":false,"rental_uris":{"android":"levelo://app?vid=50c61d10-796e-41ff-8615-d9fb252ecb98","ios":"levelo://app?vid=50c61d10-796e-41ff-8615-d9fb252ecb98"},"vehicle_type_id":"4","last_reported":1730642893,"current_range_meters":33600,"station_id":"ce4bhi12rcd13ifvqfp0","pricing_plan_id":"cebpf4jnsgd1na2vs0mg"},{"bike_id":"d4472d20-9c4b-4c70-ad00-3a005519a429","system_id":"levelo_inurba_marseille","lat":43.35412,"lon":5.35713,"is_reserved":false,"is_disabled":false,"rental_uris":{"android":"levelo://app?vid=d4472d20-9c4b-4c70-ad00-3a005519a429","ios":"levelo://app?vid=d4472d20-9c4b-4c70-ad00-3a005519a429"},"vehicle_type_id":"4","last_reported":1730642893,"current_range_meters":15200,"station_id":"","pricing_plan_id":"cebpf4jnsgd1na2vs0mg"},{"bike_id":"6338020e-474a-4c99-b365-eea26fe54739","system_id":"levelo_inurba_marseille","lat":43.32286,"lon":5.38273,"is_reserved":false,"is_disabled":false,"rental_uris":{"android":"levelo://app?vid=6338020e-474a-4c99-b365-eea26fe54739","ios":"levelo://app?vid=6338020e-474a-4c99-b365-eea26fe54739"},"vehicle_type_id":"4","last_reported":1730642893,"current_range_meters":38800,"station_id":"ce4bhr12rcd13ifvqhqg","pricing_plan_id":"cebpf4jnsgd1na2vs0mg"},{"bike_id":"b1ae30ee-f4bf-4978-a9b2-21fa7822f30d","system_id":"levelo_inurba_marseille","lat":43.27373,"lon":5.36258,"is_reserved":false,"is_disabled":false,"rental_uris":{"android":"levelo://app?vid=b1ae30ee-f4bf-4978-a9b2-21fa7822f30d","ios":"levelo://app?vid=b1ae30ee-f4bf-4978-a9b2-21fa7822f30d"},"vehicle_type_id":"4","last_reported":1730642893,"current_range_meters":4400,"station_id":"ce4bhbh2rcd13ifvqeo0","pricing_plan_id":"cebpf4jnsgd1na2vs0mg"},{"bike_id":"a9a6c491-49a0-4baf-99f2-b015402e65b3","system_id":"levelo_inurba_marseille","lat":43.24389,"lon":5.37051,"is_reserved":false,"is_disabled":false,"rental_uris":{"android":"levelo://app?vid=a9a6c491-49a0-4baf-99f2-b015402e65b3","ios":"levelo://app?vid=a9a6c491-49a0-4baf-99f2-b015402e65b3"},"vehicle_type_id":"4","last_reported":1730642893,"current_range_meters":33600,"station_id":"ce4bhhh2rcd13ifvqfk0","pricing_plan_id":"cebpf4jnsgd1na2vs0mg"},{"bike_id":"0506889d-15a4-4df6-832b-e0ad41c4a7da","system_id":"levelo_inurba_marseille","lat":43.23957,"lon":5.36639,"is_reserved":false,"is_disabled":false,"rental_uris":{"android":"levelo://app?vid=0506889d-15a4-4df6-832b-e0ad41c4a7da","ios":"levelo://app?vid=0506889d-15a4-4df6-832b-e0ad41c4a7da"},"vehicle_type_id":"4","last_reported":1730642893,"current_range_meters":32800,"station_id":"ce4bhi12rcd13ifvqfp0","pricing_plan_id":"cebpf4jnsgd1na2vs0mg"},{"bike_id":"4d838921-ecf0-47e9-891e-f3ee5c37121f","system_id":"levelo_inurba_marseille","lat":43.28271,"lon":5.35077,"is_reserved":false,"is_disabled":false,"rental_uris":{"android":"levelo://app?vid=4d838921-ecf0-47e9-891e-f3ee5c37121f","ios":"levelo://app?vid=4d838921-ecf0-47e9-891e-f3ee5c37121f"},"vehicle_type_id":"4","last_reported":1730642893,"current_range_meters":34800,"station_id":"ce4bhbp2rcd13ifvqerg","pricing_plan_id":"cebpf4jnsgd1na2vs0mg"},{"bike_id":"6e9dfb8e-c8f9-42a6-9d41-c02eb62af443","system_id":"levelo_inurba_marseille","lat":43.23147,"lon":5.43715,"is_reserved":false,"is_disabled":false,"rental_uris":{"android":"levelo://app?vid=6e9dfb8e-c8f9-42a6-9d41-c02eb62af443","ios":"levelo://app?vid=6e9dfb8e-c8f9-42a6-9d41-c02eb62af443"},"vehicle_type_id":"4","last_reported":1730642893,"current_range_meters":13600,"station_id":"ce4bhmp2rcd13ifvqgog","pricing_plan_id":"cebpf4jnsgd1na2vs0mg"},{"bike_id":"f8833f7b-49c8-440c-b671-beb72799bdec","system_id":"levelo_inurba_marseille","lat":43.24965,"lon":5.37508,"is_reserved":false,"is_disabled":false,"rental_uris":{"android":"levelo://app?vid=f8833f7b-49c8-440c-b671-beb72799bdec","ios":"levelo://app?vid=f8833f7b-49c8-440c-b671-beb72799bdec"},"vehicle_type_id":"4","last_reported":1730642893,"current_range_meters":30800,"station_id":"","pricing_plan_id":"cebpf4jnsgd1na2vs0mg"},{"bike_id":"8e2c05be-bb63-4667-bbf2-08bd24c66ea1","system_id":"levelo_inurba_marseille","lat":43.24173,"lon":5.36409,"is_reserved":false,"is_disabled":false,"rental_uris":{"android":"levelo://app?vid=8e2c05be-bb63-4667-bbf2-08bd24c66ea1","ios":"levelo://app?vid=8e2c05be-bb63-4667-bbf2-08bd24c66ea1"},"vehicle_type_id":"4","last_reported":1730642893,"current_range_meters":16800,"station_id":"cpo36qri1sfpv3e86is0","pricing_plan_id":"cebpf4jnsgd1na2vs0mg"},{"bike_id":"7d1d8b3c-0803-4bf6-9721-d7161499653f","system_id":"levelo_inurba_marseille","lat":43.24074,"lon":5.37757,"is_reserved":false,"is_disabled":false,"rental_uris":{"android":"levelo://app?vid=7d1d8b3c-0803-4bf6-9721-d7161499653f","ios":"levelo://app?vid=7d1d8b3c-0803-4bf6-9721-d7161499653f"},"vehicle_type_id":"4","last_reported":1730642893,"current_range_meters":20000,"station_id":"ce4bhnp2rcd13ifvqgvg","pricing_plan_id":"cebpf4jnsgd1na2vs0mg"},{"bike_id":"d327878c-2081-4174-813b-00183675dee0","system_id":"levelo_inurba_marseille","lat":43.325404,"lon":5.414157,"is_reserved":false,"is_disabled":false,"rental_uris":{"android":"levelo://app?vid=d327878c-2081-4174-813b-00183675dee0","ios":"levelo://app?vid=d327878c-2081-4174-813b-00183675dee0"},"vehicle_type_id":"4","last_reported":1730642893,"current_range_meters":35200,"station_id":"ce4bgt92rcd13ifvqcf0","pricing_plan_id":"cebpf4jnsgd1na2vs0mg"},{"bike_id":"5bdeb517-1a4b-4c75-910b-1f223b816670","system_id":"levelo_inurba_marseille","lat":43.32477,"lon":5.36561,"is_reserved":false,"is_disabled":false,"rental_uris":{"android":"levelo://app?vid=5bdeb517-1a4b-4c75-910b-1f223b816670","ios":"levelo://app?vid=5bdeb517-1a4b-4c75-910b-1f223b816670"},"vehicle_type_id":"4","last_reported":1730642893,"current_range_meters":37600,"station_id":"ce4bhs12rcd13ifvqhvg","pricing_plan_id":"cebpf4jnsgd1na2vs0mg"},{"bike_id":"6ec2e87a-cd12-4f83-9957-3576a72e23ec","system_id":"levelo_inurba_marseille","lat":43.25822,"lon":5.39439,"is_reserved":false,"is_disabled":false,"rental_uris":{"android":"levelo://app?vid=6ec2e87a-cd12-4f83-9957-3576a72e23ec","ios":"levelo://app?vid=6ec2e87a-cd12-4f83-9957-3576a72e23ec"},"vehicle_type_id":"4","last_reported":1730642893,"current_range_meters":18000,"station_id":"ce4bhip2rcd13ifvqft0","pricing_plan_id":"cebpf4jnsgd1na2vs0mg"},{"bike_id":"1ddde7ff-3953-4942-bfab-1d2712b93546","system_id":"levelo_inurba_marseille","lat":43.31711,"lon":5.37758,"is_reserved":false,"is_disabled":false,"rental_uris":{"android":"levelo://app?vid=1ddde7ff-3953-4942-bfab-1d2712b93546","ios":"levelo://app?vid=1ddde7ff-3953-4942-bfab-1d2712b93546"},"vehicle_type_id":"4","last_reported":1730642893,"current_range_meters":38800,"station_id":"ce4bgth2rcd13ifvqch0","pricing_plan_id":"cebpf4jnsgd1na2vs0mg"},{"bike_id":"9b83c467-696c-4a85-b81a-739bb3a33b5a","system_id":"levelo_inurba_marseille","lat":43.25083,"lon":5.39515,"is_reserved":false,"is_disabled":false,"rental_uris":{"android":"levelo://app?vid=9b83c467-696c-4a85-b81a-739bb3a33b5a","ios":"levelo://app?vid=9b83c467-696c-4a85-b81a-739bb3a33b5a"},"vehicle_type_id":"4","last_reported":1730642893,"current_range_meters":39200,"station_id":"ce4bhm12rcd13ifvqgkg","pricing_plan_id":"cebpf4jnsgd1na2vs0mg"},{"bike_id":"44642f4d-6acc-46fe-bd97-7c50fc803f39","system_id":"levelo_inurba_marseille","lat":43.32114,"lon":5.36775,"is_reserved":false,"is_disabled":false,"rental_uris":{"android":"levelo://app?vid=44642f4d-6acc-46fe-bd97-7c50fc803f39","ios":"levelo://app?vid=44642f4d-6acc-46fe-bd97-7c50fc803f39"},"vehicle_type_id":"4","last_reported":1730642893,"current_range_meters":8800,"station_id":"ce4bhrh2rcd13ifvqhug","pricing_plan_id":"cebpf4jnsgd1na2vs0mg"},{"bike_id":"18402065-9e87-476b-95ad-30853de181a0","system_id":"levelo_inurba_marseille","lat":43.32455,"lon":5.45543,"is_reserved":false,"is_disabled":false,"rental_uris":{"android":"levelo://app?vid=18402065-9e87-476b-95ad-30853de181a0","ios":"levelo://app?vid=18402065-9e87-476b-95ad-30853de181a0"},"vehicle_type_id":"4","last_reported":1730642893,"current_range_meters":3200,"station_id":"","pricing_plan_id":"cebpf4jnsgd1na2vs0mg"},{"bike_id":"0795f4cf-259d-417a-8820-3a6b012ae7cb","system_id":"levelo_inurba_marseille","lat":43.23188,"lon":5.35549,"is_reserved":false,"is_disabled":false,"rental_uris":{"android":"levelo://app?vid=0795f4cf-259d-417a-8820-3a6b012ae7cb","ios":"levelo://app?vid=0795f4cf-259d-417a-8820-3a6b012ae7cb"},"vehicle_type_id":"4","last_reported":1730642893,"current_range_meters":28800,"station_id":"ce4bhu92rcd13ifvqi70","pricing_plan_id":"cebpf4jnsgd1na2vs0mg"},{"bike_id":"8d5e10f9-f0cf-43fe-a81e-7f88ce3f164d","system_id":"levelo_inurba_marseille","lat":43.286218,"lon":5.351052,"is_reserved":false,"is_disabled":false,"rental_uris":{"android":"levelo://app?vid=8d5e10f9-f0cf-43fe-a81e-7f88ce3f164d","ios":"levelo://app?vid=8d5e10f9-f0cf-43fe-a81e-7f88ce3f164d"},"vehicle_type_id":"4","last_reported":1730642893,"current_range_meters":38800,"station_id":"ce4bhch2rcd13ifvqeug","pricing_plan_id":"cebpf4jnsgd1na2vs0mg"},{"bike_id":"5a98aa4c-fb3e-4b94-bbf4-81045c1c5828","system_id":"levelo_inurba_marseille","lat":43.2842,"lon":5.35003,"is_reserved":false,"is_disabled":false,"rental_uris":{"android":"levelo://app?vid=5a98aa4c-fb3e-4b94-bbf4-81045c1c5828","ios":"levelo://app?vid=5a98aa4c-fb3e-4b94-bbf4-81045c1c5828"},"vehicle_type_id":"4","last_reported":1730642893,"current_range_meters":22800,"station_id":"ce4bhbh2rcd13ifvqepg","pricing_plan_id":"cebpf4jnsgd1na2vs0mg"},{"bike_id":"a391737f-84ff-466c-8a2e-8a9944704898","system_id":"levelo_inurba_marseille","lat":43.27926,"lon":5.39572,"is_reserved":false,"is_disabled":false,"rental_uris":{"android":"levelo://app?vid=a391737f-84ff-466c-8a2e-8a9944704898","ios":"levelo://app?vid=a391737f-84ff-466c-8a2e-8a9944704898"},"vehicle_type_id":"4","last_reported":1730642893,"current_range_meters":26000,"station_id":"ce4bhf92rcd13ifvqf40","pricing_plan_id":"cebpf4jnsgd1na2vs0mg"},{"bike_id":"751eec01-23b0-49aa-a2a3-e2d658155f8b","system_id":"levelo_inurba_marseille","lat":43.27172,"lon":5.40981,"is_reserved":false,"is_disabled":false,"rental_uris":{"android":"levelo://app?vid=751eec01-23b0-49aa-a2a3-e2d658155f8b","ios":"levelo://app?vid=751eec01-23b0-49aa-a2a3-e2d658155f8b"},"vehicle_type_id":"4","last_reported":1730642893,"current_range_meters":38800,"station_id":"ce4bhl12rcd13ifvqgf0","pricing_plan_id":"cebpf4jnsgd1na2vs0mg"},{"bike_id":"c7a6a60a-ebc3-43dc-847c-5817f23f3b49","system_id":"levelo_inurba_marseille","lat":43.25723,"lon":5.41108,"is_reserved":false,"is_disabled":false,"rental_uris":{"android":"levelo://app?vid=c7a6a60a-ebc3-43dc-847c-5817f23f3b49","ios":"levelo://app?vid=c7a6a60a-ebc3-43dc-847c-5817f23f3b49"},"vehicle_type_id":"4","last_reported":1730642893,"current_range_meters":4000,"station_id":"ce4bhkp2rcd13ifvqgd0","pricing_plan_id":"cebpf4jnsgd1na2vs0mg"},{"bike_id":"d5541a12-439a-4845-841b-6ce96c9850ba","system_id":"levelo_inurba_marseille","lat":43.24805,"lon":5.37452,"is_reserved":false,"is_disabled":false,"rental_uris":{"android":"levelo://app?vid=d5541a12-439a-4845-841b-6ce96c9850ba","ios":"levelo://app?vid=d5541a12-439a-4845-841b-6ce96c9850ba"},"vehicle_type_id":"4","last_reported":1730642893,"current_range_meters":16400,"station_id":"ce4bhgh2rcd13ifvqfb0","pricing_plan_id":"cebpf4jnsgd1na2vs0mg"},{"bike_id":"447ba1a0-36db-4fd1-bfdc-2efe1729cb2e","system_id":"levelo_inurba_marseille","lat":43.24805,"lon":5.37467,"is_reserved":false,"is_disabled":false,"rental_uris":{"android":"levelo://app?vid=447ba1a0-36db-4fd1-bfdc-2efe1729cb2e","ios":"levelo://app?vid=447ba1a0-36db-4fd1-bfdc-2efe1729cb2e"},"vehicle_type_id":"4","last_reported":1730642893,"current_range_meters":0,"station_id":"ce4bhgh2rcd13ifvqfb0","pricing_plan_id":"cebpf4jnsgd1na2vs0mg"},{"bike_id":"1cabbeb2-44e1-4279-a840-6957acdae304","system_id":"levelo_inurba_marseille","lat":43.27619,"lon":5.36117,"is_reserved":false,"is_disabled":false,"rental_uris":{"android":"levelo://app?vid=1cabbeb2-44e1-4279-a840-6957acdae304","ios":"levelo://app?vid=1cabbeb2-44e1-4279-a840-6957acdae304"},"vehicle_type_id":"4","last_reported":1730642893,"current_range_meters":38800,"station_id":"ce4bgj92rcd13ifvqbe0","pricing_plan_id":"cebpf4jnsgd1na2vs0mg"},{"bike_id":"3de79b57-7daf-468c-b183-8c3c9299d270","system_id":"levelo_inurba_marseille","lat":43.28421,"lon":5.34994,"is_reserved":false,"is_disabled":false,"rental_uris":{"android":"levelo://app?vid=3de79b57-7daf-468c-b183-8c3c9299d270","ios":"levelo://app?vid=3de79b57-7daf-468c-b183-8c3c9299d270"},"vehicle_type_id":"4","last_reported":1730642893,"current_range_meters":28400,"station_id":"ce4bhbh2rcd13ifvqepg","pricing_plan_id":"cebpf4jnsgd1na2vs0mg"},{"bike_id":"3b0d9f27-15e7-4761-984b-3eb58f143dab","system_id":"levelo_inurba_marseille","lat":43.2799,"lon":5.40023,"is_reserved":false,"is_disabled":false,"rental_uris":{"android":"levelo://app?vid=3b0d9f27-15e7-4761-984b-3eb58f143dab","ios":"levelo://app?vid=3b0d9f27-15e7-4761-984b-3eb58f143dab"},"vehicle_type_id":"4","last_reported":1730642893,"current_range_meters":38800,"station_id":"ce4bho92rcd13ifvqh4g","pricing_plan_id":"cebpf4jnsgd1na2vs0mg"},{"bike_id":"e4aa7f36-b0fe-47e3-9ec1-0dd54baac1d5","system_id":"levelo_inurba_marseille","lat":43.23197,"lon":5.35552,"is_reserved":false,"is_disabled":false,"rental_uris":{"android":"levelo://app?vid=e4aa7f36-b0fe-47e3-9ec1-0dd54baac1d5","ios":"levelo://app?vid=e4aa7f36-b0fe-47e3-9ec1-0dd54baac1d5"},"vehicle_type_id":"4","last_reported":1730642893,"current_range_meters":35600,"station_id":"ce4bhu92rcd13ifvqi70","pricing_plan_id":"cebpf4jnsgd1na2vs0mg"},{"bike_id":"9bed6030-9221-4384-8b11-5c46278a1a7f","system_id":"levelo_inurba_marseille","lat":43.28709,"lon":5.37934,"is_reserved":false,"is_disabled":false,"rental_uris":{"android":"levelo://app?vid=9bed6030-9221-4384-8b11-5c46278a1a7f","ios":"levelo://app?vid=9bed6030-9221-4384-8b11-5c46278a1a7f"},"vehicle_type_id":"4","last_reported":1730642893,"current_range_meters":36800,"station_id":"ce4bh9p2rcd13ifvqec0","pricing_plan_id":"cebpf4jnsgd1na2vs0mg"},{"bike_id":"bafc4fb6-5728-4ce5-b9aa-0d19eaf660b1","system_id":"levelo_inurba_marseille","lat":43.29006,"lon":5.35615,"is_reserved":false,"is_disabled":false,"rental_uris":{"android":"levelo://app?vid=bafc4fb6-5728-4ce5-b9aa-0d19eaf660b1","ios":"levelo://app?vid=bafc4fb6-5728-4ce5-b9aa-0d19eaf660b1"},"vehicle_type_id":"4","last_reported":1730642893,"current_range_meters":10000,"station_id":"ce4bhb92rcd13ifvqen0","pricing_plan_id":"cebpf4jnsgd1na2vs0mg"},{"bike_id":"3573235e-8512-4344-9b31-040694326eb8","system_id":"levelo_inurba_marseille","lat":43.31068,"lon":5.38358,"is_reserved":false,"is_disabled":false,"rental_uris":{"android":"levelo://app?vid=3573235e-8512-4344-9b31-040694326eb8","ios":"levelo://app?vid=3573235e-8512-4344-9b31-040694326eb8"},"vehicle_type_id":"4","last_reported":1730642893,"current_range_meters":29600,"station_id":"ce4bgv92rcd13ifvqcr0","pricing_plan_id":"cebpf4jnsgd1na2vs0mg"},{"bike_id":"1da54a2a-a2b9-469c-bcc3-4599706d447b","system_id":"levelo_inurba_marseille","lat":43.23188,"lon":5.35543,"is_reserved":false,"is_disabled":false,"rental_uris":{"android":"levelo://app?vid=1da54a2a-a2b9-469c-bcc3-4599706d447b","ios":"levelo://app?vid=1da54a2a-a2b9-469c-bcc3-4599706d447b"},"vehicle_type_id":"4","last_reported":1730642893,"current_range_meters":31200,"station_id":"ce4bhu92rcd13ifvqi70","pricing_plan_id":"cebpf4jnsgd1na2vs0mg"},{"bike_id":"9fcdbbfe-31d6-4b8b-9f2c-15a9ab23cfbd","system_id":"levelo_inurba_marseille","lat":43.3414,"lon":5.40905,"is_reserved":false,"is_disabled":false,"rental_uris":{"android":"levelo://app?vid=9fcdbbfe-31d6-4b8b-9f2c-15a9ab23cfbd","ios":"levelo://app?vid=9fcdbbfe-31d6-4b8b-9f2c-15a9ab23cfbd"},"vehicle_type_id":"4","last_reported":1730642893,"current_range_meters":18800,"station_id":"ce4bhqh2rcd13ifvqhlg","pricing_plan_id":"cebpf4jnsgd1na2vs0mg"},{"bike_id":"3c877fb3-10eb-48a8-9bac-0c577417968a","system_id":"levelo_inurba_marseille","lat":43.32043,"lon":5.41563,"is_reserved":false,"is_disabled":false,"rental_uris":{"android":"levelo://app?vid=3c877fb3-10eb-48a8-9bac-0c577417968a","ios":"levelo://app?vid=3c877fb3-10eb-48a8-9bac-0c577417968a"},"vehicle_type_id":"4","last_reported":1730642893,"current_range_meters":24000,"station_id":"ce4bhq92rcd13ifvqhkg","pricing_plan_id":"cebpf4jnsgd1na2vs0mg"},{"bike_id":"215853de-049a-4f0d-afab-b60db7327e1a","system_id":"levelo_inurba_marseille","lat":43.29629,"lon":5.40596,"is_reserved":false,"is_disabled":false,"rental_uris":{"android":"levelo://app?vid=215853de-049a-4f0d-afab-b60db7327e1a","ios":"levelo://app?vid=215853de-049a-4f0d-afab-b60db7327e1a"},"vehicle_type_id":"4","last_reported":1730642893,"current_range_meters":11200,"station_id":"ce4bh0h2rcd13ifvqd60","pricing_plan_id":"cebpf4jnsgd1na2vs0mg"},{"bike_id":"3bd6119d-d638-4146-a4b1-500bfb92e1e4","system_id":"levelo_inurba_marseille","lat":43.25831,"lon":5.39435,"is_reserved":false,"is_disabled":false,"rental_uris":{"android":"levelo://app?vid=3bd6119d-d638-4146-a4b1-500bfb92e1e4","ios":"levelo://app?vid=3bd6119d-d638-4146-a4b1-500bfb92e1e4"},"vehicle_type_id":"4","last_reported":1730642893,"current_range_meters":35600,"station_id":"ce4bhip2rcd13ifvqft0","pricing_plan_id":"cebpf4jnsgd1na2vs0mg"},{"bike_id":"cb260b96-8c2f-480d-ae38-1fe9d868e6c9","system_id":"levelo_inurba_marseille","lat":43.24175,"lon":5.36392,"is_reserved":false,"is_disabled":false,"rental_uris":{"android":"levelo://app?vid=cb260b96-8c2f-480d-ae38-1fe9d868e6c9","ios":"levelo://app?vid=cb260b96-8c2f-480d-ae38-1fe9d868e6c9"},"vehicle_type_id":"4","last_reported":1730642893,"current_range_meters":12000,"station_id":"cpo36qri1sfpv3e86is0","pricing_plan_id":"cebpf4jnsgd1na2vs0mg"},{"bike_id":"fae3d841-73a6-480d-a659-e0564a7a8dd8","system_id":"levelo_inurba_marseille","lat":43.30532,"lon":5.36553,"is_reserved":false,"is_disabled":false,"rental_uris":{"android":"levelo://app?vid=fae3d841-73a6-480d-a659-e0564a7a8dd8","ios":"levelo://app?vid=fae3d841-73a6-480d-a659-e0564a7a8dd8"},"vehicle_type_id":"4","last_reported":1730642893,"current_range_meters":16000,"station_id":"ce4bgs12rcd13ifvqcag","pricing_plan_id":"cebpf4jnsgd1na2vs0mg"},{"bike_id":"76bbb358-ce07-45ef-bb42-123c6aa2c4f1","system_id":"levelo_inurba_marseille","lat":43.28407,"lon":5.34987,"is_reserved":false,"is_disabled":false,"rental_uris":{"android":"levelo://app?vid=76bbb358-ce07-45ef-bb42-123c6aa2c4f1","ios":"levelo://app?vid=76bbb358-ce07-45ef-bb42-123c6aa2c4f1"},"vehicle_type_id":"4","last_reported":1730642893,"current_range_meters":35600,"station_id":"ce4bhbh2rcd13ifvqepg","pricing_plan_id":"cebpf4jnsgd1na2vs0mg"},{"bike_id":"ea16dcf0-c487-46de-8792-a524571c7d70","system_id":"levelo_inurba_marseille","lat":43.24801,"lon":5.37456,"is_reserved":false,"is_disabled":false,"rental_uris":{"android":"levelo://app?vid=ea16dcf0-c487-46de-8792-a524571c7d70","ios":"levelo://app?vid=ea16dcf0-c487-46de-8792-a524571c7d70"},"vehicle_type_id":"4","last_reported":1730642893,"current_range_meters":24400,"station_id":"ce4bhgh2rcd13ifvqfb0","pricing_plan_id":"cebpf4jnsgd1na2vs0mg"},{"bike_id":"d870f50e-e053-444a-9287-7bcf8cc7519f","system_id":"levelo_inurba_marseille","lat":43.314901,"lon":5.373075,"is_reserved":false,"is_disabled":false,"rental_uris":{"android":"levelo://app?vid=d870f50e-e053-444a-9287-7bcf8cc7519f","ios":"levelo://app?vid=d870f50e-e053-444a-9287-7bcf8cc7519f"},"vehicle_type_id":"4","last_reported":1730642893,"current_range_meters":19200,"station_id":"ce4bgv92rcd13ifvqcq0","pricing_plan_id":"cebpf4jnsgd1na2vs0mg"},{"bike_id":"581392ef-bf00-4538-9de0-6e66c216240f","system_id":"levelo_inurba_marseille","lat":43.24647,"lon":5.38889,"is_reserved":false,"is_disabled":false,"rental_uris":{"android":"levelo://app?vid=581392ef-bf00-4538-9de0-6e66c216240f","ios":"levelo://app?vid=581392ef-bf00-4538-9de0-6e66c216240f"},"vehicle_type_id":"4","last_reported":1730642893,"current_range_meters":36000,"station_id":"ce4bhg12rcd13ifvqf60","pricing_plan_id":"cebpf4jnsgd1na2vs0mg"},{"bike_id":"8c67d340-801d-46e5-b910-2f8aff3ff078","system_id":"levelo_inurba_marseille","lat":43.33318,"lon":5.37073,"is_reserved":false,"is_disabled":false,"rental_uris":{"android":"levelo://app?vid=8c67d340-801d-46e5-b910-2f8aff3ff078","ios":"levelo://app?vid=8c67d340-801d-46e5-b910-2f8aff3ff078"},"vehicle_type_id":"4","last_reported":1730642893,"current_range_meters":6400,"station_id":"","pricing_plan_id":"cebpf4jnsgd1na2vs0mg"},{"bike_id":"c68bb139-1a56-4459-8789-8562476ab9cf","system_id":"levelo_inurba_marseille","lat":43.27495,"lon":5.42455,"is_reserved":false,"is_disabled":false,"rental_uris":{"android":"levelo://app?vid=c68bb139-1a56-4459-8789-8562476ab9cf","ios":"levelo://app?vid=c68bb139-1a56-4459-8789-8562476ab9cf"},"vehicle_type_id":"4","last_reported":1730642893,"current_range_meters":14800,"station_id":"ce4bhn92rcd13ifvqgrg","pricing_plan_id":"cebpf4jnsgd1na2vs0mg"},{"bike_id":"921069e2-e506-477e-8730-9e0ff76dae61","system_id":"levelo_inurba_marseille","lat":43.2407,"lon":5.37759,"is_reserved":false,"is_disabled":false,"rental_uris":{"android":"levelo://app?vid=921069e2-e506-477e-8730-9e0ff76dae61","ios":"levelo://app?vid=921069e2-e506-477e-8730-9e0ff76dae61"},"vehicle_type_id":"4","last_reported":1730642893,"current_range_meters":36800,"station_id":"ce4bhnp2rcd13ifvqgvg","pricing_plan_id":"cebpf4jnsgd1na2vs0mg"},{"bike_id":"79f5032c-4427-40bb-bbad-7f35acb21ebc","system_id":"levelo_inurba_marseille","lat":43.32287,"lon":5.3828,"is_reserved":false,"is_disabled":false,"rental_uris":{"android":"levelo://app?vid=79f5032c-4427-40bb-bbad-7f35acb21ebc","ios":"levelo://app?vid=79f5032c-4427-40bb-bbad-7f35acb21ebc"},"vehicle_type_id":"4","last_reported":1730642893,"current_range_meters":17200,"station_id":"ce4bhr12rcd13ifvqhqg","pricing_plan_id":"cebpf4jnsgd1na2vs0mg"},{"bike_id":"885fd0ae-1b94-44a7-82ef-3062b31b5b1e","system_id":"levelo_inurba_marseille","lat":43.26206,"lon":5.37929,"is_reserved":false,"is_disabled":false,"rental_uris":{"android":"levelo://app?vid=885fd0ae-1b94-44a7-82ef-3062b31b5b1e","ios":"levelo://app?vid=885fd0ae-1b94-44a7-82ef-3062b31b5b1e"},"vehicle_type_id":"4","last_reported":1730642893,"current_range_meters":16800,"station_id":"ce4bhjp2rcd13ifvqg90","pricing_plan_id":"cebpf4jnsgd1na2vs0mg"},{"bike_id":"4bb92130-112b-40f2-a0bc-b35823181f61","system_id":"levelo_inurba_marseille","lat":43.28718,"lon":5.3609,"is_reserved":false,"is_disabled":false,"rental_uris":{"android":"levelo://app?vid=4bb92130-112b-40f2-a0bc-b35823181f61","ios":"levelo://app?vid=4bb92130-112b-40f2-a0bc-b35823181f61"},"vehicle_type_id":"4","last_reported":1730642893,"current_range_meters":30800,"station_id":"cki0cbj6b192h4jlfktg","pricing_plan_id":"cebpf4jnsgd1na2vs0mg"},{"bike_id":"1b76da04-24af-4551-be92-5b5e0e7c5288","system_id":"levelo_inurba_marseille","lat":43.27484,"lon":5.4245,"is_reserved":false,"is_disabled":false,"rental_uris":{"android":"levelo://app?vid=1b76da04-24af-4551-be92-5b5e0e7c5288","ios":"levelo://app?vid=1b76da04-24af-4551-be92-5b5e0e7c5288"},"vehicle_type_id":"4","last_reported":1730642893,"current_range_meters":38800,"station_id":"ce4bhn92rcd13ifvqgrg","pricing_plan_id":"cebpf4jnsgd1na2vs0mg"},{"bike_id":"d4279f92-49bc-424d-a700-70391e3249d5","system_id":"levelo_inurba_marseille","lat":43.22932,"lon":5.35388,"is_reserved":false,"is_disabled":false,"rental_uris":{"android":"levelo://app?vid=d4279f92-49bc-424d-a700-70391e3249d5","ios":"levelo://app?vid=d4279f92-49bc-424d-a700-70391e3249d5"},"vehicle_type_id":"4","last_reported":1730642893,"current_range_meters":22800,"station_id":"cpo3532slgdg3j2ikp40","pricing_plan_id":"cebpf4jnsgd1na2vs0mg"},{"bike_id":"f138e776-1ec3-4faf-bdec-6cd18a511ee8","system_id":"levelo_inurba_marseille","lat":43.28433,"lon":5.34995,"is_reserved":false,"is_disabled":false,"rental_uris":{"android":"levelo://app?vid=f138e776-1ec3-4faf-bdec-6cd18a511ee8","ios":"levelo://app?vid=f138e776-1ec3-4faf-bdec-6cd18a511ee8"},"vehicle_type_id":"4","last_reported":1730642893,"current_range_meters":12800,"station_id":"ce4bhbh2rcd13ifvqepg","pricing_plan_id":"cebpf4jnsgd1na2vs0mg"},{"bike_id":"6fb2dfbd-71bf-45fb-9ce7-048649da959e","system_id":"levelo_inurba_marseille","lat":43.24386,"lon":5.37066,"is_reserved":false,"is_disabled":false,"rental_uris":{"android":"levelo://app?vid=6fb2dfbd-71bf-45fb-9ce7-048649da959e","ios":"levelo://app?vid=6fb2dfbd-71bf-45fb-9ce7-048649da959e"},"vehicle_type_id":"4","last_reported":1730642893,"current_range_meters":28000,"station_id":"ce4bhhh2rcd13ifvqfk0","pricing_plan_id":"cebpf4jnsgd1na2vs0mg"},{"bike_id":"fa9e6bfe-937a-4cbb-883b-0de597b7ca1c","system_id":"levelo_inurba_marseille","lat":43.27375,"lon":5.36263,"is_reserved":false,"is_disabled":false,"rental_uris":{"android":"levelo://app?vid=fa9e6bfe-937a-4cbb-883b-0de597b7ca1c","ios":"levelo://app?vid=fa9e6bfe-937a-4cbb-883b-0de597b7ca1c"},"vehicle_type_id":"4","last_reported":1730642893,"current_range_meters":8000,"station_id":"ce4bhbh2rcd13ifvqeo0","pricing_plan_id":"cebpf4jnsgd1na2vs0mg"},{"bike_id":"d5324ca5-5a3a-4892-bb8c-7dbf331e6ea6","system_id":"levelo_inurba_marseille","lat":43.32471,"lon":5.36571,"is_reserved":false,"is_disabled":false,"rental_uris":{"android":"levelo://app?vid=d5324ca5-5a3a-4892-bb8c-7dbf331e6ea6","ios":"levelo://app?vid=d5324ca5-5a3a-4892-bb8c-7dbf331e6ea6"},"vehicle_type_id":"4","last_reported":1730642893,"current_range_meters":38800,"station_id":"ce4bhs12rcd13ifvqhvg","pricing_plan_id":"cebpf4jnsgd1na2vs0mg"},{"bike_id":"00fa2031-46a9-49f9-a788-1b41648c535a","system_id":"levelo_inurba_marseille","lat":43.22928,"lon":5.35381,"is_reserved":false,"is_disabled":false,"rental_uris":{"android":"levelo://app?vid=00fa2031-46a9-49f9-a788-1b41648c535a","ios":"levelo://app?vid=00fa2031-46a9-49f9-a788-1b41648c535a"},"vehicle_type_id":"4","last_reported":1730642893,"current_range_meters":28000,"station_id":"cpo3532slgdg3j2ikp40","pricing_plan_id":"cebpf4jnsgd1na2vs0mg"},{"bike_id":"3e5789a9-8473-4354-a555-f09907fe1728","system_id":"levelo_inurba_marseille","lat":43.2827,"lon":5.35094,"is_reserved":false,"is_disabled":false,"rental_uris":{"android":"levelo://app?vid=3e5789a9-8473-4354-a555-f09907fe1728","ios":"levelo://app?vid=3e5789a9-8473-4354-a555-f09907fe1728"},"vehicle_type_id":"4","last_reported":1730642893,"current_range_meters":38800,"station_id":"ce4bhbp2rcd13ifvqerg","pricing_plan_id":"cebpf4jnsgd1na2vs0mg"},{"bike_id":"7b8934ab-1a6b-4c2d-b5fa-40771c000556","system_id":"levelo_inurba_marseille","lat":43.27071,"lon":5.42273,"is_reserved":false,"is_disabled":false,"rental_uris":{"android":"levelo://app?vid=7b8934ab-1a6b-4c2d-b5fa-40771c000556","ios":"levelo://app?vid=7b8934ab-1a6b-4c2d-b5fa-40771c000556"},"vehicle_type_id":"4","last_reported":1730642893,"current_range_meters":23200,"station_id":"ce4bhk92rcd13ifvqgb0","pricing_plan_id":"cebpf4jnsgd1na2vs0mg"},{"bike_id":"7580d83e-3d7c-46be-82b1-25f013a114af","system_id":"levelo_inurba_marseille","lat":43.32292,"lon":5.38266,"is_reserved":false,"is_disabled":false,"rental_uris":{"android":"levelo://app?vid=7580d83e-3d7c-46be-82b1-25f013a114af","ios":"levelo://app?vid=7580d83e-3d7c-46be-82b1-25f013a114af"},"vehicle_type_id":"4","last_reported":1730642893,"current_range_meters":24400,"station_id":"ce4bhr12rcd13ifvqhqg","pricing_plan_id":"cebpf4jnsgd1na2vs0mg"},{"bike_id":"b080cad7-da4b-4513-90c2-de025b9be26e","system_id":"levelo_inurba_marseille","lat":43.32477,"lon":5.36575,"is_reserved":false,"is_disabled":false,"rental_uris":{"android":"levelo://app?vid=b080cad7-da4b-4513-90c2-de025b9be26e","ios":"levelo://app?vid=b080cad7-da4b-4513-90c2-de025b9be26e"},"vehicle_type_id":"4","last_reported":1730642893,"current_range_meters":16000,"station_id":"ce4bhs12rcd13ifvqhvg","pricing_plan_id":"cebpf4jnsgd1na2vs0mg"},{"bike_id":"04b55f9a-b28b-4505-a7ac-dbe57ec6aab8","system_id":"levelo_inurba_marseille","lat":43.23064,"lon":5.35488,"is_reserved":false,"is_disabled":false,"rental_uris":{"android":"levelo://app?vid=04b55f9a-b28b-4505-a7ac-dbe57ec6aab8","ios":"levelo://app?vid=04b55f9a-b28b-4505-a7ac-dbe57ec6aab8"},"vehicle_type_id":"4","last_reported":1730642893,"current_range_meters":24800,"station_id":"cpo3342slgdg3j2ifvpg","pricing_plan_id":"cebpf4jnsgd1na2vs0mg"},{"bike_id":"c36500d8-3c1b-40b4-b412-de69c457b9cb","system_id":"levelo_inurba_marseille","lat":43.27397,"lon":5.41957,"is_reserved":false,"is_disabled":false,"rental_uris":{"android":"levelo://app?vid=c36500d8-3c1b-40b4-b412-de69c457b9cb","ios":"levelo://app?vid=c36500d8-3c1b-40b4-b412-de69c457b9cb"},"vehicle_type_id":"4","last_reported":1730642893,"current_range_meters":7200,"station_id":"","pricing_plan_id":"cebpf4jnsgd1na2vs0mg"},{"bike_id":"6f644078-f115-44ab-916a-c7730f54542e","system_id":"levelo_inurba_marseille","lat":43.28061,"lon":5.36645,"is_reserved":false,"is_disabled":false,"rental_uris":{"android":"levelo://app?vid=6f644078-f115-44ab-916a-c7730f54542e","ios":"levelo://app?vid=6f644078-f115-44ab-916a-c7730f54542e"},"vehicle_type_id":"4","last_reported":1730642893,"current_range_meters":31200,"station_id":"ce4bht12rcd13ifvqi60","pricing_plan_id":"cebpf4jnsgd1na2vs0mg"},{"bike_id":"61b5c281-8ce6-4a4d-9201-7286f862d85c","system_id":"levelo_inurba_marseille","lat":43.28429,"lon":5.3499,"is_reserved":false,"is_disabled":false,"rental_uris":{"android":"levelo://app?vid=61b5c281-8ce6-4a4d-9201-7286f862d85c","ios":"levelo://app?vid=61b5c281-8ce6-4a4d-9201-7286f862d85c"},"vehicle_type_id":"4","last_reported":1730642893,"current_range_meters":22800,"station_id":"ce4bhbh2rcd13ifvqepg","pricing_plan_id":"cebpf4jnsgd1na2vs0mg"},{"bike_id":"d3175795-2eed-4fd3-b465-77c2fcba77a2","system_id":"levelo_inurba_marseille","lat":43.29512,"lon":5.37503,"is_reserved":false,"is_disabled":false,"rental_uris":{"android":"levelo://app?vid=d3175795-2eed-4fd3-b465-77c2fcba77a2","ios":"levelo://app?vid=d3175795-2eed-4fd3-b465-77c2fcba77a2"},"vehicle_type_id":"4","last_reported":1730642893,"current_range_meters":5600,"station_id":"ce4bgkp2rcd13ifvqbmg","pricing_plan_id":"cebpf4jnsgd1na2vs0mg"},{"bike_id":"c5240f36-8240-4ee5-8a5b-f6352f14c639","system_id":"levelo_inurba_marseille","lat":43.24804,"lon":5.37454,"is_reserved":false,"is_disabled":false,"rental_uris":{"android":"levelo://app?vid=c5240f36-8240-4ee5-8a5b-f6352f14c639","ios":"levelo://app?vid=c5240f36-8240-4ee5-8a5b-f6352f14c639"},"vehicle_type_id":"4","last_reported":1730642893,"current_range_meters":40000,"station_id":"ce4bhgh2rcd13ifvqfb0","pricing_plan_id":"cebpf4jnsgd1na2vs0mg"},{"bike_id":"1e185788-9907-4bdb-b6af-00236c99911a","system_id":"levelo_inurba_marseille","lat":43.27069,"lon":5.42277,"is_reserved":false,"is_disabled":false,"rental_uris":{"android":"levelo://app?vid=1e185788-9907-4bdb-b6af-00236c99911a","ios":"levelo://app?vid=1e185788-9907-4bdb-b6af-00236c99911a"},"vehicle_type_id":"4","last_reported":1730642893,"current_range_meters":20400,"station_id":"ce4bhk92rcd13ifvqgb0","pricing_plan_id":"cebpf4jnsgd1na2vs0mg"},{"bike_id":"6ddabdc2-6a0c-4633-9194-8ef9d0164759","system_id":"levelo_inurba_marseille","lat":43.2466,"lon":5.38155,"is_reserved":false,"is_disabled":false,"rental_uris":{"android":"levelo://app?vid=6ddabdc2-6a0c-4633-9194-8ef9d0164759","ios":"levelo://app?vid=6ddabdc2-6a0c-4633-9194-8ef9d0164759"},"vehicle_type_id":"4","last_reported":1730642893,"current_range_meters":37600,"station_id":"ce4bhih2rcd13ifvqfr0","pricing_plan_id":"cebpf4jnsgd1na2vs0mg"},{"bike_id":"baeb82a5-aab2-4d15-b1fc-e43d5b5e30ae","system_id":"levelo_inurba_marseille","lat":43.27618,"lon":5.3611,"is_reserved":false,"is_disabled":false,"rental_uris":{"android":"levelo://app?vid=baeb82a5-aab2-4d15-b1fc-e43d5b5e30ae","ios":"levelo://app?vid=baeb82a5-aab2-4d15-b1fc-e43d5b5e30ae"},"vehicle_type_id":"4","last_reported":1730642893,"current_range_meters":17600,"station_id":"ce4bgj92rcd13ifvqbe0","pricing_plan_id":"cebpf4jnsgd1na2vs0mg"},{"bike_id":"23f94ace-7e0f-4e34-a4ff-679e2cc3382a","system_id":"levelo_inurba_marseille","lat":43.30527,"lon":5.36703,"is_reserved":false,"is_disabled":false,"rental_uris":{"android":"levelo://app?vid=23f94ace-7e0f-4e34-a4ff-679e2cc3382a","ios":"levelo://app?vid=23f94ace-7e0f-4e34-a4ff-679e2cc3382a"},"vehicle_type_id":"4","last_reported":1730642893,"current_range_meters":36000,"station_id":"ce4bgrp2rcd13ifvqc9g","pricing_plan_id":"cebpf4jnsgd1na2vs0mg"},{"bike_id":"fd7f1df3-e226-4e18-ae23-a86c9180372b","system_id":"levelo_inurba_marseille","lat":43.28414,"lon":5.34986,"is_reserved":false,"is_disabled":false,"rental_uris":{"android":"levelo://app?vid=fd7f1df3-e226-4e18-ae23-a86c9180372b","ios":"levelo://app?vid=fd7f1df3-e226-4e18-ae23-a86c9180372b"},"vehicle_type_id":"4","last_reported":1730642893,"current_range_meters":18000,"station_id":"ce4bhbh2rcd13ifvqepg","pricing_plan_id":"cebpf4jnsgd1na2vs0mg"},{"bike_id":"318bdcdb-57f8-4898-9e24-373e9ac64999","system_id":"levelo_inurba_marseille","lat":43.28419,"lon":5.34988,"is_reserved":false,"is_disabled":false,"rental_uris":{"android":"levelo://app?vid=318bdcdb-57f8-4898-9e24-373e9ac64999","ios":"levelo://app?vid=318bdcdb-57f8-4898-9e24-373e9ac64999"},"vehicle_type_id":"4","last_reported":1730642893,"current_range_meters":17600,"station_id":"ce4bhbh2rcd13ifvqepg","pricing_plan_id":"cebpf4jnsgd1na2vs0mg"},{"bike_id":"5e7aef04-5f8f-4931-b686-969187b73c69","system_id":"levelo_inurba_marseille","lat":43.2737,"lon":5.3626,"is_reserved":false,"is_disabled":false,"rental_uris":{"android":"levelo://app?vid=5e7aef04-5f8f-4931-b686-969187b73c69","ios":"levelo://app?vid=5e7aef04-5f8f-4931-b686-969187b73c69"},"vehicle_type_id":"4","last_reported":1730642893,"current_range_meters":38800,"station_id":"ce4bhbh2rcd13ifvqeo0","pricing_plan_id":"cebpf4jnsgd1na2vs0mg"},{"bike_id":"03aef94f-5140-441d-b2ce-c6381504c7d6","system_id":"levelo_inurba_marseille","lat":43.282648,"lon":5.350726,"is_reserved":false,"is_disabled":false,"rental_uris":{"android":"levelo://app?vid=03aef94f-5140-441d-b2ce-c6381504c7d6","ios":"levelo://app?vid=03aef94f-5140-441d-b2ce-c6381504c7d6"},"vehicle_type_id":"4","last_reported":1730642893,"current_range_meters":29600,"station_id":"ce4bhbp2rcd13ifvqerg","pricing_plan_id":"cebpf4jnsgd1na2vs0mg"},{"bike_id":"5843ddaa-1e8f-466e-bd09-55d2cbd2a284","system_id":"levelo_inurba_marseille","lat":43.28265,"lon":5.35064,"is_reserved":false,"is_disabled":false,"rental_uris":{"android":"levelo://app?vid=5843ddaa-1e8f-466e-bd09-55d2cbd2a284","ios":"levelo://app?vid=5843ddaa-1e8f-466e-bd09-55d2cbd2a284"},"vehicle_type_id":"4","last_reported":1730642893,"current_range_meters":24400,"station_id":"ce4bhbp2rcd13ifvqerg","pricing_plan_id":"cebpf4jnsgd1na2vs0mg"},{"bike_id":"1c95f745-5f81-4a0c-b09c-a7070626774c","system_id":"levelo_inurba_marseille","lat":43.30448,"lon":5.38893,"is_reserved":false,"is_disabled":false,"rental_uris":{"android":"levelo://app?vid=1c95f745-5f81-4a0c-b09c-a7070626774c","ios":"levelo://app?vid=1c95f745-5f81-4a0c-b09c-a7070626774c"},"vehicle_type_id":"4","last_reported":1730642893,"current_range_meters":38800,"station_id":"ce4bgk12rcd13ifvqbi0","pricing_plan_id":"cebpf4jnsgd1na2vs0mg"},{"bike_id":"6efea875-820b-4867-b242-d472f161c362","system_id":"levelo_inurba_marseille","lat":43.29935,"lon":5.36549,"is_reserved":false,"is_disabled":false,"rental_uris":{"android":"levelo://app?vid=6efea875-820b-4867-b242-d472f161c362","ios":"levelo://app?vid=6efea875-820b-4867-b242-d472f161c362"},"vehicle_type_id":"4","last_reported":1730642893,"current_range_meters":12000,"station_id":"ce4bgm92rcd13ifvqbr0","pricing_plan_id":"cebpf4jnsgd1na2vs0mg"},{"bike_id":"b7620ad8-dc2e-48b0-a57d-beb4f77d8654","system_id":"levelo_inurba_marseille","lat":43.28617,"lon":5.35105,"is_reserved":false,"is_disabled":false,"rental_uris":{"android":"levelo://app?vid=b7620ad8-dc2e-48b0-a57d-beb4f77d8654","ios":"levelo://app?vid=b7620ad8-dc2e-48b0-a57d-beb4f77d8654"},"vehicle_type_id":"4","last_reported":1730642893,"current_range_meters":26800,"station_id":"ce4bhch2rcd13ifvqeug","pricing_plan_id":"cebpf4jnsgd1na2vs0mg"},{"bike_id":"8b320f2b-240a-49d0-8dac-6c5841209306","system_id":"levelo_inurba_marseille","lat":43.27677,"lon":5.38877,"is_reserved":false,"is_disabled":false,"rental_uris":{"android":"levelo://app?vid=8b320f2b-240a-49d0-8dac-6c5841209306","ios":"levelo://app?vid=8b320f2b-240a-49d0-8dac-6c5841209306"},"vehicle_type_id":"4","last_reported":1730642893,"current_range_meters":37600,"station_id":"ce4bhi12rcd13ifvqfo0","pricing_plan_id":"cebpf4jnsgd1na2vs0mg"},{"bike_id":"45a9d9a7-83a5-4e18-b464-0249954955c8","system_id":"levelo_inurba_marseille","lat":43.23151,"lon":5.43698,"is_reserved":false,"is_disabled":false,"rental_uris":{"android":"levelo://app?vid=45a9d9a7-83a5-4e18-b464-0249954955c8","ios":"levelo://app?vid=45a9d9a7-83a5-4e18-b464-0249954955c8"},"vehicle_type_id":"4","last_reported":1730642893,"current_range_meters":36800,"station_id":"ce4bhmp2rcd13ifvqgog","pricing_plan_id":"cebpf4jnsgd1na2vs0mg"},{"bike_id":"2c13e89b-45a6-4a1c-a620-496683a47bed","system_id":"levelo_inurba_marseille","lat":43.2804,"lon":5.36958,"is_reserved":false,"is_disabled":false,"rental_uris":{"android":"levelo://app?vid=2c13e89b-45a6-4a1c-a620-496683a47bed","ios":"levelo://app?vid=2c13e89b-45a6-4a1c-a620-496683a47bed"},"vehicle_type_id":"4","last_reported":1730642893,"current_range_meters":11600,"station_id":"ce4bha12rcd13ifvqef0","pricing_plan_id":"cebpf4jnsgd1na2vs0mg"},{"bike_id":"8b9d6950-7ec9-4dfe-84d5-4aad7ee389b0","system_id":"levelo_inurba_marseille","lat":43.27373,"lon":5.36265,"is_reserved":false,"is_disabled":false,"rental_uris":{"android":"levelo://app?vid=8b9d6950-7ec9-4dfe-84d5-4aad7ee389b0","ios":"levelo://app?vid=8b9d6950-7ec9-4dfe-84d5-4aad7ee389b0"},"vehicle_type_id":"4","last_reported":1730642893,"current_range_meters":18800,"station_id":"ce4bhbh2rcd13ifvqeo0","pricing_plan_id":"cebpf4jnsgd1na2vs0mg"},{"bike_id":"4a956f0c-3665-471b-ab66-f31f5cac3b19","system_id":"levelo_inurba_marseille","lat":43.25094,"lon":5.40323,"is_reserved":false,"is_disabled":false,"rental_uris":{"android":"levelo://app?vid=4a956f0c-3665-471b-ab66-f31f5cac3b19","ios":"levelo://app?vid=4a956f0c-3665-471b-ab66-f31f5cac3b19"},"vehicle_type_id":"4","last_reported":1730642893,"current_range_meters":25600,"station_id":"ce4bhlh2rcd13ifvqgig","pricing_plan_id":"cebpf4jnsgd1na2vs0mg"},{"bike_id":"4549687f-f986-4750-85fb-e6b533b2c4a8","system_id":"levelo_inurba_marseille","lat":43.23054,"lon":5.35494,"is_reserved":false,"is_disabled":false,"rental_uris":{"android":"levelo://app?vid=4549687f-f986-4750-85fb-e6b533b2c4a8","ios":"levelo://app?vid=4549687f-f986-4750-85fb-e6b533b2c4a8"},"vehicle_type_id":"4","last_reported":1730642893,"current_range_meters":6800,"station_id":"cpo3342slgdg3j2ifvpg","pricing_plan_id":"cebpf4jnsgd1na2vs0mg"},{"bike_id":"ac6e4d7c-4cf4-4233-aca4-0f9953ecb824","system_id":"levelo_inurba_marseille","lat":43.319946,"lon":5.381455,"is_reserved":false,"is_disabled":false,"rental_uris":{"android":"levelo://app?vid=ac6e4d7c-4cf4-4233-aca4-0f9953ecb824","ios":"levelo://app?vid=ac6e4d7c-4cf4-4233-aca4-0f9953ecb824"},"vehicle_type_id":"4","last_reported":1730642893,"current_range_meters":38800,"station_id":"ce4bhr12rcd13ifvqhpg","pricing_plan_id":"cebpf4jnsgd1na2vs0mg"},{"bike_id":"282b7390-6e5c-4d57-bc05-655a59eeab6d","system_id":"levelo_inurba_marseille","lat":43.30543,"lon":5.3653,"is_reserved":false,"is_disabled":false,"rental_uris":{"android":"levelo://app?vid=282b7390-6e5c-4d57-bc05-655a59eeab6d","ios":"levelo://app?vid=282b7390-6e5c-4d57-bc05-655a59eeab6d"},"vehicle_type_id":"4","last_reported":1730642893,"current_range_meters":31200,"station_id":"ce4bgs12rcd13ifvqcag","pricing_plan_id":"cebpf4jnsgd1na2vs0mg"},{"bike_id":"74512091-7000-4bee-92e6-80e777ce0731","system_id":"levelo_inurba_marseille","lat":43.22925,"lon":5.35384,"is_reserved":false,"is_disabled":false,"rental_uris":{"android":"levelo://app?vid=74512091-7000-4bee-92e6-80e777ce0731","ios":"levelo://app?vid=74512091-7000-4bee-92e6-80e777ce0731"},"vehicle_type_id":"4","last_reported":1730642893,"current_range_meters":27600,"station_id":"cpo3532slgdg3j2ikp40","pricing_plan_id":"cebpf4jnsgd1na2vs0mg"},{"bike_id":"1364f934-e509-424f-840d-6f1639213ee1","system_id":"levelo_inurba_marseille","lat":43.2721,"lon":5.39183,"is_reserved":false,"is_disabled":false,"rental_uris":{"android":"levelo://app?vid=1364f934-e509-424f-840d-6f1639213ee1","ios":"levelo://app?vid=1364f934-e509-424f-840d-6f1639213ee1"},"vehicle_type_id":"4","last_reported":1730642893,"current_range_meters":16400,"station_id":"ce4bhhp2rcd13ifvqfm0","pricing_plan_id":"cebpf4jnsgd1na2vs0mg"},{"bike_id":"6915b584-85be-4103-b769-35073f31532e","system_id":"levelo_inurba_marseille","lat":43.27374,"lon":5.3626,"is_reserved":false,"is_disabled":false,"rental_uris":{"android":"levelo://app?vid=6915b584-85be-4103-b769-35073f31532e","ios":"levelo://app?vid=6915b584-85be-4103-b769-35073f31532e"},"vehicle_type_id":"4","last_reported":1730642893,"current_range_meters":38800,"station_id":"ce4bhbh2rcd13ifvqeo0","pricing_plan_id":"cebpf4jnsgd1na2vs0mg"},{"bike_id":"1fc6ca2e-f8cd-4ecc-a0c8-dea568089524","system_id":"levelo_inurba_marseille","lat":43.28271,"lon":5.35083,"is_reserved":false,"is_disabled":false,"rental_uris":{"android":"levelo://app?vid=1fc6ca2e-f8cd-4ecc-a0c8-dea568089524","ios":"levelo://app?vid=1fc6ca2e-f8cd-4ecc-a0c8-dea568089524"},"vehicle_type_id":"4","last_reported":1730642893,"current_range_meters":5600,"station_id":"ce4bhbp2rcd13ifvqerg","pricing_plan_id":"cebpf4jnsgd1na2vs0mg"},{"bike_id":"5bc64015-5047-43ef-9fe9-209ecbb459c9","system_id":"levelo_inurba_marseille","lat":43.23195,"lon":5.3557,"is_reserved":false,"is_disabled":false,"rental_uris":{"android":"levelo://app?vid=5bc64015-5047-43ef-9fe9-209ecbb459c9","ios":"levelo://app?vid=5bc64015-5047-43ef-9fe9-209ecbb459c9"},"vehicle_type_id":"4","last_reported":1730642893,"current_range_meters":30000,"station_id":"ce4bhu92rcd13ifvqi70","pricing_plan_id":"cebpf4jnsgd1na2vs0mg"},{"bike_id":"8a9bbd41-3c71-4f47-b2e6-c897d7309d46","system_id":"levelo_inurba_marseille","lat":43.28417,"lon":5.34992,"is_reserved":false,"is_disabled":false,"rental_uris":{"android":"levelo://app?vid=8a9bbd41-3c71-4f47-b2e6-c897d7309d46","ios":"levelo://app?vid=8a9bbd41-3c71-4f47-b2e6-c897d7309d46"},"vehicle_type_id":"4","last_reported":1730642893,"current_range_meters":38800,"station_id":"ce4bhbh2rcd13ifvqepg","pricing_plan_id":"cebpf4jnsgd1na2vs0mg"},{"bike_id":"80a7ab33-83ac-40e0-ac33-df44f5c9dcd7","system_id":"levelo_inurba_marseille","lat":43.3414,"lon":5.40904,"is_reserved":false,"is_disabled":false,"rental_uris":{"android":"levelo://app?vid=80a7ab33-83ac-40e0-ac33-df44f5c9dcd7","ios":"levelo://app?vid=80a7ab33-83ac-40e0-ac33-df44f5c9dcd7"},"vehicle_type_id":"4","last_reported":1730642893,"current_range_meters":33600,"station_id":"ce4bhqh2rcd13ifvqhlg","pricing_plan_id":"cebpf4jnsgd1na2vs0mg"},{"bike_id":"5063b31e-668f-4f17-acf1-d5b4ff4b9c3c","system_id":"levelo_inurba_marseille","lat":43.23066,"lon":5.35488,"is_reserved":false,"is_disabled":false,"rental_uris":{"android":"levelo://app?vid=5063b31e-668f-4f17-acf1-d5b4ff4b9c3c","ios":"levelo://app?vid=5063b31e-668f-4f17-acf1-d5b4ff4b9c3c"},"vehicle_type_id":"4","last_reported":1730642893,"current_range_meters":24800,"station_id":"cpo3342slgdg3j2ifvpg","pricing_plan_id":"cebpf4jnsgd1na2vs0mg"},{"bike_id":"b92d31d0-89fd-461b-a460-8c64fa1cf8e7","system_id":"levelo_inurba_marseille","lat":43.28266,"lon":5.35084,"is_reserved":false,"is_disabled":false,"rental_uris":{"android":"levelo://app?vid=b92d31d0-89fd-461b-a460-8c64fa1cf8e7","ios":"levelo://app?vid=b92d31d0-89fd-461b-a460-8c64fa1cf8e7"},"vehicle_type_id":"4","last_reported":1730642893,"current_range_meters":16800,"station_id":"ce4bhbp2rcd13ifvqerg","pricing_plan_id":"cebpf4jnsgd1na2vs0mg"},{"bike_id":"3e9b85d7-96fb-4b65-9acd-5723483a3709","system_id":"levelo_inurba_marseille","lat":43.3171,"lon":5.3775,"is_reserved":false,"is_disabled":false,"rental_uris":{"android":"levelo://app?vid=3e9b85d7-96fb-4b65-9acd-5723483a3709","ios":"levelo://app?vid=3e9b85d7-96fb-4b65-9acd-5723483a3709"},"vehicle_type_id":"4","last_reported":1730642893,"current_range_meters":38800,"station_id":"ce4bgth2rcd13ifvqch0","pricing_plan_id":"cebpf4jnsgd1na2vs0mg"},{"bike_id":"ad6b9979-2833-497c-ae59-5afeb88a87ce","system_id":"levelo_inurba_marseille","lat":43.3236,"lon":5.36771,"is_reserved":false,"is_disabled":false,"rental_uris":{"android":"levelo://app?vid=ad6b9979-2833-497c-ae59-5afeb88a87ce","ios":"levelo://app?vid=ad6b9979-2833-497c-ae59-5afeb88a87ce"},"vehicle_type_id":"4","last_reported":1730642893,"current_range_meters":6000,"station_id":"ce4bhsh2rcd13ifvqi2g","pricing_plan_id":"cebpf4jnsgd1na2vs0mg"},{"bike_id":"496d790c-2102-4d4d-9661-61b614a9749a","system_id":"levelo_inurba_marseille","lat":43.30147,"lon":5.38071,"is_reserved":false,"is_disabled":false,"rental_uris":{"android":"levelo://app?vid=496d790c-2102-4d4d-9661-61b614a9749a","ios":"levelo://app?vid=496d790c-2102-4d4d-9661-61b614a9749a"},"vehicle_type_id":"4","last_reported":1730642893,"current_range_meters":39200,"station_id":"ce4bgjp2rcd13ifvqbh0","pricing_plan_id":"cebpf4jnsgd1na2vs0mg"},{"bike_id":"fd90bf8a-a8fd-442b-9df8-59f91e3552fc","system_id":"levelo_inurba_marseille","lat":43.28269,"lon":5.35073,"is_reserved":false,"is_disabled":false,"rental_uris":{"android":"levelo://app?vid=fd90bf8a-a8fd-442b-9df8-59f91e3552fc","ios":"levelo://app?vid=fd90bf8a-a8fd-442b-9df8-59f91e3552fc"},"vehicle_type_id":"4","last_reported":1730642893,"current_range_meters":9600,"station_id":"ce4bhbp2rcd13ifvqerg","pricing_plan_id":"cebpf4jnsgd1na2vs0mg"},{"bike_id":"adca5c05-8bb8-46b4-b14e-b772eef1eba6","system_id":"levelo_inurba_marseille","lat":43.27994,"lon":5.40012,"is_reserved":false,"is_disabled":false,"rental_uris":{"android":"levelo://app?vid=adca5c05-8bb8-46b4-b14e-b772eef1eba6","ios":"levelo://app?vid=adca5c05-8bb8-46b4-b14e-b772eef1eba6"},"vehicle_type_id":"4","last_reported":1730642893,"current_range_meters":37600,"station_id":"ce4bho92rcd13ifvqh4g","pricing_plan_id":"cebpf4jnsgd1na2vs0mg"},{"bike_id":"378fe2c8-8934-4499-9703-140f3e837055","system_id":"levelo_inurba_marseille","lat":43.30533,"lon":5.3654,"is_reserved":false,"is_disabled":false,"rental_uris":{"android":"levelo://app?vid=378fe2c8-8934-4499-9703-140f3e837055","ios":"levelo://app?vid=378fe2c8-8934-4499-9703-140f3e837055"},"vehicle_type_id":"4","last_reported":1730642893,"current_range_meters":31200,"station_id":"ce4bgs12rcd13ifvqcag","pricing_plan_id":"cebpf4jnsgd1na2vs0mg"},{"bike_id":"92bc432d-2cef-4b20-81b9-b4caa977d30d","system_id":"levelo_inurba_marseille","lat":43.23061,"lon":5.3549,"is_reserved":false,"is_disabled":false,"rental_uris":{"android":"levelo://app?vid=92bc432d-2cef-4b20-81b9-b4caa977d30d","ios":"levelo://app?vid=92bc432d-2cef-4b20-81b9-b4caa977d30d"},"vehicle_type_id":"4","last_reported":1730642893,"current_range_meters":22400,"station_id":"cpo3342slgdg3j2ifvpg","pricing_plan_id":"cebpf4jnsgd1na2vs0mg"},{"bike_id":"73b8545d-4982-4838-bf7d-3271b8d0a217","system_id":"levelo_inurba_marseille","lat":43.24165,"lon":5.36395,"is_reserved":false,"is_disabled":false,"rental_uris":{"android":"levelo://app?vid=73b8545d-4982-4838-bf7d-3271b8d0a217","ios":"levelo://app?vid=73b8545d-4982-4838-bf7d-3271b8d0a217"},"vehicle_type_id":"4","last_reported":1730642893,"current_range_meters":30400,"station_id":"cpo36qri1sfpv3e86is0","pricing_plan_id":"cebpf4jnsgd1na2vs0mg"},{"bike_id":"22277462-ea58-4946-ba2c-ef08f6cd7659","system_id":"levelo_inurba_marseille","lat":43.2797,"lon":5.4105,"is_reserved":false,"is_disabled":false,"rental_uris":{"android":"levelo://app?vid=22277462-ea58-4946-ba2c-ef08f6cd7659","ios":"levelo://app?vid=22277462-ea58-4946-ba2c-ef08f6cd7659"},"vehicle_type_id":"4","last_reported":1730642893,"current_range_meters":16800,"station_id":"","pricing_plan_id":"cebpf4jnsgd1na2vs0mg"},{"bike_id":"0d600896-793a-4170-a27f-0f9efe7015a8","system_id":"levelo_inurba_marseille","lat":43.27067,"lon":5.42271,"is_reserved":false,"is_disabled":false,"rental_uris":{"android":"levelo://app?vid=0d600896-793a-4170-a27f-0f9efe7015a8","ios":"levelo://app?vid=0d600896-793a-4170-a27f-0f9efe7015a8"},"vehicle_type_id":"4","last_reported":1730642893,"current_range_meters":22800,"station_id":"ce4bhk92rcd13ifvqgb0","pricing_plan_id":"cebpf4jnsgd1na2vs0mg"},{"bike_id":"c07332d5-f871-4d7c-9894-5a99fdbe9ec1","system_id":"levelo_inurba_marseille","lat":43.25086,"lon":5.3953,"is_reserved":false,"is_disabled":false,"rental_uris":{"android":"levelo://app?vid=c07332d5-f871-4d7c-9894-5a99fdbe9ec1","ios":"levelo://app?vid=c07332d5-f871-4d7c-9894-5a99fdbe9ec1"},"vehicle_type_id":"4","last_reported":1730642893,"current_range_meters":28800,"station_id":"ce4bhm12rcd13ifvqgkg","pricing_plan_id":"cebpf4jnsgd1na2vs0mg"},{"bike_id":"f054eed4-80e1-4935-aa4a-d1d0e0939682","system_id":"levelo_inurba_marseille","lat":43.2396,"lon":5.36634,"is_reserved":false,"is_disabled":false,"rental_uris":{"android":"levelo://app?vid=f054eed4-80e1-4935-aa4a-d1d0e0939682","ios":"levelo://app?vid=f054eed4-80e1-4935-aa4a-d1d0e0939682"},"vehicle_type_id":"4","last_reported":1730642893,"current_range_meters":27200,"station_id":"ce4bhi12rcd13ifvqfp0","pricing_plan_id":"cebpf4jnsgd1na2vs0mg"},{"bike_id":"ffb7ee62-0fba-4b53-ad1d-d465224b6d0e","system_id":"levelo_inurba_marseille","lat":43.25719,"lon":5.41111,"is_reserved":false,"is_disabled":false,"rental_uris":{"android":"levelo://app?vid=ffb7ee62-0fba-4b53-ad1d-d465224b6d0e","ios":"levelo://app?vid=ffb7ee62-0fba-4b53-ad1d-d465224b6d0e"},"vehicle_type_id":"4","last_reported":1730642893,"current_range_meters":28800,"station_id":"ce4bhkp2rcd13ifvqgd0","pricing_plan_id":"cebpf4jnsgd1na2vs0mg"},{"bike_id":"de7a6d18-914f-433e-8e5f-4c68b54f0e0f","system_id":"levelo_inurba_marseille","lat":43.27376,"lon":5.36259,"is_reserved":false,"is_disabled":false,"rental_uris":{"android":"levelo://app?vid=de7a6d18-914f-433e-8e5f-4c68b54f0e0f","ios":"levelo://app?vid=de7a6d18-914f-433e-8e5f-4c68b54f0e0f"},"vehicle_type_id":"4","last_reported":1730642893,"current_range_meters":21600,"station_id":"ce4bhbh2rcd13ifvqeo0","pricing_plan_id":"cebpf4jnsgd1na2vs0mg"},{"bike_id":"9a0c6b7c-1af9-43e3-b5a6-a549aa97687c","system_id":"levelo_inurba_marseille","lat":43.28272,"lon":5.35074,"is_reserved":false,"is_disabled":false,"rental_uris":{"android":"levelo://app?vid=9a0c6b7c-1af9-43e3-b5a6-a549aa97687c","ios":"levelo://app?vid=9a0c6b7c-1af9-43e3-b5a6-a549aa97687c"},"vehicle_type_id":"4","last_reported":1730642893,"current_range_meters":22800,"station_id":"ce4bhbp2rcd13ifvqerg","pricing_plan_id":"cebpf4jnsgd1na2vs0mg"},{"bike_id":"807469a2-81d0-40a4-bf41-581af620ef86","system_id":"levelo_inurba_marseille","lat":43.27383,"lon":5.36259,"is_reserved":false,"is_disabled":false,"rental_uris":{"android":"levelo://app?vid=807469a2-81d0-40a4-bf41-581af620ef86","ios":"levelo://app?vid=807469a2-81d0-40a4-bf41-581af620ef86"},"vehicle_type_id":"4","last_reported":1730642893,"current_range_meters":20400,"station_id":"ce4bhbh2rcd13ifvqeo0","pricing_plan_id":"cebpf4jnsgd1na2vs0mg"},{"bike_id":"9ae5611f-b235-427b-a3ef-70794a5f464b","system_id":"levelo_inurba_marseille","lat":43.28409,"lon":5.34997,"is_reserved":false,"is_disabled":false,"rental_uris":{"android":"levelo://app?vid=9ae5611f-b235-427b-a3ef-70794a5f464b","ios":"levelo://app?vid=9ae5611f-b235-427b-a3ef-70794a5f464b"},"vehicle_type_id":"4","last_reported":1730642893,"current_range_meters":36800,"station_id":"ce4bhbh2rcd13ifvqepg","pricing_plan_id":"cebpf4jnsgd1na2vs0mg"},{"bike_id":"58e7b314-77c5-4411-b74c-8276142971a5","system_id":"levelo_inurba_marseille","lat":43.31998,"lon":5.38161,"is_reserved":false,"is_disabled":false,"rental_uris":{"android":"levelo://app?vid=58e7b314-77c5-4411-b74c-8276142971a5","ios":"levelo://app?vid=58e7b314-77c5-4411-b74c-8276142971a5"},"vehicle_type_id":"4","last_reported":1730642893,"current_range_meters":32800,"station_id":"ce4bhr12rcd13ifvqhpg","pricing_plan_id":"cebpf4jnsgd1na2vs0mg"},{"bike_id":"4e87b800-1902-4271-990b-13d8104ade25","system_id":"levelo_inurba_marseille","lat":43.28605,"lon":5.37076,"is_reserved":false,"is_disabled":false,"rental_uris":{"android":"levelo://app?vid=4e87b800-1902-4271-990b-13d8104ade25","ios":"levelo://app?vid=4e87b800-1902-4271-990b-13d8104ade25"},"vehicle_type_id":"4","last_reported":1730642893,"current_range_meters":40000,"station_id":"ce4bht12rcd13ifvqi60","pricing_plan_id":"cebpf4jnsgd1na2vs0mg"},{"bike_id":"1754da09-84bb-4663-ab48-d407b99ea522","system_id":"levelo_inurba_marseille","lat":43.28268,"lon":5.35065,"is_reserved":false,"is_disabled":false,"rental_uris":{"android":"levelo://app?vid=1754da09-84bb-4663-ab48-d407b99ea522","ios":"levelo://app?vid=1754da09-84bb-4663-ab48-d407b99ea522"},"vehicle_type_id":"4","last_reported":1730642893,"current_range_meters":19600,"station_id":"ce4bhbp2rcd13ifvqerg","pricing_plan_id":"cebpf4jnsgd1na2vs0mg"},{"bike_id":"75039799-6871-4427-85a0-7ec4c9ecfef6","system_id":"levelo_inurba_marseille","lat":43.2951,"lon":5.37505,"is_reserved":false,"is_disabled":false,"rental_uris":{"android":"levelo://app?vid=75039799-6871-4427-85a0-7ec4c9ecfef6","ios":"levelo://app?vid=75039799-6871-4427-85a0-7ec4c9ecfef6"},"vehicle_type_id":"4","last_reported":1730642893,"current_range_meters":6000,"station_id":"ce4bgkp2rcd13ifvqbmg","pricing_plan_id":"cebpf4jnsgd1na2vs0mg"},{"bike_id":"b2f3abe9-843b-4c1b-94df-47cafb71cedd","system_id":"levelo_inurba_marseille","lat":43.2407,"lon":5.37746,"is_reserved":false,"is_disabled":false,"rental_uris":{"android":"levelo://app?vid=b2f3abe9-843b-4c1b-94df-47cafb71cedd","ios":"levelo://app?vid=b2f3abe9-843b-4c1b-94df-47cafb71cedd"},"vehicle_type_id":"4","last_reported":1730642893,"current_range_meters":24400,"station_id":"ce4bhnp2rcd13ifvqgvg","pricing_plan_id":"cebpf4jnsgd1na2vs0mg"},{"bike_id":"02fb9192-bd74-4730-af3e-dba97ccb6586","system_id":"levelo_inurba_marseille","lat":43.22928,"lon":5.35375,"is_reserved":false,"is_disabled":false,"rental_uris":{"android":"levelo://app?vid=02fb9192-bd74-4730-af3e-dba97ccb6586","ios":"levelo://app?vid=02fb9192-bd74-4730-af3e-dba97ccb6586"},"vehicle_type_id":"4","last_reported":1730642893,"current_range_meters":26800,"station_id":"cpo3532slgdg3j2ikp40","pricing_plan_id":"cebpf4jnsgd1na2vs0mg"},{"bike_id":"e00250c8-3d1a-438f-882a-632a40131c8d","system_id":"levelo_inurba_marseille","lat":43.32365,"lon":5.38885,"is_reserved":false,"is_disabled":false,"rental_uris":{"android":"levelo://app?vid=e00250c8-3d1a-438f-882a-632a40131c8d","ios":"levelo://app?vid=e00250c8-3d1a-438f-882a-632a40131c8d"},"vehicle_type_id":"4","last_reported":1730642893,"current_range_meters":11600,"station_id":"ce4bhqp2rcd13ifvqhog","pricing_plan_id":"cebpf4jnsgd1na2vs0mg"},{"bike_id":"aa71cd7d-5c8f-45b0-bfad-65c2a2038acf","system_id":"levelo_inurba_marseille","lat":43.31996,"lon":5.38151,"is_reserved":false,"is_disabled":false,"rental_uris":{"android":"levelo://app?vid=aa71cd7d-5c8f-45b0-bfad-65c2a2038acf","ios":"levelo://app?vid=aa71cd7d-5c8f-45b0-bfad-65c2a2038acf"},"vehicle_type_id":"4","last_reported":1730642893,"current_range_meters":36800,"station_id":"ce4bhr12rcd13ifvqhpg","pricing_plan_id":"cebpf4jnsgd1na2vs0mg"},{"bike_id":"d3fedb30-0c97-4e65-8c1c-4bfd87e57895","system_id":"levelo_inurba_marseille","lat":43.24797,"lon":5.37449,"is_reserved":false,"is_disabled":false,"rental_uris":{"android":"levelo://app?vid=d3fedb30-0c97-4e65-8c1c-4bfd87e57895","ios":"levelo://app?vid=d3fedb30-0c97-4e65-8c1c-4bfd87e57895"},"vehicle_type_id":"4","last_reported":1730642893,"current_range_meters":22000,"station_id":"ce4bhgh2rcd13ifvqfb0","pricing_plan_id":"cebpf4jnsgd1na2vs0mg"},{"bike_id":"5f807689-a89a-46a9-a38d-8502a89e111d","system_id":"levelo_inurba_marseille","lat":43.27376,"lon":5.36259,"is_reserved":false,"is_disabled":false,"rental_uris":{"android":"levelo://app?vid=5f807689-a89a-46a9-a38d-8502a89e111d","ios":"levelo://app?vid=5f807689-a89a-46a9-a38d-8502a89e111d"},"vehicle_type_id":"4","last_reported":1730642893,"current_range_meters":38800,"station_id":"ce4bhbh2rcd13ifvqeo0","pricing_plan_id":"cebpf4jnsgd1na2vs0mg"},{"bike_id":"2e902ee0-b51a-4bf3-9937-b347bdf988fd","system_id":"levelo_inurba_marseille","lat":43.28481,"lon":5.38425,"is_reserved":false,"is_disabled":false,"rental_uris":{"android":"levelo://app?vid=2e902ee0-b51a-4bf3-9937-b347bdf988fd","ios":"levelo://app?vid=2e902ee0-b51a-4bf3-9937-b347bdf988fd"},"vehicle_type_id":"4","last_reported":1730642893,"current_range_meters":38800,"station_id":"ce4bh512rcd13ifvqe3g","pricing_plan_id":"cebpf4jnsgd1na2vs0mg"},{"bike_id":"0c523561-c190-44ae-a283-124c72729911","system_id":"levelo_inurba_marseille","lat":43.27808,"lon":5.40728,"is_reserved":false,"is_disabled":false,"rental_uris":{"android":"levelo://app?vid=0c523561-c190-44ae-a283-124c72729911","ios":"levelo://app?vid=0c523561-c190-44ae-a283-124c72729911"},"vehicle_type_id":"4","last_reported":1730642893,"current_range_meters":32800,"station_id":"ce4bhnh2rcd13ifvqgtg","pricing_plan_id":"cebpf4jnsgd1na2vs0mg"},{"bike_id":"9d60ab59-6eef-4315-b0ac-c2909ceaacbe","system_id":"levelo_inurba_marseille","lat":43.27379,"lon":5.36276,"is_reserved":false,"is_disabled":false,"rental_uris":{"android":"levelo://app?vid=9d60ab59-6eef-4315-b0ac-c2909ceaacbe","ios":"levelo://app?vid=9d60ab59-6eef-4315-b0ac-c2909ceaacbe"},"vehicle_type_id":"4","last_reported":1730642893,"current_range_meters":38800,"station_id":"ce4bhbh2rcd13ifvqeo0","pricing_plan_id":"cebpf4jnsgd1na2vs0mg"},{"bike_id":"63d4d04a-d481-4795-9deb-852698c2bab9","system_id":"levelo_inurba_marseille","lat":43.28107,"lon":5.37846,"is_reserved":false,"is_disabled":false,"rental_uris":{"android":"levelo://app?vid=63d4d04a-d481-4795-9deb-852698c2bab9","ios":"levelo://app?vid=63d4d04a-d481-4795-9deb-852698c2bab9"},"vehicle_type_id":"4","last_reported":1730642893,"current_range_meters":38800,"station_id":"ce4bha12rcd13ifvqee0","pricing_plan_id":"cebpf4jnsgd1na2vs0mg"},{"bike_id":"bd799327-1808-45ef-960b-d4bc67cebc5e","system_id":"levelo_inurba_marseille","lat":43.33713,"lon":5.39188,"is_reserved":false,"is_disabled":false,"rental_uris":{"android":"levelo://app?vid=bd799327-1808-45ef-960b-d4bc67cebc5e","ios":"levelo://app?vid=bd799327-1808-45ef-960b-d4bc67cebc5e"},"vehicle_type_id":"4","last_reported":1730642893,"current_range_meters":18000,"station_id":"ce4bhr92rcd13ifvqhsg","pricing_plan_id":"cebpf4jnsgd1na2vs0mg"},{"bike_id":"b85d05d9-0c10-4ef8-ac78-4c085a29d4a9","system_id":"levelo_inurba_marseille","lat":43.26562,"lon":5.39004,"is_reserved":false,"is_disabled":false,"rental_uris":{"android":"levelo://app?vid=b85d05d9-0c10-4ef8-ac78-4c085a29d4a9","ios":"levelo://app?vid=b85d05d9-0c10-4ef8-ac78-4c085a29d4a9"},"vehicle_type_id":"4","last_reported":1730642893,"current_range_meters":36800,"station_id":"ce4bhe12rcd13ifvqf30","pricing_plan_id":"cebpf4jnsgd1na2vs0mg"},{"bike_id":"af980f5e-fcc9-48d7-a726-b36401362dba","system_id":"levelo_inurba_marseille","lat":43.28623,"lon":5.351,"is_reserved":false,"is_disabled":false,"rental_uris":{"android":"levelo://app?vid=af980f5e-fcc9-48d7-a726-b36401362dba","ios":"levelo://app?vid=af980f5e-fcc9-48d7-a726-b36401362dba"},"vehicle_type_id":"4","last_reported":1730642893,"current_range_meters":28800,"station_id":"ce4bhch2rcd13ifvqeug","pricing_plan_id":"cebpf4jnsgd1na2vs0mg"},{"bike_id":"6770dde9-633c-44b8-94fa-570de786bd1e","system_id":"levelo_inurba_marseille","lat":43.26685,"lon":5.38274,"is_reserved":false,"is_disabled":false,"rental_uris":{"android":"levelo://app?vid=6770dde9-633c-44b8-94fa-570de786bd1e","ios":"levelo://app?vid=6770dde9-633c-44b8-94fa-570de786bd1e"},"vehicle_type_id":"4","last_reported":1730642893,"current_range_meters":7200,"station_id":"ce4bhg92rcd13ifvqf90","pricing_plan_id":"cebpf4jnsgd1na2vs0mg"},{"bike_id":"cf8c8e64-114a-4df2-b066-c1ed9853330c","system_id":"levelo_inurba_marseille","lat":43.27167,"lon":5.40991,"is_reserved":false,"is_disabled":false,"rental_uris":{"android":"levelo://app?vid=cf8c8e64-114a-4df2-b066-c1ed9853330c","ios":"levelo://app?vid=cf8c8e64-114a-4df2-b066-c1ed9853330c"},"vehicle_type_id":"4","last_reported":1730642893,"current_range_meters":12400,"station_id":"ce4bhl12rcd13ifvqgf0","pricing_plan_id":"cebpf4jnsgd1na2vs0mg"},{"bike_id":"3876e3c5-2eb1-4e22-b36e-f51baf10e834","system_id":"levelo_inurba_marseille","lat":43.2827,"lon":5.35067,"is_reserved":false,"is_disabled":false,"rental_uris":{"android":"levelo://app?vid=3876e3c5-2eb1-4e22-b36e-f51baf10e834","ios":"levelo://app?vid=3876e3c5-2eb1-4e22-b36e-f51baf10e834"},"vehicle_type_id":"4","last_reported":1730642893,"current_range_meters":34800,"station_id":"ce4bhbp2rcd13ifvqerg","pricing_plan_id":"cebpf4jnsgd1na2vs0mg"},{"bike_id":"311e1ae8-53e6-41b0-b0bb-d0a4b13ee52c","system_id":"levelo_inurba_marseille","lat":43.31755,"lon":5.39012,"is_reserved":false,"is_disabled":false,"rental_uris":{"android":"levelo://app?vid=311e1ae8-53e6-41b0-b0bb-d0a4b13ee52c","ios":"levelo://app?vid=311e1ae8-53e6-41b0-b0bb-d0a4b13ee52c"},"vehicle_type_id":"4","last_reported":1730642893,"current_range_meters":12800,"station_id":"ce4bhqp2rcd13ifvqhng","pricing_plan_id":"cebpf4jnsgd1na2vs0mg"},{"bike_id":"cfa5fa1b-b403-4534-9d38-b5bbd3ae03d9","system_id":"levelo_inurba_marseille","lat":43.35557,"lon":5.35819,"is_reserved":false,"is_disabled":false,"rental_uris":{"android":"levelo://app?vid=cfa5fa1b-b403-4534-9d38-b5bbd3ae03d9","ios":"levelo://app?vid=cfa5fa1b-b403-4534-9d38-b5bbd3ae03d9"},"vehicle_type_id":"4","last_reported":1730642893,"current_range_meters":7200,"station_id":"","pricing_plan_id":"cebpf4jnsgd1na2vs0mg"},{"bike_id":"5dc2bc3e-2e2c-43a4-9524-1358ef68c498","system_id":"levelo_inurba_marseille","lat":43.28267,"lon":5.3507,"is_reserved":false,"is_disabled":false,"rental_uris":{"android":"levelo://app?vid=5dc2bc3e-2e2c-43a4-9524-1358ef68c498","ios":"levelo://app?vid=5dc2bc3e-2e2c-43a4-9524-1358ef68c498"},"vehicle_type_id":"4","last_reported":1730642893,"current_range_meters":35600,"station_id":"ce4bhbp2rcd13ifvqerg","pricing_plan_id":"cebpf4jnsgd1na2vs0mg"},{"bike_id":"702ff07f-a26f-4d8b-9e0a-41fbaa7f3a3c","system_id":"levelo_inurba_marseille","lat":43.2656,"lon":5.39013,"is_reserved":false,"is_disabled":false,"rental_uris":{"android":"levelo://app?vid=702ff07f-a26f-4d8b-9e0a-41fbaa7f3a3c","ios":"levelo://app?vid=702ff07f-a26f-4d8b-9e0a-41fbaa7f3a3c"},"vehicle_type_id":"4","last_reported":1730642893,"current_range_meters":20800,"station_id":"ce4bhe12rcd13ifvqf30","pricing_plan_id":"cebpf4jnsgd1na2vs0mg"},{"bike_id":"f8c70cfd-00ed-469a-b340-d406af737119","system_id":"levelo_inurba_marseille","lat":43.23181,"lon":5.39986,"is_reserved":false,"is_disabled":false,"rental_uris":{"android":"levelo://app?vid=f8c70cfd-00ed-469a-b340-d406af737119","ios":"levelo://app?vid=f8c70cfd-00ed-469a-b340-d406af737119"},"vehicle_type_id":"4","last_reported":1730642893,"current_range_meters":34000,"station_id":"ce4bhn12rcd13ifvqgqg","pricing_plan_id":"cebpf4jnsgd1na2vs0mg"},{"bike_id":"0d04c3a6-1a21-4d33-8e79-c4374f2f9c39","system_id":"levelo_inurba_marseille","lat":43.23953,"lon":5.36646,"is_reserved":false,"is_disabled":false,"rental_uris":{"android":"levelo://app?vid=0d04c3a6-1a21-4d33-8e79-c4374f2f9c39","ios":"levelo://app?vid=0d04c3a6-1a21-4d33-8e79-c4374f2f9c39"},"vehicle_type_id":"4","last_reported":1730642893,"current_range_meters":39200,"station_id":"ce4bhi12rcd13ifvqfp0","pricing_plan_id":"cebpf4jnsgd1na2vs0mg"},{"bike_id":"cc063a4e-c43c-438f-af67-1b38df9f6174","system_id":"levelo_inurba_marseille","lat":43.29556,"lon":5.42286,"is_reserved":false,"is_disabled":false,"rental_uris":{"android":"levelo://app?vid=cc063a4e-c43c-438f-af67-1b38df9f6174","ios":"levelo://app?vid=cc063a4e-c43c-438f-af67-1b38df9f6174"},"vehicle_type_id":"4","last_reported":1730642893,"current_range_meters":38800,"station_id":"ce4bhph2rcd13ifvqhdg","pricing_plan_id":"cebpf4jnsgd1na2vs0mg"},{"bike_id":"b9a33553-3f6c-4201-9239-8e5cd9472697","system_id":"levelo_inurba_marseille","lat":43.32477,"lon":5.3656,"is_reserved":false,"is_disabled":false,"rental_uris":{"android":"levelo://app?vid=b9a33553-3f6c-4201-9239-8e5cd9472697","ios":"levelo://app?vid=b9a33553-3f6c-4201-9239-8e5cd9472697"},"vehicle_type_id":"4","last_reported":1730642893,"current_range_meters":38400,"station_id":"ce4bhs12rcd13ifvqhvg","pricing_plan_id":"cebpf4jnsgd1na2vs0mg"},{"bike_id":"7c4ea151-b34a-4f9d-98ba-40b4e9945160","system_id":"levelo_inurba_marseille","lat":43.276282,"lon":5.36102,"is_reserved":false,"is_disabled":false,"rental_uris":{"android":"levelo://app?vid=7c4ea151-b34a-4f9d-98ba-40b4e9945160","ios":"levelo://app?vid=7c4ea151-b34a-4f9d-98ba-40b4e9945160"},"vehicle_type_id":"4","last_reported":1730642893,"current_range_meters":24000,"station_id":"ce4bgj92rcd13ifvqbe0","pricing_plan_id":"cebpf4jnsgd1na2vs0mg"},{"bike_id":"0fde636e-2195-48a0-90f5-702c3549c37a","system_id":"levelo_inurba_marseille","lat":43.28271,"lon":5.35076,"is_reserved":false,"is_disabled":false,"rental_uris":{"android":"levelo://app?vid=0fde636e-2195-48a0-90f5-702c3549c37a","ios":"levelo://app?vid=0fde636e-2195-48a0-90f5-702c3549c37a"},"vehicle_type_id":"4","last_reported":1730642893,"current_range_meters":38800,"station_id":"ce4bhbp2rcd13ifvqerg","pricing_plan_id":"cebpf4jnsgd1na2vs0mg"},{"bike_id":"16bf58ef-c6b4-42d8-b563-07b504ea9514","system_id":"levelo_inurba_marseille","lat":43.25695,"lon":5.41052,"is_reserved":false,"is_disabled":false,"rental_uris":{"android":"levelo://app?vid=16bf58ef-c6b4-42d8-b563-07b504ea9514","ios":"levelo://app?vid=16bf58ef-c6b4-42d8-b563-07b504ea9514"},"vehicle_type_id":"4","last_reported":1730642893,"current_range_meters":36400,"station_id":"ce4bhkp2rcd13ifvqgd0","pricing_plan_id":"cebpf4jnsgd1na2vs0mg"},