{"last_updated":1742631076,"ttl":60,"version":"2.2","data":{"bikes":[{"bike_id":"b266faba-4e26-4c50-b078-a54d17773ddd","system_id":"levelo_inurba_marseille","lat":43.24556,"lon":5.39505,"is_reserved":false,"is_disabled":false,"rental_uris":{"android":"levelo://app?vid=b266faba-4e26-4c50-b078-a54d17773ddd","ios":"levelo://app?vid=b266faba-4e26-4c50-b078-a54d17773ddd"},"vehicle_type_id":"4","last_reported":1742631076,"current_range_meters":2800,"station_id":"ce4bhlp2rcd13ifvqgjg","pricing_plan_id":"cebpf4jnsgd1na2vs0mg"},{"bike_id":"a61850fc-fa78-440e-8fa6-4b9a471ca393","system_id":"levelo_inurba_marseille","lat":43.28156,"lon":5.4265,"is_reserved":false,"is_disabled":false,"rental_uris":{"android":"levelo://app?vid=a61850fc-fa78-440e-8fa6-4b9a471ca393","ios":"levelo://app?vid=a61850fc-fa78-440e-8fa6-4b9a471ca393"},"vehicle_type_id":"4","last_reported":1742631076,"current_range_meters":2800,"station_id":"ce4bhnh2rcd13ifvqgug","pricing_plan_id":"cebpf4jnsgd1na2vs0mg"},{"bike_id":"1bb93a8f-b158-4722-a0a5-d7d909368045","system_id":"levelo_inurba_marseille","lat":43.23948,"lon":5.3664,"is_reserved":false,"is_disabled":false,"rental_uris":{"android":"levelo://app?vid=1bb93a8f-b158-4722-a0a5-d7d909368045","ios":"levelo://app?vid=1bb93a8f-b158-4722-a0a5-d7d909368045"},"vehicle_type_id":"4","last_reported":1742631076,"current_range_meters":2800,"station_id":"ce4bhi12rcd13ifvqfp0","pricing_plan_id":"cebpf4jnsgd1na2vs0mg"},{"bike_id":"e1fcac69-10ca-4f29-9e99-8d5f8b5d6d83","system_id":"levelo_inurba_marseille","lat":43.29924,"lon":5.37485,"is_reserved":false,"is_disabled":true,"rental_uris":{"android":"levelo://app?vid=e1fcac69-10ca-4f29-9e99-8d5f8b5d6d83","ios":"levelo://app?vid=e1fcac69-10ca-4f29-9e99-8d5f8b5d6d83"},"vehicle_type_id":"4","last_reported":1742631076,"current_range_meters":2800,"station_id":"ce4bgjh2rcd13ifvqbg0","pricing_plan_id":"cebpf4jnsgd1na2vs0mg"},{"bike_id":"c5bb5dca-1dc9-450e-9a3d-9fa737cf345d","system_id":"levelo_inurba_marseille","lat":43.24655,"lon":5.38906,"is_reserved":false,"is_disabled":false,"rental_uris":{"android":"levelo://app?vid=c5bb5dca-1dc9-450e-9a3d-9fa737cf345d","ios":"levelo://app?vid=c5bb5dca-1dc9-450e-9a3d-9fa737cf345d"},"vehicle_type_id":"4","last_reported":1742631076,"current_range_meters":2800,"station_id":"ce4bhg12rcd13ifvqf60","pricing_plan_id":"cebpf4jnsgd1na2vs0mg"},{"bike_id":"89118a19-3b0e-435d-8cb3-6ec0853a9b66","system_id":"levelo_inurba_marseille","lat":43.28628,"lon":5.35148,"is_reserved":false,"is_disabled":false,"rental_uris":{"android":"levelo://app?vid=89118a19-3b0e-435d-8cb3-6ec0853a9b66","ios":"levelo://app?vid=89118a19-3b0e-435d-8cb3-6ec0853a9b66"},"vehicle_type_id":"4","last_reported":1742631076,"current_range_meters":3200,"station_id":"ce4bhch2rcd13ifvqeug","pricing_plan_id":"cebpf4jnsgd1na2vs0mg"},{"bike_id":"94ff3081-8f37-4098-9788-7ad312d90e99","system_id":"levelo_inurba_marseille","lat":43.32368,"lon":5.38912,"is_reserved":false,"is_disabled":false,"rental_uris":{"android":"levelo://app?vid=94ff3081-8f37-4098-9788-7ad312d90e99","ios":"levelo://app?vid=94ff3081-8f37-4098-9788-7ad312d90e99"},"vehicle_type_id":"4","last_reported":1742631076,"current_range_meters":3200,"station_id":"ce4bhqp2rcd13ifvqhog","pricing_plan_id":"cebpf4jnsgd1na2vs0mg"},{"bike_id":"f032a6c5-e067-4c34-a645-1225d4b2cea9","system_id":"levelo_inurba_marseille","lat":43.31711,"lon":5.43717,"is_reserved":false,"is_disabled":false,"rental_uris":{"android":"levelo://app?vid=f032a6c5-e067-4c34-a645-1225d4b2cea9","ios":"levelo://app?vid=f032a6c5-e067-4c34-a645-1225d4b2cea9"},"vehicle_type_id":"4","last_reported":1742631076,"current_range_meters":3200,"station_id":"ce4bhp92rcd13ifvqhcg","pricing_plan_id":"cebpf4jnsgd1na2vs0mg"},{"bike_id":"b9e4bdd0-024c-4547-9a94-39d0c7923642","system_id":"levelo_inurba_marseille","lat":43.24171,"lon":5.363994,"is_reserved":false,"is_disabled":false,"rental_uris":{"android":"levelo://app?vid=b9e4bdd0-024c-4547-9a94-39d0c7923642","ios":"levelo://app?vid=b9e4bdd0-024c-4547-9a94-39d0c7923642"},"vehicle_type_id":"4","last_reported":1742631076,"current_range_meters":3200,"station_id":"cpo36qri1sfpv3e86is0","pricing_plan_id":"cebpf4jnsgd1na2vs0mg"},{"bike_id":"5a43cfd6-87bf-403a-a06c-cda6fdcdb537","system_id":"levelo_inurba_marseille","lat":43.28097,"lon":5.37847,"is_reserved":false,"is_disabled":false,"rental_uris":{"android":"levelo://app?vid=5a43cfd6-87bf-403a-a06c-cda6fdcdb537","ios":"levelo://app?vid=5a43cfd6-87bf-403a-a06c-cda6fdcdb537"},"vehicle_type_id":"4","last_reported":1742631076,"current_range_meters":3600,"station_id":"ce4bha12rcd13ifvqee0","pricing_plan_id":"cebpf4jnsgd1na2vs0mg"},{"bike_id":"23b2e3d8-60a3-497b-8e4a-831fece3c0e6","system_id":"levelo_inurba_marseille","lat":43.27994,"lon":5.40012,"is_reserved":false,"is_disabled":false,"rental_uris":{"android":"levelo://app?vid=23b2e3d8-60a3-497b-8e4a-831fece3c0e6","ios":"levelo://app?vid=23b2e3d8-60a3-497b-8e4a-831fece3c0e6"},"vehicle_type_id":"4","last_reported":1742631076,"current_range_meters":3600,"station_id":"ce4bho92rcd13ifvqh4g","pricing_plan_id":"cebpf4jnsgd1na2vs0mg"},{"bike_id":"4cbc815f-81cb-4b3f-a536-29e8befb1fe3","system_id":"levelo_inurba_marseille","lat":43.25003,"lon":5.38945,"is_reserved":false,"is_disabled":false,"rental_uris":{"android":"levelo://app?vid=4cbc815f-81cb-4b3f-a536-29e8befb1fe3","ios":"levelo://app?vid=4cbc815f-81cb-4b3f-a536-29e8befb1fe3"},"vehicle_type_id":"4","last_reported":1742631076,"current_range_meters":4000,"station_id":"ce4bhgp2rcd13ifvqfd0","pricing_plan_id":"cebpf4jnsgd1na2vs0mg"},{"bike_id":"bc54a8b8-aef0-4d9e-81e5-8a85a0e4b8c4","system_id":"levelo_inurba_marseille","lat":43.247399,"lon":5.41162,"is_reserved":false,"is_disabled":false,"rental_uris":{"android":"levelo://app?vid=bc54a8b8-aef0-4d9e-81e5-8a85a0e4b8c4","ios":"levelo://app?vid=bc54a8b8-aef0-4d9e-81e5-8a85a0e4b8c4"},"vehicle_type_id":"4","last_reported":1742631076,"current_range_meters":4000,"station_id":"","pricing_plan_id":"cebpf4jnsgd1na2vs0mg"},{"bike_id":"2f5af415-5039-431a-8788-5ebc27374a20","system_id":"levelo_inurba_marseille","lat":43.27965,"lon":5.38737,"is_reserved":false,"is_disabled":false,"rental_uris":{"android":"levelo://app?vid=2f5af415-5039-431a-8788-5ebc27374a20","ios":"levelo://app?vid=2f5af415-5039-431a-8788-5ebc27374a20"},"vehicle_type_id":"4","last_reported":1742631076,"current_range_meters":4000,"station_id":"ce4bhg12rcd13ifvqf80","pricing_plan_id":"cebpf4jnsgd1na2vs0mg"},{"bike_id":"8c9fa4ba-3022-472d-a524-2b34aef0abf8","system_id":"levelo_inurba_marseille","lat":43.30004,"lon":5.37187,"is_reserved":false,"is_disabled":false,"rental_uris":{"android":"levelo://app?vid=8c9fa4ba-3022-472d-a524-2b34aef0abf8","ios":"levelo://app?vid=8c9fa4ba-3022-472d-a524-2b34aef0abf8"},"vehicle_type_id":"4","last_reported":1742631076,"current_range_meters":4400,"station_id":"ce4bgr92rcd13ifvqc7g","pricing_plan_id":"cebpf4jnsgd1na2vs0mg"},{"bike_id":"62bf2f5c-9819-4816-afad-4a268d7a76b8","system_id":"levelo_inurba_marseille","lat":43.2417,"lon":5.36388,"is_reserved":false,"is_disabled":false,"rental_uris":{"android":"levelo://app?vid=62bf2f5c-9819-4816-afad-4a268d7a76b8","ios":"levelo://app?vid=62bf2f5c-9819-4816-afad-4a268d7a76b8"},"vehicle_type_id":"4","last_reported":1742631076,"current_range_meters":4800,"station_id":"cpo36qri1sfpv3e86is0","pricing_plan_id":"cebpf4jnsgd1na2vs0mg"},{"bike_id":"12d038b0-af20-4a06-8c64-92fff2486d66","system_id":"levelo_inurba_marseille","lat":43.2416,"lon":5.39706,"is_reserved":false,"is_disabled":false,"rental_uris":{"android":"levelo://app?vid=12d038b0-af20-4a06-8c64-92fff2486d66","ios":"levelo://app?vid=12d038b0-af20-4a06-8c64-92fff2486d66"},"vehicle_type_id":"4","last_reported":1742631076,"current_range_meters":4800,"station_id":"ce4bhn12rcd13ifvqgpg","pricing_plan_id":"cebpf4jnsgd1na2vs0mg"},{"bike_id":"46e325e1-4b70-4630-bfdc-9758fa69893c","system_id":"levelo_inurba_marseille","lat":43.28162,"lon":5.42691,"is_reserved":false,"is_disabled":false,"rental_uris":{"android":"levelo://app?vid=46e325e1-4b70-4630-bfdc-9758fa69893c","ios":"levelo://app?vid=46e325e1-4b70-4630-bfdc-9758fa69893c"},"vehicle_type_id":"4","last_reported":1742631076,"current_range_meters":4800,"station_id":"ce4bhnh2rcd13ifvqgug","pricing_plan_id":"cebpf4jnsgd1na2vs0mg"},{"bike_id":"2d86cf0c-8220-4a0c-a77e-5b4210ae7f59","system_id":"levelo_inurba_marseille","lat":43.30473,"lon":5.37074,"is_reserved":false,"is_disabled":false,"rental_uris":{"android":"levelo://app?vid=2d86cf0c-8220-4a0c-a77e-5b4210ae7f59","ios":"levelo://app?vid=2d86cf0c-8220-4a0c-a77e-5b4210ae7f59"},"vehicle_type_id":"4","last_reported":1742631076,"current_range_meters":4800,"station_id":"","pricing_plan_id":"cebpf4jnsgd1na2vs0mg"},{"bike_id":"cc011d43-b6ba-45a0-819f-4b4fde629cac","system_id":"levelo_inurba_marseille","lat":43.31797,"lon":5.39031,"is_reserved":false,"is_disabled":false,"rental_uris":{"android":"levelo://app?vid=cc011d43-b6ba-45a0-819f-4b4fde629cac","ios":"levelo://app?vid=cc011d43-b6ba-45a0-819f-4b4fde629cac"},"vehicle_type_id":"4","last_reported":1742631076,"current_range_meters":5600,"station_id":"ce4bhqp2rcd13ifvqhng","pricing_plan_id":"cebpf4jnsgd1na2vs0mg"},{"bike_id":"202dfacb-6b3c-4509-a09e-ab3c75107acc","system_id":"levelo_inurba_marseille","lat":43.31373,"lon":5.38511,"is_reserved":false,"is_disabled":false,"rental_uris":{"android":"levelo://app?vid=202dfacb-6b3c-4509-a09e-ab3c75107acc","ios":"levelo://app?vid=202dfacb-6b3c-4509-a09e-ab3c75107acc"},"vehicle_type_id":"4","last_reported":1742631076,"current_range_meters":5600,"station_id":"ce4bgt92rcd13ifvqcf0","pricing_plan_id":"cebpf4jnsgd1na2vs0mg"},{"bike_id":"ab4e1e51-d6f4-40f2-bae7-4280cce429c6","system_id":"levelo_inurba_marseille","lat":43.280751,"lon":5.396581,"is_reserved":false,"is_disabled":false,"rental_uris":{"android":"levelo://app?vid=ab4e1e51-d6f4-40f2-bae7-4280cce429c6","ios":"levelo://app?vid=ab4e1e51-d6f4-40f2-bae7-4280cce429c6"},"vehicle_type_id":"4","last_reported":1742631076,"current_range_meters":5600,"station_id":"ce4bho12rcd13ifvqh2g","pricing_plan_id":"cebpf4jnsgd1na2vs0mg"},{"bike_id":"fde0388d-33e2-4089-9704-3afd264d3260","system_id":"levelo_inurba_marseille","lat":43.23146,"lon":5.43732,"is_reserved":false,"is_disabled":false,"rental_uris":{"android":"levelo://app?vid=fde0388d-33e2-4089-9704-3afd264d3260","ios":"levelo://app?vid=fde0388d-33e2-4089-9704-3afd264d3260"},"vehicle_type_id":"4","last_reported":1742631076,"current_range_meters":5600,"station_id":"ce4bhmp2rcd13ifvqgog","pricing_plan_id":"cebpf4jnsgd1na2vs0mg"},{"bike_id":"1d8daad7-9bb4-40dd-adfc-e589f483368c","system_id":"levelo_inurba_marseille","lat":43.25831,"lon":5.39427,"is_reserved":false,"is_disabled":false,"rental_uris":{"android":"levelo://app?vid=1d8daad7-9bb4-40dd-adfc-e589f483368c","ios":"levelo://app?vid=1d8daad7-9bb4-40dd-adfc-e589f483368c"},"vehicle_type_id":"4","last_reported":1742631076,"current_range_meters":6000,"station_id":"ce4bhip2rcd13ifvqft0","pricing_plan_id":"cebpf4jnsgd1na2vs0mg"},{"bike_id":"99d4f2a7-22a3-4802-bbca-4667960daf47","system_id":"levelo_inurba_marseille","lat":43.24676,"lon":5.38151,"is_reserved":false,"is_disabled":false,"rental_uris":{"android":"levelo://app?vid=99d4f2a7-22a3-4802-bbca-4667960daf47","ios":"levelo://app?vid=99d4f2a7-22a3-4802-bbca-4667960daf47"},"vehicle_type_id":"4","last_reported":1742631076,"current_range_meters":6000,"station_id":"ce4bhih2rcd13ifvqfr0","pricing_plan_id":"cebpf4jnsgd1na2vs0mg"},{"bike_id":"1c3b5361-695c-4ccc-94f9-aca7f37b6d45","system_id":"levelo_inurba_marseille","lat":43.23196,"lon":5.35565,"is_reserved":false,"is_disabled":false,"rental_uris":{"android":"levelo://app?vid=1c3b5361-695c-4ccc-94f9-aca7f37b6d45","ios":"levelo://app?vid=1c3b5361-695c-4ccc-94f9-aca7f37b6d45"},"vehicle_type_id":"4","last_reported":1742631076,"current_range_meters":6400,"station_id":"ce4bhu92rcd13ifvqi70","pricing_plan_id":"cebpf4jnsgd1na2vs0mg"},{"bike_id":"e8314e6d-e7ef-4185-846e-487b9dab483b","system_id":"levelo_inurba_marseille","lat":43.26202,"lon":5.37938,"is_reserved":false,"is_disabled":false,"rental_uris":{"android":"levelo://app?vid=e8314e6d-e7ef-4185-846e-487b9dab483b","ios":"levelo://app?vid=e8314e6d-e7ef-4185-846e-487b9dab483b"},"vehicle_type_id":"4","last_reported":1742631076,"current_range_meters":6400,"station_id":"ce4bhjp2rcd13ifvqg90","pricing_plan_id":"cebpf4jnsgd1na2vs0mg"},{"bike_id":"7751ec6b-c1cf-4e1a-a7dc-35b693cd8e54","system_id":"levelo_inurba_marseille","lat":43.29085,"lon":5.38188,"is_reserved":false,"is_disabled":true,"rental_uris":{"android":"levelo://app?vid=7751ec6b-c1cf-4e1a-a7dc-35b693cd8e54","ios":"levelo://app?vid=7751ec6b-c1cf-4e1a-a7dc-35b693cd8e54"},"vehicle_type_id":"4","last_reported":1742631076,"current_range_meters":6400,"station_id":"ce4bh512rcd13ifvqe2g","pricing_plan_id":"cebpf4jnsgd1na2vs0mg"},{"bike_id":"a67c54b6-5ce9-4632-8070-5ca7d5b7fc9e","system_id":"levelo_inurba_marseille","lat":43.230636,"lon":5.354984,"is_reserved":false,"is_disabled":false,"rental_uris":{"android":"levelo://app?vid=a67c54b6-5ce9-4632-8070-5ca7d5b7fc9e","ios":"levelo://app?vid=a67c54b6-5ce9-4632-8070-5ca7d5b7fc9e"},"vehicle_type_id":"4","last_reported":1742631076,"current_range_meters":6400,"station_id":"cpo3342slgdg3j2ifvpg","pricing_plan_id":"cebpf4jnsgd1na2vs0mg"},{"bike_id":"70900778-9da1-41df-82f4-ad5b5ab0df01","system_id":"levelo_inurba_marseille","lat":43.30136,"lon":5.3742,"is_reserved":false,"is_disabled":false,"rental_uris":{"android":"levelo://app?vid=70900778-9da1-41df-82f4-ad5b5ab0df01","ios":"levelo://app?vid=70900778-9da1-41df-82f4-ad5b5ab0df01"},"vehicle_type_id":"4","last_reported":1742631076,"current_range_meters":6400,"station_id":"ce4bgs92rcd13ifvqcc0","pricing_plan_id":"cebpf4jnsgd1na2vs0mg"},{"bike_id":"6b9f258c-1031-4975-9128-1ece84625cf6","system_id":"levelo_inurba_marseille","lat":43.31069,"lon":5.38363,"is_reserved":false,"is_disabled":false,"rental_uris":{"android":"levelo://app?vid=6b9f258c-1031-4975-9128-1ece84625cf6","ios":"levelo://app?vid=6b9f258c-1031-4975-9128-1ece84625cf6"},"vehicle_type_id":"4","last_reported":1742631076,"current_range_meters":6800,"station_id":"ce4bgv92rcd13ifvqcr0","pricing_plan_id":"cebpf4jnsgd1na2vs0mg"},{"bike_id":"fb728cf2-b639-4f70-8293-dc06b0e2fcfb","system_id":"levelo_inurba_marseille","lat":43.29623,"lon":5.38129,"is_reserved":false,"is_disabled":false,"rental_uris":{"android":"levelo://app?vid=fb728cf2-b639-4f70-8293-dc06b0e2fcfb","ios":"levelo://app?vid=fb728cf2-b639-4f70-8293-dc06b0e2fcfb"},"vehicle_type_id":"4","last_reported":1742631076,"current_range_meters":6800,"station_id":"ce4bgl12rcd13ifvqbo0","pricing_plan_id":"cebpf4jnsgd1na2vs0mg"},{"bike_id":"628fefc0-c71d-4844-8f82-26651c57ef18","system_id":"levelo_inurba_marseille","lat":43.3089,"lon":5.39658,"is_reserved":false,"is_disabled":false,"rental_uris":{"android":"levelo://app?vid=628fefc0-c71d-4844-8f82-26651c57ef18","ios":"levelo://app?vid=628fefc0-c71d-4844-8f82-26651c57ef18"},"vehicle_type_id":"4","last_reported":1742631076,"current_range_meters":6800,"station_id":"ce4bh012rcd13ifvqcv0","pricing_plan_id":"cebpf4jnsgd1na2vs0mg"},{"bike_id":"5d442b4d-4d1f-4ac5-8000-f03b568468b2","system_id":"levelo_inurba_marseille","lat":43.29796,"lon":5.37115,"is_reserved":false,"is_disabled":false,"rental_uris":{"android":"levelo://app?vid=5d442b4d-4d1f-4ac5-8000-f03b568468b2","ios":"levelo://app?vid=5d442b4d-4d1f-4ac5-8000-f03b568468b2"},"vehicle_type_id":"4","last_reported":1742631076,"current_range_meters":6800,"station_id":"ce4bgop2rcd13ifvqc1g","pricing_plan_id":"cebpf4jnsgd1na2vs0mg"},{"bike_id":"7c6e75fa-f2ba-4a6b-850b-de87106738c3","system_id":"levelo_inurba_marseille","lat":43.29732,"lon":5.37698,"is_reserved":false,"is_disabled":true,"rental_uris":{"android":"levelo://app?vid=7c6e75fa-f2ba-4a6b-850b-de87106738c3","ios":"levelo://app?vid=7c6e75fa-f2ba-4a6b-850b-de87106738c3"},"vehicle_type_id":"4","last_reported":1742631076,"current_range_meters":6800,"station_id":"ce4bgkh2rcd13ifvqbl0","pricing_plan_id":"cebpf4jnsgd1na2vs0mg"},{"bike_id":"be893f20-3b65-4f84-aee0-523a8aed30a5","system_id":"levelo_inurba_marseille","lat":43.27497,"lon":5.42468,"is_reserved":false,"is_disabled":false,"rental_uris":{"android":"levelo://app?vid=be893f20-3b65-4f84-aee0-523a8aed30a5","ios":"levelo://app?vid=be893f20-3b65-4f84-aee0-523a8aed30a5"},"vehicle_type_id":"4","last_reported":1742631076,"current_range_meters":6800,"station_id":"ce4bhn92rcd13ifvqgrg","pricing_plan_id":"cebpf4jnsgd1na2vs0mg"},{"bike_id":"f2a9bb97-2f98-4307-ad27-0e2175d952d2","system_id":"levelo_inurba_marseille","lat":43.31725,"lon":5.4242,"is_reserved":false,"is_disabled":true,"rental_uris":{"android":"levelo://app?vid=f2a9bb97-2f98-4307-ad27-0e2175d952d2","ios":"levelo://app?vid=f2a9bb97-2f98-4307-ad27-0e2175d952d2"},"vehicle_type_id":"4","last_reported":1742631076,"current_range_meters":6800,"station_id":"ce4bhp92rcd13ifvqhbg","pricing_plan_id":"cebpf4jnsgd1na2vs0mg"},{"bike_id":"9689a4b5-b9bb-45af-815b-74c4658ab903","system_id":"levelo_inurba_marseille","lat":43.25939,"lon":5.4093,"is_reserved":false,"is_disabled":false,"rental_uris":{"android":"levelo://app?vid=9689a4b5-b9bb-45af-815b-74c4658ab903","ios":"levelo://app?vid=9689a4b5-b9bb-45af-815b-74c4658ab903"},"vehicle_type_id":"4","last_reported":1742631076,"current_range_meters":7200,"station_id":"ce4bhm92rcd13ifvqglg","pricing_plan_id":"cebpf4jnsgd1na2vs0mg"},{"bike_id":"5ea9bbce-7523-480c-8e84-a08e91740f98","system_id":"levelo_inurba_marseille","lat":43.24099,"lon":5.37769,"is_reserved":false,"is_disabled":false,"rental_uris":{"android":"levelo://app?vid=5ea9bbce-7523-480c-8e84-a08e91740f98","ios":"levelo://app?vid=5ea9bbce-7523-480c-8e84-a08e91740f98"},"vehicle_type_id":"4","last_reported":1742631076,"current_range_meters":7200,"station_id":"ce4bhnp2rcd13ifvqgvg","pricing_plan_id":"cebpf4jnsgd1na2vs0mg"},{"bike_id":"4e79ddfc-213b-4922-a824-7d6890363ec0","system_id":"levelo_inurba_marseille","lat":43.29063,"lon":5.40005,"is_reserved":false,"is_disabled":false,"rental_uris":{"android":"levelo://app?vid=4e79ddfc-213b-4922-a824-7d6890363ec0","ios":"levelo://app?vid=4e79ddfc-213b-4922-a824-7d6890363ec0"},"vehicle_type_id":"4","last_reported":1742631076,"current_range_meters":7200,"station_id":"ce4bh392rcd13ifvqdm0","pricing_plan_id":"cebpf4jnsgd1na2vs0mg"},{"bike_id":"1d0aee08-f37d-44de-9496-80d4d601b079","system_id":"levelo_inurba_marseille","lat":43.25122,"lon":5.4037,"is_reserved":false,"is_disabled":false,"rental_uris":{"android":"levelo://app?vid=1d0aee08-f37d-44de-9496-80d4d601b079","ios":"levelo://app?vid=1d0aee08-f37d-44de-9496-80d4d601b079"},"vehicle_type_id":"4","last_reported":1742631076,"current_range_meters":7200,"station_id":"ce4bhlh2rcd13ifvqgig","pricing_plan_id":"cebpf4jnsgd1na2vs0mg"},{"bike_id":"08fb06df-7ebc-45d3-b379-1856bd90c092","system_id":"levelo_inurba_marseille","lat":43.31716,"lon":5.40444,"is_reserved":false,"is_disabled":false,"rental_uris":{"android":"levelo://app?vid=08fb06df-7ebc-45d3-b379-1856bd90c092","ios":"levelo://app?vid=08fb06df-7ebc-45d3-b379-1856bd90c092"},"vehicle_type_id":"4","last_reported":1742631076,"current_range_meters":7200,"station_id":"ce4bh012rcd13ifvqd00","pricing_plan_id":"cebpf4jnsgd1na2vs0mg"},{"bike_id":"c7732d67-2f01-4b8a-ae1d-f3f67e3e96f6","system_id":"levelo_inurba_marseille","lat":43.26201,"lon":5.37937,"is_reserved":false,"is_disabled":false,"rental_uris":{"android":"levelo://app?vid=c7732d67-2f01-4b8a-ae1d-f3f67e3e96f6","ios":"levelo://app?vid=c7732d67-2f01-4b8a-ae1d-f3f67e3e96f6"},"vehicle_type_id":"4","last_reported":1742631076,"current_range_meters":7200,"station_id":"ce4bhjp2rcd13ifvqg90","pricing_plan_id":"cebpf4jnsgd1na2vs0mg"},{"bike_id":"28c070b6-831a-4ca4-96f5-53fd9f42bfa5","system_id":"levelo_inurba_marseille","lat":43.31067,"lon":5.38356,"is_reserved":false,"is_disabled":false,"rental_uris":{"android":"levelo://app?vid=28c070b6-831a-4ca4-96f5-53fd9f42bfa5","ios":"levelo://app?vid=28c070b6-831a-4ca4-96f5-53fd9f42bfa5"},"vehicle_type_id":"4","last_reported":1742631076,"current_range_meters":7200,"station_id":"ce4bgv92rcd13ifvqcr0","pricing_plan_id":"cebpf4jnsgd1na2vs0mg"},{"bike_id":"1f4b5356-d265-454a-aa48-2f7dec9d4d2a","system_id":"levelo_inurba_marseille","lat":43.33724,"lon":5.39166,"is_reserved":false,"is_disabled":false,"rental_uris":{"android":"levelo://app?vid=1f4b5356-d265-454a-aa48-2f7dec9d4d2a","ios":"levelo://app?vid=1f4b5356-d265-454a-aa48-2f7dec9d4d2a"},"vehicle_type_id":"4","last_reported":1742631076,"current_range_meters":7200,"station_id":"ce4bhr92rcd13ifvqhsg","pricing_plan_id":"cebpf4jnsgd1na2vs0mg"},{"bike_id":"899ab87e-4ea4-40e5-9304-e09f83aad3d0","system_id":"levelo_inurba_marseille","lat":43.23969,"lon":5.36647,"is_reserved":false,"is_disabled":false,"rental_uris":{"android":"levelo://app?vid=899ab87e-4ea4-40e5-9304-e09f83aad3d0","ios":"levelo://app?vid=899ab87e-4ea4-40e5-9304-e09f83aad3d0"},"vehicle_type_id":"4","last_reported":1742631076,"current_range_meters":8000,"station_id":"ce4bhi12rcd13ifvqfp0","pricing_plan_id":"cebpf4jnsgd1na2vs0mg"},{"bike_id":"52c16ac5-3447-4053-956c-78fc8bf0dc7c","system_id":"levelo_inurba_marseille","lat":43.32367,"lon":5.36771,"is_reserved":false,"is_disabled":false,"rental_uris":{"android":"levelo://app?vid=52c16ac5-3447-4053-956c-78fc8bf0dc7c","ios":"levelo://app?vid=52c16ac5-3447-4053-956c-78fc8bf0dc7c"},"vehicle_type_id":"4","last_reported":1742631076,"current_range_meters":8000,"station_id":"ce4bhsh2rcd13ifvqi2g","pricing_plan_id":"cebpf4jnsgd1na2vs0mg"},{"bike_id":"d000c8ac-0c96-4fc1-ac84-5f67409cab71","system_id":"levelo_inurba_marseille","lat":43.32482,"lon":5.36564,"is_reserved":false,"is_disabled":false,"rental_uris":{"android":"levelo://app?vid=d000c8ac-0c96-4fc1-ac84-5f67409cab71","ios":"levelo://app?vid=d000c8ac-0c96-4fc1-ac84-5f67409cab71"},"vehicle_type_id":"4","last_reported":1742631076,"current_range_meters":8000,"station_id":"ce4bhs12rcd13ifvqhvg","pricing_plan_id":"cebpf4jnsgd1na2vs0mg"},{"bike_id":"1323d2cd-c4e0-4783-b4f1-4daaeb41faef","system_id":"levelo_inurba_marseille","lat":43.23951,"lon":5.36656,"is_reserved":false,"is_disabled":false,"rental_uris":{"android":"levelo://app?vid=1323d2cd-c4e0-4783-b4f1-4daaeb41faef","ios":"levelo://app?vid=1323d2cd-c4e0-4783-b4f1-4daaeb41faef"},"vehicle_type_id":"4","last_reported":1742631076,"current_range_meters":8000,"station_id":"ce4bhi12rcd13ifvqfp0","pricing_plan_id":"cebpf4jnsgd1na2vs0mg"},{"bike_id":"20e2be53-78ac-4b24-8dad-96b43d72add2","system_id":"levelo_inurba_marseille","lat":43.31066,"lon":5.38356,"is_reserved":false,"is_disabled":false,"rental_uris":{"android":"levelo://app?vid=20e2be53-78ac-4b24-8dad-96b43d72add2","ios":"levelo://app?vid=20e2be53-78ac-4b24-8dad-96b43d72add2"},"vehicle_type_id":"4","last_reported":1742631076,"current_range_meters":8000,"station_id":"ce4bgv92rcd13ifvqcr0","pricing_plan_id":"cebpf4jnsgd1na2vs0mg"},{"bike_id":"bf5d7bdb-65a8-4310-b955-6a76e2cbd7fe","system_id":"levelo_inurba_marseille","lat":43.33726,"lon":5.39198,"is_reserved":false,"is_disabled":false,"rental_uris":{"android":"levelo://app?vid=bf5d7bdb-65a8-4310-b955-6a76e2cbd7fe","ios":"levelo://app?vid=bf5d7bdb-65a8-4310-b955-6a76e2cbd7fe"},"vehicle_type_id":"4","last_reported":1742631076,"current_range_meters":8000,"station_id":"ce4bhr92rcd13ifvqhsg","pricing_plan_id":"cebpf4jnsgd1na2vs0mg"},{"bike_id":"9b80c4db-51e1-4e4e-8ecd-a558d3a24fd7","system_id":"levelo_inurba_marseille","lat":43.33174,"lon":5.38209,"is_reserved":false,"is_disabled":false,"rental_uris":{"android":"levelo://app?vid=9b80c4db-51e1-4e4e-8ecd-a558d3a24fd7","ios":"levelo://app?vid=9b80c4db-51e1-4e4e-8ecd-a558d3a24fd7"},"vehicle_type_id":"4","last_reported":1742631076,"current_range_meters":8000,"station_id":"","pricing_plan_id":"cebpf4jnsgd1na2vs0mg"},{"bike_id":"98e91d46-bb5c-498d-9f10-ad4d8649f5e2","system_id":"levelo_inurba_marseille","lat":43.28701,"lon":5.39997,"is_reserved":false,"is_disabled":false,"rental_uris":{"android":"levelo://app?vid=98e91d46-bb5c-498d-9f10-ad4d8649f5e2","ios":"levelo://app?vid=98e91d46-bb5c-498d-9f10-ad4d8649f5e2"},"vehicle_type_id":"4","last_reported":1742631076,"current_range_meters":8000,"station_id":"ce4bho92rcd13ifvqh3g","pricing_plan_id":"cebpf4jnsgd1na2vs0mg"},{"bike_id":"2b55a656-241b-4bcc-b273-1b3d1767f0e8","system_id":"levelo_inurba_marseille","lat":43.31066,"lon":5.38349,"is_reserved":false,"is_disabled":false,"rental_uris":{"android":"levelo://app?vid=2b55a656-241b-4bcc-b273-1b3d1767f0e8","ios":"levelo://app?vid=2b55a656-241b-4bcc-b273-1b3d1767f0e8"},"vehicle_type_id":"4","last_reported":1742631076,"current_range_meters":8000,"station_id":"ce4bgv92rcd13ifvqcr0","pricing_plan_id":"cebpf4jnsgd1na2vs0mg"},{"bike_id":"474de8f1-dc17-43c1-a174-90943479fae2","system_id":"levelo_inurba_marseille","lat":43.26952,"lon":5.38626,"is_reserved":false,"is_disabled":false,"rental_uris":{"android":"levelo://app?vid=474de8f1-dc17-43c1-a174-90943479fae2","ios":"levelo://app?vid=474de8f1-dc17-43c1-a174-90943479fae2"},"vehicle_type_id":"4","last_reported":1742631076,"current_range_meters":8000,"station_id":"ce4bhh92rcd13ifvqfh0","pricing_plan_id":"cebpf4jnsgd1na2vs0mg"},{"bike_id":"78fd32ab-c35b-4581-9109-56c233e230f9","system_id":"levelo_inurba_marseille","lat":43.31123,"lon":5.37807,"is_reserved":false,"is_disabled":false,"rental_uris":{"android":"levelo://app?vid=78fd32ab-c35b-4581-9109-56c233e230f9","ios":"levelo://app?vid=78fd32ab-c35b-4581-9109-56c233e230f9"},"vehicle_type_id":"4","last_reported":1742631076,"current_range_meters":8400,"station_id":"ce4bgt92rcd13ifvqcg0","pricing_plan_id":"cebpf4jnsgd1na2vs0mg"},{"bike_id":"4a19a393-8a97-42b9-ba7d-f07e3ebe11b2","system_id":"levelo_inurba_marseille","lat":43.29282,"lon":5.38433,"is_reserved":false,"is_disabled":true,"rental_uris":{"android":"levelo://app?vid=4a19a393-8a97-42b9-ba7d-f07e3ebe11b2","ios":"levelo://app?vid=4a19a393-8a97-42b9-ba7d-f07e3ebe11b2"},"vehicle_type_id":"4","last_reported":1742631076,"current_range_meters":8400,"station_id":"ce4bh692rcd13ifvqea0","pricing_plan_id":"cebpf4jnsgd1na2vs0mg"},{"bike_id":"9f1c3e5c-869d-4869-b7c6-0c926f2da6bf","system_id":"levelo_inurba_marseille","lat":43.28341,"lon":5.39807,"is_reserved":false,"is_disabled":false,"rental_uris":{"android":"levelo://app?vid=9f1c3e5c-869d-4869-b7c6-0c926f2da6bf","ios":"levelo://app?vid=9f1c3e5c-869d-4869-b7c6-0c926f2da6bf"},"vehicle_type_id":"4","last_reported":1742631076,"current_range_meters":8400,"station_id":"","pricing_plan_id":"cebpf4jnsgd1na2vs0mg"},{"bike_id":"15a22e4b-d301-4048-a66e-e14fb2336e6c","system_id":"levelo_inurba_marseille","lat":43.2696,"lon":5.38646,"is_reserved":false,"is_disabled":false,"rental_uris":{"android":"levelo://app?vid=15a22e4b-d301-4048-a66e-e14fb2336e6c","ios":"levelo://app?vid=15a22e4b-d301-4048-a66e-e14fb2336e6c"},"vehicle_type_id":"4","last_reported":1742631076,"current_range_meters":8400,"station_id":"ce4bhh92rcd13ifvqfh0","pricing_plan_id":"cebpf4jnsgd1na2vs0mg"},{"bike_id":"7a7c73e7-a501-4b78-9258-d3fd6f0e0ef8","system_id":"levelo_inurba_marseille","lat":43.28729,"lon":5.36441,"is_reserved":false,"is_disabled":false,"rental_uris":{"android":"levelo://app?vid=7a7c73e7-a501-4b78-9258-d3fd6f0e0ef8","ios":"levelo://app?vid=7a7c73e7-a501-4b78-9258-d3fd6f0e0ef8"},"vehicle_type_id":"4","last_reported":1742631076,"current_range_meters":8400,"station_id":"","pricing_plan_id":"cebpf4jnsgd1na2vs0mg"},{"bike_id":"0cc44c87-17fe-499c-977d-487d85dc253c","system_id":"levelo_inurba_marseille","lat":43.30877,"lon":5.39644,"is_reserved":false,"is_disabled":false,"rental_uris":{"android":"levelo://app?vid=0cc44c87-17fe-499c-977d-487d85dc253c","ios":"levelo://app?vid=0cc44c87-17fe-499c-977d-487d85dc253c"},"vehicle_type_id":"4","last_reported":1742631076,"current_range_meters":8400,"station_id":"ce4bh012rcd13ifvqcv0","pricing_plan_id":"cebpf4jnsgd1na2vs0mg"},{"bike_id":"93fff6e4-609c-4a77-877c-9f41f1057427","system_id":"levelo_inurba_marseille","lat":43.28625,"lon":5.35116,"is_reserved":false,"is_disabled":false,"rental_uris":{"android":"levelo://app?vid=93fff6e4-609c-4a77-877c-9f41f1057427","ios":"levelo://app?vid=93fff6e4-609c-4a77-877c-9f41f1057427"},"vehicle_type_id":"4","last_reported":1742631076,"current_range_meters":8400,"station_id":"ce4bhch2rcd13ifvqeug","pricing_plan_id":"cebpf4jnsgd1na2vs0mg"},{"bike_id":"3ee69224-7c6a-448e-b5bc-935bb2df6bdf","system_id":"levelo_inurba_marseille","lat":43.2808,"lon":5.39654,"is_reserved":false,"is_disabled":false,"rental_uris":{"android":"levelo://app?vid=3ee69224-7c6a-448e-b5bc-935bb2df6bdf","ios":"levelo://app?vid=3ee69224-7c6a-448e-b5bc-935bb2df6bdf"},"vehicle_type_id":"4","last_reported":1742631076,"current_range_meters":8400,"station_id":"ce4bho12rcd13ifvqh2g","pricing_plan_id":"cebpf4jnsgd1na2vs0mg"},{"bike_id":"f79500b9-0e79-47ef-ad29-b45861b23c11","system_id":"levelo_inurba_marseille","lat":43.29193,"lon":5.35811,"is_reserved":false,"is_disabled":false,"rental_uris":{"android":"levelo://app?vid=f79500b9-0e79-47ef-ad29-b45861b23c11","ios":"levelo://app?vid=f79500b9-0e79-47ef-ad29-b45861b23c11"},"vehicle_type_id":"4","last_reported":1742631076,"current_range_meters":8400,"station_id":"ce4bhb12rcd13ifvqel0","pricing_plan_id":"cebpf4jnsgd1na2vs0mg"},{"bike_id":"5b8c966c-d872-48bf-a2e7-3e6d6a86a2ae","system_id":"levelo_inurba_marseille","lat":43.24395,"lon":5.3706,"is_reserved":false,"is_disabled":false,"rental_uris":{"android":"levelo://app?vid=5b8c966c-d872-48bf-a2e7-3e6d6a86a2ae","ios":"levelo://app?vid=5b8c966c-d872-48bf-a2e7-3e6d6a86a2ae"},"vehicle_type_id":"4","last_reported":1742631076,"current_range_meters":8800,"station_id":"ce4bhhh2rcd13ifvqfk0","pricing_plan_id":"cebpf4jnsgd1na2vs0mg"},{"bike_id":"257266cf-683b-4c8a-a350-70a5c3f41572","system_id":"levelo_inurba_marseille","lat":43.31185,"lon":5.38739,"is_reserved":false,"is_disabled":false,"rental_uris":{"android":"levelo://app?vid=257266cf-683b-4c8a-a350-70a5c3f41572","ios":"levelo://app?vid=257266cf-683b-4c8a-a350-70a5c3f41572"},"vehicle_type_id":"4","last_reported":1742631076,"current_range_meters":8800,"station_id":"ce4bgv12rcd13ifvqcp0","pricing_plan_id":"cebpf4jnsgd1na2vs0mg"},{"bike_id":"4ce5074b-08cb-460a-957f-15da0a3834c3","system_id":"levelo_inurba_marseille","lat":43.26563,"lon":5.39023,"is_reserved":false,"is_disabled":false,"rental_uris":{"android":"levelo://app?vid=4ce5074b-08cb-460a-957f-15da0a3834c3","ios":"levelo://app?vid=4ce5074b-08cb-460a-957f-15da0a3834c3"},"vehicle_type_id":"4","last_reported":1742631076,"current_range_meters":8800,"station_id":"ce4bhe12rcd13ifvqf30","pricing_plan_id":"cebpf4jnsgd1na2vs0mg"},{"bike_id":"dc537980-6042-493d-8080-0667efb1d6ad","system_id":"levelo_inurba_marseille","lat":43.24552,"lon":5.39543,"is_reserved":false,"is_disabled":false,"rental_uris":{"android":"levelo://app?vid=dc537980-6042-493d-8080-0667efb1d6ad","ios":"levelo://app?vid=dc537980-6042-493d-8080-0667efb1d6ad"},"vehicle_type_id":"4","last_reported":1742631076,"current_range_meters":8800,"station_id":"ce4bhlp2rcd13ifvqgjg","pricing_plan_id":"cebpf4jnsgd1na2vs0mg"},{"bike_id":"f1b4e3d9-116f-4e90-8f82-ae44a03a6947","system_id":"levelo_inurba_marseille","lat":43.29783,"lon":5.40423,"is_reserved":false,"is_disabled":false,"rental_uris":{"android":"levelo://app?vid=f1b4e3d9-116f-4e90-8f82-ae44a03a6947","ios":"levelo://app?vid=f1b4e3d9-116f-4e90-8f82-ae44a03a6947"},"vehicle_type_id":"4","last_reported":1742631076,"current_range_meters":8800,"station_id":"ce4bh112rcd13ifvqd90","pricing_plan_id":"cebpf4jnsgd1na2vs0mg"},{"bike_id":"276613ec-3310-44d6-ae3f-44328dd4fd15","system_id":"levelo_inurba_marseille","lat":43.25836,"lon":5.39437,"is_reserved":false,"is_disabled":false,"rental_uris":{"android":"levelo://app?vid=276613ec-3310-44d6-ae3f-44328dd4fd15","ios":"levelo://app?vid=276613ec-3310-44d6-ae3f-44328dd4fd15"},"vehicle_type_id":"4","last_reported":1742631076,"current_range_meters":8800,"station_id":"ce4bhip2rcd13ifvqft0","pricing_plan_id":"cebpf4jnsgd1na2vs0mg"},{"bike_id":"a52dfbd3-560f-4dad-8ae6-494d05ea4c89","system_id":"levelo_inurba_marseille","lat":43.3229,"lon":5.38273,"is_reserved":false,"is_disabled":false,"rental_uris":{"android":"levelo://app?vid=a52dfbd3-560f-4dad-8ae6-494d05ea4c89","ios":"levelo://app?vid=a52dfbd3-560f-4dad-8ae6-494d05ea4c89"},"vehicle_type_id":"4","last_reported":1742631076,"current_range_meters":8800,"station_id":"ce4bhr12rcd13ifvqhqg","pricing_plan_id":"cebpf4jnsgd1na2vs0mg"},{"bike_id":"497dc9e5-9a81-444c-b266-80b25ebc7c6c","system_id":"levelo_inurba_marseille","lat":43.24059,"lon":5.37735,"is_reserved":false,"is_disabled":false,"rental_uris":{"android":"levelo://app?vid=497dc9e5-9a81-444c-b266-80b25ebc7c6c","ios":"levelo://app?vid=497dc9e5-9a81-444c-b266-80b25ebc7c6c"},"vehicle_type_id":"4","last_reported":1742631076,"current_range_meters":8800,"station_id":"ce4bhnp2rcd13ifvqgvg","pricing_plan_id":"cebpf4jnsgd1na2vs0mg"},{"bike_id":"ee3be813-755c-4ea5-a74b-5243e6a00d8b","system_id":"levelo_inurba_marseille","lat":43.27728,"lon":5.41622,"is_reserved":false,"is_disabled":false,"rental_uris":{"android":"levelo://app?vid=ee3be813-755c-4ea5-a74b-5243e6a00d8b","ios":"levelo://app?vid=ee3be813-755c-4ea5-a74b-5243e6a00d8b"},"vehicle_type_id":"4","last_reported":1742631076,"current_range_meters":8800,"station_id":"","pricing_plan_id":"cebpf4jnsgd1na2vs0mg"},{"bike_id":"b8947409-508b-461c-b433-a1d5d02b6078","system_id":"levelo_inurba_marseille","lat":43.26552,"lon":5.37303,"is_reserved":false,"is_disabled":false,"rental_uris":{"android":"levelo://app?vid=b8947409-508b-461c-b433-a1d5d02b6078","ios":"levelo://app?vid=b8947409-508b-461c-b433-a1d5d02b6078"},"vehicle_type_id":"4","last_reported":1742631076,"current_range_meters":8800,"station_id":"ce4bhg12rcd13ifvqf70","pricing_plan_id":"cebpf4jnsgd1na2vs0mg"},{"bike_id":"33063778-d13b-488d-a098-00d76ac265e1","system_id":"levelo_inurba_marseille","lat":43.310759,"lon":5.383548,"is_reserved":false,"is_disabled":false,"rental_uris":{"android":"levelo://app?vid=33063778-d13b-488d-a098-00d76ac265e1","ios":"levelo://app?vid=33063778-d13b-488d-a098-00d76ac265e1"},"vehicle_type_id":"4","last_reported":1742631076,"current_range_meters":9200,"station_id":"ce4bgv92rcd13ifvqcr0","pricing_plan_id":"cebpf4jnsgd1na2vs0mg"},{"bike_id":"29c299a3-8deb-46e4-8cd6-c7a928ea34d7","system_id":"levelo_inurba_marseille","lat":43.26565,"lon":5.37308,"is_reserved":false,"is_disabled":false,"rental_uris":{"android":"levelo://app?vid=29c299a3-8deb-46e4-8cd6-c7a928ea34d7","ios":"levelo://app?vid=29c299a3-8deb-46e4-8cd6-c7a928ea34d7"},"vehicle_type_id":"4","last_reported":1742631076,"current_range_meters":9200,"station_id":"ce4bhg12rcd13ifvqf70","pricing_plan_id":"cebpf4jnsgd1na2vs0mg"},{"bike_id":"fc3a1731-550a-47cb-9da8-0369cd5a75ee","system_id":"levelo_inurba_marseille","lat":43.26198,"lon":5.37452,"is_reserved":false,"is_disabled":false,"rental_uris":{"android":"levelo://app?vid=fc3a1731-550a-47cb-9da8-0369cd5a75ee","ios":"levelo://app?vid=fc3a1731-550a-47cb-9da8-0369cd5a75ee"},"vehicle_type_id":"4","last_reported":1742631076,"current_range_meters":9200,"station_id":"ce4bhgp2rcd13ifvqfc0","pricing_plan_id":"cebpf4jnsgd1na2vs0mg"},{"bike_id":"bf4d85d4-43b3-412d-8c0e-8e5686f52830","system_id":"levelo_inurba_marseille","lat":43.27478,"lon":5.42473,"is_reserved":false,"is_disabled":false,"rental_uris":{"android":"levelo://app?vid=bf4d85d4-43b3-412d-8c0e-8e5686f52830","ios":"levelo://app?vid=bf4d85d4-43b3-412d-8c0e-8e5686f52830"},"vehicle_type_id":"4","last_reported":1742631076,"current_range_meters":9200,"station_id":"ce4bhn92rcd13ifvqgrg","pricing_plan_id":"cebpf4jnsgd1na2vs0mg"},{"bike_id":"65b642d2-4bbc-47bd-9c36-3f213e795fd7","system_id":"levelo_inurba_marseille","lat":43.258297,"lon":5.394362,"is_reserved":false,"is_disabled":false,"rental_uris":{"android":"levelo://app?vid=65b642d2-4bbc-47bd-9c36-3f213e795fd7","ios":"levelo://app?vid=65b642d2-4bbc-47bd-9c36-3f213e795fd7"},"vehicle_type_id":"4","last_reported":1742631076,"current_range_meters":9200,"station_id":"ce4bhip2rcd13ifvqft0","pricing_plan_id":"cebpf4jnsgd1na2vs0mg"},{"bike_id":"c339d8d9-a020-489d-86e5-188c106f8090","system_id":"levelo_inurba_marseille","lat":43.28352,"lon":5.38113,"is_reserved":false,"is_disabled":false,"rental_uris":{"android":"levelo://app?vid=c339d8d9-a020-489d-86e5-188c106f8090","ios":"levelo://app?vid=c339d8d9-a020-489d-86e5-188c106f8090"},"vehicle_type_id":"4","last_reported":1742631076,"current_range_meters":9200,"station_id":"ce4bh412rcd13ifvqdr0","pricing_plan_id":"cebpf4jnsgd1na2vs0mg"},{"bike_id":"295b2b96-8a22-4b6f-a45b-df5a7ed58969","system_id":"levelo_inurba_marseille","lat":43.33744,"lon":5.39197,"is_reserved":false,"is_disabled":false,"rental_uris":{"android":"levelo://app?vid=295b2b96-8a22-4b6f-a45b-df5a7ed58969","ios":"levelo://app?vid=295b2b96-8a22-4b6f-a45b-df5a7ed58969"},"vehicle_type_id":"4","last_reported":1742631076,"current_range_meters":9600,"station_id":"ce4bhr92rcd13ifvqhsg","pricing_plan_id":"cebpf4jnsgd1na2vs0mg"},{"bike_id":"c7690d8f-d650-495b-82f0-2abd9a4308b7","system_id":"levelo_inurba_marseille","lat":43.25584,"lon":5.38254,"is_reserved":false,"is_disabled":false,"rental_uris":{"android":"levelo://app?vid=c7690d8f-d650-495b-82f0-2abd9a4308b7","ios":"levelo://app?vid=c7690d8f-d650-495b-82f0-2abd9a4308b7"},"vehicle_type_id":"4","last_reported":1742631076,"current_range_meters":9600,"station_id":"ce4bhih2rcd13ifvqfs0","pricing_plan_id":"cebpf4jnsgd1na2vs0mg"},{"bike_id":"e1e493b8-6ddd-477f-a5c7-ce583728c84a","system_id":"levelo_inurba_marseille","lat":43.290229,"lon":5.381478,"is_reserved":false,"is_disabled":false,"rental_uris":{"android":"levelo://app?vid=e1e493b8-6ddd-477f-a5c7-ce583728c84a","ios":"levelo://app?vid=e1e493b8-6ddd-477f-a5c7-ce583728c84a"},"vehicle_type_id":"4","last_reported":1742631076,"current_range_meters":9600,"station_id":"ce4bh4p2rcd13ifvqe1g","pricing_plan_id":"cebpf4jnsgd1na2vs0mg"},{"bike_id":"87e2e2e8-8fdc-44a7-ae05-f3390d7856da","system_id":"levelo_inurba_marseille","lat":43.28862,"lon":5.39371,"is_reserved":false,"is_disabled":false,"rental_uris":{"android":"levelo://app?vid=87e2e2e8-8fdc-44a7-ae05-f3390d7856da","ios":"levelo://app?vid=87e2e2e8-8fdc-44a7-ae05-f3390d7856da"},"vehicle_type_id":"4","last_reported":1742631076,"current_range_meters":9600,"station_id":"ce4bh2p2rcd13ifvqdi0","pricing_plan_id":"cebpf4jnsgd1na2vs0mg"},{"bike_id":"c2f07fa2-83c5-4bf6-9d26-88e194a882bf","system_id":"levelo_inurba_marseille","lat":43.29803,"lon":5.4041,"is_reserved":false,"is_disabled":false,"rental_uris":{"android":"levelo://app?vid=c2f07fa2-83c5-4bf6-9d26-88e194a882bf","ios":"levelo://app?vid=c2f07fa2-83c5-4bf6-9d26-88e194a882bf"},"vehicle_type_id":"4","last_reported":1742631076,"current_range_meters":9600,"station_id":"ce4bh112rcd13ifvqd90","pricing_plan_id":"cebpf4jnsgd1na2vs0mg"},{"bike_id":"b5fcb98a-c8d5-4f1a-a9b4-b3362af2a9c7","system_id":"levelo_inurba_marseille","lat":43.23063,"lon":5.35512,"is_reserved":false,"is_disabled":false,"rental_uris":{"android":"levelo://app?vid=b5fcb98a-c8d5-4f1a-a9b4-b3362af2a9c7","ios":"levelo://app?vid=b5fcb98a-c8d5-4f1a-a9b4-b3362af2a9c7"},"vehicle_type_id":"4","last_reported":1742631076,"current_range_meters":9600,"station_id":"cpo3342slgdg3j2ifvpg","pricing_plan_id":"cebpf4jnsgd1na2vs0mg"},{"bike_id":"11837b39-2c93-4a3b-83f3-62d1c3782e77","system_id":"levelo_inurba_marseille","lat":43.29621,"lon":5.3773,"is_reserved":false,"is_disabled":false,"rental_uris":{"android":"levelo://app?vid=11837b39-2c93-4a3b-83f3-62d1c3782e77","ios":"levelo://app?vid=11837b39-2c93-4a3b-83f3-62d1c3782e77"},"vehicle_type_id":"4","last_reported":1742631076,"current_range_meters":9600,"station_id":"ce4bgi92rcd13ifvqb90","pricing_plan_id":"cebpf4jnsgd1na2vs0mg"},{"bike_id":"3483c4d5-33fb-4cf2-9f09-aee1477a5393","system_id":"levelo_inurba_marseille","lat":43.26543,"lon":5.39017,"is_reserved":false,"is_disabled":false,"rental_uris":{"android":"levelo://app?vid=3483c4d5-33fb-4cf2-9f09-aee1477a5393","ios":"levelo://app?vid=3483c4d5-33fb-4cf2-9f09-aee1477a5393"},"vehicle_type_id":"4","last_reported":1742631076,"current_range_meters":9600,"station_id":"ce4bhe12rcd13ifvqf30","pricing_plan_id":"cebpf4jnsgd1na2vs0mg"},{"bike_id":"cb16cc82-af00-460f-9ade-2e044c6df9cc","system_id":"levelo_inurba_marseille","lat":43.30876,"lon":5.39657,"is_reserved":false,"is_disabled":false,"rental_uris":{"android":"levelo://app?vid=cb16cc82-af00-460f-9ade-2e044c6df9cc","ios":"levelo://app?vid=cb16cc82-af00-460f-9ade-2e044c6df9cc"},"vehicle_type_id":"4","last_reported":1742631076,"current_range_meters":10000,"station_id":"ce4bh012rcd13ifvqcv0","pricing_plan_id":"cebpf4jnsgd1na2vs0mg"},{"bike_id":"7f396ae9-244b-4126-bc7a-2312f6e4d9ee","system_id":"levelo_inurba_marseille","lat":43.33751,"lon":5.39198,"is_reserved":false,"is_disabled":false,"rental_uris":{"android":"levelo://app?vid=7f396ae9-244b-4126-bc7a-2312f6e4d9ee","ios":"levelo://app?vid=7f396ae9-244b-4126-bc7a-2312f6e4d9ee"},"vehicle_type_id":"4","last_reported":1742631076,"current_range_meters":10000,"station_id":"ce4bhr92rcd13ifvqhsg","pricing_plan_id":"cebpf4jnsgd1na2vs0mg"},{"bike_id":"3edb904b-ad5d-447e-ba08-4ac1801adea2","system_id":"levelo_inurba_marseille","lat":43.28073,"lon":5.39663,"is_reserved":false,"is_disabled":false,"rental_uris":{"android":"levelo://app?vid=3edb904b-ad5d-447e-ba08-4ac1801adea2","ios":"levelo://app?vid=3edb904b-ad5d-447e-ba08-4ac1801adea2"},"vehicle_type_id":"4","last_reported":1742631076,"current_range_meters":10000,"station_id":"ce4bho12rcd13ifvqh2g","pricing_plan_id":"cebpf4jnsgd1na2vs0mg"},{"bike_id":"38044645-ece5-4bcd-8d4d-db0d7b3b13cd","system_id":"levelo_inurba_marseille","lat":43.24552,"lon":5.3953,"is_reserved":false,"is_disabled":false,"rental_uris":{"android":"levelo://app?vid=38044645-ece5-4bcd-8d4d-db0d7b3b13cd","ios":"levelo://app?vid=38044645-ece5-4bcd-8d4d-db0d7b3b13cd"},"vehicle_type_id":"4","last_reported":1742631076,"current_range_meters":10800,"station_id":"ce4bhlp2rcd13ifvqgjg","pricing_plan_id":"cebpf4jnsgd1na2vs0mg"},{"bike_id":"fe239f3d-5c83-42bd-8b99-e0b3f3784fb5","system_id":"levelo_inurba_marseille","lat":43.24635,"lon":5.38386,"is_reserved":false,"is_disabled":false,"rental_uris":{"android":"levelo://app?vid=fe239f3d-5c83-42bd-8b99-e0b3f3784fb5","ios":"levelo://app?vid=fe239f3d-5c83-42bd-8b99-e0b3f3784fb5"},"vehicle_type_id":"4","last_reported":1742631076,"current_range_meters":10000,"station_id":"","pricing_plan_id":"cebpf4jnsgd1na2vs0mg"},{"bike_id":"a0803fc7-7c01-4615-afb9-e1e35a6349e8","system_id":"levelo_inurba_marseille","lat":43.28158,"lon":5.42651,"is_reserved":false,"is_disabled":false,"rental_uris":{"android":"levelo://app?vid=a0803fc7-7c01-4615-afb9-e1e35a6349e8","ios":"levelo://app?vid=a0803fc7-7c01-4615-afb9-e1e35a6349e8"},"vehicle_type_id":"4","last_reported":1742631076,"current_range_meters":10000,"station_id":"ce4bhnh2rcd13ifvqgug","pricing_plan_id":"cebpf4jnsgd1na2vs0mg"},{"bike_id":"e286f78c-b371-40e9-b7d3-39dea2859809","system_id":"levelo_inurba_marseille","lat":43.315372,"lon":5.380297,"is_reserved":false,"is_disabled":false,"rental_uris":{"android":"levelo://app?vid=e286f78c-b371-40e9-b7d3-39dea2859809","ios":"levelo://app?vid=e286f78c-b371-40e9-b7d3-39dea2859809"},"vehicle_type_id":"4","last_reported":1742631076,"current_range_meters":10800,"station_id":"ce4bhsp2rcd13ifvqi50","pricing_plan_id":"cebpf4jnsgd1na2vs0mg"},{"bike_id":"f26047fe-e325-4cda-a7da-2e6f1320cab5","system_id":"levelo_inurba_marseille","lat":43.26523,"lon":5.39578,"is_reserved":false,"is_disabled":false,"rental_uris":{"android":"levelo://app?vid=f26047fe-e325-4cda-a7da-2e6f1320cab5","ios":"levelo://app?vid=f26047fe-e325-4cda-a7da-2e6f1320cab5"},"vehicle_type_id":"4","last_reported":1742631076,"current_range_meters":10800,"station_id":"ce4bhi12rcd13ifvqfq0","pricing_plan_id":"cebpf4jnsgd1na2vs0mg"},{"bike_id":"2ffa84ab-3c31-45c4-aea8-6988dda1d009","system_id":"levelo_inurba_marseille","lat":43.30372,"lon":5.42497,"is_reserved":false,"is_disabled":false,"rental_uris":{"android":"levelo://app?vid=2ffa84ab-3c31-45c4-aea8-6988dda1d009","ios":"levelo://app?vid=2ffa84ab-3c31-45c4-aea8-6988dda1d009"},"vehicle_type_id":"4","last_reported":1742631076,"current_range_meters":10800,"station_id":"ce4bhoh2rcd13ifvqh6g","pricing_plan_id":"cebpf4jnsgd1na2vs0mg"},{"bike_id":"900e44dd-1317-4e6e-ac50-7e0c8fe7d455","system_id":"levelo_inurba_marseille","lat":43.239659,"lon":5.366353,"is_reserved":false,"is_disabled":false,"rental_uris":{"android":"levelo://app?vid=900e44dd-1317-4e6e-ac50-7e0c8fe7d455","ios":"levelo://app?vid=900e44dd-1317-4e6e-ac50-7e0c8fe7d455"},"vehicle_type_id":"4","last_reported":1742631076,"current_range_meters":11200,"station_id":"ce4bhi12rcd13ifvqfp0","pricing_plan_id":"cebpf4jnsgd1na2vs0mg"},{"bike_id":"45fbea4e-40dc-4af3-a399-932bc4c34956","system_id":"levelo_inurba_marseille","lat":43.2981,"lon":5.38086,"is_reserved":false,"is_disabled":false,"rental_uris":{"android":"levelo://app?vid=45fbea4e-40dc-4af3-a399-932bc4c34956","ios":"levelo://app?vid=45fbea4e-40dc-4af3-a399-932bc4c34956"},"vehicle_type_id":"4","last_reported":1742631076,"current_range_meters":11200,"station_id":"ce4bgip2rcd13ifvqbb0","pricing_plan_id":"cebpf4jnsgd1na2vs0mg"},{"bike_id":"6a7e6ea3-0dea-4fb5-9495-8803ab0e1523","system_id":"levelo_inurba_marseille","lat":43.30447,"lon":5.37917,"is_reserved":false,"is_disabled":false,"rental_uris":{"android":"levelo://app?vid=6a7e6ea3-0dea-4fb5-9495-8803ab0e1523","ios":"levelo://app?vid=6a7e6ea3-0dea-4fb5-9495-8803ab0e1523"},"vehicle_type_id":"4","last_reported":1742631076,"current_range_meters":11200,"station_id":"ce4bgup2rcd13ifvqcn0","pricing_plan_id":"cebpf4jnsgd1na2vs0mg"},{"bike_id":"6303fd16-e919-43a3-b09d-f081f34784c7","system_id":"levelo_inurba_marseille","lat":43.310728,"lon":5.383437,"is_reserved":false,"is_disabled":false,"rental_uris":{"android":"levelo://app?vid=6303fd16-e919-43a3-b09d-f081f34784c7","ios":"levelo://app?vid=6303fd16-e919-43a3-b09d-f081f34784c7"},"vehicle_type_id":"4","last_reported":1742631076,"current_range_meters":11200,"station_id":"ce4bgv92rcd13ifvqcr0","pricing_plan_id":"cebpf4jnsgd1na2vs0mg"},{"bike_id":"d6aff1ed-229c-4ff0-b6d9-674bc21c7e9b","system_id":"levelo_inurba_marseille","lat":43.30876,"lon":5.3965,"is_reserved":false,"is_disabled":false,"rental_uris":{"android":"levelo://app?vid=d6aff1ed-229c-4ff0-b6d9-674bc21c7e9b","ios":"levelo://app?vid=d6aff1ed-229c-4ff0-b6d9-674bc21c7e9b"},"vehicle_type_id":"4","last_reported":1742631076,"current_range_meters":11200,"station_id":"ce4bh012rcd13ifvqcv0","pricing_plan_id":"cebpf4jnsgd1na2vs0mg"},{"bike_id":"bbd8a3cf-160a-4ebc-a74b-0929734ab020","system_id":"levelo_inurba_marseille","lat":43.28373,"lon":5.38647,"is_reserved":false,"is_disabled":false,"rental_uris":{"android":"levelo://app?vid=bbd8a3cf-160a-4ebc-a74b-0929734ab020","ios":"levelo://app?vid=bbd8a3cf-160a-4ebc-a74b-0929734ab020"},"vehicle_type_id":"4","last_reported":1742631076,"current_range_meters":11200,"station_id":"ce4bh492rcd13ifvqdvg","pricing_plan_id":"cebpf4jnsgd1na2vs0mg"},{"bike_id":"0b49bdf5-e1e6-4881-ad0b-23dfc5b30bed","system_id":"levelo_inurba_marseille","lat":43.30791,"lon":5.37657,"is_reserved":false,"is_disabled":false,"rental_uris":{"android":"levelo://app?vid=0b49bdf5-e1e6-4881-ad0b-23dfc5b30bed","ios":"levelo://app?vid=0b49bdf5-e1e6-4881-ad0b-23dfc5b30bed"},"vehicle_type_id":"4","last_reported":1742631076,"current_range_meters":11200,"station_id":"ce4bgv92rcd13ifvqcq0","pricing_plan_id":"cebpf4jnsgd1na2vs0mg"},{"bike_id":"9e4c94a7-2d9a-4757-9b79-930c54108b59","system_id":"levelo_inurba_marseille","lat":43.30887,"lon":5.39639,"is_reserved":false,"is_disabled":false,"rental_uris":{"android":"levelo://app?vid=9e4c94a7-2d9a-4757-9b79-930c54108b59","ios":"levelo://app?vid=9e4c94a7-2d9a-4757-9b79-930c54108b59"},"vehicle_type_id":"4","last_reported":1742631076,"current_range_meters":11600,"station_id":"ce4bh012rcd13ifvqcv0","pricing_plan_id":"cebpf4jnsgd1na2vs0mg"},{"bike_id":"9683555e-fe04-4de7-b706-7a9b0019a6a7","system_id":"levelo_inurba_marseille","lat":43.33753,"lon":5.37495,"is_reserved":false,"is_disabled":true,"rental_uris":{"android":"levelo://app?vid=9683555e-fe04-4de7-b706-7a9b0019a6a7","ios":"levelo://app?vid=9683555e-fe04-4de7-b706-7a9b0019a6a7"},"vehicle_type_id":"4","last_reported":1742631076,"current_range_meters":11600,"station_id":"ce4bh2h2rcd13ifvqdh0","pricing_plan_id":"cebpf4jnsgd1na2vs0mg"},{"bike_id":"1df2e6f6-63d4-4f34-92e1-d1b0e12ddb5a","system_id":"levelo_inurba_marseille","lat":43.231876,"lon":5.39993,"is_reserved":false,"is_disabled":false,"rental_uris":{"android":"levelo://app?vid=1df2e6f6-63d4-4f34-92e1-d1b0e12ddb5a","ios":"levelo://app?vid=1df2e6f6-63d4-4f34-92e1-d1b0e12ddb5a"},"vehicle_type_id":"4","last_reported":1742631076,"current_range_meters":11600,"station_id":"ce4bhn12rcd13ifvqgqg","pricing_plan_id":"cebpf4jnsgd1na2vs0mg"},{"bike_id":"52ca90b0-f039-4017-b60d-da3724ff2989","system_id":"levelo_inurba_marseille","lat":43.268086,"lon":5.402657,"is_reserved":false,"is_disabled":false,"rental_uris":{"android":"levelo://app?vid=52ca90b0-f039-4017-b60d-da3724ff2989","ios":"levelo://app?vid=52ca90b0-f039-4017-b60d-da3724ff2989"},"vehicle_type_id":"4","last_reported":1742631076,"current_range_meters":12000,"station_id":"ce501612rcd8frsf0b60","pricing_plan_id":"cebpf4jnsgd1na2vs0mg"},{"bike_id":"94bbaddb-c79c-46e5-9601-74d8853dd2a0","system_id":"levelo_inurba_marseille","lat":43.31718,"lon":5.37748,"is_reserved":false,"is_disabled":false,"rental_uris":{"android":"levelo://app?vid=94bbaddb-c79c-46e5-9601-74d8853dd2a0","ios":"levelo://app?vid=94bbaddb-c79c-46e5-9601-74d8853dd2a0"},"vehicle_type_id":"4","last_reported":1742631076,"current_range_meters":12000,"station_id":"ce4bgth2rcd13ifvqch0","pricing_plan_id":"cebpf4jnsgd1na2vs0mg"},{"bike_id":"8ff6a3b5-d1d9-417b-86f0-6d0ace3538d0","system_id":"levelo_inurba_marseille","lat":43.25821,"lon":5.39438,"is_reserved":false,"is_disabled":false,"rental_uris":{"android":"levelo://app?vid=8ff6a3b5-d1d9-417b-86f0-6d0ace3538d0","ios":"levelo://app?vid=8ff6a3b5-d1d9-417b-86f0-6d0ace3538d0"},"vehicle_type_id":"4","last_reported":1742631076,"current_range_meters":12000,"station_id":"ce4bhip2rcd13ifvqft0","pricing_plan_id":"cebpf4jnsgd1na2vs0mg"},{"bike_id":"27299520-8b7c-489f-a19a-f84fa4ab3605","system_id":"levelo_inurba_marseille","lat":43.31362,"lon":5.36721,"is_reserved":false,"is_disabled":false,"rental_uris":{"android":"levelo://app?vid=27299520-8b7c-489f-a19a-f84fa4ab3605","ios":"levelo://app?vid=27299520-8b7c-489f-a19a-f84fa4ab3605"},"vehicle_type_id":"4","last_reported":1742631076,"current_range_meters":12000,"station_id":"ce4bgr92rcd13ifvqc6g","pricing_plan_id":"cebpf4jnsgd1na2vs0mg"},{"bike_id":"31ceaf91-0cf3-44dd-a3f4-b0cde86069a0","system_id":"levelo_inurba_marseille","lat":43.25906,"lon":5.40849,"is_reserved":false,"is_disabled":false,"rental_uris":{"android":"levelo://app?vid=31ceaf91-0cf3-44dd-a3f4-b0cde86069a0","ios":"levelo://app?vid=31ceaf91-0cf3-44dd-a3f4-b0cde86069a0"},"vehicle_type_id":"4","last_reported":1742631076,"current_range_meters":12000,"station_id":"ce4bhm92rcd13ifvqglg","pricing_plan_id":"cebpf4jnsgd1na2vs0mg"},{"bike_id":"47476f7a-6089-40f4-82cd-55d2acb8987b","system_id":"levelo_inurba_marseille","lat":43.23972,"lon":5.36596,"is_reserved":false,"is_disabled":false,"rental_uris":{"android":"levelo://app?vid=47476f7a-6089-40f4-82cd-55d2acb8987b","ios":"levelo://app?vid=47476f7a-6089-40f4-82cd-55d2acb8987b"},"vehicle_type_id":"4","last_reported":1742631076,"current_range_meters":12000,"station_id":"ce4bhi12rcd13ifvqfp0","pricing_plan_id":"cebpf4jnsgd1na2vs0mg"},{"bike_id":"d1dcf511-d8e9-43ef-bc85-50de65aae4a3","system_id":"levelo_inurba_marseille","lat":43.288863,"lon":5.387564,"is_reserved":false,"is_disabled":false,"rental_uris":{"android":"levelo://app?vid=d1dcf511-d8e9-43ef-bc85-50de65aae4a3","ios":"levelo://app?vid=d1dcf511-d8e9-43ef-bc85-50de65aae4a3"},"vehicle_type_id":"4","last_reported":1742631076,"current_range_meters":12000,"station_id":"","pricing_plan_id":"cebpf4jnsgd1na2vs0mg"},{"bike_id":"39600bef-b386-43d2-a32c-75296b1ad27d","system_id":"levelo_inurba_marseille","lat":43.28083,"lon":5.39661,"is_reserved":false,"is_disabled":false,"rental_uris":{"android":"levelo://app?vid=39600bef-b386-43d2-a32c-75296b1ad27d","ios":"levelo://app?vid=39600bef-b386-43d2-a32c-75296b1ad27d"},"vehicle_type_id":"4","last_reported":1742631076,"current_range_meters":12400,"station_id":"ce4bho12rcd13ifvqh2g","pricing_plan_id":"cebpf4jnsgd1na2vs0mg"},{"bike_id":"fbb498fe-0420-4fc0-a001-6f20ac1d59dd","system_id":"levelo_inurba_marseille","lat":43.3361,"lon":5.41002,"is_reserved":false,"is_disabled":true,"rental_uris":{"android":"levelo://app?vid=fbb498fe-0420-4fc0-a001-6f20ac1d59dd","ios":"levelo://app?vid=fbb498fe-0420-4fc0-a001-6f20ac1d59dd"},"vehicle_type_id":"4","last_reported":1742631076,"current_range_meters":12400,"station_id":"ce4bhqh2rcd13ifvqhmg","pricing_plan_id":"cebpf4jnsgd1na2vs0mg"},{"bike_id":"334b22ea-abc3-4378-996c-bd8525a73fb4","system_id":"levelo_inurba_marseille","lat":43.2469,"lon":5.3817,"is_reserved":false,"is_disabled":false,"rental_uris":{"android":"levelo://app?vid=334b22ea-abc3-4378-996c-bd8525a73fb4","ios":"levelo://app?vid=334b22ea-abc3-4378-996c-bd8525a73fb4"},"vehicle_type_id":"4","last_reported":1742631076,"current_range_meters":12400,"station_id":"ce4bhih2rcd13ifvqfr0","pricing_plan_id":"cebpf4jnsgd1na2vs0mg"},{"bike_id":"140c9efb-8502-4860-95ee-0fcc6d19cbce","system_id":"levelo_inurba_marseille","lat":43.28374,"lon":5.38634,"is_reserved":false,"is_disabled":false,"rental_uris":{"android":"levelo://app?vid=140c9efb-8502-4860-95ee-0fcc6d19cbce","ios":"levelo://app?vid=140c9efb-8502-4860-95ee-0fcc6d19cbce"},"vehicle_type_id":"4","last_reported":1742631076,"current_range_meters":12400,"station_id":"ce4bh492rcd13ifvqdvg","pricing_plan_id":"cebpf4jnsgd1na2vs0mg"},{"bike_id":"5d54dea7-3d44-4caa-8d2c-611739892d3b","system_id":"levelo_inurba_marseille","lat":43.25503,"lon":5.37656,"is_reserved":false,"is_disabled":false,"rental_uris":{"android":"levelo://app?vid=5d54dea7-3d44-4caa-8d2c-611739892d3b","ios":"levelo://app?vid=5d54dea7-3d44-4caa-8d2c-611739892d3b"},"vehicle_type_id":"4","last_reported":1742631076,"current_range_meters":12400,"station_id":"ce4bhh12rcd13ifvqff0","pricing_plan_id":"cebpf4jnsgd1na2vs0mg"},{"bike_id":"6bcd08b5-1d47-48a9-b3dd-f59ccc50adac","system_id":"levelo_inurba_marseille","lat":43.24173,"lon":5.39739,"is_reserved":false,"is_disabled":false,"rental_uris":{"android":"levelo://app?vid=6bcd08b5-1d47-48a9-b3dd-f59ccc50adac","ios":"levelo://app?vid=6bcd08b5-1d47-48a9-b3dd-f59ccc50adac"},"vehicle_type_id":"4","last_reported":1742631076,"current_range_meters":12400,"station_id":"ce4bhn12rcd13ifvqgpg","pricing_plan_id":"cebpf4jnsgd1na2vs0mg"},{"bike_id":"63d76a45-ee17-436f-ab9b-498daf53a4e1","system_id":"levelo_inurba_marseille","lat":43.231936,"lon":5.355578,"is_reserved":false,"is_disabled":false,"rental_uris":{"android":"levelo://app?vid=63d76a45-ee17-436f-ab9b-498daf53a4e1","ios":"levelo://app?vid=63d76a45-ee17-436f-ab9b-498daf53a4e1"},"vehicle_type_id":"4","last_reported":1742631076,"current_range_meters":12400,"station_id":"ce4bhu92rcd13ifvqi70","pricing_plan_id":"cebpf4jnsgd1na2vs0mg"},{"bike_id":"b56580eb-be99-4aaa-8593-c9b2940b4c72","system_id":"levelo_inurba_marseille","lat":43.28701,"lon":5.40003,"is_reserved":false,"is_disabled":false,"rental_uris":{"android":"levelo://app?vid=b56580eb-be99-4aaa-8593-c9b2940b4c72","ios":"levelo://app?vid=b56580eb-be99-4aaa-8593-c9b2940b4c72"},"vehicle_type_id":"4","last_reported":1742631076,"current_range_meters":12800,"station_id":"ce4bho92rcd13ifvqh3g","pricing_plan_id":"cebpf4jnsgd1na2vs0mg"},{"bike_id":"0fbe682c-7019-4d49-bda4-e04d5d122d3c","system_id":"levelo_inurba_marseille","lat":43.29705,"lon":5.36189,"is_reserved":false,"is_disabled":false,"rental_uris":{"android":"levelo://app?vid=0fbe682c-7019-4d49-bda4-e04d5d122d3c","ios":"levelo://app?vid=0fbe682c-7019-4d49-bda4-e04d5d122d3c"},"vehicle_type_id":"4","last_reported":1742631076,"current_range_meters":12800,"station_id":"","pricing_plan_id":"cebpf4jnsgd1na2vs0mg"},{"bike_id":"e25963ed-e672-4a92-a417-d585a3bc1692","system_id":"levelo_inurba_marseille","lat":43.27869,"lon":5.39739,"is_reserved":false,"is_disabled":true,"rental_uris":{"android":"levelo://app?vid=e25963ed-e672-4a92-a417-d585a3bc1692","ios":"levelo://app?vid=e25963ed-e672-4a92-a417-d585a3bc1692"},"vehicle_type_id":"4","last_reported":1742631076,"current_range_meters":12800,"station_id":"","pricing_plan_id":"cebpf4jnsgd1na2vs0mg"},{"bike_id":"72503a27-a949-4a46-b139-c44d4f416a58","system_id":"levelo_inurba_marseille","lat":43.23209,"lon":5.35496,"is_reserved":false,"is_disabled":false,"rental_uris":{"android":"levelo://app?vid=72503a27-a949-4a46-b139-c44d4f416a58","ios":"levelo://app?vid=72503a27-a949-4a46-b139-c44d4f416a58"},"vehicle_type_id":"4","last_reported":1742631076,"current_range_meters":12800,"station_id":"ce4bhu92rcd13ifvqi70","pricing_plan_id":"cebpf4jnsgd1na2vs0mg"},{"bike_id":"a34b0ae6-e3a6-410d-b47d-2e85332c0b91","system_id":"levelo_inurba_marseille","lat":43.23187,"lon":5.39989,"is_reserved":false,"is_disabled":false,"rental_uris":{"android":"levelo://app?vid=a34b0ae6-e3a6-410d-b47d-2e85332c0b91","ios":"levelo://app?vid=a34b0ae6-e3a6-410d-b47d-2e85332c0b91"},"vehicle_type_id":"4","last_reported":1742631076,"current_range_meters":12800,"station_id":"ce4bhn12rcd13ifvqgqg","pricing_plan_id":"cebpf4jnsgd1na2vs0mg"},{"bike_id":"3f3f99da-6673-441e-a5b3-6857219a400e","system_id":"levelo_inurba_marseille","lat":43.249974,"lon":5.389408,"is_reserved":false,"is_disabled":false,"rental_uris":{"android":"levelo://app?vid=3f3f99da-6673-441e-a5b3-6857219a400e","ios":"levelo://app?vid=3f3f99da-6673-441e-a5b3-6857219a400e"},"vehicle_type_id":"4","last_reported":1742631076,"current_range_meters":12800,"station_id":"ce4bhgp2rcd13ifvqfd0","pricing_plan_id":"cebpf4jnsgd1na2vs0mg"},{"bike_id":"77194d0d-fa7b-4a89-8dc8-229bf789c28d","system_id":"levelo_inurba_marseille","lat":43.30938,"lon":5.40173,"is_reserved":false,"is_disabled":false,"rental_uris":{"android":"levelo://app?vid=77194d0d-fa7b-4a89-8dc8-229bf789c28d","ios":"levelo://app?vid=77194d0d-fa7b-4a89-8dc8-229bf789c28d"},"vehicle_type_id":"4","last_reported":1742631076,"current_range_meters":12800,"station_id":"ce4bgvp2rcd13ifvqct0","pricing_plan_id":"cebpf4jnsgd1na2vs0mg"},{"bike_id":"33ce4c47-7534-4b7a-b125-1452769b7a9c","system_id":"levelo_inurba_marseille","lat":43.30214,"lon":5.3949,"is_reserved":false,"is_disabled":false,"rental_uris":{"android":"levelo://app?vid=33ce4c47-7534-4b7a-b125-1452769b7a9c","ios":"levelo://app?vid=33ce4c47-7534-4b7a-b125-1452769b7a9c"},"vehicle_type_id":"4","last_reported":1742631076,"current_range_meters":13600,"station_id":"ce4bh0p2rcd13ifvqd70","pricing_plan_id":"cebpf4jnsgd1na2vs0mg"},{"bike_id":"0e51ed7e-780a-4ef2-8ddd-105c43946cf1","system_id":"levelo_inurba_marseille","lat":43.240715,"lon":5.377621,"is_reserved":false,"is_disabled":false,"rental_uris":{"android":"levelo://app?vid=0e51ed7e-780a-4ef2-8ddd-105c43946cf1","ios":"levelo://app?vid=0e51ed7e-780a-4ef2-8ddd-105c43946cf1"},"vehicle_type_id":"4","last_reported":1742631076,"current_range_meters":13600,"station_id":"ce4bhnp2rcd13ifvqgvg","pricing_plan_id":"cebpf4jnsgd1na2vs0mg"},{"bike_id":"19a95dcf-9766-41d3-9e72-94705e323dad","system_id":"levelo_inurba_marseille","lat":43.24392,"lon":5.37076,"is_reserved":false,"is_disabled":false,"rental_uris":{"android":"levelo://app?vid=19a95dcf-9766-41d3-9e72-94705e323dad","ios":"levelo://app?vid=19a95dcf-9766-41d3-9e72-94705e323dad"},"vehicle_type_id":"4","last_reported":1742631076,"current_range_meters":13600,"station_id":"ce4bhhh2rcd13ifvqfk0","pricing_plan_id":"cebpf4jnsgd1na2vs0mg"},{"bike_id":"d16d5ae2-a108-44f8-a226-14fecf4f3137","system_id":"levelo_inurba_marseille","lat":43.279977,"lon":5.400023,"is_reserved":false,"is_disabled":false,"rental_uris":{"android":"levelo://app?vid=d16d5ae2-a108-44f8-a226-14fecf4f3137","ios":"levelo://app?vid=d16d5ae2-a108-44f8-a226-14fecf4f3137"},"vehicle_type_id":"4","last_reported":1742631076,"current_range_meters":13600,"station_id":"ce4bho92rcd13ifvqh4g","pricing_plan_id":"cebpf4jnsgd1na2vs0mg"},{"bike_id":"d3ebde68-98d7-4a24-a835-e6ce3b34fc4b","system_id":"levelo_inurba_marseille","lat":43.26556,"lon":5.37309,"is_reserved":false,"is_disabled":false,"rental_uris":{"android":"levelo://app?vid=d3ebde68-98d7-4a24-a835-e6ce3b34fc4b","ios":"levelo://app?vid=d3ebde68-98d7-4a24-a835-e6ce3b34fc4b"},"vehicle_type_id":"4","last_reported":1742631076,"current_range_meters":13600,"station_id":"ce4bhg12rcd13ifvqf70","pricing_plan_id":"cebpf4jnsgd1na2vs0mg"},{"bike_id":"9e5fb07a-40f5-48a7-8576-b3add1049650","system_id":"levelo_inurba_marseille","lat":43.27637,"lon":5.36136,"is_reserved":false,"is_disabled":false,"rental_uris":{"android":"levelo://app?vid=9e5fb07a-40f5-48a7-8576-b3add1049650","ios":"levelo://app?vid=9e5fb07a-40f5-48a7-8576-b3add1049650"},"vehicle_type_id":"4","last_reported":1742631076,"current_range_meters":13600,"station_id":"ce4bgj92rcd13ifvqbe0","pricing_plan_id":"cebpf4jnsgd1na2vs0mg"},{"bike_id":"280a7095-4eb2-43f9-a0c4-f90b539d0a09","system_id":"levelo_inurba_marseille","lat":43.309235,"lon":5.401578,"is_reserved":false,"is_disabled":false,"rental_uris":{"android":"levelo://app?vid=280a7095-4eb2-43f9-a0c4-f90b539d0a09","ios":"levelo://app?vid=280a7095-4eb2-43f9-a0c4-f90b539d0a09"},"vehicle_type_id":"4","last_reported":1742631076,"current_range_meters":14000,"station_id":"ce4bgvp2rcd13ifvqct0","pricing_plan_id":"cebpf4jnsgd1na2vs0mg"},{"bike_id":"7d9bf2d2-5153-499c-a1fb-dcb365a9e566","system_id":"levelo_inurba_marseille","lat":43.24182,"lon":5.3973,"is_reserved":false,"is_disabled":false,"rental_uris":{"android":"levelo://app?vid=7d9bf2d2-5153-499c-a1fb-dcb365a9e566","ios":"levelo://app?vid=7d9bf2d2-5153-499c-a1fb-dcb365a9e566"},"vehicle_type_id":"4","last_reported":1742631076,"current_range_meters":14000,"station_id":"ce4bhn12rcd13ifvqgpg","pricing_plan_id":"cebpf4jnsgd1na2vs0mg"},{"bike_id":"362c0793-680f-43b7-a1aa-d84cd3219497","system_id":"levelo_inurba_marseille","lat":43.310739,"lon":5.383571,"is_reserved":false,"is_disabled":false,"rental_uris":{"android":"levelo://app?vid=362c0793-680f-43b7-a1aa-d84cd3219497","ios":"levelo://app?vid=362c0793-680f-43b7-a1aa-d84cd3219497"},"vehicle_type_id":"4","last_reported":1742631076,"current_range_meters":14000,"station_id":"ce4bgv92rcd13ifvqcr0","pricing_plan_id":"cebpf4jnsgd1na2vs0mg"},{"bike_id":"302da745-dc3e-489e-b2c8-445dcb3c38b1","system_id":"levelo_inurba_marseille","lat":43.23065,"lon":5.35496,"is_reserved":false,"is_disabled":false,"rental_uris":{"android":"levelo://app?vid=302da745-dc3e-489e-b2c8-445dcb3c38b1","ios":"levelo://app?vid=302da745-dc3e-489e-b2c8-445dcb3c38b1"},"vehicle_type_id":"4","last_reported":1742631076,"current_range_meters":14000,"station_id":"cpo3342slgdg3j2ifvpg","pricing_plan_id":"cebpf4jnsgd1na2vs0mg"},{"bike_id":"1567a991-2479-4913-ab67-45dd75e569de","system_id":"levelo_inurba_marseille","lat":43.28707,"lon":5.399953,"is_reserved":false,"is_disabled":false,"rental_uris":{"android":"levelo://app?vid=1567a991-2479-4913-ab67-45dd75e569de","ios":"levelo://app?vid=1567a991-2479-4913-ab67-45dd75e569de"},"vehicle_type_id":"4","last_reported":1742631076,"current_range_meters":14000,"station_id":"ce4bho92rcd13ifvqh3g","pricing_plan_id":"cebpf4jnsgd1na2vs0mg"},{"bike_id":"5e34eb53-9d9c-495d-89e2-d44a54c11040","system_id":"levelo_inurba_marseille","lat":43.2668,"lon":5.38271,"is_reserved":false,"is_disabled":false,"rental_uris":{"android":"levelo://app?vid=5e34eb53-9d9c-495d-89e2-d44a54c11040","ios":"levelo://app?vid=5e34eb53-9d9c-495d-89e2-d44a54c11040"},"vehicle_type_id":"4","last_reported":1742631076,"current_range_meters":14000,"station_id":"ce4bhg92rcd13ifvqf90","pricing_plan_id":"cebpf4jnsgd1na2vs0mg"},{"bike_id":"809376be-0098-4ad3-aefa-db1e36eaf597","system_id":"levelo_inurba_marseille","lat":43.285731,"lon":5.394997,"is_reserved":false,"is_disabled":false,"rental_uris":{"android":"levelo://app?vid=809376be-0098-4ad3-aefa-db1e36eaf597","ios":"levelo://app?vid=809376be-0098-4ad3-aefa-db1e36eaf597"},"vehicle_type_id":"4","last_reported":1742631076,"current_range_meters":14400,"station_id":"ce4bh292rcd13ifvqdg0","pricing_plan_id":"cebpf4jnsgd1na2vs0mg"},{"bike_id":"ed96271e-a38e-4901-a06d-2dd1d18cbb0f","system_id":"levelo_inurba_marseille","lat":43.28419,"lon":5.37533,"is_reserved":false,"is_disabled":false,"rental_uris":{"android":"levelo://app?vid=ed96271e-a38e-4901-a06d-2dd1d18cbb0f","ios":"levelo://app?vid=ed96271e-a38e-4901-a06d-2dd1d18cbb0f"},"vehicle_type_id":"4","last_reported":1742631076,"current_range_meters":14400,"station_id":"ce4bh412rcd13ifvqds0","pricing_plan_id":"cebpf4jnsgd1na2vs0mg"},{"bike_id":"2032e81a-8d24-4036-9cc6-bf67698b8322","system_id":"levelo_inurba_marseille","lat":43.24172,"lon":5.39741,"is_reserved":false,"is_disabled":false,"rental_uris":{"android":"levelo://app?vid=2032e81a-8d24-4036-9cc6-bf67698b8322","ios":"levelo://app?vid=2032e81a-8d24-4036-9cc6-bf67698b8322"},"vehicle_type_id":"4","last_reported":1742631076,"current_range_meters":14400,"station_id":"ce4bhn12rcd13ifvqgpg","pricing_plan_id":"cebpf4jnsgd1na2vs0mg"},{"bike_id":"197aa03b-f9fe-47bd-8e8f-95fc973cbcec","system_id":"levelo_inurba_marseille","lat":43.28272,"lon":5.35072,"is_reserved":false,"is_disabled":true,"rental_uris":{"android":"levelo://app?vid=197aa03b-f9fe-47bd-8e8f-95fc973cbcec","ios":"levelo://app?vid=197aa03b-f9fe-47bd-8e8f-95fc973cbcec"},"vehicle_type_id":"4","last_reported":1742631076,"current_range_meters":14400,"station_id":"ce4bhbp2rcd13ifvqerg","pricing_plan_id":"cebpf4jnsgd1na2vs0mg"},{"bike_id":"dbcf1deb-51ea-4fac-a962-d2d34078cdda","system_id":"levelo_inurba_marseille","lat":43.24067,"lon":5.37733,"is_reserved":false,"is_disabled":false,"rental_uris":{"android":"levelo://app?vid=dbcf1deb-51ea-4fac-a962-d2d34078cdda","ios":"levelo://app?vid=dbcf1deb-51ea-4fac-a962-d2d34078cdda"},"vehicle_type_id":"4","last_reported":1742631076,"current_range_meters":14800,"station_id":"ce4bhnp2rcd13ifvqgvg","pricing_plan_id":"cebpf4jnsgd1na2vs0mg"},{"bike_id":"ea1e7d13-05e7-4114-bc1e-60ebf95097f4","system_id":"levelo_inurba_marseille","lat":43.24094,"lon":5.3776,"is_reserved":false,"is_disabled":false,"rental_uris":{"android":"levelo://app?vid=ea1e7d13-05e7-4114-bc1e-60ebf95097f4","ios":"levelo://app?vid=ea1e7d13-05e7-4114-bc1e-60ebf95097f4"},"vehicle_type_id":"4","last_reported":1742631076,"current_range_meters":14800,"station_id":"ce4bhnp2rcd13ifvqgvg","pricing_plan_id":"cebpf4jnsgd1na2vs0mg"},{"bike_id":"903bdf70-8c6a-4d63-ab2e-e6cbeda1ea44","system_id":"levelo_inurba_marseille","lat":43.26215,"lon":5.37443,"is_reserved":false,"is_disabled":false,"rental_uris":{"android":"levelo://app?vid=903bdf70-8c6a-4d63-ab2e-e6cbeda1ea44","ios":"levelo://app?vid=903bdf70-8c6a-4d63-ab2e-e6cbeda1ea44"},"vehicle_type_id":"4","last_reported":1742631076,"current_range_meters":14800,"station_id":"ce4bhgp2rcd13ifvqfc0","pricing_plan_id":"cebpf4jnsgd1na2vs0mg"},{"bike_id":"ae934d14-0940-4d78-8ef5-52b2c68ea018","system_id":"levelo_inurba_marseille","lat":43.29962,"lon":5.37186,"is_reserved":false,"is_disabled":false,"rental_uris":{"android":"levelo://app?vid=ae934d14-0940-4d78-8ef5-52b2c68ea018","ios":"levelo://app?vid=ae934d14-0940-4d78-8ef5-52b2c68ea018"},"vehicle_type_id":"4","last_reported":1742631076,"current_range_meters":14800,"station_id":"ce4bgr92rcd13ifvqc7g","pricing_plan_id":"cebpf4jnsgd1na2vs0mg"},{"bike_id":"4fcd5aa8-47a6-47e0-acf8-4669a5d049c7","system_id":"levelo_inurba_marseille","lat":43.32371,"lon":5.38921,"is_reserved":false,"is_disabled":false,"rental_uris":{"android":"levelo://app?vid=4fcd5aa8-47a6-47e0-acf8-4669a5d049c7","ios":"levelo://app?vid=4fcd5aa8-47a6-47e0-acf8-4669a5d049c7"},"vehicle_type_id":"4","last_reported":1742631076,"current_range_meters":14800,"station_id":"ce4bhqp2rcd13ifvqhog","pricing_plan_id":"cebpf4jnsgd1na2vs0mg"},{"bike_id":"1398bab9-310a-4d9f-b774-3cec44efaec1","system_id":"levelo_inurba_marseille","lat":43.27619,"lon":5.3612,"is_reserved":false,"is_disabled":false,"rental_uris":{"android":"levelo://app?vid=1398bab9-310a-4d9f-b774-3cec44efaec1","ios":"levelo://app?vid=1398bab9-310a-4d9f-b774-3cec44efaec1"},"vehicle_type_id":"4","last_reported":1742631076,"current_range_meters":14800,"station_id":"ce4bgj92rcd13ifvqbe0","pricing_plan_id":"cebpf4jnsgd1na2vs0mg"},{"bike_id":"8682048b-22d3-4d81-b8c1-fb4c78459528","system_id":"levelo_inurba_marseille","lat":43.3266,"lon":5.40988,"is_reserved":false,"is_disabled":false,"rental_uris":{"android":"levelo://app?vid=8682048b-22d3-4d81-b8c1-fb4c78459528","ios":"levelo://app?vid=8682048b-22d3-4d81-b8c1-fb4c78459528"},"vehicle_type_id":"4","last_reported":1742631076,"current_range_meters":15200,"station_id":"ce4bhpp2rcd13ifvqhgg","pricing_plan_id":"cebpf4jnsgd1na2vs0mg"},{"bike_id":"041746e8-f612-4f02-ba2c-e784ef31f6c4","system_id":"levelo_inurba_marseille","lat":43.23156,"lon":5.43723,"is_reserved":false,"is_disabled":false,"rental_uris":{"android":"levelo://app?vid=041746e8-f612-4f02-ba2c-e784ef31f6c4","ios":"levelo://app?vid=041746e8-f612-4f02-ba2c-e784ef31f6c4"},"vehicle_type_id":"4","last_reported":1742631076,"current_range_meters":15200,"station_id":"ce4bhmp2rcd13ifvqgog","pricing_plan_id":"cebpf4jnsgd1na2vs0mg"},{"bike_id":"7e74b698-9062-469b-b8c2-03653df17d53","system_id":"levelo_inurba_marseille","lat":43.30875,"lon":5.39639,"is_reserved":false,"is_disabled":false,"rental_uris":{"android":"levelo://app?vid=7e74b698-9062-469b-b8c2-03653df17d53","ios":"levelo://app?vid=7e74b698-9062-469b-b8c2-03653df17d53"},"vehicle_type_id":"4","last_reported":1742631076,"current_range_meters":15200,"station_id":"ce4bh012rcd13ifvqcv0","pricing_plan_id":"cebpf4jnsgd1na2vs0mg"},{"bike_id":"d9d90e28-0cde-498e-9e49-e2278f18bc23","system_id":"levelo_inurba_marseille","lat":43.32377,"lon":5.38882,"is_reserved":false,"is_disabled":false,"rental_uris":{"android":"levelo://app?vid=d9d90e28-0cde-498e-9e49-e2278f18bc23","ios":"levelo://app?vid=d9d90e28-0cde-498e-9e49-e2278f18bc23"},"vehicle_type_id":"4","last_reported":1742631076,"current_range_meters":15200,"station_id":"ce4bhqp2rcd13ifvqhog","pricing_plan_id":"cebpf4jnsgd1na2vs0mg"},{"bike_id":"d742c3ff-c1c9-4e36-b458-939313d82a16","system_id":"levelo_inurba_marseille","lat":43.311566,"lon":5.387276,"is_reserved":false,"is_disabled":false,"rental_uris":{"android":"levelo://app?vid=d742c3ff-c1c9-4e36-b458-939313d82a16","ios":"levelo://app?vid=d742c3ff-c1c9-4e36-b458-939313d82a16"},"vehicle_type_id":"4","last_reported":1742631076,"current_range_meters":16000,"station_id":"ce4bgv12rcd13ifvqcp0","pricing_plan_id":"cebpf4jnsgd1na2vs0mg"},{"bike_id":"acd9ce7b-e08a-4222-a322-17f186f8fa7c","system_id":"levelo_inurba_marseille","lat":43.30415,"lon":5.41295,"is_reserved":false,"is_disabled":false,"rental_uris":{"android":"levelo://app?vid=acd9ce7b-e08a-4222-a322-17f186f8fa7c","ios":"levelo://app?vid=acd9ce7b-e08a-4222-a322-17f186f8fa7c"},"vehicle_type_id":"4","last_reported":1742631076,"current_range_meters":16000,"station_id":"ce4bhop2rcd13ifvqh8g","pricing_plan_id":"cebpf4jnsgd1na2vs0mg"},{"bike_id":"40610ec6-60fc-4608-8143-26a5f162cf96","system_id":"levelo_inurba_marseille","lat":43.29285,"lon":5.38431,"is_reserved":false,"is_disabled":true,"rental_uris":{"android":"levelo://app?vid=40610ec6-60fc-4608-8143-26a5f162cf96","ios":"levelo://app?vid=40610ec6-60fc-4608-8143-26a5f162cf96"},"vehicle_type_id":"4","last_reported":1742631076,"current_range_meters":16000,"station_id":"ce4bh692rcd13ifvqea0","pricing_plan_id":"cebpf4jnsgd1na2vs0mg"},{"bike_id":"74ddf199-cbb7-435c-9a3b-aa4e02155a37","system_id":"levelo_inurba_marseille","lat":43.28708,"lon":5.3998,"is_reserved":false,"is_disabled":false,"rental_uris":{"android":"levelo://app?vid=74ddf199-cbb7-435c-9a3b-aa4e02155a37","ios":"levelo://app?vid=74ddf199-cbb7-435c-9a3b-aa4e02155a37"},"vehicle_type_id":"4","last_reported":1742631076,"current_range_meters":16000,"station_id":"ce4bho92rcd13ifvqh3g","pricing_plan_id":"cebpf4jnsgd1na2vs0mg"},{"bike_id":"f5e4dcf2-47ca-4b8a-bbac-7cfdb821f964","system_id":"levelo_inurba_marseille","lat":43.27064,"lon":5.40291,"is_reserved":false,"is_disabled":false,"rental_uris":{"android":"levelo://app?vid=f5e4dcf2-47ca-4b8a-bbac-7cfdb821f964","ios":"levelo://app?vid=f5e4dcf2-47ca-4b8a-bbac-7cfdb821f964"},"vehicle_type_id":"4","last_reported":1742631076,"current_range_meters":16400,"station_id":"ce4bhk92rcd13ifvqgc0","pricing_plan_id":"cebpf4jnsgd1na2vs0mg"},{"bike_id":"80821966-5d6d-495a-8088-0da2a094dc0f","system_id":"levelo_inurba_marseille","lat":43.311184,"lon":5.37764,"is_reserved":false,"is_disabled":false,"rental_uris":{"android":"levelo://app?vid=80821966-5d6d-495a-8088-0da2a094dc0f","ios":"levelo://app?vid=80821966-5d6d-495a-8088-0da2a094dc0f"},"vehicle_type_id":"4","last_reported":1742631076,"current_range_meters":16400,"station_id":"ce4bgt92rcd13ifvqcg0","pricing_plan_id":"cebpf4jnsgd1na2vs0mg"},{"bike_id":"6375c293-c2e0-4f03-a459-7d98791f0760","system_id":"levelo_inurba_marseille","lat":43.26211,"lon":5.37444,"is_reserved":false,"is_disabled":false,"rental_uris":{"android":"levelo://app?vid=6375c293-c2e0-4f03-a459-7d98791f0760","ios":"levelo://app?vid=6375c293-c2e0-4f03-a459-7d98791f0760"},"vehicle_type_id":"4","last_reported":1742631076,"current_range_meters":16400,"station_id":"ce4bhgp2rcd13ifvqfc0","pricing_plan_id":"cebpf4jnsgd1na2vs0mg"},{"bike_id":"a45675f0-a9d2-45b2-b4e6-10c4ec0e1b4c","system_id":"levelo_inurba_marseille","lat":43.26209,"lon":5.37443,"is_reserved":false,"is_disabled":false,"rental_uris":{"android":"levelo://app?vid=a45675f0-a9d2-45b2-b4e6-10c4ec0e1b4c","ios":"levelo://app?vid=a45675f0-a9d2-45b2-b4e6-10c4ec0e1b4c"},"vehicle_type_id":"4","last_reported":1742631076,"current_range_meters":16400,"station_id":"ce4bhgp2rcd13ifvqfc0","pricing_plan_id":"cebpf4jnsgd1na2vs0mg"},{"bike_id":"51efc858-ceb2-498b-8fea-cb7c720e7129","system_id":"levelo_inurba_marseille","lat":43.32669,"lon":5.40995,"is_reserved":false,"is_disabled":false,"rental_uris":{"android":"levelo://app?vid=51efc858-ceb2-498b-8fea-cb7c720e7129","ios":"levelo://app?vid=51efc858-ceb2-498b-8fea-cb7c720e7129"},"vehicle_type_id":"4","last_reported":1742631076,"current_range_meters":16400,"station_id":"ce4bhpp2rcd13ifvqhgg","pricing_plan_id":"cebpf4jnsgd1na2vs0mg"},{"bike_id":"751ff1ed-b498-4578-9bd4-943bf6c9d8eb","system_id":"levelo_inurba_marseille","lat":43.23207,"lon":5.35566,"is_reserved":false,"is_disabled":false,"rental_uris":{"android":"levelo://app?vid=751ff1ed-b498-4578-9bd4-943bf6c9d8eb","ios":"levelo://app?vid=751ff1ed-b498-4578-9bd4-943bf6c9d8eb"},"vehicle_type_id":"4","last_reported":1742631076,"current_range_meters":16400,"station_id":"ce4bhu92rcd13ifvqi70","pricing_plan_id":"cebpf4jnsgd1na2vs0mg"},{"bike_id":"d8878601-3ef9-4b69-ae9e-1dde88f059ac","system_id":"levelo_inurba_marseille","lat":43.24171,"lon":5.36408,"is_reserved":false,"is_disabled":false,"rental_uris":{"android":"levelo://app?vid=d8878601-3ef9-4b69-ae9e-1dde88f059ac","ios":"levelo://app?vid=d8878601-3ef9-4b69-ae9e-1dde88f059ac"},"vehicle_type_id":"4","last_reported":1742631076,"current_range_meters":16400,"station_id":"cpo36qri1sfpv3e86is0","pricing_plan_id":"cebpf4jnsgd1na2vs0mg"},{"bike_id":"3f2cc47c-9819-46f0-b7be-a06e1c7f9558","system_id":"levelo_inurba_marseille","lat":43.31077,"lon":5.38378,"is_reserved":false,"is_disabled":false,"rental_uris":{"android":"levelo://app?vid=3f2cc47c-9819-46f0-b7be-a06e1c7f9558","ios":"levelo://app?vid=3f2cc47c-9819-46f0-b7be-a06e1c7f9558"},"vehicle_type_id":"4","last_reported":1742631076,"current_range_meters":16400,"station_id":"ce4bgv92rcd13ifvqcr0","pricing_plan_id":"cebpf4jnsgd1na2vs0mg"},{"bike_id":"a7c269ac-750b-4e61-a0a4-f774b818338f","system_id":"levelo_inurba_marseille","lat":43.280789,"lon":5.396635,"is_reserved":false,"is_disabled":false,"rental_uris":{"android":"levelo://app?vid=a7c269ac-750b-4e61-a0a4-f774b818338f","ios":"levelo://app?vid=a7c269ac-750b-4e61-a0a4-f774b818338f"},"vehicle_type_id":"4","last_reported":1742631076,"current_range_meters":16400,"station_id":"ce4bho12rcd13ifvqh2g","pricing_plan_id":"cebpf4jnsgd1na2vs0mg"},{"bike_id":"d954b141-3cee-4de0-9c29-d5babd11cd82","system_id":"levelo_inurba_marseille","lat":43.25107,"lon":5.39564,"is_reserved":false,"is_disabled":false,"rental_uris":{"android":"levelo://app?vid=d954b141-3cee-4de0-9c29-d5babd11cd82","ios":"levelo://app?vid=d954b141-3cee-4de0-9c29-d5babd11cd82"},"vehicle_type_id":"4","last_reported":1742631076,"current_range_meters":16400,"station_id":"ce4bhm12rcd13ifvqgkg","pricing_plan_id":"cebpf4jnsgd1na2vs0mg"},{"bike_id":"55291167-08e0-4ca8-a11c-62a68fd8acbd","system_id":"levelo_inurba_marseille","lat":43.2318,"lon":5.39987,"is_reserved":false,"is_disabled":false,"rental_uris":{"android":"levelo://app?vid=55291167-08e0-4ca8-a11c-62a68fd8acbd","ios":"levelo://app?vid=55291167-08e0-4ca8-a11c-62a68fd8acbd"},"vehicle_type_id":"4","last_reported":1742631076,"current_range_meters":16400,"station_id":"ce4bhn12rcd13ifvqgqg","pricing_plan_id":"cebpf4jnsgd1na2vs0mg"},{"bike_id":"05196e82-2b3b-46d7-ab3e-37cd98e7884a","system_id":"levelo_inurba_marseille","lat":43.32653,"lon":5.41004,"is_reserved":false,"is_disabled":false,"rental_uris":{"android":"levelo://app?vid=05196e82-2b3b-46d7-ab3e-37cd98e7884a","ios":"levelo://app?vid=05196e82-2b3b-46d7-ab3e-37cd98e7884a"},"vehicle_type_id":"4","last_reported":1742631076,"current_range_meters":16800,"station_id":"ce4bhpp2rcd13ifvqhgg","pricing_plan_id":"cebpf4jnsgd1na2vs0mg"},{"bike_id":"52088e19-d68b-45c5-ba39-83046f2d47b2","system_id":"levelo_inurba_marseille","lat":43.23198,"lon":5.35572,"is_reserved":false,"is_disabled":false,"rental_uris":{"android":"levelo://app?vid=52088e19-d68b-45c5-ba39-83046f2d47b2","ios":"levelo://app?vid=52088e19-d68b-45c5-ba39-83046f2d47b2"},"vehicle_type_id":"4","last_reported":1742631076,"current_range_meters":16800,"station_id":"ce4bhu92rcd13ifvqi70","pricing_plan_id":"cebpf4jnsgd1na2vs0mg"},{"bike_id":"eb3655ae-c633-4163-b5c6-d3529a9e5c8d","system_id":"levelo_inurba_marseille","lat":43.262169,"lon":5.404443,"is_reserved":false,"is_disabled":false,"rental_uris":{"android":"levelo://app?vid=eb3655ae-c633-4163-b5c6-d3529a9e5c8d","ios":"levelo://app?vid=eb3655ae-c633-4163-b5c6-d3529a9e5c8d"},"vehicle_type_id":"4","last_reported":1742631076,"current_range_meters":16800,"station_id":"ce4bhl12rcd13ifvqgf0","pricing_plan_id":"cebpf4jnsgd1na2vs0mg"},{"bike_id":"07541760-82c4-4d38-b58c-85ffff07e965","system_id":"levelo_inurba_marseille","lat":43.239583,"lon":5.366286,"is_reserved":false,"is_disabled":false,"rental_uris":{"android":"levelo://app?vid=07541760-82c4-4d38-b58c-85ffff07e965","ios":"levelo://app?vid=07541760-82c4-4d38-b58c-85ffff07e965"},"vehicle_type_id":"4","last_reported":1742631076,"current_range_meters":16800,"station_id":"ce4bhi12rcd13ifvqfp0","pricing_plan_id":"cebpf4jnsgd1na2vs0mg"},{"bike_id":"3c09e4d7-7270-409a-85c9-9f040663ba57","system_id":"levelo_inurba_marseille","lat":43.29797,"lon":5.40413,"is_reserved":false,"is_disabled":false,"rental_uris":{"android":"levelo://app?vid=3c09e4d7-7270-409a-85c9-9f040663ba57","ios":"levelo://app?vid=3c09e4d7-7270-409a-85c9-9f040663ba57"},"vehicle_type_id":"4","last_reported":1742631076,"current_range_meters":16800,"station_id":"ce4bh112rcd13ifvqd90","pricing_plan_id":"cebpf4jnsgd1na2vs0mg"},{"bike_id":"0439abab-9ca1-475b-90f6-14b9d18f25b7","system_id":"levelo_inurba_marseille","lat":43.29192,"lon":5.35813,"is_reserved":false,"is_disabled":false,"rental_uris":{"android":"levelo://app?vid=0439abab-9ca1-475b-90f6-14b9d18f25b7","ios":"levelo://app?vid=0439abab-9ca1-475b-90f6-14b9d18f25b7"},"vehicle_type_id":"4","last_reported":1742631076,"current_range_meters":16800,"station_id":"ce4bhb12rcd13ifvqel0","pricing_plan_id":"cebpf4jnsgd1na2vs0mg"},{"bike_id":"c9ee1970-ab6e-4ee9-81df-65a9160325a6","system_id":"levelo_inurba_marseille","lat":43.30658,"lon":5.40076,"is_reserved":false,"is_disabled":false,"rental_uris":{"android":"levelo://app?vid=c9ee1970-ab6e-4ee9-81df-65a9160325a6","ios":"levelo://app?vid=c9ee1970-ab6e-4ee9-81df-65a9160325a6"},"vehicle_type_id":"4","last_reported":1742631076,"current_range_meters":17200,"station_id":"ce4bh112rcd13ifvqda0","pricing_plan_id":"cebpf4jnsgd1na2vs0mg"},{"bike_id":"2d3e8fa9-79fe-4558-9df7-a4a8a9cb50ec","system_id":"levelo_inurba_marseille","lat":43.288478,"lon":5.393128,"is_reserved":false,"is_disabled":false,"rental_uris":{"android":"levelo://app?vid=2d3e8fa9-79fe-4558-9df7-a4a8a9cb50ec","ios":"levelo://app?vid=2d3e8fa9-79fe-4558-9df7-a4a8a9cb50ec"},"vehicle_type_id":"4","last_reported":1742631076,"current_range_meters":17200,"station_id":"ce4bhi12rcd13ifvqfp0","pricing_plan_id":"cebpf4jnsgd1na2vs0mg"},{"bike_id":"119746cd-ba8d-4fce-9b20-0d0739912945","system_id":"levelo_inurba_marseille","lat":43.31697,"lon":5.40457,"is_reserved":false,"is_disabled":false,"rental_uris":{"android":"levelo://app?vid=119746cd-ba8d-4fce-9b20-0d0739912945","ios":"levelo://app?vid=119746cd-ba8d-4fce-9b20-0d0739912945"},"vehicle_type_id":"4","last_reported":1742631076,"current_range_meters":17200,"station_id":"ce4bh012rcd13ifvqd00","pricing_plan_id":"cebpf4jnsgd1na2vs0mg"},{"bike_id":"5d4cc92c-eafe-478c-8820-ef016b1e9d02","system_id":"levelo_inurba_marseille","lat":43.29913,"lon":5.43668,"is_reserved":false,"is_disabled":false,"rental_uris":{"android":"levelo://app?vid=5d4cc92c-eafe-478c-8820-ef016b1e9d02","ios":"levelo://app?vid=5d4cc92c-eafe-478c-8820-ef016b1e9d02"},"vehicle_type_id":"4","last_reported":1742631076,"current_range_meters":17200,"station_id":"ce4bhpp2rcd13ifvqhfg","pricing_plan_id":"cebpf4jnsgd1na2vs0mg"},{"bike_id":"a21909c0-65f5-4776-a525-d126942053b6","system_id":"levelo_inurba_marseille","lat":43.30377,"lon":5.42488,"is_reserved":false,"is_disabled":false,"rental_uris":{"android":"levelo://app?vid=a21909c0-65f5-4776-a525-d126942053b6","ios":"levelo://app?vid=a21909c0-65f5-4776-a525-d126942053b6"},"vehicle_type_id":"4","last_reported":1742631076,"current_range_meters":17200,"station_id":"ce4bhoh2rcd13ifvqh6g","pricing_plan_id":"cebpf4jnsgd1na2vs0mg"},{"bike_id":"45ecd364-66b9-420e-ba2e-73f5d61b1ecb","system_id":"levelo_inurba_marseille","lat":43.28136,"lon":5.37995,"is_reserved":false,"is_disabled":false,"rental_uris":{"android":"levelo://app?vid=45ecd364-66b9-420e-ba2e-73f5d61b1ecb","ios":"levelo://app?vid=45ecd364-66b9-420e-ba2e-73f5d61b1ecb"},"vehicle_type_id":"4","last_reported":1742631076,"current_range_meters":17200,"station_id":"","pricing_plan_id":"cebpf4jnsgd1na2vs0mg"},{"bike_id":"1fee47b5-fab4-4ec1-a11f-e919827cdddc","system_id":"levelo_inurba_marseille","lat":43.323566,"lon":5.367575,"is_reserved":false,"is_disabled":false,"rental_uris":{"android":"levelo://app?vid=1fee47b5-fab4-4ec1-a11f-e919827cdddc","ios":"levelo://app?vid=1fee47b5-fab4-4ec1-a11f-e919827cdddc"},"vehicle_type_id":"4","last_reported":1742631076,"current_range_meters":17200,"station_id":"ce4bhsh2rcd13ifvqi2g","pricing_plan_id":"cebpf4jnsgd1na2vs0mg"},{"bike_id":"bb07aafb-b17f-4baa-b109-1a38523b383a","system_id":"levelo_inurba_marseille","lat":43.23969,"lon":5.36629,"is_reserved":false,"is_disabled":false,"rental_uris":{"android":"levelo://app?vid=bb07aafb-b17f-4baa-b109-1a38523b383a","ios":"levelo://app?vid=bb07aafb-b17f-4baa-b109-1a38523b383a"},"vehicle_type_id":"4","last_reported":1742631076,"current_range_meters":17200,"station_id":"ce4bhi12rcd13ifvqfp0","pricing_plan_id":"cebpf4jnsgd1na2vs0mg"},{"bike_id":"31fe552e-0bc5-4a84-8ad9-3e84eee8821f","system_id":"levelo_inurba_marseille","lat":43.32382,"lon":5.36794,"is_reserved":false,"is_disabled":false,"rental_uris":{"android":"levelo://app?vid=31fe552e-0bc5-4a84-8ad9-3e84eee8821f","ios":"levelo://app?vid=31fe552e-0bc5-4a84-8ad9-3e84eee8821f"},"vehicle_type_id":"4","last_reported":1742631076,"current_range_meters":17200,"station_id":"ce4bhsh2rcd13ifvqi2g","pricing_plan_id":"cebpf4jnsgd1na2vs0mg"},{"bike_id":"f5e67df2-634b-4b3a-b33a-d1730d5d5b54","system_id":"levelo_inurba_marseille","lat":43.3373,"lon":5.39187,"is_reserved":false,"is_disabled":false,"rental_uris":{"android":"levelo://app?vid=f5e67df2-634b-4b3a-b33a-d1730d5d5b54","ios":"levelo://app?vid=f5e67df2-634b-4b3a-b33a-d1730d5d5b54"},"vehicle_type_id":"4","last_reported":1742631076,"current_range_meters":17200,"station_id":"ce4bhr92rcd13ifvqhsg","pricing_plan_id":"cebpf4jnsgd1na2vs0mg"},{"bike_id":"7acd2d17-0b93-4578-b8b7-3ab0540e9541","system_id":"levelo_inurba_marseille","lat":43.284121,"lon":5.349847,"is_reserved":false,"is_disabled":false,"rental_uris":{"android":"levelo://app?vid=7acd2d17-0b93-4578-b8b7-3ab0540e9541","ios":"levelo://app?vid=7acd2d17-0b93-4578-b8b7-3ab0540e9541"},"vehicle_type_id":"4","last_reported":1742631076,"current_range_meters":17600,"station_id":"ce4bhbh2rcd13ifvqepg","pricing_plan_id":"cebpf4jnsgd1na2vs0mg"},{"bike_id":"325ff059-6a60-4fb4-8264-76862d40767a","system_id":"levelo_inurba_marseille","lat":43.30131,"lon":5.39869,"is_reserved":false,"is_disabled":false,"rental_uris":{"android":"levelo://app?vid=325ff059-6a60-4fb4-8264-76862d40767a","ios":"levelo://app?vid=325ff059-6a60-4fb4-8264-76862d40767a"},"vehicle_type_id":"4","last_reported":1742631076,"current_range_meters":19600,"station_id":"ce4bh0h2rcd13ifvqd40","pricing_plan_id":"cebpf4jnsgd1na2vs0mg"},{"bike_id":"f582a2bc-f706-4f9f-bd31-f999d763dc60","system_id":"levelo_inurba_marseille","lat":43.26195,"lon":5.3745,"is_reserved":false,"is_disabled":false,"rental_uris":{"android":"levelo://app?vid=f582a2bc-f706-4f9f-bd31-f999d763dc60","ios":"levelo://app?vid=f582a2bc-f706-4f9f-bd31-f999d763dc60"},"vehicle_type_id":"4","last_reported":1742631076,"current_range_meters":17600,"station_id":"ce4bhgp2rcd13ifvqfc0","pricing_plan_id":"cebpf4jnsgd1na2vs0mg"},{"bike_id":"9a7ec10b-1f1c-4bbb-967e-f05c8541ba06","system_id":"levelo_inurba_marseille","lat":43.249981,"lon":5.389429,"is_reserved":false,"is_disabled":false,"rental_uris":{"android":"levelo://app?vid=9a7ec10b-1f1c-4bbb-967e-f05c8541ba06","ios":"levelo://app?vid=9a7ec10b-1f1c-4bbb-967e-f05c8541ba06"},"vehicle_type_id":"4","last_reported":1742631076,"current_range_meters":17600,"station_id":"ce4bhgp2rcd13ifvqfd0","pricing_plan_id":"cebpf4jnsgd1na2vs0mg"},{"bike_id":"1fe5cb99-5011-4c81-a0ae-a6133b569728","system_id":"levelo_inurba_marseille","lat":43.25586,"lon":5.38244,"is_reserved":false,"is_disabled":false,"rental_uris":{"android":"levelo://app?vid=1fe5cb99-5011-4c81-a0ae-a6133b569728","ios":"levelo://app?vid=1fe5cb99-5011-4c81-a0ae-a6133b569728"},"vehicle_type_id":"4","last_reported":1742631076,"current_range_meters":19200,"station_id":"ce4bhih2rcd13ifvqfs0","pricing_plan_id":"cebpf4jnsgd1na2vs0mg"},{"bike_id":"59c2a742-4ef0-462a-ad11-4cfc56700ee0","system_id":"levelo_inurba_marseille","lat":43.31076,"lon":5.38349,"is_reserved":false,"is_disabled":false,"rental_uris":{"android":"levelo://app?vid=59c2a742-4ef0-462a-ad11-4cfc56700ee0","ios":"levelo://app?vid=59c2a742-4ef0-462a-ad11-4cfc56700ee0"},"vehicle_type_id":"4","last_reported":1742631076,"current_range_meters":17600,"station_id":"ce4bgv92rcd13ifvqcr0","pricing_plan_id":"cebpf4jnsgd1na2vs0mg"},{"bike_id":"f49862f9-af23-4ed6-92be-c6db642be6a4","system_id":"levelo_inurba_marseille","lat":43.24559,"lon":5.3953,"is_reserved":false,"is_disabled":false,"rental_uris":{"android":"levelo://app?vid=f49862f9-af23-4ed6-92be-c6db642be6a4","ios":"levelo://app?vid=f49862f9-af23-4ed6-92be-c6db642be6a4"},"vehicle_type_id":"4","last_reported":1742631076,"current_range_meters":17600,"station_id":"ce4bhlp2rcd13ifvqgjg","pricing_plan_id":"cebpf4jnsgd1na2vs0mg"},{"bike_id":"b607f5ed-5a36-4fcf-a5a9-6754ca255072","system_id":"levelo_inurba_marseille","lat":43.248514,"lon":5.374816,"is_reserved":false,"is_disabled":false,"rental_uris":{"android":"levelo://app?vid=b607f5ed-5a36-4fcf-a5a9-6754ca255072","ios":"levelo://app?vid=b607f5ed-5a36-4fcf-a5a9-6754ca255072"},"vehicle_type_id":"4","last_reported":1742631076,"current_range_meters":19200,"station_id":"ce4bhhh2rcd13ifvqfk0","pricing_plan_id":"cebpf4jnsgd1na2vs0mg"},{"bike_id":"953e2647-8119-4344-8e9b-4559e661859a","system_id":"levelo_inurba_marseille","lat":43.23193,"lon":5.35573,"is_reserved":false,"is_disabled":true,"rental_uris":{"android":"levelo://app?vid=953e2647-8119-4344-8e9b-4559e661859a","ios":"levelo://app?vid=953e2647-8119-4344-8e9b-4559e661859a"},"vehicle_type_id":"4","last_reported":1742631076,"current_range_meters":17600,"station_id":"ce4bhu92rcd13ifvqi70","pricing_plan_id":"cebpf4jnsgd1na2vs0mg"},{"bike_id":"f657da43-9a05-4822-9c77-ad8671579423","system_id":"levelo_inurba_marseille","lat":43.295663,"lon":5.399701,"is_reserved":false,"is_disabled":true,"rental_uris":{"android":"levelo://app?vid=f657da43-9a05-4822-9c77-ad8671579423","ios":"levelo://app?vid=f657da43-9a05-4822-9c77-ad8671579423"},"vehicle_type_id":"4","last_reported":1742631076,"current_range_meters":17600,"station_id":"ce4bh312rcd13ifvqdj0","pricing_plan_id":"cebpf4jnsgd1na2vs0mg"},{"bike_id":"e7f36315-33b7-4281-a35b-834987bb0230","system_id":"levelo_inurba_marseille","lat":43.29576,"lon":5.37526,"is_reserved":false,"is_disabled":true,"rental_uris":{"android":"levelo://app?vid=e7f36315-33b7-4281-a35b-834987bb0230","ios":"levelo://app?vid=e7f36315-33b7-4281-a35b-834987bb0230"},"vehicle_type_id":"4","last_reported":1742631076,"current_range_meters":17600,"station_id":"ce4bgh92rcd13ifvqb50","pricing_plan_id":"cebpf4jnsgd1na2vs0mg"},{"bike_id":"f8ff41b7-94c3-4164-990c-0c31908da696","system_id":"levelo_inurba_marseille","lat":43.230561,"lon":5.355006,"is_reserved":false,"is_disabled":false,"rental_uris":{"android":"levelo://app?vid=f8ff41b7-94c3-4164-990c-0c31908da696","ios":"levelo://app?vid=f8ff41b7-94c3-4164-990c-0c31908da696"},"vehicle_type_id":"4","last_reported":1742631076,"current_range_meters":17600,"station_id":"cpo3342slgdg3j2ifvpg","pricing_plan_id":"cebpf4jnsgd1na2vs0mg"},{"bike_id":"b67b46e5-14da-44ee-814f-caa0aaa0b04e","system_id":"levelo_inurba_marseille","lat":43.28434,"lon":5.37533,"is_reserved":false,"is_disabled":true,"rental_uris":{"android":"levelo://app?vid=b67b46e5-14da-44ee-814f-caa0aaa0b04e","ios":"levelo://app?vid=b67b46e5-14da-44ee-814f-caa0aaa0b04e"},"vehicle_type_id":"4","last_reported":1742631076,"current_range_meters":18000,"station_id":"ce4bh412rcd13ifvqds0","pricing_plan_id":"cebpf4jnsgd1na2vs0mg"},{"bike_id":"5f057e05-88ef-43f2-a315-beafe07070d0","system_id":"levelo_inurba_marseille","lat":43.2319,"lon":5.3997,"is_reserved":false,"is_disabled":false,"rental_uris":{"android":"levelo://app?vid=5f057e05-88ef-43f2-a315-beafe07070d0","ios":"levelo://app?vid=5f057e05-88ef-43f2-a315-beafe07070d0"},"vehicle_type_id":"4","last_reported":1742631076,"current_range_meters":18000,"station_id":"ce4bhn12rcd13ifvqgqg","pricing_plan_id":"cebpf4jnsgd1na2vs0mg"},{"bike_id":"74fb2c25-b559-4097-afb2-e744d38f3e0f","system_id":"levelo_inurba_marseille","lat":43.30583,"lon":5.39345,"is_reserved":false,"is_disabled":false,"rental_uris":{"android":"levelo://app?vid=74fb2c25-b559-4097-afb2-e744d38f3e0f","ios":"levelo://app?vid=74fb2c25-b559-4097-afb2-e744d38f3e0f"},"vehicle_type_id":"4","last_reported":1742631076,"current_range_meters":18000,"station_id":"ce4bh0p2rcd13ifvqd80","pricing_plan_id":"cebpf4jnsgd1na2vs0mg"},{"bike_id":"185fbe3b-beec-4e8d-a0fb-f3a643549f5b","system_id":"levelo_inurba_marseille","lat":43.31668,"lon":5.37178,"is_reserved":false,"is_disabled":false,"rental_uris":{"android":"levelo://app?vid=185fbe3b-beec-4e8d-a0fb-f3a643549f5b","ios":"levelo://app?vid=185fbe3b-beec-4e8d-a0fb-f3a643549f5b"},"vehicle_type_id":"4","last_reported":1742631076,"current_range_meters":18000,"station_id":"","pricing_plan_id":"cebpf4jnsgd1na2vs0mg"},{"bike_id":"cd897869-d51d-467c-9826-c044773d3f8c","system_id":"levelo_inurba_marseille","lat":43.24173,"lon":5.36408,"is_reserved":false,"is_disabled":false,"rental_uris":{"android":"levelo://app?vid=cd897869-d51d-467c-9826-c044773d3f8c","ios":"levelo://app?vid=cd897869-d51d-467c-9826-c044773d3f8c"},"vehicle_type_id":"4","last_reported":1742631076,"current_range_meters":18000,"station_id":"cpo36qri1sfpv3e86is0","pricing_plan_id":"cebpf4jnsgd1na2vs0mg"},{"bike_id":"2faf183a-199b-4315-9836-deaeffc5a212","system_id":"levelo_inurba_marseille","lat":43.30848,"lon":5.39653,"is_reserved":false,"is_disabled":false,"rental_uris":{"android":"levelo://app?vid=2faf183a-199b-4315-9836-deaeffc5a212","ios":"levelo://app?vid=2faf183a-199b-4315-9836-deaeffc5a212"},"vehicle_type_id":"4","last_reported":1742631076,"current_range_meters":18000,"station_id":"ce4bh012rcd13ifvqcv0","pricing_plan_id":"cebpf4jnsgd1na2vs0mg"},{"bike_id":"f6175e91-3d60-43e2-bdd5-1d2f2a679c3c","system_id":"levelo_inurba_marseille","lat":43.26213,"lon":5.37441,"is_reserved":false,"is_disabled":false,"rental_uris":{"android":"levelo://app?vid=f6175e91-3d60-43e2-bdd5-1d2f2a679c3c","ios":"levelo://app?vid=f6175e91-3d60-43e2-bdd5-1d2f2a679c3c"},"vehicle_type_id":"4","last_reported":1742631076,"current_range_meters":18000,"station_id":"ce4bhgp2rcd13ifvqfc0","pricing_plan_id":"cebpf4jnsgd1na2vs0mg"},{"bike_id":"b0a5658e-5fd2-420a-baa8-2d7bfd0cc728","system_id":"levelo_inurba_marseille","lat":43.310772,"lon":5.383545,"is_reserved":false,"is_disabled":false,"rental_uris":{"android":"levelo://app?vid=b0a5658e-5fd2-420a-baa8-2d7bfd0cc728","ios":"levelo://app?vid=b0a5658e-5fd2-420a-baa8-2d7bfd0cc728"},"vehicle_type_id":"4","last_reported":1742631076,"current_range_meters":18000,"station_id":"ce4bgv92rcd13ifvqcr0","pricing_plan_id":"cebpf4jnsgd1na2vs0mg"},{"bike_id":"086947d9-1406-4ff3-8ff7-66dc965df2cf","system_id":"levelo_inurba_marseille","lat":43.276196,"lon":5.361144,"is_reserved":false,"is_disabled":false,"rental_uris":{"android":"levelo://app?vid=086947d9-1406-4ff3-8ff7-66dc965df2cf","ios":"levelo://app?vid=086947d9-1406-4ff3-8ff7-66dc965df2cf"},"vehicle_type_id":"4","last_reported":1742631076,"current_range_meters":18000,"station_id":"ce4bgj92rcd13ifvqbe0","pricing_plan_id":"cebpf4jnsgd1na2vs0mg"},{"bike_id":"09cbdea7-cab2-4bb7-84af-1aa2a3d0c176","system_id":"levelo_inurba_marseille","lat":43.23198,"lon":5.39995,"is_reserved":false,"is_disabled":false,"rental_uris":{"android":"levelo://app?vid=09cbdea7-cab2-4bb7-84af-1aa2a3d0c176","ios":"levelo://app?vid=09cbdea7-cab2-4bb7-84af-1aa2a3d0c176"},"vehicle_type_id":"4","last_reported":1742631076,"current_range_meters":18800,"station_id":"ce4bhn12rcd13ifvqgqg","pricing_plan_id":"cebpf4jnsgd1na2vs0mg"},{"bike_id":"ae5b888c-0af6-46cf-8f1a-b27a3e176d0a","system_id":"levelo_inurba_marseille","lat":43.3015,"lon":5.38111,"is_reserved":false,"is_disabled":false,"rental_uris":{"android":"levelo://app?vid=ae5b888c-0af6-46cf-8f1a-b27a3e176d0a","ios":"levelo://app?vid=ae5b888c-0af6-46cf-8f1a-b27a3e176d0a"},"vehicle_type_id":"4","last_reported":1742631076,"current_range_meters":18800,"station_id":"ce4bgjp2rcd13ifvqbh0","pricing_plan_id":"cebpf4jnsgd1na2vs0mg"},{"bike_id":"e6ffb03c-0cff-43d6-a2aa-1ba5b3b03585","system_id":"levelo_inurba_marseille","lat":43.30811,"lon":5.38208,"is_reserved":false,"is_disabled":false,"rental_uris":{"android":"levelo://app?vid=e6ffb03c-0cff-43d6-a2aa-1ba5b3b03585","ios":"levelo://app?vid=e6ffb03c-0cff-43d6-a2aa-1ba5b3b03585"},"vehicle_type_id":"4","last_reported":1742631076,"current_range_meters":18800,"station_id":"ce4bgt12rcd13ifvqce0","pricing_plan_id":"cebpf4jnsgd1na2vs0mg"},{"bike_id":"70dd5e63-c1af-4541-93fc-654ea63484a5","system_id":"levelo_inurba_marseille","lat":43.31075,"lon":5.38365,"is_reserved":false,"is_disabled":false,"rental_uris":{"android":"levelo://app?vid=70dd5e63-c1af-4541-93fc-654ea63484a5","ios":"levelo://app?vid=70dd5e63-c1af-4541-93fc-654ea63484a5"},"vehicle_type_id":"4","last_reported":1742631076,"current_range_meters":18800,"station_id":"ce4bgv92rcd13ifvqcr0","pricing_plan_id":"cebpf4jnsgd1na2vs0mg"},{"bike_id":"61110a94-eaab-4cf5-bbab-6445ad1326c8","system_id":"levelo_inurba_marseille","lat":43.29363,"lon":5.37853,"is_reserved":false,"is_disabled":false,"rental_uris":{"android":"levelo://app?vid=61110a94-eaab-4cf5-bbab-6445ad1326c8","ios":"levelo://app?vid=61110a94-eaab-4cf5-bbab-6445ad1326c8"},"vehicle_type_id":"4","last_reported":1742631076,"current_range_meters":18800,"station_id":"ce4bgjh2rcd13ifvqbf0","pricing_plan_id":"cebpf4jnsgd1na2vs0mg"},{"bike_id":"3bfbd693-4245-4281-88bd-3df0f5f2b072","system_id":"levelo_inurba_marseille","lat":43.241672,"lon":5.364019,"is_reserved":false,"is_disabled":false,"rental_uris":{"android":"levelo://app?vid=3bfbd693-4245-4281-88bd-3df0f5f2b072","ios":"levelo://app?vid=3bfbd693-4245-4281-88bd-3df0f5f2b072"},"vehicle_type_id":"4","last_reported":1742631076,"current_range_meters":18800,"station_id":"cpo36qri1sfpv3e86is0","pricing_plan_id":"cebpf4jnsgd1na2vs0mg"},{"bike_id":"8ac76298-3375-4b96-8a90-9315b1510fa4","system_id":"levelo_inurba_marseille","lat":43.27802,"lon":5.40736,"is_reserved":false,"is_disabled":true,"rental_uris":{"android":"levelo://app?vid=8ac76298-3375-4b96-8a90-9315b1510fa4","ios":"levelo://app?vid=8ac76298-3375-4b96-8a90-9315b1510fa4"},"vehicle_type_id":"4","last_reported":1742631076,"current_range_meters":18800,"station_id":"ce4bhnh2rcd13ifvqgtg","pricing_plan_id":"cebpf4jnsgd1na2vs0mg"},{"bike_id":"0b1dc631-c9e7-4faf-bb69-8f994665189e","system_id":"levelo_inurba_marseille","lat":43.25829,"lon":5.39424,"is_reserved":false,"is_disabled":false,"rental_uris":{"android":"levelo://app?vid=0b1dc631-c9e7-4faf-bb69-8f994665189e","ios":"levelo://app?vid=0b1dc631-c9e7-4faf-bb69-8f994665189e"},"vehicle_type_id":"4","last_reported":1742631076,"current_range_meters":18800,"station_id":"ce4bhip2rcd13ifvqft0","pricing_plan_id":"cebpf4jnsgd1na2vs0mg"},{"bike_id":"9ce58d93-24ff-4d82-a6eb-d63806193832","system_id":"levelo_inurba_marseille","lat":43.29554,"lon":5.39451,"is_reserved":false,"is_disabled":false,"rental_uris":{"android":"levelo://app?vid=9ce58d93-24ff-4d82-a6eb-d63806193832","ios":"levelo://app?vid=9ce58d93-24ff-4d82-a6eb-d63806193832"},"vehicle_type_id":"4","last_reported":1742631076,"current_range_meters":19200,"station_id":"ce4bh292rcd13ifvqdf0","pricing_plan_id":"cebpf4jnsgd1na2vs0mg"},{"bike_id":"2ea44a35-e517-4488-a1cd-f8c267a8f464","system_id":"levelo_inurba_marseille","lat":43.29278,"lon":5.40133,"is_reserved":false,"is_disabled":false,"rental_uris":{"android":"levelo://app?vid=2ea44a35-e517-4488-a1cd-f8c267a8f464","ios":"levelo://app?vid=2ea44a35-e517-4488-a1cd-f8c267a8f464"},"vehicle_type_id":"4","last_reported":1742631076,"current_range_meters":18800,"station_id":"ce4bh312rcd13ifvqdk0","pricing_plan_id":"cebpf4jnsgd1na2vs0mg"},{"bike_id":"80560432-b1f9-4aa1-9e85-24e5e97be2e1","system_id":"levelo_inurba_marseille","lat":43.23197,"lon":5.39985,"is_reserved":false,"is_disabled":false,"rental_uris":{"android":"levelo://app?vid=80560432-b1f9-4aa1-9e85-24e5e97be2e1","ios":"levelo://app?vid=80560432-b1f9-4aa1-9e85-24e5e97be2e1"},"vehicle_type_id":"4","last_reported":1742631076,"current_range_meters":18800,"station_id":"ce4bhn12rcd13ifvqgqg","pricing_plan_id":"cebpf4jnsgd1na2vs0mg"},{"bike_id":"0657879a-389e-49f5-802b-9161d7dcf4b7","system_id":"levelo_inurba_marseille","lat":43.24388,"lon":5.37061,"is_reserved":false,"is_disabled":false,"rental_uris":{"android":"levelo://app?vid=0657879a-389e-49f5-802b-9161d7dcf4b7","ios":"levelo://app?vid=0657879a-389e-49f5-802b-9161d7dcf4b7"},"vehicle_type_id":"4","last_reported":1742631076,"current_range_meters":16800,"station_id":"ce4bhhh2rcd13ifvqfk0","pricing_plan_id":"cebpf4jnsgd1na2vs0mg"},{"bike_id":"1e540c4a-2193-4631-994f-bc20bcc6f11e","system_id":"levelo_inurba_marseille","lat":43.30688,"lon":5.40107,"is_reserved":false,"is_disabled":false,"rental_uris":{"android":"levelo://app?vid=1e540c4a-2193-4631-994f-bc20bcc6f11e","ios":"levelo://app?vid=1e540c4a-2193-4631-994f-bc20bcc6f11e"},"vehicle_type_id":"4","last_reported":1742631076,"current_range_meters":18800,"station_id":"","pricing_plan_id":"cebpf4jnsgd1na2vs0mg"},