{"last_updated":1770111026,"ttl":60,"version":"2.2","data":{"bikes":[{"bike_id":"e2e096ba-9588-4029-8622-ad82fe833648","system_id":"levelo_inurba_marseille","lat":43.211971,"lon":5.350725,"is_reserved":false,"is_disabled":false,"rental_uris":{"android":"levelo://app?vid=e2e096ba-9588-4029-8622-ad82fe833648","ios":"levelo://app?vid=e2e096ba-9588-4029-8622-ad82fe833648"},"vehicle_type_id":"4","last_reported":1770111027,"current_range_meters":2800,"station_id":"","pricing_plan_id":"cebpf4jnsgd1na2vs0mg"},{"bike_id":"b2cac47f-f549-4e09-b025-5f749d41973b","system_id":"levelo_inurba_marseille","lat":43.2292,"lon":5.35394,"is_reserved":false,"is_disabled":false,"rental_uris":{"android":"levelo://app?vid=b2cac47f-f549-4e09-b025-5f749d41973b","ios":"levelo://app?vid=b2cac47f-f549-4e09-b025-5f749d41973b"},"vehicle_type_id":"4","last_reported":1770111027,"current_range_meters":2800,"station_id":"cpo3532slgdg3j2ikp40","pricing_plan_id":"cebpf4jnsgd1na2vs0mg"},{"bike_id":"3b2a0495-d056-4726-ad48-0a57214f6b42","system_id":"levelo_inurba_marseille","lat":43.312212,"lon":5.368504,"is_reserved":false,"is_disabled":false,"rental_uris":{"android":"levelo://app?vid=3b2a0495-d056-4726-ad48-0a57214f6b42","ios":"levelo://app?vid=3b2a0495-d056-4726-ad48-0a57214f6b42"},"vehicle_type_id":"4","last_reported":1770111027,"current_range_meters":2800,"station_id":"ce4bgl92rcd13ifvqbq0","pricing_plan_id":"cebpf4jnsgd1na2vs0mg"},{"bike_id":"a408d5d2-5427-46e8-87f7-6b2377b7fcd5","system_id":"levelo_inurba_marseille","lat":43.25953,"lon":5.40907,"is_reserved":false,"is_disabled":false,"rental_uris":{"android":"levelo://app?vid=a408d5d2-5427-46e8-87f7-6b2377b7fcd5","ios":"levelo://app?vid=a408d5d2-5427-46e8-87f7-6b2377b7fcd5"},"vehicle_type_id":"4","last_reported":1770111027,"current_range_meters":2800,"station_id":"ce4bhm92rcd13ifvqglg","pricing_plan_id":"cebpf4jnsgd1na2vs0mg"},{"bike_id":"6ddb3c6a-28ae-4574-a949-d0f46ca957c2","system_id":"levelo_inurba_marseille","lat":43.28151,"lon":5.42662,"is_reserved":false,"is_disabled":true,"rental_uris":{"android":"levelo://app?vid=6ddb3c6a-28ae-4574-a949-d0f46ca957c2","ios":"levelo://app?vid=6ddb3c6a-28ae-4574-a949-d0f46ca957c2"},"vehicle_type_id":"4","last_reported":1770111027,"current_range_meters":2800,"station_id":"ce4bhnh2rcd13ifvqgug","pricing_plan_id":"cebpf4jnsgd1na2vs0mg"},{"bike_id":"e22e1f26-0b48-4184-a7ce-d50ac63de7a5","system_id":"levelo_inurba_marseille","lat":43.22563,"lon":5.41612,"is_reserved":false,"is_disabled":false,"rental_uris":{"android":"levelo://app?vid=e22e1f26-0b48-4184-a7ce-d50ac63de7a5","ios":"levelo://app?vid=e22e1f26-0b48-4184-a7ce-d50ac63de7a5"},"vehicle_type_id":"4","last_reported":1770111027,"current_range_meters":2800,"station_id":"st_d2o4gvlbi1j2169b742g","pricing_plan_id":"cebpf4jnsgd1na2vs0mg"},{"bike_id":"a1854b1d-d5b8-4b80-ab6e-21e2107150d6","system_id":"levelo_inurba_marseille","lat":43.23964,"lon":5.36629,"is_reserved":false,"is_disabled":false,"rental_uris":{"android":"levelo://app?vid=a1854b1d-d5b8-4b80-ab6e-21e2107150d6","ios":"levelo://app?vid=a1854b1d-d5b8-4b80-ab6e-21e2107150d6"},"vehicle_type_id":"4","last_reported":1770111027,"current_range_meters":2800,"station_id":"","pricing_plan_id":"cebpf4jnsgd1na2vs0mg"},{"bike_id":"c20ed702-3481-4da1-8980-6cf2971f3757","system_id":"levelo_inurba_marseille","lat":43.28457,"lon":5.48416,"is_reserved":false,"is_disabled":false,"rental_uris":{"android":"levelo://app?vid=c20ed702-3481-4da1-8980-6cf2971f3757","ios":"levelo://app?vid=c20ed702-3481-4da1-8980-6cf2971f3757"},"vehicle_type_id":"4","last_reported":1770111027,"current_range_meters":3200,"station_id":"st_d3svhcjqgbts73a3dn0g","pricing_plan_id":"cebpf4jnsgd1na2vs0mg"},{"bike_id":"fda17309-67c6-493d-a11a-fed18f5561b2","system_id":"levelo_inurba_marseille","lat":43.25015,"lon":5.38919,"is_reserved":false,"is_disabled":false,"rental_uris":{"android":"levelo://app?vid=fda17309-67c6-493d-a11a-fed18f5561b2","ios":"levelo://app?vid=fda17309-67c6-493d-a11a-fed18f5561b2"},"vehicle_type_id":"4","last_reported":1770111027,"current_range_meters":3200,"station_id":"ce4bhgp2rcd13ifvqfd0","pricing_plan_id":"cebpf4jnsgd1na2vs0mg"},{"bike_id":"e86360ce-103f-43f8-b2be-deddf314636b","system_id":"levelo_inurba_marseille","lat":43.26213,"lon":5.3792,"is_reserved":false,"is_disabled":false,"rental_uris":{"android":"levelo://app?vid=e86360ce-103f-43f8-b2be-deddf314636b","ios":"levelo://app?vid=e86360ce-103f-43f8-b2be-deddf314636b"},"vehicle_type_id":"4","last_reported":1770111027,"current_range_meters":3200,"station_id":"ce4bhjp2rcd13ifvqg90","pricing_plan_id":"cebpf4jnsgd1na2vs0mg"},{"bike_id":"82b325d3-7a3c-4cda-9a2e-5a416c58a952","system_id":"levelo_inurba_marseille","lat":43.27259,"lon":5.3912,"is_reserved":false,"is_disabled":false,"rental_uris":{"android":"levelo://app?vid=82b325d3-7a3c-4cda-9a2e-5a416c58a952","ios":"levelo://app?vid=82b325d3-7a3c-4cda-9a2e-5a416c58a952"},"vehicle_type_id":"4","last_reported":1770111027,"current_range_meters":3200,"station_id":"","pricing_plan_id":"cebpf4jnsgd1na2vs0mg"},{"bike_id":"4e84c079-e70f-4bbb-aa19-0481777478da","system_id":"levelo_inurba_marseille","lat":43.26989,"lon":5.38568,"is_reserved":false,"is_disabled":false,"rental_uris":{"android":"levelo://app?vid=4e84c079-e70f-4bbb-aa19-0481777478da","ios":"levelo://app?vid=4e84c079-e70f-4bbb-aa19-0481777478da"},"vehicle_type_id":"4","last_reported":1770111027,"current_range_meters":3600,"station_id":"","pricing_plan_id":"cebpf4jnsgd1na2vs0mg"},{"bike_id":"3d5e904d-408a-44e8-8b9c-fd81fec51294","system_id":"levelo_inurba_marseille","lat":43.2908,"lon":5.38057,"is_reserved":false,"is_disabled":false,"rental_uris":{"android":"levelo://app?vid=3d5e904d-408a-44e8-8b9c-fd81fec51294","ios":"levelo://app?vid=3d5e904d-408a-44e8-8b9c-fd81fec51294"},"vehicle_type_id":"4","last_reported":1770111027,"current_range_meters":3600,"station_id":"","pricing_plan_id":"cebpf4jnsgd1na2vs0mg"},{"bike_id":"a8b33ee5-98b1-4b91-a976-d816491fae12","system_id":"levelo_inurba_marseille","lat":43.26793,"lon":5.39428,"is_reserved":false,"is_disabled":true,"rental_uris":{"android":"levelo://app?vid=a8b33ee5-98b1-4b91-a976-d816491fae12","ios":"levelo://app?vid=a8b33ee5-98b1-4b91-a976-d816491fae12"},"vehicle_type_id":"4","last_reported":1770111027,"current_range_meters":3600,"station_id":"ce4bhh12rcd13ifvqfg0","pricing_plan_id":"cebpf4jnsgd1na2vs0mg"},{"bike_id":"ff4ad111-5193-4082-98ed-f666cc067393","system_id":"levelo_inurba_marseille","lat":43.27597,"lon":5.36115,"is_reserved":false,"is_disabled":false,"rental_uris":{"android":"levelo://app?vid=ff4ad111-5193-4082-98ed-f666cc067393","ios":"levelo://app?vid=ff4ad111-5193-4082-98ed-f666cc067393"},"vehicle_type_id":"4","last_reported":1770111027,"current_range_meters":3600,"station_id":"ce4bgj92rcd13ifvqbe0","pricing_plan_id":"cebpf4jnsgd1na2vs0mg"},{"bike_id":"a1f01d0e-daec-4baf-acde-adf9612a1a61","system_id":"levelo_inurba_marseille","lat":43.26552,"lon":5.39007,"is_reserved":false,"is_disabled":false,"rental_uris":{"android":"levelo://app?vid=a1f01d0e-daec-4baf-acde-adf9612a1a61","ios":"levelo://app?vid=a1f01d0e-daec-4baf-acde-adf9612a1a61"},"vehicle_type_id":"4","last_reported":1770111027,"current_range_meters":3600,"station_id":"ce4bhe12rcd13ifvqf30","pricing_plan_id":"cebpf4jnsgd1na2vs0mg"},{"bike_id":"ed02cb4c-388a-4f26-a459-0831f95c479b","system_id":"levelo_inurba_marseille","lat":43.29906,"lon":5.43673,"is_reserved":false,"is_disabled":false,"rental_uris":{"android":"levelo://app?vid=ed02cb4c-388a-4f26-a459-0831f95c479b","ios":"levelo://app?vid=ed02cb4c-388a-4f26-a459-0831f95c479b"},"vehicle_type_id":"4","last_reported":1770111027,"current_range_meters":3600,"station_id":"ce4bhpp2rcd13ifvqhfg","pricing_plan_id":"cebpf4jnsgd1na2vs0mg"},{"bike_id":"cefa4a74-ea64-4560-a786-c9cfbac414c0","system_id":"levelo_inurba_marseille","lat":43.27946,"lon":5.38711,"is_reserved":false,"is_disabled":false,"rental_uris":{"android":"levelo://app?vid=cefa4a74-ea64-4560-a786-c9cfbac414c0","ios":"levelo://app?vid=cefa4a74-ea64-4560-a786-c9cfbac414c0"},"vehicle_type_id":"4","last_reported":1770111027,"current_range_meters":3600,"station_id":"ce4bhg12rcd13ifvqf80","pricing_plan_id":"cebpf4jnsgd1na2vs0mg"},{"bike_id":"7e7cded1-d7df-4b4d-9ff3-49738118bd9d","system_id":"levelo_inurba_marseille","lat":43.25331,"lon":5.42168,"is_reserved":false,"is_disabled":false,"rental_uris":{"android":"levelo://app?vid=7e7cded1-d7df-4b4d-9ff3-49738118bd9d","ios":"levelo://app?vid=7e7cded1-d7df-4b4d-9ff3-49738118bd9d"},"vehicle_type_id":"4","last_reported":1770111027,"current_range_meters":3600,"station_id":"st_d2m65c5bi1j21697t3ng","pricing_plan_id":"cebpf4jnsgd1na2vs0mg"},{"bike_id":"cd0d1c57-14a9-4619-969d-4e1062c346c9","system_id":"levelo_inurba_marseille","lat":43.27418,"lon":5.39437,"is_reserved":false,"is_disabled":false,"rental_uris":{"android":"levelo://app?vid=cd0d1c57-14a9-4619-969d-4e1062c346c9","ios":"levelo://app?vid=cd0d1c57-14a9-4619-969d-4e1062c346c9"},"vehicle_type_id":"4","last_reported":1770111027,"current_range_meters":3600,"station_id":"ce4bhdp2rcd13ifvqf20","pricing_plan_id":"cebpf4jnsgd1na2vs0mg"},{"bike_id":"0079e5b1-6125-4f00-9db5-9450c128e646","system_id":"levelo_inurba_marseille","lat":43.231605,"lon":5.436969,"is_reserved":false,"is_disabled":false,"rental_uris":{"android":"levelo://app?vid=0079e5b1-6125-4f00-9db5-9450c128e646","ios":"levelo://app?vid=0079e5b1-6125-4f00-9db5-9450c128e646"},"vehicle_type_id":"4","last_reported":1770111027,"current_range_meters":3600,"station_id":"ce4bhmp2rcd13ifvqgog","pricing_plan_id":"cebpf4jnsgd1na2vs0mg"},{"bike_id":"97d7ba2a-e0c0-4688-aeb6-9dc8e7c2bb8b","system_id":"levelo_inurba_marseille","lat":43.28169,"lon":5.34977,"is_reserved":false,"is_disabled":false,"rental_uris":{"android":"levelo://app?vid=97d7ba2a-e0c0-4688-aeb6-9dc8e7c2bb8b","ios":"levelo://app?vid=97d7ba2a-e0c0-4688-aeb6-9dc8e7c2bb8b"},"vehicle_type_id":"4","last_reported":1770111027,"current_range_meters":3600,"station_id":"","pricing_plan_id":"cebpf4jnsgd1na2vs0mg"},{"bike_id":"28e068bb-60a9-42b4-9f96-904466e94f56","system_id":"levelo_inurba_marseille","lat":43.27964,"lon":5.38708,"is_reserved":false,"is_disabled":false,"rental_uris":{"android":"levelo://app?vid=28e068bb-60a9-42b4-9f96-904466e94f56","ios":"levelo://app?vid=28e068bb-60a9-42b4-9f96-904466e94f56"},"vehicle_type_id":"4","last_reported":1770111027,"current_range_meters":4000,"station_id":"ce4bhg12rcd13ifvqf80","pricing_plan_id":"cebpf4jnsgd1na2vs0mg"},{"bike_id":"a83f6d4e-8b41-4f5d-b726-aab40772b3dc","system_id":"levelo_inurba_marseille","lat":43.272044,"lon":5.391939,"is_reserved":false,"is_disabled":true,"rental_uris":{"android":"levelo://app?vid=a83f6d4e-8b41-4f5d-b726-aab40772b3dc","ios":"levelo://app?vid=a83f6d4e-8b41-4f5d-b726-aab40772b3dc"},"vehicle_type_id":"4","last_reported":1770111027,"current_range_meters":4000,"station_id":"ce4bhhp2rcd13ifvqfm0","pricing_plan_id":"cebpf4jnsgd1na2vs0mg"},{"bike_id":"132c2e4f-f164-4506-8200-75a72b5316b3","system_id":"levelo_inurba_marseille","lat":43.22558,"lon":5.41634,"is_reserved":false,"is_disabled":false,"rental_uris":{"android":"levelo://app?vid=132c2e4f-f164-4506-8200-75a72b5316b3","ios":"levelo://app?vid=132c2e4f-f164-4506-8200-75a72b5316b3"},"vehicle_type_id":"4","last_reported":1770111027,"current_range_meters":4000,"station_id":"st_d2o4gvlbi1j2169b742g","pricing_plan_id":"cebpf4jnsgd1na2vs0mg"},{"bike_id":"20820e08-d026-49ef-a432-d6370cd971d2","system_id":"levelo_inurba_marseille","lat":43.31245,"lon":5.36853,"is_reserved":false,"is_disabled":false,"rental_uris":{"android":"levelo://app?vid=20820e08-d026-49ef-a432-d6370cd971d2","ios":"levelo://app?vid=20820e08-d026-49ef-a432-d6370cd971d2"},"vehicle_type_id":"4","last_reported":1770111027,"current_range_meters":4000,"station_id":"ce4bgl92rcd13ifvqbq0","pricing_plan_id":"cebpf4jnsgd1na2vs0mg"},{"bike_id":"10f34601-4a44-4897-a344-67ccd28a7e0f","system_id":"levelo_inurba_marseille","lat":43.27058,"lon":5.38326,"is_reserved":false,"is_disabled":false,"rental_uris":{"android":"levelo://app?vid=10f34601-4a44-4897-a344-67ccd28a7e0f","ios":"levelo://app?vid=10f34601-4a44-4897-a344-67ccd28a7e0f"},"vehicle_type_id":"4","last_reported":1770111027,"current_range_meters":4000,"station_id":"st_d3n2fo6cfp8s73cte1j0","pricing_plan_id":"cebpf4jnsgd1na2vs0mg"},{"bike_id":"334782b7-5d80-495f-a6f8-062ef1991383","system_id":"levelo_inurba_marseille","lat":43.26557,"lon":5.37283,"is_reserved":false,"is_disabled":false,"rental_uris":{"android":"levelo://app?vid=334782b7-5d80-495f-a6f8-062ef1991383","ios":"levelo://app?vid=334782b7-5d80-495f-a6f8-062ef1991383"},"vehicle_type_id":"4","last_reported":1770111027,"current_range_meters":4000,"station_id":"ce4bhg12rcd13ifvqf70","pricing_plan_id":"cebpf4jnsgd1na2vs0mg"},{"bike_id":"448aac68-1f9e-4017-99cd-3bab5b285023","system_id":"levelo_inurba_marseille","lat":43.27387,"lon":5.36262,"is_reserved":false,"is_disabled":false,"rental_uris":{"android":"levelo://app?vid=448aac68-1f9e-4017-99cd-3bab5b285023","ios":"levelo://app?vid=448aac68-1f9e-4017-99cd-3bab5b285023"},"vehicle_type_id":"4","last_reported":1770111027,"current_range_meters":4400,"station_id":"ce4bhbh2rcd13ifvqeo0","pricing_plan_id":"cebpf4jnsgd1na2vs0mg"},{"bike_id":"9b88fd27-e984-4d47-a1cb-c509cbeae0be","system_id":"levelo_inurba_marseille","lat":43.27994,"lon":5.40026,"is_reserved":false,"is_disabled":false,"rental_uris":{"android":"levelo://app?vid=9b88fd27-e984-4d47-a1cb-c509cbeae0be","ios":"levelo://app?vid=9b88fd27-e984-4d47-a1cb-c509cbeae0be"},"vehicle_type_id":"4","last_reported":1770111027,"current_range_meters":4400,"station_id":"ce4bho92rcd13ifvqh4g","pricing_plan_id":"cebpf4jnsgd1na2vs0mg"},{"bike_id":"d546f190-dc9d-450d-b774-978c0c2a0813","system_id":"levelo_inurba_marseille","lat":43.2847,"lon":5.38429,"is_reserved":false,"is_disabled":false,"rental_uris":{"android":"levelo://app?vid=d546f190-dc9d-450d-b774-978c0c2a0813","ios":"levelo://app?vid=d546f190-dc9d-450d-b774-978c0c2a0813"},"vehicle_type_id":"4","last_reported":1770111027,"current_range_meters":4400,"station_id":"ce4bh512rcd13ifvqe3g","pricing_plan_id":"cebpf4jnsgd1na2vs0mg"},{"bike_id":"5141671d-7b39-4f0e-b6e2-bd219d8add15","system_id":"levelo_inurba_marseille","lat":43.27215,"lon":5.39179,"is_reserved":false,"is_disabled":false,"rental_uris":{"android":"levelo://app?vid=5141671d-7b39-4f0e-b6e2-bd219d8add15","ios":"levelo://app?vid=5141671d-7b39-4f0e-b6e2-bd219d8add15"},"vehicle_type_id":"4","last_reported":1770111027,"current_range_meters":4400,"station_id":"ce4bhhp2rcd13ifvqfm0","pricing_plan_id":"cebpf4jnsgd1na2vs0mg"},{"bike_id":"6a131f0d-6128-445c-99a5-319bcf3a622a","system_id":"levelo_inurba_marseille","lat":43.284826,"lon":5.484033,"is_reserved":false,"is_disabled":false,"rental_uris":{"android":"levelo://app?vid=6a131f0d-6128-445c-99a5-319bcf3a622a","ios":"levelo://app?vid=6a131f0d-6128-445c-99a5-319bcf3a622a"},"vehicle_type_id":"4","last_reported":1770111027,"current_range_meters":4400,"station_id":"st_d3svhcjqgbts73a3dn0g","pricing_plan_id":"cebpf4jnsgd1na2vs0mg"},{"bike_id":"2917304c-bf46-4a0c-9e16-8711acfc5fd2","system_id":"levelo_inurba_marseille","lat":43.32485,"lon":5.38291,"is_reserved":false,"is_disabled":false,"rental_uris":{"android":"levelo://app?vid=2917304c-bf46-4a0c-9e16-8711acfc5fd2","ios":"levelo://app?vid=2917304c-bf46-4a0c-9e16-8711acfc5fd2"},"vehicle_type_id":"4","last_reported":1770111027,"current_range_meters":4400,"station_id":"st_d4asgbiv49dc73anf9m0","pricing_plan_id":"cebpf4jnsgd1na2vs0mg"},{"bike_id":"064e3318-8bd5-481b-b7e1-5d44180875b7","system_id":"levelo_inurba_marseille","lat":43.25907,"lon":5.40878,"is_reserved":false,"is_disabled":false,"rental_uris":{"android":"levelo://app?vid=064e3318-8bd5-481b-b7e1-5d44180875b7","ios":"levelo://app?vid=064e3318-8bd5-481b-b7e1-5d44180875b7"},"vehicle_type_id":"4","last_reported":1770111027,"current_range_meters":4400,"station_id":"ce4bhm92rcd13ifvqglg","pricing_plan_id":"cebpf4jnsgd1na2vs0mg"},{"bike_id":"b81cf0a9-60ff-4ac2-9c33-32ff258c0032","system_id":"levelo_inurba_marseille","lat":43.28415,"lon":5.34996,"is_reserved":false,"is_disabled":false,"rental_uris":{"android":"levelo://app?vid=b81cf0a9-60ff-4ac2-9c33-32ff258c0032","ios":"levelo://app?vid=b81cf0a9-60ff-4ac2-9c33-32ff258c0032"},"vehicle_type_id":"4","last_reported":1770111027,"current_range_meters":4800,"station_id":"ce4bhbh2rcd13ifvqepg","pricing_plan_id":"cebpf4jnsgd1na2vs0mg"},{"bike_id":"b4b49109-c680-49e7-b78f-0963342a85a5","system_id":"levelo_inurba_marseille","lat":43.30573,"lon":5.36497,"is_reserved":false,"is_disabled":false,"rental_uris":{"android":"levelo://app?vid=b4b49109-c680-49e7-b78f-0963342a85a5","ios":"levelo://app?vid=b4b49109-c680-49e7-b78f-0963342a85a5"},"vehicle_type_id":"4","last_reported":1770111027,"current_range_meters":4800,"station_id":"","pricing_plan_id":"cebpf4jnsgd1na2vs0mg"},{"bike_id":"706a51bd-6464-4a08-a822-c3d0e43f2700","system_id":"levelo_inurba_marseille","lat":43.27331,"lon":5.39074,"is_reserved":false,"is_disabled":false,"rental_uris":{"android":"levelo://app?vid=706a51bd-6464-4a08-a822-c3d0e43f2700","ios":"levelo://app?vid=706a51bd-6464-4a08-a822-c3d0e43f2700"},"vehicle_type_id":"4","last_reported":1770111027,"current_range_meters":4800,"station_id":"ce4bhgp2rcd13ifvqfe0","pricing_plan_id":"cebpf4jnsgd1na2vs0mg"},{"bike_id":"225e9d09-83ee-4f1c-a930-a97429c83cb7","system_id":"levelo_inurba_marseille","lat":43.23163,"lon":5.3556,"is_reserved":false,"is_disabled":false,"rental_uris":{"android":"levelo://app?vid=225e9d09-83ee-4f1c-a930-a97429c83cb7","ios":"levelo://app?vid=225e9d09-83ee-4f1c-a930-a97429c83cb7"},"vehicle_type_id":"4","last_reported":1770111027,"current_range_meters":4800,"station_id":"ce4bhu92rcd13ifvqi70","pricing_plan_id":"cebpf4jnsgd1na2vs0mg"},{"bike_id":"91604460-68c0-4492-894c-a238619d1f72","system_id":"levelo_inurba_marseille","lat":43.23214,"lon":5.35554,"is_reserved":false,"is_disabled":false,"rental_uris":{"android":"levelo://app?vid=91604460-68c0-4492-894c-a238619d1f72","ios":"levelo://app?vid=91604460-68c0-4492-894c-a238619d1f72"},"vehicle_type_id":"4","last_reported":1770111027,"current_range_meters":4800,"station_id":"ce4bhu92rcd13ifvqi70","pricing_plan_id":"cebpf4jnsgd1na2vs0mg"},{"bike_id":"35d56dec-5dbc-4778-ba90-a317060fb012","system_id":"levelo_inurba_marseille","lat":43.29595,"lon":5.38104,"is_reserved":false,"is_disabled":true,"rental_uris":{"android":"levelo://app?vid=35d56dec-5dbc-4778-ba90-a317060fb012","ios":"levelo://app?vid=35d56dec-5dbc-4778-ba90-a317060fb012"},"vehicle_type_id":"4","last_reported":1770111027,"current_range_meters":4800,"station_id":"ce4bgl12rcd13ifvqbo0","pricing_plan_id":"cebpf4jnsgd1na2vs0mg"},{"bike_id":"a48355ac-b0fa-45c2-9cd5-af44525cbe5d","system_id":"levelo_inurba_marseille","lat":43.25942,"lon":5.40905,"is_reserved":false,"is_disabled":true,"rental_uris":{"android":"levelo://app?vid=a48355ac-b0fa-45c2-9cd5-af44525cbe5d","ios":"levelo://app?vid=a48355ac-b0fa-45c2-9cd5-af44525cbe5d"},"vehicle_type_id":"4","last_reported":1770111027,"current_range_meters":5600,"station_id":"ce4bhm92rcd13ifvqglg","pricing_plan_id":"cebpf4jnsgd1na2vs0mg"},{"bike_id":"69f39c95-99d9-4343-8085-e7cef26cb2b2","system_id":"levelo_inurba_marseille","lat":43.29713,"lon":5.36612,"is_reserved":false,"is_disabled":false,"rental_uris":{"android":"levelo://app?vid=69f39c95-99d9-4343-8085-e7cef26cb2b2","ios":"levelo://app?vid=69f39c95-99d9-4343-8085-e7cef26cb2b2"},"vehicle_type_id":"4","last_reported":1770111027,"current_range_meters":5600,"station_id":"ce4bgn12rcd13ifvqbt0","pricing_plan_id":"cebpf4jnsgd1na2vs0mg"},{"bike_id":"d6ff0c2e-1b73-4afa-8f0f-7ada026e25d1","system_id":"levelo_inurba_marseille","lat":43.294838,"lon":5.376158,"is_reserved":false,"is_disabled":false,"rental_uris":{"android":"levelo://app?vid=d6ff0c2e-1b73-4afa-8f0f-7ada026e25d1","ios":"levelo://app?vid=d6ff0c2e-1b73-4afa-8f0f-7ada026e25d1"},"vehicle_type_id":"4","last_reported":1770111027,"current_range_meters":5600,"station_id":"","pricing_plan_id":"cebpf4jnsgd1na2vs0mg"},{"bike_id":"711179da-b5cb-4c46-987e-4b0e05a27fa8","system_id":"levelo_inurba_marseille","lat":43.29619,"lon":5.37168,"is_reserved":false,"is_disabled":false,"rental_uris":{"android":"levelo://app?vid=711179da-b5cb-4c46-987e-4b0e05a27fa8","ios":"levelo://app?vid=711179da-b5cb-4c46-987e-4b0e05a27fa8"},"vehicle_type_id":"4","last_reported":1770111027,"current_range_meters":5600,"station_id":"ce4bgnh2rcd13ifvqc0g","pricing_plan_id":"cebpf4jnsgd1na2vs0mg"},{"bike_id":"1b7275f2-66dc-49c1-a1cf-6b666c1247c0","system_id":"levelo_inurba_marseille","lat":43.31045,"lon":5.37168,"is_reserved":false,"is_disabled":false,"rental_uris":{"android":"levelo://app?vid=1b7275f2-66dc-49c1-a1cf-6b666c1247c0","ios":"levelo://app?vid=1b7275f2-66dc-49c1-a1cf-6b666c1247c0"},"vehicle_type_id":"4","last_reported":1770111027,"current_range_meters":5600,"station_id":"st_d4kl2rp97mjs73e7tdfg","pricing_plan_id":"cebpf4jnsgd1na2vs0mg"},{"bike_id":"652055a5-afe0-4882-b1c2-adeffbdb9a89","system_id":"levelo_inurba_marseille","lat":43.26557,"lon":5.37291,"is_reserved":false,"is_disabled":false,"rental_uris":{"android":"levelo://app?vid=652055a5-afe0-4882-b1c2-adeffbdb9a89","ios":"levelo://app?vid=652055a5-afe0-4882-b1c2-adeffbdb9a89"},"vehicle_type_id":"4","last_reported":1770111027,"current_range_meters":6000,"station_id":"ce4bhg12rcd13ifvqf70","pricing_plan_id":"cebpf4jnsgd1na2vs0mg"},{"bike_id":"67d94700-218b-4e1b-9b09-f23953a1fdd8","system_id":"levelo_inurba_marseille","lat":43.26248,"lon":5.40428,"is_reserved":false,"is_disabled":false,"rental_uris":{"android":"levelo://app?vid=67d94700-218b-4e1b-9b09-f23953a1fdd8","ios":"levelo://app?vid=67d94700-218b-4e1b-9b09-f23953a1fdd8"},"vehicle_type_id":"4","last_reported":1770111027,"current_range_meters":6000,"station_id":"ce4bhmh2rcd13ifvqgmg","pricing_plan_id":"cebpf4jnsgd1na2vs0mg"},{"bike_id":"3bb7899f-0645-49fd-920f-d88288c3de59","system_id":"levelo_inurba_marseille","lat":43.28942,"lon":5.36637,"is_reserved":false,"is_disabled":false,"rental_uris":{"android":"levelo://app?vid=3bb7899f-0645-49fd-920f-d88288c3de59","ios":"levelo://app?vid=3bb7899f-0645-49fd-920f-d88288c3de59"},"vehicle_type_id":"4","last_reported":1770111027,"current_range_meters":6000,"station_id":"ce4bhap2rcd13ifvqek0","pricing_plan_id":"cebpf4jnsgd1na2vs0mg"},{"bike_id":"974a7702-ab21-4478-93a4-60418ef5c290","system_id":"levelo_inurba_marseille","lat":43.26954,"lon":5.38637,"is_reserved":false,"is_disabled":false,"rental_uris":{"android":"levelo://app?vid=974a7702-ab21-4478-93a4-60418ef5c290","ios":"levelo://app?vid=974a7702-ab21-4478-93a4-60418ef5c290"},"vehicle_type_id":"4","last_reported":1770111027,"current_range_meters":6000,"station_id":"ce4bhh92rcd13ifvqfh0","pricing_plan_id":"cebpf4jnsgd1na2vs0mg"},{"bike_id":"0a6292f7-50dd-43c2-b393-e08dde080051","system_id":"levelo_inurba_marseille","lat":43.26602,"lon":5.39013,"is_reserved":false,"is_disabled":false,"rental_uris":{"android":"levelo://app?vid=0a6292f7-50dd-43c2-b393-e08dde080051","ios":"levelo://app?vid=0a6292f7-50dd-43c2-b393-e08dde080051"},"vehicle_type_id":"4","last_reported":1770111027,"current_range_meters":6000,"station_id":"","pricing_plan_id":"cebpf4jnsgd1na2vs0mg"},{"bike_id":"c04d02e9-4522-4664-80d1-72f19e30f66b","system_id":"levelo_inurba_marseille","lat":43.25321,"lon":5.38647,"is_reserved":false,"is_disabled":false,"rental_uris":{"android":"levelo://app?vid=c04d02e9-4522-4664-80d1-72f19e30f66b","ios":"levelo://app?vid=c04d02e9-4522-4664-80d1-72f19e30f66b"},"vehicle_type_id":"4","last_reported":1770111027,"current_range_meters":6000,"station_id":"","pricing_plan_id":"cebpf4jnsgd1na2vs0mg"},{"bike_id":"28db925e-827f-4615-ad06-689ebc89cd6c","system_id":"levelo_inurba_marseille","lat":43.26554,"lon":5.37287,"is_reserved":false,"is_disabled":false,"rental_uris":{"android":"levelo://app?vid=28db925e-827f-4615-ad06-689ebc89cd6c","ios":"levelo://app?vid=28db925e-827f-4615-ad06-689ebc89cd6c"},"vehicle_type_id":"4","last_reported":1770111027,"current_range_meters":6000,"station_id":"ce4bhg12rcd13ifvqf70","pricing_plan_id":"cebpf4jnsgd1na2vs0mg"},{"bike_id":"d1786d71-cdac-413b-898f-401144ede37d","system_id":"levelo_inurba_marseille","lat":43.25333,"lon":5.42188,"is_reserved":false,"is_disabled":false,"rental_uris":{"android":"levelo://app?vid=d1786d71-cdac-413b-898f-401144ede37d","ios":"levelo://app?vid=d1786d71-cdac-413b-898f-401144ede37d"},"vehicle_type_id":"4","last_reported":1770111027,"current_range_meters":6000,"station_id":"st_d2m65c5bi1j21697t3ng","pricing_plan_id":"cebpf4jnsgd1na2vs0mg"},{"bike_id":"5dae8e7a-771c-417a-921b-2f019b85b891","system_id":"levelo_inurba_marseille","lat":43.29885,"lon":5.43681,"is_reserved":false,"is_disabled":false,"rental_uris":{"android":"levelo://app?vid=5dae8e7a-771c-417a-921b-2f019b85b891","ios":"levelo://app?vid=5dae8e7a-771c-417a-921b-2f019b85b891"},"vehicle_type_id":"4","last_reported":1770111027,"current_range_meters":6000,"station_id":"ce4bhpp2rcd13ifvqhfg","pricing_plan_id":"cebpf4jnsgd1na2vs0mg"},{"bike_id":"fb6d0c92-aa07-41c5-bb64-ff22908e7b14","system_id":"levelo_inurba_marseille","lat":43.33543,"lon":5.37532,"is_reserved":false,"is_disabled":false,"rental_uris":{"android":"levelo://app?vid=fb6d0c92-aa07-41c5-bb64-ff22908e7b14","ios":"levelo://app?vid=fb6d0c92-aa07-41c5-bb64-ff22908e7b14"},"vehicle_type_id":"4","last_reported":1770111027,"current_range_meters":6000,"station_id":"","pricing_plan_id":"cebpf4jnsgd1na2vs0mg"},{"bike_id":"a3fb21ff-e718-480e-b9a1-65d0e0d28a7e","system_id":"levelo_inurba_marseille","lat":43.31359,"lon":5.36709,"is_reserved":false,"is_disabled":true,"rental_uris":{"android":"levelo://app?vid=a3fb21ff-e718-480e-b9a1-65d0e0d28a7e","ios":"levelo://app?vid=a3fb21ff-e718-480e-b9a1-65d0e0d28a7e"},"vehicle_type_id":"4","last_reported":1770111027,"current_range_meters":6400,"station_id":"ce4bgr92rcd13ifvqc6g","pricing_plan_id":"cebpf4jnsgd1na2vs0mg"},{"bike_id":"02b06200-6f0c-4fbe-a288-f34e85c983a1","system_id":"levelo_inurba_marseille","lat":43.23781,"lon":5.36635,"is_reserved":false,"is_disabled":false,"rental_uris":{"android":"levelo://app?vid=02b06200-6f0c-4fbe-a288-f34e85c983a1","ios":"levelo://app?vid=02b06200-6f0c-4fbe-a288-f34e85c983a1"},"vehicle_type_id":"4","last_reported":1770111027,"current_range_meters":6400,"station_id":"st_d3nk18o9ro0c73en2l3g","pricing_plan_id":"cebpf4jnsgd1na2vs0mg"},{"bike_id":"2c0bc4db-f557-470b-bd8a-9520318620b0","system_id":"levelo_inurba_marseille","lat":43.28414,"lon":5.34968,"is_reserved":false,"is_disabled":false,"rental_uris":{"android":"levelo://app?vid=2c0bc4db-f557-470b-bd8a-9520318620b0","ios":"levelo://app?vid=2c0bc4db-f557-470b-bd8a-9520318620b0"},"vehicle_type_id":"4","last_reported":1770111027,"current_range_meters":6400,"station_id":"ce4bhbh2rcd13ifvqepg","pricing_plan_id":"cebpf4jnsgd1na2vs0mg"},{"bike_id":"e62be3a6-8b1c-4df7-8f7f-34124e51d036","system_id":"levelo_inurba_marseille","lat":43.31221,"lon":5.3683,"is_reserved":false,"is_disabled":false,"rental_uris":{"android":"levelo://app?vid=e62be3a6-8b1c-4df7-8f7f-34124e51d036","ios":"levelo://app?vid=e62be3a6-8b1c-4df7-8f7f-34124e51d036"},"vehicle_type_id":"4","last_reported":1770111027,"current_range_meters":6400,"station_id":"ce4bgl92rcd13ifvqbq0","pricing_plan_id":"cebpf4jnsgd1na2vs0mg"},{"bike_id":"9436c3fb-a74e-4fd5-8b2a-988e84b82382","system_id":"levelo_inurba_marseille","lat":43.24177,"lon":5.39734,"is_reserved":false,"is_disabled":false,"rental_uris":{"android":"levelo://app?vid=9436c3fb-a74e-4fd5-8b2a-988e84b82382","ios":"levelo://app?vid=9436c3fb-a74e-4fd5-8b2a-988e84b82382"},"vehicle_type_id":"4","last_reported":1770111027,"current_range_meters":6400,"station_id":"ce4bhn12rcd13ifvqgpg","pricing_plan_id":"cebpf4jnsgd1na2vs0mg"},{"bike_id":"76154380-766b-4767-81b3-83dc44f40b7b","system_id":"levelo_inurba_marseille","lat":43.33558,"lon":5.37474,"is_reserved":false,"is_disabled":false,"rental_uris":{"android":"levelo://app?vid=76154380-766b-4767-81b3-83dc44f40b7b","ios":"levelo://app?vid=76154380-766b-4767-81b3-83dc44f40b7b"},"vehicle_type_id":"4","last_reported":1770111027,"current_range_meters":6400,"station_id":"st_d46tts09ee8s73dlu43g","pricing_plan_id":"cebpf4jnsgd1na2vs0mg"},{"bike_id":"77bc8d6e-4b95-430f-bcdd-f6b3746ef777","system_id":"levelo_inurba_marseille","lat":43.27812,"lon":5.40715,"is_reserved":false,"is_disabled":false,"rental_uris":{"android":"levelo://app?vid=77bc8d6e-4b95-430f-bcdd-f6b3746ef777","ios":"levelo://app?vid=77bc8d6e-4b95-430f-bcdd-f6b3746ef777"},"vehicle_type_id":"4","last_reported":1770111027,"current_range_meters":6400,"station_id":"ce4bhnh2rcd13ifvqgtg","pricing_plan_id":"cebpf4jnsgd1na2vs0mg"},{"bike_id":"33155caa-8021-4913-a666-e828c4426fe1","system_id":"levelo_inurba_marseille","lat":43.23199,"lon":5.35555,"is_reserved":false,"is_disabled":false,"rental_uris":{"android":"levelo://app?vid=33155caa-8021-4913-a666-e828c4426fe1","ios":"levelo://app?vid=33155caa-8021-4913-a666-e828c4426fe1"},"vehicle_type_id":"4","last_reported":1770111027,"current_range_meters":6400,"station_id":"ce4bhu92rcd13ifvqi70","pricing_plan_id":"cebpf4jnsgd1na2vs0mg"},{"bike_id":"c2b08bfc-d726-4f67-9edf-8d5ea7dd8490","system_id":"levelo_inurba_marseille","lat":43.296,"lon":5.38103,"is_reserved":false,"is_disabled":false,"rental_uris":{"android":"levelo://app?vid=c2b08bfc-d726-4f67-9edf-8d5ea7dd8490","ios":"levelo://app?vid=c2b08bfc-d726-4f67-9edf-8d5ea7dd8490"},"vehicle_type_id":"4","last_reported":1770111027,"current_range_meters":6400,"station_id":"ce4bgl12rcd13ifvqbo0","pricing_plan_id":"cebpf4jnsgd1na2vs0mg"},{"bike_id":"ca33bf4f-68ef-4a70-9e6b-9c725b154588","system_id":"levelo_inurba_marseille","lat":43.26672,"lon":5.38277,"is_reserved":false,"is_disabled":false,"rental_uris":{"android":"levelo://app?vid=ca33bf4f-68ef-4a70-9e6b-9c725b154588","ios":"levelo://app?vid=ca33bf4f-68ef-4a70-9e6b-9c725b154588"},"vehicle_type_id":"4","last_reported":1770111027,"current_range_meters":6400,"station_id":"ce4bhg92rcd13ifvqf90","pricing_plan_id":"cebpf4jnsgd1na2vs0mg"},{"bike_id":"33b20c66-c661-4ce7-988e-997b9775178e","system_id":"levelo_inurba_marseille","lat":43.27509,"lon":5.42462,"is_reserved":false,"is_disabled":false,"rental_uris":{"android":"levelo://app?vid=33b20c66-c661-4ce7-988e-997b9775178e","ios":"levelo://app?vid=33b20c66-c661-4ce7-988e-997b9775178e"},"vehicle_type_id":"4","last_reported":1770111027,"current_range_meters":6400,"station_id":"ce4bhn92rcd13ifvqgrg","pricing_plan_id":"cebpf4jnsgd1na2vs0mg"},{"bike_id":"4dd6841e-e470-4207-bb73-65a47c0e81c5","system_id":"levelo_inurba_marseille","lat":43.31145,"lon":5.38017,"is_reserved":false,"is_disabled":false,"rental_uris":{"android":"levelo://app?vid=4dd6841e-e470-4207-bb73-65a47c0e81c5","ios":"levelo://app?vid=4dd6841e-e470-4207-bb73-65a47c0e81c5"},"vehicle_type_id":"4","last_reported":1770111027,"current_range_meters":6400,"station_id":"","pricing_plan_id":"cebpf4jnsgd1na2vs0mg"},{"bike_id":"46ee546c-c134-4571-9e8d-411bb1e65a04","system_id":"levelo_inurba_marseille","lat":43.3056,"lon":5.36538,"is_reserved":false,"is_disabled":false,"rental_uris":{"android":"levelo://app?vid=46ee546c-c134-4571-9e8d-411bb1e65a04","ios":"levelo://app?vid=46ee546c-c134-4571-9e8d-411bb1e65a04"},"vehicle_type_id":"4","last_reported":1770111027,"current_range_meters":6400,"station_id":"ce4bgs12rcd13ifvqcag","pricing_plan_id":"cebpf4jnsgd1na2vs0mg"},{"bike_id":"eee54609-a6c8-4bc7-a936-6a1b442519d3","system_id":"levelo_inurba_marseille","lat":43.31049,"lon":5.37164,"is_reserved":false,"is_disabled":false,"rental_uris":{"android":"levelo://app?vid=eee54609-a6c8-4bc7-a936-6a1b442519d3","ios":"levelo://app?vid=eee54609-a6c8-4bc7-a936-6a1b442519d3"},"vehicle_type_id":"4","last_reported":1770111027,"current_range_meters":6800,"station_id":"st_d4kl2rp97mjs73e7tdfg","pricing_plan_id":"cebpf4jnsgd1na2vs0mg"},{"bike_id":"7b45ea02-6dd9-45da-8c48-af6be5cff14f","system_id":"levelo_inurba_marseille","lat":43.28998,"lon":5.35616,"is_reserved":false,"is_disabled":true,"rental_uris":{"android":"levelo://app?vid=7b45ea02-6dd9-45da-8c48-af6be5cff14f","ios":"levelo://app?vid=7b45ea02-6dd9-45da-8c48-af6be5cff14f"},"vehicle_type_id":"4","last_reported":1770111027,"current_range_meters":6800,"station_id":"ce4bhb92rcd13ifvqen0","pricing_plan_id":"cebpf4jnsgd1na2vs0mg"},{"bike_id":"88fc1a1b-5aec-42b4-85d5-f5ef23f49eec","system_id":"levelo_inurba_marseille","lat":43.26587,"lon":5.39023,"is_reserved":false,"is_disabled":false,"rental_uris":{"android":"levelo://app?vid=88fc1a1b-5aec-42b4-85d5-f5ef23f49eec","ios":"levelo://app?vid=88fc1a1b-5aec-42b4-85d5-f5ef23f49eec"},"vehicle_type_id":"4","last_reported":1770111027,"current_range_meters":6800,"station_id":"ce4bhe12rcd13ifvqf30","pricing_plan_id":"cebpf4jnsgd1na2vs0mg"},{"bike_id":"7291de15-09ff-45ee-b5ec-869518746589","system_id":"levelo_inurba_marseille","lat":43.298,"lon":5.38112,"is_reserved":false,"is_disabled":false,"rental_uris":{"android":"levelo://app?vid=7291de15-09ff-45ee-b5ec-869518746589","ios":"levelo://app?vid=7291de15-09ff-45ee-b5ec-869518746589"},"vehicle_type_id":"4","last_reported":1770111027,"current_range_meters":6800,"station_id":"ce4bgip2rcd13ifvqbb0","pricing_plan_id":"cebpf4jnsgd1na2vs0mg"},{"bike_id":"3b15ef1d-d491-4377-b134-a5b139ed4414","system_id":"levelo_inurba_marseille","lat":43.29409,"lon":5.37412,"is_reserved":false,"is_disabled":false,"rental_uris":{"android":"levelo://app?vid=3b15ef1d-d491-4377-b134-a5b139ed4414","ios":"levelo://app?vid=3b15ef1d-d491-4377-b134-a5b139ed4414"},"vehicle_type_id":"4","last_reported":1770111027,"current_range_meters":6800,"station_id":"","pricing_plan_id":"cebpf4jnsgd1na2vs0mg"},{"bike_id":"cef9edb7-4d2e-4ab7-9675-6b816e961933","system_id":"levelo_inurba_marseille","lat":43.241838,"lon":5.397213,"is_reserved":false,"is_disabled":false,"rental_uris":{"android":"levelo://app?vid=cef9edb7-4d2e-4ab7-9675-6b816e961933","ios":"levelo://app?vid=cef9edb7-4d2e-4ab7-9675-6b816e961933"},"vehicle_type_id":"4","last_reported":1770111027,"current_range_meters":6800,"station_id":"ce4bhn12rcd13ifvqgpg","pricing_plan_id":"cebpf4jnsgd1na2vs0mg"},{"bike_id":"68d2a9d1-2044-4f9c-8e7b-e4d9640d90af","system_id":"levelo_inurba_marseille","lat":43.2971,"lon":5.37957,"is_reserved":false,"is_disabled":false,"rental_uris":{"android":"levelo://app?vid=68d2a9d1-2044-4f9c-8e7b-e4d9640d90af","ios":"levelo://app?vid=68d2a9d1-2044-4f9c-8e7b-e4d9640d90af"},"vehicle_type_id":"4","last_reported":1770111027,"current_range_meters":6800,"station_id":"","pricing_plan_id":"cebpf4jnsgd1na2vs0mg"},{"bike_id":"460b488d-e76e-4ee3-b31f-1092eb8bfb4b","system_id":"levelo_inurba_marseille","lat":43.27208,"lon":5.39175,"is_reserved":false,"is_disabled":false,"rental_uris":{"android":"levelo://app?vid=460b488d-e76e-4ee3-b31f-1092eb8bfb4b","ios":"levelo://app?vid=460b488d-e76e-4ee3-b31f-1092eb8bfb4b"},"vehicle_type_id":"4","last_reported":1770111027,"current_range_meters":6800,"station_id":"ce4bhhp2rcd13ifvqfm0","pricing_plan_id":"cebpf4jnsgd1na2vs0mg"},{"bike_id":"fe2e49c8-5375-4394-815b-bc5a5aa8c58a","system_id":"levelo_inurba_marseille","lat":43.27488,"lon":5.42445,"is_reserved":false,"is_disabled":false,"rental_uris":{"android":"levelo://app?vid=fe2e49c8-5375-4394-815b-bc5a5aa8c58a","ios":"levelo://app?vid=fe2e49c8-5375-4394-815b-bc5a5aa8c58a"},"vehicle_type_id":"4","last_reported":1770111027,"current_range_meters":6800,"station_id":"ce4bhn92rcd13ifvqgrg","pricing_plan_id":"cebpf4jnsgd1na2vs0mg"},{"bike_id":"32b7e42d-59d1-4256-acd9-e4bd79cd366d","system_id":"levelo_inurba_marseille","lat":43.30441,"lon":5.39748,"is_reserved":false,"is_disabled":false,"rental_uris":{"android":"levelo://app?vid=32b7e42d-59d1-4256-acd9-e4bd79cd366d","ios":"levelo://app?vid=32b7e42d-59d1-4256-acd9-e4bd79cd366d"},"vehicle_type_id":"4","last_reported":1770111027,"current_range_meters":6800,"station_id":"ce4bh092rcd13ifvqd20","pricing_plan_id":"cebpf4jnsgd1na2vs0mg"},{"bike_id":"433bdf86-eff9-4e4f-a997-e3234696f813","system_id":"levelo_inurba_marseille","lat":43.27991,"lon":5.41668,"is_reserved":false,"is_disabled":false,"rental_uris":{"android":"levelo://app?vid=433bdf86-eff9-4e4f-a997-e3234696f813","ios":"levelo://app?vid=433bdf86-eff9-4e4f-a997-e3234696f813"},"vehicle_type_id":"4","last_reported":1770111027,"current_range_meters":6800,"station_id":"ce4bho12rcd13ifvqh1g","pricing_plan_id":"cebpf4jnsgd1na2vs0mg"},{"bike_id":"c5cba592-c8ea-4299-867c-e35aceae73bc","system_id":"levelo_inurba_marseille","lat":43.31736,"lon":5.39026,"is_reserved":false,"is_disabled":false,"rental_uris":{"android":"levelo://app?vid=c5cba592-c8ea-4299-867c-e35aceae73bc","ios":"levelo://app?vid=c5cba592-c8ea-4299-867c-e35aceae73bc"},"vehicle_type_id":"4","last_reported":1770111027,"current_range_meters":6800,"station_id":"ce4bhqp2rcd13ifvqhng","pricing_plan_id":"cebpf4jnsgd1na2vs0mg"},{"bike_id":"c23a7977-ffc6-4873-ae97-6ca27725df84","system_id":"levelo_inurba_marseille","lat":43.292618,"lon":5.368575,"is_reserved":false,"is_disabled":false,"rental_uris":{"android":"levelo://app?vid=c23a7977-ffc6-4873-ae97-6ca27725df84","ios":"levelo://app?vid=c23a7977-ffc6-4873-ae97-6ca27725df84"},"vehicle_type_id":"4","last_reported":1770111027,"current_range_meters":6800,"station_id":"ce4bhbp2rcd13ifvqesg","pricing_plan_id":"cebpf4jnsgd1na2vs0mg"},{"bike_id":"f8e7e4d9-f87a-42a2-9144-b6886b943f25","system_id":"levelo_inurba_marseille","lat":43.24996,"lon":5.38939,"is_reserved":false,"is_disabled":false,"rental_uris":{"android":"levelo://app?vid=f8e7e4d9-f87a-42a2-9144-b6886b943f25","ios":"levelo://app?vid=f8e7e4d9-f87a-42a2-9144-b6886b943f25"},"vehicle_type_id":"4","last_reported":1770111027,"current_range_meters":7200,"station_id":"ce4bhgp2rcd13ifvqfd0","pricing_plan_id":"cebpf4jnsgd1na2vs0mg"},{"bike_id":"dca930cd-8edd-4084-aa6f-af5fb496ef62","system_id":"levelo_inurba_marseille","lat":43.25344,"lon":5.42182,"is_reserved":false,"is_disabled":false,"rental_uris":{"android":"levelo://app?vid=dca930cd-8edd-4084-aa6f-af5fb496ef62","ios":"levelo://app?vid=dca930cd-8edd-4084-aa6f-af5fb496ef62"},"vehicle_type_id":"4","last_reported":1770111027,"current_range_meters":7200,"station_id":"st_d2m65c5bi1j21697t3ng","pricing_plan_id":"cebpf4jnsgd1na2vs0mg"},{"bike_id":"db4a7c18-fb00-49e4-812f-82d588271c3d","system_id":"levelo_inurba_marseille","lat":43.29873,"lon":5.3755,"is_reserved":false,"is_disabled":false,"rental_uris":{"android":"levelo://app?vid=db4a7c18-fb00-49e4-812f-82d588271c3d","ios":"levelo://app?vid=db4a7c18-fb00-49e4-812f-82d588271c3d"},"vehicle_type_id":"4","last_reported":1770111027,"current_range_meters":7200,"station_id":"","pricing_plan_id":"cebpf4jnsgd1na2vs0mg"},{"bike_id":"97da94e8-6710-449e-b681-519d523f1bd3","system_id":"levelo_inurba_marseille","lat":43.24076,"lon":5.37751,"is_reserved":false,"is_disabled":false,"rental_uris":{"android":"levelo://app?vid=97da94e8-6710-449e-b681-519d523f1bd3","ios":"levelo://app?vid=97da94e8-6710-449e-b681-519d523f1bd3"},"vehicle_type_id":"4","last_reported":1770111027,"current_range_meters":7200,"station_id":"ce4bhnp2rcd13ifvqgvg","pricing_plan_id":"cebpf4jnsgd1na2vs0mg"},{"bike_id":"3c072366-abe1-4cb1-bea8-dc553d840424","system_id":"levelo_inurba_marseille","lat":43.29757,"lon":5.42779,"is_reserved":false,"is_disabled":false,"rental_uris":{"android":"levelo://app?vid=3c072366-abe1-4cb1-bea8-dc553d840424","ios":"levelo://app?vid=3c072366-abe1-4cb1-bea8-dc553d840424"},"vehicle_type_id":"4","last_reported":1770111027,"current_range_meters":7200,"station_id":"st_d3md5207bmas73dh9klg","pricing_plan_id":"cebpf4jnsgd1na2vs0mg"},{"bike_id":"6ddf7e79-fc33-436a-9f2e-0297899e5607","system_id":"levelo_inurba_marseille","lat":43.28476,"lon":5.48392,"is_reserved":false,"is_disabled":false,"rental_uris":{"android":"levelo://app?vid=6ddf7e79-fc33-436a-9f2e-0297899e5607","ios":"levelo://app?vid=6ddf7e79-fc33-436a-9f2e-0297899e5607"},"vehicle_type_id":"4","last_reported":1770111027,"current_range_meters":7200,"station_id":"st_d3svhcjqgbts73a3dn0g","pricing_plan_id":"cebpf4jnsgd1na2vs0mg"},{"bike_id":"5e9e83ce-89d1-4637-8c22-0525afc16eb9","system_id":"levelo_inurba_marseille","lat":43.24668,"lon":5.38158,"is_reserved":false,"is_disabled":true,"rental_uris":{"android":"levelo://app?vid=5e9e83ce-89d1-4637-8c22-0525afc16eb9","ios":"levelo://app?vid=5e9e83ce-89d1-4637-8c22-0525afc16eb9"},"vehicle_type_id":"4","last_reported":1770111027,"current_range_meters":7200,"station_id":"ce4bhih2rcd13ifvqfr0","pricing_plan_id":"cebpf4jnsgd1na2vs0mg"},{"bike_id":"549d637b-91c5-48ec-83fa-865a463b6a4b","system_id":"levelo_inurba_marseille","lat":43.23185,"lon":5.35564,"is_reserved":false,"is_disabled":false,"rental_uris":{"android":"levelo://app?vid=549d637b-91c5-48ec-83fa-865a463b6a4b","ios":"levelo://app?vid=549d637b-91c5-48ec-83fa-865a463b6a4b"},"vehicle_type_id":"4","last_reported":1770111027,"current_range_meters":7200,"station_id":"ce4bhu92rcd13ifvqi70","pricing_plan_id":"cebpf4jnsgd1na2vs0mg"},{"bike_id":"e9c5afc7-c303-4df3-a0d1-811595814b02","system_id":"levelo_inurba_marseille","lat":43.24061,"lon":5.37772,"is_reserved":false,"is_disabled":false,"rental_uris":{"android":"levelo://app?vid=e9c5afc7-c303-4df3-a0d1-811595814b02","ios":"levelo://app?vid=e9c5afc7-c303-4df3-a0d1-811595814b02"},"vehicle_type_id":"4","last_reported":1770111027,"current_range_meters":7200,"station_id":"ce4bhnp2rcd13ifvqgvg","pricing_plan_id":"cebpf4jnsgd1na2vs0mg"},{"bike_id":"34e4497e-004e-4d33-b563-df43c3f1dff0","system_id":"levelo_inurba_marseille","lat":43.291625,"lon":5.388285,"is_reserved":false,"is_disabled":false,"rental_uris":{"android":"levelo://app?vid=34e4497e-004e-4d33-b563-df43c3f1dff0","ios":"levelo://app?vid=34e4497e-004e-4d33-b563-df43c3f1dff0"},"vehicle_type_id":"4","last_reported":1770111027,"current_range_meters":7200,"station_id":"ce4bh4p2rcd13ifvqe0g","pricing_plan_id":"cebpf4jnsgd1na2vs0mg"},{"bike_id":"71a7614c-8b3d-437e-a07f-6655ea820dce","system_id":"levelo_inurba_marseille","lat":43.30135,"lon":5.38083,"is_reserved":false,"is_disabled":false,"rental_uris":{"android":"levelo://app?vid=71a7614c-8b3d-437e-a07f-6655ea820dce","ios":"levelo://app?vid=71a7614c-8b3d-437e-a07f-6655ea820dce"},"vehicle_type_id":"4","last_reported":1770111027,"current_range_meters":7200,"station_id":"ce4bgjp2rcd13ifvqbh0","pricing_plan_id":"cebpf4jnsgd1na2vs0mg"},{"bike_id":"3295891a-1e90-498a-8cf8-9c94a73e8e70","system_id":"levelo_inurba_marseille","lat":43.24814,"lon":5.37456,"is_reserved":false,"is_disabled":false,"rental_uris":{"android":"levelo://app?vid=3295891a-1e90-498a-8cf8-9c94a73e8e70","ios":"levelo://app?vid=3295891a-1e90-498a-8cf8-9c94a73e8e70"},"vehicle_type_id":"4","last_reported":1770111027,"current_range_meters":7200,"station_id":"ce4bhgh2rcd13ifvqfb0","pricing_plan_id":"cebpf4jnsgd1na2vs0mg"},{"bike_id":"9cbcf585-a58e-4938-b69e-d4c3022c57ef","system_id":"levelo_inurba_marseille","lat":43.24081,"lon":5.3775,"is_reserved":false,"is_disabled":false,"rental_uris":{"android":"levelo://app?vid=9cbcf585-a58e-4938-b69e-d4c3022c57ef","ios":"levelo://app?vid=9cbcf585-a58e-4938-b69e-d4c3022c57ef"},"vehicle_type_id":"4","last_reported":1770111027,"current_range_meters":7200,"station_id":"ce4bhnp2rcd13ifvqgvg","pricing_plan_id":"cebpf4jnsgd1na2vs0mg"},{"bike_id":"f794e92c-3dd5-4311-8e23-65356a57c20e","system_id":"levelo_inurba_marseille","lat":43.30918,"lon":5.36854,"is_reserved":false,"is_disabled":false,"rental_uris":{"android":"levelo://app?vid=f794e92c-3dd5-4311-8e23-65356a57c20e","ios":"levelo://app?vid=f794e92c-3dd5-4311-8e23-65356a57c20e"},"vehicle_type_id":"4","last_reported":1770111027,"current_range_meters":7200,"station_id":"ce4bgn92rcd13ifvqbvg","pricing_plan_id":"cebpf4jnsgd1na2vs0mg"},{"bike_id":"e153d04b-7324-4689-804a-a9f73bb2a0de","system_id":"levelo_inurba_marseille","lat":43.27505,"lon":5.42454,"is_reserved":false,"is_disabled":false,"rental_uris":{"android":"levelo://app?vid=e153d04b-7324-4689-804a-a9f73bb2a0de","ios":"levelo://app?vid=e153d04b-7324-4689-804a-a9f73bb2a0de"},"vehicle_type_id":"4","last_reported":1770111027,"current_range_meters":7200,"station_id":"ce4bhn92rcd13ifvqgrg","pricing_plan_id":"cebpf4jnsgd1na2vs0mg"},{"bike_id":"032d1622-f10e-4e31-9323-899def03e537","system_id":"levelo_inurba_marseille","lat":43.31054,"lon":5.37113,"is_reserved":false,"is_disabled":true,"rental_uris":{"android":"levelo://app?vid=032d1622-f10e-4e31-9323-899def03e537","ios":"levelo://app?vid=032d1622-f10e-4e31-9323-899def03e537"},"vehicle_type_id":"4","last_reported":1770111027,"current_range_meters":7200,"station_id":"st_d4kl2rp97mjs73e7tdfg","pricing_plan_id":"cebpf4jnsgd1na2vs0mg"},{"bike_id":"36b819bc-afea-4caa-adde-15e0cf713e1f","system_id":"levelo_inurba_marseille","lat":43.26206,"lon":5.3793,"is_reserved":false,"is_disabled":false,"rental_uris":{"android":"levelo://app?vid=36b819bc-afea-4caa-adde-15e0cf713e1f","ios":"levelo://app?vid=36b819bc-afea-4caa-adde-15e0cf713e1f"},"vehicle_type_id":"4","last_reported":1770111027,"current_range_meters":7200,"station_id":"ce4bhjp2rcd13ifvqg90","pricing_plan_id":"cebpf4jnsgd1na2vs0mg"},{"bike_id":"8300bb2e-96f4-4e9e-92a9-a4d1e04694a4","system_id":"levelo_inurba_marseille","lat":43.23156,"lon":5.43699,"is_reserved":false,"is_disabled":false,"rental_uris":{"android":"levelo://app?vid=8300bb2e-96f4-4e9e-92a9-a4d1e04694a4","ios":"levelo://app?vid=8300bb2e-96f4-4e9e-92a9-a4d1e04694a4"},"vehicle_type_id":"4","last_reported":1770111027,"current_range_meters":8000,"station_id":"ce4bhmp2rcd13ifvqgog","pricing_plan_id":"cebpf4jnsgd1na2vs0mg"},{"bike_id":"8c57b3f8-4314-4c54-b880-d076bee033fb","system_id":"levelo_inurba_marseille","lat":43.23158,"lon":5.43766,"is_reserved":false,"is_disabled":false,"rental_uris":{"android":"levelo://app?vid=8c57b3f8-4314-4c54-b880-d076bee033fb","ios":"levelo://app?vid=8c57b3f8-4314-4c54-b880-d076bee033fb"},"vehicle_type_id":"4","last_reported":1770111027,"current_range_meters":8000,"station_id":"","pricing_plan_id":"cebpf4jnsgd1na2vs0mg"},{"bike_id":"fd4003f9-ae57-43d9-af54-09e855d38b22","system_id":"levelo_inurba_marseille","lat":43.28535,"lon":5.44102,"is_reserved":false,"is_disabled":false,"rental_uris":{"android":"levelo://app?vid=fd4003f9-ae57-43d9-af54-09e855d38b22","ios":"levelo://app?vid=fd4003f9-ae57-43d9-af54-09e855d38b22"},"vehicle_type_id":"4","last_reported":1770111027,"current_range_meters":8000,"station_id":"st_d3j3df2ikq2c7380ej80","pricing_plan_id":"cebpf4jnsgd1na2vs0mg"},{"bike_id":"67949cb0-ad73-42aa-8494-c2a7d6735f87","system_id":"levelo_inurba_marseille","lat":43.31083,"lon":5.36995,"is_reserved":false,"is_disabled":false,"rental_uris":{"android":"levelo://app?vid=67949cb0-ad73-42aa-8494-c2a7d6735f87","ios":"levelo://app?vid=67949cb0-ad73-42aa-8494-c2a7d6735f87"},"vehicle_type_id":"4","last_reported":1770111027,"current_range_meters":8000,"station_id":"st_d4kl2rp97mjs73e7tdfg","pricing_plan_id":"cebpf4jnsgd1na2vs0mg"},{"bike_id":"006a308e-2968-4fef-b0b0-3fcff57c6fd4","system_id":"levelo_inurba_marseille","lat":43.27208,"lon":5.39178,"is_reserved":false,"is_disabled":false,"rental_uris":{"android":"levelo://app?vid=006a308e-2968-4fef-b0b0-3fcff57c6fd4","ios":"levelo://app?vid=006a308e-2968-4fef-b0b0-3fcff57c6fd4"},"vehicle_type_id":"4","last_reported":1770111027,"current_range_meters":8000,"station_id":"ce4bhhp2rcd13ifvqfm0","pricing_plan_id":"cebpf4jnsgd1na2vs0mg"},{"bike_id":"c3ba0fed-3d29-4191-b8a3-c899b1e9e5ad","system_id":"levelo_inurba_marseille","lat":43.25626,"lon":5.38186,"is_reserved":false,"is_disabled":false,"rental_uris":{"android":"levelo://app?vid=c3ba0fed-3d29-4191-b8a3-c899b1e9e5ad","ios":"levelo://app?vid=c3ba0fed-3d29-4191-b8a3-c899b1e9e5ad"},"vehicle_type_id":"4","last_reported":1770111027,"current_range_meters":8000,"station_id":"ce4bhih2rcd13ifvqfs0","pricing_plan_id":"cebpf4jnsgd1na2vs0mg"},{"bike_id":"76fde5a4-a01e-4f2d-a6c0-2e22034e6d36","system_id":"levelo_inurba_marseille","lat":43.29092,"lon":5.38154,"is_reserved":false,"is_disabled":false,"rental_uris":{"android":"levelo://app?vid=76fde5a4-a01e-4f2d-a6c0-2e22034e6d36","ios":"levelo://app?vid=76fde5a4-a01e-4f2d-a6c0-2e22034e6d36"},"vehicle_type_id":"4","last_reported":1770111027,"current_range_meters":8000,"station_id":"ce4bh512rcd13ifvqe2g","pricing_plan_id":"cebpf4jnsgd1na2vs0mg"},{"bike_id":"75e81fe6-5e3c-4daa-a124-b03d22271ebd","system_id":"levelo_inurba_marseille","lat":43.24075,"lon":5.37767,"is_reserved":false,"is_disabled":false,"rental_uris":{"android":"levelo://app?vid=75e81fe6-5e3c-4daa-a124-b03d22271ebd","ios":"levelo://app?vid=75e81fe6-5e3c-4daa-a124-b03d22271ebd"},"vehicle_type_id":"4","last_reported":1770111027,"current_range_meters":8000,"station_id":"ce4bhnp2rcd13ifvqgvg","pricing_plan_id":"cebpf4jnsgd1na2vs0mg"},{"bike_id":"a93d7c7b-8ccc-420e-9aa5-ec0a4c2fecf7","system_id":"levelo_inurba_marseille","lat":43.28974,"lon":5.37835,"is_reserved":false,"is_disabled":false,"rental_uris":{"android":"levelo://app?vid=a93d7c7b-8ccc-420e-9aa5-ec0a4c2fecf7","ios":"levelo://app?vid=a93d7c7b-8ccc-420e-9aa5-ec0a4c2fecf7"},"vehicle_type_id":"4","last_reported":1770111027,"current_range_meters":8000,"station_id":"ce4bh9p2rcd13ifvqed0","pricing_plan_id":"cebpf4jnsgd1na2vs0mg"},{"bike_id":"c255d9ca-6ba6-4a87-a9e1-dc73c79573d7","system_id":"levelo_inurba_marseille","lat":43.274906,"lon":5.424662,"is_reserved":false,"is_disabled":false,"rental_uris":{"android":"levelo://app?vid=c255d9ca-6ba6-4a87-a9e1-dc73c79573d7","ios":"levelo://app?vid=c255d9ca-6ba6-4a87-a9e1-dc73c79573d7"},"vehicle_type_id":"4","last_reported":1770111027,"current_range_meters":8000,"station_id":"ce4bhn92rcd13ifvqgrg","pricing_plan_id":"cebpf4jnsgd1na2vs0mg"},{"bike_id":"f151dc98-33b5-4246-8c7d-11decedd59f3","system_id":"levelo_inurba_marseille","lat":43.30352,"lon":5.42503,"is_reserved":false,"is_disabled":false,"rental_uris":{"android":"levelo://app?vid=f151dc98-33b5-4246-8c7d-11decedd59f3","ios":"levelo://app?vid=f151dc98-33b5-4246-8c7d-11decedd59f3"},"vehicle_type_id":"4","last_reported":1770111027,"current_range_meters":8000,"station_id":"ce4bhoh2rcd13ifvqh6g","pricing_plan_id":"cebpf4jnsgd1na2vs0mg"},{"bike_id":"09fa764e-a49b-4c31-aae5-f87fd34f13f2","system_id":"levelo_inurba_marseille","lat":43.33606,"lon":5.41037,"is_reserved":false,"is_disabled":false,"rental_uris":{"android":"levelo://app?vid=09fa764e-a49b-4c31-aae5-f87fd34f13f2","ios":"levelo://app?vid=09fa764e-a49b-4c31-aae5-f87fd34f13f2"},"vehicle_type_id":"4","last_reported":1770111027,"current_range_meters":8000,"station_id":"ce4bhqh2rcd13ifvqhmg","pricing_plan_id":"cebpf4jnsgd1na2vs0mg"},{"bike_id":"be616c8a-7d9f-44f2-9914-b719781dfdee","system_id":"levelo_inurba_marseille","lat":43.23969,"lon":5.3663,"is_reserved":false,"is_disabled":false,"rental_uris":{"android":"levelo://app?vid=be616c8a-7d9f-44f2-9914-b719781dfdee","ios":"levelo://app?vid=be616c8a-7d9f-44f2-9914-b719781dfdee"},"vehicle_type_id":"4","last_reported":1770111027,"current_range_meters":8000,"station_id":"ce4bhi12rcd13ifvqfp0","pricing_plan_id":"cebpf4jnsgd1na2vs0mg"},{"bike_id":"6721ecb3-16ac-4646-b8e2-a05f3febd1fa","system_id":"levelo_inurba_marseille","lat":43.2913,"lon":5.3884,"is_reserved":false,"is_disabled":false,"rental_uris":{"android":"levelo://app?vid=6721ecb3-16ac-4646-b8e2-a05f3febd1fa","ios":"levelo://app?vid=6721ecb3-16ac-4646-b8e2-a05f3febd1fa"},"vehicle_type_id":"4","last_reported":1770111027,"current_range_meters":8000,"station_id":"","pricing_plan_id":"cebpf4jnsgd1na2vs0mg"},{"bike_id":"deb9e4eb-a481-4dbd-9838-7e21c4114a77","system_id":"levelo_inurba_marseille","lat":43.24633,"lon":5.38901,"is_reserved":false,"is_disabled":false,"rental_uris":{"android":"levelo://app?vid=deb9e4eb-a481-4dbd-9838-7e21c4114a77","ios":"levelo://app?vid=deb9e4eb-a481-4dbd-9838-7e21c4114a77"},"vehicle_type_id":"4","last_reported":1770111027,"current_range_meters":8000,"station_id":"ce4bhg12rcd13ifvqf60","pricing_plan_id":"cebpf4jnsgd1na2vs0mg"},{"bike_id":"3f70a95c-1ff9-4c67-9116-94ea3e4facf6","system_id":"levelo_inurba_marseille","lat":43.25594,"lon":5.3824,"is_reserved":false,"is_disabled":false,"rental_uris":{"android":"levelo://app?vid=3f70a95c-1ff9-4c67-9116-94ea3e4facf6","ios":"levelo://app?vid=3f70a95c-1ff9-4c67-9116-94ea3e4facf6"},"vehicle_type_id":"4","last_reported":1770111027,"current_range_meters":8000,"station_id":"ce4bhih2rcd13ifvqfs0","pricing_plan_id":"cebpf4jnsgd1na2vs0mg"},{"bike_id":"43e0997d-11f5-4acb-99fb-b7f34e828e5e","system_id":"levelo_inurba_marseille","lat":43.32496,"lon":5.38301,"is_reserved":false,"is_disabled":false,"rental_uris":{"android":"levelo://app?vid=43e0997d-11f5-4acb-99fb-b7f34e828e5e","ios":"levelo://app?vid=43e0997d-11f5-4acb-99fb-b7f34e828e5e"},"vehicle_type_id":"4","last_reported":1770111027,"current_range_meters":8000,"station_id":"st_d4asgbiv49dc73anf9m0","pricing_plan_id":"cebpf4jnsgd1na2vs0mg"},{"bike_id":"7409e760-85b4-4fbe-9ac1-c71657f4de83","system_id":"levelo_inurba_marseille","lat":43.24995,"lon":5.38955,"is_reserved":false,"is_disabled":false,"rental_uris":{"android":"levelo://app?vid=7409e760-85b4-4fbe-9ac1-c71657f4de83","ios":"levelo://app?vid=7409e760-85b4-4fbe-9ac1-c71657f4de83"},"vehicle_type_id":"4","last_reported":1770111027,"current_range_meters":8000,"station_id":"ce4bhgp2rcd13ifvqfd0","pricing_plan_id":"cebpf4jnsgd1na2vs0mg"},{"bike_id":"f4751e73-dc3e-4172-8332-b7eb4a17da25","system_id":"levelo_inurba_marseille","lat":43.26565,"lon":5.37289,"is_reserved":false,"is_disabled":false,"rental_uris":{"android":"levelo://app?vid=f4751e73-dc3e-4172-8332-b7eb4a17da25","ios":"levelo://app?vid=f4751e73-dc3e-4172-8332-b7eb4a17da25"},"vehicle_type_id":"4","last_reported":1770111027,"current_range_meters":8000,"station_id":"ce4bhg12rcd13ifvqf70","pricing_plan_id":"cebpf4jnsgd1na2vs0mg"},{"bike_id":"1ca9b86e-15f7-45c3-87f8-7bc2ee340158","system_id":"levelo_inurba_marseille","lat":43.2749,"lon":5.4246,"is_reserved":false,"is_disabled":false,"rental_uris":{"android":"levelo://app?vid=1ca9b86e-15f7-45c3-87f8-7bc2ee340158","ios":"levelo://app?vid=1ca9b86e-15f7-45c3-87f8-7bc2ee340158"},"vehicle_type_id":"4","last_reported":1770111027,"current_range_meters":8400,"station_id":"ce4bhn92rcd13ifvqgrg","pricing_plan_id":"cebpf4jnsgd1na2vs0mg"},{"bike_id":"151047fe-b117-41cf-9416-4f91d0d3c1a9","system_id":"levelo_inurba_marseille","lat":43.31856,"lon":5.36908,"is_reserved":false,"is_disabled":false,"rental_uris":{"android":"levelo://app?vid=151047fe-b117-41cf-9416-4f91d0d3c1a9","ios":"levelo://app?vid=151047fe-b117-41cf-9416-4f91d0d3c1a9"},"vehicle_type_id":"4","last_reported":1770111027,"current_range_meters":8400,"station_id":"","pricing_plan_id":"cebpf4jnsgd1na2vs0mg"},{"bike_id":"eacab8c5-ae8d-4933-89ca-bb8acaba05e8","system_id":"levelo_inurba_marseille","lat":43.24801,"lon":5.37457,"is_reserved":false,"is_disabled":false,"rental_uris":{"android":"levelo://app?vid=eacab8c5-ae8d-4933-89ca-bb8acaba05e8","ios":"levelo://app?vid=eacab8c5-ae8d-4933-89ca-bb8acaba05e8"},"vehicle_type_id":"4","last_reported":1770111027,"current_range_meters":8400,"station_id":"ce4bhgh2rcd13ifvqfb0","pricing_plan_id":"cebpf4jnsgd1na2vs0mg"},{"bike_id":"39f4a860-daf0-4a3c-beb4-b2e8ce134979","system_id":"levelo_inurba_marseille","lat":43.29509,"lon":5.3751,"is_reserved":false,"is_disabled":false,"rental_uris":{"android":"levelo://app?vid=39f4a860-daf0-4a3c-beb4-b2e8ce134979","ios":"levelo://app?vid=39f4a860-daf0-4a3c-beb4-b2e8ce134979"},"vehicle_type_id":"4","last_reported":1770111027,"current_range_meters":8400,"station_id":"ce4bgkp2rcd13ifvqbmg","pricing_plan_id":"cebpf4jnsgd1na2vs0mg"},{"bike_id":"5d2a7df9-4ddf-4885-8075-b7755ef05fb8","system_id":"levelo_inurba_marseille","lat":43.23036,"lon":5.40302,"is_reserved":false,"is_disabled":false,"rental_uris":{"android":"levelo://app?vid=5d2a7df9-4ddf-4885-8075-b7755ef05fb8","ios":"levelo://app?vid=5d2a7df9-4ddf-4885-8075-b7755ef05fb8"},"vehicle_type_id":"4","last_reported":1770111027,"current_range_meters":8400,"station_id":"","pricing_plan_id":"cebpf4jnsgd1na2vs0mg"},{"bike_id":"658d0b20-6292-4d6c-85b2-b3938e69fd12","system_id":"levelo_inurba_marseille","lat":43.28266,"lon":5.38577,"is_reserved":false,"is_disabled":false,"rental_uris":{"android":"levelo://app?vid=658d0b20-6292-4d6c-85b2-b3938e69fd12","ios":"levelo://app?vid=658d0b20-6292-4d6c-85b2-b3938e69fd12"},"vehicle_type_id":"4","last_reported":1770111027,"current_range_meters":8400,"station_id":"","pricing_plan_id":"cebpf4jnsgd1na2vs0mg"},{"bike_id":"e40af1ac-84eb-4104-884b-638a0d49d653","system_id":"levelo_inurba_marseille","lat":43.27206,"lon":5.39186,"is_reserved":false,"is_disabled":false,"rental_uris":{"android":"levelo://app?vid=e40af1ac-84eb-4104-884b-638a0d49d653","ios":"levelo://app?vid=e40af1ac-84eb-4104-884b-638a0d49d653"},"vehicle_type_id":"4","last_reported":1770111027,"current_range_meters":8400,"station_id":"ce4bhhp2rcd13ifvqfm0","pricing_plan_id":"cebpf4jnsgd1na2vs0mg"},{"bike_id":"530b3fec-7af4-45eb-bf12-cc02b58eae44","system_id":"levelo_inurba_marseille","lat":43.24664,"lon":5.38184,"is_reserved":false,"is_disabled":false,"rental_uris":{"android":"levelo://app?vid=530b3fec-7af4-45eb-bf12-cc02b58eae44","ios":"levelo://app?vid=530b3fec-7af4-45eb-bf12-cc02b58eae44"},"vehicle_type_id":"4","last_reported":1770111027,"current_range_meters":8400,"station_id":"ce4bhih2rcd13ifvqfr0","pricing_plan_id":"cebpf4jnsgd1na2vs0mg"},{"bike_id":"d8928f4f-435a-4ca5-acc4-cd5bcabdf64d","system_id":"levelo_inurba_marseille","lat":43.305217,"lon":5.366385,"is_reserved":false,"is_disabled":false,"rental_uris":{"android":"levelo://app?vid=d8928f4f-435a-4ca5-acc4-cd5bcabdf64d","ios":"levelo://app?vid=d8928f4f-435a-4ca5-acc4-cd5bcabdf64d"},"vehicle_type_id":"4","last_reported":1770111027,"current_range_meters":8400,"station_id":"ce4bgs12rcd13ifvqcag","pricing_plan_id":"cebpf4jnsgd1na2vs0mg"},{"bike_id":"bb9b8669-9aad-44de-ae95-54030243e12c","system_id":"levelo_inurba_marseille","lat":43.300852,"lon":5.381989,"is_reserved":false,"is_disabled":false,"rental_uris":{"android":"levelo://app?vid=bb9b8669-9aad-44de-ae95-54030243e12c","ios":"levelo://app?vid=bb9b8669-9aad-44de-ae95-54030243e12c"},"vehicle_type_id":"4","last_reported":1770111027,"current_range_meters":8400,"station_id":"ce4bgj92rcd13ifvqbd0","pricing_plan_id":"cebpf4jnsgd1na2vs0mg"},{"bike_id":"bcbaa8a6-886f-4091-ae26-8ec7b68ef274","system_id":"levelo_inurba_marseille","lat":43.23795,"lon":5.36638,"is_reserved":false,"is_disabled":false,"rental_uris":{"android":"levelo://app?vid=bcbaa8a6-886f-4091-ae26-8ec7b68ef274","ios":"levelo://app?vid=bcbaa8a6-886f-4091-ae26-8ec7b68ef274"},"vehicle_type_id":"4","last_reported":1770111027,"current_range_meters":8400,"station_id":"st_d3nk18o9ro0c73en2l3g","pricing_plan_id":"cebpf4jnsgd1na2vs0mg"},{"bike_id":"5b3811ef-5681-4c18-aac4-a62920f9a85c","system_id":"levelo_inurba_marseille","lat":43.28469,"lon":5.51499,"is_reserved":false,"is_disabled":false,"rental_uris":{"android":"levelo://app?vid=5b3811ef-5681-4c18-aac4-a62920f9a85c","ios":"levelo://app?vid=5b3811ef-5681-4c18-aac4-a62920f9a85c"},"vehicle_type_id":"4","last_reported":1770111027,"current_range_meters":8400,"station_id":"","pricing_plan_id":"cebpf4jnsgd1na2vs0mg"},{"bike_id":"ae621ab1-7f09-408a-8487-c410d36c4119","system_id":"levelo_inurba_marseille","lat":43.2668,"lon":5.3827,"is_reserved":false,"is_disabled":false,"rental_uris":{"android":"levelo://app?vid=ae621ab1-7f09-408a-8487-c410d36c4119","ios":"levelo://app?vid=ae621ab1-7f09-408a-8487-c410d36c4119"},"vehicle_type_id":"4","last_reported":1770111027,"current_range_meters":8400,"station_id":"ce4bhg92rcd13ifvqf90","pricing_plan_id":"cebpf4jnsgd1na2vs0mg"},{"bike_id":"6648b726-248a-4235-8962-e02d3f57c3f3","system_id":"levelo_inurba_marseille","lat":43.24994,"lon":5.3889,"is_reserved":false,"is_disabled":false,"rental_uris":{"android":"levelo://app?vid=6648b726-248a-4235-8962-e02d3f57c3f3","ios":"levelo://app?vid=6648b726-248a-4235-8962-e02d3f57c3f3"},"vehicle_type_id":"4","last_reported":1770111027,"current_range_meters":8400,"station_id":"ce4bhgp2rcd13ifvqfd0","pricing_plan_id":"cebpf4jnsgd1na2vs0mg"},{"bike_id":"1e18de4d-43f8-4d9b-8e22-41974ddf36d0","system_id":"levelo_inurba_marseille","lat":43.33537,"lon":5.37493,"is_reserved":false,"is_disabled":false,"rental_uris":{"android":"levelo://app?vid=1e18de4d-43f8-4d9b-8e22-41974ddf36d0","ios":"levelo://app?vid=1e18de4d-43f8-4d9b-8e22-41974ddf36d0"},"vehicle_type_id":"4","last_reported":1770111027,"current_range_meters":8400,"station_id":"st_d46tts09ee8s73dlu43g","pricing_plan_id":"cebpf4jnsgd1na2vs0mg"},{"bike_id":"97fa5df9-bb8a-491d-b8f9-757c5f86520e","system_id":"levelo_inurba_marseille","lat":43.27491,"lon":5.42464,"is_reserved":false,"is_disabled":false,"rental_uris":{"android":"levelo://app?vid=97fa5df9-bb8a-491d-b8f9-757c5f86520e","ios":"levelo://app?vid=97fa5df9-bb8a-491d-b8f9-757c5f86520e"},"vehicle_type_id":"4","last_reported":1770111027,"current_range_meters":8400,"station_id":"ce4bhn92rcd13ifvqgrg","pricing_plan_id":"cebpf4jnsgd1na2vs0mg"},{"bike_id":"6cfc0483-2eae-4c41-b6a9-047e54ee8cad","system_id":"levelo_inurba_marseille","lat":43.29914,"lon":5.37483,"is_reserved":false,"is_disabled":false,"rental_uris":{"android":"levelo://app?vid=6cfc0483-2eae-4c41-b6a9-047e54ee8cad","ios":"levelo://app?vid=6cfc0483-2eae-4c41-b6a9-047e54ee8cad"},"vehicle_type_id":"4","last_reported":1770111027,"current_range_meters":8400,"station_id":"ce4bgjh2rcd13ifvqbg0","pricing_plan_id":"cebpf4jnsgd1na2vs0mg"},{"bike_id":"8bd82ffc-fd6b-446a-9eb5-e844a875f351","system_id":"levelo_inurba_marseille","lat":43.26195,"lon":5.37468,"is_reserved":false,"is_disabled":false,"rental_uris":{"android":"levelo://app?vid=8bd82ffc-fd6b-446a-9eb5-e844a875f351","ios":"levelo://app?vid=8bd82ffc-fd6b-446a-9eb5-e844a875f351"},"vehicle_type_id":"4","last_reported":1770111027,"current_range_meters":8400,"station_id":"ce4bhgp2rcd13ifvqfc0","pricing_plan_id":"cebpf4jnsgd1na2vs0mg"},{"bike_id":"06cf9f80-ebe0-40e5-bc7e-3f57fa19d75c","system_id":"levelo_inurba_marseille","lat":43.30369,"lon":5.42496,"is_reserved":false,"is_disabled":false,"rental_uris":{"android":"levelo://app?vid=06cf9f80-ebe0-40e5-bc7e-3f57fa19d75c","ios":"levelo://app?vid=06cf9f80-ebe0-40e5-bc7e-3f57fa19d75c"},"vehicle_type_id":"4","last_reported":1770111027,"current_range_meters":8800,"station_id":"ce4bhoh2rcd13ifvqh6g","pricing_plan_id":"cebpf4jnsgd1na2vs0mg"},{"bike_id":"62e27a91-d1f4-4b1a-b2a6-3405a804b362","system_id":"levelo_inurba_marseille","lat":43.27063,"lon":5.42293,"is_reserved":false,"is_disabled":false,"rental_uris":{"android":"levelo://app?vid=62e27a91-d1f4-4b1a-b2a6-3405a804b362","ios":"levelo://app?vid=62e27a91-d1f4-4b1a-b2a6-3405a804b362"},"vehicle_type_id":"4","last_reported":1770111027,"current_range_meters":8800,"station_id":"ce4bhk92rcd13ifvqgb0","pricing_plan_id":"cebpf4jnsgd1na2vs0mg"},{"bike_id":"c51ba214-bdf8-44d6-ac3f-75f2b57a3b52","system_id":"levelo_inurba_marseille","lat":43.2872,"lon":5.37943,"is_reserved":false,"is_disabled":false,"rental_uris":{"android":"levelo://app?vid=c51ba214-bdf8-44d6-ac3f-75f2b57a3b52","ios":"levelo://app?vid=c51ba214-bdf8-44d6-ac3f-75f2b57a3b52"},"vehicle_type_id":"4","last_reported":1770111027,"current_range_meters":8800,"station_id":"ce4bh9p2rcd13ifvqec0","pricing_plan_id":"cebpf4jnsgd1na2vs0mg"},{"bike_id":"90cafb22-43f6-47bb-9e80-c8fa9891709f","system_id":"levelo_inurba_marseille","lat":43.262,"lon":5.37907,"is_reserved":false,"is_disabled":false,"rental_uris":{"android":"levelo://app?vid=90cafb22-43f6-47bb-9e80-c8fa9891709f","ios":"levelo://app?vid=90cafb22-43f6-47bb-9e80-c8fa9891709f"},"vehicle_type_id":"4","last_reported":1770111027,"current_range_meters":8800,"station_id":"ce4bhjp2rcd13ifvqg90","pricing_plan_id":"cebpf4jnsgd1na2vs0mg"},{"bike_id":"bc138c42-54ae-4572-8ad1-08dfff7efec2","system_id":"levelo_inurba_marseille","lat":43.29586,"lon":5.38138,"is_reserved":false,"is_disabled":false,"rental_uris":{"android":"levelo://app?vid=bc138c42-54ae-4572-8ad1-08dfff7efec2","ios":"levelo://app?vid=bc138c42-54ae-4572-8ad1-08dfff7efec2"},"vehicle_type_id":"4","last_reported":1770111027,"current_range_meters":8800,"station_id":"ce4bgl12rcd13ifvqbo0","pricing_plan_id":"cebpf4jnsgd1na2vs0mg"},{"bike_id":"7f77f6a6-911c-44cf-97f5-71224b3633e0","system_id":"levelo_inurba_marseille","lat":43.25253,"lon":5.38036,"is_reserved":false,"is_disabled":false,"rental_uris":{"android":"levelo://app?vid=7f77f6a6-911c-44cf-97f5-71224b3633e0","ios":"levelo://app?vid=7f77f6a6-911c-44cf-97f5-71224b3633e0"},"vehicle_type_id":"4","last_reported":1770111027,"current_range_meters":8800,"station_id":"","pricing_plan_id":"cebpf4jnsgd1na2vs0mg"},{"bike_id":"ba3390f5-14ed-4160-abcf-8bea19885613","system_id":"levelo_inurba_marseille","lat":43.28479,"lon":5.48408,"is_reserved":false,"is_disabled":false,"rental_uris":{"android":"levelo://app?vid=ba3390f5-14ed-4160-abcf-8bea19885613","ios":"levelo://app?vid=ba3390f5-14ed-4160-abcf-8bea19885613"},"vehicle_type_id":"4","last_reported":1770111027,"current_range_meters":8800,"station_id":"st_d3svhcjqgbts73a3dn0g","pricing_plan_id":"cebpf4jnsgd1na2vs0mg"},{"bike_id":"ef30bb24-f45f-400c-9967-a2a3b2da1488","system_id":"levelo_inurba_marseille","lat":43.28266,"lon":5.39421,"is_reserved":false,"is_disabled":false,"rental_uris":{"android":"levelo://app?vid=ef30bb24-f45f-400c-9967-a2a3b2da1488","ios":"levelo://app?vid=ef30bb24-f45f-400c-9967-a2a3b2da1488"},"vehicle_type_id":"4","last_reported":1770111027,"current_range_meters":8800,"station_id":"","pricing_plan_id":"cebpf4jnsgd1na2vs0mg"},{"bike_id":"c5da6cdf-a47d-4bb1-b9c2-506312a3c50d","system_id":"levelo_inurba_marseille","lat":43.29173,"lon":5.37163,"is_reserved":false,"is_disabled":false,"rental_uris":{"android":"levelo://app?vid=c5da6cdf-a47d-4bb1-b9c2-506312a3c50d","ios":"levelo://app?vid=c5da6cdf-a47d-4bb1-b9c2-506312a3c50d"},"vehicle_type_id":"4","last_reported":1770111027,"current_range_meters":8800,"station_id":"ce4bha92rcd13ifvqeh0","pricing_plan_id":"cebpf4jnsgd1na2vs0mg"},{"bike_id":"454ec198-d273-438b-b7dc-8d61915cb03a","system_id":"levelo_inurba_marseille","lat":43.23144,"lon":5.43717,"is_reserved":false,"is_disabled":false,"rental_uris":{"android":"levelo://app?vid=454ec198-d273-438b-b7dc-8d61915cb03a","ios":"levelo://app?vid=454ec198-d273-438b-b7dc-8d61915cb03a"},"vehicle_type_id":"4","last_reported":1770111027,"current_range_meters":8800,"station_id":"ce4bhmp2rcd13ifvqgog","pricing_plan_id":"cebpf4jnsgd1na2vs0mg"},{"bike_id":"fba83296-cf08-4ba9-8267-d1dc13133a44","system_id":"levelo_inurba_marseille","lat":43.26095,"lon":5.40608,"is_reserved":false,"is_disabled":false,"rental_uris":{"android":"levelo://app?vid=fba83296-cf08-4ba9-8267-d1dc13133a44","ios":"levelo://app?vid=fba83296-cf08-4ba9-8267-d1dc13133a44"},"vehicle_type_id":"4","last_reported":1770111027,"current_range_meters":8800,"station_id":"","pricing_plan_id":"cebpf4jnsgd1na2vs0mg"},{"bike_id":"5a9e6c2f-f38a-4f21-80e5-b6cdedc2416f","system_id":"levelo_inurba_marseille","lat":43.31695,"lon":5.40472,"is_reserved":false,"is_disabled":false,"rental_uris":{"android":"levelo://app?vid=5a9e6c2f-f38a-4f21-80e5-b6cdedc2416f","ios":"levelo://app?vid=5a9e6c2f-f38a-4f21-80e5-b6cdedc2416f"},"vehicle_type_id":"4","last_reported":1770111027,"current_range_meters":8800,"station_id":"ce4bh012rcd13ifvqd00","pricing_plan_id":"cebpf4jnsgd1na2vs0mg"},{"bike_id":"444b7964-d637-4bc2-bbcf-ca0cd5725763","system_id":"levelo_inurba_marseille","lat":43.27326,"lon":5.39078,"is_reserved":false,"is_disabled":true,"rental_uris":{"android":"levelo://app?vid=444b7964-d637-4bc2-bbcf-ca0cd5725763","ios":"levelo://app?vid=444b7964-d637-4bc2-bbcf-ca0cd5725763"},"vehicle_type_id":"4","last_reported":1770111027,"current_range_meters":8800,"station_id":"ce4bhgp2rcd13ifvqfe0","pricing_plan_id":"cebpf4jnsgd1na2vs0mg"},{"bike_id":"4c7f8a28-857e-4592-bbe1-acfc605592d3","system_id":"levelo_inurba_marseille","lat":43.29228,"lon":5.42519,"is_reserved":false,"is_disabled":false,"rental_uris":{"android":"levelo://app?vid=4c7f8a28-857e-4592-bbe1-acfc605592d3","ios":"levelo://app?vid=4c7f8a28-857e-4592-bbe1-acfc605592d3"},"vehicle_type_id":"4","last_reported":1770111027,"current_range_meters":8800,"station_id":"","pricing_plan_id":"cebpf4jnsgd1na2vs0mg"},{"bike_id":"1bff195f-878b-4a6e-8675-61979ef9dcf7","system_id":"levelo_inurba_marseille","lat":43.2322,"lon":5.35563,"is_reserved":false,"is_disabled":false,"rental_uris":{"android":"levelo://app?vid=1bff195f-878b-4a6e-8675-61979ef9dcf7","ios":"levelo://app?vid=1bff195f-878b-4a6e-8675-61979ef9dcf7"},"vehicle_type_id":"4","last_reported":1770111027,"current_range_meters":8800,"station_id":"ce4bhu92rcd13ifvqi70","pricing_plan_id":"cebpf4jnsgd1na2vs0mg"},{"bike_id":"ccad5bb8-727e-4e27-b0cc-7b2f496ea109","system_id":"levelo_inurba_marseille","lat":43.29553,"lon":5.42289,"is_reserved":false,"is_disabled":false,"rental_uris":{"android":"levelo://app?vid=ccad5bb8-727e-4e27-b0cc-7b2f496ea109","ios":"levelo://app?vid=ccad5bb8-727e-4e27-b0cc-7b2f496ea109"},"vehicle_type_id":"4","last_reported":1770111027,"current_range_meters":8800,"station_id":"ce4bhph2rcd13ifvqhdg","pricing_plan_id":"cebpf4jnsgd1na2vs0mg"},{"bike_id":"5aac6fd0-42e7-4460-9483-3cac48c68780","system_id":"levelo_inurba_marseille","lat":43.23151,"lon":5.43717,"is_reserved":false,"is_disabled":false,"rental_uris":{"android":"levelo://app?vid=5aac6fd0-42e7-4460-9483-3cac48c68780","ios":"levelo://app?vid=5aac6fd0-42e7-4460-9483-3cac48c68780"},"vehicle_type_id":"4","last_reported":1770111027,"current_range_meters":8800,"station_id":"ce4bhmp2rcd13ifvqgog","pricing_plan_id":"cebpf4jnsgd1na2vs0mg"},{"bike_id":"5396fda1-c3a0-4d51-8ba0-cfe497a166d7","system_id":"levelo_inurba_marseille","lat":43.26557,"lon":5.38986,"is_reserved":false,"is_disabled":false,"rental_uris":{"android":"levelo://app?vid=5396fda1-c3a0-4d51-8ba0-cfe497a166d7","ios":"levelo://app?vid=5396fda1-c3a0-4d51-8ba0-cfe497a166d7"},"vehicle_type_id":"4","last_reported":1770111027,"current_range_meters":8800,"station_id":"ce4bhe12rcd13ifvqf30","pricing_plan_id":"cebpf4jnsgd1na2vs0mg"},{"bike_id":"13c5095d-9f5c-4fa9-b65d-77811e98ae59","system_id":"levelo_inurba_marseille","lat":43.25008,"lon":5.38934,"is_reserved":false,"is_disabled":false,"rental_uris":{"android":"levelo://app?vid=13c5095d-9f5c-4fa9-b65d-77811e98ae59","ios":"levelo://app?vid=13c5095d-9f5c-4fa9-b65d-77811e98ae59"},"vehicle_type_id":"4","last_reported":1770111027,"current_range_meters":8800,"station_id":"ce4bhgp2rcd13ifvqfd0","pricing_plan_id":"cebpf4jnsgd1na2vs0mg"},{"bike_id":"34454c89-b631-4b7d-98c3-f063daabfec5","system_id":"levelo_inurba_marseille","lat":43.29855,"lon":5.42773,"is_reserved":false,"is_disabled":false,"rental_uris":{"android":"levelo://app?vid=34454c89-b631-4b7d-98c3-f063daabfec5","ios":"levelo://app?vid=34454c89-b631-4b7d-98c3-f063daabfec5"},"vehicle_type_id":"4","last_reported":1770111027,"current_range_meters":8800,"station_id":"","pricing_plan_id":"cebpf4jnsgd1na2vs0mg"},{"bike_id":"8e312380-e745-433d-90b9-ff07a309073d","system_id":"levelo_inurba_marseille","lat":43.24804,"lon":5.37467,"is_reserved":false,"is_disabled":false,"rental_uris":{"android":"levelo://app?vid=8e312380-e745-433d-90b9-ff07a309073d","ios":"levelo://app?vid=8e312380-e745-433d-90b9-ff07a309073d"},"vehicle_type_id":"4","last_reported":1770111027,"current_range_meters":9200,"station_id":"ce4bhgh2rcd13ifvqfb0","pricing_plan_id":"cebpf4jnsgd1na2vs0mg"},{"bike_id":"1ed2dd45-56b7-4202-aaae-a3009604bb2c","system_id":"levelo_inurba_marseille","lat":43.30793,"lon":5.38163,"is_reserved":false,"is_disabled":false,"rental_uris":{"android":"levelo://app?vid=1ed2dd45-56b7-4202-aaae-a3009604bb2c","ios":"levelo://app?vid=1ed2dd45-56b7-4202-aaae-a3009604bb2c"},"vehicle_type_id":"4","last_reported":1770111027,"current_range_meters":9200,"station_id":"ce4bgt12rcd13ifvqce0","pricing_plan_id":"cebpf4jnsgd1na2vs0mg"},{"bike_id":"0fd07084-5d6c-4a09-b3a8-d2fac1d80159","system_id":"levelo_inurba_marseille","lat":43.25722,"lon":5.4111,"is_reserved":false,"is_disabled":false,"rental_uris":{"android":"levelo://app?vid=0fd07084-5d6c-4a09-b3a8-d2fac1d80159","ios":"levelo://app?vid=0fd07084-5d6c-4a09-b3a8-d2fac1d80159"},"vehicle_type_id":"4","last_reported":1770111027,"current_range_meters":9200,"station_id":"ce4bhkp2rcd13ifvqgd0","pricing_plan_id":"cebpf4jnsgd1na2vs0mg"},{"bike_id":"aaf22886-8931-43f5-890d-fc99243945fc","system_id":"levelo_inurba_marseille","lat":43.24191,"lon":5.39746,"is_reserved":false,"is_disabled":false,"rental_uris":{"android":"levelo://app?vid=aaf22886-8931-43f5-890d-fc99243945fc","ios":"levelo://app?vid=aaf22886-8931-43f5-890d-fc99243945fc"},"vehicle_type_id":"4","last_reported":1770111027,"current_range_meters":9200,"station_id":"ce4bhn12rcd13ifvqgpg","pricing_plan_id":"cebpf4jnsgd1na2vs0mg"},{"bike_id":"e6192afe-2a62-43ea-9ff6-d08f1cf1e7d8","system_id":"levelo_inurba_marseille","lat":43.3135,"lon":5.36685,"is_reserved":false,"is_disabled":false,"rental_uris":{"android":"levelo://app?vid=e6192afe-2a62-43ea-9ff6-d08f1cf1e7d8","ios":"levelo://app?vid=e6192afe-2a62-43ea-9ff6-d08f1cf1e7d8"},"vehicle_type_id":"4","last_reported":1770111027,"current_range_meters":9200,"station_id":"ce4bgr92rcd13ifvqc6g","pricing_plan_id":"cebpf4jnsgd1na2vs0mg"},{"bike_id":"e1b3cad6-dccc-4f80-892b-59b83fe43b75","system_id":"levelo_inurba_marseille","lat":43.29572,"lon":5.36721,"is_reserved":false,"is_disabled":false,"rental_uris":{"android":"levelo://app?vid=e1b3cad6-dccc-4f80-892b-59b83fe43b75","ios":"levelo://app?vid=e1b3cad6-dccc-4f80-892b-59b83fe43b75"},"vehicle_type_id":"4","last_reported":1770111027,"current_range_meters":9200,"station_id":"ce4bgph2rcd13ifvqc2g","pricing_plan_id":"cebpf4jnsgd1na2vs0mg"},{"bike_id":"b886faeb-2ae5-4849-a4c7-c906741f8bf1","system_id":"levelo_inurba_marseille","lat":43.26572,"lon":5.40321,"is_reserved":false,"is_disabled":false,"rental_uris":{"android":"levelo://app?vid=b886faeb-2ae5-4849-a4c7-c906741f8bf1","ios":"levelo://app?vid=b886faeb-2ae5-4849-a4c7-c906741f8bf1"},"vehicle_type_id":"4","last_reported":1770111027,"current_range_meters":9200,"station_id":"ce4bhmp2rcd13ifvqgng","pricing_plan_id":"cebpf4jnsgd1na2vs0mg"},{"bike_id":"128c25e0-a9f7-4b25-a528-c9d67b1546c5","system_id":"levelo_inurba_marseille","lat":43.24073,"lon":5.3776,"is_reserved":false,"is_disabled":false,"rental_uris":{"android":"levelo://app?vid=128c25e0-a9f7-4b25-a528-c9d67b1546c5","ios":"levelo://app?vid=128c25e0-a9f7-4b25-a528-c9d67b1546c5"},"vehicle_type_id":"4","last_reported":1770111027,"current_range_meters":9200,"station_id":"ce4bhnp2rcd13ifvqgvg","pricing_plan_id":"cebpf4jnsgd1na2vs0mg"},{"bike_id":"f6e49c45-fd58-4045-b575-33d249818d13","system_id":"levelo_inurba_marseille","lat":43.30944,"lon":5.3903,"is_reserved":false,"is_disabled":false,"rental_uris":{"android":"levelo://app?vid=f6e49c45-fd58-4045-b575-33d249818d13","ios":"levelo://app?vid=f6e49c45-fd58-4045-b575-33d249818d13"},"vehicle_type_id":"4","last_reported":1770111027,"current_range_meters":9200,"station_id":"ce4bgup2rcd13ifvqco0","pricing_plan_id":"cebpf4jnsgd1na2vs0mg"},{"bike_id":"04ab4868-a773-4da8-b9a9-f5fedd6e47ae","system_id":"levelo_inurba_marseille","lat":43.25728,"lon":5.41085,"is_reserved":false,"is_disabled":false,"rental_uris":{"android":"levelo://app?vid=04ab4868-a773-4da8-b9a9-f5fedd6e47ae","ios":"levelo://app?vid=04ab4868-a773-4da8-b9a9-f5fedd6e47ae"},"vehicle_type_id":"4","last_reported":1770111027,"current_range_meters":9200,"station_id":"ce4bhkp2rcd13ifvqgd0","pricing_plan_id":"cebpf4jnsgd1na2vs0mg"},{"bike_id":"19e2feff-6c2f-469b-9a6a-9b93faca06da","system_id":"levelo_inurba_marseille","lat":43.28869,"lon":5.4252,"is_reserved":false,"is_disabled":true,"rental_uris":{"android":"levelo://app?vid=19e2feff-6c2f-469b-9a6a-9b93faca06da","ios":"levelo://app?vid=19e2feff-6c2f-469b-9a6a-9b93faca06da"},"vehicle_type_id":"4","last_reported":1770111027,"current_range_meters":9200,"station_id":"st_d3b462108ojc7389ooeg","pricing_plan_id":"cebpf4jnsgd1na2vs0mg"},{"bike_id":"3152a477-f17d-4450-9261-17b357c04f41","system_id":"levelo_inurba_marseille","lat":43.299799,"lon":5.374092,"is_reserved":false,"is_disabled":false,"rental_uris":{"android":"levelo://app?vid=3152a477-f17d-4450-9261-17b357c04f41","ios":"levelo://app?vid=3152a477-f17d-4450-9261-17b357c04f41"},"vehicle_type_id":"4","last_reported":1770111027,"current_range_meters":9200,"station_id":"","pricing_plan_id":"cebpf4jnsgd1na2vs0mg"},{"bike_id":"43b4dd52-5f40-488a-8ef1-ee614ae1c61c","system_id":"levelo_inurba_marseille","lat":43.33612,"lon":5.41035,"is_reserved":false,"is_disabled":false,"rental_uris":{"android":"levelo://app?vid=43b4dd52-5f40-488a-8ef1-ee614ae1c61c","ios":"levelo://app?vid=43b4dd52-5f40-488a-8ef1-ee614ae1c61c"},"vehicle_type_id":"4","last_reported":1770111027,"current_range_meters":9200,"station_id":"ce4bhqh2rcd13ifvqhmg","pricing_plan_id":"cebpf4jnsgd1na2vs0mg"},{"bike_id":"1a8cbd53-f3cd-463e-8c24-fde20404b7ee","system_id":"levelo_inurba_marseille","lat":43.25559,"lon":5.38238,"is_reserved":false,"is_disabled":false,"rental_uris":{"android":"levelo://app?vid=1a8cbd53-f3cd-463e-8c24-fde20404b7ee","ios":"levelo://app?vid=1a8cbd53-f3cd-463e-8c24-fde20404b7ee"},"vehicle_type_id":"4","last_reported":1770111027,"current_range_meters":9200,"station_id":"ce4bhih2rcd13ifvqfs0","pricing_plan_id":"cebpf4jnsgd1na2vs0mg"},{"bike_id":"41efee0d-caa2-45b0-863d-489d81dde529","system_id":"levelo_inurba_marseille","lat":43.28531,"lon":5.44091,"is_reserved":false,"is_disabled":false,"rental_uris":{"android":"levelo://app?vid=41efee0d-caa2-45b0-863d-489d81dde529","ios":"levelo://app?vid=41efee0d-caa2-45b0-863d-489d81dde529"},"vehicle_type_id":"4","last_reported":1770111027,"current_range_meters":9200,"station_id":"st_d3j3df2ikq2c7380ej80","pricing_plan_id":"cebpf4jnsgd1na2vs0mg"},{"bike_id":"c056efdd-bfd4-4d90-a2c4-30f136ba140c","system_id":"levelo_inurba_marseille","lat":43.33552,"lon":5.37472,"is_reserved":false,"is_disabled":false,"rental_uris":{"android":"levelo://app?vid=c056efdd-bfd4-4d90-a2c4-30f136ba140c","ios":"levelo://app?vid=c056efdd-bfd4-4d90-a2c4-30f136ba140c"},"vehicle_type_id":"4","last_reported":1770111027,"current_range_meters":9600,"station_id":"st_d46tts09ee8s73dlu43g","pricing_plan_id":"cebpf4jnsgd1na2vs0mg"},{"bike_id":"0d5201ca-f080-4c50-8f94-9323fb917cd3","system_id":"levelo_inurba_marseille","lat":43.28481,"lon":5.38552,"is_reserved":false,"is_disabled":false,"rental_uris":{"android":"levelo://app?vid=0d5201ca-f080-4c50-8f94-9323fb917cd3","ios":"levelo://app?vid=0d5201ca-f080-4c50-8f94-9323fb917cd3"},"vehicle_type_id":"4","last_reported":1770111027,"current_range_meters":9600,"station_id":"ce4bh8p2rcd13ifvqeb0","pricing_plan_id":"cebpf4jnsgd1na2vs0mg"},{"bike_id":"98fce53e-2f71-43cb-b9de-a1e78e7dc72e","system_id":"levelo_inurba_marseille","lat":43.23192,"lon":5.40007,"is_reserved":false,"is_disabled":false,"rental_uris":{"android":"levelo://app?vid=98fce53e-2f71-43cb-b9de-a1e78e7dc72e","ios":"levelo://app?vid=98fce53e-2f71-43cb-b9de-a1e78e7dc72e"},"vehicle_type_id":"4","last_reported":1770111027,"current_range_meters":9600,"station_id":"ce4bhn12rcd13ifvqgqg","pricing_plan_id":"cebpf4jnsgd1na2vs0mg"},{"bike_id":"6813da95-9100-4304-9152-ee9261f4f6d7","system_id":"levelo_inurba_marseille","lat":43.31692,"lon":5.40477,"is_reserved":false,"is_disabled":false,"rental_uris":{"android":"levelo://app?vid=6813da95-9100-4304-9152-ee9261f4f6d7","ios":"levelo://app?vid=6813da95-9100-4304-9152-ee9261f4f6d7"},"vehicle_type_id":"4","last_reported":1770111027,"current_range_meters":9600,"station_id":"ce4bh012rcd13ifvqd00","pricing_plan_id":"cebpf4jnsgd1na2vs0mg"},{"bike_id":"5d99751a-fe2a-4574-bfe2-fc1ebdb20e65","system_id":"levelo_inurba_marseille","lat":43.27632,"lon":5.38904,"is_reserved":false,"is_disabled":false,"rental_uris":{"android":"levelo://app?vid=5d99751a-fe2a-4574-bfe2-fc1ebdb20e65","ios":"levelo://app?vid=5d99751a-fe2a-4574-bfe2-fc1ebdb20e65"},"vehicle_type_id":"4","last_reported":1770111027,"current_range_meters":9600,"station_id":"","pricing_plan_id":"cebpf4jnsgd1na2vs0mg"},{"bike_id":"3496e3d5-ade9-4ef3-89c7-6224a9796381","system_id":"levelo_inurba_marseille","lat":43.23197,"lon":5.35564,"is_reserved":false,"is_disabled":false,"rental_uris":{"android":"levelo://app?vid=3496e3d5-ade9-4ef3-89c7-6224a9796381","ios":"levelo://app?vid=3496e3d5-ade9-4ef3-89c7-6224a9796381"},"vehicle_type_id":"4","last_reported":1770111027,"current_range_meters":9600,"station_id":"ce4bhu92rcd13ifvqi70","pricing_plan_id":"cebpf4jnsgd1na2vs0mg"},{"bike_id":"5892fc85-7848-4ac6-9041-3115ffbc60b4","system_id":"levelo_inurba_marseille","lat":43.24698,"lon":5.3818,"is_reserved":false,"is_disabled":false,"rental_uris":{"android":"levelo://app?vid=5892fc85-7848-4ac6-9041-3115ffbc60b4","ios":"levelo://app?vid=5892fc85-7848-4ac6-9041-3115ffbc60b4"},"vehicle_type_id":"4","last_reported":1770111027,"current_range_meters":9600,"station_id":"ce4bhih2rcd13ifvqfr0","pricing_plan_id":"cebpf4jnsgd1na2vs0mg"},{"bike_id":"242256f5-f0bd-4204-9565-2087ceacdda5","system_id":"levelo_inurba_marseille","lat":43.22558,"lon":5.41633,"is_reserved":false,"is_disabled":false,"rental_uris":{"android":"levelo://app?vid=242256f5-f0bd-4204-9565-2087ceacdda5","ios":"levelo://app?vid=242256f5-f0bd-4204-9565-2087ceacdda5"},"vehicle_type_id":"4","last_reported":1770111027,"current_range_meters":9600,"station_id":"st_d2o4gvlbi1j2169b742g","pricing_plan_id":"cebpf4jnsgd1na2vs0mg"},{"bike_id":"134936fd-4532-47ef-aded-471fc3c0555a","system_id":"levelo_inurba_marseille","lat":43.25104,"lon":5.40332,"is_reserved":false,"is_disabled":false,"rental_uris":{"android":"levelo://app?vid=134936fd-4532-47ef-aded-471fc3c0555a","ios":"levelo://app?vid=134936fd-4532-47ef-aded-471fc3c0555a"},"vehicle_type_id":"4","last_reported":1770111027,"current_range_meters":9600,"station_id":"ce4bhlh2rcd13ifvqgig","pricing_plan_id":"cebpf4jnsgd1na2vs0mg"},{"bike_id":"5268a57b-c5c9-446a-87ff-ede823dc6bfa","system_id":"levelo_inurba_marseille","lat":43.28565,"lon":5.39492,"is_reserved":false,"is_disabled":false,"rental_uris":{"android":"levelo://app?vid=5268a57b-c5c9-446a-87ff-ede823dc6bfa","ios":"levelo://app?vid=5268a57b-c5c9-446a-87ff-ede823dc6bfa"},"vehicle_type_id":"4","last_reported":1770111027,"current_range_meters":9600,"station_id":"ce4bh292rcd13ifvqdg0","pricing_plan_id":"cebpf4jnsgd1na2vs0mg"},{"bike_id":"e39778ec-94b5-45a4-999e-55a93a7091b5","system_id":"levelo_inurba_marseille","lat":43.24078,"lon":5.37757,"is_reserved":false,"is_disabled":false,"rental_uris":{"android":"levelo://app?vid=e39778ec-94b5-45a4-999e-55a93a7091b5","ios":"levelo://app?vid=e39778ec-94b5-45a4-999e-55a93a7091b5"},"vehicle_type_id":"4","last_reported":1770111027,"current_range_meters":9600,"station_id":"ce4bhnp2rcd13ifvqgvg","pricing_plan_id":"cebpf4jnsgd1na2vs0mg"},{"bike_id":"56e2e3ba-8487-44a5-a7ca-be5e054fca14","system_id":"levelo_inurba_marseille","lat":43.29604,"lon":5.38105,"is_reserved":false,"is_disabled":false,"rental_uris":{"android":"levelo://app?vid=56e2e3ba-8487-44a5-a7ca-be5e054fca14","ios":"levelo://app?vid=56e2e3ba-8487-44a5-a7ca-be5e054fca14"},"vehicle_type_id":"4","last_reported":1770111027,"current_range_meters":9600,"station_id":"ce4bgl12rcd13ifvqbo0","pricing_plan_id":"cebpf4jnsgd1na2vs0mg"},{"bike_id":"a5eda67a-1af7-4789-9b16-aa7217c90cd3","system_id":"levelo_inurba_marseille","lat":43.23716,"lon":5.40147,"is_reserved":false,"is_disabled":false,"rental_uris":{"android":"levelo://app?vid=a5eda67a-1af7-4789-9b16-aa7217c90cd3","ios":"levelo://app?vid=a5eda67a-1af7-4789-9b16-aa7217c90cd3"},"vehicle_type_id":"4","last_reported":1770111027,"current_range_meters":9600,"station_id":"","pricing_plan_id":"cebpf4jnsgd1na2vs0mg"},{"bike_id":"58b86c74-8ede-413a-ade5-7d2fec0a7af9","system_id":"levelo_inurba_marseille","lat":43.24682,"lon":5.38158,"is_reserved":false,"is_disabled":false,"rental_uris":{"android":"levelo://app?vid=58b86c74-8ede-413a-ade5-7d2fec0a7af9","ios":"levelo://app?vid=58b86c74-8ede-413a-ade5-7d2fec0a7af9"},"vehicle_type_id":"4","last_reported":1770111027,"current_range_meters":9600,"station_id":"ce4bhih2rcd13ifvqfr0","pricing_plan_id":"cebpf4jnsgd1na2vs0mg"},{"bike_id":"a596bd3f-5b41-4e3c-9fdb-1f7b0cb4c148","system_id":"levelo_inurba_marseille","lat":43.30957,"lon":5.39057,"is_reserved":false,"is_disabled":false,"rental_uris":{"android":"levelo://app?vid=a596bd3f-5b41-4e3c-9fdb-1f7b0cb4c148","ios":"levelo://app?vid=a596bd3f-5b41-4e3c-9fdb-1f7b0cb4c148"},"vehicle_type_id":"4","last_reported":1770111027,"current_range_meters":9600,"station_id":"ce4bgup2rcd13ifvqco0","pricing_plan_id":"cebpf4jnsgd1na2vs0mg"},{"bike_id":"01cb50c3-aadc-4458-b422-b4fe4c5cc03c","system_id":"levelo_inurba_marseille","lat":43.2679,"lon":5.39418,"is_reserved":false,"is_disabled":false,"rental_uris":{"android":"levelo://app?vid=01cb50c3-aadc-4458-b422-b4fe4c5cc03c","ios":"levelo://app?vid=01cb50c3-aadc-4458-b422-b4fe4c5cc03c"},"vehicle_type_id":"4","last_reported":1770111027,"current_range_meters":9600,"station_id":"ce4bhh12rcd13ifvqfg0","pricing_plan_id":"cebpf4jnsgd1na2vs0mg"},{"bike_id":"d25c30ce-208a-4865-aa8f-61a37bd60365","system_id":"levelo_inurba_marseille","lat":43.295609,"lon":5.381491,"is_reserved":false,"is_disabled":false,"rental_uris":{"android":"levelo://app?vid=d25c30ce-208a-4865-aa8f-61a37bd60365","ios":"levelo://app?vid=d25c30ce-208a-4865-aa8f-61a37bd60365"},"vehicle_type_id":"4","last_reported":1770111027,"current_range_meters":9600,"station_id":"ce4bgl12rcd13ifvqbo0","pricing_plan_id":"cebpf4jnsgd1na2vs0mg"},{"bike_id":"5ffc162c-3876-4a49-af02-3661f44effbb","system_id":"levelo_inurba_marseille","lat":43.28482,"lon":5.48404,"is_reserved":false,"is_disabled":false,"rental_uris":{"android":"levelo://app?vid=5ffc162c-3876-4a49-af02-3661f44effbb","ios":"levelo://app?vid=5ffc162c-3876-4a49-af02-3661f44effbb"},"vehicle_type_id":"4","last_reported":1770111027,"current_range_meters":9600,"station_id":"st_d3svhcjqgbts73a3dn0g","pricing_plan_id":"cebpf4jnsgd1na2vs0mg"},{"bike_id":"b3a54eab-b946-460c-8d1b-dbc0ce5bc3c5","system_id":"levelo_inurba_marseille","lat":43.28147,"lon":5.42635,"is_reserved":false,"is_disabled":false,"rental_uris":{"android":"levelo://app?vid=b3a54eab-b946-460c-8d1b-dbc0ce5bc3c5","ios":"levelo://app?vid=b3a54eab-b946-460c-8d1b-dbc0ce5bc3c5"},"vehicle_type_id":"4","last_reported":1770111027,"current_range_meters":9600,"station_id":"ce4bhnh2rcd13ifvqgug","pricing_plan_id":"cebpf4jnsgd1na2vs0mg"},{"bike_id":"eb06baa3-f3b4-41de-85d8-b59f30b83f78","system_id":"levelo_inurba_marseille","lat":43.31223,"lon":5.36854,"is_reserved":false,"is_disabled":false,"rental_uris":{"android":"levelo://app?vid=eb06baa3-f3b4-41de-85d8-b59f30b83f78","ios":"levelo://app?vid=eb06baa3-f3b4-41de-85d8-b59f30b83f78"},"vehicle_type_id":"4","last_reported":1770111027,"current_range_meters":9600,"station_id":"ce4bgl92rcd13ifvqbq0","pricing_plan_id":"cebpf4jnsgd1na2vs0mg"},{"bike_id":"364883e5-5bab-413b-9d9d-162730d9f009","system_id":"levelo_inurba_marseille","lat":43.29756,"lon":5.42777,"is_reserved":false,"is_disabled":false,"rental_uris":{"android":"levelo://app?vid=364883e5-5bab-413b-9d9d-162730d9f009","ios":"levelo://app?vid=364883e5-5bab-413b-9d9d-162730d9f009"},"vehicle_type_id":"4","last_reported":1770111027,"current_range_meters":10000,"station_id":"st_d3md5207bmas73dh9klg","pricing_plan_id":"cebpf4jnsgd1na2vs0mg"},{"bike_id":"57891ab2-1dad-482f-a706-a5a95455c34b","system_id":"levelo_inurba_marseille","lat":43.290817,"lon":5.38068,"is_reserved":false,"is_disabled":false,"rental_uris":{"android":"levelo://app?vid=57891ab2-1dad-482f-a706-a5a95455c34b","ios":"levelo://app?vid=57891ab2-1dad-482f-a706-a5a95455c34b"},"vehicle_type_id":"4","last_reported":1770111027,"current_range_meters":10000,"station_id":"ce4bh512rcd13ifvqe2g","pricing_plan_id":"cebpf4jnsgd1na2vs0mg"},{"bike_id":"85abf2ca-c23c-4f48-b10d-5858680e2422","system_id":"levelo_inurba_marseille","lat":43.26219,"lon":5.37951,"is_reserved":false,"is_disabled":false,"rental_uris":{"android":"levelo://app?vid=85abf2ca-c23c-4f48-b10d-5858680e2422","ios":"levelo://app?vid=85abf2ca-c23c-4f48-b10d-5858680e2422"},"vehicle_type_id":"4","last_reported":1770111027,"current_range_meters":10000,"station_id":"ce4bhjp2rcd13ifvqg90","pricing_plan_id":"cebpf4jnsgd1na2vs0mg"},{"bike_id":"9d79ec10-3ed1-4035-8609-ff591e4f54d3","system_id":"levelo_inurba_marseille","lat":43.25586,"lon":5.38223,"is_reserved":false,"is_disabled":false,"rental_uris":{"android":"levelo://app?vid=9d79ec10-3ed1-4035-8609-ff591e4f54d3","ios":"levelo://app?vid=9d79ec10-3ed1-4035-8609-ff591e4f54d3"},"vehicle_type_id":"4","last_reported":1770111027,"current_range_meters":10000,"station_id":"ce4bhih2rcd13ifvqfs0","pricing_plan_id":"cebpf4jnsgd1na2vs0mg"},{"bike_id":"80bfb56e-355c-402b-aadf-a8eef6d66f0f","system_id":"levelo_inurba_marseille","lat":43.29593,"lon":5.38117,"is_reserved":false,"is_disabled":false,"rental_uris":{"android":"levelo://app?vid=80bfb56e-355c-402b-aadf-a8eef6d66f0f","ios":"levelo://app?vid=80bfb56e-355c-402b-aadf-a8eef6d66f0f"},"vehicle_type_id":"4","last_reported":1770111027,"current_range_meters":10000,"station_id":"ce4bgl12rcd13ifvqbo0","pricing_plan_id":"cebpf4jnsgd1na2vs0mg"},{"bike_id":"a5dd1c23-9594-4e11-8120-bb4b0e93e2b3","system_id":"levelo_inurba_marseille","lat":43.26786,"lon":5.39416,"is_reserved":false,"is_disabled":false,"rental_uris":{"android":"levelo://app?vid=a5dd1c23-9594-4e11-8120-bb4b0e93e2b3","ios":"levelo://app?vid=a5dd1c23-9594-4e11-8120-bb4b0e93e2b3"},"vehicle_type_id":"4","last_reported":1770111027,"current_range_meters":10000,"station_id":"ce4bhh12rcd13ifvqfg0","pricing_plan_id":"cebpf4jnsgd1na2vs0mg"},{"bike_id":"9a41c992-8ec6-4c5f-9787-da9fbb815a48","system_id":"levelo_inurba_marseille","lat":43.25564,"lon":5.38235,"is_reserved":false,"is_disabled":false,"rental_uris":{"android":"levelo://app?vid=9a41c992-8ec6-4c5f-9787-da9fbb815a48","ios":"levelo://app?vid=9a41c992-8ec6-4c5f-9787-da9fbb815a48"},"vehicle_type_id":"4","last_reported":1770111027,"current_range_meters":10000,"station_id":"ce4bhih2rcd13ifvqfs0","pricing_plan_id":"cebpf4jnsgd1na2vs0mg"},{"bike_id":"3ab888ce-8d5c-4386-b0d2-2b99a4088ed0","system_id":"levelo_inurba_marseille","lat":43.32504,"lon":5.38272,"is_reserved":false,"is_disabled":false,"rental_uris":{"android":"levelo://app?vid=3ab888ce-8d5c-4386-b0d2-2b99a4088ed0","ios":"levelo://app?vid=3ab888ce-8d5c-4386-b0d2-2b99a4088ed0"},"vehicle_type_id":"4","last_reported":1770111027,"current_range_meters":10000,"station_id":"st_d4asgbiv49dc73anf9m0","pricing_plan_id":"cebpf4jnsgd1na2vs0mg"},{"bike_id":"ef4aafd7-31d8-4f9b-97f1-b8af2e53c15d","system_id":"levelo_inurba_marseille","lat":43.29883,"lon":5.43688,"is_reserved":false,"is_disabled":false,"rental_uris":{"android":"levelo://app?vid=ef4aafd7-31d8-4f9b-97f1-b8af2e53c15d","ios":"levelo://app?vid=ef4aafd7-31d8-4f9b-97f1-b8af2e53c15d"},"vehicle_type_id":"4","last_reported":1770111027,"current_range_meters":10000,"station_id":"ce4bhpp2rcd13ifvqhfg","pricing_plan_id":"cebpf4jnsgd1na2vs0mg"},{"bike_id":"e4e7345a-ada3-4cee-b09a-8b0e1366f3ea","system_id":"levelo_inurba_marseille","lat":43.28265,"lon":5.35088,"is_reserved":false,"is_disabled":true,"rental_uris":{"android":"levelo://app?vid=e4e7345a-ada3-4cee-b09a-8b0e1366f3ea","ios":"levelo://app?vid=e4e7345a-ada3-4cee-b09a-8b0e1366f3ea"},"vehicle_type_id":"4","last_reported":1770111027,"current_range_meters":10000,"station_id":"ce4bhbp2rcd13ifvqerg","pricing_plan_id":"cebpf4jnsgd1na2vs0mg"},{"bike_id":"da4d19a5-63fa-471e-bc87-bb23db14643b","system_id":"levelo_inurba_marseille","lat":43.29542,"lon":5.42538,"is_reserved":false,"is_disabled":false,"rental_uris":{"android":"levelo://app?vid=da4d19a5-63fa-471e-bc87-bb23db14643b","ios":"levelo://app?vid=da4d19a5-63fa-471e-bc87-bb23db14643b"},"vehicle_type_id":"4","last_reported":1770111027,"current_range_meters":10000,"station_id":"","pricing_plan_id":"cebpf4jnsgd1na2vs0mg"},{"bike_id":"9d6af703-4957-4557-99cd-c3100abd2548","system_id":"levelo_inurba_marseille","lat":43.25714,"lon":5.4112,"is_reserved":false,"is_disabled":false,"rental_uris":{"android":"levelo://app?vid=9d6af703-4957-4557-99cd-c3100abd2548","ios":"levelo://app?vid=9d6af703-4957-4557-99cd-c3100abd2548"},"vehicle_type_id":"4","last_reported":1770111027,"current_range_meters":10000,"station_id":"ce4bhkp2rcd13ifvqgd0","pricing_plan_id":"cebpf4jnsgd1na2vs0mg"},{"bike_id":"988afa8e-d306-4003-baf9-728102144f56","system_id":"levelo_inurba_marseille","lat":43.2677,"lon":5.38283,"is_reserved":false,"is_disabled":false,"rental_uris":{"android":"levelo://app?vid=988afa8e-d306-4003-baf9-728102144f56","ios":"levelo://app?vid=988afa8e-d306-4003-baf9-728102144f56"},"vehicle_type_id":"4","last_reported":1770111027,"current_range_meters":10800,"station_id":"","pricing_plan_id":"cebpf4jnsgd1na2vs0mg"},{"bike_id":"60f598b4-ac2d-47d2-815c-636881d4e683","system_id":"levelo_inurba_marseille","lat":43.26683,"lon":5.38285,"is_reserved":false,"is_disabled":false,"rental_uris":{"android":"levelo://app?vid=60f598b4-ac2d-47d2-815c-636881d4e683","ios":"levelo://app?vid=60f598b4-ac2d-47d2-815c-636881d4e683"},"vehicle_type_id":"4","last_reported":1770111027,"current_range_meters":10800,"station_id":"ce4bhg92rcd13ifvqf90","pricing_plan_id":"cebpf4jnsgd1na2vs0mg"},{"bike_id":"28155bf7-b8a4-4738-93ae-a59bd2f356af","system_id":"levelo_inurba_marseille","lat":43.28271,"lon":5.3507,"is_reserved":false,"is_disabled":false,"rental_uris":{"android":"levelo://app?vid=28155bf7-b8a4-4738-93ae-a59bd2f356af","ios":"levelo://app?vid=28155bf7-b8a4-4738-93ae-a59bd2f356af"},"vehicle_type_id":"4","last_reported":1770111027,"current_range_meters":10800,"station_id":"ce4bhbp2rcd13ifvqerg","pricing_plan_id":"cebpf4jnsgd1na2vs0mg"},{"bike_id":"d72c8d0b-6864-4eb2-b074-4484e5b3c2c1","system_id":"levelo_inurba_marseille","lat":43.28471,"lon":5.48401,"is_reserved":false,"is_disabled":false,"rental_uris":{"android":"levelo://app?vid=d72c8d0b-6864-4eb2-b074-4484e5b3c2c1","ios":"levelo://app?vid=d72c8d0b-6864-4eb2-b074-4484e5b3c2c1"},"vehicle_type_id":"4","last_reported":1770111027,"current_range_meters":10800,"station_id":"st_d3svhcjqgbts73a3dn0g","pricing_plan_id":"cebpf4jnsgd1na2vs0mg"},{"bike_id":"50f63585-b11b-4661-b8f6-4f8429dfc5f2","system_id":"levelo_inurba_marseille","lat":43.29299,"lon":5.37451,"is_reserved":false,"is_disabled":false,"rental_uris":{"android":"levelo://app?vid=50f63585-b11b-4661-b8f6-4f8429dfc5f2","ios":"levelo://app?vid=50f63585-b11b-4661-b8f6-4f8429dfc5f2"},"vehicle_type_id":"4","last_reported":1770111027,"current_range_meters":10800,"station_id":"ce4bgi12rcd13ifvqb70","pricing_plan_id":"cebpf4jnsgd1na2vs0mg"},{"bike_id":"3e96821d-f8a2-4961-8893-311448c3de36","system_id":"levelo_inurba_marseille","lat":43.24084,"lon":5.37753,"is_reserved":false,"is_disabled":false,"rental_uris":{"android":"levelo://app?vid=3e96821d-f8a2-4961-8893-311448c3de36","ios":"levelo://app?vid=3e96821d-f8a2-4961-8893-311448c3de36"},"vehicle_type_id":"4","last_reported":1770111027,"current_range_meters":10800,"station_id":"ce4bhnp2rcd13ifvqgvg","pricing_plan_id":"cebpf4jnsgd1na2vs0mg"},{"bike_id":"7363b04a-bf07-4cb9-91ef-96eeb8fefaab","system_id":"levelo_inurba_marseille","lat":43.26548,"lon":5.37288,"is_reserved":false,"is_disabled":false,"rental_uris":{"android":"levelo://app?vid=7363b04a-bf07-4cb9-91ef-96eeb8fefaab","ios":"levelo://app?vid=7363b04a-bf07-4cb9-91ef-96eeb8fefaab"},"vehicle_type_id":"4","last_reported":1770111027,"current_range_meters":10800,"station_id":"ce4bhg12rcd13ifvqf70","pricing_plan_id":"cebpf4jnsgd1na2vs0mg"},{"bike_id":"3499c4b6-6489-46c2-afb9-103095fea2c2","system_id":"levelo_inurba_marseille","lat":43.3097,"lon":5.39081,"is_reserved":false,"is_disabled":false,"rental_uris":{"android":"levelo://app?vid=3499c4b6-6489-46c2-afb9-103095fea2c2","ios":"levelo://app?vid=3499c4b6-6489-46c2-afb9-103095fea2c2"},"vehicle_type_id":"4","last_reported":1770111027,"current_range_meters":10800,"station_id":"ce4bgup2rcd13ifvqco0","pricing_plan_id":"cebpf4jnsgd1na2vs0mg"},{"bike_id":"4a771d56-bef5-40d9-9698-3cb3fd37451c","system_id":"levelo_inurba_marseille","lat":43.31503,"lon":5.3726,"is_reserved":false,"is_disabled":false,"rental_uris":{"android":"levelo://app?vid=4a771d56-bef5-40d9-9698-3cb3fd37451c","ios":"levelo://app?vid=4a771d56-bef5-40d9-9698-3cb3fd37451c"},"vehicle_type_id":"4","last_reported":1770111027,"current_range_meters":10800,"station_id":"ce4bgt12rcd13ifvqcd0","pricing_plan_id":"cebpf4jnsgd1na2vs0mg"},{"bike_id":"609a0062-16f5-4a1b-a345-5a974da536fd","system_id":"levelo_inurba_marseille","lat":43.30314,"lon":5.36919,"is_reserved":false,"is_disabled":false,"rental_uris":{"android":"levelo://app?vid=609a0062-16f5-4a1b-a345-5a974da536fd","ios":"levelo://app?vid=609a0062-16f5-4a1b-a345-5a974da536fd"},"vehicle_type_id":"4","last_reported":1770111027,"current_range_meters":10800,"station_id":"ce4bgqh2rcd13ifvqc5g","pricing_plan_id":"cebpf4jnsgd1na2vs0mg"},{"bike_id":"6d8cbef4-ace7-4d3e-a308-deefe428c874","system_id":"levelo_inurba_marseille","lat":43.29594,"lon":5.38108,"is_reserved":false,"is_disabled":false,"rental_uris":{"android":"levelo://app?vid=6d8cbef4-ace7-4d3e-a308-deefe428c874","ios":"levelo://app?vid=6d8cbef4-ace7-4d3e-a308-deefe428c874"},"vehicle_type_id":"4","last_reported":1770111027,"current_range_meters":10800,"station_id":"ce4bgl12rcd13ifvqbo0","pricing_plan_id":"cebpf4jnsgd1na2vs0mg"},{"bike_id":"09f49787-1891-46ef-bef4-d9baa903f9d9","system_id":"levelo_inurba_marseille","lat":43.27997,"lon":5.40025,"is_reserved":false,"is_disabled":false,"rental_uris":{"android":"levelo://app?vid=09f49787-1891-46ef-bef4-d9baa903f9d9","ios":"levelo://app?vid=09f49787-1891-46ef-bef4-d9baa903f9d9"},"vehicle_type_id":"4","last_reported":1770111027,"current_range_meters":10800,"station_id":"ce4bho92rcd13ifvqh4g","pricing_plan_id":"cebpf4jnsgd1na2vs0mg"},{"bike_id":"34ac12a3-5a8f-46de-9470-d77516f62b25","system_id":"levelo_inurba_marseille","lat":43.29267,"lon":5.37631,"is_reserved":false,"is_disabled":false,"rental_uris":{"android":"levelo://app?vid=34ac12a3-5a8f-46de-9470-d77516f62b25","ios":"levelo://app?vid=34ac12a3-5a8f-46de-9470-d77516f62b25"},"vehicle_type_id":"4","last_reported":1770111027,"current_range_meters":10800,"station_id":"ce4bgi12rcd13ifvqb80","pricing_plan_id":"cebpf4jnsgd1na2vs0mg"},{"bike_id":"a5c1703c-0b2d-4e6b-b820-25e716f1e211","system_id":"levelo_inurba_marseille","lat":43.28499,"lon":5.4841,"is_reserved":false,"is_disabled":false,"rental_uris":{"android":"levelo://app?vid=a5c1703c-0b2d-4e6b-b820-25e716f1e211","ios":"levelo://app?vid=a5c1703c-0b2d-4e6b-b820-25e716f1e211"},"vehicle_type_id":"4","last_reported":1770111027,"current_range_meters":10800,"station_id":"st_d3svhcjqgbts73a3dn0g","pricing_plan_id":"cebpf4jnsgd1na2vs0mg"},{"bike_id":"0fc95021-ad4f-4646-93d4-183acf7fe3b1","system_id":"levelo_inurba_marseille","lat":43.30536,"lon":5.36535,"is_reserved":false,"is_disabled":false,"rental_uris":{"android":"levelo://app?vid=0fc95021-ad4f-4646-93d4-183acf7fe3b1","ios":"levelo://app?vid=0fc95021-ad4f-4646-93d4-183acf7fe3b1"},"vehicle_type_id":"4","last_reported":1770111027,"current_range_meters":10800,"station_id":"ce4bgs12rcd13ifvqcag","pricing_plan_id":"cebpf4jnsgd1na2vs0mg"},{"bike_id":"6be43c1f-db2c-43c9-a648-234cc72c5193","system_id":"levelo_inurba_marseille","lat":43.315738,"lon":5.406676,"is_reserved":false,"is_disabled":false,"rental_uris":{"android":"levelo://app?vid=6be43c1f-db2c-43c9-a648-234cc72c5193","ios":"levelo://app?vid=6be43c1f-db2c-43c9-a648-234cc72c5193"},"vehicle_type_id":"4","last_reported":1770111027,"current_range_meters":10800,"station_id":"","pricing_plan_id":"cebpf4jnsgd1na2vs0mg"},{"bike_id":"720e57a0-7e86-4ba2-a7b0-5898c8698298","system_id":"levelo_inurba_marseille","lat":43.31416,"lon":5.36652,"is_reserved":false,"is_disabled":false,"rental_uris":{"android":"levelo://app?vid=720e57a0-7e86-4ba2-a7b0-5898c8698298","ios":"levelo://app?vid=720e57a0-7e86-4ba2-a7b0-5898c8698298"},"vehicle_type_id":"4","last_reported":1770111027,"current_range_meters":11200,"station_id":"","pricing_plan_id":"cebpf4jnsgd1na2vs0mg"},