{"last_updated":1747622667,"ttl":60,"version":"2.2","data":{"bikes":[{"bike_id":"31d4f5c6-2c0a-4822-8a00-b76da38a6d01","system_id":"levelo_inurba_marseille","lat":43.27951,"lon":5.41035,"is_reserved":false,"is_disabled":false,"rental_uris":{"android":"levelo://app?vid=31d4f5c6-2c0a-4822-8a00-b76da38a6d01","ios":"levelo://app?vid=31d4f5c6-2c0a-4822-8a00-b76da38a6d01"},"vehicle_type_id":"4","last_reported":1747622668,"current_range_meters":2800,"station_id":"ce4bhnp2rcd13ifvqh0g","pricing_plan_id":"cebpf4jnsgd1na2vs0mg"},{"bike_id":"c1b9fa33-9c2d-40ce-9979-b53b7ae668ed","system_id":"levelo_inurba_marseille","lat":43.28149,"lon":5.42646,"is_reserved":false,"is_disabled":true,"rental_uris":{"android":"levelo://app?vid=c1b9fa33-9c2d-40ce-9979-b53b7ae668ed","ios":"levelo://app?vid=c1b9fa33-9c2d-40ce-9979-b53b7ae668ed"},"vehicle_type_id":"4","last_reported":1747622668,"current_range_meters":2800,"station_id":"ce4bhnh2rcd13ifvqgug","pricing_plan_id":"cebpf4jnsgd1na2vs0mg"},{"bike_id":"ee9a593d-f654-4d29-9a96-9e790239c25b","system_id":"levelo_inurba_marseille","lat":43.26046,"lon":5.39389,"is_reserved":false,"is_disabled":false,"rental_uris":{"android":"levelo://app?vid=ee9a593d-f654-4d29-9a96-9e790239c25b","ios":"levelo://app?vid=ee9a593d-f654-4d29-9a96-9e790239c25b"},"vehicle_type_id":"4","last_reported":1747622668,"current_range_meters":3200,"station_id":"ce4bhh92rcd13ifvqfj0","pricing_plan_id":"cebpf4jnsgd1na2vs0mg"},{"bike_id":"b05b1f64-0753-4df6-9d99-52c918cd47ad","system_id":"levelo_inurba_marseille","lat":43.29042,"lon":5.39958,"is_reserved":false,"is_disabled":true,"rental_uris":{"android":"levelo://app?vid=b05b1f64-0753-4df6-9d99-52c918cd47ad","ios":"levelo://app?vid=b05b1f64-0753-4df6-9d99-52c918cd47ad"},"vehicle_type_id":"4","last_reported":1747622668,"current_range_meters":3200,"station_id":"ce4bh392rcd13ifvqdm0","pricing_plan_id":"cebpf4jnsgd1na2vs0mg"},{"bike_id":"b1e588a8-6868-4632-aaf7-01c00ab698a5","system_id":"levelo_inurba_marseille","lat":43.279391,"lon":5.410403,"is_reserved":false,"is_disabled":false,"rental_uris":{"android":"levelo://app?vid=b1e588a8-6868-4632-aaf7-01c00ab698a5","ios":"levelo://app?vid=b1e588a8-6868-4632-aaf7-01c00ab698a5"},"vehicle_type_id":"4","last_reported":1747622668,"current_range_meters":3200,"station_id":"ce4bhnp2rcd13ifvqh0g","pricing_plan_id":"cebpf4jnsgd1na2vs0mg"},{"bike_id":"6b849ac5-c25f-4393-bc5a-47493e693ba8","system_id":"levelo_inurba_marseille","lat":43.241641,"lon":5.364044,"is_reserved":false,"is_disabled":true,"rental_uris":{"android":"levelo://app?vid=6b849ac5-c25f-4393-bc5a-47493e693ba8","ios":"levelo://app?vid=6b849ac5-c25f-4393-bc5a-47493e693ba8"},"vehicle_type_id":"4","last_reported":1747622668,"current_range_meters":3200,"station_id":"cpo36qri1sfpv3e86is0","pricing_plan_id":"cebpf4jnsgd1na2vs0mg"},{"bike_id":"b8e6468b-87db-4ff6-8122-ef13bf5b7c8c","system_id":"levelo_inurba_marseille","lat":43.31379,"lon":5.37916,"is_reserved":false,"is_disabled":true,"rental_uris":{"android":"levelo://app?vid=b8e6468b-87db-4ff6-8122-ef13bf5b7c8c","ios":"levelo://app?vid=b8e6468b-87db-4ff6-8122-ef13bf5b7c8c"},"vehicle_type_id":"4","last_reported":1747622668,"current_range_meters":4000,"station_id":"","pricing_plan_id":"cebpf4jnsgd1na2vs0mg"},{"bike_id":"398a8fd1-747d-4b0d-84d1-22519fee4719","system_id":"levelo_inurba_marseille","lat":43.273794,"lon":5.362561,"is_reserved":false,"is_disabled":true,"rental_uris":{"android":"levelo://app?vid=398a8fd1-747d-4b0d-84d1-22519fee4719","ios":"levelo://app?vid=398a8fd1-747d-4b0d-84d1-22519fee4719"},"vehicle_type_id":"4","last_reported":1747622668,"current_range_meters":4000,"station_id":"ce4bhbh2rcd13ifvqeo0","pricing_plan_id":"cebpf4jnsgd1na2vs0mg"},{"bike_id":"c99e3425-aa03-474f-a492-40b1e9776c52","system_id":"levelo_inurba_marseille","lat":43.279176,"lon":5.395841,"is_reserved":false,"is_disabled":false,"rental_uris":{"android":"levelo://app?vid=c99e3425-aa03-474f-a492-40b1e9776c52","ios":"levelo://app?vid=c99e3425-aa03-474f-a492-40b1e9776c52"},"vehicle_type_id":"4","last_reported":1747622668,"current_range_meters":4000,"station_id":"ce4bhf92rcd13ifvqf40","pricing_plan_id":"cebpf4jnsgd1na2vs0mg"},{"bike_id":"cba2067c-a08b-479c-8b0b-7aae2b36b17b","system_id":"levelo_inurba_marseille","lat":43.240638,"lon":5.377673,"is_reserved":false,"is_disabled":false,"rental_uris":{"android":"levelo://app?vid=cba2067c-a08b-479c-8b0b-7aae2b36b17b","ios":"levelo://app?vid=cba2067c-a08b-479c-8b0b-7aae2b36b17b"},"vehicle_type_id":"4","last_reported":1747622668,"current_range_meters":4000,"station_id":"ce4bhnp2rcd13ifvqgvg","pricing_plan_id":"cebpf4jnsgd1na2vs0mg"},{"bike_id":"af2f3908-848e-4879-9c80-b3ddea1b7f0a","system_id":"levelo_inurba_marseille","lat":43.31201,"lon":5.38768,"is_reserved":false,"is_disabled":true,"rental_uris":{"android":"levelo://app?vid=af2f3908-848e-4879-9c80-b3ddea1b7f0a","ios":"levelo://app?vid=af2f3908-848e-4879-9c80-b3ddea1b7f0a"},"vehicle_type_id":"4","last_reported":1747622668,"current_range_meters":4000,"station_id":"ce4bgv12rcd13ifvqcp0","pricing_plan_id":"cebpf4jnsgd1na2vs0mg"},{"bike_id":"1c03bd5a-9af5-4f8d-ac22-134ae538c3b5","system_id":"levelo_inurba_marseille","lat":43.231841,"lon":5.399825,"is_reserved":false,"is_disabled":false,"rental_uris":{"android":"levelo://app?vid=1c03bd5a-9af5-4f8d-ac22-134ae538c3b5","ios":"levelo://app?vid=1c03bd5a-9af5-4f8d-ac22-134ae538c3b5"},"vehicle_type_id":"4","last_reported":1747622668,"current_range_meters":4400,"station_id":"ce4bhn12rcd13ifvqgqg","pricing_plan_id":"cebpf4jnsgd1na2vs0mg"},{"bike_id":"1381bd49-568c-425f-bcfd-260613800bb1","system_id":"levelo_inurba_marseille","lat":43.274198,"lon":5.394163,"is_reserved":false,"is_disabled":false,"rental_uris":{"android":"levelo://app?vid=1381bd49-568c-425f-bcfd-260613800bb1","ios":"levelo://app?vid=1381bd49-568c-425f-bcfd-260613800bb1"},"vehicle_type_id":"4","last_reported":1747622668,"current_range_meters":4400,"station_id":"ce4bhdp2rcd13ifvqf20","pricing_plan_id":"cebpf4jnsgd1na2vs0mg"},{"bike_id":"4a366325-9323-4dd9-9f3d-c40cb684338c","system_id":"levelo_inurba_marseille","lat":43.27372,"lon":5.36258,"is_reserved":false,"is_disabled":false,"rental_uris":{"android":"levelo://app?vid=4a366325-9323-4dd9-9f3d-c40cb684338c","ios":"levelo://app?vid=4a366325-9323-4dd9-9f3d-c40cb684338c"},"vehicle_type_id":"4","last_reported":1747622668,"current_range_meters":4000,"station_id":"ce4bhbh2rcd13ifvqeo0","pricing_plan_id":"cebpf4jnsgd1na2vs0mg"},{"bike_id":"67e8af25-21bb-45ab-bee8-3ac0b0e84810","system_id":"levelo_inurba_marseille","lat":43.287155,"lon":5.379277,"is_reserved":false,"is_disabled":false,"rental_uris":{"android":"levelo://app?vid=67e8af25-21bb-45ab-bee8-3ac0b0e84810","ios":"levelo://app?vid=67e8af25-21bb-45ab-bee8-3ac0b0e84810"},"vehicle_type_id":"4","last_reported":1747622668,"current_range_meters":4400,"station_id":"ce4bh9p2rcd13ifvqec0","pricing_plan_id":"cebpf4jnsgd1na2vs0mg"},{"bike_id":"ea111f67-34fa-4ef1-a1ce-3ecbdb65057e","system_id":"levelo_inurba_marseille","lat":43.31685,"lon":5.40476,"is_reserved":false,"is_disabled":false,"rental_uris":{"android":"levelo://app?vid=ea111f67-34fa-4ef1-a1ce-3ecbdb65057e","ios":"levelo://app?vid=ea111f67-34fa-4ef1-a1ce-3ecbdb65057e"},"vehicle_type_id":"4","last_reported":1747622668,"current_range_meters":4400,"station_id":"ce4bh012rcd13ifvqd00","pricing_plan_id":"cebpf4jnsgd1na2vs0mg"},{"bike_id":"31826e06-7c70-479a-ac15-17f83a14997d","system_id":"levelo_inurba_marseille","lat":43.29622,"lon":5.37718,"is_reserved":false,"is_disabled":false,"rental_uris":{"android":"levelo://app?vid=31826e06-7c70-479a-ac15-17f83a14997d","ios":"levelo://app?vid=31826e06-7c70-479a-ac15-17f83a14997d"},"vehicle_type_id":"4","last_reported":1747622668,"current_range_meters":4800,"station_id":"ce4bgi92rcd13ifvqb90","pricing_plan_id":"cebpf4jnsgd1na2vs0mg"},{"bike_id":"d2840165-1c23-431e-aa0b-16b735842f8a","system_id":"levelo_inurba_marseille","lat":43.280774,"lon":5.396564,"is_reserved":false,"is_disabled":false,"rental_uris":{"android":"levelo://app?vid=d2840165-1c23-431e-aa0b-16b735842f8a","ios":"levelo://app?vid=d2840165-1c23-431e-aa0b-16b735842f8a"},"vehicle_type_id":"4","last_reported":1747622668,"current_range_meters":5600,"station_id":"ce4bho12rcd13ifvqh2g","pricing_plan_id":"cebpf4jnsgd1na2vs0mg"},{"bike_id":"7a82397e-c258-4325-b836-1bc38b80aab5","system_id":"levelo_inurba_marseille","lat":43.240693,"lon":5.377564,"is_reserved":false,"is_disabled":false,"rental_uris":{"android":"levelo://app?vid=7a82397e-c258-4325-b836-1bc38b80aab5","ios":"levelo://app?vid=7a82397e-c258-4325-b836-1bc38b80aab5"},"vehicle_type_id":"4","last_reported":1747622668,"current_range_meters":5600,"station_id":"ce4bhnp2rcd13ifvqgvg","pricing_plan_id":"cebpf4jnsgd1na2vs0mg"},{"bike_id":"54510974-805e-44ca-aeed-f6f214315efd","system_id":"levelo_inurba_marseille","lat":43.27084,"lon":5.398641,"is_reserved":false,"is_disabled":false,"rental_uris":{"android":"levelo://app?vid=54510974-805e-44ca-aeed-f6f214315efd","ios":"levelo://app?vid=54510974-805e-44ca-aeed-f6f214315efd"},"vehicle_type_id":"4","last_reported":1747622668,"current_range_meters":5600,"station_id":"","pricing_plan_id":"cebpf4jnsgd1na2vs0mg"},{"bike_id":"bfe448fb-2f91-4bfc-9f87-682acde35158","system_id":"levelo_inurba_marseille","lat":43.261895,"lon":5.374588,"is_reserved":false,"is_disabled":true,"rental_uris":{"android":"levelo://app?vid=bfe448fb-2f91-4bfc-9f87-682acde35158","ios":"levelo://app?vid=bfe448fb-2f91-4bfc-9f87-682acde35158"},"vehicle_type_id":"4","last_reported":1747622668,"current_range_meters":5600,"station_id":"ce4bhgp2rcd13ifvqfc0","pricing_plan_id":"cebpf4jnsgd1na2vs0mg"},{"bike_id":"b934e6da-efb5-4ac5-a51a-eb50220f6e1b","system_id":"levelo_inurba_marseille","lat":43.269804,"lon":5.405815,"is_reserved":false,"is_disabled":true,"rental_uris":{"android":"levelo://app?vid=b934e6da-efb5-4ac5-a51a-eb50220f6e1b","ios":"levelo://app?vid=b934e6da-efb5-4ac5-a51a-eb50220f6e1b"},"vehicle_type_id":"4","last_reported":1747622668,"current_range_meters":6400,"station_id":"","pricing_plan_id":"cebpf4jnsgd1na2vs0mg"},{"bike_id":"c0db4030-ef30-480b-a735-af5435a471ed","system_id":"levelo_inurba_marseille","lat":43.277492,"lon":5.426689,"is_reserved":false,"is_disabled":false,"rental_uris":{"android":"levelo://app?vid=c0db4030-ef30-480b-a735-af5435a471ed","ios":"levelo://app?vid=c0db4030-ef30-480b-a735-af5435a471ed"},"vehicle_type_id":"4","last_reported":1747622668,"current_range_meters":6400,"station_id":"","pricing_plan_id":"cebpf4jnsgd1na2vs0mg"},{"bike_id":"9be12a09-efe5-495b-8ec3-e7e0d7473370","system_id":"levelo_inurba_marseille","lat":43.296029,"lon":5.380934,"is_reserved":false,"is_disabled":true,"rental_uris":{"android":"levelo://app?vid=9be12a09-efe5-495b-8ec3-e7e0d7473370","ios":"levelo://app?vid=9be12a09-efe5-495b-8ec3-e7e0d7473370"},"vehicle_type_id":"4","last_reported":1747622668,"current_range_meters":6400,"station_id":"ce4bgl12rcd13ifvqbo0","pricing_plan_id":"cebpf4jnsgd1na2vs0mg"},{"bike_id":"e5c8a2b0-e20c-401e-819e-2833d3af4a7a","system_id":"levelo_inurba_marseille","lat":43.274944,"lon":5.424575,"is_reserved":false,"is_disabled":false,"rental_uris":{"android":"levelo://app?vid=e5c8a2b0-e20c-401e-819e-2833d3af4a7a","ios":"levelo://app?vid=e5c8a2b0-e20c-401e-819e-2833d3af4a7a"},"vehicle_type_id":"4","last_reported":1747622668,"current_range_meters":6400,"station_id":"ce4bhn92rcd13ifvqgrg","pricing_plan_id":"cebpf4jnsgd1na2vs0mg"},{"bike_id":"0c2b5650-b63e-432a-a802-72710d7a63b5","system_id":"levelo_inurba_marseille","lat":43.279183,"lon":5.395839,"is_reserved":false,"is_disabled":false,"rental_uris":{"android":"levelo://app?vid=0c2b5650-b63e-432a-a802-72710d7a63b5","ios":"levelo://app?vid=0c2b5650-b63e-432a-a802-72710d7a63b5"},"vehicle_type_id":"4","last_reported":1747622668,"current_range_meters":6400,"station_id":"ce4bhf92rcd13ifvqf40","pricing_plan_id":"cebpf4jnsgd1na2vs0mg"},{"bike_id":"bad86af2-0ffe-4b1f-923c-e1a8ba9fe0ac","system_id":"levelo_inurba_marseille","lat":43.29284,"lon":5.401403,"is_reserved":false,"is_disabled":false,"rental_uris":{"android":"levelo://app?vid=bad86af2-0ffe-4b1f-923c-e1a8ba9fe0ac","ios":"levelo://app?vid=bad86af2-0ffe-4b1f-923c-e1a8ba9fe0ac"},"vehicle_type_id":"4","last_reported":1747622668,"current_range_meters":6400,"station_id":"ce4bh312rcd13ifvqdk0","pricing_plan_id":"cebpf4jnsgd1na2vs0mg"},{"bike_id":"12569b35-d33a-407b-80dd-e3c1ef7409ca","system_id":"levelo_inurba_marseille","lat":43.309308,"lon":5.40166,"is_reserved":false,"is_disabled":false,"rental_uris":{"android":"levelo://app?vid=12569b35-d33a-407b-80dd-e3c1ef7409ca","ios":"levelo://app?vid=12569b35-d33a-407b-80dd-e3c1ef7409ca"},"vehicle_type_id":"4","last_reported":1747622668,"current_range_meters":6800,"station_id":"ce4bgvp2rcd13ifvqct0","pricing_plan_id":"cebpf4jnsgd1na2vs0mg"},{"bike_id":"0fb02880-5c6e-4026-9e4a-07529c572b44","system_id":"levelo_inurba_marseille","lat":43.254897,"lon":5.373942,"is_reserved":false,"is_disabled":false,"rental_uris":{"android":"levelo://app?vid=0fb02880-5c6e-4026-9e4a-07529c572b44","ios":"levelo://app?vid=0fb02880-5c6e-4026-9e4a-07529c572b44"},"vehicle_type_id":"4","last_reported":1747622668,"current_range_meters":7200,"station_id":"","pricing_plan_id":"cebpf4jnsgd1na2vs0mg"},{"bike_id":"221059a0-9f9c-4e66-81e4-fa248c43ab3a","system_id":"levelo_inurba_marseille","lat":43.307841,"lon":5.376509,"is_reserved":false,"is_disabled":false,"rental_uris":{"android":"levelo://app?vid=221059a0-9f9c-4e66-81e4-fa248c43ab3a","ios":"levelo://app?vid=221059a0-9f9c-4e66-81e4-fa248c43ab3a"},"vehicle_type_id":"4","last_reported":1747622668,"current_range_meters":7200,"station_id":"ce4bgv92rcd13ifvqcq0","pricing_plan_id":"cebpf4jnsgd1na2vs0mg"},{"bike_id":"8e9d47d1-b7e9-44b0-b49b-7bdb9c9c621e","system_id":"levelo_inurba_marseille","lat":43.31685,"lon":5.40469,"is_reserved":false,"is_disabled":false,"rental_uris":{"android":"levelo://app?vid=8e9d47d1-b7e9-44b0-b49b-7bdb9c9c621e","ios":"levelo://app?vid=8e9d47d1-b7e9-44b0-b49b-7bdb9c9c621e"},"vehicle_type_id":"4","last_reported":1747622668,"current_range_meters":7200,"station_id":"ce4bh012rcd13ifvqd00","pricing_plan_id":"cebpf4jnsgd1na2vs0mg"},{"bike_id":"0942a4e0-09d2-4a94-9ccc-136b2604fc2e","system_id":"levelo_inurba_marseille","lat":43.240713,"lon":5.377603,"is_reserved":false,"is_disabled":false,"rental_uris":{"android":"levelo://app?vid=0942a4e0-09d2-4a94-9ccc-136b2604fc2e","ios":"levelo://app?vid=0942a4e0-09d2-4a94-9ccc-136b2604fc2e"},"vehicle_type_id":"4","last_reported":1747622668,"current_range_meters":7200,"station_id":"ce4bhnp2rcd13ifvqgvg","pricing_plan_id":"cebpf4jnsgd1na2vs0mg"},{"bike_id":"14603e41-b2dd-4757-a53c-2e366aa4f983","system_id":"levelo_inurba_marseille","lat":43.269978,"lon":5.428321,"is_reserved":false,"is_disabled":false,"rental_uris":{"android":"levelo://app?vid=14603e41-b2dd-4757-a53c-2e366aa4f983","ios":"levelo://app?vid=14603e41-b2dd-4757-a53c-2e366aa4f983"},"vehicle_type_id":"4","last_reported":1747622668,"current_range_meters":7200,"station_id":"","pricing_plan_id":"cebpf4jnsgd1na2vs0mg"},{"bike_id":"7d080336-5a2d-419d-8d50-e49d93450255","system_id":"levelo_inurba_marseille","lat":43.291675,"lon":5.371455,"is_reserved":false,"is_disabled":true,"rental_uris":{"android":"levelo://app?vid=7d080336-5a2d-419d-8d50-e49d93450255","ios":"levelo://app?vid=7d080336-5a2d-419d-8d50-e49d93450255"},"vehicle_type_id":"4","last_reported":1747622668,"current_range_meters":8000,"station_id":"ce4bha92rcd13ifvqeh0","pricing_plan_id":"cebpf4jnsgd1na2vs0mg"},{"bike_id":"2eab994d-a378-4391-894b-b62d11a34041","system_id":"levelo_inurba_marseille","lat":43.231549,"lon":5.437178,"is_reserved":false,"is_disabled":true,"rental_uris":{"android":"levelo://app?vid=2eab994d-a378-4391-894b-b62d11a34041","ios":"levelo://app?vid=2eab994d-a378-4391-894b-b62d11a34041"},"vehicle_type_id":"4","last_reported":1747622668,"current_range_meters":8000,"station_id":"ce4bhmp2rcd13ifvqgog","pricing_plan_id":"cebpf4jnsgd1na2vs0mg"},{"bike_id":"3dbf4202-6716-451d-aeb1-f268340013a7","system_id":"levelo_inurba_marseille","lat":43.314994,"lon":5.373115,"is_reserved":false,"is_disabled":true,"rental_uris":{"android":"levelo://app?vid=3dbf4202-6716-451d-aeb1-f268340013a7","ios":"levelo://app?vid=3dbf4202-6716-451d-aeb1-f268340013a7"},"vehicle_type_id":"4","last_reported":1747622668,"current_range_meters":8000,"station_id":"ce4bgt12rcd13ifvqcd0","pricing_plan_id":"cebpf4jnsgd1na2vs0mg"},{"bike_id":"1095c8be-c665-4dc2-8f08-f6b53f28326d","system_id":"levelo_inurba_marseille","lat":43.286452,"lon":5.363406,"is_reserved":false,"is_disabled":false,"rental_uris":{"android":"levelo://app?vid=1095c8be-c665-4dc2-8f08-f6b53f28326d","ios":"levelo://app?vid=1095c8be-c665-4dc2-8f08-f6b53f28326d"},"vehicle_type_id":"4","last_reported":1747622668,"current_range_meters":8000,"station_id":"ce4bhah2rcd13ifvqej0","pricing_plan_id":"cebpf4jnsgd1na2vs0mg"},{"bike_id":"b3d3c3ee-d31e-42f9-8725-23762e5459dc","system_id":"levelo_inurba_marseille","lat":43.316989,"lon":5.377685,"is_reserved":false,"is_disabled":false,"rental_uris":{"android":"levelo://app?vid=b3d3c3ee-d31e-42f9-8725-23762e5459dc","ios":"levelo://app?vid=b3d3c3ee-d31e-42f9-8725-23762e5459dc"},"vehicle_type_id":"4","last_reported":1747622668,"current_range_meters":8000,"station_id":"ce4bgth2rcd13ifvqch0","pricing_plan_id":"cebpf4jnsgd1na2vs0mg"},{"bike_id":"ffc3ddf2-0082-4578-9e25-c91f5b4279bc","system_id":"levelo_inurba_marseille","lat":43.283243,"lon":5.411273,"is_reserved":false,"is_disabled":false,"rental_uris":{"android":"levelo://app?vid=ffc3ddf2-0082-4578-9e25-c91f5b4279bc","ios":"levelo://app?vid=ffc3ddf2-0082-4578-9e25-c91f5b4279bc"},"vehicle_type_id":"4","last_reported":1747622668,"current_range_meters":8000,"station_id":"","pricing_plan_id":"cebpf4jnsgd1na2vs0mg"},{"bike_id":"caf4c81d-8b81-4d8d-a4f9-9d00bac7ad70","system_id":"levelo_inurba_marseille","lat":43.307818,"lon":5.427702,"is_reserved":false,"is_disabled":false,"rental_uris":{"android":"levelo://app?vid=caf4c81d-8b81-4d8d-a4f9-9d00bac7ad70","ios":"levelo://app?vid=caf4c81d-8b81-4d8d-a4f9-9d00bac7ad70"},"vehicle_type_id":"4","last_reported":1747622668,"current_range_meters":8000,"station_id":"","pricing_plan_id":"cebpf4jnsgd1na2vs0mg"},{"bike_id":"67f72f62-eb9d-4994-bbcf-c10b28dd838c","system_id":"levelo_inurba_marseille","lat":43.266058,"lon":5.393379,"is_reserved":false,"is_disabled":false,"rental_uris":{"android":"levelo://app?vid=67f72f62-eb9d-4994-bbcf-c10b28dd838c","ios":"levelo://app?vid=67f72f62-eb9d-4994-bbcf-c10b28dd838c"},"vehicle_type_id":"4","last_reported":1747622668,"current_range_meters":8400,"station_id":"","pricing_plan_id":"cebpf4jnsgd1na2vs0mg"},{"bike_id":"88c266e6-7038-494f-b358-90ca603fb435","system_id":"levelo_inurba_marseille","lat":43.295637,"lon":5.37517,"is_reserved":false,"is_disabled":true,"rental_uris":{"android":"levelo://app?vid=88c266e6-7038-494f-b358-90ca603fb435","ios":"levelo://app?vid=88c266e6-7038-494f-b358-90ca603fb435"},"vehicle_type_id":"4","last_reported":1747622668,"current_range_meters":8400,"station_id":"ce4bgh92rcd13ifvqb50","pricing_plan_id":"cebpf4jnsgd1na2vs0mg"},{"bike_id":"43b47f55-f2d2-49ee-8f5f-b100c45adb99","system_id":"levelo_inurba_marseille","lat":43.309226,"lon":5.401531,"is_reserved":false,"is_disabled":false,"rental_uris":{"android":"levelo://app?vid=43b47f55-f2d2-49ee-8f5f-b100c45adb99","ios":"levelo://app?vid=43b47f55-f2d2-49ee-8f5f-b100c45adb99"},"vehicle_type_id":"4","last_reported":1747622668,"current_range_meters":8400,"station_id":"ce4bgvp2rcd13ifvqct0","pricing_plan_id":"cebpf4jnsgd1na2vs0mg"},{"bike_id":"9dbadacf-fbbb-4744-b239-0fae16a8ed75","system_id":"levelo_inurba_marseille","lat":43.270522,"lon":5.402546,"is_reserved":false,"is_disabled":false,"rental_uris":{"android":"levelo://app?vid=9dbadacf-fbbb-4744-b239-0fae16a8ed75","ios":"levelo://app?vid=9dbadacf-fbbb-4744-b239-0fae16a8ed75"},"vehicle_type_id":"4","last_reported":1747622668,"current_range_meters":8800,"station_id":"","pricing_plan_id":"cebpf4jnsgd1na2vs0mg"},{"bike_id":"1b2f0e19-c9dc-4000-8367-67c619535c14","system_id":"levelo_inurba_marseille","lat":43.299479,"lon":5.365339,"is_reserved":false,"is_disabled":true,"rental_uris":{"android":"levelo://app?vid=1b2f0e19-c9dc-4000-8367-67c619535c14","ios":"levelo://app?vid=1b2f0e19-c9dc-4000-8367-67c619535c14"},"vehicle_type_id":"4","last_reported":1747622668,"current_range_meters":8800,"station_id":"ce4bgm92rcd13ifvqbr0","pricing_plan_id":"cebpf4jnsgd1na2vs0mg"},{"bike_id":"8c1358ab-eac1-4c80-9f48-a739214cfa6d","system_id":"levelo_inurba_marseille","lat":43.28172,"lon":5.42626,"is_reserved":false,"is_disabled":false,"rental_uris":{"android":"levelo://app?vid=8c1358ab-eac1-4c80-9f48-a739214cfa6d","ios":"levelo://app?vid=8c1358ab-eac1-4c80-9f48-a739214cfa6d"},"vehicle_type_id":"4","last_reported":1747622668,"current_range_meters":8800,"station_id":"ce4bhnh2rcd13ifvqgug","pricing_plan_id":"cebpf4jnsgd1na2vs0mg"},{"bike_id":"c608898e-58b6-42f7-903a-6008119c7a64","system_id":"levelo_inurba_marseille","lat":43.2407,"lon":5.37729,"is_reserved":false,"is_disabled":false,"rental_uris":{"android":"levelo://app?vid=c608898e-58b6-42f7-903a-6008119c7a64","ios":"levelo://app?vid=c608898e-58b6-42f7-903a-6008119c7a64"},"vehicle_type_id":"4","last_reported":1747622668,"current_range_meters":8800,"station_id":"ce4bhnp2rcd13ifvqgvg","pricing_plan_id":"cebpf4jnsgd1na2vs0mg"},{"bike_id":"eb2c2731-2edc-4d41-9768-74e49a367a23","system_id":"levelo_inurba_marseille","lat":43.310743,"lon":5.383533,"is_reserved":false,"is_disabled":false,"rental_uris":{"android":"levelo://app?vid=eb2c2731-2edc-4d41-9768-74e49a367a23","ios":"levelo://app?vid=eb2c2731-2edc-4d41-9768-74e49a367a23"},"vehicle_type_id":"4","last_reported":1747622668,"current_range_meters":8800,"station_id":"ce4bgv92rcd13ifvqcr0","pricing_plan_id":"cebpf4jnsgd1na2vs0mg"},{"bike_id":"85109325-44b9-4918-8f7d-a8d4223cf8fc","system_id":"levelo_inurba_marseille","lat":43.308813,"lon":5.371992,"is_reserved":false,"is_disabled":false,"rental_uris":{"android":"levelo://app?vid=85109325-44b9-4918-8f7d-a8d4223cf8fc","ios":"levelo://app?vid=85109325-44b9-4918-8f7d-a8d4223cf8fc"},"vehicle_type_id":"4","last_reported":1747622668,"current_range_meters":9200,"station_id":"ce4bguh2rcd13ifvqckg","pricing_plan_id":"cebpf4jnsgd1na2vs0mg"},{"bike_id":"3a0b0d8c-cbdb-4bf7-b4d3-b2a04e374327","system_id":"levelo_inurba_marseille","lat":43.29805,"lon":5.40412,"is_reserved":false,"is_disabled":false,"rental_uris":{"android":"levelo://app?vid=3a0b0d8c-cbdb-4bf7-b4d3-b2a04e374327","ios":"levelo://app?vid=3a0b0d8c-cbdb-4bf7-b4d3-b2a04e374327"},"vehicle_type_id":"4","last_reported":1747622668,"current_range_meters":9200,"station_id":"ce4bh112rcd13ifvqd90","pricing_plan_id":"cebpf4jnsgd1na2vs0mg"},{"bike_id":"b7a9b918-0d7b-472c-8d00-bb0a74796ed9","system_id":"levelo_inurba_marseille","lat":43.295885,"lon":5.375096,"is_reserved":false,"is_disabled":true,"rental_uris":{"android":"levelo://app?vid=b7a9b918-0d7b-472c-8d00-bb0a74796ed9","ios":"levelo://app?vid=b7a9b918-0d7b-472c-8d00-bb0a74796ed9"},"vehicle_type_id":"4","last_reported":1747622668,"current_range_meters":9200,"station_id":"ce4bgh92rcd13ifvqb50","pricing_plan_id":"cebpf4jnsgd1na2vs0mg"},{"bike_id":"729918f8-f344-4485-8aad-10309154b9ab","system_id":"levelo_inurba_marseille","lat":43.31384,"lon":5.38492,"is_reserved":false,"is_disabled":false,"rental_uris":{"android":"levelo://app?vid=729918f8-f344-4485-8aad-10309154b9ab","ios":"levelo://app?vid=729918f8-f344-4485-8aad-10309154b9ab"},"vehicle_type_id":"4","last_reported":1747622668,"current_range_meters":9200,"station_id":"ce4bgt92rcd13ifvqcf0","pricing_plan_id":"cebpf4jnsgd1na2vs0mg"},{"bike_id":"4745dd8b-a0b2-49db-b417-8a28eecc51d4","system_id":"levelo_inurba_marseille","lat":43.243367,"lon":5.379919,"is_reserved":false,"is_disabled":false,"rental_uris":{"android":"levelo://app?vid=4745dd8b-a0b2-49db-b417-8a28eecc51d4","ios":"levelo://app?vid=4745dd8b-a0b2-49db-b417-8a28eecc51d4"},"vehicle_type_id":"4","last_reported":1747622668,"current_range_meters":9200,"station_id":"","pricing_plan_id":"cebpf4jnsgd1na2vs0mg"},{"bike_id":"3f72a3c9-a1da-4a7e-b8f5-6ce7992f0e8c","system_id":"levelo_inurba_marseille","lat":43.306458,"lon":5.40085,"is_reserved":false,"is_disabled":false,"rental_uris":{"android":"levelo://app?vid=3f72a3c9-a1da-4a7e-b8f5-6ce7992f0e8c","ios":"levelo://app?vid=3f72a3c9-a1da-4a7e-b8f5-6ce7992f0e8c"},"vehicle_type_id":"4","last_reported":1747622668,"current_range_meters":9600,"station_id":"ce4bh112rcd13ifvqda0","pricing_plan_id":"cebpf4jnsgd1na2vs0mg"},{"bike_id":"6ee7001e-07ad-49d2-9902-4e2095457f59","system_id":"levelo_inurba_marseille","lat":43.27068,"lon":5.422791,"is_reserved":false,"is_disabled":true,"rental_uris":{"android":"levelo://app?vid=6ee7001e-07ad-49d2-9902-4e2095457f59","ios":"levelo://app?vid=6ee7001e-07ad-49d2-9902-4e2095457f59"},"vehicle_type_id":"4","last_reported":1747622668,"current_range_meters":9600,"station_id":"ce4bhk92rcd13ifvqgb0","pricing_plan_id":"cebpf4jnsgd1na2vs0mg"},{"bike_id":"3dced1d9-0c80-49d8-a25b-68d880296f3d","system_id":"levelo_inurba_marseille","lat":43.30413,"lon":5.39765,"is_reserved":false,"is_disabled":false,"rental_uris":{"android":"levelo://app?vid=3dced1d9-0c80-49d8-a25b-68d880296f3d","ios":"levelo://app?vid=3dced1d9-0c80-49d8-a25b-68d880296f3d"},"vehicle_type_id":"4","last_reported":1747622668,"current_range_meters":9600,"station_id":"ce4bh092rcd13ifvqd20","pricing_plan_id":"cebpf4jnsgd1na2vs0mg"},{"bike_id":"5d86bbef-94ca-4dcb-9edd-d128b7c97ecc","system_id":"levelo_inurba_marseille","lat":43.308924,"lon":5.396461,"is_reserved":false,"is_disabled":false,"rental_uris":{"android":"levelo://app?vid=5d86bbef-94ca-4dcb-9edd-d128b7c97ecc","ios":"levelo://app?vid=5d86bbef-94ca-4dcb-9edd-d128b7c97ecc"},"vehicle_type_id":"4","last_reported":1747622668,"current_range_meters":9600,"station_id":"ce4bh012rcd13ifvqcv0","pricing_plan_id":"cebpf4jnsgd1na2vs0mg"},{"bike_id":"e6b88a27-71bd-4dea-a96f-6290efbfefd4","system_id":"levelo_inurba_marseille","lat":43.262192,"lon":5.404525,"is_reserved":false,"is_disabled":false,"rental_uris":{"android":"levelo://app?vid=e6b88a27-71bd-4dea-a96f-6290efbfefd4","ios":"levelo://app?vid=e6b88a27-71bd-4dea-a96f-6290efbfefd4"},"vehicle_type_id":"4","last_reported":1747622668,"current_range_meters":9600,"station_id":"ce4bhmh2rcd13ifvqgmg","pricing_plan_id":"cebpf4jnsgd1na2vs0mg"},{"bike_id":"75463357-e93f-40fe-bd3c-705c5c56d40d","system_id":"levelo_inurba_marseille","lat":43.301339,"lon":5.398681,"is_reserved":false,"is_disabled":false,"rental_uris":{"android":"levelo://app?vid=75463357-e93f-40fe-bd3c-705c5c56d40d","ios":"levelo://app?vid=75463357-e93f-40fe-bd3c-705c5c56d40d"},"vehicle_type_id":"4","last_reported":1747622668,"current_range_meters":9600,"station_id":"ce4bh0h2rcd13ifvqd40","pricing_plan_id":"cebpf4jnsgd1na2vs0mg"},{"bike_id":"752fccba-7c8c-4704-a985-695310354a1c","system_id":"levelo_inurba_marseille","lat":43.315386,"lon":5.380394,"is_reserved":false,"is_disabled":false,"rental_uris":{"android":"levelo://app?vid=752fccba-7c8c-4704-a985-695310354a1c","ios":"levelo://app?vid=752fccba-7c8c-4704-a985-695310354a1c"},"vehicle_type_id":"4","last_reported":1747622668,"current_range_meters":9600,"station_id":"ce4bhsp2rcd13ifvqi50","pricing_plan_id":"cebpf4jnsgd1na2vs0mg"},{"bike_id":"018dda92-33f7-4f9c-9997-940b853b8743","system_id":"levelo_inurba_marseille","lat":43.27407,"lon":5.39401,"is_reserved":false,"is_disabled":true,"rental_uris":{"android":"levelo://app?vid=018dda92-33f7-4f9c-9997-940b853b8743","ios":"levelo://app?vid=018dda92-33f7-4f9c-9997-940b853b8743"},"vehicle_type_id":"4","last_reported":1747622668,"current_range_meters":10000,"station_id":"ce4bhdp2rcd13ifvqf20","pricing_plan_id":"cebpf4jnsgd1na2vs0mg"},{"bike_id":"e22366a5-a50f-4b78-ad79-900d58eb5bdb","system_id":"levelo_inurba_marseille","lat":43.302462,"lon":5.400535,"is_reserved":false,"is_disabled":false,"rental_uris":{"android":"levelo://app?vid=e22366a5-a50f-4b78-ad79-900d58eb5bdb","ios":"levelo://app?vid=e22366a5-a50f-4b78-ad79-900d58eb5bdb"},"vehicle_type_id":"4","last_reported":1747622668,"current_range_meters":10000,"station_id":"ce4bgvh2rcd13ifvqcs0","pricing_plan_id":"cebpf4jnsgd1na2vs0mg"},{"bike_id":"51a33848-f0f0-40ec-b6c6-8948c992d932","system_id":"levelo_inurba_marseille","lat":43.250859,"lon":5.395161,"is_reserved":false,"is_disabled":false,"rental_uris":{"android":"levelo://app?vid=51a33848-f0f0-40ec-b6c6-8948c992d932","ios":"levelo://app?vid=51a33848-f0f0-40ec-b6c6-8948c992d932"},"vehicle_type_id":"4","last_reported":1747622668,"current_range_meters":10000,"station_id":"ce4bhm12rcd13ifvqgkg","pricing_plan_id":"cebpf4jnsgd1na2vs0mg"},{"bike_id":"bef7e93a-e408-4e22-9bc9-22f9c74f2943","system_id":"levelo_inurba_marseille","lat":43.294349,"lon":5.397556,"is_reserved":false,"is_disabled":false,"rental_uris":{"android":"levelo://app?vid=bef7e93a-e408-4e22-9bc9-22f9c74f2943","ios":"levelo://app?vid=bef7e93a-e408-4e22-9bc9-22f9c74f2943"},"vehicle_type_id":"4","last_reported":1747622668,"current_range_meters":10000,"station_id":"ce4bh3h2rcd13ifvqdo0","pricing_plan_id":"cebpf4jnsgd1na2vs0mg"},{"bike_id":"51736835-8128-4840-b526-bf33d386a6e7","system_id":"levelo_inurba_marseille","lat":43.299034,"lon":5.436726,"is_reserved":false,"is_disabled":true,"rental_uris":{"android":"levelo://app?vid=51736835-8128-4840-b526-bf33d386a6e7","ios":"levelo://app?vid=51736835-8128-4840-b526-bf33d386a6e7"},"vehicle_type_id":"4","last_reported":1747622668,"current_range_meters":10000,"station_id":"ce4bhpp2rcd13ifvqhfg","pricing_plan_id":"cebpf4jnsgd1na2vs0mg"},{"bike_id":"bfe2616a-ffe2-4507-a00a-544cad85d2ea","system_id":"levelo_inurba_marseille","lat":43.282074,"lon":5.390495,"is_reserved":false,"is_disabled":false,"rental_uris":{"android":"levelo://app?vid=bfe2616a-ffe2-4507-a00a-544cad85d2ea","ios":"levelo://app?vid=bfe2616a-ffe2-4507-a00a-544cad85d2ea"},"vehicle_type_id":"4","last_reported":1747622668,"current_range_meters":10800,"station_id":"","pricing_plan_id":"cebpf4jnsgd1na2vs0mg"},{"bike_id":"07672ecb-c631-450f-8bc9-47acc1780ab4","system_id":"levelo_inurba_marseille","lat":43.30884,"lon":5.3963,"is_reserved":false,"is_disabled":false,"rental_uris":{"android":"levelo://app?vid=07672ecb-c631-450f-8bc9-47acc1780ab4","ios":"levelo://app?vid=07672ecb-c631-450f-8bc9-47acc1780ab4"},"vehicle_type_id":"4","last_reported":1747622668,"current_range_meters":10800,"station_id":"ce4bh012rcd13ifvqcv0","pricing_plan_id":"cebpf4jnsgd1na2vs0mg"},{"bike_id":"b691a1bc-feb9-4135-8978-1227121d34be","system_id":"levelo_inurba_marseille","lat":43.240805,"lon":5.377431,"is_reserved":false,"is_disabled":false,"rental_uris":{"android":"levelo://app?vid=b691a1bc-feb9-4135-8978-1227121d34be","ios":"levelo://app?vid=b691a1bc-feb9-4135-8978-1227121d34be"},"vehicle_type_id":"4","last_reported":1747622668,"current_range_meters":10800,"station_id":"ce4bhnp2rcd13ifvqgvg","pricing_plan_id":"cebpf4jnsgd1na2vs0mg"},{"bike_id":"ca2a3cd1-9e0f-47c5-bfeb-3862db0c259f","system_id":"levelo_inurba_marseille","lat":43.309291,"lon":5.401409,"is_reserved":false,"is_disabled":false,"rental_uris":{"android":"levelo://app?vid=ca2a3cd1-9e0f-47c5-bfeb-3862db0c259f","ios":"levelo://app?vid=ca2a3cd1-9e0f-47c5-bfeb-3862db0c259f"},"vehicle_type_id":"4","last_reported":1747622668,"current_range_meters":10800,"station_id":"ce4bgvp2rcd13ifvqct0","pricing_plan_id":"cebpf4jnsgd1na2vs0mg"},{"bike_id":"c95edae8-90ce-4d52-a6a6-375c9efc7c36","system_id":"levelo_inurba_marseille","lat":43.301311,"lon":5.398699,"is_reserved":false,"is_disabled":false,"rental_uris":{"android":"levelo://app?vid=c95edae8-90ce-4d52-a6a6-375c9efc7c36","ios":"levelo://app?vid=c95edae8-90ce-4d52-a6a6-375c9efc7c36"},"vehicle_type_id":"4","last_reported":1747622668,"current_range_meters":10800,"station_id":"ce4bh0h2rcd13ifvqd40","pricing_plan_id":"cebpf4jnsgd1na2vs0mg"},{"bike_id":"12c4d802-2c6a-4c71-888e-000ffe312a3f","system_id":"levelo_inurba_marseille","lat":43.32363,"lon":5.36758,"is_reserved":false,"is_disabled":false,"rental_uris":{"android":"levelo://app?vid=12c4d802-2c6a-4c71-888e-000ffe312a3f","ios":"levelo://app?vid=12c4d802-2c6a-4c71-888e-000ffe312a3f"},"vehicle_type_id":"4","last_reported":1747622668,"current_range_meters":10800,"station_id":"ce4bhsh2rcd13ifvqi2g","pricing_plan_id":"cebpf4jnsgd1na2vs0mg"},{"bike_id":"1ce0d1d1-5750-42f3-aacb-ef7edcf196ee","system_id":"levelo_inurba_marseille","lat":43.254817,"lon":5.376594,"is_reserved":false,"is_disabled":true,"rental_uris":{"android":"levelo://app?vid=1ce0d1d1-5750-42f3-aacb-ef7edcf196ee","ios":"levelo://app?vid=1ce0d1d1-5750-42f3-aacb-ef7edcf196ee"},"vehicle_type_id":"4","last_reported":1747622668,"current_range_meters":10800,"station_id":"ce4bhh12rcd13ifvqff0","pricing_plan_id":"cebpf4jnsgd1na2vs0mg"},{"bike_id":"e3b78554-4d24-4011-be37-94a8a7d4a2fb","system_id":"levelo_inurba_marseille","lat":43.26477,"lon":5.39551,"is_reserved":false,"is_disabled":true,"rental_uris":{"android":"levelo://app?vid=e3b78554-4d24-4011-be37-94a8a7d4a2fb","ios":"levelo://app?vid=e3b78554-4d24-4011-be37-94a8a7d4a2fb"},"vehicle_type_id":"4","last_reported":1747622668,"current_range_meters":10800,"station_id":"ce4bhi12rcd13ifvqfq0","pricing_plan_id":"cebpf4jnsgd1na2vs0mg"},{"bike_id":"9b55a1e0-14da-4879-90dc-b321de5c8345","system_id":"levelo_inurba_marseille","lat":43.29775,"lon":5.381209,"is_reserved":false,"is_disabled":true,"rental_uris":{"android":"levelo://app?vid=9b55a1e0-14da-4879-90dc-b321de5c8345","ios":"levelo://app?vid=9b55a1e0-14da-4879-90dc-b321de5c8345"},"vehicle_type_id":"4","last_reported":1747622668,"current_range_meters":10800,"station_id":"ce4bgip2rcd13ifvqbb0","pricing_plan_id":"cebpf4jnsgd1na2vs0mg"},{"bike_id":"1e755959-071e-4e32-88c3-22fabc9da577","system_id":"levelo_inurba_marseille","lat":43.3064,"lon":5.40114,"is_reserved":false,"is_disabled":false,"rental_uris":{"android":"levelo://app?vid=1e755959-071e-4e32-88c3-22fabc9da577","ios":"levelo://app?vid=1e755959-071e-4e32-88c3-22fabc9da577"},"vehicle_type_id":"4","last_reported":1747622668,"current_range_meters":10800,"station_id":"ce4bh112rcd13ifvqda0","pricing_plan_id":"cebpf4jnsgd1na2vs0mg"},{"bike_id":"0b823a07-6962-4e0d-8e4a-dd2d68ba751f","system_id":"levelo_inurba_marseille","lat":43.270729,"lon":5.422832,"is_reserved":false,"is_disabled":false,"rental_uris":{"android":"levelo://app?vid=0b823a07-6962-4e0d-8e4a-dd2d68ba751f","ios":"levelo://app?vid=0b823a07-6962-4e0d-8e4a-dd2d68ba751f"},"vehicle_type_id":"4","last_reported":1747622668,"current_range_meters":10800,"station_id":"ce4bhk92rcd13ifvqgb0","pricing_plan_id":"cebpf4jnsgd1na2vs0mg"},{"bike_id":"c9098f0c-9735-4b11-b691-4a6b9418f24c","system_id":"levelo_inurba_marseille","lat":43.306478,"lon":5.40094,"is_reserved":false,"is_disabled":false,"rental_uris":{"android":"levelo://app?vid=c9098f0c-9735-4b11-b691-4a6b9418f24c","ios":"levelo://app?vid=c9098f0c-9735-4b11-b691-4a6b9418f24c"},"vehicle_type_id":"4","last_reported":1747622668,"current_range_meters":10800,"station_id":"ce4bh112rcd13ifvqda0","pricing_plan_id":"cebpf4jnsgd1na2vs0mg"},{"bike_id":"814e2930-a412-47af-849d-26da2abc07f6","system_id":"levelo_inurba_marseille","lat":43.278137,"lon":5.407194,"is_reserved":false,"is_disabled":true,"rental_uris":{"android":"levelo://app?vid=814e2930-a412-47af-849d-26da2abc07f6","ios":"levelo://app?vid=814e2930-a412-47af-849d-26da2abc07f6"},"vehicle_type_id":"4","last_reported":1747622668,"current_range_meters":10800,"station_id":"ce4bhnh2rcd13ifvqgtg","pricing_plan_id":"cebpf4jnsgd1na2vs0mg"},{"bike_id":"79922f2a-1d16-47ac-bf89-1334419d04ef","system_id":"levelo_inurba_marseille","lat":43.291977,"lon":5.393316,"is_reserved":false,"is_disabled":false,"rental_uris":{"android":"levelo://app?vid=79922f2a-1d16-47ac-bf89-1334419d04ef","ios":"levelo://app?vid=79922f2a-1d16-47ac-bf89-1334419d04ef"},"vehicle_type_id":"4","last_reported":1747622668,"current_range_meters":11200,"station_id":"ce4bh192rcd13ifvqdd0","pricing_plan_id":"cebpf4jnsgd1na2vs0mg"},{"bike_id":"26ca51f0-0394-4901-8d25-503030f49739","system_id":"levelo_inurba_marseille","lat":43.301317,"lon":5.398892,"is_reserved":false,"is_disabled":false,"rental_uris":{"android":"levelo://app?vid=26ca51f0-0394-4901-8d25-503030f49739","ios":"levelo://app?vid=26ca51f0-0394-4901-8d25-503030f49739"},"vehicle_type_id":"4","last_reported":1747622668,"current_range_meters":11200,"station_id":"ce4bh0h2rcd13ifvqd40","pricing_plan_id":"cebpf4jnsgd1na2vs0mg"},{"bike_id":"77e758c6-87b4-4f01-8c58-a3a1151b092c","system_id":"levelo_inurba_marseille","lat":43.313631,"lon":5.384989,"is_reserved":false,"is_disabled":false,"rental_uris":{"android":"levelo://app?vid=77e758c6-87b4-4f01-8c58-a3a1151b092c","ios":"levelo://app?vid=77e758c6-87b4-4f01-8c58-a3a1151b092c"},"vehicle_type_id":"4","last_reported":1747622668,"current_range_meters":11200,"station_id":"ce4bgt92rcd13ifvqcf0","pricing_plan_id":"cebpf4jnsgd1na2vs0mg"},{"bike_id":"fa922033-5240-4d00-8a04-7369d98a6dcb","system_id":"levelo_inurba_marseille","lat":43.25113,"lon":5.40331,"is_reserved":false,"is_disabled":false,"rental_uris":{"android":"levelo://app?vid=fa922033-5240-4d00-8a04-7369d98a6dcb","ios":"levelo://app?vid=fa922033-5240-4d00-8a04-7369d98a6dcb"},"vehicle_type_id":"4","last_reported":1747622668,"current_range_meters":11200,"station_id":"ce4bhlh2rcd13ifvqgig","pricing_plan_id":"cebpf4jnsgd1na2vs0mg"},{"bike_id":"a85be539-0282-4f5c-add7-ff454bb1404c","system_id":"levelo_inurba_marseille","lat":43.279176,"lon":5.395842,"is_reserved":false,"is_disabled":false,"rental_uris":{"android":"levelo://app?vid=a85be539-0282-4f5c-add7-ff454bb1404c","ios":"levelo://app?vid=a85be539-0282-4f5c-add7-ff454bb1404c"},"vehicle_type_id":"4","last_reported":1747622668,"current_range_meters":11600,"station_id":"ce4bhf92rcd13ifvqf40","pricing_plan_id":"cebpf4jnsgd1na2vs0mg"},{"bike_id":"e472a7f3-1962-44a9-b366-ed0d4cb32e38","system_id":"levelo_inurba_marseille","lat":43.262271,"lon":5.404487,"is_reserved":false,"is_disabled":false,"rental_uris":{"android":"levelo://app?vid=e472a7f3-1962-44a9-b366-ed0d4cb32e38","ios":"levelo://app?vid=e472a7f3-1962-44a9-b366-ed0d4cb32e38"},"vehicle_type_id":"4","last_reported":1747622668,"current_range_meters":11600,"station_id":"ce4bhmh2rcd13ifvqgmg","pricing_plan_id":"cebpf4jnsgd1na2vs0mg"},{"bike_id":"356b2829-3ca0-4f70-8f78-46e79da913e0","system_id":"levelo_inurba_marseille","lat":43.281531,"lon":5.426462,"is_reserved":false,"is_disabled":false,"rental_uris":{"android":"levelo://app?vid=356b2829-3ca0-4f70-8f78-46e79da913e0","ios":"levelo://app?vid=356b2829-3ca0-4f70-8f78-46e79da913e0"},"vehicle_type_id":"4","last_reported":1747622668,"current_range_meters":11600,"station_id":"ce4bhnh2rcd13ifvqgug","pricing_plan_id":"cebpf4jnsgd1na2vs0mg"},{"bike_id":"b96a4e7c-0de7-41da-b086-8b5a8e70a687","system_id":"levelo_inurba_marseille","lat":43.272082,"lon":5.391957,"is_reserved":false,"is_disabled":true,"rental_uris":{"android":"levelo://app?vid=b96a4e7c-0de7-41da-b086-8b5a8e70a687","ios":"levelo://app?vid=b96a4e7c-0de7-41da-b086-8b5a8e70a687"},"vehicle_type_id":"4","last_reported":1747622668,"current_range_meters":11600,"station_id":"ce4bhhp2rcd13ifvqfm0","pricing_plan_id":"cebpf4jnsgd1na2vs0mg"},{"bike_id":"6e1bd625-3ec1-43df-9657-36d71ae09f8d","system_id":"levelo_inurba_marseille","lat":43.337443,"lon":5.374748,"is_reserved":false,"is_disabled":false,"rental_uris":{"android":"levelo://app?vid=6e1bd625-3ec1-43df-9657-36d71ae09f8d","ios":"levelo://app?vid=6e1bd625-3ec1-43df-9657-36d71ae09f8d"},"vehicle_type_id":"4","last_reported":1747622668,"current_range_meters":11600,"station_id":"","pricing_plan_id":"cebpf4jnsgd1na2vs0mg"},{"bike_id":"2d43dba1-6ff7-4289-91c8-c617d5aac932","system_id":"levelo_inurba_marseille","lat":43.295762,"lon":5.375056,"is_reserved":false,"is_disabled":true,"rental_uris":{"android":"levelo://app?vid=2d43dba1-6ff7-4289-91c8-c617d5aac932","ios":"levelo://app?vid=2d43dba1-6ff7-4289-91c8-c617d5aac932"},"vehicle_type_id":"4","last_reported":1747622668,"current_range_meters":12000,"station_id":"ce4bgh92rcd13ifvqb50","pricing_plan_id":"cebpf4jnsgd1na2vs0mg"},{"bike_id":"e47dfc52-b270-4d90-b9f5-8f4bef61d077","system_id":"levelo_inurba_marseille","lat":43.25719,"lon":5.411109,"is_reserved":false,"is_disabled":false,"rental_uris":{"android":"levelo://app?vid=e47dfc52-b270-4d90-b9f5-8f4bef61d077","ios":"levelo://app?vid=e47dfc52-b270-4d90-b9f5-8f4bef61d077"},"vehicle_type_id":"4","last_reported":1747622668,"current_range_meters":12000,"station_id":"ce4bhkp2rcd13ifvqgd0","pricing_plan_id":"cebpf4jnsgd1na2vs0mg"},{"bike_id":"a675f4e5-fc13-43cf-92f6-6acfa57913c0","system_id":"levelo_inurba_marseille","lat":43.290275,"lon":5.381395,"is_reserved":false,"is_disabled":true,"rental_uris":{"android":"levelo://app?vid=a675f4e5-fc13-43cf-92f6-6acfa57913c0","ios":"levelo://app?vid=a675f4e5-fc13-43cf-92f6-6acfa57913c0"},"vehicle_type_id":"4","last_reported":1747622668,"current_range_meters":12000,"station_id":"ce4bh4p2rcd13ifvqe1g","pricing_plan_id":"cebpf4jnsgd1na2vs0mg"},{"bike_id":"7e85683c-0527-4a85-9ab8-35d06ff2f9ad","system_id":"levelo_inurba_marseille","lat":43.294174,"lon":5.386049,"is_reserved":false,"is_disabled":true,"rental_uris":{"android":"levelo://app?vid=7e85683c-0527-4a85-9ab8-35d06ff2f9ad","ios":"levelo://app?vid=7e85683c-0527-4a85-9ab8-35d06ff2f9ad"},"vehicle_type_id":"4","last_reported":1747622668,"current_range_meters":12000,"station_id":"ce4bh2h2rcd13ifvqdh0","pricing_plan_id":"cebpf4jnsgd1na2vs0mg"},{"bike_id":"d60138cc-d1fe-426c-9536-5a41dbfe71a8","system_id":"levelo_inurba_marseille","lat":43.257204,"lon":5.41117,"is_reserved":false,"is_disabled":false,"rental_uris":{"android":"levelo://app?vid=d60138cc-d1fe-426c-9536-5a41dbfe71a8","ios":"levelo://app?vid=d60138cc-d1fe-426c-9536-5a41dbfe71a8"},"vehicle_type_id":"4","last_reported":1747622668,"current_range_meters":12000,"station_id":"ce4bhkp2rcd13ifvqgd0","pricing_plan_id":"cebpf4jnsgd1na2vs0mg"},{"bike_id":"bf2b2bfb-9733-4bda-908d-03391ae976cc","system_id":"levelo_inurba_marseille","lat":43.311935,"lon":5.416096,"is_reserved":false,"is_disabled":false,"rental_uris":{"android":"levelo://app?vid=bf2b2bfb-9733-4bda-908d-03391ae976cc","ios":"levelo://app?vid=bf2b2bfb-9733-4bda-908d-03391ae976cc"},"vehicle_type_id":"4","last_reported":1747622668,"current_range_meters":12000,"station_id":"","pricing_plan_id":"cebpf4jnsgd1na2vs0mg"},{"bike_id":"cf81ba9f-4910-44ec-9b06-44209e8c04de","system_id":"levelo_inurba_marseille","lat":43.236564,"lon":5.36233,"is_reserved":false,"is_disabled":false,"rental_uris":{"android":"levelo://app?vid=cf81ba9f-4910-44ec-9b06-44209e8c04de","ios":"levelo://app?vid=cf81ba9f-4910-44ec-9b06-44209e8c04de"},"vehicle_type_id":"4","last_reported":1747622668,"current_range_meters":12400,"station_id":"","pricing_plan_id":"cebpf4jnsgd1na2vs0mg"},{"bike_id":"3347e92f-19a6-4dc9-bf1f-d804d0835e42","system_id":"levelo_inurba_marseille","lat":43.211924,"lon":5.350774,"is_reserved":false,"is_disabled":false,"rental_uris":{"android":"levelo://app?vid=3347e92f-19a6-4dc9-bf1f-d804d0835e42","ios":"levelo://app?vid=3347e92f-19a6-4dc9-bf1f-d804d0835e42"},"vehicle_type_id":"4","last_reported":1747622668,"current_range_meters":12400,"station_id":"st_cvj6sg6p6f1abm77japg","pricing_plan_id":"cebpf4jnsgd1na2vs0mg"},{"bike_id":"954f9a2f-3d92-4afe-8ccd-55ebda55dfe0","system_id":"levelo_inurba_marseille","lat":43.2707,"lon":5.42279,"is_reserved":false,"is_disabled":false,"rental_uris":{"android":"levelo://app?vid=954f9a2f-3d92-4afe-8ccd-55ebda55dfe0","ios":"levelo://app?vid=954f9a2f-3d92-4afe-8ccd-55ebda55dfe0"},"vehicle_type_id":"4","last_reported":1747622668,"current_range_meters":12400,"station_id":"ce4bhk92rcd13ifvqgb0","pricing_plan_id":"cebpf4jnsgd1na2vs0mg"},{"bike_id":"e8c092b6-ea1e-49b4-86f2-ae6140f06f6f","system_id":"levelo_inurba_marseille","lat":43.289243,"lon":5.383994,"is_reserved":false,"is_disabled":true,"rental_uris":{"android":"levelo://app?vid=e8c092b6-ea1e-49b4-86f2-ae6140f06f6f","ios":"levelo://app?vid=e8c092b6-ea1e-49b4-86f2-ae6140f06f6f"},"vehicle_type_id":"4","last_reported":1747622668,"current_range_meters":12400,"station_id":"ce4bh612rcd13ifvqe6g","pricing_plan_id":"cebpf4jnsgd1na2vs0mg"},{"bike_id":"cd882363-6fba-44e4-8f5c-05592e9ce81a","system_id":"levelo_inurba_marseille","lat":43.26215,"lon":5.404483,"is_reserved":false,"is_disabled":false,"rental_uris":{"android":"levelo://app?vid=cd882363-6fba-44e4-8f5c-05592e9ce81a","ios":"levelo://app?vid=cd882363-6fba-44e4-8f5c-05592e9ce81a"},"vehicle_type_id":"4","last_reported":1747622668,"current_range_meters":12800,"station_id":"ce4bhmh2rcd13ifvqgmg","pricing_plan_id":"cebpf4jnsgd1na2vs0mg"},{"bike_id":"e2483e33-e22f-4969-8812-f7cdcc75c59a","system_id":"levelo_inurba_marseille","lat":43.32351,"lon":5.36741,"is_reserved":false,"is_disabled":false,"rental_uris":{"android":"levelo://app?vid=e2483e33-e22f-4969-8812-f7cdcc75c59a","ios":"levelo://app?vid=e2483e33-e22f-4969-8812-f7cdcc75c59a"},"vehicle_type_id":"4","last_reported":1747622668,"current_range_meters":12800,"station_id":"ce4bhsh2rcd13ifvqi2g","pricing_plan_id":"cebpf4jnsgd1na2vs0mg"},{"bike_id":"98dfbc4f-742d-4de8-a3e7-707ea58489bc","system_id":"levelo_inurba_marseille","lat":43.28354,"lon":5.38125,"is_reserved":false,"is_disabled":false,"rental_uris":{"android":"levelo://app?vid=98dfbc4f-742d-4de8-a3e7-707ea58489bc","ios":"levelo://app?vid=98dfbc4f-742d-4de8-a3e7-707ea58489bc"},"vehicle_type_id":"4","last_reported":1747622668,"current_range_meters":12800,"station_id":"ce4bh412rcd13ifvqdr0","pricing_plan_id":"cebpf4jnsgd1na2vs0mg"},{"bike_id":"bcbdbd69-7be8-42f8-a855-a4358565de8f","system_id":"levelo_inurba_marseille","lat":43.27724,"lon":5.41383,"is_reserved":false,"is_disabled":false,"rental_uris":{"android":"levelo://app?vid=bcbdbd69-7be8-42f8-a855-a4358565de8f","ios":"levelo://app?vid=bcbdbd69-7be8-42f8-a855-a4358565de8f"},"vehicle_type_id":"4","last_reported":1747622668,"current_range_meters":12800,"station_id":"","pricing_plan_id":"cebpf4jnsgd1na2vs0mg"},{"bike_id":"1a8bfaf9-d99b-4840-b157-cbfbec4af027","system_id":"levelo_inurba_marseille","lat":43.28684,"lon":5.37956,"is_reserved":false,"is_disabled":false,"rental_uris":{"android":"levelo://app?vid=1a8bfaf9-d99b-4840-b157-cbfbec4af027","ios":"levelo://app?vid=1a8bfaf9-d99b-4840-b157-cbfbec4af027"},"vehicle_type_id":"4","last_reported":1747622668,"current_range_meters":12800,"station_id":"ce4bh9p2rcd13ifvqec0","pricing_plan_id":"cebpf4jnsgd1na2vs0mg"},{"bike_id":"cbf22af3-6c8f-4023-8971-3961263cafe8","system_id":"levelo_inurba_marseille","lat":43.287083,"lon":5.373902,"is_reserved":false,"is_disabled":true,"rental_uris":{"android":"levelo://app?vid=cbf22af3-6c8f-4023-8971-3961263cafe8","ios":"levelo://app?vid=cbf22af3-6c8f-4023-8971-3961263cafe8"},"vehicle_type_id":"4","last_reported":1747622668,"current_range_meters":12800,"station_id":"ce4bh3p2rcd13ifvqdq0","pricing_plan_id":"cebpf4jnsgd1na2vs0mg"},{"bike_id":"67eb2d48-4a91-47f5-8520-695b8b16224f","system_id":"levelo_inurba_marseille","lat":43.301294,"lon":5.398566,"is_reserved":false,"is_disabled":false,"rental_uris":{"android":"levelo://app?vid=67eb2d48-4a91-47f5-8520-695b8b16224f","ios":"levelo://app?vid=67eb2d48-4a91-47f5-8520-695b8b16224f"},"vehicle_type_id":"4","last_reported":1747622668,"current_range_meters":12800,"station_id":"ce4bh0h2rcd13ifvqd40","pricing_plan_id":"cebpf4jnsgd1na2vs0mg"},{"bike_id":"654c24f4-204c-45b4-a568-300264af6644","system_id":"levelo_inurba_marseille","lat":43.28944,"lon":5.36378,"is_reserved":false,"is_disabled":false,"rental_uris":{"android":"levelo://app?vid=654c24f4-204c-45b4-a568-300264af6644","ios":"levelo://app?vid=654c24f4-204c-45b4-a568-300264af6644"},"vehicle_type_id":"4","last_reported":1747622668,"current_range_meters":12800,"station_id":"ce4bhc92rcd13ifvqetg","pricing_plan_id":"cebpf4jnsgd1na2vs0mg"},{"bike_id":"83716387-b62a-46f5-aaba-b1b2f0e6a3a9","system_id":"levelo_inurba_marseille","lat":43.275609,"lon":5.384239,"is_reserved":false,"is_disabled":false,"rental_uris":{"android":"levelo://app?vid=83716387-b62a-46f5-aaba-b1b2f0e6a3a9","ios":"levelo://app?vid=83716387-b62a-46f5-aaba-b1b2f0e6a3a9"},"vehicle_type_id":"4","last_reported":1747622668,"current_range_meters":12800,"station_id":"ce4bhh92rcd13ifvqfi0","pricing_plan_id":"cebpf4jnsgd1na2vs0mg"},{"bike_id":"f0a690f3-aaef-41ef-91ff-088837a16951","system_id":"levelo_inurba_marseille","lat":43.25766,"lon":5.41021,"is_reserved":false,"is_disabled":false,"rental_uris":{"android":"levelo://app?vid=f0a690f3-aaef-41ef-91ff-088837a16951","ios":"levelo://app?vid=f0a690f3-aaef-41ef-91ff-088837a16951"},"vehicle_type_id":"4","last_reported":1747622668,"current_range_meters":13600,"station_id":"","pricing_plan_id":"cebpf4jnsgd1na2vs0mg"},{"bike_id":"54d2470c-98eb-4d24-a7f6-2fa6dab0e8b6","system_id":"levelo_inurba_marseille","lat":43.292476,"lon":5.409076,"is_reserved":false,"is_disabled":false,"rental_uris":{"android":"levelo://app?vid=54d2470c-98eb-4d24-a7f6-2fa6dab0e8b6","ios":"levelo://app?vid=54d2470c-98eb-4d24-a7f6-2fa6dab0e8b6"},"vehicle_type_id":"4","last_reported":1747622668,"current_range_meters":13600,"station_id":"ce4bh192rcd13ifvqdc0","pricing_plan_id":"cebpf4jnsgd1na2vs0mg"},{"bike_id":"a0ef91e8-eab4-4e92-9764-f8b59bed148c","system_id":"levelo_inurba_marseille","lat":43.313595,"lon":5.38474,"is_reserved":false,"is_disabled":false,"rental_uris":{"android":"levelo://app?vid=a0ef91e8-eab4-4e92-9764-f8b59bed148c","ios":"levelo://app?vid=a0ef91e8-eab4-4e92-9764-f8b59bed148c"},"vehicle_type_id":"4","last_reported":1747622668,"current_range_meters":13600,"station_id":"ce4bgt92rcd13ifvqcf0","pricing_plan_id":"cebpf4jnsgd1na2vs0mg"},{"bike_id":"47277d02-ad0c-4634-afcd-182a72e45154","system_id":"levelo_inurba_marseille","lat":43.34152,"lon":5.40903,"is_reserved":false,"is_disabled":false,"rental_uris":{"android":"levelo://app?vid=47277d02-ad0c-4634-afcd-182a72e45154","ios":"levelo://app?vid=47277d02-ad0c-4634-afcd-182a72e45154"},"vehicle_type_id":"4","last_reported":1747622668,"current_range_meters":13600,"station_id":"ce4bhqh2rcd13ifvqhlg","pricing_plan_id":"cebpf4jnsgd1na2vs0mg"},{"bike_id":"43d95b57-3a1d-4bd4-b0f5-537a29764826","system_id":"levelo_inurba_marseille","lat":43.29234,"lon":5.40924,"is_reserved":false,"is_disabled":false,"rental_uris":{"android":"levelo://app?vid=43d95b57-3a1d-4bd4-b0f5-537a29764826","ios":"levelo://app?vid=43d95b57-3a1d-4bd4-b0f5-537a29764826"},"vehicle_type_id":"4","last_reported":1747622668,"current_range_meters":14000,"station_id":"ce4bh192rcd13ifvqdc0","pricing_plan_id":"cebpf4jnsgd1na2vs0mg"},{"bike_id":"41389e7c-6f3c-410d-88e7-f591b55a002a","system_id":"levelo_inurba_marseille","lat":43.24065,"lon":5.377705,"is_reserved":false,"is_disabled":false,"rental_uris":{"android":"levelo://app?vid=41389e7c-6f3c-410d-88e7-f591b55a002a","ios":"levelo://app?vid=41389e7c-6f3c-410d-88e7-f591b55a002a"},"vehicle_type_id":"4","last_reported":1747622668,"current_range_meters":14400,"station_id":"ce4bhnp2rcd13ifvqgvg","pricing_plan_id":"cebpf4jnsgd1na2vs0mg"},{"bike_id":"2774ce48-67f6-4054-997b-82ef9e8373fc","system_id":"levelo_inurba_marseille","lat":43.290385,"lon":5.399705,"is_reserved":false,"is_disabled":false,"rental_uris":{"android":"levelo://app?vid=2774ce48-67f6-4054-997b-82ef9e8373fc","ios":"levelo://app?vid=2774ce48-67f6-4054-997b-82ef9e8373fc"},"vehicle_type_id":"4","last_reported":1747622668,"current_range_meters":14400,"station_id":"ce4bh392rcd13ifvqdm0","pricing_plan_id":"cebpf4jnsgd1na2vs0mg"},{"bike_id":"03878927-5276-48f3-9931-2223fc78d61e","system_id":"levelo_inurba_marseille","lat":43.313582,"lon":5.384988,"is_reserved":false,"is_disabled":false,"rental_uris":{"android":"levelo://app?vid=03878927-5276-48f3-9931-2223fc78d61e","ios":"levelo://app?vid=03878927-5276-48f3-9931-2223fc78d61e"},"vehicle_type_id":"4","last_reported":1747622668,"current_range_meters":14400,"station_id":"ce4bgt92rcd13ifvqcf0","pricing_plan_id":"cebpf4jnsgd1na2vs0mg"},{"bike_id":"fba103a6-30ce-481c-a05a-9411e513bfcf","system_id":"levelo_inurba_marseille","lat":43.259338,"lon":5.408986,"is_reserved":false,"is_disabled":false,"rental_uris":{"android":"levelo://app?vid=fba103a6-30ce-481c-a05a-9411e513bfcf","ios":"levelo://app?vid=fba103a6-30ce-481c-a05a-9411e513bfcf"},"vehicle_type_id":"4","last_reported":1747622668,"current_range_meters":14400,"station_id":"ce4bhm92rcd13ifvqglg","pricing_plan_id":"cebpf4jnsgd1na2vs0mg"},{"bike_id":"d723f25b-b6b2-41c9-bc2e-ff144e053375","system_id":"levelo_inurba_marseille","lat":43.231478,"lon":5.437207,"is_reserved":false,"is_disabled":false,"rental_uris":{"android":"levelo://app?vid=d723f25b-b6b2-41c9-bc2e-ff144e053375","ios":"levelo://app?vid=d723f25b-b6b2-41c9-bc2e-ff144e053375"},"vehicle_type_id":"4","last_reported":1747622668,"current_range_meters":14800,"station_id":"ce4bhmp2rcd13ifvqgog","pricing_plan_id":"cebpf4jnsgd1na2vs0mg"},{"bike_id":"7c288e5f-bf2e-426c-9424-762c5f2a6c72","system_id":"levelo_inurba_marseille","lat":43.29281,"lon":5.4011,"is_reserved":false,"is_disabled":false,"rental_uris":{"android":"levelo://app?vid=7c288e5f-bf2e-426c-9424-762c5f2a6c72","ios":"levelo://app?vid=7c288e5f-bf2e-426c-9424-762c5f2a6c72"},"vehicle_type_id":"4","last_reported":1747622668,"current_range_meters":14800,"station_id":"ce4bh312rcd13ifvqdk0","pricing_plan_id":"cebpf4jnsgd1na2vs0mg"},{"bike_id":"90bb7a19-74dd-4320-94b3-1629a4028834","system_id":"levelo_inurba_marseille","lat":43.217463,"lon":5.346087,"is_reserved":false,"is_disabled":true,"rental_uris":{"android":"levelo://app?vid=90bb7a19-74dd-4320-94b3-1629a4028834","ios":"levelo://app?vid=90bb7a19-74dd-4320-94b3-1629a4028834"},"vehicle_type_id":"4","last_reported":1747622668,"current_range_meters":14800,"station_id":"st_cvj6r9ubvosntc0bgbag","pricing_plan_id":"cebpf4jnsgd1na2vs0mg"},{"bike_id":"0c698211-1f48-4c58-8241-20d705a14a6f","system_id":"levelo_inurba_marseille","lat":43.309333,"lon":5.401444,"is_reserved":false,"is_disabled":false,"rental_uris":{"android":"levelo://app?vid=0c698211-1f48-4c58-8241-20d705a14a6f","ios":"levelo://app?vid=0c698211-1f48-4c58-8241-20d705a14a6f"},"vehicle_type_id":"4","last_reported":1747622668,"current_range_meters":14800,"station_id":"ce4bgvp2rcd13ifvqct0","pricing_plan_id":"cebpf4jnsgd1na2vs0mg"},{"bike_id":"06c5d935-141e-4a2a-8a1c-99c6c936abb9","system_id":"levelo_inurba_marseille","lat":43.307292,"lon":5.424506,"is_reserved":false,"is_disabled":false,"rental_uris":{"android":"levelo://app?vid=06c5d935-141e-4a2a-8a1c-99c6c936abb9","ios":"levelo://app?vid=06c5d935-141e-4a2a-8a1c-99c6c936abb9"},"vehicle_type_id":"4","last_reported":1747622668,"current_range_meters":14800,"station_id":"st_cvj6ca6bvosntc0bfgr0","pricing_plan_id":"cebpf4jnsgd1na2vs0mg"},{"bike_id":"e6012b0d-8438-48de-956b-1ee234dacdd6","system_id":"levelo_inurba_marseille","lat":43.309241,"lon":5.401404,"is_reserved":false,"is_disabled":false,"rental_uris":{"android":"levelo://app?vid=e6012b0d-8438-48de-956b-1ee234dacdd6","ios":"levelo://app?vid=e6012b0d-8438-48de-956b-1ee234dacdd6"},"vehicle_type_id":"4","last_reported":1747622668,"current_range_meters":15200,"station_id":"ce4bgvp2rcd13ifvqct0","pricing_plan_id":"cebpf4jnsgd1na2vs0mg"},{"bike_id":"5c1cfafc-efda-4c44-a512-0b0d7a09f432","system_id":"levelo_inurba_marseille","lat":43.27313,"lon":5.39093,"is_reserved":false,"is_disabled":true,"rental_uris":{"android":"levelo://app?vid=5c1cfafc-efda-4c44-a512-0b0d7a09f432","ios":"levelo://app?vid=5c1cfafc-efda-4c44-a512-0b0d7a09f432"},"vehicle_type_id":"4","last_reported":1747622668,"current_range_meters":16000,"station_id":"ce4bhgp2rcd13ifvqfe0","pricing_plan_id":"cebpf4jnsgd1na2vs0mg"},{"bike_id":"cee9f3b2-6646-46d3-b3c5-c5c5d44e6a13","system_id":"levelo_inurba_marseille","lat":43.279155,"lon":5.395771,"is_reserved":false,"is_disabled":false,"rental_uris":{"android":"levelo://app?vid=cee9f3b2-6646-46d3-b3c5-c5c5d44e6a13","ios":"levelo://app?vid=cee9f3b2-6646-46d3-b3c5-c5c5d44e6a13"},"vehicle_type_id":"4","last_reported":1747622668,"current_range_meters":16000,"station_id":"ce4bhf92rcd13ifvqf40","pricing_plan_id":"cebpf4jnsgd1na2vs0mg"},{"bike_id":"4d84e95c-d2af-4324-b46f-888d9bc5478f","system_id":"levelo_inurba_marseille","lat":43.312211,"lon":5.368668,"is_reserved":false,"is_disabled":false,"rental_uris":{"android":"levelo://app?vid=4d84e95c-d2af-4324-b46f-888d9bc5478f","ios":"levelo://app?vid=4d84e95c-d2af-4324-b46f-888d9bc5478f"},"vehicle_type_id":"4","last_reported":1747622668,"current_range_meters":16000,"station_id":"ce4bgl92rcd13ifvqbq0","pricing_plan_id":"cebpf4jnsgd1na2vs0mg"},{"bike_id":"bffbaf88-357a-4e87-a68c-a9a27a6e01e6","system_id":"levelo_inurba_marseille","lat":43.26211,"lon":5.4214,"is_reserved":false,"is_disabled":false,"rental_uris":{"android":"levelo://app?vid=bffbaf88-357a-4e87-a68c-a9a27a6e01e6","ios":"levelo://app?vid=bffbaf88-357a-4e87-a68c-a9a27a6e01e6"},"vehicle_type_id":"4","last_reported":1747622668,"current_range_meters":16000,"station_id":"","pricing_plan_id":"cebpf4jnsgd1na2vs0mg"},{"bike_id":"fca86a55-22f2-4b7a-b972-9f8946fa6983","system_id":"levelo_inurba_marseille","lat":43.303113,"lon":5.392048,"is_reserved":false,"is_disabled":true,"rental_uris":{"android":"levelo://app?vid=fca86a55-22f2-4b7a-b972-9f8946fa6983","ios":"levelo://app?vid=fca86a55-22f2-4b7a-b972-9f8946fa6983"},"vehicle_type_id":"4","last_reported":1747622668,"current_range_meters":16000,"station_id":"ce4bgkh2rcd13ifvqbk0","pricing_plan_id":"cebpf4jnsgd1na2vs0mg"},{"bike_id":"d39cae16-34b5-4b82-8fc6-cac28c889070","system_id":"levelo_inurba_marseille","lat":43.29452,"lon":5.38666,"is_reserved":false,"is_disabled":true,"rental_uris":{"android":"levelo://app?vid=d39cae16-34b5-4b82-8fc6-cac28c889070","ios":"levelo://app?vid=d39cae16-34b5-4b82-8fc6-cac28c889070"},"vehicle_type_id":"4","last_reported":1747622668,"current_range_meters":16000,"station_id":"ce4bh2h2rcd13ifvqdh0","pricing_plan_id":"cebpf4jnsgd1na2vs0mg"},{"bike_id":"a40c0dd9-3c1d-4ef8-bf5e-5a9bd92f17be","system_id":"levelo_inurba_marseille","lat":43.290328,"lon":5.399555,"is_reserved":false,"is_disabled":false,"rental_uris":{"android":"levelo://app?vid=a40c0dd9-3c1d-4ef8-bf5e-5a9bd92f17be","ios":"levelo://app?vid=a40c0dd9-3c1d-4ef8-bf5e-5a9bd92f17be"},"vehicle_type_id":"4","last_reported":1747622668,"current_range_meters":16000,"station_id":"ce4bh392rcd13ifvqdm0","pricing_plan_id":"cebpf4jnsgd1na2vs0mg"},{"bike_id":"477bf49d-04fb-48c6-9dfe-f96deb783f31","system_id":"levelo_inurba_marseille","lat":43.284814,"lon":5.385354,"is_reserved":false,"is_disabled":true,"rental_uris":{"android":"levelo://app?vid=477bf49d-04fb-48c6-9dfe-f96deb783f31","ios":"levelo://app?vid=477bf49d-04fb-48c6-9dfe-f96deb783f31"},"vehicle_type_id":"4","last_reported":1747622668,"current_range_meters":16000,"station_id":"ce4bh8p2rcd13ifvqeb0","pricing_plan_id":"cebpf4jnsgd1na2vs0mg"},{"bike_id":"83892c75-7a4d-4fc9-bc5f-bdd5906f8c37","system_id":"levelo_inurba_marseille","lat":43.27812,"lon":5.39213,"is_reserved":false,"is_disabled":false,"rental_uris":{"android":"levelo://app?vid=83892c75-7a4d-4fc9-bc5f-bdd5906f8c37","ios":"levelo://app?vid=83892c75-7a4d-4fc9-bc5f-bdd5906f8c37"},"vehicle_type_id":"4","last_reported":1747622668,"current_range_meters":16000,"station_id":"ce4bhjp2rcd13ifvqga0","pricing_plan_id":"cebpf4jnsgd1na2vs0mg"},{"bike_id":"f441b4d6-d50a-454a-9ff3-28bb0eb62a62","system_id":"levelo_inurba_marseille","lat":43.27067,"lon":5.42281,"is_reserved":false,"is_disabled":false,"rental_uris":{"android":"levelo://app?vid=f441b4d6-d50a-454a-9ff3-28bb0eb62a62","ios":"levelo://app?vid=f441b4d6-d50a-454a-9ff3-28bb0eb62a62"},"vehicle_type_id":"4","last_reported":1747622668,"current_range_meters":16000,"station_id":"ce4bhk92rcd13ifvqgb0","pricing_plan_id":"cebpf4jnsgd1na2vs0mg"},{"bike_id":"bf1ed0ad-1230-451a-a59f-4a2ad4fd9f24","system_id":"levelo_inurba_marseille","lat":43.251053,"lon":5.40336,"is_reserved":false,"is_disabled":false,"rental_uris":{"android":"levelo://app?vid=bf1ed0ad-1230-451a-a59f-4a2ad4fd9f24","ios":"levelo://app?vid=bf1ed0ad-1230-451a-a59f-4a2ad4fd9f24"},"vehicle_type_id":"4","last_reported":1747622668,"current_range_meters":16000,"station_id":"ce4bhlh2rcd13ifvqgig","pricing_plan_id":"cebpf4jnsgd1na2vs0mg"},{"bike_id":"bba77845-8b15-498e-8349-e0733711e31d","system_id":"levelo_inurba_marseille","lat":43.28072,"lon":5.396509,"is_reserved":false,"is_disabled":false,"rental_uris":{"android":"levelo://app?vid=bba77845-8b15-498e-8349-e0733711e31d","ios":"levelo://app?vid=bba77845-8b15-498e-8349-e0733711e31d"},"vehicle_type_id":"4","last_reported":1747622668,"current_range_meters":16000,"station_id":"ce4bho12rcd13ifvqh2g","pricing_plan_id":"cebpf4jnsgd1na2vs0mg"},{"bike_id":"954f032a-6943-40ba-b9cb-00d6dc3124a5","system_id":"levelo_inurba_marseille","lat":43.309513,"lon":5.390368,"is_reserved":false,"is_disabled":false,"rental_uris":{"android":"levelo://app?vid=954f032a-6943-40ba-b9cb-00d6dc3124a5","ios":"levelo://app?vid=954f032a-6943-40ba-b9cb-00d6dc3124a5"},"vehicle_type_id":"4","last_reported":1747622668,"current_range_meters":16400,"station_id":"ce4bgup2rcd13ifvqco0","pricing_plan_id":"cebpf4jnsgd1na2vs0mg"},{"bike_id":"710241c1-46a3-4954-9e50-bd4b0b3c4335","system_id":"levelo_inurba_marseille","lat":43.313568,"lon":5.384993,"is_reserved":false,"is_disabled":true,"rental_uris":{"android":"levelo://app?vid=710241c1-46a3-4954-9e50-bd4b0b3c4335","ios":"levelo://app?vid=710241c1-46a3-4954-9e50-bd4b0b3c4335"},"vehicle_type_id":"4","last_reported":1747622668,"current_range_meters":16400,"station_id":"ce4bgt92rcd13ifvqcf0","pricing_plan_id":"cebpf4jnsgd1na2vs0mg"},{"bike_id":"93bb0e99-2bb8-4c61-90e7-ea7c7adfa993","system_id":"levelo_inurba_marseille","lat":43.29939,"lon":5.36553,"is_reserved":false,"is_disabled":true,"rental_uris":{"android":"levelo://app?vid=93bb0e99-2bb8-4c61-90e7-ea7c7adfa993","ios":"levelo://app?vid=93bb0e99-2bb8-4c61-90e7-ea7c7adfa993"},"vehicle_type_id":"4","last_reported":1747622668,"current_range_meters":16400,"station_id":"ce4bgm92rcd13ifvqbr0","pricing_plan_id":"cebpf4jnsgd1na2vs0mg"},{"bike_id":"87e2ffe7-e2ac-484b-b2b1-fc1a1439801c","system_id":"levelo_inurba_marseille","lat":43.29256,"lon":5.38435,"is_reserved":false,"is_disabled":true,"rental_uris":{"android":"levelo://app?vid=87e2ffe7-e2ac-484b-b2b1-fc1a1439801c","ios":"levelo://app?vid=87e2ffe7-e2ac-484b-b2b1-fc1a1439801c"},"vehicle_type_id":"4","last_reported":1747622668,"current_range_meters":16400,"station_id":"ce4bh692rcd13ifvqea0","pricing_plan_id":"cebpf4jnsgd1na2vs0mg"},{"bike_id":"76ee76b0-73b2-42fe-9bbc-bc09871affe4","system_id":"levelo_inurba_marseille","lat":43.284766,"lon":5.384453,"is_reserved":false,"is_disabled":true,"rental_uris":{"android":"levelo://app?vid=76ee76b0-73b2-42fe-9bbc-bc09871affe4","ios":"levelo://app?vid=76ee76b0-73b2-42fe-9bbc-bc09871affe4"},"vehicle_type_id":"4","last_reported":1747622668,"current_range_meters":16400,"station_id":"ce4bh512rcd13ifvqe3g","pricing_plan_id":"cebpf4jnsgd1na2vs0mg"},{"bike_id":"bf96caf2-259d-4544-ba8b-a805d582ae5a","system_id":"levelo_inurba_marseille","lat":43.28544,"lon":5.39515,"is_reserved":false,"is_disabled":false,"rental_uris":{"android":"levelo://app?vid=bf96caf2-259d-4544-ba8b-a805d582ae5a","ios":"levelo://app?vid=bf96caf2-259d-4544-ba8b-a805d582ae5a"},"vehicle_type_id":"4","last_reported":1747622668,"current_range_meters":16400,"station_id":"ce4bh292rcd13ifvqdg0","pricing_plan_id":"cebpf4jnsgd1na2vs0mg"},{"bike_id":"eddc3e2f-204e-47a6-9d8f-809f554335b4","system_id":"levelo_inurba_marseille","lat":43.240623,"lon":5.37782,"is_reserved":false,"is_disabled":false,"rental_uris":{"android":"levelo://app?vid=eddc3e2f-204e-47a6-9d8f-809f554335b4","ios":"levelo://app?vid=eddc3e2f-204e-47a6-9d8f-809f554335b4"},"vehicle_type_id":"4","last_reported":1747622668,"current_range_meters":16400,"station_id":"ce4bhnp2rcd13ifvqgvg","pricing_plan_id":"cebpf4jnsgd1na2vs0mg"},{"bike_id":"259e05f1-5815-4eaa-8326-1c0ec3259270","system_id":"levelo_inurba_marseille","lat":43.310705,"lon":5.383524,"is_reserved":false,"is_disabled":false,"rental_uris":{"android":"levelo://app?vid=259e05f1-5815-4eaa-8326-1c0ec3259270","ios":"levelo://app?vid=259e05f1-5815-4eaa-8326-1c0ec3259270"},"vehicle_type_id":"4","last_reported":1747622668,"current_range_meters":16400,"station_id":"ce4bgv92rcd13ifvqcr0","pricing_plan_id":"cebpf4jnsgd1na2vs0mg"},{"bike_id":"b0fdac88-a118-470b-9e6b-385ec3c37039","system_id":"levelo_inurba_marseille","lat":43.27483,"lon":5.42489,"is_reserved":false,"is_disabled":false,"rental_uris":{"android":"levelo://app?vid=b0fdac88-a118-470b-9e6b-385ec3c37039","ios":"levelo://app?vid=b0fdac88-a118-470b-9e6b-385ec3c37039"},"vehicle_type_id":"4","last_reported":1747622668,"current_range_meters":16400,"station_id":"ce4bhn92rcd13ifvqgrg","pricing_plan_id":"cebpf4jnsgd1na2vs0mg"},{"bike_id":"74779d32-87cf-4f23-b047-7955c944ddd2","system_id":"levelo_inurba_marseille","lat":43.297868,"lon":5.381082,"is_reserved":false,"is_disabled":true,"rental_uris":{"android":"levelo://app?vid=74779d32-87cf-4f23-b047-7955c944ddd2","ios":"levelo://app?vid=74779d32-87cf-4f23-b047-7955c944ddd2"},"vehicle_type_id":"4","last_reported":1747622668,"current_range_meters":16400,"station_id":"ce4bgip2rcd13ifvqbb0","pricing_plan_id":"cebpf4jnsgd1na2vs0mg"},{"bike_id":"ab40d454-2496-4967-a2a5-fd9afd944516","system_id":"levelo_inurba_marseille","lat":43.286967,"lon":5.373975,"is_reserved":false,"is_disabled":false,"rental_uris":{"android":"levelo://app?vid=ab40d454-2496-4967-a2a5-fd9afd944516","ios":"levelo://app?vid=ab40d454-2496-4967-a2a5-fd9afd944516"},"vehicle_type_id":"4","last_reported":1747622668,"current_range_meters":16400,"station_id":"ce4bh3p2rcd13ifvqdq0","pricing_plan_id":"cebpf4jnsgd1na2vs0mg"},{"bike_id":"f63c9346-f5de-4472-920c-b0cafb41a135","system_id":"levelo_inurba_marseille","lat":43.27054,"lon":5.402752,"is_reserved":false,"is_disabled":true,"rental_uris":{"android":"levelo://app?vid=f63c9346-f5de-4472-920c-b0cafb41a135","ios":"levelo://app?vid=f63c9346-f5de-4472-920c-b0cafb41a135"},"vehicle_type_id":"4","last_reported":1747622668,"current_range_meters":16400,"station_id":"ce4bhk92rcd13ifvqgc0","pricing_plan_id":"cebpf4jnsgd1na2vs0mg"},{"bike_id":"500fd7d1-4618-405d-9fe8-952d75dae93c","system_id":"levelo_inurba_marseille","lat":43.312303,"lon":5.368672,"is_reserved":false,"is_disabled":false,"rental_uris":{"android":"levelo://app?vid=500fd7d1-4618-405d-9fe8-952d75dae93c","ios":"levelo://app?vid=500fd7d1-4618-405d-9fe8-952d75dae93c"},"vehicle_type_id":"4","last_reported":1747622668,"current_range_meters":16800,"station_id":"ce4bgl92rcd13ifvqbq0","pricing_plan_id":"cebpf4jnsgd1na2vs0mg"},{"bike_id":"0d6348bd-1c30-42b7-9134-17808e4e7e34","system_id":"levelo_inurba_marseille","lat":43.31009,"lon":5.39071,"is_reserved":false,"is_disabled":false,"rental_uris":{"android":"levelo://app?vid=0d6348bd-1c30-42b7-9134-17808e4e7e34","ios":"levelo://app?vid=0d6348bd-1c30-42b7-9134-17808e4e7e34"},"vehicle_type_id":"4","last_reported":1747622668,"current_range_meters":17200,"station_id":"","pricing_plan_id":"cebpf4jnsgd1na2vs0mg"},{"bike_id":"2b8eaed0-7195-4117-9102-0192d6a0abef","system_id":"levelo_inurba_marseille","lat":43.307919,"lon":5.376463,"is_reserved":false,"is_disabled":false,"rental_uris":{"android":"levelo://app?vid=2b8eaed0-7195-4117-9102-0192d6a0abef","ios":"levelo://app?vid=2b8eaed0-7195-4117-9102-0192d6a0abef"},"vehicle_type_id":"4","last_reported":1747622668,"current_range_meters":17200,"station_id":"ce4bgv92rcd13ifvqcq0","pricing_plan_id":"cebpf4jnsgd1na2vs0mg"},{"bike_id":"e8162579-a5ad-485f-ad83-fec8a2ebe7e1","system_id":"levelo_inurba_marseille","lat":43.26826,"lon":5.39099,"is_reserved":false,"is_disabled":false,"rental_uris":{"android":"levelo://app?vid=e8162579-a5ad-485f-ad83-fec8a2ebe7e1","ios":"levelo://app?vid=e8162579-a5ad-485f-ad83-fec8a2ebe7e1"},"vehicle_type_id":"4","last_reported":1747622668,"current_range_meters":17600,"station_id":"","pricing_plan_id":"cebpf4jnsgd1na2vs0mg"},{"bike_id":"2fe6b9aa-a732-45e1-9c28-3d8ddc9721a8","system_id":"levelo_inurba_marseille","lat":43.27374,"lon":5.36259,"is_reserved":false,"is_disabled":false,"rental_uris":{"android":"levelo://app?vid=2fe6b9aa-a732-45e1-9c28-3d8ddc9721a8","ios":"levelo://app?vid=2fe6b9aa-a732-45e1-9c28-3d8ddc9721a8"},"vehicle_type_id":"4","last_reported":1747622668,"current_range_meters":17200,"station_id":"ce4bhbh2rcd13ifvqeo0","pricing_plan_id":"cebpf4jnsgd1na2vs0mg"},{"bike_id":"a7f7c69f-8e30-4ab1-b0ad-53d7a45c0a15","system_id":"levelo_inurba_marseille","lat":43.24388,"lon":5.37081,"is_reserved":false,"is_disabled":true,"rental_uris":{"android":"levelo://app?vid=a7f7c69f-8e30-4ab1-b0ad-53d7a45c0a15","ios":"levelo://app?vid=a7f7c69f-8e30-4ab1-b0ad-53d7a45c0a15"},"vehicle_type_id":"4","last_reported":1747622668,"current_range_meters":17600,"station_id":"ce4bhhh2rcd13ifvqfk0","pricing_plan_id":"cebpf4jnsgd1na2vs0mg"},{"bike_id":"ea91362a-00d2-44b2-8245-e7abd185b362","system_id":"levelo_inurba_marseille","lat":43.27069,"lon":5.422776,"is_reserved":false,"is_disabled":false,"rental_uris":{"android":"levelo://app?vid=ea91362a-00d2-44b2-8245-e7abd185b362","ios":"levelo://app?vid=ea91362a-00d2-44b2-8245-e7abd185b362"},"vehicle_type_id":"4","last_reported":1747622668,"current_range_meters":17600,"station_id":"ce4bhk92rcd13ifvqgb0","pricing_plan_id":"cebpf4jnsgd1na2vs0mg"},{"bike_id":"090eff22-c1fd-4bcd-abb2-7f77530711d5","system_id":"levelo_inurba_marseille","lat":43.28565,"lon":5.394965,"is_reserved":false,"is_disabled":false,"rental_uris":{"android":"levelo://app?vid=090eff22-c1fd-4bcd-abb2-7f77530711d5","ios":"levelo://app?vid=090eff22-c1fd-4bcd-abb2-7f77530711d5"},"vehicle_type_id":"4","last_reported":1747622668,"current_range_meters":17600,"station_id":"ce4bh292rcd13ifvqdg0","pricing_plan_id":"cebpf4jnsgd1na2vs0mg"},{"bike_id":"10079349-e9e5-403f-a822-e397aa6d3540","system_id":"levelo_inurba_marseille","lat":43.315306,"lon":5.380256,"is_reserved":false,"is_disabled":false,"rental_uris":{"android":"levelo://app?vid=10079349-e9e5-403f-a822-e397aa6d3540","ios":"levelo://app?vid=10079349-e9e5-403f-a822-e397aa6d3540"},"vehicle_type_id":"4","last_reported":1747622668,"current_range_meters":17600,"station_id":"ce4bhsp2rcd13ifvqi50","pricing_plan_id":"cebpf4jnsgd1na2vs0mg"},{"bike_id":"4582e055-67fa-41ba-a2c6-1d89aedd7e83","system_id":"levelo_inurba_marseille","lat":43.28934,"lon":5.38374,"is_reserved":false,"is_disabled":false,"rental_uris":{"android":"levelo://app?vid=4582e055-67fa-41ba-a2c6-1d89aedd7e83","ios":"levelo://app?vid=4582e055-67fa-41ba-a2c6-1d89aedd7e83"},"vehicle_type_id":"4","last_reported":1747622668,"current_range_meters":17600,"station_id":"","pricing_plan_id":"cebpf4jnsgd1na2vs0mg"},{"bike_id":"9035525d-8db2-478d-8eca-49e4b86cd727","system_id":"levelo_inurba_marseille","lat":43.298906,"lon":5.436617,"is_reserved":false,"is_disabled":false,"rental_uris":{"android":"levelo://app?vid=9035525d-8db2-478d-8eca-49e4b86cd727","ios":"levelo://app?vid=9035525d-8db2-478d-8eca-49e4b86cd727"},"vehicle_type_id":"4","last_reported":1747622668,"current_range_meters":18000,"station_id":"ce4bhpp2rcd13ifvqhfg","pricing_plan_id":"cebpf4jnsgd1na2vs0mg"},{"bike_id":"2b1a9abb-b4fe-48ac-a33c-e26414700371","system_id":"levelo_inurba_marseille","lat":43.251091,"lon":5.403247,"is_reserved":false,"is_disabled":false,"rental_uris":{"android":"levelo://app?vid=2b1a9abb-b4fe-48ac-a33c-e26414700371","ios":"levelo://app?vid=2b1a9abb-b4fe-48ac-a33c-e26414700371"},"vehicle_type_id":"4","last_reported":1747622668,"current_range_meters":18000,"station_id":"ce4bhlh2rcd13ifvqgig","pricing_plan_id":"cebpf4jnsgd1na2vs0mg"},{"bike_id":"4ddcf91b-c9ac-4a68-ad74-075eb8c0c356","system_id":"levelo_inurba_marseille","lat":43.31362,"lon":5.384975,"is_reserved":false,"is_disabled":false,"rental_uris":{"android":"levelo://app?vid=4ddcf91b-c9ac-4a68-ad74-075eb8c0c356","ios":"levelo://app?vid=4ddcf91b-c9ac-4a68-ad74-075eb8c0c356"},"vehicle_type_id":"4","last_reported":1747622668,"current_range_meters":18000,"station_id":"ce4bgt92rcd13ifvqcf0","pricing_plan_id":"cebpf4jnsgd1na2vs0mg"},{"bike_id":"0162ee7e-52a7-479d-91fd-dd08a70dfd39","system_id":"levelo_inurba_marseille","lat":43.29198,"lon":5.39311,"is_reserved":false,"is_disabled":false,"rental_uris":{"android":"levelo://app?vid=0162ee7e-52a7-479d-91fd-dd08a70dfd39","ios":"levelo://app?vid=0162ee7e-52a7-479d-91fd-dd08a70dfd39"},"vehicle_type_id":"4","last_reported":1747622668,"current_range_meters":18000,"station_id":"ce4bh192rcd13ifvqdd0","pricing_plan_id":"cebpf4jnsgd1na2vs0mg"},{"bike_id":"35b70ee9-924f-470d-9ca4-cc1970066104","system_id":"levelo_inurba_marseille","lat":43.25753,"lon":5.41038,"is_reserved":false,"is_disabled":false,"rental_uris":{"android":"levelo://app?vid=35b70ee9-924f-470d-9ca4-cc1970066104","ios":"levelo://app?vid=35b70ee9-924f-470d-9ca4-cc1970066104"},"vehicle_type_id":"4","last_reported":1747622668,"current_range_meters":18000,"station_id":"","pricing_plan_id":"cebpf4jnsgd1na2vs0mg"},{"bike_id":"af1bb4f9-1339-4852-aa0c-c9bdb2fa0aea","system_id":"levelo_inurba_marseille","lat":43.281047,"lon":5.378315,"is_reserved":false,"is_disabled":false,"rental_uris":{"android":"levelo://app?vid=af1bb4f9-1339-4852-aa0c-c9bdb2fa0aea","ios":"levelo://app?vid=af1bb4f9-1339-4852-aa0c-c9bdb2fa0aea"},"vehicle_type_id":"4","last_reported":1747622668,"current_range_meters":18000,"station_id":"ce4bha12rcd13ifvqee0","pricing_plan_id":"cebpf4jnsgd1na2vs0mg"},{"bike_id":"e047b05a-36e0-4e37-b294-3b5ddd602af4","system_id":"levelo_inurba_marseille","lat":43.285812,"lon":5.394946,"is_reserved":false,"is_disabled":false,"rental_uris":{"android":"levelo://app?vid=e047b05a-36e0-4e37-b294-3b5ddd602af4","ios":"levelo://app?vid=e047b05a-36e0-4e37-b294-3b5ddd602af4"},"vehicle_type_id":"4","last_reported":1747622668,"current_range_meters":18000,"station_id":"","pricing_plan_id":"cebpf4jnsgd1na2vs0mg"},{"bike_id":"ec5696db-b3a4-4ace-9494-c5ae12f4361d","system_id":"levelo_inurba_marseille","lat":43.27459,"lon":5.360774,"is_reserved":false,"is_disabled":true,"rental_uris":{"android":"levelo://app?vid=ec5696db-b3a4-4ace-9494-c5ae12f4361d","ios":"levelo://app?vid=ec5696db-b3a4-4ace-9494-c5ae12f4361d"},"vehicle_type_id":"4","last_reported":1747622668,"current_range_meters":18000,"station_id":"","pricing_plan_id":"cebpf4jnsgd1na2vs0mg"},{"bike_id":"bd35714c-43bc-4b8b-9cb8-ae32362adf0b","system_id":"levelo_inurba_marseille","lat":43.25027,"lon":5.40533,"is_reserved":false,"is_disabled":false,"rental_uris":{"android":"levelo://app?vid=bd35714c-43bc-4b8b-9cb8-ae32362adf0b","ios":"levelo://app?vid=bd35714c-43bc-4b8b-9cb8-ae32362adf0b"},"vehicle_type_id":"4","last_reported":1747622668,"current_range_meters":18000,"station_id":"","pricing_plan_id":"cebpf4jnsgd1na2vs0mg"},{"bike_id":"3437553b-0dd9-4fce-9d01-6c57f61e7a30","system_id":"levelo_inurba_marseille","lat":43.289341,"lon":5.363994,"is_reserved":false,"is_disabled":false,"rental_uris":{"android":"levelo://app?vid=3437553b-0dd9-4fce-9d01-6c57f61e7a30","ios":"levelo://app?vid=3437553b-0dd9-4fce-9d01-6c57f61e7a30"},"vehicle_type_id":"4","last_reported":1747622668,"current_range_meters":18000,"station_id":"ce4bhc92rcd13ifvqetg","pricing_plan_id":"cebpf4jnsgd1na2vs0mg"},{"bike_id":"ab7d1ddb-c6ab-4c47-831b-69e06fb8bb1b","system_id":"levelo_inurba_marseille","lat":43.217471,"lon":5.346044,"is_reserved":false,"is_disabled":false,"rental_uris":{"android":"levelo://app?vid=ab7d1ddb-c6ab-4c47-831b-69e06fb8bb1b","ios":"levelo://app?vid=ab7d1ddb-c6ab-4c47-831b-69e06fb8bb1b"},"vehicle_type_id":"4","last_reported":1747622668,"current_range_meters":18800,"station_id":"st_cvj6r9ubvosntc0bgbag","pricing_plan_id":"cebpf4jnsgd1na2vs0mg"},{"bike_id":"782456fb-5a1f-4410-ae1f-c74293353dd5","system_id":"levelo_inurba_marseille","lat":43.313666,"lon":5.384971,"is_reserved":false,"is_disabled":false,"rental_uris":{"android":"levelo://app?vid=782456fb-5a1f-4410-ae1f-c74293353dd5","ios":"levelo://app?vid=782456fb-5a1f-4410-ae1f-c74293353dd5"},"vehicle_type_id":"4","last_reported":1747622668,"current_range_meters":18800,"station_id":"ce4bgt92rcd13ifvqcf0","pricing_plan_id":"cebpf4jnsgd1na2vs0mg"},{"bike_id":"3552fbf2-b43a-446f-93f5-d695fc251b73","system_id":"levelo_inurba_marseille","lat":43.251711,"lon":5.375214,"is_reserved":false,"is_disabled":false,"rental_uris":{"android":"levelo://app?vid=3552fbf2-b43a-446f-93f5-d695fc251b73","ios":"levelo://app?vid=3552fbf2-b43a-446f-93f5-d695fc251b73"},"vehicle_type_id":"4","last_reported":1747622668,"current_range_meters":18800,"station_id":"","pricing_plan_id":"cebpf4jnsgd1na2vs0mg"},{"bike_id":"431750b8-e0a2-4e9f-9b2b-7d4fb8bb5c04","system_id":"levelo_inurba_marseille","lat":43.232024,"lon":5.355572,"is_reserved":false,"is_disabled":false,"rental_uris":{"android":"levelo://app?vid=431750b8-e0a2-4e9f-9b2b-7d4fb8bb5c04","ios":"levelo://app?vid=431750b8-e0a2-4e9f-9b2b-7d4fb8bb5c04"},"vehicle_type_id":"4","last_reported":1747622668,"current_range_meters":18800,"station_id":"ce4bhu92rcd13ifvqi70","pricing_plan_id":"cebpf4jnsgd1na2vs0mg"},{"bike_id":"f198f61c-140a-45ab-9df5-fbdfbf1e2560","system_id":"levelo_inurba_marseille","lat":43.319949,"lon":5.381489,"is_reserved":false,"is_disabled":true,"rental_uris":{"android":"levelo://app?vid=f198f61c-140a-45ab-9df5-fbdfbf1e2560","ios":"levelo://app?vid=f198f61c-140a-45ab-9df5-fbdfbf1e2560"},"vehicle_type_id":"4","last_reported":1747622668,"current_range_meters":18800,"station_id":"ce4bhr12rcd13ifvqhpg","pricing_plan_id":"cebpf4jnsgd1na2vs0mg"},{"bike_id":"d0283942-91f4-4a79-a23c-24ce22d10510","system_id":"levelo_inurba_marseille","lat":43.307842,"lon":5.376506,"is_reserved":false,"is_disabled":false,"rental_uris":{"android":"levelo://app?vid=d0283942-91f4-4a79-a23c-24ce22d10510","ios":"levelo://app?vid=d0283942-91f4-4a79-a23c-24ce22d10510"},"vehicle_type_id":"4","last_reported":1747622668,"current_range_meters":19200,"station_id":"ce4bgv92rcd13ifvqcq0","pricing_plan_id":"cebpf4jnsgd1na2vs0mg"},{"bike_id":"c0813091-f64e-451b-abd1-bd1751cc3d62","system_id":"levelo_inurba_marseille","lat":43.308857,"lon":5.371943,"is_reserved":false,"is_disabled":false,"rental_uris":{"android":"levelo://app?vid=c0813091-f64e-451b-abd1-bd1751cc3d62","ios":"levelo://app?vid=c0813091-f64e-451b-abd1-bd1751cc3d62"},"vehicle_type_id":"4","last_reported":1747622668,"current_range_meters":19200,"station_id":"ce4bguh2rcd13ifvqckg","pricing_plan_id":"cebpf4jnsgd1na2vs0mg"},{"bike_id":"192ae61e-5e2e-43d5-a32e-88cc0487ea7c","system_id":"levelo_inurba_marseille","lat":43.2465,"lon":5.38905,"is_reserved":false,"is_disabled":false,"rental_uris":{"android":"levelo://app?vid=192ae61e-5e2e-43d5-a32e-88cc0487ea7c","ios":"levelo://app?vid=192ae61e-5e2e-43d5-a32e-88cc0487ea7c"},"vehicle_type_id":"4","last_reported":1747622668,"current_range_meters":19200,"station_id":"ce4bhg12rcd13ifvqf60","pricing_plan_id":"cebpf4jnsgd1na2vs0mg"},{"bike_id":"e2e3a6f6-0f08-4185-b27b-75bc9500a96d","system_id":"levelo_inurba_marseille","lat":43.211966,"lon":5.350725,"is_reserved":false,"is_disabled":true,"rental_uris":{"android":"levelo://app?vid=e2e3a6f6-0f08-4185-b27b-75bc9500a96d","ios":"levelo://app?vid=e2e3a6f6-0f08-4185-b27b-75bc9500a96d"},"vehicle_type_id":"4","last_reported":1747622668,"current_range_meters":19200,"station_id":"st_cvj6sg6p6f1abm77japg","pricing_plan_id":"cebpf4jnsgd1na2vs0mg"},{"bike_id":"6219e431-0d10-4995-bdc1-dcd619339c50","system_id":"levelo_inurba_marseille","lat":43.231854,"lon":5.399839,"is_reserved":false,"is_disabled":false,"rental_uris":{"android":"levelo://app?vid=6219e431-0d10-4995-bdc1-dcd619339c50","ios":"levelo://app?vid=6219e431-0d10-4995-bdc1-dcd619339c50"},"vehicle_type_id":"4","last_reported":1747622668,"current_range_meters":19200,"station_id":"ce4bhn12rcd13ifvqgqg","pricing_plan_id":"cebpf4jnsgd1na2vs0mg"},{"bike_id":"31817c8f-fbb5-41fe-9496-8dec97fb5c43","system_id":"levelo_inurba_marseille","lat":43.303241,"lon":5.404386,"is_reserved":false,"is_disabled":true,"rental_uris":{"android":"levelo://app?vid=31817c8f-fbb5-41fe-9496-8dec97fb5c43","ios":"levelo://app?vid=31817c8f-fbb5-41fe-9496-8dec97fb5c43"},"vehicle_type_id":"4","last_reported":1747622668,"current_range_meters":19200,"station_id":"ce4bh012rcd13ifvqd10","pricing_plan_id":"cebpf4jnsgd1na2vs0mg"},{"bike_id":"a77e4ba2-2bec-49a4-acd5-6010afedc58d","system_id":"levelo_inurba_marseille","lat":43.3026,"lon":5.400782,"is_reserved":false,"is_disabled":false,"rental_uris":{"android":"levelo://app?vid=a77e4ba2-2bec-49a4-acd5-6010afedc58d","ios":"levelo://app?vid=a77e4ba2-2bec-49a4-acd5-6010afedc58d"},"vehicle_type_id":"4","last_reported":1747622668,"current_range_meters":19200,"station_id":"ce4bgvh2rcd13ifvqcs0","pricing_plan_id":"cebpf4jnsgd1na2vs0mg"},{"bike_id":"0671b125-ec13-4ec6-9e80-483595638e44","system_id":"levelo_inurba_marseille","lat":43.2709,"lon":5.42259,"is_reserved":false,"is_disabled":false,"rental_uris":{"android":"levelo://app?vid=0671b125-ec13-4ec6-9e80-483595638e44","ios":"levelo://app?vid=0671b125-ec13-4ec6-9e80-483595638e44"},"vehicle_type_id":"4","last_reported":1747622668,"current_range_meters":19200,"station_id":"ce4bhk92rcd13ifvqgb0","pricing_plan_id":"cebpf4jnsgd1na2vs0mg"},{"bike_id":"0aa93a17-2c67-4401-bc28-11d2158b34f7","system_id":"levelo_inurba_marseille","lat":43.240681,"lon":5.377647,"is_reserved":false,"is_disabled":false,"rental_uris":{"android":"levelo://app?vid=0aa93a17-2c67-4401-bc28-11d2158b34f7","ios":"levelo://app?vid=0aa93a17-2c67-4401-bc28-11d2158b34f7"},"vehicle_type_id":"4","last_reported":1747622668,"current_range_meters":19600,"station_id":"ce4bhnp2rcd13ifvqgvg","pricing_plan_id":"cebpf4jnsgd1na2vs0mg"},{"bike_id":"1ddd815c-6a3b-46da-94aa-ca792f8675d1","system_id":"levelo_inurba_marseille","lat":43.28572,"lon":5.39498,"is_reserved":false,"is_disabled":false,"rental_uris":{"android":"levelo://app?vid=1ddd815c-6a3b-46da-94aa-ca792f8675d1","ios":"levelo://app?vid=1ddd815c-6a3b-46da-94aa-ca792f8675d1"},"vehicle_type_id":"4","last_reported":1747622668,"current_range_meters":19600,"station_id":"ce4bh292rcd13ifvqdg0","pricing_plan_id":"cebpf4jnsgd1na2vs0mg"},{"bike_id":"338ab862-3eee-46b1-9f4f-ad12443dba67","system_id":"levelo_inurba_marseille","lat":43.28929,"lon":5.36632,"is_reserved":false,"is_disabled":false,"rental_uris":{"android":"levelo://app?vid=338ab862-3eee-46b1-9f4f-ad12443dba67","ios":"levelo://app?vid=338ab862-3eee-46b1-9f4f-ad12443dba67"},"vehicle_type_id":"4","last_reported":1747622668,"current_range_meters":19600,"station_id":"","pricing_plan_id":"cebpf4jnsgd1na2vs0mg"},{"bike_id":"642ec5bc-91dc-4b69-92e6-960e27571d8d","system_id":"levelo_inurba_marseille","lat":43.2754,"lon":5.38459,"is_reserved":false,"is_disabled":false,"rental_uris":{"android":"levelo://app?vid=642ec5bc-91dc-4b69-92e6-960e27571d8d","ios":"levelo://app?vid=642ec5bc-91dc-4b69-92e6-960e27571d8d"},"vehicle_type_id":"4","last_reported":1747622668,"current_range_meters":19200,"station_id":"ce4bhh92rcd13ifvqfi0","pricing_plan_id":"cebpf4jnsgd1na2vs0mg"},{"bike_id":"143383ab-df8a-4bfb-bc09-4c05e3617dc8","system_id":"levelo_inurba_marseille","lat":43.311854,"lon":5.387217,"is_reserved":false,"is_disabled":true,"rental_uris":{"android":"levelo://app?vid=143383ab-df8a-4bfb-bc09-4c05e3617dc8","ios":"levelo://app?vid=143383ab-df8a-4bfb-bc09-4c05e3617dc8"},"vehicle_type_id":"4","last_reported":1747622668,"current_range_meters":20000,"station_id":"ce4bgv12rcd13ifvqcp0","pricing_plan_id":"cebpf4jnsgd1na2vs0mg"},{"bike_id":"f452c622-b4bf-4226-bdc3-c26598e53179","system_id":"levelo_inurba_marseille","lat":43.29148,"lon":5.37165,"is_reserved":false,"is_disabled":true,"rental_uris":{"android":"levelo://app?vid=f452c622-b4bf-4226-bdc3-c26598e53179","ios":"levelo://app?vid=f452c622-b4bf-4226-bdc3-c26598e53179"},"vehicle_type_id":"4","last_reported":1747622668,"current_range_meters":20000,"station_id":"ce4bha92rcd13ifvqeh0","pricing_plan_id":"cebpf4jnsgd1na2vs0mg"},{"bike_id":"068d69a9-ad77-4ab6-af51-216ffdd78f59","system_id":"levelo_inurba_marseille","lat":43.29265,"lon":5.40141,"is_reserved":false,"is_disabled":false,"rental_uris":{"android":"levelo://app?vid=068d69a9-ad77-4ab6-af51-216ffdd78f59","ios":"levelo://app?vid=068d69a9-ad77-4ab6-af51-216ffdd78f59"},"vehicle_type_id":"4","last_reported":1747622668,"current_range_meters":20000,"station_id":"ce4bh312rcd13ifvqdk0","pricing_plan_id":"cebpf4jnsgd1na2vs0mg"},{"bike_id":"ff1c865b-e398-462e-a6c9-c6ad7a968ee1","system_id":"levelo_inurba_marseille","lat":43.303702,"lon":5.424873,"is_reserved":false,"is_disabled":false,"rental_uris":{"android":"levelo://app?vid=ff1c865b-e398-462e-a6c9-c6ad7a968ee1","ios":"levelo://app?vid=ff1c865b-e398-462e-a6c9-c6ad7a968ee1"},"vehicle_type_id":"4","last_reported":1747622668,"current_range_meters":20400,"station_id":"ce4bhoh2rcd13ifvqh6g","pricing_plan_id":"cebpf4jnsgd1na2vs0mg"},{"bike_id":"902aacbb-b178-4800-a46c-96b8e91baada","system_id":"levelo_inurba_marseille","lat":43.318883,"lon":5.4074,"is_reserved":false,"is_disabled":false,"rental_uris":{"android":"levelo://app?vid=902aacbb-b178-4800-a46c-96b8e91baada","ios":"levelo://app?vid=902aacbb-b178-4800-a46c-96b8e91baada"},"vehicle_type_id":"4","last_reported":1747622668,"current_range_meters":20400,"station_id":"ce4bhq12rcd13ifvqhig","pricing_plan_id":"cebpf4jnsgd1na2vs0mg"},{"bike_id":"e74d5a86-5220-4816-808b-e9f0633f73b5","system_id":"levelo_inurba_marseille","lat":43.290321,"lon":5.399633,"is_reserved":false,"is_disabled":false,"rental_uris":{"android":"levelo://app?vid=e74d5a86-5220-4816-808b-e9f0633f73b5","ios":"levelo://app?vid=e74d5a86-5220-4816-808b-e9f0633f73b5"},"vehicle_type_id":"4","last_reported":1747622668,"current_range_meters":20400,"station_id":"ce4bh392rcd13ifvqdm0","pricing_plan_id":"cebpf4jnsgd1na2vs0mg"},{"bike_id":"1bce6cab-ba56-44f6-9bc8-12830f4cec77","system_id":"levelo_inurba_marseille","lat":43.308845,"lon":5.396305,"is_reserved":false,"is_disabled":false,"rental_uris":{"android":"levelo://app?vid=1bce6cab-ba56-44f6-9bc8-12830f4cec77","ios":"levelo://app?vid=1bce6cab-ba56-44f6-9bc8-12830f4cec77"},"vehicle_type_id":"4","last_reported":1747622668,"current_range_meters":20400,"station_id":"ce4bh012rcd13ifvqcv0","pricing_plan_id":"cebpf4jnsgd1na2vs0mg"},{"bike_id":"7ba1b4a6-db74-4c76-ac29-93dad132d73c","system_id":"levelo_inurba_marseille","lat":43.307657,"lon":5.370924,"is_reserved":false,"is_disabled":false,"rental_uris":{"android":"levelo://app?vid=7ba1b4a6-db74-4c76-ac29-93dad132d73c","ios":"levelo://app?vid=7ba1b4a6-db74-4c76-ac29-93dad132d73c"},"vehicle_type_id":"4","last_reported":1747622668,"current_range_meters":20400,"station_id":"","pricing_plan_id":"cebpf4jnsgd1na2vs0mg"},{"bike_id":"51b35479-b5c9-4803-a5c3-6b6c4356f184","system_id":"levelo_inurba_marseille","lat":43.28094,"lon":5.37872,"is_reserved":false,"is_disabled":false,"rental_uris":{"android":"levelo://app?vid=51b35479-b5c9-4803-a5c3-6b6c4356f184","ios":"levelo://app?vid=51b35479-b5c9-4803-a5c3-6b6c4356f184"},"vehicle_type_id":"4","last_reported":1747622668,"current_range_meters":20400,"station_id":"ce4bha12rcd13ifvqee0","pricing_plan_id":"cebpf4jnsgd1na2vs0mg"},{"bike_id":"1d0a60e0-ed9c-43a9-a59f-005b28569457","system_id":"levelo_inurba_marseille","lat":43.3093,"lon":5.37425,"is_reserved":false,"is_disabled":false,"rental_uris":{"android":"levelo://app?vid=1d0a60e0-ed9c-43a9-a59f-005b28569457","ios":"levelo://app?vid=1d0a60e0-ed9c-43a9-a59f-005b28569457"},"vehicle_type_id":"4","last_reported":1747622668,"current_range_meters":20800,"station_id":"","pricing_plan_id":"cebpf4jnsgd1na2vs0mg"},{"bike_id":"5a6baea5-28a7-4e2e-adce-f0a65cdb9c0f","system_id":"levelo_inurba_marseille","lat":43.308915,"lon":5.396444,"is_reserved":false,"is_disabled":false,"rental_uris":{"android":"levelo://app?vid=5a6baea5-28a7-4e2e-adce-f0a65cdb9c0f","ios":"levelo://app?vid=5a6baea5-28a7-4e2e-adce-f0a65cdb9c0f"},"vehicle_type_id":"4","last_reported":1747622668,"current_range_meters":20800,"station_id":"ce4bh012rcd13ifvqcv0","pricing_plan_id":"cebpf4jnsgd1na2vs0mg"},{"bike_id":"9c0cae4e-e704-4bfa-a359-9897c0d78602","system_id":"levelo_inurba_marseille","lat":43.257131,"lon":5.411203,"is_reserved":false,"is_disabled":false,"rental_uris":{"android":"levelo://app?vid=9c0cae4e-e704-4bfa-a359-9897c0d78602","ios":"levelo://app?vid=9c0cae4e-e704-4bfa-a359-9897c0d78602"},"vehicle_type_id":"4","last_reported":1747622668,"current_range_meters":20800,"station_id":"ce4bhkp2rcd13ifvqgd0","pricing_plan_id":"cebpf4jnsgd1na2vs0mg"},{"bike_id":"ce505bc9-78f1-4541-bc1d-d2f70af84798","system_id":"levelo_inurba_marseille","lat":43.303159,"lon":5.404451,"is_reserved":false,"is_disabled":false,"rental_uris":{"android":"levelo://app?vid=ce505bc9-78f1-4541-bc1d-d2f70af84798","ios":"levelo://app?vid=ce505bc9-78f1-4541-bc1d-d2f70af84798"},"vehicle_type_id":"4","last_reported":1747622668,"current_range_meters":21600,"station_id":"ce4bh012rcd13ifvqd10","pricing_plan_id":"cebpf4jnsgd1na2vs0mg"},{"bike_id":"37e87833-6d14-441e-8e59-d5589a3c6011","system_id":"levelo_inurba_marseille","lat":43.25127,"lon":5.40326,"is_reserved":false,"is_disabled":false,"rental_uris":{"android":"levelo://app?vid=37e87833-6d14-441e-8e59-d5589a3c6011","ios":"levelo://app?vid=37e87833-6d14-441e-8e59-d5589a3c6011"},"vehicle_type_id":"4","last_reported":1747622668,"current_range_meters":21600,"station_id":"ce4bhlh2rcd13ifvqgig","pricing_plan_id":"cebpf4jnsgd1na2vs0mg"},{"bike_id":"5911baa1-134f-495a-aded-815d50e07680","system_id":"levelo_inurba_marseille","lat":43.311154,"lon":5.377613,"is_reserved":false,"is_disabled":false,"rental_uris":{"android":"levelo://app?vid=5911baa1-134f-495a-aded-815d50e07680","ios":"levelo://app?vid=5911baa1-134f-495a-aded-815d50e07680"},"vehicle_type_id":"4","last_reported":1747622668,"current_range_meters":21600,"station_id":"ce4bgt92rcd13ifvqcg0","pricing_plan_id":"cebpf4jnsgd1na2vs0mg"},{"bike_id":"0aa1050e-3c47-4667-884b-5efece0bc87c","system_id":"levelo_inurba_marseille","lat":43.28437,"lon":5.37502,"is_reserved":false,"is_disabled":false,"rental_uris":{"android":"levelo://app?vid=0aa1050e-3c47-4667-884b-5efece0bc87c","ios":"levelo://app?vid=0aa1050e-3c47-4667-884b-5efece0bc87c"},"vehicle_type_id":"4","last_reported":1747622668,"current_range_meters":22000,"station_id":"ce4bh412rcd13ifvqds0","pricing_plan_id":"cebpf4jnsgd1na2vs0mg"},{"bike_id":"f3b9a4a5-68f8-4263-9751-bfd25cbb5447","system_id":"levelo_inurba_marseille","lat":43.294326,"lon":5.397577,"is_reserved":false,"is_disabled":false,"rental_uris":{"android":"levelo://app?vid=f3b9a4a5-68f8-4263-9751-bfd25cbb5447","ios":"levelo://app?vid=f3b9a4a5-68f8-4263-9751-bfd25cbb5447"},"vehicle_type_id":"4","last_reported":1747622668,"current_range_meters":22000,"station_id":"ce4bh3h2rcd13ifvqdo0","pricing_plan_id":"cebpf4jnsgd1na2vs0mg"},{"bike_id":"727e68ef-21bf-4be6-a9b4-0f51f23b5641","system_id":"levelo_inurba_marseille","lat":43.308711,"lon":5.396441,"is_reserved":false,"is_disabled":false,"rental_uris":{"android":"levelo://app?vid=727e68ef-21bf-4be6-a9b4-0f51f23b5641","ios":"levelo://app?vid=727e68ef-21bf-4be6-a9b4-0f51f23b5641"},"vehicle_type_id":"4","last_reported":1747622668,"current_range_meters":22000,"station_id":"ce4bh012rcd13ifvqcv0","pricing_plan_id":"cebpf4jnsgd1na2vs0mg"},{"bike_id":"c86c5533-643a-4abc-8173-38a5deeeadd2","system_id":"levelo_inurba_marseille","lat":43.309312,"lon":5.401436,"is_reserved":false,"is_disabled":false,"rental_uris":{"android":"levelo://app?vid=c86c5533-643a-4abc-8173-38a5deeeadd2","ios":"levelo://app?vid=c86c5533-643a-4abc-8173-38a5deeeadd2"},"vehicle_type_id":"4","last_reported":1747622668,"current_range_meters":22000,"station_id":"ce4bgvp2rcd13ifvqct0","pricing_plan_id":"cebpf4jnsgd1na2vs0mg"},{"bike_id":"1f539f46-b374-4bb3-88ca-7a79668a9645","system_id":"levelo_inurba_marseille","lat":43.308072,"lon":5.381609,"is_reserved":false,"is_disabled":false,"rental_uris":{"android":"levelo://app?vid=1f539f46-b374-4bb3-88ca-7a79668a9645","ios":"levelo://app?vid=1f539f46-b374-4bb3-88ca-7a79668a9645"},"vehicle_type_id":"4","last_reported":1747622668,"current_range_meters":22000,"station_id":"ce4bgt12rcd13ifvqce0","pricing_plan_id":"cebpf4jnsgd1na2vs0mg"},{"bike_id":"69f71d00-48c3-4b3f-8e24-889dea1248b8","system_id":"levelo_inurba_marseille","lat":43.29011,"lon":5.38135,"is_reserved":false,"is_disabled":true,"rental_uris":{"android":"levelo://app?vid=69f71d00-48c3-4b3f-8e24-889dea1248b8","ios":"levelo://app?vid=69f71d00-48c3-4b3f-8e24-889dea1248b8"},"vehicle_type_id":"4","last_reported":1747622668,"current_range_meters":22400,"station_id":"ce4bh4p2rcd13ifvqe1g","pricing_plan_id":"cebpf4jnsgd1na2vs0mg"},{"bike_id":"bbae9470-c4e6-406c-8e2e-0ffe5e843b63","system_id":"levelo_inurba_marseille","lat":43.217441,"lon":5.345974,"is_reserved":false,"is_disabled":true,"rental_uris":{"android":"levelo://app?vid=bbae9470-c4e6-406c-8e2e-0ffe5e843b63","ios":"levelo://app?vid=bbae9470-c4e6-406c-8e2e-0ffe5e843b63"},"vehicle_type_id":"4","last_reported":1747622668,"current_range_meters":22400,"station_id":"st_cvj6r9ubvosntc0bgbag","pricing_plan_id":"cebpf4jnsgd1na2vs0mg"},{"bike_id":"4062c87d-b10e-4898-a1e0-3b0118671e50","system_id":"levelo_inurba_marseille","lat":43.291007,"lon":5.381243,"is_reserved":false,"is_disabled":false,"rental_uris":{"android":"levelo://app?vid=4062c87d-b10e-4898-a1e0-3b0118671e50","ios":"levelo://app?vid=4062c87d-b10e-4898-a1e0-3b0118671e50"},"vehicle_type_id":"4","last_reported":1747622668,"current_range_meters":22400,"station_id":"","pricing_plan_id":"cebpf4jnsgd1na2vs0mg"},{"bike_id":"76af328a-dc9a-420b-bf53-01bae63e9ebb","system_id":"levelo_inurba_marseille","lat":43.309316,"lon":5.401602,"is_reserved":false,"is_disabled":false,"rental_uris":{"android":"levelo://app?vid=76af328a-dc9a-420b-bf53-01bae63e9ebb","ios":"levelo://app?vid=76af328a-dc9a-420b-bf53-01bae63e9ebb"},"vehicle_type_id":"4","last_reported":1747622668,"current_range_meters":22400,"station_id":"ce4bgvp2rcd13ifvqct0","pricing_plan_id":"cebpf4jnsgd1na2vs0mg"},{"bike_id":"10dacac8-2937-4147-af93-873bf3dca04d","system_id":"levelo_inurba_marseille","lat":43.341441,"lon":5.409006,"is_reserved":false,"is_disabled":false,"rental_uris":{"android":"levelo://app?vid=10dacac8-2937-4147-af93-873bf3dca04d","ios":"levelo://app?vid=10dacac8-2937-4147-af93-873bf3dca04d"},"vehicle_type_id":"4","last_reported":1747622668,"current_range_meters":22400,"station_id":"ce4bhqh2rcd13ifvqhlg","pricing_plan_id":"cebpf4jnsgd1na2vs0mg"},{"bike_id":"65c79431-6085-4d7a-b724-977725116971","system_id":"levelo_inurba_marseille","lat":43.297702,"lon":5.381089,"is_reserved":false,"is_disabled":true,"rental_uris":{"android":"levelo://app?vid=65c79431-6085-4d7a-b724-977725116971","ios":"levelo://app?vid=65c79431-6085-4d7a-b724-977725116971"},"vehicle_type_id":"4","last_reported":1747622668,"current_range_meters":22400,"station_id":"ce4bgip2rcd13ifvqbb0","pricing_plan_id":"cebpf4jnsgd1na2vs0mg"},{"bike_id":"c2041209-65ed-4ff0-abc8-4a8d6f93dcbe","system_id":"levelo_inurba_marseille","lat":43.282885,"lon":5.350736,"is_reserved":false,"is_disabled":true,"rental_uris":{"android":"levelo://app?vid=c2041209-65ed-4ff0-abc8-4a8d6f93dcbe","ios":"levelo://app?vid=c2041209-65ed-4ff0-abc8-4a8d6f93dcbe"},"vehicle_type_id":"4","last_reported":1747622668,"current_range_meters":22800,"station_id":"ce4bhbp2rcd13ifvqerg","pricing_plan_id":"cebpf4jnsgd1na2vs0mg"},{"bike_id":"c7fa045b-8abd-4bd8-ac58-69864d07dca7","system_id":"levelo_inurba_marseille","lat":43.320969,"lon":5.368033,"is_reserved":false,"is_disabled":false,"rental_uris":{"android":"levelo://app?vid=c7fa045b-8abd-4bd8-ac58-69864d07dca7","ios":"levelo://app?vid=c7fa045b-8abd-4bd8-ac58-69864d07dca7"},"vehicle_type_id":"4","last_reported":1747622668,"current_range_meters":22800,"station_id":"ce4bhrh2rcd13ifvqhug","pricing_plan_id":"cebpf4jnsgd1na2vs0mg"},{"bike_id":"0e25e0af-61cf-4d02-9b9a-1fd6005092a0","system_id":"levelo_inurba_marseille","lat":43.30881,"lon":5.39639,"is_reserved":false,"is_disabled":false,"rental_uris":{"android":"levelo://app?vid=0e25e0af-61cf-4d02-9b9a-1fd6005092a0","ios":"levelo://app?vid=0e25e0af-61cf-4d02-9b9a-1fd6005092a0"},"vehicle_type_id":"4","last_reported":1747622668,"current_range_meters":22800,"station_id":"ce4bh012rcd13ifvqcv0","pricing_plan_id":"cebpf4jnsgd1na2vs0mg"},{"bike_id":"5af3d8f1-dcf5-419e-a2c5-cbed038bca0f","system_id":"levelo_inurba_marseille","lat":43.27837,"lon":5.39204,"is_reserved":false,"is_disabled":false,"rental_uris":{"android":"levelo://app?vid=5af3d8f1-dcf5-419e-a2c5-cbed038bca0f","ios":"levelo://app?vid=5af3d8f1-dcf5-419e-a2c5-cbed038bca0f"},"vehicle_type_id":"4","last_reported":1747622668,"current_range_meters":22800,"station_id":"ce4bhjp2rcd13ifvqga0","pricing_plan_id":"cebpf4jnsgd1na2vs0mg"},{"bike_id":"17f5f971-4357-40b9-ae0f-04ba3e3d6f57","system_id":"levelo_inurba_marseille","lat":43.251139,"lon":5.403309,"is_reserved":false,"is_disabled":false,"rental_uris":{"android":"levelo://app?vid=17f5f971-4357-40b9-ae0f-04ba3e3d6f57","ios":"levelo://app?vid=17f5f971-4357-40b9-ae0f-04ba3e3d6f57"},"vehicle_type_id":"4","last_reported":1747622668,"current_range_meters":22800,"station_id":"","pricing_plan_id":"cebpf4jnsgd1na2vs0mg"},{"bike_id":"f5c1a0f6-ca6e-4936-afdf-1859421c3901","system_id":"levelo_inurba_marseille","lat":43.27812,"lon":5.40722,"is_reserved":false,"is_disabled":false,"rental_uris":{"android":"levelo://app?vid=f5c1a0f6-ca6e-4936-afdf-1859421c3901","ios":"levelo://app?vid=f5c1a0f6-ca6e-4936-afdf-1859421c3901"},"vehicle_type_id":"4","last_reported":1747622668,"current_range_meters":22000,"station_id":"ce4bhnh2rcd13ifvqgtg","pricing_plan_id":"cebpf4jnsgd1na2vs0mg"},{"bike_id":"92858e14-6ad4-453e-9faf-bd91ff9c9e7d","system_id":"levelo_inurba_marseille","lat":43.28105,"lon":5.37846,"is_reserved":false,"is_disabled":false,"rental_uris":{"android":"levelo://app?vid=92858e14-6ad4-453e-9faf-bd91ff9c9e7d","ios":"levelo://app?vid=92858e14-6ad4-453e-9faf-bd91ff9c9e7d"},"vehicle_type_id":"4","last_reported":1747622668,"current_range_meters":22800,"station_id":"ce4bha12rcd13ifvqee0","pricing_plan_id":"cebpf4jnsgd1na2vs0mg"},{"bike_id":"c47de08d-c4a8-4acb-88d4-ca6ca69f95ce","system_id":"levelo_inurba_marseille","lat":43.35423,"lon":5.40826,"is_reserved":false,"is_disabled":false,"rental_uris":{"android":"levelo://app?vid=c47de08d-c4a8-4acb-88d4-ca6ca69f95ce","ios":"levelo://app?vid=c47de08d-c4a8-4acb-88d4-ca6ca69f95ce"},"vehicle_type_id":"4","last_reported":1747622668,"current_range_meters":22800,"station_id":"","pricing_plan_id":"cebpf4jnsgd1na2vs0mg"},{"bike_id":"e367dd02-92d9-4458-9649-0c3427aa378d","system_id":"levelo_inurba_marseille","lat":43.302595,"lon":5.400548,"is_reserved":false,"is_disabled":false,"rental_uris":{"android":"levelo://app?vid=e367dd02-92d9-4458-9649-0c3427aa378d","ios":"levelo://app?vid=e367dd02-92d9-4458-9649-0c3427aa378d"},"vehicle_type_id":"4","last_reported":1747622668,"current_range_meters":23200,"station_id":"ce4bgvh2rcd13ifvqcs0","pricing_plan_id":"cebpf4jnsgd1na2vs0mg"},{"bike_id":"ced441dc-6911-44a5-8234-8cb0fa777064","system_id":"levelo_inurba_marseille","lat":43.270651,"lon":5.422756,"is_reserved":false,"is_disabled":false,"rental_uris":{"android":"levelo://app?vid=ced441dc-6911-44a5-8234-8cb0fa777064","ios":"levelo://app?vid=ced441dc-6911-44a5-8234-8cb0fa777064"},"vehicle_type_id":"4","last_reported":1747622668,"current_range_meters":23200,"station_id":"ce4bhk92rcd13ifvqgb0","pricing_plan_id":"cebpf4jnsgd1na2vs0mg"},{"bike_id":"5e7c67a5-95a7-49d9-9fb5-5ba06b7de44e","system_id":"levelo_inurba_marseille","lat":43.309285,"lon":5.401448,"is_reserved":false,"is_disabled":false,"rental_uris":{"android":"levelo://app?vid=5e7c67a5-95a7-49d9-9fb5-5ba06b7de44e","ios":"levelo://app?vid=5e7c67a5-95a7-49d9-9fb5-5ba06b7de44e"},"vehicle_type_id":"4","last_reported":1747622668,"current_range_meters":23200,"station_id":"ce4bgvp2rcd13ifvqct0","pricing_plan_id":"cebpf4jnsgd1na2vs0mg"},{"bike_id":"44eb73f4-78c9-4d78-87ae-8ef56e3b1880","system_id":"levelo_inurba_marseille","lat":43.282756,"lon":5.350736,"is_reserved":false,"is_disabled":true,"rental_uris":{"android":"levelo://app?vid=44eb73f4-78c9-4d78-87ae-8ef56e3b1880","ios":"levelo://app?vid=44eb73f4-78c9-4d78-87ae-8ef56e3b1880"},