{"last_updated":1731089522,"ttl":60,"version":"2.2","data":{"bikes":[{"bike_id":"6753b3e3-393b-4e84-981c-75891cdb5874","system_id":"levelo_inurba_marseille","lat":43.28846,"lon":5.3932,"is_reserved":false,"is_disabled":false,"rental_uris":{"android":"levelo://app?vid=6753b3e3-393b-4e84-981c-75891cdb5874","ios":"levelo://app?vid=6753b3e3-393b-4e84-981c-75891cdb5874"},"vehicle_type_id":"4","last_reported":1731089522,"current_range_meters":23200,"station_id":"ce4bh2p2rcd13ifvqdi0","pricing_plan_id":"cebpf4jnsgd1na2vs0mg"},{"bike_id":"50acb78d-907c-4335-958f-fa62e97de57b","system_id":"levelo_inurba_marseille","lat":43.30399,"lon":5.38775,"is_reserved":false,"is_disabled":false,"rental_uris":{"android":"levelo://app?vid=50acb78d-907c-4335-958f-fa62e97de57b","ios":"levelo://app?vid=50acb78d-907c-4335-958f-fa62e97de57b"},"vehicle_type_id":"4","last_reported":1731089522,"current_range_meters":35600,"station_id":"","pricing_plan_id":"cebpf4jnsgd1na2vs0mg"},{"bike_id":"68bb9078-c705-4e4c-81de-7ae7c7d86c43","system_id":"levelo_inurba_marseille","lat":43.31631,"lon":5.3772,"is_reserved":false,"is_disabled":false,"rental_uris":{"android":"levelo://app?vid=68bb9078-c705-4e4c-81de-7ae7c7d86c43","ios":"levelo://app?vid=68bb9078-c705-4e4c-81de-7ae7c7d86c43"},"vehicle_type_id":"4","last_reported":1731089522,"current_range_meters":32800,"station_id":"ce4bgth2rcd13ifvqch0","pricing_plan_id":"cebpf4jnsgd1na2vs0mg"},{"bike_id":"e7e383c4-9583-4985-9fc6-1e1eb8af56a7","system_id":"levelo_inurba_marseille","lat":43.29515,"lon":5.37503,"is_reserved":false,"is_disabled":false,"rental_uris":{"android":"levelo://app?vid=e7e383c4-9583-4985-9fc6-1e1eb8af56a7","ios":"levelo://app?vid=e7e383c4-9583-4985-9fc6-1e1eb8af56a7"},"vehicle_type_id":"4","last_reported":1731089522,"current_range_meters":39200,"station_id":"ce4bgkp2rcd13ifvqbmg","pricing_plan_id":"cebpf4jnsgd1na2vs0mg"},{"bike_id":"3f8e9100-8f64-42ec-b328-73d6145177de","system_id":"levelo_inurba_marseille","lat":43.337444,"lon":5.374475,"is_reserved":false,"is_disabled":false,"rental_uris":{"android":"levelo://app?vid=3f8e9100-8f64-42ec-b328-73d6145177de","ios":"levelo://app?vid=3f8e9100-8f64-42ec-b328-73d6145177de"},"vehicle_type_id":"4","last_reported":1731089522,"current_range_meters":20400,"station_id":"","pricing_plan_id":"cebpf4jnsgd1na2vs0mg"},{"bike_id":"c951de3b-d721-41a0-bde9-02a260c11c88","system_id":"levelo_inurba_marseille","lat":43.29256,"lon":5.38439,"is_reserved":false,"is_disabled":false,"rental_uris":{"android":"levelo://app?vid=c951de3b-d721-41a0-bde9-02a260c11c88","ios":"levelo://app?vid=c951de3b-d721-41a0-bde9-02a260c11c88"},"vehicle_type_id":"4","last_reported":1731089522,"current_range_meters":12000,"station_id":"ce4bh692rcd13ifvqea0","pricing_plan_id":"cebpf4jnsgd1na2vs0mg"},{"bike_id":"85ec6972-2474-4903-af30-b7a390d3db72","system_id":"levelo_inurba_marseille","lat":43.26199,"lon":5.37463,"is_reserved":false,"is_disabled":false,"rental_uris":{"android":"levelo://app?vid=85ec6972-2474-4903-af30-b7a390d3db72","ios":"levelo://app?vid=85ec6972-2474-4903-af30-b7a390d3db72"},"vehicle_type_id":"4","last_reported":1731089522,"current_range_meters":34800,"station_id":"ce4bhgp2rcd13ifvqfc0","pricing_plan_id":"cebpf4jnsgd1na2vs0mg"},{"bike_id":"c88f1b31-dd3c-4e82-a81a-152198c83c26","system_id":"levelo_inurba_marseille","lat":43.312238,"lon":5.368627,"is_reserved":false,"is_disabled":false,"rental_uris":{"android":"levelo://app?vid=c88f1b31-dd3c-4e82-a81a-152198c83c26","ios":"levelo://app?vid=c88f1b31-dd3c-4e82-a81a-152198c83c26"},"vehicle_type_id":"4","last_reported":1731089522,"current_range_meters":8400,"station_id":"ce4bgl92rcd13ifvqbq0","pricing_plan_id":"cebpf4jnsgd1na2vs0mg"},{"bike_id":"7a61aa54-4124-4dcd-858b-db846d80c8c4","system_id":"levelo_inurba_marseille","lat":43.27618,"lon":5.36112,"is_reserved":false,"is_disabled":false,"rental_uris":{"android":"levelo://app?vid=7a61aa54-4124-4dcd-858b-db846d80c8c4","ios":"levelo://app?vid=7a61aa54-4124-4dcd-858b-db846d80c8c4"},"vehicle_type_id":"4","last_reported":1731089522,"current_range_meters":6800,"station_id":"ce4bgj92rcd13ifvqbe0","pricing_plan_id":"cebpf4jnsgd1na2vs0mg"},{"bike_id":"3e80f0e3-f994-4134-ab8a-2338da3ff797","system_id":"levelo_inurba_marseille","lat":43.328611,"lon":5.399659,"is_reserved":false,"is_disabled":false,"rental_uris":{"android":"levelo://app?vid=3e80f0e3-f994-4134-ab8a-2338da3ff797","ios":"levelo://app?vid=3e80f0e3-f994-4134-ab8a-2338da3ff797"},"vehicle_type_id":"4","last_reported":1731089522,"current_range_meters":4800,"station_id":"ce4bhqh2rcd13ifvqhlg","pricing_plan_id":"cebpf4jnsgd1na2vs0mg"},{"bike_id":"8a2ba945-7f42-4f36-a30f-d6f846b355fb","system_id":"levelo_inurba_marseille","lat":43.29283,"lon":5.40116,"is_reserved":false,"is_disabled":false,"rental_uris":{"android":"levelo://app?vid=8a2ba945-7f42-4f36-a30f-d6f846b355fb","ios":"levelo://app?vid=8a2ba945-7f42-4f36-a30f-d6f846b355fb"},"vehicle_type_id":"4","last_reported":1731089522,"current_range_meters":18000,"station_id":"ce4bh312rcd13ifvqdk0","pricing_plan_id":"cebpf4jnsgd1na2vs0mg"},{"bike_id":"0ca27422-51e8-4b76-b664-c3665c743be8","system_id":"levelo_inurba_marseille","lat":43.2656,"lon":5.39007,"is_reserved":false,"is_disabled":false,"rental_uris":{"android":"levelo://app?vid=0ca27422-51e8-4b76-b664-c3665c743be8","ios":"levelo://app?vid=0ca27422-51e8-4b76-b664-c3665c743be8"},"vehicle_type_id":"4","last_reported":1731089522,"current_range_meters":24400,"station_id":"ce4bhe12rcd13ifvqf30","pricing_plan_id":"cebpf4jnsgd1na2vs0mg"},{"bike_id":"1a92279e-1152-4bb1-a030-ac5c06a6a547","system_id":"levelo_inurba_marseille","lat":43.30797,"lon":5.43527,"is_reserved":false,"is_disabled":false,"rental_uris":{"android":"levelo://app?vid=1a92279e-1152-4bb1-a030-ac5c06a6a547","ios":"levelo://app?vid=1a92279e-1152-4bb1-a030-ac5c06a6a547"},"vehicle_type_id":"4","last_reported":1731089522,"current_range_meters":36800,"station_id":"ce4bhph2rcd13ifvqheg","pricing_plan_id":"cebpf4jnsgd1na2vs0mg"},{"bike_id":"987a9f2c-cb35-4d5c-b397-bf937ba42a3d","system_id":"levelo_inurba_marseille","lat":43.32537,"lon":5.41428,"is_reserved":false,"is_disabled":false,"rental_uris":{"android":"levelo://app?vid=987a9f2c-cb35-4d5c-b397-bf937ba42a3d","ios":"levelo://app?vid=987a9f2c-cb35-4d5c-b397-bf937ba42a3d"},"vehicle_type_id":"4","last_reported":1731089522,"current_range_meters":11200,"station_id":"ce4bhq12rcd13ifvqhhg","pricing_plan_id":"cebpf4jnsgd1na2vs0mg"},{"bike_id":"83783dfc-137c-4486-b30f-d27457f25002","system_id":"levelo_inurba_marseille","lat":43.29306,"lon":5.3717,"is_reserved":false,"is_disabled":false,"rental_uris":{"android":"levelo://app?vid=83783dfc-137c-4486-b30f-d27457f25002","ios":"levelo://app?vid=83783dfc-137c-4486-b30f-d27457f25002"},"vehicle_type_id":"4","last_reported":1731089522,"current_range_meters":38800,"station_id":"ce4bgh92rcd13ifvqb40","pricing_plan_id":"cebpf4jnsgd1na2vs0mg"},{"bike_id":"c100e660-5b8e-454a-aaee-d634110d5a9d","system_id":"levelo_inurba_marseille","lat":43.29516,"lon":5.39047,"is_reserved":false,"is_disabled":false,"rental_uris":{"android":"levelo://app?vid=c100e660-5b8e-454a-aaee-d634110d5a9d","ios":"levelo://app?vid=c100e660-5b8e-454a-aaee-d634110d5a9d"},"vehicle_type_id":"4","last_reported":1731089522,"current_range_meters":36800,"station_id":"ce4bh3p2rcd13ifvqdp0","pricing_plan_id":"cebpf4jnsgd1na2vs0mg"},{"bike_id":"b2ea2d84-8520-4feb-b30b-1ffe3087e1c8","system_id":"levelo_inurba_marseille","lat":43.29254,"lon":5.38438,"is_reserved":false,"is_disabled":false,"rental_uris":{"android":"levelo://app?vid=b2ea2d84-8520-4feb-b30b-1ffe3087e1c8","ios":"levelo://app?vid=b2ea2d84-8520-4feb-b30b-1ffe3087e1c8"},"vehicle_type_id":"4","last_reported":1731089522,"current_range_meters":24800,"station_id":"ce4bh692rcd13ifvqea0","pricing_plan_id":"cebpf4jnsgd1na2vs0mg"},{"bike_id":"b9059161-bc2a-4853-8231-de961bd5f1e7","system_id":"levelo_inurba_marseille","lat":43.3371,"lon":5.39176,"is_reserved":false,"is_disabled":false,"rental_uris":{"android":"levelo://app?vid=b9059161-bc2a-4853-8231-de961bd5f1e7","ios":"levelo://app?vid=b9059161-bc2a-4853-8231-de961bd5f1e7"},"vehicle_type_id":"4","last_reported":1731089522,"current_range_meters":26000,"station_id":"ce4bhr92rcd13ifvqhsg","pricing_plan_id":"cebpf4jnsgd1na2vs0mg"},{"bike_id":"757046b5-c4cb-4417-b89b-d002a67699c9","system_id":"levelo_inurba_marseille","lat":43.26803,"lon":5.4027,"is_reserved":false,"is_disabled":false,"rental_uris":{"android":"levelo://app?vid=757046b5-c4cb-4417-b89b-d002a67699c9","ios":"levelo://app?vid=757046b5-c4cb-4417-b89b-d002a67699c9"},"vehicle_type_id":"4","last_reported":1731089522,"current_range_meters":34000,"station_id":"ce501612rcd8frsf0b60","pricing_plan_id":"cebpf4jnsgd1na2vs0mg"},{"bike_id":"be6de5f5-70b8-4e62-b539-d24821b02350","system_id":"levelo_inurba_marseille","lat":43.26033,"lon":5.37546,"is_reserved":false,"is_disabled":false,"rental_uris":{"android":"levelo://app?vid=be6de5f5-70b8-4e62-b539-d24821b02350","ios":"levelo://app?vid=be6de5f5-70b8-4e62-b539-d24821b02350"},"vehicle_type_id":"4","last_reported":1731089522,"current_range_meters":39200,"station_id":"ce4bhgh2rcd13ifvqfa0","pricing_plan_id":"cebpf4jnsgd1na2vs0mg"},{"bike_id":"1e1c2b79-8620-4dc5-af4d-0c0dad88628e","system_id":"levelo_inurba_marseille","lat":43.299103,"lon":5.381429,"is_reserved":false,"is_disabled":false,"rental_uris":{"android":"levelo://app?vid=1e1c2b79-8620-4dc5-af4d-0c0dad88628e","ios":"levelo://app?vid=1e1c2b79-8620-4dc5-af4d-0c0dad88628e"},"vehicle_type_id":"4","last_reported":1731089522,"current_range_meters":32400,"station_id":"ce4bha92rcd13ifvqeh0","pricing_plan_id":"cebpf4jnsgd1na2vs0mg"},{"bike_id":"72b16444-8767-4212-9201-260e8bb268e4","system_id":"levelo_inurba_marseille","lat":43.28928,"lon":5.3839,"is_reserved":false,"is_disabled":false,"rental_uris":{"android":"levelo://app?vid=72b16444-8767-4212-9201-260e8bb268e4","ios":"levelo://app?vid=72b16444-8767-4212-9201-260e8bb268e4"},"vehicle_type_id":"4","last_reported":1731089522,"current_range_meters":9200,"station_id":"ce4bh612rcd13ifvqe6g","pricing_plan_id":"cebpf4jnsgd1na2vs0mg"},{"bike_id":"22c2910c-c395-401a-9c60-3a72ab53ce1d","system_id":"levelo_inurba_marseille","lat":43.26548,"lon":5.39502,"is_reserved":false,"is_disabled":false,"rental_uris":{"android":"levelo://app?vid=22c2910c-c395-401a-9c60-3a72ab53ce1d","ios":"levelo://app?vid=22c2910c-c395-401a-9c60-3a72ab53ce1d"},"vehicle_type_id":"4","last_reported":1731089522,"current_range_meters":30800,"station_id":"ce4bhh12rcd13ifvqfg0","pricing_plan_id":"cebpf4jnsgd1na2vs0mg"},{"bike_id":"f4ef053d-e709-4411-bdd9-de1d0f41e46f","system_id":"levelo_inurba_marseille","lat":43.2293,"lon":5.35374,"is_reserved":false,"is_disabled":false,"rental_uris":{"android":"levelo://app?vid=f4ef053d-e709-4411-bdd9-de1d0f41e46f","ios":"levelo://app?vid=f4ef053d-e709-4411-bdd9-de1d0f41e46f"},"vehicle_type_id":"4","last_reported":1731089522,"current_range_meters":40000,"station_id":"cpo3532slgdg3j2ikp40","pricing_plan_id":"cebpf4jnsgd1na2vs0mg"},{"bike_id":"7b28e8d2-008b-42bf-8db3-b456cc7125ae","system_id":"levelo_inurba_marseille","lat":43.31331,"lon":5.39695,"is_reserved":false,"is_disabled":false,"rental_uris":{"android":"levelo://app?vid=7b28e8d2-008b-42bf-8db3-b456cc7125ae","ios":"levelo://app?vid=7b28e8d2-008b-42bf-8db3-b456cc7125ae"},"vehicle_type_id":"4","last_reported":1731089522,"current_range_meters":37600,"station_id":"ce4bgvp2rcd13ifvqcu0","pricing_plan_id":"cebpf4jnsgd1na2vs0mg"},{"bike_id":"364e42d7-8d14-4397-90fc-cf29a26dfea6","system_id":"levelo_inurba_marseille","lat":43.29281,"lon":5.40117,"is_reserved":false,"is_disabled":false,"rental_uris":{"android":"levelo://app?vid=364e42d7-8d14-4397-90fc-cf29a26dfea6","ios":"levelo://app?vid=364e42d7-8d14-4397-90fc-cf29a26dfea6"},"vehicle_type_id":"4","last_reported":1731089522,"current_range_meters":24800,"station_id":"ce4bh312rcd13ifvqdk0","pricing_plan_id":"cebpf4jnsgd1na2vs0mg"},{"bike_id":"707defd1-f536-4b0b-8df9-45bced001472","system_id":"levelo_inurba_marseille","lat":43.3133,"lon":5.39697,"is_reserved":false,"is_disabled":false,"rental_uris":{"android":"levelo://app?vid=707defd1-f536-4b0b-8df9-45bced001472","ios":"levelo://app?vid=707defd1-f536-4b0b-8df9-45bced001472"},"vehicle_type_id":"4","last_reported":1731089522,"current_range_meters":24400,"station_id":"ce4bgvp2rcd13ifvqcu0","pricing_plan_id":"cebpf4jnsgd1na2vs0mg"},{"bike_id":"80590553-7a60-4301-a5bc-0f28a55be41a","system_id":"levelo_inurba_marseille","lat":43.26805,"lon":5.4027,"is_reserved":false,"is_disabled":false,"rental_uris":{"android":"levelo://app?vid=80590553-7a60-4301-a5bc-0f28a55be41a","ios":"levelo://app?vid=80590553-7a60-4301-a5bc-0f28a55be41a"},"vehicle_type_id":"4","last_reported":1731089522,"current_range_meters":7200,"station_id":"ce501612rcd8frsf0b60","pricing_plan_id":"cebpf4jnsgd1na2vs0mg"},{"bike_id":"fcacea57-b191-4f90-b825-10a830a0e39e","system_id":"levelo_inurba_marseille","lat":43.25582,"lon":5.38235,"is_reserved":false,"is_disabled":false,"rental_uris":{"android":"levelo://app?vid=fcacea57-b191-4f90-b825-10a830a0e39e","ios":"levelo://app?vid=fcacea57-b191-4f90-b825-10a830a0e39e"},"vehicle_type_id":"4","last_reported":1731089522,"current_range_meters":6000,"station_id":"ce4bhih2rcd13ifvqfs0","pricing_plan_id":"cebpf4jnsgd1na2vs0mg"},{"bike_id":"604468f1-18c3-43f6-902b-01b8c3b5a12a","system_id":"levelo_inurba_marseille","lat":43.2318,"lon":5.3999,"is_reserved":false,"is_disabled":false,"rental_uris":{"android":"levelo://app?vid=604468f1-18c3-43f6-902b-01b8c3b5a12a","ios":"levelo://app?vid=604468f1-18c3-43f6-902b-01b8c3b5a12a"},"vehicle_type_id":"4","last_reported":1731089522,"current_range_meters":38800,"station_id":"ce4bhn12rcd13ifvqgqg","pricing_plan_id":"cebpf4jnsgd1na2vs0mg"},{"bike_id":"982c92fa-5a39-4022-a5c2-2c0c81e43e5c","system_id":"levelo_inurba_marseille","lat":43.26943,"lon":5.40242,"is_reserved":false,"is_disabled":false,"rental_uris":{"android":"levelo://app?vid=982c92fa-5a39-4022-a5c2-2c0c81e43e5c","ios":"levelo://app?vid=982c92fa-5a39-4022-a5c2-2c0c81e43e5c"},"vehicle_type_id":"4","last_reported":1731089522,"current_range_meters":29600,"station_id":"cjm6bp8fraef2m0cb0m0","pricing_plan_id":"cebpf4jnsgd1na2vs0mg"},{"bike_id":"ca10a5c3-f3ce-4f91-8de9-8bcbe8db6bbe","system_id":"levelo_inurba_marseille","lat":43.24365,"lon":5.38591,"is_reserved":false,"is_disabled":false,"rental_uris":{"android":"levelo://app?vid=ca10a5c3-f3ce-4f91-8de9-8bcbe8db6bbe","ios":"levelo://app?vid=ca10a5c3-f3ce-4f91-8de9-8bcbe8db6bbe"},"vehicle_type_id":"4","last_reported":1731089522,"current_range_meters":27200,"station_id":"","pricing_plan_id":"cebpf4jnsgd1na2vs0mg"},{"bike_id":"0068481c-09a4-465d-a885-c578d3b25bf9","system_id":"levelo_inurba_marseille","lat":43.29419,"lon":5.38622,"is_reserved":false,"is_disabled":false,"rental_uris":{"android":"levelo://app?vid=0068481c-09a4-465d-a885-c578d3b25bf9","ios":"levelo://app?vid=0068481c-09a4-465d-a885-c578d3b25bf9"},"vehicle_type_id":"4","last_reported":1731089522,"current_range_meters":14400,"station_id":"ce4bh2h2rcd13ifvqdh0","pricing_plan_id":"cebpf4jnsgd1na2vs0mg"},{"bike_id":"8d7e5922-664a-4a28-aea6-8506137867d9","system_id":"levelo_inurba_marseille","lat":43.26219,"lon":5.3744,"is_reserved":false,"is_disabled":false,"rental_uris":{"android":"levelo://app?vid=8d7e5922-664a-4a28-aea6-8506137867d9","ios":"levelo://app?vid=8d7e5922-664a-4a28-aea6-8506137867d9"},"vehicle_type_id":"4","last_reported":1731089522,"current_range_meters":18000,"station_id":"ce4bhgp2rcd13ifvqfc0","pricing_plan_id":"cebpf4jnsgd1na2vs0mg"},{"bike_id":"9ba8d483-d204-4e3d-890f-93674895bc8d","system_id":"levelo_inurba_marseille","lat":43.26212,"lon":5.37441,"is_reserved":false,"is_disabled":false,"rental_uris":{"android":"levelo://app?vid=9ba8d483-d204-4e3d-890f-93674895bc8d","ios":"levelo://app?vid=9ba8d483-d204-4e3d-890f-93674895bc8d"},"vehicle_type_id":"4","last_reported":1731089522,"current_range_meters":8400,"station_id":"ce4bhgp2rcd13ifvqfc0","pricing_plan_id":"cebpf4jnsgd1na2vs0mg"},{"bike_id":"71bb50a1-6cdb-4a6f-b24c-1cbd7c603ad3","system_id":"levelo_inurba_marseille","lat":43.3142,"lon":5.37399,"is_reserved":false,"is_disabled":false,"rental_uris":{"android":"levelo://app?vid=71bb50a1-6cdb-4a6f-b24c-1cbd7c603ad3","ios":"levelo://app?vid=71bb50a1-6cdb-4a6f-b24c-1cbd7c603ad3"},"vehicle_type_id":"4","last_reported":1731089522,"current_range_meters":32400,"station_id":"","pricing_plan_id":"cebpf4jnsgd1na2vs0mg"},{"bike_id":"b4ad1abe-6669-4317-b6c7-ea7e704ed285","system_id":"levelo_inurba_marseille","lat":43.29582,"lon":5.36735,"is_reserved":false,"is_disabled":false,"rental_uris":{"android":"levelo://app?vid=b4ad1abe-6669-4317-b6c7-ea7e704ed285","ios":"levelo://app?vid=b4ad1abe-6669-4317-b6c7-ea7e704ed285"},"vehicle_type_id":"4","last_reported":1731089522,"current_range_meters":38800,"station_id":"ce4bgph2rcd13ifvqc2g","pricing_plan_id":"cebpf4jnsgd1na2vs0mg"},{"bike_id":"76f2ee1e-fb8c-4dac-9c34-f87df77e2be8","system_id":"levelo_inurba_marseille","lat":43.24652,"lon":5.38897,"is_reserved":false,"is_disabled":false,"rental_uris":{"android":"levelo://app?vid=76f2ee1e-fb8c-4dac-9c34-f87df77e2be8","ios":"levelo://app?vid=76f2ee1e-fb8c-4dac-9c34-f87df77e2be8"},"vehicle_type_id":"4","last_reported":1731089522,"current_range_meters":39200,"station_id":"ce4bhg12rcd13ifvqf60","pricing_plan_id":"cebpf4jnsgd1na2vs0mg"},{"bike_id":"b8fdd341-0697-41ca-82c9-e4253415f4e6","system_id":"levelo_inurba_marseille","lat":43.23055,"lon":5.35495,"is_reserved":false,"is_disabled":false,"rental_uris":{"android":"levelo://app?vid=b8fdd341-0697-41ca-82c9-e4253415f4e6","ios":"levelo://app?vid=b8fdd341-0697-41ca-82c9-e4253415f4e6"},"vehicle_type_id":"4","last_reported":1731089522,"current_range_meters":36400,"station_id":"cpo3342slgdg3j2ifvpg","pricing_plan_id":"cebpf4jnsgd1na2vs0mg"},{"bike_id":"24a12da2-832e-4d6f-b5c5-d09438e4e4f0","system_id":"levelo_inurba_marseille","lat":43.30141,"lon":5.38076,"is_reserved":false,"is_disabled":false,"rental_uris":{"android":"levelo://app?vid=24a12da2-832e-4d6f-b5c5-d09438e4e4f0","ios":"levelo://app?vid=24a12da2-832e-4d6f-b5c5-d09438e4e4f0"},"vehicle_type_id":"4","last_reported":1731089522,"current_range_meters":38000,"station_id":"ce4bgjp2rcd13ifvqbh0","pricing_plan_id":"cebpf4jnsgd1na2vs0mg"},{"bike_id":"7016691b-c8d7-471a-9151-0fbbdbe5a43b","system_id":"levelo_inurba_marseille","lat":43.29036,"lon":5.35921,"is_reserved":false,"is_disabled":false,"rental_uris":{"android":"levelo://app?vid=7016691b-c8d7-471a-9151-0fbbdbe5a43b","ios":"levelo://app?vid=7016691b-c8d7-471a-9151-0fbbdbe5a43b"},"vehicle_type_id":"4","last_reported":1731089522,"current_range_meters":6400,"station_id":"ce4bha92rcd13ifvqeg0","pricing_plan_id":"cebpf4jnsgd1na2vs0mg"},{"bike_id":"6a08c0a8-ecc8-4525-b88b-0f3d63adc692","system_id":"levelo_inurba_marseille","lat":43.27165,"lon":5.4099,"is_reserved":false,"is_disabled":false,"rental_uris":{"android":"levelo://app?vid=6a08c0a8-ecc8-4525-b88b-0f3d63adc692","ios":"levelo://app?vid=6a08c0a8-ecc8-4525-b88b-0f3d63adc692"},"vehicle_type_id":"4","last_reported":1731089522,"current_range_meters":4800,"station_id":"ce4bhl12rcd13ifvqgf0","pricing_plan_id":"cebpf4jnsgd1na2vs0mg"},{"bike_id":"0d275b9b-e259-44b2-a0ee-6d66d0f62c38","system_id":"levelo_inurba_marseille","lat":43.3131,"lon":5.38627,"is_reserved":false,"is_disabled":false,"rental_uris":{"android":"levelo://app?vid=0d275b9b-e259-44b2-a0ee-6d66d0f62c38","ios":"levelo://app?vid=0d275b9b-e259-44b2-a0ee-6d66d0f62c38"},"vehicle_type_id":"4","last_reported":1731089522,"current_range_meters":38000,"station_id":"ce4bgt92rcd13ifvqcf0","pricing_plan_id":"cebpf4jnsgd1na2vs0mg"},{"bike_id":"8c326b26-9203-4a12-8c49-2dc336785955","system_id":"levelo_inurba_marseille","lat":43.29531,"lon":5.3854,"is_reserved":false,"is_disabled":false,"rental_uris":{"android":"levelo://app?vid=8c326b26-9203-4a12-8c49-2dc336785955","ios":"levelo://app?vid=8c326b26-9203-4a12-8c49-2dc336785955"},"vehicle_type_id":"4","last_reported":1731089522,"current_range_meters":13600,"station_id":"ce4bgih2rcd13ifvqba0","pricing_plan_id":"cebpf4jnsgd1na2vs0mg"},{"bike_id":"10ecd8a8-ef58-4604-afc8-2f725c033169","system_id":"levelo_inurba_marseille","lat":43.28691,"lon":5.39987,"is_reserved":false,"is_disabled":false,"rental_uris":{"android":"levelo://app?vid=10ecd8a8-ef58-4604-afc8-2f725c033169","ios":"levelo://app?vid=10ecd8a8-ef58-4604-afc8-2f725c033169"},"vehicle_type_id":"4","last_reported":1731089522,"current_range_meters":16400,"station_id":"ce4bho92rcd13ifvqh3g","pricing_plan_id":"cebpf4jnsgd1na2vs0mg"},{"bike_id":"ec0eda0c-210f-4cfe-958c-a6add5fa5b45","system_id":"levelo_inurba_marseille","lat":43.29509,"lon":5.37503,"is_reserved":false,"is_disabled":false,"rental_uris":{"android":"levelo://app?vid=ec0eda0c-210f-4cfe-958c-a6add5fa5b45","ios":"levelo://app?vid=ec0eda0c-210f-4cfe-958c-a6add5fa5b45"},"vehicle_type_id":"4","last_reported":1731089522,"current_range_meters":38800,"station_id":"ce4bgkp2rcd13ifvqbmg","pricing_plan_id":"cebpf4jnsgd1na2vs0mg"},{"bike_id":"f97ddace-1e35-4c27-8ab1-e63f983a4b0f","system_id":"levelo_inurba_marseille","lat":43.29528,"lon":5.39047,"is_reserved":false,"is_disabled":false,"rental_uris":{"android":"levelo://app?vid=f97ddace-1e35-4c27-8ab1-e63f983a4b0f","ios":"levelo://app?vid=f97ddace-1e35-4c27-8ab1-e63f983a4b0f"},"vehicle_type_id":"4","last_reported":1731089522,"current_range_meters":38800,"station_id":"ce4bh3p2rcd13ifvqdp0","pricing_plan_id":"cebpf4jnsgd1na2vs0mg"},{"bike_id":"ac1ceaa2-30d9-46ba-979d-5486e08ff315","system_id":"levelo_inurba_marseille","lat":43.3171,"lon":5.43703,"is_reserved":false,"is_disabled":false,"rental_uris":{"android":"levelo://app?vid=ac1ceaa2-30d9-46ba-979d-5486e08ff315","ios":"levelo://app?vid=ac1ceaa2-30d9-46ba-979d-5486e08ff315"},"vehicle_type_id":"4","last_reported":1731089522,"current_range_meters":10000,"station_id":"ce4bhp92rcd13ifvqhcg","pricing_plan_id":"cebpf4jnsgd1na2vs0mg"},{"bike_id":"84734344-4100-498f-90db-13a43f921e51","system_id":"levelo_inurba_marseille","lat":43.29621,"lon":5.37152,"is_reserved":false,"is_disabled":false,"rental_uris":{"android":"levelo://app?vid=84734344-4100-498f-90db-13a43f921e51","ios":"levelo://app?vid=84734344-4100-498f-90db-13a43f921e51"},"vehicle_type_id":"4","last_reported":1731089522,"current_range_meters":28400,"station_id":"ce4bgnh2rcd13ifvqc0g","pricing_plan_id":"cebpf4jnsgd1na2vs0mg"},{"bike_id":"82bcb5cc-eff7-40fa-ae6c-a3c17f56dccf","system_id":"levelo_inurba_marseille","lat":43.31995,"lon":5.3815,"is_reserved":false,"is_disabled":false,"rental_uris":{"android":"levelo://app?vid=82bcb5cc-eff7-40fa-ae6c-a3c17f56dccf","ios":"levelo://app?vid=82bcb5cc-eff7-40fa-ae6c-a3c17f56dccf"},"vehicle_type_id":"4","last_reported":1731089522,"current_range_meters":14800,"station_id":"ce4bhr12rcd13ifvqhpg","pricing_plan_id":"cebpf4jnsgd1na2vs0mg"},{"bike_id":"a77d95f8-1237-461c-b90c-b3583a177300","system_id":"levelo_inurba_marseille","lat":43.29187,"lon":5.39327,"is_reserved":false,"is_disabled":false,"rental_uris":{"android":"levelo://app?vid=a77d95f8-1237-461c-b90c-b3583a177300","ios":"levelo://app?vid=a77d95f8-1237-461c-b90c-b3583a177300"},"vehicle_type_id":"4","last_reported":1731089522,"current_range_meters":37600,"station_id":"ce4bh192rcd13ifvqdd0","pricing_plan_id":"cebpf4jnsgd1na2vs0mg"},{"bike_id":"a209540f-9864-4234-9442-19e2c4083f97","system_id":"levelo_inurba_marseille","lat":43.26955,"lon":5.38637,"is_reserved":false,"is_disabled":false,"rental_uris":{"android":"levelo://app?vid=a209540f-9864-4234-9442-19e2c4083f97","ios":"levelo://app?vid=a209540f-9864-4234-9442-19e2c4083f97"},"vehicle_type_id":"4","last_reported":1731089522,"current_range_meters":24800,"station_id":"ce4bhh92rcd13ifvqfh0","pricing_plan_id":"cebpf4jnsgd1na2vs0mg"},{"bike_id":"be074bbf-7203-48e7-a1b1-50a075eef0c3","system_id":"levelo_inurba_marseille","lat":43.28428,"lon":5.39178,"is_reserved":false,"is_disabled":false,"rental_uris":{"android":"levelo://app?vid=be074bbf-7203-48e7-a1b1-50a075eef0c3","ios":"levelo://app?vid=be074bbf-7203-48e7-a1b1-50a075eef0c3"},"vehicle_type_id":"4","last_reported":1731089522,"current_range_meters":36400,"station_id":"ce4bhoh2rcd13ifvqh5g","pricing_plan_id":"cebpf4jnsgd1na2vs0mg"},{"bike_id":"bc2d6971-e395-4768-9fc5-d20d0fa99369","system_id":"levelo_inurba_marseille","lat":43.28002,"lon":5.40017,"is_reserved":false,"is_disabled":false,"rental_uris":{"android":"levelo://app?vid=bc2d6971-e395-4768-9fc5-d20d0fa99369","ios":"levelo://app?vid=bc2d6971-e395-4768-9fc5-d20d0fa99369"},"vehicle_type_id":"4","last_reported":1731089522,"current_range_meters":19200,"station_id":"ce4bho92rcd13ifvqh4g","pricing_plan_id":"cebpf4jnsgd1na2vs0mg"},{"bike_id":"2a1f2b15-e51a-4a08-958c-9704bd56602b","system_id":"levelo_inurba_marseille","lat":43.26804,"lon":5.4027,"is_reserved":false,"is_disabled":false,"rental_uris":{"android":"levelo://app?vid=2a1f2b15-e51a-4a08-958c-9704bd56602b","ios":"levelo://app?vid=2a1f2b15-e51a-4a08-958c-9704bd56602b"},"vehicle_type_id":"4","last_reported":1731089522,"current_range_meters":8800,"station_id":"ce501612rcd8frsf0b60","pricing_plan_id":"cebpf4jnsgd1na2vs0mg"},{"bike_id":"6b288fb1-1214-43c1-b5eb-74f4c2f2ed32","system_id":"levelo_inurba_marseille","lat":43.27667,"lon":5.3889,"is_reserved":false,"is_disabled":false,"rental_uris":{"android":"levelo://app?vid=6b288fb1-1214-43c1-b5eb-74f4c2f2ed32","ios":"levelo://app?vid=6b288fb1-1214-43c1-b5eb-74f4c2f2ed32"},"vehicle_type_id":"4","last_reported":1731089522,"current_range_meters":4800,"station_id":"ce4bhi12rcd13ifvqfo0","pricing_plan_id":"cebpf4jnsgd1na2vs0mg"},{"bike_id":"9081b6f2-e6de-46d1-ae74-38a20d6b6e98","system_id":"levelo_inurba_marseille","lat":43.30323,"lon":5.40439,"is_reserved":false,"is_disabled":false,"rental_uris":{"android":"levelo://app?vid=9081b6f2-e6de-46d1-ae74-38a20d6b6e98","ios":"levelo://app?vid=9081b6f2-e6de-46d1-ae74-38a20d6b6e98"},"vehicle_type_id":"4","last_reported":1731089522,"current_range_meters":38000,"station_id":"ce4bh012rcd13ifvqd10","pricing_plan_id":"cebpf4jnsgd1na2vs0mg"},{"bike_id":"d0d7f828-bd04-4608-b04e-888aeb08a5a6","system_id":"levelo_inurba_marseille","lat":43.27059,"lon":5.40261,"is_reserved":false,"is_disabled":false,"rental_uris":{"android":"levelo://app?vid=d0d7f828-bd04-4608-b04e-888aeb08a5a6","ios":"levelo://app?vid=d0d7f828-bd04-4608-b04e-888aeb08a5a6"},"vehicle_type_id":"4","last_reported":1731089522,"current_range_meters":8000,"station_id":"ce4bhk92rcd13ifvqgc0","pricing_plan_id":"cebpf4jnsgd1na2vs0mg"},{"bike_id":"85814a9b-d211-4910-b1cd-6799a6d7bfd7","system_id":"levelo_inurba_marseille","lat":43.3136,"lon":5.38487,"is_reserved":false,"is_disabled":false,"rental_uris":{"android":"levelo://app?vid=85814a9b-d211-4910-b1cd-6799a6d7bfd7","ios":"levelo://app?vid=85814a9b-d211-4910-b1cd-6799a6d7bfd7"},"vehicle_type_id":"4","last_reported":1731089522,"current_range_meters":28000,"station_id":"ce4bgt92rcd13ifvqcf0","pricing_plan_id":"cebpf4jnsgd1na2vs0mg"},{"bike_id":"f2b88fdd-2e0b-4b5e-888c-35155555732c","system_id":"levelo_inurba_marseille","lat":43.31998,"lon":5.38148,"is_reserved":false,"is_disabled":false,"rental_uris":{"android":"levelo://app?vid=f2b88fdd-2e0b-4b5e-888c-35155555732c","ios":"levelo://app?vid=f2b88fdd-2e0b-4b5e-888c-35155555732c"},"vehicle_type_id":"4","last_reported":1731089522,"current_range_meters":40000,"station_id":"ce4bhr12rcd13ifvqhpg","pricing_plan_id":"cebpf4jnsgd1na2vs0mg"},{"bike_id":"6620e73e-63eb-4fc6-8f54-cfecf7ecd726","system_id":"levelo_inurba_marseille","lat":43.27998,"lon":5.40018,"is_reserved":false,"is_disabled":false,"rental_uris":{"android":"levelo://app?vid=6620e73e-63eb-4fc6-8f54-cfecf7ecd726","ios":"levelo://app?vid=6620e73e-63eb-4fc6-8f54-cfecf7ecd726"},"vehicle_type_id":"4","last_reported":1731089522,"current_range_meters":8800,"station_id":"ce4bho92rcd13ifvqh4g","pricing_plan_id":"cebpf4jnsgd1na2vs0mg"},{"bike_id":"b9478b1d-79e3-44c9-ae60-496dd5151f62","system_id":"levelo_inurba_marseille","lat":43.2916,"lon":5.37149,"is_reserved":false,"is_disabled":false,"rental_uris":{"android":"levelo://app?vid=b9478b1d-79e3-44c9-ae60-496dd5151f62","ios":"levelo://app?vid=b9478b1d-79e3-44c9-ae60-496dd5151f62"},"vehicle_type_id":"4","last_reported":1731089522,"current_range_meters":38800,"station_id":"ce4bha92rcd13ifvqeh0","pricing_plan_id":"cebpf4jnsgd1na2vs0mg"},{"bike_id":"95968349-5027-4e10-ac9b-ca438a9f9b6a","system_id":"levelo_inurba_marseille","lat":43.28724,"lon":5.36083,"is_reserved":false,"is_disabled":false,"rental_uris":{"android":"levelo://app?vid=95968349-5027-4e10-ac9b-ca438a9f9b6a","ios":"levelo://app?vid=95968349-5027-4e10-ac9b-ca438a9f9b6a"},"vehicle_type_id":"4","last_reported":1731089522,"current_range_meters":22800,"station_id":"cki0cbj6b192h4jlfktg","pricing_plan_id":"cebpf4jnsgd1na2vs0mg"},{"bike_id":"98f9be71-7dcc-4da8-9f77-582b7ba7bbb2","system_id":"levelo_inurba_marseille","lat":43.29208,"lon":5.36048,"is_reserved":false,"is_disabled":false,"rental_uris":{"android":"levelo://app?vid=98f9be71-7dcc-4da8-9f77-582b7ba7bbb2","ios":"levelo://app?vid=98f9be71-7dcc-4da8-9f77-582b7ba7bbb2"},"vehicle_type_id":"4","last_reported":1731089522,"current_range_meters":20000,"station_id":"ce4bhbh2rcd13ifvqeqg","pricing_plan_id":"cebpf4jnsgd1na2vs0mg"},{"bike_id":"319fd376-89aa-470d-b030-d573ff0139e4","system_id":"levelo_inurba_marseille","lat":43.30783,"lon":5.37654,"is_reserved":false,"is_disabled":false,"rental_uris":{"android":"levelo://app?vid=319fd376-89aa-470d-b030-d573ff0139e4","ios":"levelo://app?vid=319fd376-89aa-470d-b030-d573ff0139e4"},"vehicle_type_id":"4","last_reported":1731089522,"current_range_meters":36400,"station_id":"ce4bgv92rcd13ifvqcq0","pricing_plan_id":"cebpf4jnsgd1na2vs0mg"},{"bike_id":"15c06ec2-8886-4853-a709-112ff7753c28","system_id":"levelo_inurba_marseille","lat":43.31363,"lon":5.38493,"is_reserved":false,"is_disabled":false,"rental_uris":{"android":"levelo://app?vid=15c06ec2-8886-4853-a709-112ff7753c28","ios":"levelo://app?vid=15c06ec2-8886-4853-a709-112ff7753c28"},"vehicle_type_id":"4","last_reported":1731089522,"current_range_meters":9600,"station_id":"ce4bgt92rcd13ifvqcf0","pricing_plan_id":"cebpf4jnsgd1na2vs0mg"},{"bike_id":"d070148f-8ecc-4c75-8cb1-c8bc85f50390","system_id":"levelo_inurba_marseille","lat":43.33021,"lon":5.39044,"is_reserved":false,"is_disabled":false,"rental_uris":{"android":"levelo://app?vid=d070148f-8ecc-4c75-8cb1-c8bc85f50390","ios":"levelo://app?vid=d070148f-8ecc-4c75-8cb1-c8bc85f50390"},"vehicle_type_id":"4","last_reported":1731089522,"current_range_meters":14800,"station_id":"ce4bhr92rcd13ifvqhrg","pricing_plan_id":"cebpf4jnsgd1na2vs0mg"},{"bike_id":"49802e5d-6e7d-4d65-ade0-af9d690a65b9","system_id":"levelo_inurba_marseille","lat":43.27819,"lon":5.40718,"is_reserved":false,"is_disabled":false,"rental_uris":{"android":"levelo://app?vid=49802e5d-6e7d-4d65-ade0-af9d690a65b9","ios":"levelo://app?vid=49802e5d-6e7d-4d65-ade0-af9d690a65b9"},"vehicle_type_id":"4","last_reported":1731089522,"current_range_meters":22800,"station_id":"ce4bhnh2rcd13ifvqgtg","pricing_plan_id":"cebpf4jnsgd1na2vs0mg"},{"bike_id":"29824cde-4cdc-4355-9b22-a5922a403deb","system_id":"levelo_inurba_marseille","lat":43.337444,"lon":5.374475,"is_reserved":false,"is_disabled":false,"rental_uris":{"android":"levelo://app?vid=29824cde-4cdc-4355-9b22-a5922a403deb","ios":"levelo://app?vid=29824cde-4cdc-4355-9b22-a5922a403deb"},"vehicle_type_id":"4","last_reported":1731089522,"current_range_meters":36800,"station_id":"","pricing_plan_id":"cebpf4jnsgd1na2vs0mg"},{"bike_id":"136548bd-9b2c-4d98-84ce-36d39467f2b3","system_id":"levelo_inurba_marseille","lat":43.26942,"lon":5.40246,"is_reserved":false,"is_disabled":false,"rental_uris":{"android":"levelo://app?vid=136548bd-9b2c-4d98-84ce-36d39467f2b3","ios":"levelo://app?vid=136548bd-9b2c-4d98-84ce-36d39467f2b3"},"vehicle_type_id":"4","last_reported":1731089522,"current_range_meters":22800,"station_id":"cjm6bp8fraef2m0cb0m0","pricing_plan_id":"cebpf4jnsgd1na2vs0mg"},{"bike_id":"745a84a0-f018-4505-8db9-c9b78e133649","system_id":"levelo_inurba_marseille","lat":43.27205,"lon":5.39175,"is_reserved":false,"is_disabled":false,"rental_uris":{"android":"levelo://app?vid=745a84a0-f018-4505-8db9-c9b78e133649","ios":"levelo://app?vid=745a84a0-f018-4505-8db9-c9b78e133649"},"vehicle_type_id":"4","last_reported":1731089522,"current_range_meters":32800,"station_id":"ce4bhhp2rcd13ifvqfm0","pricing_plan_id":"cebpf4jnsgd1na2vs0mg"},{"bike_id":"eccb9bf1-4a0c-4df5-8229-bf46f21c4329","system_id":"levelo_inurba_marseille","lat":43.31717,"lon":5.42407,"is_reserved":false,"is_disabled":false,"rental_uris":{"android":"levelo://app?vid=eccb9bf1-4a0c-4df5-8229-bf46f21c4329","ios":"levelo://app?vid=eccb9bf1-4a0c-4df5-8229-bf46f21c4329"},"vehicle_type_id":"4","last_reported":1731089522,"current_range_meters":36800,"station_id":"ce4bhp92rcd13ifvqhbg","pricing_plan_id":"cebpf4jnsgd1na2vs0mg"},{"bike_id":"ef288286-229d-4b9a-a189-8d61840dcffb","system_id":"levelo_inurba_marseille","lat":43.23189,"lon":5.35548,"is_reserved":false,"is_disabled":false,"rental_uris":{"android":"levelo://app?vid=ef288286-229d-4b9a-a189-8d61840dcffb","ios":"levelo://app?vid=ef288286-229d-4b9a-a189-8d61840dcffb"},"vehicle_type_id":"4","last_reported":1731089522,"current_range_meters":37600,"station_id":"ce4bhu92rcd13ifvqi70","pricing_plan_id":"cebpf4jnsgd1na2vs0mg"},{"bike_id":"68a16cb1-5aff-45bf-9786-11e01f81ed1f","system_id":"levelo_inurba_marseille","lat":43.26211,"lon":5.37444,"is_reserved":false,"is_disabled":false,"rental_uris":{"android":"levelo://app?vid=68a16cb1-5aff-45bf-9786-11e01f81ed1f","ios":"levelo://app?vid=68a16cb1-5aff-45bf-9786-11e01f81ed1f"},"vehicle_type_id":"4","last_reported":1731089522,"current_range_meters":37600,"station_id":"ce4bhgp2rcd13ifvqfc0","pricing_plan_id":"cebpf4jnsgd1na2vs0mg"},{"bike_id":"886c5890-2348-46d7-aae9-e41e14c2a41f","system_id":"levelo_inurba_marseille","lat":43.27993,"lon":5.40026,"is_reserved":false,"is_disabled":false,"rental_uris":{"android":"levelo://app?vid=886c5890-2348-46d7-aae9-e41e14c2a41f","ios":"levelo://app?vid=886c5890-2348-46d7-aae9-e41e14c2a41f"},"vehicle_type_id":"4","last_reported":1731089522,"current_range_meters":4800,"station_id":"ce4bho92rcd13ifvqh4g","pricing_plan_id":"cebpf4jnsgd1na2vs0mg"},{"bike_id":"7a0d5c10-0173-4a9a-aa0b-524b71bb97ce","system_id":"levelo_inurba_marseille","lat":43.29046,"lon":5.35917,"is_reserved":false,"is_disabled":false,"rental_uris":{"android":"levelo://app?vid=7a0d5c10-0173-4a9a-aa0b-524b71bb97ce","ios":"levelo://app?vid=7a0d5c10-0173-4a9a-aa0b-524b71bb97ce"},"vehicle_type_id":"4","last_reported":1731089522,"current_range_meters":26000,"station_id":"ce4bha92rcd13ifvqeg0","pricing_plan_id":"cebpf4jnsgd1na2vs0mg"},{"bike_id":"ceea8b49-f236-47cb-892a-446d20dffcf5","system_id":"levelo_inurba_marseille","lat":43.25819,"lon":5.39436,"is_reserved":false,"is_disabled":false,"rental_uris":{"android":"levelo://app?vid=ceea8b49-f236-47cb-892a-446d20dffcf5","ios":"levelo://app?vid=ceea8b49-f236-47cb-892a-446d20dffcf5"},"vehicle_type_id":"4","last_reported":1731089522,"current_range_meters":34000,"station_id":"ce4bhip2rcd13ifvqft0","pricing_plan_id":"cebpf4jnsgd1na2vs0mg"},{"bike_id":"5b5df625-091a-48ae-a114-d616b146cb56","system_id":"levelo_inurba_marseille","lat":43.29837,"lon":5.36267,"is_reserved":false,"is_disabled":false,"rental_uris":{"android":"levelo://app?vid=5b5df625-091a-48ae-a114-d616b146cb56","ios":"levelo://app?vid=5b5df625-091a-48ae-a114-d616b146cb56"},"vehicle_type_id":"4","last_reported":1731089522,"current_range_meters":38400,"station_id":"ce4bgpp2rcd13ifvqc3g","pricing_plan_id":"cebpf4jnsgd1na2vs0mg"},{"bike_id":"85868553-6387-4362-8f5e-9e1ccc32efdd","system_id":"levelo_inurba_marseille","lat":43.30891,"lon":5.37186,"is_reserved":false,"is_disabled":false,"rental_uris":{"android":"levelo://app?vid=85868553-6387-4362-8f5e-9e1ccc32efdd","ios":"levelo://app?vid=85868553-6387-4362-8f5e-9e1ccc32efdd"},"vehicle_type_id":"4","last_reported":1731089522,"current_range_meters":5600,"station_id":"ce4bguh2rcd13ifvqckg","pricing_plan_id":"cebpf4jnsgd1na2vs0mg"},{"bike_id":"45421d28-9850-4beb-9674-e7f78c23d387","system_id":"levelo_inurba_marseille","lat":43.30782,"lon":5.37654,"is_reserved":false,"is_disabled":false,"rental_uris":{"android":"levelo://app?vid=45421d28-9850-4beb-9674-e7f78c23d387","ios":"levelo://app?vid=45421d28-9850-4beb-9674-e7f78c23d387"},"vehicle_type_id":"4","last_reported":1731089522,"current_range_meters":39200,"station_id":"ce4bgv92rcd13ifvqcq0","pricing_plan_id":"cebpf4jnsgd1na2vs0mg"},{"bike_id":"37cbea81-cd52-4d51-b897-93a27b07082a","system_id":"levelo_inurba_marseille","lat":43.29526,"lon":5.38559,"is_reserved":false,"is_disabled":false,"rental_uris":{"android":"levelo://app?vid=37cbea81-cd52-4d51-b897-93a27b07082a","ios":"levelo://app?vid=37cbea81-cd52-4d51-b897-93a27b07082a"},"vehicle_type_id":"4","last_reported":1731089522,"current_range_meters":26800,"station_id":"ce4bgih2rcd13ifvqba0","pricing_plan_id":"cebpf4jnsgd1na2vs0mg"},{"bike_id":"c0b0244e-d43e-46aa-a1c9-86c34fd228aa","system_id":"levelo_inurba_marseille","lat":43.31492,"lon":5.37314,"is_reserved":false,"is_disabled":false,"rental_uris":{"android":"levelo://app?vid=c0b0244e-d43e-46aa-a1c9-86c34fd228aa","ios":"levelo://app?vid=c0b0244e-d43e-46aa-a1c9-86c34fd228aa"},"vehicle_type_id":"4","last_reported":1731089522,"current_range_meters":31200,"station_id":"ce4bgt12rcd13ifvqcd0","pricing_plan_id":"cebpf4jnsgd1na2vs0mg"},{"bike_id":"841c9df1-f0db-4c1b-b9a9-575f56c5769d","system_id":"levelo_inurba_marseille","lat":43.29196,"lon":5.39324,"is_reserved":false,"is_disabled":false,"rental_uris":{"android":"levelo://app?vid=841c9df1-f0db-4c1b-b9a9-575f56c5769d","ios":"levelo://app?vid=841c9df1-f0db-4c1b-b9a9-575f56c5769d"},"vehicle_type_id":"4","last_reported":1731089522,"current_range_meters":37600,"station_id":"ce4bh192rcd13ifvqdd0","pricing_plan_id":"cebpf4jnsgd1na2vs0mg"},{"bike_id":"8faa22dc-5f3c-4af6-b84b-f554e09d6313","system_id":"levelo_inurba_marseille","lat":43.337444,"lon":5.374475,"is_reserved":false,"is_disabled":false,"rental_uris":{"android":"levelo://app?vid=8faa22dc-5f3c-4af6-b84b-f554e09d6313","ios":"levelo://app?vid=8faa22dc-5f3c-4af6-b84b-f554e09d6313"},"vehicle_type_id":"4","last_reported":1731089522,"current_range_meters":36800,"station_id":"","pricing_plan_id":"cebpf4jnsgd1na2vs0mg"},{"bike_id":"61892a9e-576b-4a39-a5c5-aa7b307c3d49","system_id":"levelo_inurba_marseille","lat":43.27995,"lon":5.40011,"is_reserved":false,"is_disabled":false,"rental_uris":{"android":"levelo://app?vid=61892a9e-576b-4a39-a5c5-aa7b307c3d49","ios":"levelo://app?vid=61892a9e-576b-4a39-a5c5-aa7b307c3d49"},"vehicle_type_id":"4","last_reported":1731089522,"current_range_meters":19600,"station_id":"ce4bho92rcd13ifvqh4g","pricing_plan_id":"cebpf4jnsgd1na2vs0mg"},{"bike_id":"804d1eeb-66c6-4c53-84af-991639b68540","system_id":"levelo_inurba_marseille","lat":43.29538,"lon":5.38551,"is_reserved":false,"is_disabled":false,"rental_uris":{"android":"levelo://app?vid=804d1eeb-66c6-4c53-84af-991639b68540","ios":"levelo://app?vid=804d1eeb-66c6-4c53-84af-991639b68540"},"vehicle_type_id":"4","last_reported":1731089522,"current_range_meters":38000,"station_id":"ce4bgih2rcd13ifvqba0","pricing_plan_id":"cebpf4jnsgd1na2vs0mg"},{"bike_id":"dee76a84-a568-43ea-9d78-a3ea36150b1b","system_id":"levelo_inurba_marseille","lat":43.29524,"lon":5.38544,"is_reserved":false,"is_disabled":false,"rental_uris":{"android":"levelo://app?vid=dee76a84-a568-43ea-9d78-a3ea36150b1b","ios":"levelo://app?vid=dee76a84-a568-43ea-9d78-a3ea36150b1b"},"vehicle_type_id":"4","last_reported":1731089522,"current_range_meters":32800,"station_id":"ce4bgih2rcd13ifvqba0","pricing_plan_id":"cebpf4jnsgd1na2vs0mg"},{"bike_id":"9d25b132-f12e-450b-a40d-5382e2d356c0","system_id":"levelo_inurba_marseille","lat":43.31684,"lon":5.40472,"is_reserved":false,"is_disabled":false,"rental_uris":{"android":"levelo://app?vid=9d25b132-f12e-450b-a40d-5382e2d356c0","ios":"levelo://app?vid=9d25b132-f12e-450b-a40d-5382e2d356c0"},"vehicle_type_id":"4","last_reported":1731089522,"current_range_meters":24000,"station_id":"ce4bh012rcd13ifvqd00","pricing_plan_id":"cebpf4jnsgd1na2vs0mg"},{"bike_id":"fb518929-e532-41e2-983e-4932da68ae12","system_id":"levelo_inurba_marseille","lat":43.31703,"lon":5.37782,"is_reserved":false,"is_disabled":false,"rental_uris":{"android":"levelo://app?vid=fb518929-e532-41e2-983e-4932da68ae12","ios":"levelo://app?vid=fb518929-e532-41e2-983e-4932da68ae12"},"vehicle_type_id":"4","last_reported":1731089522,"current_range_meters":39200,"station_id":"ce4bgth2rcd13ifvqch0","pricing_plan_id":"cebpf4jnsgd1na2vs0mg"},{"bike_id":"1191d7e6-0667-42a4-bc33-879db03261a5","system_id":"levelo_inurba_marseille","lat":43.28918,"lon":5.38385,"is_reserved":false,"is_disabled":false,"rental_uris":{"android":"levelo://app?vid=1191d7e6-0667-42a4-bc33-879db03261a5","ios":"levelo://app?vid=1191d7e6-0667-42a4-bc33-879db03261a5"},"vehicle_type_id":"4","last_reported":1731089522,"current_range_meters":38800,"station_id":"ce4bh612rcd13ifvqe6g","pricing_plan_id":"cebpf4jnsgd1na2vs0mg"},{"bike_id":"78a9be90-0f6f-4c51-b469-e728184e5e69","system_id":"levelo_inurba_marseille","lat":43.27209,"lon":5.39184,"is_reserved":false,"is_disabled":false,"rental_uris":{"android":"levelo://app?vid=78a9be90-0f6f-4c51-b469-e728184e5e69","ios":"levelo://app?vid=78a9be90-0f6f-4c51-b469-e728184e5e69"},"vehicle_type_id":"4","last_reported":1731089522,"current_range_meters":3200,"station_id":"ce4bhhp2rcd13ifvqfm0","pricing_plan_id":"cebpf4jnsgd1na2vs0mg"},{"bike_id":"1f3ba906-6e07-4370-b207-43e1aae1c14a","system_id":"levelo_inurba_marseille","lat":43.31359,"lon":5.36715,"is_reserved":false,"is_disabled":false,"rental_uris":{"android":"levelo://app?vid=1f3ba906-6e07-4370-b207-43e1aae1c14a","ios":"levelo://app?vid=1f3ba906-6e07-4370-b207-43e1aae1c14a"},"vehicle_type_id":"4","last_reported":1731089522,"current_range_meters":10800,"station_id":"ce4bgr92rcd13ifvqc6g","pricing_plan_id":"cebpf4jnsgd1na2vs0mg"},{"bike_id":"247e16c7-8d65-41bd-a6b6-170618544447","system_id":"levelo_inurba_marseille","lat":43.29698,"lon":5.37692,"is_reserved":false,"is_disabled":false,"rental_uris":{"android":"levelo://app?vid=247e16c7-8d65-41bd-a6b6-170618544447","ios":"levelo://app?vid=247e16c7-8d65-41bd-a6b6-170618544447"},"vehicle_type_id":"4","last_reported":1731089522,"current_range_meters":5600,"station_id":"ce4bgkh2rcd13ifvqbl0","pricing_plan_id":"cebpf4jnsgd1na2vs0mg"},{"bike_id":"8b792342-90e2-45c5-8153-6444b1c3d7cd","system_id":"levelo_inurba_marseille","lat":43.2953,"lon":5.3855,"is_reserved":false,"is_disabled":false,"rental_uris":{"android":"levelo://app?vid=8b792342-90e2-45c5-8153-6444b1c3d7cd","ios":"levelo://app?vid=8b792342-90e2-45c5-8153-6444b1c3d7cd"},"vehicle_type_id":"4","last_reported":1731089522,"current_range_meters":38800,"station_id":"ce4bgih2rcd13ifvqba0","pricing_plan_id":"cebpf4jnsgd1na2vs0mg"},{"bike_id":"d6fdae69-642e-4d84-a8fd-edeb75ed0ef4","system_id":"levelo_inurba_marseille","lat":43.22932,"lon":5.35376,"is_reserved":false,"is_disabled":false,"rental_uris":{"android":"levelo://app?vid=d6fdae69-642e-4d84-a8fd-edeb75ed0ef4","ios":"levelo://app?vid=d6fdae69-642e-4d84-a8fd-edeb75ed0ef4"},"vehicle_type_id":"4","last_reported":1731089522,"current_range_meters":40000,"station_id":"cpo3532slgdg3j2ikp40","pricing_plan_id":"cebpf4jnsgd1na2vs0mg"},{"bike_id":"d1f91482-6dd3-42d8-bdfe-55d1874ef8bf","system_id":"levelo_inurba_marseille","lat":43.29966,"lon":5.37165,"is_reserved":false,"is_disabled":false,"rental_uris":{"android":"levelo://app?vid=d1f91482-6dd3-42d8-bdfe-55d1874ef8bf","ios":"levelo://app?vid=d1f91482-6dd3-42d8-bdfe-55d1874ef8bf"},"vehicle_type_id":"4","last_reported":1731089522,"current_range_meters":36000,"station_id":"ce4bgr92rcd13ifvqc7g","pricing_plan_id":"cebpf4jnsgd1na2vs0mg"},{"bike_id":"f4038458-c843-40a8-94ee-f3dea8c5581e","system_id":"levelo_inurba_marseille","lat":43.269623,"lon":5.386493,"is_reserved":false,"is_disabled":false,"rental_uris":{"android":"levelo://app?vid=f4038458-c843-40a8-94ee-f3dea8c5581e","ios":"levelo://app?vid=f4038458-c843-40a8-94ee-f3dea8c5581e"},"vehicle_type_id":"4","last_reported":1731089522,"current_range_meters":12400,"station_id":"ce4bhh92rcd13ifvqfh0","pricing_plan_id":"cebpf4jnsgd1na2vs0mg"},{"bike_id":"86d64521-d332-4842-b4fb-5fa4820d8c81","system_id":"levelo_inurba_marseille","lat":43.337444,"lon":5.374475,"is_reserved":false,"is_disabled":false,"rental_uris":{"android":"levelo://app?vid=86d64521-d332-4842-b4fb-5fa4820d8c81","ios":"levelo://app?vid=86d64521-d332-4842-b4fb-5fa4820d8c81"},"vehicle_type_id":"4","last_reported":1731089522,"current_range_meters":36400,"station_id":"","pricing_plan_id":"cebpf4jnsgd1na2vs0mg"},{"bike_id":"516fd39d-7578-49d1-bf84-850c48ca7346","system_id":"levelo_inurba_marseille","lat":43.28456,"lon":5.35885,"is_reserved":false,"is_disabled":false,"rental_uris":{"android":"levelo://app?vid=516fd39d-7578-49d1-bf84-850c48ca7346","ios":"levelo://app?vid=516fd39d-7578-49d1-bf84-850c48ca7346"},"vehicle_type_id":"4","last_reported":1731089522,"current_range_meters":19600,"station_id":"ce4bhah2rcd13ifvqei0","pricing_plan_id":"cebpf4jnsgd1na2vs0mg"},{"bike_id":"9339624b-a7de-4ced-aafd-d10e1475cd3f","system_id":"levelo_inurba_marseille","lat":43.28619,"lon":5.35109,"is_reserved":false,"is_disabled":false,"rental_uris":{"android":"levelo://app?vid=9339624b-a7de-4ced-aafd-d10e1475cd3f","ios":"levelo://app?vid=9339624b-a7de-4ced-aafd-d10e1475cd3f"},"vehicle_type_id":"4","last_reported":1731089522,"current_range_meters":28800,"station_id":"ce4bhch2rcd13ifvqeug","pricing_plan_id":"cebpf4jnsgd1na2vs0mg"},{"bike_id":"561dcda3-b315-468a-84a8-7bb4d296bc0c","system_id":"levelo_inurba_marseille","lat":43.29583,"lon":5.36745,"is_reserved":false,"is_disabled":false,"rental_uris":{"android":"levelo://app?vid=561dcda3-b315-468a-84a8-7bb4d296bc0c","ios":"levelo://app?vid=561dcda3-b315-468a-84a8-7bb4d296bc0c"},"vehicle_type_id":"4","last_reported":1731089522,"current_range_meters":14800,"station_id":"ce4bgph2rcd13ifvqc2g","pricing_plan_id":"cebpf4jnsgd1na2vs0mg"},{"bike_id":"448d3bf9-78cb-439a-a23b-0e48f1b89013","system_id":"levelo_inurba_marseille","lat":43.32379,"lon":5.38894,"is_reserved":false,"is_disabled":false,"rental_uris":{"android":"levelo://app?vid=448d3bf9-78cb-439a-a23b-0e48f1b89013","ios":"levelo://app?vid=448d3bf9-78cb-439a-a23b-0e48f1b89013"},"vehicle_type_id":"4","last_reported":1731089522,"current_range_meters":16000,"station_id":"ce4bhqp2rcd13ifvqhog","pricing_plan_id":"cebpf4jnsgd1na2vs0mg"},{"bike_id":"fb207ced-9890-41a9-a46d-1a26b4561f10","system_id":"levelo_inurba_marseille","lat":43.26027,"lon":5.3755,"is_reserved":false,"is_disabled":false,"rental_uris":{"android":"levelo://app?vid=fb207ced-9890-41a9-a46d-1a26b4561f10","ios":"levelo://app?vid=fb207ced-9890-41a9-a46d-1a26b4561f10"},"vehicle_type_id":"4","last_reported":1731089522,"current_range_meters":35600,"station_id":"ce4bhgh2rcd13ifvqfa0","pricing_plan_id":"cebpf4jnsgd1na2vs0mg"},{"bike_id":"30c759a2-6df1-49dd-8b4a-2f09b3c85fab","system_id":"levelo_inurba_marseille","lat":43.2811,"lon":5.37836,"is_reserved":false,"is_disabled":false,"rental_uris":{"android":"levelo://app?vid=30c759a2-6df1-49dd-8b4a-2f09b3c85fab","ios":"levelo://app?vid=30c759a2-6df1-49dd-8b4a-2f09b3c85fab"},"vehicle_type_id":"4","last_reported":1731089522,"current_range_meters":26800,"station_id":"ce4bha12rcd13ifvqee0","pricing_plan_id":"cebpf4jnsgd1na2vs0mg"},{"bike_id":"4c8a1a93-4a1b-41c8-94d5-8d409c897b25","system_id":"levelo_inurba_marseille","lat":43.30412,"lon":5.41289,"is_reserved":false,"is_disabled":false,"rental_uris":{"android":"levelo://app?vid=4c8a1a93-4a1b-41c8-94d5-8d409c897b25","ios":"levelo://app?vid=4c8a1a93-4a1b-41c8-94d5-8d409c897b25"},"vehicle_type_id":"4","last_reported":1731089522,"current_range_meters":38400,"station_id":"ce4bhop2rcd13ifvqh8g","pricing_plan_id":"cebpf4jnsgd1na2vs0mg"},{"bike_id":"48fd39dd-f494-45be-a9cd-d4152e1881fe","system_id":"levelo_inurba_marseille","lat":43.27179,"lon":5.40992,"is_reserved":false,"is_disabled":false,"rental_uris":{"android":"levelo://app?vid=48fd39dd-f494-45be-a9cd-d4152e1881fe","ios":"levelo://app?vid=48fd39dd-f494-45be-a9cd-d4152e1881fe"},"vehicle_type_id":"4","last_reported":1731089522,"current_range_meters":34000,"station_id":"ce4bhl12rcd13ifvqgf0","pricing_plan_id":"cebpf4jnsgd1na2vs0mg"},{"bike_id":"ecf789cf-9ad6-43e5-9c8d-12faa7293fce","system_id":"levelo_inurba_marseille","lat":43.30419,"lon":5.3976,"is_reserved":false,"is_disabled":false,"rental_uris":{"android":"levelo://app?vid=ecf789cf-9ad6-43e5-9c8d-12faa7293fce","ios":"levelo://app?vid=ecf789cf-9ad6-43e5-9c8d-12faa7293fce"},"vehicle_type_id":"4","last_reported":1731089522,"current_range_meters":9200,"station_id":"ce4bh092rcd13ifvqd20","pricing_plan_id":"cebpf4jnsgd1na2vs0mg"},{"bike_id":"a0d9d5ae-de17-4341-bed9-edfa4e4e8139","system_id":"levelo_inurba_marseille","lat":43.30442,"lon":5.36617,"is_reserved":false,"is_disabled":false,"rental_uris":{"android":"levelo://app?vid=a0d9d5ae-de17-4341-bed9-edfa4e4e8139","ios":"levelo://app?vid=a0d9d5ae-de17-4341-bed9-edfa4e4e8139"},"vehicle_type_id":"4","last_reported":1731089522,"current_range_meters":6800,"station_id":"","pricing_plan_id":"cebpf4jnsgd1na2vs0mg"},{"bike_id":"1d8f3cfb-92ae-4a84-b6af-ca2e6c15bfa2","system_id":"levelo_inurba_marseille","lat":43.2318,"lon":5.39989,"is_reserved":false,"is_disabled":false,"rental_uris":{"android":"levelo://app?vid=1d8f3cfb-92ae-4a84-b6af-ca2e6c15bfa2","ios":"levelo://app?vid=1d8f3cfb-92ae-4a84-b6af-ca2e6c15bfa2"},"vehicle_type_id":"4","last_reported":1731089522,"current_range_meters":38800,"station_id":"ce4bhn12rcd13ifvqgqg","pricing_plan_id":"cebpf4jnsgd1na2vs0mg"},{"bike_id":"4da8eb62-285e-45d9-9b9f-4e5ed8650bec","system_id":"levelo_inurba_marseille","lat":43.28928,"lon":5.38411,"is_reserved":false,"is_disabled":false,"rental_uris":{"android":"levelo://app?vid=4da8eb62-285e-45d9-9b9f-4e5ed8650bec","ios":"levelo://app?vid=4da8eb62-285e-45d9-9b9f-4e5ed8650bec"},"vehicle_type_id":"4","last_reported":1731089522,"current_range_meters":14400,"station_id":"ce4bh612rcd13ifvqe6g","pricing_plan_id":"cebpf4jnsgd1na2vs0mg"},{"bike_id":"d038b511-e138-4697-8575-e8ae699c58cc","system_id":"levelo_inurba_marseille","lat":43.29258,"lon":5.38435,"is_reserved":false,"is_disabled":false,"rental_uris":{"android":"levelo://app?vid=d038b511-e138-4697-8575-e8ae699c58cc","ios":"levelo://app?vid=d038b511-e138-4697-8575-e8ae699c58cc"},"vehicle_type_id":"4","last_reported":1731089522,"current_range_meters":28800,"station_id":"ce4bh692rcd13ifvqea0","pricing_plan_id":"cebpf4jnsgd1na2vs0mg"},{"bike_id":"99e03d11-763b-4e9c-ba9a-0c9a2185b360","system_id":"levelo_inurba_marseille","lat":43.32484,"lon":5.3657,"is_reserved":false,"is_disabled":false,"rental_uris":{"android":"levelo://app?vid=99e03d11-763b-4e9c-ba9a-0c9a2185b360","ios":"levelo://app?vid=99e03d11-763b-4e9c-ba9a-0c9a2185b360"},"vehicle_type_id":"4","last_reported":1731089522,"current_range_meters":35600,"station_id":"ce4bhs12rcd13ifvqhvg","pricing_plan_id":"cebpf4jnsgd1na2vs0mg"},{"bike_id":"77579d8b-19be-49f1-81b8-797c693d2109","system_id":"levelo_inurba_marseille","lat":43.27999,"lon":5.40015,"is_reserved":false,"is_disabled":false,"rental_uris":{"android":"levelo://app?vid=77579d8b-19be-49f1-81b8-797c693d2109","ios":"levelo://app?vid=77579d8b-19be-49f1-81b8-797c693d2109"},"vehicle_type_id":"4","last_reported":1731089522,"current_range_meters":7200,"station_id":"ce4bho92rcd13ifvqh4g","pricing_plan_id":"cebpf4jnsgd1na2vs0mg"},{"bike_id":"433341e9-c0af-4efe-8f67-a1e7fcdb7a3c","system_id":"levelo_inurba_marseille","lat":43.29527,"lon":5.38538,"is_reserved":false,"is_disabled":false,"rental_uris":{"android":"levelo://app?vid=433341e9-c0af-4efe-8f67-a1e7fcdb7a3c","ios":"levelo://app?vid=433341e9-c0af-4efe-8f67-a1e7fcdb7a3c"},"vehicle_type_id":"4","last_reported":1731089522,"current_range_meters":38800,"station_id":"ce4bgih2rcd13ifvqba0","pricing_plan_id":"cebpf4jnsgd1na2vs0mg"},{"bike_id":"9948fe99-c849-4325-b4f5-4a0727ba3775","system_id":"levelo_inurba_marseille","lat":43.33025,"lon":5.39039,"is_reserved":false,"is_disabled":false,"rental_uris":{"android":"levelo://app?vid=9948fe99-c849-4325-b4f5-4a0727ba3775","ios":"levelo://app?vid=9948fe99-c849-4325-b4f5-4a0727ba3775"},"vehicle_type_id":"4","last_reported":1731089522,"current_range_meters":26800,"station_id":"ce4bhr92rcd13ifvqhrg","pricing_plan_id":"cebpf4jnsgd1na2vs0mg"},{"bike_id":"af4daf64-18f9-41ec-b8bd-1df711ac30af","system_id":"levelo_inurba_marseille","lat":43.31209,"lon":5.3685,"is_reserved":false,"is_disabled":false,"rental_uris":{"android":"levelo://app?vid=af4daf64-18f9-41ec-b8bd-1df711ac30af","ios":"levelo://app?vid=af4daf64-18f9-41ec-b8bd-1df711ac30af"},"vehicle_type_id":"4","last_reported":1731089522,"current_range_meters":29600,"station_id":"ce4bgl92rcd13ifvqbq0","pricing_plan_id":"cebpf4jnsgd1na2vs0mg"},{"bike_id":"92bbe5af-b5d9-48fc-afb8-3b15fc8d3190","system_id":"levelo_inurba_marseille","lat":43.3172,"lon":5.42408,"is_reserved":false,"is_disabled":false,"rental_uris":{"android":"levelo://app?vid=92bbe5af-b5d9-48fc-afb8-3b15fc8d3190","ios":"levelo://app?vid=92bbe5af-b5d9-48fc-afb8-3b15fc8d3190"},"vehicle_type_id":"4","last_reported":1731089522,"current_range_meters":28000,"station_id":"ce4bhp92rcd13ifvqhbg","pricing_plan_id":"cebpf4jnsgd1na2vs0mg"},{"bike_id":"ddfc1c28-cdcf-4e5a-aac9-0c67328a7e3c","system_id":"levelo_inurba_marseille","lat":43.3175,"lon":5.39029,"is_reserved":false,"is_disabled":false,"rental_uris":{"android":"levelo://app?vid=ddfc1c28-cdcf-4e5a-aac9-0c67328a7e3c","ios":"levelo://app?vid=ddfc1c28-cdcf-4e5a-aac9-0c67328a7e3c"},"vehicle_type_id":"4","last_reported":1731089522,"current_range_meters":30400,"station_id":"ce4bhqp2rcd13ifvqhng","pricing_plan_id":"cebpf4jnsgd1na2vs0mg"},{"bike_id":"f2b48753-19da-4417-9c33-55d3019c581a","system_id":"levelo_inurba_marseille","lat":43.27994,"lon":5.4002,"is_reserved":false,"is_disabled":false,"rental_uris":{"android":"levelo://app?vid=f2b48753-19da-4417-9c33-55d3019c581a","ios":"levelo://app?vid=f2b48753-19da-4417-9c33-55d3019c581a"},"vehicle_type_id":"4","last_reported":1731089522,"current_range_meters":10800,"station_id":"ce4bho92rcd13ifvqh4g","pricing_plan_id":"cebpf4jnsgd1na2vs0mg"},{"bike_id":"041205a7-5369-430d-a38a-eb92e3bc9bcb","system_id":"levelo_inurba_marseille","lat":43.29193,"lon":5.35803,"is_reserved":false,"is_disabled":false,"rental_uris":{"android":"levelo://app?vid=041205a7-5369-430d-a38a-eb92e3bc9bcb","ios":"levelo://app?vid=041205a7-5369-430d-a38a-eb92e3bc9bcb"},"vehicle_type_id":"4","last_reported":1731089522,"current_range_meters":39200,"station_id":"ce4bhb12rcd13ifvqel0","pricing_plan_id":"cebpf4jnsgd1na2vs0mg"},{"bike_id":"5f5374b3-bed2-4113-b4d9-609b35918747","system_id":"levelo_inurba_marseille","lat":43.30888,"lon":5.39655,"is_reserved":false,"is_disabled":false,"rental_uris":{"android":"levelo://app?vid=5f5374b3-bed2-4113-b4d9-609b35918747","ios":"levelo://app?vid=5f5374b3-bed2-4113-b4d9-609b35918747"},"vehicle_type_id":"4","last_reported":1731089522,"current_range_meters":28800,"station_id":"ce4bh012rcd13ifvqcv0","pricing_plan_id":"cebpf4jnsgd1na2vs0mg"},{"bike_id":"78e2afd0-7745-4714-9a20-5afb9710687d","system_id":"levelo_inurba_marseille","lat":43.28242,"lon":5.37258,"is_reserved":false,"is_disabled":false,"rental_uris":{"android":"levelo://app?vid=78e2afd0-7745-4714-9a20-5afb9710687d","ios":"levelo://app?vid=78e2afd0-7745-4714-9a20-5afb9710687d"},"vehicle_type_id":"4","last_reported":1731089522,"current_range_meters":38800,"station_id":"","pricing_plan_id":"cebpf4jnsgd1na2vs0mg"},{"bike_id":"4adc051b-cab2-444f-a4c6-933d4708baf0","system_id":"levelo_inurba_marseille","lat":43.3172,"lon":5.424,"is_reserved":false,"is_disabled":false,"rental_uris":{"android":"levelo://app?vid=4adc051b-cab2-444f-a4c6-933d4708baf0","ios":"levelo://app?vid=4adc051b-cab2-444f-a4c6-933d4708baf0"},"vehicle_type_id":"4","last_reported":1731089522,"current_range_meters":12400,"station_id":"ce4bhp92rcd13ifvqhbg","pricing_plan_id":"cebpf4jnsgd1na2vs0mg"},{"bike_id":"865624fb-3d85-4ce1-b135-d88cbdbbde39","system_id":"levelo_inurba_marseille","lat":43.24651,"lon":5.38894,"is_reserved":false,"is_disabled":false,"rental_uris":{"android":"levelo://app?vid=865624fb-3d85-4ce1-b135-d88cbdbbde39","ios":"levelo://app?vid=865624fb-3d85-4ce1-b135-d88cbdbbde39"},"vehicle_type_id":"4","last_reported":1731089522,"current_range_meters":38800,"station_id":"ce4bhg12rcd13ifvqf60","pricing_plan_id":"cebpf4jnsgd1na2vs0mg"},{"bike_id":"bc0e2def-0837-4a59-9b3a-f48d7d7bf255","system_id":"levelo_inurba_marseille","lat":43.278053,"lon":5.407197,"is_reserved":false,"is_disabled":false,"rental_uris":{"android":"levelo://app?vid=bc0e2def-0837-4a59-9b3a-f48d7d7bf255","ios":"levelo://app?vid=bc0e2def-0837-4a59-9b3a-f48d7d7bf255"},"vehicle_type_id":"4","last_reported":1731089522,"current_range_meters":18800,"station_id":"ce4bhjp2rcd13ifvqga0","pricing_plan_id":"cebpf4jnsgd1na2vs0mg"},{"bike_id":"88f52a5f-4acb-44b2-87b8-d0fd0b2cb235","system_id":"levelo_inurba_marseille","lat":43.26804,"lon":5.40266,"is_reserved":false,"is_disabled":false,"rental_uris":{"android":"levelo://app?vid=88f52a5f-4acb-44b2-87b8-d0fd0b2cb235","ios":"levelo://app?vid=88f52a5f-4acb-44b2-87b8-d0fd0b2cb235"},"vehicle_type_id":"4","last_reported":1731089522,"current_range_meters":28400,"station_id":"ce501612rcd8frsf0b60","pricing_plan_id":"cebpf4jnsgd1na2vs0mg"},{"bike_id":"6f3a6aaf-1a01-49bf-b6ea-cc9c1215385b","system_id":"levelo_inurba_marseille","lat":43.29901,"lon":5.37467,"is_reserved":false,"is_disabled":false,"rental_uris":{"android":"levelo://app?vid=6f3a6aaf-1a01-49bf-b6ea-cc9c1215385b","ios":"levelo://app?vid=6f3a6aaf-1a01-49bf-b6ea-cc9c1215385b"},"vehicle_type_id":"4","last_reported":1731089522,"current_range_meters":39200,"station_id":"ce4bgjh2rcd13ifvqbg0","pricing_plan_id":"cebpf4jnsgd1na2vs0mg"},{"bike_id":"ad7578dd-c7b4-4cbd-9568-d055b12f1926","system_id":"levelo_inurba_marseille","lat":43.30971,"lon":5.4014,"is_reserved":false,"is_disabled":false,"rental_uris":{"android":"levelo://app?vid=ad7578dd-c7b4-4cbd-9568-d055b12f1926","ios":"levelo://app?vid=ad7578dd-c7b4-4cbd-9568-d055b12f1926"},"vehicle_type_id":"4","last_reported":1731089522,"current_range_meters":29600,"station_id":"ce4bgvp2rcd13ifvqct0","pricing_plan_id":"cebpf4jnsgd1na2vs0mg"},{"bike_id":"c4e2530c-6ab7-451a-95cd-a2f88511bf52","system_id":"levelo_inurba_marseille","lat":43.2893,"lon":5.38383,"is_reserved":false,"is_disabled":false,"rental_uris":{"android":"levelo://app?vid=c4e2530c-6ab7-451a-95cd-a2f88511bf52","ios":"levelo://app?vid=c4e2530c-6ab7-451a-95cd-a2f88511bf52"},"vehicle_type_id":"4","last_reported":1731089522,"current_range_meters":29600,"station_id":"ce4bh612rcd13ifvqe6g","pricing_plan_id":"cebpf4jnsgd1na2vs0mg"},{"bike_id":"55098329-6bc0-4e9e-ad3e-a8a758c56014","system_id":"levelo_inurba_marseille","lat":43.28662,"lon":5.38677,"is_reserved":false,"is_disabled":false,"rental_uris":{"android":"levelo://app?vid=55098329-6bc0-4e9e-ad3e-a8a758c56014","ios":"levelo://app?vid=55098329-6bc0-4e9e-ad3e-a8a758c56014"},"vehicle_type_id":"4","last_reported":1731089522,"current_range_meters":33600,"station_id":"ce4bh492rcd13ifvqdug","pricing_plan_id":"cebpf4jnsgd1na2vs0mg"},{"bike_id":"e9938970-b703-4e72-8cbd-058022bdc239","system_id":"levelo_inurba_marseille","lat":43.28664,"lon":5.38681,"is_reserved":false,"is_disabled":false,"rental_uris":{"android":"levelo://app?vid=e9938970-b703-4e72-8cbd-058022bdc239","ios":"levelo://app?vid=e9938970-b703-4e72-8cbd-058022bdc239"},"vehicle_type_id":"4","last_reported":1731089522,"current_range_meters":4000,"station_id":"ce4bh492rcd13ifvqdug","pricing_plan_id":"cebpf4jnsgd1na2vs0mg"},{"bike_id":"2bbcb9cc-f8b8-4b14-879a-f3df66920005","system_id":"levelo_inurba_marseille","lat":43.31222,"lon":5.36855,"is_reserved":false,"is_disabled":false,"rental_uris":{"android":"levelo://app?vid=2bbcb9cc-f8b8-4b14-879a-f3df66920005","ios":"levelo://app?vid=2bbcb9cc-f8b8-4b14-879a-f3df66920005"},"vehicle_type_id":"4","last_reported":1731089522,"current_range_meters":19200,"station_id":"ce4bgl92rcd13ifvqbq0","pricing_plan_id":"cebpf4jnsgd1na2vs0mg"},{"bike_id":"f3fa2e9d-b1ad-49ef-b1a7-67cb4f69c01a","system_id":"levelo_inurba_marseille","lat":43.26189,"lon":5.37452,"is_reserved":false,"is_disabled":false,"rental_uris":{"android":"levelo://app?vid=f3fa2e9d-b1ad-49ef-b1a7-67cb4f69c01a","ios":"levelo://app?vid=f3fa2e9d-b1ad-49ef-b1a7-67cb4f69c01a"},"vehicle_type_id":"4","last_reported":1731089522,"current_range_meters":36800,"station_id":"ce4bhgp2rcd13ifvqfc0","pricing_plan_id":"cebpf4jnsgd1na2vs0mg"},{"bike_id":"f94bdcbe-9a46-4c5f-879c-d5fc8c43084c","system_id":"levelo_inurba_marseille","lat":43.33026,"lon":5.39039,"is_reserved":false,"is_disabled":false,"rental_uris":{"android":"levelo://app?vid=f94bdcbe-9a46-4c5f-879c-d5fc8c43084c","ios":"levelo://app?vid=f94bdcbe-9a46-4c5f-879c-d5fc8c43084c"},"vehicle_type_id":"4","last_reported":1731089522,"current_range_meters":38800,"station_id":"ce4bhr92rcd13ifvqhrg","pricing_plan_id":"cebpf4jnsgd1na2vs0mg"},{"bike_id":"64fad978-c7b0-474f-a850-e08de871c349","system_id":"levelo_inurba_marseille","lat":43.2963,"lon":5.40599,"is_reserved":false,"is_disabled":false,"rental_uris":{"android":"levelo://app?vid=64fad978-c7b0-474f-a850-e08de871c349","ios":"levelo://app?vid=64fad978-c7b0-474f-a850-e08de871c349"},"vehicle_type_id":"4","last_reported":1731089522,"current_range_meters":39200,"station_id":"ce4bh0h2rcd13ifvqd60","pricing_plan_id":"cebpf4jnsgd1na2vs0mg"},{"bike_id":"46236b54-003d-407c-892b-fc08621a8550","system_id":"levelo_inurba_marseille","lat":43.28599,"lon":5.37054,"is_reserved":false,"is_disabled":false,"rental_uris":{"android":"levelo://app?vid=46236b54-003d-407c-892b-fc08621a8550","ios":"levelo://app?vid=46236b54-003d-407c-892b-fc08621a8550"},"vehicle_type_id":"4","last_reported":1731089522,"current_range_meters":24000,"station_id":"ce4bht12rcd13ifvqi60","pricing_plan_id":"cebpf4jnsgd1na2vs0mg"},{"bike_id":"ae9d8fef-154d-4809-99b6-c308924e7ae8","system_id":"levelo_inurba_marseille","lat":43.29423,"lon":5.38622,"is_reserved":false,"is_disabled":false,"rental_uris":{"android":"levelo://app?vid=ae9d8fef-154d-4809-99b6-c308924e7ae8","ios":"levelo://app?vid=ae9d8fef-154d-4809-99b6-c308924e7ae8"},"vehicle_type_id":"4","last_reported":1731089522,"current_range_meters":38800,"station_id":"ce4bh2h2rcd13ifvqdh0","pricing_plan_id":"cebpf4jnsgd1na2vs0mg"},{"bike_id":"4514ced8-4997-4680-8790-2c8cd2923b89","system_id":"levelo_inurba_marseille","lat":43.29897,"lon":5.43672,"is_reserved":false,"is_disabled":false,"rental_uris":{"android":"levelo://app?vid=4514ced8-4997-4680-8790-2c8cd2923b89","ios":"levelo://app?vid=4514ced8-4997-4680-8790-2c8cd2923b89"},"vehicle_type_id":"4","last_reported":1731089522,"current_range_meters":20000,"station_id":"ce4bhpp2rcd13ifvqhfg","pricing_plan_id":"cebpf4jnsgd1na2vs0mg"},{"bike_id":"2ac0fdaf-328c-46d9-b819-a2b97ad1d8fe","system_id":"levelo_inurba_marseille","lat":43.272,"lon":5.3917,"is_reserved":false,"is_disabled":false,"rental_uris":{"android":"levelo://app?vid=2ac0fdaf-328c-46d9-b819-a2b97ad1d8fe","ios":"levelo://app?vid=2ac0fdaf-328c-46d9-b819-a2b97ad1d8fe"},"vehicle_type_id":"4","last_reported":1731089522,"current_range_meters":3600,"station_id":"ce4bhhp2rcd13ifvqfm0","pricing_plan_id":"cebpf4jnsgd1na2vs0mg"},{"bike_id":"2a6caaf6-34f1-4e12-8c9d-153fd774cf91","system_id":"levelo_inurba_marseille","lat":43.24808,"lon":5.37457,"is_reserved":false,"is_disabled":false,"rental_uris":{"android":"levelo://app?vid=2a6caaf6-34f1-4e12-8c9d-153fd774cf91","ios":"levelo://app?vid=2a6caaf6-34f1-4e12-8c9d-153fd774cf91"},"vehicle_type_id":"4","last_reported":1731089522,"current_range_meters":28000,"station_id":"ce4bhgh2rcd13ifvqfb0","pricing_plan_id":"cebpf4jnsgd1na2vs0mg"},{"bike_id":"a8497dac-ffd0-431f-b91f-d4bcd997e527","system_id":"levelo_inurba_marseille","lat":43.290562,"lon":5.381484,"is_reserved":false,"is_disabled":false,"rental_uris":{"android":"levelo://app?vid=a8497dac-ffd0-431f-b91f-d4bcd997e527","ios":"levelo://app?vid=a8497dac-ffd0-431f-b91f-d4bcd997e527"},"vehicle_type_id":"4","last_reported":1731089522,"current_range_meters":38000,"station_id":"ce4bh4p2rcd13ifvqe1g","pricing_plan_id":"cebpf4jnsgd1na2vs0mg"},{"bike_id":"5ce8e61c-3342-4241-b80c-2e4895aa2f21","system_id":"levelo_inurba_marseille","lat":43.29532,"lon":5.38538,"is_reserved":false,"is_disabled":false,"rental_uris":{"android":"levelo://app?vid=5ce8e61c-3342-4241-b80c-2e4895aa2f21","ios":"levelo://app?vid=5ce8e61c-3342-4241-b80c-2e4895aa2f21"},"vehicle_type_id":"4","last_reported":1731089522,"current_range_meters":10000,"station_id":"ce4bgih2rcd13ifvqba0","pricing_plan_id":"cebpf4jnsgd1na2vs0mg"},{"bike_id":"b091ef38-bf4c-4925-aaac-57a63b41a4e7","system_id":"levelo_inurba_marseille","lat":43.26777,"lon":5.39421,"is_reserved":false,"is_disabled":false,"rental_uris":{"android":"levelo://app?vid=b091ef38-bf4c-4925-aaac-57a63b41a4e7","ios":"levelo://app?vid=b091ef38-bf4c-4925-aaac-57a63b41a4e7"},"vehicle_type_id":"4","last_reported":1731089522,"current_range_meters":28000,"station_id":"ce4bhh12rcd13ifvqfg0","pricing_plan_id":"cebpf4jnsgd1na2vs0mg"},{"bike_id":"c714eafb-18a1-400f-b7ed-47be68a78f8c","system_id":"levelo_inurba_marseille","lat":43.30593,"lon":5.39363,"is_reserved":false,"is_disabled":false,"rental_uris":{"android":"levelo://app?vid=c714eafb-18a1-400f-b7ed-47be68a78f8c","ios":"levelo://app?vid=c714eafb-18a1-400f-b7ed-47be68a78f8c"},"vehicle_type_id":"4","last_reported":1731089522,"current_range_meters":27200,"station_id":"ce4bh0p2rcd13ifvqd80","pricing_plan_id":"cebpf4jnsgd1na2vs0mg"},{"bike_id":"435ef3f4-58f9-47ba-a2ba-2c3d4beed542","system_id":"levelo_inurba_marseille","lat":43.24147,"lon":5.36407,"is_reserved":false,"is_disabled":false,"rental_uris":{"android":"levelo://app?vid=435ef3f4-58f9-47ba-a2ba-2c3d4beed542","ios":"levelo://app?vid=435ef3f4-58f9-47ba-a2ba-2c3d4beed542"},"vehicle_type_id":"4","last_reported":1731089522,"current_range_meters":38400,"station_id":"cpo36qri1sfpv3e86is0","pricing_plan_id":"cebpf4jnsgd1na2vs0mg"},{"bike_id":"ff989801-f59b-46d1-867b-7c2b6eab1cca","system_id":"levelo_inurba_marseille","lat":43.337444,"lon":5.374475,"is_reserved":false,"is_disabled":false,"rental_uris":{"android":"levelo://app?vid=ff989801-f59b-46d1-867b-7c2b6eab1cca","ios":"levelo://app?vid=ff989801-f59b-46d1-867b-7c2b6eab1cca"},"vehicle_type_id":"4","last_reported":1731089522,"current_range_meters":36800,"station_id":"","pricing_plan_id":"cebpf4jnsgd1na2vs0mg"},{"bike_id":"7a111f95-0e6e-4864-809a-a23d3dc8fce5","system_id":"levelo_inurba_marseille","lat":43.27998,"lon":5.40014,"is_reserved":false,"is_disabled":false,"rental_uris":{"android":"levelo://app?vid=7a111f95-0e6e-4864-809a-a23d3dc8fce5","ios":"levelo://app?vid=7a111f95-0e6e-4864-809a-a23d3dc8fce5"},"vehicle_type_id":"4","last_reported":1731089522,"current_range_meters":40000,"station_id":"ce4bho92rcd13ifvqh4g","pricing_plan_id":"cebpf4jnsgd1na2vs0mg"},{"bike_id":"4827d164-05b5-4f1a-bc4c-de36c040d162","system_id":"levelo_inurba_marseille","lat":43.28852,"lon":5.35841,"is_reserved":false,"is_disabled":false,"rental_uris":{"android":"levelo://app?vid=4827d164-05b5-4f1a-bc4c-de36c040d162","ios":"levelo://app?vid=4827d164-05b5-4f1a-bc4c-de36c040d162"},"vehicle_type_id":"4","last_reported":1731089522,"current_range_meters":12400,"station_id":"ce4bhb12rcd13ifvqem0","pricing_plan_id":"cebpf4jnsgd1na2vs0mg"},{"bike_id":"cfe894de-4a81-4056-877f-ac9953747d71","system_id":"levelo_inurba_marseille","lat":43.27422,"lon":5.39414,"is_reserved":false,"is_disabled":false,"rental_uris":{"android":"levelo://app?vid=cfe894de-4a81-4056-877f-ac9953747d71","ios":"levelo://app?vid=cfe894de-4a81-4056-877f-ac9953747d71"},"vehicle_type_id":"4","last_reported":1731089522,"current_range_meters":34800,"station_id":"ce4bhdp2rcd13ifvqf20","pricing_plan_id":"cebpf4jnsgd1na2vs0mg"},{"bike_id":"d115c69c-dc61-4019-86ca-8f3ef1285cfb","system_id":"levelo_inurba_marseille","lat":43.22927,"lon":5.35378,"is_reserved":false,"is_disabled":false,"rental_uris":{"android":"levelo://app?vid=d115c69c-dc61-4019-86ca-8f3ef1285cfb","ios":"levelo://app?vid=d115c69c-dc61-4019-86ca-8f3ef1285cfb"},"vehicle_type_id":"4","last_reported":1731089522,"current_range_meters":36800,"station_id":"cpo3532slgdg3j2ikp40","pricing_plan_id":"cebpf4jnsgd1na2vs0mg"},{"bike_id":"b175e91e-c9a9-495d-b375-3d4411473e2f","system_id":"levelo_inurba_marseille","lat":43.29298,"lon":5.37173,"is_reserved":false,"is_disabled":false,"rental_uris":{"android":"levelo://app?vid=b175e91e-c9a9-495d-b375-3d4411473e2f","ios":"levelo://app?vid=b175e91e-c9a9-495d-b375-3d4411473e2f"},"vehicle_type_id":"4","last_reported":1731089522,"current_range_meters":25600,"station_id":"ce4bgh92rcd13ifvqb40","pricing_plan_id":"cebpf4jnsgd1na2vs0mg"},{"bike_id":"ab06c1a5-41c4-44d5-9118-6bea859306a8","system_id":"levelo_inurba_marseille","lat":43.30612,"lon":5.37218,"is_reserved":false,"is_disabled":false,"rental_uris":{"android":"levelo://app?vid=ab06c1a5-41c4-44d5-9118-6bea859306a8","ios":"levelo://app?vid=ab06c1a5-41c4-44d5-9118-6bea859306a8"},"vehicle_type_id":"4","last_reported":1731089522,"current_range_meters":36400,"station_id":"ce4bgqh2rcd13ifvqc4g","pricing_plan_id":"cebpf4jnsgd1na2vs0mg"},{"bike_id":"be94c940-c56d-4132-af66-fedb762b3e0f","system_id":"levelo_inurba_marseille","lat":43.2319,"lon":5.35557,"is_reserved":false,"is_disabled":false,"rental_uris":{"android":"levelo://app?vid=be94c940-c56d-4132-af66-fedb762b3e0f","ios":"levelo://app?vid=be94c940-c56d-4132-af66-fedb762b3e0f"},"vehicle_type_id":"4","last_reported":1731089522,"current_range_meters":38800,"station_id":"ce4bhu92rcd13ifvqi70","pricing_plan_id":"cebpf4jnsgd1na2vs0mg"},{"bike_id":"6ba9ca98-cdab-46e8-bcb3-d22861a3b09f","system_id":"levelo_inurba_marseille","lat":43.26212,"lon":5.37442,"is_reserved":false,"is_disabled":false,"rental_uris":{"android":"levelo://app?vid=6ba9ca98-cdab-46e8-bcb3-d22861a3b09f","ios":"levelo://app?vid=6ba9ca98-cdab-46e8-bcb3-d22861a3b09f"},"vehicle_type_id":"4","last_reported":1731089522,"current_range_meters":36400,"station_id":"ce4bhgp2rcd13ifvqfc0","pricing_plan_id":"cebpf4jnsgd1na2vs0mg"},{"bike_id":"60cf0d03-7638-4377-bf60-661d7e820b4b","system_id":"levelo_inurba_marseille","lat":43.27942,"lon":5.41046,"is_reserved":false,"is_disabled":false,"rental_uris":{"android":"levelo://app?vid=60cf0d03-7638-4377-bf60-661d7e820b4b","ios":"levelo://app?vid=60cf0d03-7638-4377-bf60-661d7e820b4b"},"vehicle_type_id":"4","last_reported":1731089522,"current_range_meters":35600,"station_id":"ce4bhnp2rcd13ifvqh0g","pricing_plan_id":"cebpf4jnsgd1na2vs0mg"},{"bike_id":"ed366f95-9ba9-4569-a29b-9d8d122c6858","system_id":"levelo_inurba_marseille","lat":43.27815,"lon":5.40711,"is_reserved":false,"is_disabled":false,"rental_uris":{"android":"levelo://app?vid=ed366f95-9ba9-4569-a29b-9d8d122c6858","ios":"levelo://app?vid=ed366f95-9ba9-4569-a29b-9d8d122c6858"},"vehicle_type_id":"4","last_reported":1731089522,"current_range_meters":30000,"station_id":"ce4bhnh2rcd13ifvqgtg","pricing_plan_id":"cebpf4jnsgd1na2vs0mg"},{"bike_id":"fa3bb12e-b40e-4f9d-8086-21afedf03801","system_id":"levelo_inurba_marseille","lat":43.3171,"lon":5.37757,"is_reserved":false,"is_disabled":false,"rental_uris":{"android":"levelo://app?vid=fa3bb12e-b40e-4f9d-8086-21afedf03801","ios":"levelo://app?vid=fa3bb12e-b40e-4f9d-8086-21afedf03801"},"vehicle_type_id":"4","last_reported":1731089522,"current_range_meters":6000,"station_id":"ce4bgth2rcd13ifvqch0","pricing_plan_id":"cebpf4jnsgd1na2vs0mg"},{"bike_id":"58fa0043-c06d-4dc0-a6cf-b530db387a61","system_id":"levelo_inurba_marseille","lat":43.277458,"lon":5.388739,"is_reserved":false,"is_disabled":false,"rental_uris":{"android":"levelo://app?vid=58fa0043-c06d-4dc0-a6cf-b530db387a61","ios":"levelo://app?vid=58fa0043-c06d-4dc0-a6cf-b530db387a61"},"vehicle_type_id":"4","last_reported":1731089522,"current_range_meters":4400,"station_id":"ce4bhi12rcd13ifvqfo0","pricing_plan_id":"cebpf4jnsgd1na2vs0mg"},{"bike_id":"83a0c021-655c-412c-b1f6-a40195e5cf68","system_id":"levelo_inurba_marseille","lat":43.290076,"lon":5.366334,"is_reserved":false,"is_disabled":false,"rental_uris":{"android":"levelo://app?vid=83a0c021-655c-412c-b1f6-a40195e5cf68","ios":"levelo://app?vid=83a0c021-655c-412c-b1f6-a40195e5cf68"},"vehicle_type_id":"4","last_reported":1731089522,"current_range_meters":4800,"station_id":"ce4bhap2rcd13ifvqek0","pricing_plan_id":"cebpf4jnsgd1na2vs0mg"},{"bike_id":"2c132c94-5e9a-4f39-b210-d68c0c1f67a9","system_id":"levelo_inurba_marseille","lat":43.3063,"lon":5.4009,"is_reserved":false,"is_disabled":false,"rental_uris":{"android":"levelo://app?vid=2c132c94-5e9a-4f39-b210-d68c0c1f67a9","ios":"levelo://app?vid=2c132c94-5e9a-4f39-b210-d68c0c1f67a9"},"vehicle_type_id":"4","last_reported":1731089522,"current_range_meters":8000,"station_id":"ce4bh112rcd13ifvqda0","pricing_plan_id":"cebpf4jnsgd1na2vs0mg"},{"bike_id":"02f3bd69-c440-439f-96d2-1f56246cbb70","system_id":"levelo_inurba_marseille","lat":43.23055,"lon":5.35489,"is_reserved":false,"is_disabled":false,"rental_uris":{"android":"levelo://app?vid=02f3bd69-c440-439f-96d2-1f56246cbb70","ios":"levelo://app?vid=02f3bd69-c440-439f-96d2-1f56246cbb70"},"vehicle_type_id":"4","last_reported":1731089522,"current_range_meters":31200,"station_id":"cpo3342slgdg3j2ifvpg","pricing_plan_id":"cebpf4jnsgd1na2vs0mg"},{"bike_id":"a69aecf9-c20f-4456-b268-76ec0c2b6667","system_id":"levelo_inurba_marseille","lat":43.29361,"lon":5.37856,"is_reserved":false,"is_disabled":false,"rental_uris":{"android":"levelo://app?vid=a69aecf9-c20f-4456-b268-76ec0c2b6667","ios":"levelo://app?vid=a69aecf9-c20f-4456-b268-76ec0c2b6667"},"vehicle_type_id":"4","last_reported":1731089522,"current_range_meters":30000,"station_id":"ce4bgjh2rcd13ifvqbf0","pricing_plan_id":"cebpf4jnsgd1na2vs0mg"},{"bike_id":"f397d829-ec1b-4fa5-bd8d-72f9273b5813","system_id":"levelo_inurba_marseille","lat":43.29263,"lon":5.38439,"is_reserved":false,"is_disabled":false,"rental_uris":{"android":"levelo://app?vid=f397d829-ec1b-4fa5-bd8d-72f9273b5813","ios":"levelo://app?vid=f397d829-ec1b-4fa5-bd8d-72f9273b5813"},"vehicle_type_id":"4","last_reported":1731089522,"current_range_meters":36000,"station_id":"ce4bh692rcd13ifvqea0","pricing_plan_id":"cebpf4jnsgd1na2vs0mg"},{"bike_id":"6d2b94a2-2f88-4c1e-a6ef-bce7ca7660af","system_id":"levelo_inurba_marseille","lat":43.3234,"lon":5.40628,"is_reserved":false,"is_disabled":false,"rental_uris":{"android":"levelo://app?vid=6d2b94a2-2f88-4c1e-a6ef-bce7ca7660af","ios":"levelo://app?vid=6d2b94a2-2f88-4c1e-a6ef-bce7ca7660af"},"vehicle_type_id":"4","last_reported":1731089522,"current_range_meters":7200,"station_id":"ce4bhq92rcd13ifvqhjg","pricing_plan_id":"cebpf4jnsgd1na2vs0mg"},{"bike_id":"04c33c41-7d2c-4ad1-9547-7c592fdb82f1","system_id":"levelo_inurba_marseille","lat":43.31748,"lon":5.39019,"is_reserved":false,"is_disabled":false,"rental_uris":{"android":"levelo://app?vid=04c33c41-7d2c-4ad1-9547-7c592fdb82f1","ios":"levelo://app?vid=04c33c41-7d2c-4ad1-9547-7c592fdb82f1"},"vehicle_type_id":"4","last_reported":1731089522,"current_range_meters":37600,"station_id":"ce4bhqp2rcd13ifvqhng","pricing_plan_id":"cebpf4jnsgd1na2vs0mg"},{"bike_id":"63e605c0-b03d-4607-9fd9-b8bafccf5679","system_id":"levelo_inurba_marseille","lat":43.2952,"lon":5.37493,"is_reserved":false,"is_disabled":false,"rental_uris":{"android":"levelo://app?vid=63e605c0-b03d-4607-9fd9-b8bafccf5679","ios":"levelo://app?vid=63e605c0-b03d-4607-9fd9-b8bafccf5679"},"vehicle_type_id":"4","last_reported":1731089522,"current_range_meters":38800,"station_id":"ce4bgkp2rcd13ifvqbmg","pricing_plan_id":"cebpf4jnsgd1na2vs0mg"},{"bike_id":"f977bc0b-ef92-4bdf-9c8e-b695d6190ec5","system_id":"levelo_inurba_marseille","lat":43.26552,"lon":5.37297,"is_reserved":false,"is_disabled":false,"rental_uris":{"android":"levelo://app?vid=f977bc0b-ef92-4bdf-9c8e-b695d6190ec5","ios":"levelo://app?vid=f977bc0b-ef92-4bdf-9c8e-b695d6190ec5"},"vehicle_type_id":"4","last_reported":1731089522,"current_range_meters":34800,"station_id":"ce4bhg12rcd13ifvqf70","pricing_plan_id":"cebpf4jnsgd1na2vs0mg"},{"bike_id":"b1ec116a-76f2-4eee-8b23-80d7665d58d9","system_id":"levelo_inurba_marseille","lat":43.31712,"lon":5.43704,"is_reserved":false,"is_disabled":false,"rental_uris":{"android":"levelo://app?vid=b1ec116a-76f2-4eee-8b23-80d7665d58d9","ios":"levelo://app?vid=b1ec116a-76f2-4eee-8b23-80d7665d58d9"},"vehicle_type_id":"4","last_reported":1731089522,"current_range_meters":25200,"station_id":"ce4bhp92rcd13ifvqhcg","pricing_plan_id":"cebpf4jnsgd1na2vs0mg"},{"bike_id":"c3cae747-1840-4e85-b0e3-f2a4aea40a4a","system_id":"levelo_inurba_marseille","lat":43.31351,"lon":5.39153,"is_reserved":false,"is_disabled":false,"rental_uris":{"android":"levelo://app?vid=c3cae747-1840-4e85-b0e3-f2a4aea40a4a","ios":"levelo://app?vid=c3cae747-1840-4e85-b0e3-f2a4aea40a4a"},"vehicle_type_id":"4","last_reported":1731089522,"current_range_meters":8400,"station_id":"","pricing_plan_id":"cebpf4jnsgd1na2vs0mg"},{"bike_id":"e4a822e9-f82a-4e7d-9a7b-e9bf2e55396e","system_id":"levelo_inurba_marseille","lat":43.29156,"lon":5.37165,"is_reserved":false,"is_disabled":false,"rental_uris":{"android":"levelo://app?vid=e4a822e9-f82a-4e7d-9a7b-e9bf2e55396e","ios":"levelo://app?vid=e4a822e9-f82a-4e7d-9a7b-e9bf2e55396e"},"vehicle_type_id":"4","last_reported":1731089522,"current_range_meters":7200,"station_id":"ce4bha92rcd13ifvqeh0","pricing_plan_id":"cebpf4jnsgd1na2vs0mg"},{"bike_id":"106c4afc-3838-4aca-901d-e1b1f3c3d714","system_id":"levelo_inurba_marseille","lat":43.29445,"lon":5.39744,"is_reserved":false,"is_disabled":false,"rental_uris":{"android":"levelo://app?vid=106c4afc-3838-4aca-901d-e1b1f3c3d714","ios":"levelo://app?vid=106c4afc-3838-4aca-901d-e1b1f3c3d714"},"vehicle_type_id":"4","last_reported":1731089522,"current_range_meters":4000,"station_id":"ce4bh3h2rcd13ifvqdo0","pricing_plan_id":"cebpf4jnsgd1na2vs0mg"},{"bike_id":"75409c73-3844-4d7f-b998-774274ff0a11","system_id":"levelo_inurba_marseille","lat":43.2971,"lon":5.36585,"is_reserved":false,"is_disabled":false,"rental_uris":{"android":"levelo://app?vid=75409c73-3844-4d7f-b998-774274ff0a11","ios":"levelo://app?vid=75409c73-3844-4d7f-b998-774274ff0a11"},"vehicle_type_id":"4","last_reported":1731089522,"current_range_meters":39200,"station_id":"ce4bgn12rcd13ifvqbt0","pricing_plan_id":"cebpf4jnsgd1na2vs0mg"},{"bike_id":"38010d2d-8266-4c9a-8dea-6a8b0d6fea4e","system_id":"levelo_inurba_marseille","lat":43.28571,"lon":5.39499,"is_reserved":false,"is_disabled":false,"rental_uris":{"android":"levelo://app?vid=38010d2d-8266-4c9a-8dea-6a8b0d6fea4e","ios":"levelo://app?vid=38010d2d-8266-4c9a-8dea-6a8b0d6fea4e"},"vehicle_type_id":"4","last_reported":1731089522,"current_range_meters":6800,"station_id":"ce4bh292rcd13ifvqdg0","pricing_plan_id":"cebpf4jnsgd1na2vs0mg"},{"bike_id":"fda6184b-2a3d-48f6-ab6b-040886802b57","system_id":"levelo_inurba_marseille","lat":43.27996,"lon":5.40008,"is_reserved":false,"is_disabled":false,"rental_uris":{"android":"levelo://app?vid=fda6184b-2a3d-48f6-ab6b-040886802b57","ios":"levelo://app?vid=fda6184b-2a3d-48f6-ab6b-040886802b57"},"vehicle_type_id":"4","last_reported":1731089522,"current_range_meters":30000,"station_id":"ce4bho92rcd13ifvqh4g","pricing_plan_id":"cebpf4jnsgd1na2vs0mg"},{"bike_id":"da2a1d33-2479-4d48-8d90-9ac7495be367","system_id":"levelo_inurba_marseille","lat":43.30792,"lon":5.43525,"is_reserved":false,"is_disabled":false,"rental_uris":{"android":"levelo://app?vid=da2a1d33-2479-4d48-8d90-9ac7495be367","ios":"levelo://app?vid=da2a1d33-2479-4d48-8d90-9ac7495be367"},"vehicle_type_id":"4","last_reported":1731089522,"current_range_meters":20400,"station_id":"ce4bhph2rcd13ifvqheg","pricing_plan_id":"cebpf4jnsgd1na2vs0mg"},{"bike_id":"82ee39fb-80cb-45e2-96fc-f298d0e6d2de","system_id":"levelo_inurba_marseille","lat":43.324767,"lon":5.36561,"is_reserved":false,"is_disabled":false,"rental_uris":{"android":"levelo://app?vid=82ee39fb-80cb-45e2-96fc-f298d0e6d2de","ios":"levelo://app?vid=82ee39fb-80cb-45e2-96fc-f298d0e6d2de"},"vehicle_type_id":"4","last_reported":1731089522,"current_range_meters":38400,"station_id":"ce4bhs12rcd13ifvqhvg","pricing_plan_id":"cebpf4jnsgd1na2vs0mg"},{"bike_id":"3551d5a2-e8b0-4911-9469-9a6bf6a7dfc8","system_id":"levelo_inurba_marseille","lat":43.23195,"lon":5.35555,"is_reserved":false,"is_disabled":false,"rental_uris":{"android":"levelo://app?vid=3551d5a2-e8b0-4911-9469-9a6bf6a7dfc8","ios":"levelo://app?vid=3551d5a2-e8b0-4911-9469-9a6bf6a7dfc8"},"vehicle_type_id":"4","last_reported":1731089522,"current_range_meters":35200,"station_id":"ce4bhu92rcd13ifvqi70","pricing_plan_id":"cebpf4jnsgd1na2vs0mg"},{"bike_id":"e31ae1eb-9fda-4283-864b-adc00d6fc6d0","system_id":"levelo_inurba_marseille","lat":43.299745,"lon":5.384835,"is_reserved":false,"is_disabled":false,"rental_uris":{"android":"levelo://app?vid=e31ae1eb-9fda-4283-864b-adc00d6fc6d0","ios":"levelo://app?vid=e31ae1eb-9fda-4283-864b-adc00d6fc6d0"},"vehicle_type_id":"4","last_reported":1731089522,"current_range_meters":28800,"station_id":"ce4bhp92rcd13ifvqhag","pricing_plan_id":"cebpf4jnsgd1na2vs0mg"},{"bike_id":"ace39036-9a2e-402b-ad6a-d8e65c709673","system_id":"levelo_inurba_marseille","lat":43.3078,"lon":5.37645,"is_reserved":false,"is_disabled":false,"rental_uris":{"android":"levelo://app?vid=ace39036-9a2e-402b-ad6a-d8e65c709673","ios":"levelo://app?vid=ace39036-9a2e-402b-ad6a-d8e65c709673"},"vehicle_type_id":"4","last_reported":1731089522,"current_range_meters":32000,"station_id":"ce4bgv92rcd13ifvqcq0","pricing_plan_id":"cebpf4jnsgd1na2vs0mg"},{"bike_id":"c0a52d17-cbb9-4fc8-81d7-31b6a7874899","system_id":"levelo_inurba_marseille","lat":43.24178,"lon":5.3973,"is_reserved":false,"is_disabled":false,"rental_uris":{"android":"levelo://app?vid=c0a52d17-cbb9-4fc8-81d7-31b6a7874899","ios":"levelo://app?vid=c0a52d17-cbb9-4fc8-81d7-31b6a7874899"},"vehicle_type_id":"4","last_reported":1731089522,"current_range_meters":22800,"station_id":"ce4bhi12rcd13ifvqfp0","pricing_plan_id":"cebpf4jnsgd1na2vs0mg"},{"bike_id":"cee98134-a23d-4eff-a667-4bcb20aa2cf1","system_id":"levelo_inurba_marseille","lat":43.28979,"lon":5.37835,"is_reserved":false,"is_disabled":false,"rental_uris":{"android":"levelo://app?vid=cee98134-a23d-4eff-a667-4bcb20aa2cf1","ios":"levelo://app?vid=cee98134-a23d-4eff-a667-4bcb20aa2cf1"},"vehicle_type_id":"4","last_reported":1731089522,"current_range_meters":27600,"station_id":"ce4bh9p2rcd13ifvqed0","pricing_plan_id":"cebpf4jnsgd1na2vs0mg"},{"bike_id":"016b34d4-6dc6-48c7-a19a-f8496f1bd2b6","system_id":"levelo_inurba_marseille","lat":43.231474,"lon":5.437214,"is_reserved":false,"is_disabled":false,"rental_uris":{"android":"levelo://app?vid=016b34d4-6dc6-48c7-a19a-f8496f1bd2b6","ios":"levelo://app?vid=016b34d4-6dc6-48c7-a19a-f8496f1bd2b6"},"vehicle_type_id":"4","last_reported":1731089522,"current_range_meters":38800,"station_id":"ce4bhmp2rcd13ifvqgog","pricing_plan_id":"cebpf4jnsgd1na2vs0mg"},{"bike_id":"d22090a2-16aa-4b0e-ac05-9e170415f4fb","system_id":"levelo_inurba_marseille","lat":43.30584,"lon":5.39355,"is_reserved":false,"is_disabled":false,"rental_uris":{"android":"levelo://app?vid=d22090a2-16aa-4b0e-ac05-9e170415f4fb","ios":"levelo://app?vid=d22090a2-16aa-4b0e-ac05-9e170415f4fb"},"vehicle_type_id":"4","last_reported":1731089522,"current_range_meters":24800,"station_id":"ce4bh0p2rcd13ifvqd80","pricing_plan_id":"cebpf4jnsgd1na2vs0mg"},{"bike_id":"884ca692-8854-4263-ad36-aa9c5ee77892","system_id":"levelo_inurba_marseille","lat":43.27993,"lon":5.40023,"is_reserved":false,"is_disabled":false,"rental_uris":{"android":"levelo://app?vid=884ca692-8854-4263-ad36-aa9c5ee77892","ios":"levelo://app?vid=884ca692-8854-4263-ad36-aa9c5ee77892"},"vehicle_type_id":"4","last_reported":1731089522,"current_range_meters":20000,"station_id":"ce4bho92rcd13ifvqh4g","pricing_plan_id":"cebpf4jnsgd1na2vs0mg"},{"bike_id":"284eb2c4-f3b0-42aa-9ad0-9e96bec748f5","system_id":"levelo_inurba_marseille","lat":43.31537,"lon":5.38027,"is_reserved":false,"is_disabled":false,"rental_uris":{"android":"levelo://app?vid=284eb2c4-f3b0-42aa-9ad0-9e96bec748f5","ios":"levelo://app?vid=284eb2c4-f3b0-42aa-9ad0-9e96bec748f5"},"vehicle_type_id":"4","last_reported":1731089522,"current_range_meters":38800,"station_id":"ce4bhsp2rcd13ifvqi50","pricing_plan_id":"cebpf4jnsgd1na2vs0mg"},{"bike_id":"2e1fdcfa-cd9f-464d-ae17-e239940b1309","system_id":"levelo_inurba_marseille","lat":43.26196,"lon":5.37928,"is_reserved":false,"is_disabled":false,"rental_uris":{"android":"levelo://app?vid=2e1fdcfa-cd9f-464d-ae17-e239940b1309","ios":"levelo://app?vid=2e1fdcfa-cd9f-464d-ae17-e239940b1309"},"vehicle_type_id":"4","last_reported":1731089522,"current_range_meters":25600,"station_id":"ce4bhjp2rcd13ifvqg90","pricing_plan_id":"cebpf4jnsgd1na2vs0mg"},{"bike_id":"ee3b47d5-0cc4-44c8-8ca7-ba29dcbcdc62","system_id":"levelo_inurba_marseille","lat":43.32363,"lon":5.3889,"is_reserved":false,"is_disabled":false,"rental_uris":{"android":"levelo://app?vid=ee3b47d5-0cc4-44c8-8ca7-ba29dcbcdc62","ios":"levelo://app?vid=ee3b47d5-0cc4-44c8-8ca7-ba29dcbcdc62"},"vehicle_type_id":"4","last_reported":1731089522,"current_range_meters":30800,"station_id":"ce4bhqp2rcd13ifvqhog","pricing_plan_id":"cebpf4jnsgd1na2vs0mg"},{"bike_id":"4ef11a7e-5741-4137-93db-9843a378e6ee","system_id":"levelo_inurba_marseille","lat":43.31713,"lon":5.43709,"is_reserved":false,"is_disabled":false,"rental_uris":{"android":"levelo://app?vid=4ef11a7e-5741-4137-93db-9843a378e6ee","ios":"levelo://app?vid=4ef11a7e-5741-4137-93db-9843a378e6ee"},"vehicle_type_id":"4","last_reported":1731089522,"current_range_meters":14400,"station_id":"ce4bhp92rcd13ifvqhcg","pricing_plan_id":"cebpf4jnsgd1na2vs0mg"},{"bike_id":"ac14c6fb-53de-40f7-8d2c-5cc730c7f123","system_id":"levelo_inurba_marseille","lat":43.307865,"lon":5.37659,"is_reserved":false,"is_disabled":false,"rental_uris":{"android":"levelo://app?vid=ac14c6fb-53de-40f7-8d2c-5cc730c7f123","ios":"levelo://app?vid=ac14c6fb-53de-40f7-8d2c-5cc730c7f123"},"vehicle_type_id":"4","last_reported":1731089522,"current_range_meters":30800,"station_id":"ce4bgv92rcd13ifvqcq0","pricing_plan_id":"cebpf4jnsgd1na2vs0mg"},{"bike_id":"a697c59c-211c-4f5d-878f-a22982045104","system_id":"levelo_inurba_marseille","lat":43.27994,"lon":5.4002,"is_reserved":false,"is_disabled":false,"rental_uris":{"android":"levelo://app?vid=a697c59c-211c-4f5d-878f-a22982045104","ios":"levelo://app?vid=a697c59c-211c-4f5d-878f-a22982045104"},"vehicle_type_id":"4","last_reported":1731089522,"current_range_meters":18000,"station_id":"ce4bho92rcd13ifvqh4g","pricing_plan_id":"cebpf4jnsgd1na2vs0mg"},{"bike_id":"2da5bc92-ba5f-4b8b-819c-b13e79217966","system_id":"levelo_inurba_marseille","lat":43.29261,"lon":5.38455,"is_reserved":false,"is_disabled":false,"rental_uris":{"android":"levelo://app?vid=2da5bc92-ba5f-4b8b-819c-b13e79217966","ios":"levelo://app?vid=2da5bc92-ba5f-4b8b-819c-b13e79217966"},"vehicle_type_id":"4","last_reported":1731089522,"current_range_meters":27600,"station_id":"ce4bh692rcd13ifvqea0","pricing_plan_id":"cebpf4jnsgd1na2vs0mg"},{"bike_id":"0fcb369a-080f-4929-87bd-c26dc22c2ba4","system_id":"levelo_inurba_marseille","lat":43.30211,"lon":5.39468,"is_reserved":false,"is_disabled":false,"rental_uris":{"android":"levelo://app?vid=0fcb369a-080f-4929-87bd-c26dc22c2ba4","ios":"levelo://app?vid=0fcb369a-080f-4929-87bd-c26dc22c2ba4"},"vehicle_type_id":"4","last_reported":1731089522,"current_range_meters":30000,"station_id":"ce4bh0p2rcd13ifvqd70","pricing_plan_id":"cebpf4jnsgd1na2vs0mg"},{"bike_id":"94a52404-014a-4876-983c-7bd1062448f0","system_id":"levelo_inurba_marseille","lat":43.26954,"lon":5.38642,"is_reserved":false,"is_disabled":false,"rental_uris":{"android":"levelo://app?vid=94a52404-014a-4876-983c-7bd1062448f0","ios":"levelo://app?vid=94a52404-014a-4876-983c-7bd1062448f0"},"vehicle_type_id":"4","last_reported":1731089522,"current_range_meters":36400,"station_id":"ce4bhh92rcd13ifvqfh0","pricing_plan_id":"cebpf4jnsgd1na2vs0mg"},{"bike_id":"ae05842a-0d78-449e-8930-934024cc73fa","system_id":"levelo_inurba_marseille","lat":43.26193,"lon":5.37452,"is_reserved":false,"is_disabled":false,"rental_uris":{"android":"levelo://app?vid=ae05842a-0d78-449e-8930-934024cc73fa","ios":"levelo://app?vid=ae05842a-0d78-449e-8930-934024cc73fa"},"vehicle_type_id":"4","last_reported":1731089522,"current_range_meters":27600,"station_id":"ce4bhgp2rcd13ifvqfc0","pricing_plan_id":"cebpf4jnsgd1na2vs0mg"},{"bike_id":"63945109-1a48-45a9-987d-c1583ff44e11","system_id":"levelo_inurba_marseille","lat":43.29553,"lon":5.42294,"is_reserved":false,"is_disabled":false,"rental_uris":{"android":"levelo://app?vid=63945109-1a48-45a9-987d-c1583ff44e11","ios":"levelo://app?vid=63945109-1a48-45a9-987d-c1583ff44e11"},"vehicle_type_id":"4","last_reported":1731089522,"current_range_meters":2800,"station_id":"ce4bhph2rcd13ifvqhdg","pricing_plan_id":"cebpf4jnsgd1na2vs0mg"},{"bike_id":"e7a7c099-07dc-45b7-9c26-587a7a6c3265","system_id":"levelo_inurba_marseille","lat":43.337444,"lon":5.374475,"is_reserved":false,"is_disabled":false,"rental_uris":{"android":"levelo://app?vid=e7a7c099-07dc-45b7-9c26-587a7a6c3265","ios":"levelo://app?vid=e7a7c099-07dc-45b7-9c26-587a7a6c3265"},"vehicle_type_id":"4","last_reported":1731089522,"current_range_meters":37600,"station_id":"","pricing_plan_id":"cebpf4jnsgd1na2vs0mg"},{"bike_id":"a2008a83-a060-4ece-a83e-51a7064aca81","system_id":"levelo_inurba_marseille","lat":43.29255,"lon":5.3843,"is_reserved":false,"is_disabled":false,"rental_uris":{"android":"levelo://app?vid=a2008a83-a060-4ece-a83e-51a7064aca81","ios":"levelo://app?vid=a2008a83-a060-4ece-a83e-51a7064aca81"},"vehicle_type_id":"4","last_reported":1731089522,"current_range_meters":32000,"station_id":"ce4bh692rcd13ifvqea0","pricing_plan_id":"cebpf4jnsgd1na2vs0mg"},{"bike_id":"79dc3083-457c-4216-8555-3c16768d76ee","system_id":"levelo_inurba_marseille","lat":43.29554,"lon":5.36269,"is_reserved":false,"is_disabled":false,"rental_uris":{"android":"levelo://app?vid=79dc3083-457c-4216-8555-3c16768d76ee","ios":"levelo://app?vid=79dc3083-457c-4216-8555-3c16768d76ee"},"vehicle_type_id":"4","last_reported":1731089522,"current_range_meters":16000,"station_id":"","pricing_plan_id":"cebpf4jnsgd1na2vs0mg"},{"bike_id":"14a910cd-892a-47ce-8c12-ba88b008fa3f","system_id":"levelo_inurba_marseille","lat":43.31217,"lon":5.36857,"is_reserved":false,"is_disabled":false,"rental_uris":{"android":"levelo://app?vid=14a910cd-892a-47ce-8c12-ba88b008fa3f","ios":"levelo://app?vid=14a910cd-892a-47ce-8c12-ba88b008fa3f"},"vehicle_type_id":"4","last_reported":1731089522,"current_range_meters":11600,"station_id":"ce4bgl92rcd13ifvqbq0","pricing_plan_id":"cebpf4jnsgd1na2vs0mg"},{"bike_id":"a2cdcb86-4568-4218-84ea-1cb3200427ec","system_id":"levelo_inurba_marseille","lat":43.26783,"lon":5.39416,"is_reserved":false,"is_disabled":false,"rental_uris":{"android":"levelo://app?vid=a2cdcb86-4568-4218-84ea-1cb3200427ec","ios":"levelo://app?vid=a2cdcb86-4568-4218-84ea-1cb3200427ec"},"vehicle_type_id":"4","last_reported":1731089522,"current_range_meters":32000,"station_id":"ce4bhh12rcd13ifvqfg0","pricing_plan_id":"cebpf4jnsgd1na2vs0mg"},{"bike_id":"bdab7898-eebd-4c44-ae08-ec1b33e21ec2","system_id":"levelo_inurba_marseille","lat":43.26939,"lon":5.40246,"is_reserved":false,"is_disabled":false,"rental_uris":{"android":"levelo://app?vid=bdab7898-eebd-4c44-ae08-ec1b33e21ec2","ios":"levelo://app?vid=bdab7898-eebd-4c44-ae08-ec1b33e21ec2"},"vehicle_type_id":"4","last_reported":1731089522,"current_range_meters":33600,"station_id":"cjm6bp8fraef2m0cb0m0","pricing_plan_id":"cebpf4jnsgd1na2vs0mg"},{"bike_id":"bb50e66e-af18-4148-93c5-c27b46c0061b","system_id":"levelo_inurba_marseille","lat":43.27378,"lon":5.36255,"is_reserved":false,"is_disabled":false,"rental_uris":{"android":"levelo://app?vid=bb50e66e-af18-4148-93c5-c27b46c0061b","ios":"levelo://app?vid=bb50e66e-af18-4148-93c5-c27b46c0061b"},"vehicle_type_id":"4","last_reported":1731089522,"current_range_meters":12800,"station_id":"ce4bhbh2rcd13ifvqeo0","pricing_plan_id":"cebpf4jnsgd1na2vs0mg"},{"bike_id":"de9f94f5-3d68-4c10-88e7-061373bc9fa0","system_id":"levelo_inurba_marseille","lat":43.25494,"lon":5.37649,"is_reserved":false,"is_disabled":false,"rental_uris":{"android":"levelo://app?vid=de9f94f5-3d68-4c10-88e7-061373bc9fa0","ios":"levelo://app?vid=de9f94f5-3d68-4c10-88e7-061373bc9fa0"},"vehicle_type_id":"4","last_reported":1731089522,"current_range_meters":14400,"station_id":"ce4bhh12rcd13ifvqff0","pricing_plan_id":"cebpf4jnsgd1na2vs0mg"},{"bike_id":"b39313cb-d2c1-4b07-8a18-495b0ad1316a","system_id":"levelo_inurba_marseille","lat":43.29306,"lon":5.37178,"is_reserved":false,"is_disabled":false,"rental_uris":{"android":"levelo://app?vid=b39313cb-d2c1-4b07-8a18-495b0ad1316a","ios":"levelo://app?vid=b39313cb-d2c1-4b07-8a18-495b0ad1316a"},"vehicle_type_id":"4","last_reported":1731089522,"current_range_meters":38800,"station_id":"ce4bgh92rcd13ifvqb40","pricing_plan_id":"cebpf4jnsgd1na2vs0mg"},{"bike_id":"2600d00e-f854-463a-aafc-8f6e7525480c","system_id":"levelo_inurba_marseille","lat":43.28845,"lon":5.35858,"is_reserved":false,"is_disabled":false,"rental_uris":{"android":"levelo://app?vid=2600d00e-f854-463a-aafc-8f6e7525480c","ios":"levelo://app?vid=2600d00e-f854-463a-aafc-8f6e7525480c"},"vehicle_type_id":"4","last_reported":1731089522,"current_range_meters":37600,"station_id":"ce4bhb12rcd13ifvqem0","pricing_plan_id":"cebpf4jnsgd1na2vs0mg"},{"bike_id":"0413894a-4063-47d6-8c7b-a4e87d820a67","system_id":"levelo_inurba_marseille","lat":43.31711,"lon":5.43709,"is_reserved":false,"is_disabled":false,"rental_uris":{"android":"levelo://app?vid=0413894a-4063-47d6-8c7b-a4e87d820a67","ios":"levelo://app?vid=0413894a-4063-47d6-8c7b-a4e87d820a67"},"vehicle_type_id":"4","last_reported":1731089522,"current_range_meters":24400,"station_id":"ce4bhp92rcd13ifvqhcg","pricing_plan_id":"cebpf4jnsgd1na2vs0mg"},{"bike_id":"191f90fe-8e86-4786-a8e4-d22cad89cdc1","system_id":"levelo_inurba_marseille","lat":43.337444,"lon":5.374475,"is_reserved":false,"is_disabled":false,"rental_uris":{"android":"levelo://app?vid=191f90fe-8e86-4786-a8e4-d22cad89cdc1","ios":"levelo://app?vid=191f90fe-8e86-4786-a8e4-d22cad89cdc1"},"vehicle_type_id":"4","last_reported":1731089522,"current_range_meters":35600,"station_id":"","pricing_plan_id":"cebpf4jnsgd1na2vs0mg"},{"bike_id":"246ca754-d314-4086-95e2-b993cdf3aa01","system_id":"levelo_inurba_marseille","lat":43.2695,"lon":5.38643,"is_reserved":false,"is_disabled":false,"rental_uris":{"android":"levelo://app?vid=246ca754-d314-4086-95e2-b993cdf3aa01","ios":"levelo://app?vid=246ca754-d314-4086-95e2-b993cdf3aa01"},"vehicle_type_id":"4","last_reported":1731089522,"current_range_meters":16000,"station_id":"ce4bhh92rcd13ifvqfh0","pricing_plan_id":"cebpf4jnsgd1na2vs0mg"},{"bike_id":"6f45b86c-7139-4317-9e52-890f435d57c5","system_id":"levelo_inurba_marseille","lat":43.26686,"lon":5.3827,"is_reserved":false,"is_disabled":false,"rental_uris":{"android":"levelo://app?vid=6f45b86c-7139-4317-9e52-890f435d57c5","ios":"levelo://app?vid=6f45b86c-7139-4317-9e52-890f435d57c5"},"vehicle_type_id":"4","last_reported":1731089522,"current_range_meters":22400,"station_id":"ce4bhg92rcd13ifvqf90","pricing_plan_id":"cebpf4jnsgd1na2vs0mg"},{"bike_id":"eede7ae8-2e17-4712-8cb2-43fabc57a89e","system_id":"levelo_inurba_marseille","lat":43.25118,"lon":5.40322,"is_reserved":false,"is_disabled":false,"rental_uris":{"android":"levelo://app?vid=eede7ae8-2e17-4712-8cb2-43fabc57a89e","ios":"levelo://app?vid=eede7ae8-2e17-4712-8cb2-43fabc57a89e"},"vehicle_type_id":"4","last_reported":1731089522,"current_range_meters":34800,"station_id":"ce4bhlh2rcd13ifvqgig","pricing_plan_id":"cebpf4jnsgd1na2vs0mg"},{"bike_id":"ba47390f-999a-4c45-b73e-0241fc7ba4ae","system_id":"levelo_inurba_marseille","lat":43.29531,"lon":5.38538,"is_reserved":false,"is_disabled":false,"rental_uris":{"android":"levelo://app?vid=ba47390f-999a-4c45-b73e-0241fc7ba4ae","ios":"levelo://app?vid=ba47390f-999a-4c45-b73e-0241fc7ba4ae"},"vehicle_type_id":"4","last_reported":1731089522,"current_range_meters":28800,"station_id":"ce4bgih2rcd13ifvqba0","pricing_plan_id":"cebpf4jnsgd1na2vs0mg"},{"bike_id":"44954a5f-6183-4623-ae55-edd6264d3e0a","system_id":"levelo_inurba_marseille","lat":43.29422,"lon":5.38628,"is_reserved":false,"is_disabled":false,"rental_uris":{"android":"levelo://app?vid=44954a5f-6183-4623-ae55-edd6264d3e0a","ios":"levelo://app?vid=44954a5f-6183-4623-ae55-edd6264d3e0a"},"vehicle_type_id":"4","last_reported":1731089522,"current_range_meters":4000,"station_id":"ce4bh2h2rcd13ifvqdh0","pricing_plan_id":"cebpf4jnsgd1na2vs0mg"},{"bike_id":"a2204741-59e7-4bc2-b887-550ca1e67d9f","system_id":"levelo_inurba_marseille","lat":43.31351,"lon":5.36723,"is_reserved":false,"is_disabled":false,"rental_uris":{"android":"levelo://app?vid=a2204741-59e7-4bc2-b887-550ca1e67d9f","ios":"levelo://app?vid=a2204741-59e7-4bc2-b887-550ca1e67d9f"},"vehicle_type_id":"4","last_reported":1731089522,"current_range_meters":7200,"station_id":"ce4bgr92rcd13ifvqc6g","pricing_plan_id":"cebpf4jnsgd1na2vs0mg"},{"bike_id":"8805290f-fee7-4bfa-ad14-cf553c79e404","system_id":"levelo_inurba_marseille","lat":43.26554,"lon":5.37288,"is_reserved":false,"is_disabled":false,"rental_uris":{"android":"levelo://app?vid=8805290f-fee7-4bfa-ad14-cf553c79e404","ios":"levelo://app?vid=8805290f-fee7-4bfa-ad14-cf553c79e404"},"vehicle_type_id":"4","last_reported":1731089522,"current_range_meters":24000,"station_id":"ce4bhg12rcd13ifvqf70","pricing_plan_id":"cebpf4jnsgd1na2vs0mg"},{"bike_id":"95c473eb-49c0-4192-8ae2-2145b693dd45","system_id":"levelo_inurba_marseille","lat":43.29528,"lon":5.38544,"is_reserved":false,"is_disabled":false,"rental_uris":{"android":"levelo://app?vid=95c473eb-49c0-4192-8ae2-2145b693dd45","ios":"levelo://app?vid=95c473eb-49c0-4192-8ae2-2145b693dd45"},"vehicle_type_id":"4","last_reported":1731089522,"current_range_meters":36800,"station_id":"ce4bgih2rcd13ifvqba0","pricing_plan_id":"cebpf4jnsgd1na2vs0mg"},{"bike_id":"8b374149-0761-41b9-bee0-a5496655968e","system_id":"levelo_inurba_marseille","lat":43.23964,"lon":5.36634,"is_reserved":false,"is_disabled":false,"rental_uris":{"android":"levelo://app?vid=8b374149-0761-41b9-bee0-a5496655968e","ios":"levelo://app?vid=8b374149-0761-41b9-bee0-a5496655968e"},"vehicle_type_id":"4","last_reported":1731089522,"current_range_meters":22400,"station_id":"ce4bhi12rcd13ifvqfp0","pricing_plan_id":"cebpf4jnsgd1na2vs0mg"},{"bike_id":"0038de0e-17ce-4184-919f-905cf3db5223","system_id":"levelo_inurba_marseille","lat":43.23195,"lon":5.35549,"is_reserved":false,"is_disabled":false,"rental_uris":{"android":"levelo://app?vid=0038de0e-17ce-4184-919f-905cf3db5223","ios":"levelo://app?vid=0038de0e-17ce-4184-919f-905cf3db5223"},"vehicle_type_id":"4","last_reported":1731089522,"current_range_meters":39200,"station_id":"ce4bhu92rcd13ifvqi70","pricing_plan_id":"cebpf4jnsgd1na2vs0mg"},{"bike_id":"67f9fb96-c5a6-413a-8c46-ebb3dfda633a","system_id":"levelo_inurba_marseille","lat":43.29262,"lon":5.38449,"is_reserved":false,"is_disabled":false,"rental_uris":{"android":"levelo://app?vid=67f9fb96-c5a6-413a-8c46-ebb3dfda633a","ios":"levelo://app?vid=67f9fb96-c5a6-413a-8c46-ebb3dfda633a"},"vehicle_type_id":"4","last_reported":1731089522,"current_range_meters":38000,"station_id":"ce4bh692rcd13ifvqea0","pricing_plan_id":"cebpf4jnsgd1na2vs0mg"},{"bike_id":"661bcef8-65c6-4b34-9332-f630199e3f1f","system_id":"levelo_inurba_marseille","lat":43.290347,"lon":5.375544,"is_reserved":false,"is_disabled":false,"rental_uris":{"android":"levelo://app?vid=661bcef8-65c6-4b34-9332-f630199e3f1f","ios":"levelo://app?vid=661bcef8-65c6-4b34-9332-f630199e3f1f"},"vehicle_type_id":"4","last_reported":1731089522,"current_range_meters":16400,"station_id":"ce4bhb92rcd13ifvqen0","pricing_plan_id":"cebpf4jnsgd1na2vs0mg"},