{"last_updated":1781392887,"ttl":60,"version":"2.2","data":{"bikes":[{"bike_id":"ec12d144-24c8-4071-abf6-197e520eae96","system_id":"levelo_inurba_marseille","lat":43.337444,"lon":5.374475,"is_reserved":false,"is_disabled":false,"rental_uris":{"android":"levelo://app?vid=ec12d144-24c8-4071-abf6-197e520eae96","ios":"levelo://app?vid=ec12d144-24c8-4071-abf6-197e520eae96"},"vehicle_type_id":"4","last_reported":1781392888,"current_range_meters":0,"station_id":"","pricing_plan_id":"cebpf4jnsgd1na2vs0mg"},{"bike_id":"40495bca-76aa-44b1-aa99-365eb7375130","system_id":"levelo_inurba_marseille","lat":43.28593,"lon":5.39945,"is_reserved":false,"is_disabled":false,"rental_uris":{"android":"levelo://app?vid=40495bca-76aa-44b1-aa99-365eb7375130","ios":"levelo://app?vid=40495bca-76aa-44b1-aa99-365eb7375130"},"vehicle_type_id":"4","last_reported":1781392888,"current_range_meters":2800,"station_id":"","pricing_plan_id":"cebpf4jnsgd1na2vs0mg"},{"bike_id":"2413e5f9-2806-4643-807d-11a44a37eaf4","system_id":"levelo_inurba_marseille","lat":43.27953,"lon":5.38745,"is_reserved":false,"is_disabled":false,"rental_uris":{"android":"levelo://app?vid=2413e5f9-2806-4643-807d-11a44a37eaf4","ios":"levelo://app?vid=2413e5f9-2806-4643-807d-11a44a37eaf4"},"vehicle_type_id":"4","last_reported":1781392888,"current_range_meters":2800,"station_id":"ce4bhg12rcd13ifvqf80","pricing_plan_id":"cebpf4jnsgd1na2vs0mg"},{"bike_id":"98c0a183-7ee6-4b0b-b809-46c8824508e7","system_id":"levelo_inurba_marseille","lat":43.29611,"lon":5.41928,"is_reserved":false,"is_disabled":false,"rental_uris":{"android":"levelo://app?vid=98c0a183-7ee6-4b0b-b809-46c8824508e7","ios":"levelo://app?vid=98c0a183-7ee6-4b0b-b809-46c8824508e7"},"vehicle_type_id":"4","last_reported":1781392888,"current_range_meters":2800,"station_id":"","pricing_plan_id":"cebpf4jnsgd1na2vs0mg"},{"bike_id":"a1f49648-b59d-44f3-81ec-65ff760537ac","system_id":"levelo_inurba_marseille","lat":43.24166,"lon":5.39735,"is_reserved":false,"is_disabled":false,"rental_uris":{"android":"levelo://app?vid=a1f49648-b59d-44f3-81ec-65ff760537ac","ios":"levelo://app?vid=a1f49648-b59d-44f3-81ec-65ff760537ac"},"vehicle_type_id":"4","last_reported":1781392888,"current_range_meters":2800,"station_id":"ce4bhn12rcd13ifvqgpg","pricing_plan_id":"cebpf4jnsgd1na2vs0mg"},{"bike_id":"34a2df3a-b739-4d62-834d-2a1aa1b60a88","system_id":"levelo_inurba_marseille","lat":43.291656,"lon":5.371366,"is_reserved":false,"is_disabled":false,"rental_uris":{"android":"levelo://app?vid=34a2df3a-b739-4d62-834d-2a1aa1b60a88","ios":"levelo://app?vid=34a2df3a-b739-4d62-834d-2a1aa1b60a88"},"vehicle_type_id":"4","last_reported":1781392888,"current_range_meters":2800,"station_id":"ce4bha92rcd13ifvqeh0","pricing_plan_id":"cebpf4jnsgd1na2vs0mg"},{"bike_id":"11167b75-da39-4084-8a89-43162bff8fee","system_id":"levelo_inurba_marseille","lat":43.27937,"lon":5.38707,"is_reserved":false,"is_disabled":false,"rental_uris":{"android":"levelo://app?vid=11167b75-da39-4084-8a89-43162bff8fee","ios":"levelo://app?vid=11167b75-da39-4084-8a89-43162bff8fee"},"vehicle_type_id":"4","last_reported":1781392888,"current_range_meters":2800,"station_id":"","pricing_plan_id":"cebpf4jnsgd1na2vs0mg"},{"bike_id":"f312a474-3688-43e4-8515-a784a5c48528","system_id":"levelo_inurba_marseille","lat":43.21189,"lon":5.35068,"is_reserved":false,"is_disabled":true,"rental_uris":{"android":"levelo://app?vid=f312a474-3688-43e4-8515-a784a5c48528","ios":"levelo://app?vid=f312a474-3688-43e4-8515-a784a5c48528"},"vehicle_type_id":"4","last_reported":1781392888,"current_range_meters":2800,"station_id":"st_cvj6sg6p6f1abm77japg","pricing_plan_id":"cebpf4jnsgd1na2vs0mg"},{"bike_id":"db825a5e-3256-426b-a46f-1f919ceba07d","system_id":"levelo_inurba_marseille","lat":43.2795,"lon":5.38719,"is_reserved":false,"is_disabled":true,"rental_uris":{"android":"levelo://app?vid=db825a5e-3256-426b-a46f-1f919ceba07d","ios":"levelo://app?vid=db825a5e-3256-426b-a46f-1f919ceba07d"},"vehicle_type_id":"4","last_reported":1781392888,"current_range_meters":2800,"station_id":"ce4bhg12rcd13ifvqf80","pricing_plan_id":"cebpf4jnsgd1na2vs0mg"},{"bike_id":"97af761e-260f-462d-8092-c170e34b04a8","system_id":"levelo_inurba_marseille","lat":43.30795,"lon":5.38159,"is_reserved":false,"is_disabled":false,"rental_uris":{"android":"levelo://app?vid=97af761e-260f-462d-8092-c170e34b04a8","ios":"levelo://app?vid=97af761e-260f-462d-8092-c170e34b04a8"},"vehicle_type_id":"4","last_reported":1781392888,"current_range_meters":2800,"station_id":"ce4bgt12rcd13ifvqce0","pricing_plan_id":"cebpf4jnsgd1na2vs0mg"},{"bike_id":"65772aff-cdd3-4d25-bdb9-ad0a2e845584","system_id":"levelo_inurba_marseille","lat":43.31325,"lon":5.3969,"is_reserved":false,"is_disabled":false,"rental_uris":{"android":"levelo://app?vid=65772aff-cdd3-4d25-bdb9-ad0a2e845584","ios":"levelo://app?vid=65772aff-cdd3-4d25-bdb9-ad0a2e845584"},"vehicle_type_id":"4","last_reported":1781392888,"current_range_meters":2800,"station_id":"ce4bgvp2rcd13ifvqcu0","pricing_plan_id":"cebpf4jnsgd1na2vs0mg"},{"bike_id":"f6c5cd24-c50e-406d-9da3-9f703728b262","system_id":"levelo_inurba_marseille","lat":43.22914,"lon":5.35375,"is_reserved":false,"is_disabled":false,"rental_uris":{"android":"levelo://app?vid=f6c5cd24-c50e-406d-9da3-9f703728b262","ios":"levelo://app?vid=f6c5cd24-c50e-406d-9da3-9f703728b262"},"vehicle_type_id":"4","last_reported":1781392888,"current_range_meters":2800,"station_id":"cpo3532slgdg3j2ikp40","pricing_plan_id":"cebpf4jnsgd1na2vs0mg"},{"bike_id":"8a9f3474-1ba5-4fc3-b4e6-1d2f8579f9d1","system_id":"levelo_inurba_marseille","lat":43.26525,"lon":5.39051,"is_reserved":false,"is_disabled":true,"rental_uris":{"android":"levelo://app?vid=8a9f3474-1ba5-4fc3-b4e6-1d2f8579f9d1","ios":"levelo://app?vid=8a9f3474-1ba5-4fc3-b4e6-1d2f8579f9d1"},"vehicle_type_id":"4","last_reported":1781392888,"current_range_meters":2800,"station_id":"","pricing_plan_id":"cebpf4jnsgd1na2vs0mg"},{"bike_id":"ac871075-ad16-4bf7-b8c1-e5f1faed3b24","system_id":"levelo_inurba_marseille","lat":43.24625,"lon":5.41642,"is_reserved":false,"is_disabled":false,"rental_uris":{"android":"levelo://app?vid=ac871075-ad16-4bf7-b8c1-e5f1faed3b24","ios":"levelo://app?vid=ac871075-ad16-4bf7-b8c1-e5f1faed3b24"},"vehicle_type_id":"4","last_reported":1781392888,"current_range_meters":2800,"station_id":"","pricing_plan_id":"cebpf4jnsgd1na2vs0mg"},{"bike_id":"54bd145f-3282-4937-bc36-7daed387df88","system_id":"levelo_inurba_marseille","lat":43.25007,"lon":5.3892,"is_reserved":false,"is_disabled":false,"rental_uris":{"android":"levelo://app?vid=54bd145f-3282-4937-bc36-7daed387df88","ios":"levelo://app?vid=54bd145f-3282-4937-bc36-7daed387df88"},"vehicle_type_id":"4","last_reported":1781392888,"current_range_meters":2800,"station_id":"ce4bhgp2rcd13ifvqfd0","pricing_plan_id":"cebpf4jnsgd1na2vs0mg"},{"bike_id":"9e0f36c3-3683-4ca6-860d-982bbc91c309","system_id":"levelo_inurba_marseille","lat":43.29197,"lon":5.39328,"is_reserved":false,"is_disabled":true,"rental_uris":{"android":"levelo://app?vid=9e0f36c3-3683-4ca6-860d-982bbc91c309","ios":"levelo://app?vid=9e0f36c3-3683-4ca6-860d-982bbc91c309"},"vehicle_type_id":"4","last_reported":1781392888,"current_range_meters":2800,"station_id":"ce4bh192rcd13ifvqdd0","pricing_plan_id":"cebpf4jnsgd1na2vs0mg"},{"bike_id":"ae48eca5-82f2-4b7d-bee4-b16e05de9630","system_id":"levelo_inurba_marseille","lat":43.30654,"lon":5.40086,"is_reserved":false,"is_disabled":false,"rental_uris":{"android":"levelo://app?vid=ae48eca5-82f2-4b7d-bee4-b16e05de9630","ios":"levelo://app?vid=ae48eca5-82f2-4b7d-bee4-b16e05de9630"},"vehicle_type_id":"4","last_reported":1781392888,"current_range_meters":2800,"station_id":"ce4bh112rcd13ifvqda0","pricing_plan_id":"cebpf4jnsgd1na2vs0mg"},{"bike_id":"9c0dce35-5c7c-446d-b3fd-7a760fa14e17","system_id":"levelo_inurba_marseille","lat":43.29802,"lon":5.40401,"is_reserved":false,"is_disabled":false,"rental_uris":{"android":"levelo://app?vid=9c0dce35-5c7c-446d-b3fd-7a760fa14e17","ios":"levelo://app?vid=9c0dce35-5c7c-446d-b3fd-7a760fa14e17"},"vehicle_type_id":"4","last_reported":1781392888,"current_range_meters":2800,"station_id":"ce4bh112rcd13ifvqd90","pricing_plan_id":"cebpf4jnsgd1na2vs0mg"},{"bike_id":"c9623ed6-fa4d-449c-afb7-da3407c57119","system_id":"levelo_inurba_marseille","lat":43.302546,"lon":5.400841,"is_reserved":false,"is_disabled":false,"rental_uris":{"android":"levelo://app?vid=c9623ed6-fa4d-449c-afb7-da3407c57119","ios":"levelo://app?vid=c9623ed6-fa4d-449c-afb7-da3407c57119"},"vehicle_type_id":"4","last_reported":1781392888,"current_range_meters":2800,"station_id":"ce4bgvh2rcd13ifvqcs0","pricing_plan_id":"cebpf4jnsgd1na2vs0mg"},{"bike_id":"77a3e5cd-10a1-4b18-bd77-e146c62f220c","system_id":"levelo_inurba_marseille","lat":43.2803,"lon":5.37529,"is_reserved":false,"is_disabled":false,"rental_uris":{"android":"levelo://app?vid=77a3e5cd-10a1-4b18-bd77-e146c62f220c","ios":"levelo://app?vid=77a3e5cd-10a1-4b18-bd77-e146c62f220c"},"vehicle_type_id":"4","last_reported":1781392888,"current_range_meters":2800,"station_id":"","pricing_plan_id":"cebpf4jnsgd1na2vs0mg"},{"bike_id":"b3e9ca8a-6aa3-4f56-a9ff-cc8382a1b954","system_id":"levelo_inurba_marseille","lat":43.32494,"lon":5.36582,"is_reserved":false,"is_disabled":false,"rental_uris":{"android":"levelo://app?vid=b3e9ca8a-6aa3-4f56-a9ff-cc8382a1b954","ios":"levelo://app?vid=b3e9ca8a-6aa3-4f56-a9ff-cc8382a1b954"},"vehicle_type_id":"4","last_reported":1781392888,"current_range_meters":2800,"station_id":"ce4bhs12rcd13ifvqhvg","pricing_plan_id":"cebpf4jnsgd1na2vs0mg"},{"bike_id":"7333863b-abc5-447a-8aea-1b21b6738b45","system_id":"levelo_inurba_marseille","lat":43.31361,"lon":5.38503,"is_reserved":false,"is_disabled":false,"rental_uris":{"android":"levelo://app?vid=7333863b-abc5-447a-8aea-1b21b6738b45","ios":"levelo://app?vid=7333863b-abc5-447a-8aea-1b21b6738b45"},"vehicle_type_id":"4","last_reported":1781392888,"current_range_meters":2800,"station_id":"ce4bgt92rcd13ifvqcf0","pricing_plan_id":"cebpf4jnsgd1na2vs0mg"},{"bike_id":"3ad6a9bb-33cd-4dcd-b169-bcd0e4a78825","system_id":"levelo_inurba_marseille","lat":43.2656,"lon":5.3903,"is_reserved":false,"is_disabled":false,"rental_uris":{"android":"levelo://app?vid=3ad6a9bb-33cd-4dcd-b169-bcd0e4a78825","ios":"levelo://app?vid=3ad6a9bb-33cd-4dcd-b169-bcd0e4a78825"},"vehicle_type_id":"4","last_reported":1781392888,"current_range_meters":3200,"station_id":"ce4bhe12rcd13ifvqf30","pricing_plan_id":"cebpf4jnsgd1na2vs0mg"},{"bike_id":"6a27404a-fd45-46ef-b0c6-d19df52b0472","system_id":"levelo_inurba_marseille","lat":43.30066,"lon":5.37734,"is_reserved":false,"is_disabled":false,"rental_uris":{"android":"levelo://app?vid=6a27404a-fd45-46ef-b0c6-d19df52b0472","ios":"levelo://app?vid=6a27404a-fd45-46ef-b0c6-d19df52b0472"},"vehicle_type_id":"4","last_reported":1781392888,"current_range_meters":3200,"station_id":"","pricing_plan_id":"cebpf4jnsgd1na2vs0mg"},{"bike_id":"d8db0ef9-c1ae-4b70-8b18-3a38c812a278","system_id":"levelo_inurba_marseille","lat":43.309026,"lon":5.396519,"is_reserved":false,"is_disabled":false,"rental_uris":{"android":"levelo://app?vid=d8db0ef9-c1ae-4b70-8b18-3a38c812a278","ios":"levelo://app?vid=d8db0ef9-c1ae-4b70-8b18-3a38c812a278"},"vehicle_type_id":"4","last_reported":1781392888,"current_range_meters":3200,"station_id":"ce4bh012rcd13ifvqcv0","pricing_plan_id":"cebpf4jnsgd1na2vs0mg"},{"bike_id":"a88c18f7-a05b-424b-a2e6-87c48e40dd60","system_id":"levelo_inurba_marseille","lat":43.23875,"lon":5.37505,"is_reserved":false,"is_disabled":true,"rental_uris":{"android":"levelo://app?vid=a88c18f7-a05b-424b-a2e6-87c48e40dd60","ios":"levelo://app?vid=a88c18f7-a05b-424b-a2e6-87c48e40dd60"},"vehicle_type_id":"4","last_reported":1781392888,"current_range_meters":3200,"station_id":"st_d6sm7csbq4hs73f8fpjg","pricing_plan_id":"cebpf4jnsgd1na2vs0mg"},{"bike_id":"44368fe8-42bc-4d15-af49-3e8cdb900dbb","system_id":"levelo_inurba_marseille","lat":43.32486,"lon":5.38294,"is_reserved":false,"is_disabled":false,"rental_uris":{"android":"levelo://app?vid=44368fe8-42bc-4d15-af49-3e8cdb900dbb","ios":"levelo://app?vid=44368fe8-42bc-4d15-af49-3e8cdb900dbb"},"vehicle_type_id":"4","last_reported":1781392888,"current_range_meters":3200,"station_id":"st_d4asgbiv49dc73anf9m0","pricing_plan_id":"cebpf4jnsgd1na2vs0mg"},{"bike_id":"abb500d4-9db3-49c1-855d-09267fc106f9","system_id":"levelo_inurba_marseille","lat":43.25063,"lon":5.39538,"is_reserved":false,"is_disabled":false,"rental_uris":{"android":"levelo://app?vid=abb500d4-9db3-49c1-855d-09267fc106f9","ios":"levelo://app?vid=abb500d4-9db3-49c1-855d-09267fc106f9"},"vehicle_type_id":"4","last_reported":1781392888,"current_range_meters":3200,"station_id":"ce4bhm12rcd13ifvqgkg","pricing_plan_id":"cebpf4jnsgd1na2vs0mg"},{"bike_id":"1c788ec5-566e-4d09-9344-44c449a1a9eb","system_id":"levelo_inurba_marseille","lat":43.30121,"lon":5.43124,"is_reserved":false,"is_disabled":false,"rental_uris":{"android":"levelo://app?vid=1c788ec5-566e-4d09-9344-44c449a1a9eb","ios":"levelo://app?vid=1c788ec5-566e-4d09-9344-44c449a1a9eb"},"vehicle_type_id":"4","last_reported":1781392888,"current_range_meters":3200,"station_id":"st_d3js3co5814s73ftftug","pricing_plan_id":"cebpf4jnsgd1na2vs0mg"},{"bike_id":"1f4cf7cf-98e2-40ce-8e0b-c74ae682295d","system_id":"levelo_inurba_marseille","lat":43.26234,"lon":5.38773,"is_reserved":false,"is_disabled":false,"rental_uris":{"android":"levelo://app?vid=1f4cf7cf-98e2-40ce-8e0b-c74ae682295d","ios":"levelo://app?vid=1f4cf7cf-98e2-40ce-8e0b-c74ae682295d"},"vehicle_type_id":"4","last_reported":1781392888,"current_range_meters":3200,"station_id":"st_d8gjfg747rts73coq3b0","pricing_plan_id":"cebpf4jnsgd1na2vs0mg"},{"bike_id":"5f5658e3-285f-4c9f-a714-baa84e015e7d","system_id":"levelo_inurba_marseille","lat":43.29184,"lon":5.39341,"is_reserved":false,"is_disabled":false,"rental_uris":{"android":"levelo://app?vid=5f5658e3-285f-4c9f-a714-baa84e015e7d","ios":"levelo://app?vid=5f5658e3-285f-4c9f-a714-baa84e015e7d"},"vehicle_type_id":"4","last_reported":1781392888,"current_range_meters":3200,"station_id":"ce4bh192rcd13ifvqdd0","pricing_plan_id":"cebpf4jnsgd1na2vs0mg"},{"bike_id":"e37613eb-2b80-45f6-8be7-6bbc2d17cf64","system_id":"levelo_inurba_marseille","lat":43.24811,"lon":5.37457,"is_reserved":false,"is_disabled":true,"rental_uris":{"android":"levelo://app?vid=e37613eb-2b80-45f6-8be7-6bbc2d17cf64","ios":"levelo://app?vid=e37613eb-2b80-45f6-8be7-6bbc2d17cf64"},"vehicle_type_id":"4","last_reported":1781392888,"current_range_meters":3200,"station_id":"ce4bhgh2rcd13ifvqfb0","pricing_plan_id":"cebpf4jnsgd1na2vs0mg"},{"bike_id":"1b8ef766-a21f-4c11-93bb-4a8701510720","system_id":"levelo_inurba_marseille","lat":43.28573,"lon":5.39495,"is_reserved":false,"is_disabled":false,"rental_uris":{"android":"levelo://app?vid=1b8ef766-a21f-4c11-93bb-4a8701510720","ios":"levelo://app?vid=1b8ef766-a21f-4c11-93bb-4a8701510720"},"vehicle_type_id":"4","last_reported":1781392888,"current_range_meters":3200,"station_id":"ce4bh292rcd13ifvqdg0","pricing_plan_id":"cebpf4jnsgd1na2vs0mg"},{"bike_id":"5245b8db-6377-46b1-b931-155a581da557","system_id":"levelo_inurba_marseille","lat":43.27814,"lon":5.40711,"is_reserved":false,"is_disabled":false,"rental_uris":{"android":"levelo://app?vid=5245b8db-6377-46b1-b931-155a581da557","ios":"levelo://app?vid=5245b8db-6377-46b1-b931-155a581da557"},"vehicle_type_id":"4","last_reported":1781392888,"current_range_meters":3200,"station_id":"ce4bhnh2rcd13ifvqgtg","pricing_plan_id":"cebpf4jnsgd1na2vs0mg"},{"bike_id":"6d66d450-1679-43c4-a80f-e8f6d95d5601","system_id":"levelo_inurba_marseille","lat":43.27815,"lon":5.39226,"is_reserved":false,"is_disabled":false,"rental_uris":{"android":"levelo://app?vid=6d66d450-1679-43c4-a80f-e8f6d95d5601","ios":"levelo://app?vid=6d66d450-1679-43c4-a80f-e8f6d95d5601"},"vehicle_type_id":"4","last_reported":1781392888,"current_range_meters":3200,"station_id":"ce4bhjp2rcd13ifvqga0","pricing_plan_id":"cebpf4jnsgd1na2vs0mg"},{"bike_id":"3e303714-f834-4b17-80ad-004ec2f50e57","system_id":"levelo_inurba_marseille","lat":43.300463,"lon":5.400717,"is_reserved":false,"is_disabled":false,"rental_uris":{"android":"levelo://app?vid=3e303714-f834-4b17-80ad-004ec2f50e57","ios":"levelo://app?vid=3e303714-f834-4b17-80ad-004ec2f50e57"},"vehicle_type_id":"4","last_reported":1781392888,"current_range_meters":3200,"station_id":"ce4bh112rcd13ifvqda0","pricing_plan_id":"cebpf4jnsgd1na2vs0mg"},{"bike_id":"84922035-8b7a-40e7-99b5-1ee6a926de30","system_id":"levelo_inurba_marseille","lat":43.29008,"lon":5.36967,"is_reserved":false,"is_disabled":false,"rental_uris":{"android":"levelo://app?vid=84922035-8b7a-40e7-99b5-1ee6a926de30","ios":"levelo://app?vid=84922035-8b7a-40e7-99b5-1ee6a926de30"},"vehicle_type_id":"4","last_reported":1781392888,"current_range_meters":3600,"station_id":"","pricing_plan_id":"cebpf4jnsgd1na2vs0mg"},{"bike_id":"1a88bffb-d80c-4589-82cc-fe92f2372ef8","system_id":"levelo_inurba_marseille","lat":43.30303,"lon":5.40391,"is_reserved":false,"is_disabled":false,"rental_uris":{"android":"levelo://app?vid=1a88bffb-d80c-4589-82cc-fe92f2372ef8","ios":"levelo://app?vid=1a88bffb-d80c-4589-82cc-fe92f2372ef8"},"vehicle_type_id":"4","last_reported":1781392888,"current_range_meters":3600,"station_id":"ce4bh012rcd13ifvqd10","pricing_plan_id":"cebpf4jnsgd1na2vs0mg"},{"bike_id":"35565049-90de-4fb4-b35d-e9c548924e41","system_id":"levelo_inurba_marseille","lat":43.26793,"lon":5.39436,"is_reserved":false,"is_disabled":true,"rental_uris":{"android":"levelo://app?vid=35565049-90de-4fb4-b35d-e9c548924e41","ios":"levelo://app?vid=35565049-90de-4fb4-b35d-e9c548924e41"},"vehicle_type_id":"4","last_reported":1781392888,"current_range_meters":3600,"station_id":"ce4bhh12rcd13ifvqfg0","pricing_plan_id":"cebpf4jnsgd1na2vs0mg"},{"bike_id":"afc9d190-8406-4fbb-8efe-d7817d4a37a1","system_id":"levelo_inurba_marseille","lat":43.29276,"lon":5.40111,"is_reserved":false,"is_disabled":false,"rental_uris":{"android":"levelo://app?vid=afc9d190-8406-4fbb-8efe-d7817d4a37a1","ios":"levelo://app?vid=afc9d190-8406-4fbb-8efe-d7817d4a37a1"},"vehicle_type_id":"4","last_reported":1781392888,"current_range_meters":3600,"station_id":"ce4bh312rcd13ifvqdk0","pricing_plan_id":"cebpf4jnsgd1na2vs0mg"},{"bike_id":"fae9e422-64fd-48b6-a83b-e62363853497","system_id":"levelo_inurba_marseille","lat":43.30095,"lon":5.38294,"is_reserved":false,"is_disabled":false,"rental_uris":{"android":"levelo://app?vid=fae9e422-64fd-48b6-a83b-e62363853497","ios":"levelo://app?vid=fae9e422-64fd-48b6-a83b-e62363853497"},"vehicle_type_id":"4","last_reported":1781392888,"current_range_meters":3600,"station_id":"","pricing_plan_id":"cebpf4jnsgd1na2vs0mg"},{"bike_id":"39c8053f-576a-4fe2-bf0e-4f798d421c30","system_id":"levelo_inurba_marseille","lat":43.29875,"lon":5.39732,"is_reserved":false,"is_disabled":false,"rental_uris":{"android":"levelo://app?vid=39c8053f-576a-4fe2-bf0e-4f798d421c30","ios":"levelo://app?vid=39c8053f-576a-4fe2-bf0e-4f798d421c30"},"vehicle_type_id":"4","last_reported":1781392888,"current_range_meters":3600,"station_id":"ce4bh0h2rcd13ifvqd50","pricing_plan_id":"cebpf4jnsgd1na2vs0mg"},{"bike_id":"61abc050-794c-43f3-96ae-15565612cd1b","system_id":"levelo_inurba_marseille","lat":43.28696,"lon":5.46682,"is_reserved":false,"is_disabled":false,"rental_uris":{"android":"levelo://app?vid=61abc050-794c-43f3-96ae-15565612cd1b","ios":"levelo://app?vid=61abc050-794c-43f3-96ae-15565612cd1b"},"vehicle_type_id":"4","last_reported":1781392888,"current_range_meters":3600,"station_id":"st_d6tc3vkotcvc738tfjhg","pricing_plan_id":"cebpf4jnsgd1na2vs0mg"},{"bike_id":"4ce4b88d-0d81-4914-af74-9bf51bf4371e","system_id":"levelo_inurba_marseille","lat":43.27934,"lon":5.38743,"is_reserved":false,"is_disabled":false,"rental_uris":{"android":"levelo://app?vid=4ce4b88d-0d81-4914-af74-9bf51bf4371e","ios":"levelo://app?vid=4ce4b88d-0d81-4914-af74-9bf51bf4371e"},"vehicle_type_id":"4","last_reported":1781392888,"current_range_meters":3600,"station_id":"ce4bhg12rcd13ifvqf80","pricing_plan_id":"cebpf4jnsgd1na2vs0mg"},{"bike_id":"0d77b0d4-f5c0-4b3b-b9fc-7041e3b654e3","system_id":"levelo_inurba_marseille","lat":43.28671,"lon":5.38672,"is_reserved":false,"is_disabled":true,"rental_uris":{"android":"levelo://app?vid=0d77b0d4-f5c0-4b3b-b9fc-7041e3b654e3","ios":"levelo://app?vid=0d77b0d4-f5c0-4b3b-b9fc-7041e3b654e3"},"vehicle_type_id":"4","last_reported":1781392888,"current_range_meters":3600,"station_id":"ce4bh492rcd13ifvqdug","pricing_plan_id":"cebpf4jnsgd1na2vs0mg"},{"bike_id":"67eab827-ed39-45e0-8930-3403642933ee","system_id":"levelo_inurba_marseille","lat":43.29476,"lon":5.4331,"is_reserved":false,"is_disabled":false,"rental_uris":{"android":"levelo://app?vid=67eab827-ed39-45e0-8930-3403642933ee","ios":"levelo://app?vid=67eab827-ed39-45e0-8930-3403642933ee"},"vehicle_type_id":"4","last_reported":1781392888,"current_range_meters":3600,"station_id":"st_d3j5ugp08ojc73fj9d10","pricing_plan_id":"cebpf4jnsgd1na2vs0mg"},{"bike_id":"70074e2a-94c4-4bb0-bbca-a24f4105eb9f","system_id":"levelo_inurba_marseille","lat":43.2908,"lon":5.38436,"is_reserved":false,"is_disabled":false,"rental_uris":{"android":"levelo://app?vid=70074e2a-94c4-4bb0-bbca-a24f4105eb9f","ios":"levelo://app?vid=70074e2a-94c4-4bb0-bbca-a24f4105eb9f"},"vehicle_type_id":"4","last_reported":1781392888,"current_range_meters":3600,"station_id":"","pricing_plan_id":"cebpf4jnsgd1na2vs0mg"},{"bike_id":"1625d25d-0aae-4e8f-bda7-815f82406869","system_id":"levelo_inurba_marseille","lat":43.299268,"lon":5.413193,"is_reserved":false,"is_disabled":true,"rental_uris":{"android":"levelo://app?vid=1625d25d-0aae-4e8f-bda7-815f82406869","ios":"levelo://app?vid=1625d25d-0aae-4e8f-bda7-815f82406869"},"vehicle_type_id":"4","last_reported":1781392888,"current_range_meters":3600,"station_id":"","pricing_plan_id":"cebpf4jnsgd1na2vs0mg"},{"bike_id":"93803c4e-ba89-4aae-a4d8-c0d2a148430e","system_id":"levelo_inurba_marseille","lat":43.30603,"lon":5.37255,"is_reserved":false,"is_disabled":false,"rental_uris":{"android":"levelo://app?vid=93803c4e-ba89-4aae-a4d8-c0d2a148430e","ios":"levelo://app?vid=93803c4e-ba89-4aae-a4d8-c0d2a148430e"},"vehicle_type_id":"4","last_reported":1781392888,"current_range_meters":3600,"station_id":"ce4bgqh2rcd13ifvqc4g","pricing_plan_id":"cebpf4jnsgd1na2vs0mg"},{"bike_id":"1dacb047-1697-41ac-9438-74bd08fa1773","system_id":"levelo_inurba_marseille","lat":43.24941,"lon":5.40494,"is_reserved":false,"is_disabled":false,"rental_uris":{"android":"levelo://app?vid=1dacb047-1697-41ac-9438-74bd08fa1773","ios":"levelo://app?vid=1dacb047-1697-41ac-9438-74bd08fa1773"},"vehicle_type_id":"4","last_reported":1781392888,"current_range_meters":3600,"station_id":"st_d2ngiaodas8pm72gd1h0","pricing_plan_id":"cebpf4jnsgd1na2vs0mg"},{"bike_id":"292ba82b-0dab-46c1-b4a2-48a52268ff1c","system_id":"levelo_inurba_marseille","lat":43.26554,"lon":5.39045,"is_reserved":false,"is_disabled":true,"rental_uris":{"android":"levelo://app?vid=292ba82b-0dab-46c1-b4a2-48a52268ff1c","ios":"levelo://app?vid=292ba82b-0dab-46c1-b4a2-48a52268ff1c"},"vehicle_type_id":"4","last_reported":1781392888,"current_range_meters":3600,"station_id":"ce4bhe12rcd13ifvqf30","pricing_plan_id":"cebpf4jnsgd1na2vs0mg"},{"bike_id":"eda98293-5c91-4dae-89c6-486a45b00f60","system_id":"levelo_inurba_marseille","lat":43.23271,"lon":5.40116,"is_reserved":false,"is_disabled":false,"rental_uris":{"android":"levelo://app?vid=eda98293-5c91-4dae-89c6-486a45b00f60","ios":"levelo://app?vid=eda98293-5c91-4dae-89c6-486a45b00f60"},"vehicle_type_id":"4","last_reported":1781392888,"current_range_meters":3600,"station_id":"","pricing_plan_id":"cebpf4jnsgd1na2vs0mg"},{"bike_id":"5f189998-b2b6-4e38-b849-68910c9a3d84","system_id":"levelo_inurba_marseille","lat":43.317514,"lon":5.39012,"is_reserved":false,"is_disabled":false,"rental_uris":{"android":"levelo://app?vid=5f189998-b2b6-4e38-b849-68910c9a3d84","ios":"levelo://app?vid=5f189998-b2b6-4e38-b849-68910c9a3d84"},"vehicle_type_id":"4","last_reported":1781392888,"current_range_meters":3600,"station_id":"","pricing_plan_id":"cebpf4jnsgd1na2vs0mg"},{"bike_id":"db8c5b68-a2ae-4ccd-8b82-df47b61ade41","system_id":"levelo_inurba_marseille","lat":43.24632,"lon":5.37971,"is_reserved":false,"is_disabled":false,"rental_uris":{"android":"levelo://app?vid=db8c5b68-a2ae-4ccd-8b82-df47b61ade41","ios":"levelo://app?vid=db8c5b68-a2ae-4ccd-8b82-df47b61ade41"},"vehicle_type_id":"4","last_reported":1781392888,"current_range_meters":3600,"station_id":"","pricing_plan_id":"cebpf4jnsgd1na2vs0mg"},{"bike_id":"5967363d-eb9b-40f9-bc13-ab37c96bd8ff","system_id":"levelo_inurba_marseille","lat":43.31324,"lon":5.39697,"is_reserved":false,"is_disabled":false,"rental_uris":{"android":"levelo://app?vid=5967363d-eb9b-40f9-bc13-ab37c96bd8ff","ios":"levelo://app?vid=5967363d-eb9b-40f9-bc13-ab37c96bd8ff"},"vehicle_type_id":"4","last_reported":1781392888,"current_range_meters":3600,"station_id":"ce4bgvp2rcd13ifvqcu0","pricing_plan_id":"cebpf4jnsgd1na2vs0mg"},{"bike_id":"5281372a-cc2d-4e39-8efc-a0dbb7ccfae0","system_id":"levelo_inurba_marseille","lat":43.28937,"lon":5.39624,"is_reserved":false,"is_disabled":false,"rental_uris":{"android":"levelo://app?vid=5281372a-cc2d-4e39-8efc-a0dbb7ccfae0","ios":"levelo://app?vid=5281372a-cc2d-4e39-8efc-a0dbb7ccfae0"},"vehicle_type_id":"4","last_reported":1781392888,"current_range_meters":3600,"station_id":"ce4bh3h2rcd13ifvqdn0","pricing_plan_id":"cebpf4jnsgd1na2vs0mg"},{"bike_id":"9f069751-295a-496b-b19c-281f4491a5fd","system_id":"levelo_inurba_marseille","lat":43.35064,"lon":5.35075,"is_reserved":false,"is_disabled":false,"rental_uris":{"android":"levelo://app?vid=9f069751-295a-496b-b19c-281f4491a5fd","ios":"levelo://app?vid=9f069751-295a-496b-b19c-281f4491a5fd"},"vehicle_type_id":"4","last_reported":1781392888,"current_range_meters":4000,"station_id":"","pricing_plan_id":"cebpf4jnsgd1na2vs0mg"},{"bike_id":"b6a57dc0-4175-48fd-8cc4-54ae4730762a","system_id":"levelo_inurba_marseille","lat":43.30926,"lon":5.40169,"is_reserved":false,"is_disabled":false,"rental_uris":{"android":"levelo://app?vid=b6a57dc0-4175-48fd-8cc4-54ae4730762a","ios":"levelo://app?vid=b6a57dc0-4175-48fd-8cc4-54ae4730762a"},"vehicle_type_id":"4","last_reported":1781392888,"current_range_meters":4000,"station_id":"ce4bgvp2rcd13ifvqct0","pricing_plan_id":"cebpf4jnsgd1na2vs0mg"},{"bike_id":"1c2ef152-9632-42ad-be32-9cbea9645d01","system_id":"levelo_inurba_marseille","lat":43.25395,"lon":5.37634,"is_reserved":false,"is_disabled":false,"rental_uris":{"android":"levelo://app?vid=1c2ef152-9632-42ad-be32-9cbea9645d01","ios":"levelo://app?vid=1c2ef152-9632-42ad-be32-9cbea9645d01"},"vehicle_type_id":"4","last_reported":1781392888,"current_range_meters":4000,"station_id":"","pricing_plan_id":"cebpf4jnsgd1na2vs0mg"},{"bike_id":"6edf579f-78f6-4a80-8faa-35bdd39ec8f9","system_id":"levelo_inurba_marseille","lat":43.30533,"lon":5.36545,"is_reserved":false,"is_disabled":false,"rental_uris":{"android":"levelo://app?vid=6edf579f-78f6-4a80-8faa-35bdd39ec8f9","ios":"levelo://app?vid=6edf579f-78f6-4a80-8faa-35bdd39ec8f9"},"vehicle_type_id":"4","last_reported":1781392888,"current_range_meters":4000,"station_id":"ce4bgs12rcd13ifvqcag","pricing_plan_id":"cebpf4jnsgd1na2vs0mg"},{"bike_id":"969f0094-9783-4737-a331-08e385485b6b","system_id":"levelo_inurba_marseille","lat":43.25543,"lon":5.3827,"is_reserved":false,"is_disabled":false,"rental_uris":{"android":"levelo://app?vid=969f0094-9783-4737-a331-08e385485b6b","ios":"levelo://app?vid=969f0094-9783-4737-a331-08e385485b6b"},"vehicle_type_id":"4","last_reported":1781392888,"current_range_meters":4000,"station_id":"ce4bhih2rcd13ifvqfs0","pricing_plan_id":"cebpf4jnsgd1na2vs0mg"},{"bike_id":"de34cc43-9c18-41de-a3e9-5ab17a96e097","system_id":"levelo_inurba_marseille","lat":43.2978,"lon":5.38125,"is_reserved":false,"is_disabled":true,"rental_uris":{"android":"levelo://app?vid=de34cc43-9c18-41de-a3e9-5ab17a96e097","ios":"levelo://app?vid=de34cc43-9c18-41de-a3e9-5ab17a96e097"},"vehicle_type_id":"4","last_reported":1781392888,"current_range_meters":4000,"station_id":"ce4bgip2rcd13ifvqbb0","pricing_plan_id":"cebpf4jnsgd1na2vs0mg"},{"bike_id":"2d8a047b-0411-40fc-a69f-3169f78c4ee9","system_id":"levelo_inurba_marseille","lat":43.32352,"lon":5.36726,"is_reserved":false,"is_disabled":false,"rental_uris":{"android":"levelo://app?vid=2d8a047b-0411-40fc-a69f-3169f78c4ee9","ios":"levelo://app?vid=2d8a047b-0411-40fc-a69f-3169f78c4ee9"},"vehicle_type_id":"4","last_reported":1781392888,"current_range_meters":4000,"station_id":"ce4bhsh2rcd13ifvqi2g","pricing_plan_id":"cebpf4jnsgd1na2vs0mg"},{"bike_id":"afab33e1-0bd2-4130-9fe5-fbc989dfed8b","system_id":"levelo_inurba_marseille","lat":43.267752,"lon":5.39422,"is_reserved":false,"is_disabled":false,"rental_uris":{"android":"levelo://app?vid=afab33e1-0bd2-4130-9fe5-fbc989dfed8b","ios":"levelo://app?vid=afab33e1-0bd2-4130-9fe5-fbc989dfed8b"},"vehicle_type_id":"4","last_reported":1781392888,"current_range_meters":4000,"station_id":"ce4bhh12rcd13ifvqfg0","pricing_plan_id":"cebpf4jnsgd1na2vs0mg"},{"bike_id":"a303e4db-b9ba-4d63-9eff-f7e5a8e536c2","system_id":"levelo_inurba_marseille","lat":43.28009,"lon":5.40913,"is_reserved":false,"is_disabled":false,"rental_uris":{"android":"levelo://app?vid=a303e4db-b9ba-4d63-9eff-f7e5a8e536c2","ios":"levelo://app?vid=a303e4db-b9ba-4d63-9eff-f7e5a8e536c2"},"vehicle_type_id":"4","last_reported":1781392888,"current_range_meters":4000,"station_id":"","pricing_plan_id":"cebpf4jnsgd1na2vs0mg"},{"bike_id":"2fb8096d-566e-4dcc-8758-24010e467184","system_id":"levelo_inurba_marseille","lat":43.26294,"lon":5.37832,"is_reserved":false,"is_disabled":false,"rental_uris":{"android":"levelo://app?vid=2fb8096d-566e-4dcc-8758-24010e467184","ios":"levelo://app?vid=2fb8096d-566e-4dcc-8758-24010e467184"},"vehicle_type_id":"4","last_reported":1781392888,"current_range_meters":4000,"station_id":"","pricing_plan_id":"cebpf4jnsgd1na2vs0mg"},{"bike_id":"01974ce9-2ce7-4184-9698-03768bec9bb4","system_id":"levelo_inurba_marseille","lat":43.2867,"lon":5.4666,"is_reserved":false,"is_disabled":false,"rental_uris":{"android":"levelo://app?vid=01974ce9-2ce7-4184-9698-03768bec9bb4","ios":"levelo://app?vid=01974ce9-2ce7-4184-9698-03768bec9bb4"},"vehicle_type_id":"4","last_reported":1781392888,"current_range_meters":4000,"station_id":"st_d6tc3vkotcvc738tfjhg","pricing_plan_id":"cebpf4jnsgd1na2vs0mg"},{"bike_id":"acfc7d87-3522-4b9d-823a-6c14a2ecfeee","system_id":"levelo_inurba_marseille","lat":43.29786,"lon":5.39347,"is_reserved":false,"is_disabled":false,"rental_uris":{"android":"levelo://app?vid=acfc7d87-3522-4b9d-823a-6c14a2ecfeee","ios":"levelo://app?vid=acfc7d87-3522-4b9d-823a-6c14a2ecfeee"},"vehicle_type_id":"4","last_reported":1781392888,"current_range_meters":4000,"station_id":"chh1huq6cuj3fo74tm60","pricing_plan_id":"cebpf4jnsgd1na2vs0mg"},{"bike_id":"44c94aa1-6d43-4de1-bf1f-52b0672a538b","system_id":"levelo_inurba_marseille","lat":43.26333,"lon":5.3782,"is_reserved":false,"is_disabled":false,"rental_uris":{"android":"levelo://app?vid=44c94aa1-6d43-4de1-bf1f-52b0672a538b","ios":"levelo://app?vid=44c94aa1-6d43-4de1-bf1f-52b0672a538b"},"vehicle_type_id":"4","last_reported":1781392888,"current_range_meters":4000,"station_id":"st_d163nis0mtpqnht9uue0","pricing_plan_id":"cebpf4jnsgd1na2vs0mg"},{"bike_id":"4efe40c8-1839-4f6c-b881-5e2610440d88","system_id":"levelo_inurba_marseille","lat":43.28709,"lon":5.3999,"is_reserved":false,"is_disabled":false,"rental_uris":{"android":"levelo://app?vid=4efe40c8-1839-4f6c-b881-5e2610440d88","ios":"levelo://app?vid=4efe40c8-1839-4f6c-b881-5e2610440d88"},"vehicle_type_id":"4","last_reported":1781392888,"current_range_meters":4000,"station_id":"ce4bho92rcd13ifvqh3g","pricing_plan_id":"cebpf4jnsgd1na2vs0mg"},{"bike_id":"5f68454a-3f46-4716-98ea-a07b68026da7","system_id":"levelo_inurba_marseille","lat":43.30093,"lon":5.37725,"is_reserved":false,"is_disabled":false,"rental_uris":{"android":"levelo://app?vid=5f68454a-3f46-4716-98ea-a07b68026da7","ios":"levelo://app?vid=5f68454a-3f46-4716-98ea-a07b68026da7"},"vehicle_type_id":"4","last_reported":1781392888,"current_range_meters":4000,"station_id":"","pricing_plan_id":"cebpf4jnsgd1na2vs0mg"},{"bike_id":"8e6b12a8-1653-48a0-ab1c-bbed882384b0","system_id":"levelo_inurba_marseille","lat":43.29293,"lon":5.37463,"is_reserved":false,"is_disabled":false,"rental_uris":{"android":"levelo://app?vid=8e6b12a8-1653-48a0-ab1c-bbed882384b0","ios":"levelo://app?vid=8e6b12a8-1653-48a0-ab1c-bbed882384b0"},"vehicle_type_id":"4","last_reported":1781392888,"current_range_meters":4000,"station_id":"ce4bgi12rcd13ifvqb70","pricing_plan_id":"cebpf4jnsgd1na2vs0mg"},{"bike_id":"c28fb851-9d83-4c2d-969c-ec4f32faca38","system_id":"levelo_inurba_marseille","lat":43.29038,"lon":5.39958,"is_reserved":false,"is_disabled":false,"rental_uris":{"android":"levelo://app?vid=c28fb851-9d83-4c2d-969c-ec4f32faca38","ios":"levelo://app?vid=c28fb851-9d83-4c2d-969c-ec4f32faca38"},"vehicle_type_id":"4","last_reported":1781392888,"current_range_meters":4000,"station_id":"ce4bh392rcd13ifvqdm0","pricing_plan_id":"cebpf4jnsgd1na2vs0mg"},{"bike_id":"fe131b0b-1ef9-4416-9fb2-6e419e6feba9","system_id":"levelo_inurba_marseille","lat":43.24396,"lon":5.37069,"is_reserved":false,"is_disabled":true,"rental_uris":{"android":"levelo://app?vid=fe131b0b-1ef9-4416-9fb2-6e419e6feba9","ios":"levelo://app?vid=fe131b0b-1ef9-4416-9fb2-6e419e6feba9"},"vehicle_type_id":"4","last_reported":1781392888,"current_range_meters":4000,"station_id":"ce4bhhh2rcd13ifvqfk0","pricing_plan_id":"cebpf4jnsgd1na2vs0mg"},{"bike_id":"5a3d4fe4-e59d-4e59-a510-666531c9244a","system_id":"levelo_inurba_marseille","lat":43.28718,"lon":5.36091,"is_reserved":false,"is_disabled":false,"rental_uris":{"android":"levelo://app?vid=5a3d4fe4-e59d-4e59-a510-666531c9244a","ios":"levelo://app?vid=5a3d4fe4-e59d-4e59-a510-666531c9244a"},"vehicle_type_id":"4","last_reported":1781392888,"current_range_meters":4000,"station_id":"cki0cbj6b192h4jlfktg","pricing_plan_id":"cebpf4jnsgd1na2vs0mg"},{"bike_id":"d9a42db2-0aea-4602-8922-23ab9a2d33a3","system_id":"levelo_inurba_marseille","lat":43.29372,"lon":5.3786,"is_reserved":false,"is_disabled":false,"rental_uris":{"android":"levelo://app?vid=d9a42db2-0aea-4602-8922-23ab9a2d33a3","ios":"levelo://app?vid=d9a42db2-0aea-4602-8922-23ab9a2d33a3"},"vehicle_type_id":"4","last_reported":1781392888,"current_range_meters":4000,"station_id":"ce4bgjh2rcd13ifvqbf0","pricing_plan_id":"cebpf4jnsgd1na2vs0mg"},{"bike_id":"f506ab4a-44a8-4325-9e31-5011ce879f66","system_id":"levelo_inurba_marseille","lat":43.323662,"lon":5.388839,"is_reserved":false,"is_disabled":false,"rental_uris":{"android":"levelo://app?vid=f506ab4a-44a8-4325-9e31-5011ce879f66","ios":"levelo://app?vid=f506ab4a-44a8-4325-9e31-5011ce879f66"},"vehicle_type_id":"4","last_reported":1781392888,"current_range_meters":4000,"station_id":"ce4bhqp2rcd13ifvqhog","pricing_plan_id":"cebpf4jnsgd1na2vs0mg"},{"bike_id":"61ac14cd-4443-4d80-a8e7-7b1e8dbc83bd","system_id":"levelo_inurba_marseille","lat":43.27816,"lon":5.40725,"is_reserved":false,"is_disabled":false,"rental_uris":{"android":"levelo://app?vid=61ac14cd-4443-4d80-a8e7-7b1e8dbc83bd","ios":"levelo://app?vid=61ac14cd-4443-4d80-a8e7-7b1e8dbc83bd"},"vehicle_type_id":"4","last_reported":1781392888,"current_range_meters":4000,"station_id":"ce4bhnh2rcd13ifvqgtg","pricing_plan_id":"cebpf4jnsgd1na2vs0mg"},{"bike_id":"6db0e189-20d1-4d92-ab9f-a2ad8e479225","system_id":"levelo_inurba_marseille","lat":43.29281,"lon":5.3555,"is_reserved":false,"is_disabled":false,"rental_uris":{"android":"levelo://app?vid=6db0e189-20d1-4d92-ab9f-a2ad8e479225","ios":"levelo://app?vid=6db0e189-20d1-4d92-ab9f-a2ad8e479225"},"vehicle_type_id":"4","last_reported":1781392888,"current_range_meters":4000,"station_id":"","pricing_plan_id":"cebpf4jnsgd1na2vs0mg"},{"bike_id":"84137962-3210-468a-a9ed-d3e9a39206c2","system_id":"levelo_inurba_marseille","lat":43.29272,"lon":5.3685,"is_reserved":false,"is_disabled":false,"rental_uris":{"android":"levelo://app?vid=84137962-3210-468a-a9ed-d3e9a39206c2","ios":"levelo://app?vid=84137962-3210-468a-a9ed-d3e9a39206c2"},"vehicle_type_id":"4","last_reported":1781392888,"current_range_meters":4000,"station_id":"ce4bhbp2rcd13ifvqesg","pricing_plan_id":"cebpf4jnsgd1na2vs0mg"},{"bike_id":"86b4821b-066f-4af7-9341-601c3120669c","system_id":"levelo_inurba_marseille","lat":43.26227,"lon":5.38776,"is_reserved":false,"is_disabled":false,"rental_uris":{"android":"levelo://app?vid=86b4821b-066f-4af7-9341-601c3120669c","ios":"levelo://app?vid=86b4821b-066f-4af7-9341-601c3120669c"},"vehicle_type_id":"4","last_reported":1781392888,"current_range_meters":4400,"station_id":"st_d8gjfg747rts73coq3b0","pricing_plan_id":"cebpf4jnsgd1na2vs0mg"},{"bike_id":"b9d1843a-d85f-480b-9e0d-ac8e9afe5d9f","system_id":"levelo_inurba_marseille","lat":43.337444,"lon":5.374475,"is_reserved":false,"is_disabled":false,"rental_uris":{"android":"levelo://app?vid=b9d1843a-d85f-480b-9e0d-ac8e9afe5d9f","ios":"levelo://app?vid=b9d1843a-d85f-480b-9e0d-ac8e9afe5d9f"},"vehicle_type_id":"4","last_reported":1781392888,"current_range_meters":4400,"station_id":"","pricing_plan_id":"cebpf4jnsgd1na2vs0mg"},{"bike_id":"3101f75d-9d62-4afa-ae55-a544c4fa449d","system_id":"levelo_inurba_marseille","lat":43.28696,"lon":5.37388,"is_reserved":false,"is_disabled":false,"rental_uris":{"android":"levelo://app?vid=3101f75d-9d62-4afa-ae55-a544c4fa449d","ios":"levelo://app?vid=3101f75d-9d62-4afa-ae55-a544c4fa449d"},"vehicle_type_id":"4","last_reported":1781392888,"current_range_meters":4400,"station_id":"ce4bh3p2rcd13ifvqdq0","pricing_plan_id":"cebpf4jnsgd1na2vs0mg"},{"bike_id":"ac3358ce-481e-4fda-9f9b-670be68b265e","system_id":"levelo_inurba_marseille","lat":43.31467,"lon":5.40179,"is_reserved":false,"is_disabled":false,"rental_uris":{"android":"levelo://app?vid=ac3358ce-481e-4fda-9f9b-670be68b265e","ios":"levelo://app?vid=ac3358ce-481e-4fda-9f9b-670be68b265e"},"vehicle_type_id":"4","last_reported":1781392888,"current_range_meters":4400,"station_id":"","pricing_plan_id":"cebpf4jnsgd1na2vs0mg"},{"bike_id":"a31ebd8b-6676-4cd1-a38b-623e2ed09d5b","system_id":"levelo_inurba_marseille","lat":43.30788,"lon":5.38154,"is_reserved":false,"is_disabled":false,"rental_uris":{"android":"levelo://app?vid=a31ebd8b-6676-4cd1-a38b-623e2ed09d5b","ios":"levelo://app?vid=a31ebd8b-6676-4cd1-a38b-623e2ed09d5b"},"vehicle_type_id":"4","last_reported":1781392888,"current_range_meters":4400,"station_id":"ce4bgt12rcd13ifvqce0","pricing_plan_id":"cebpf4jnsgd1na2vs0mg"},{"bike_id":"be004f60-661b-45b9-a00d-02d877da6c38","system_id":"levelo_inurba_marseille","lat":43.25373,"lon":5.42303,"is_reserved":false,"is_disabled":false,"rental_uris":{"android":"levelo://app?vid=be004f60-661b-45b9-a00d-02d877da6c38","ios":"levelo://app?vid=be004f60-661b-45b9-a00d-02d877da6c38"},"vehicle_type_id":"4","last_reported":1781392888,"current_range_meters":4400,"station_id":"","pricing_plan_id":"cebpf4jnsgd1na2vs0mg"},{"bike_id":"f41af9f6-4c53-4d51-bc4e-59520f5cdf65","system_id":"levelo_inurba_marseille","lat":43.30883,"lon":5.39657,"is_reserved":false,"is_disabled":false,"rental_uris":{"android":"levelo://app?vid=f41af9f6-4c53-4d51-bc4e-59520f5cdf65","ios":"levelo://app?vid=f41af9f6-4c53-4d51-bc4e-59520f5cdf65"},"vehicle_type_id":"4","last_reported":1781392888,"current_range_meters":4400,"station_id":"ce4bh012rcd13ifvqcv0","pricing_plan_id":"cebpf4jnsgd1na2vs0mg"},{"bike_id":"1e9a7ee5-8923-4d2c-bec4-a0618f554436","system_id":"levelo_inurba_marseille","lat":43.31141,"lon":5.39476,"is_reserved":false,"is_disabled":false,"rental_uris":{"android":"levelo://app?vid=1e9a7ee5-8923-4d2c-bec4-a0618f554436","ios":"levelo://app?vid=1e9a7ee5-8923-4d2c-bec4-a0618f554436"},"vehicle_type_id":"4","last_reported":1781392888,"current_range_meters":4400,"station_id":"","pricing_plan_id":"cebpf4jnsgd1na2vs0mg"},{"bike_id":"4b84cc20-93d9-4e85-811a-ba432f50bc38","system_id":"levelo_inurba_marseille","lat":43.26187,"lon":5.38083,"is_reserved":false,"is_disabled":false,"rental_uris":{"android":"levelo://app?vid=4b84cc20-93d9-4e85-811a-ba432f50bc38","ios":"levelo://app?vid=4b84cc20-93d9-4e85-811a-ba432f50bc38"},"vehicle_type_id":"4","last_reported":1781392888,"current_range_meters":4400,"station_id":"","pricing_plan_id":"cebpf4jnsgd1na2vs0mg"},{"bike_id":"e946dae2-a9db-4a74-9c6e-805b3abf5a48","system_id":"levelo_inurba_marseille","lat":43.25705,"lon":5.38331,"is_reserved":false,"is_disabled":false,"rental_uris":{"android":"levelo://app?vid=e946dae2-a9db-4a74-9c6e-805b3abf5a48","ios":"levelo://app?vid=e946dae2-a9db-4a74-9c6e-805b3abf5a48"},"vehicle_type_id":"4","last_reported":1781392888,"current_range_meters":4400,"station_id":"","pricing_plan_id":"cebpf4jnsgd1na2vs0mg"},{"bike_id":"1604ce63-55c7-46ac-bdbb-dd37aeac50f3","system_id":"levelo_inurba_marseille","lat":43.26083,"lon":5.39385,"is_reserved":false,"is_disabled":false,"rental_uris":{"android":"levelo://app?vid=1604ce63-55c7-46ac-bdbb-dd37aeac50f3","ios":"levelo://app?vid=1604ce63-55c7-46ac-bdbb-dd37aeac50f3"},"vehicle_type_id":"4","last_reported":1781392888,"current_range_meters":4400,"station_id":"ce4bhh92rcd13ifvqfj0","pricing_plan_id":"cebpf4jnsgd1na2vs0mg"},{"bike_id":"74f7660a-9096-4feb-beb3-160be45c0ab9","system_id":"levelo_inurba_marseille","lat":43.25398,"lon":5.41679,"is_reserved":false,"is_disabled":false,"rental_uris":{"android":"levelo://app?vid=74f7660a-9096-4feb-beb3-160be45c0ab9","ios":"levelo://app?vid=74f7660a-9096-4feb-beb3-160be45c0ab9"},"vehicle_type_id":"4","last_reported":1781392888,"current_range_meters":4400,"station_id":"","pricing_plan_id":"cebpf4jnsgd1na2vs0mg"},{"bike_id":"521a3a42-fce6-4db8-a48e-6826976c55af","system_id":"levelo_inurba_marseille","lat":43.31743,"lon":5.42376,"is_reserved":false,"is_disabled":false,"rental_uris":{"android":"levelo://app?vid=521a3a42-fce6-4db8-a48e-6826976c55af","ios":"levelo://app?vid=521a3a42-fce6-4db8-a48e-6826976c55af"},"vehicle_type_id":"4","last_reported":1781392888,"current_range_meters":4400,"station_id":"ce4bhp92rcd13ifvqhbg","pricing_plan_id":"cebpf4jnsgd1na2vs0mg"},{"bike_id":"3b8019fe-29b5-4ea8-a426-34af2884ba0b","system_id":"levelo_inurba_marseille","lat":43.28664,"lon":5.39995,"is_reserved":false,"is_disabled":false,"rental_uris":{"android":"levelo://app?vid=3b8019fe-29b5-4ea8-a426-34af2884ba0b","ios":"levelo://app?vid=3b8019fe-29b5-4ea8-a426-34af2884ba0b"},"vehicle_type_id":"4","last_reported":1781392888,"current_range_meters":4400,"station_id":"","pricing_plan_id":"cebpf4jnsgd1na2vs0mg"},{"bike_id":"550aee21-2781-478e-b955-97aaad1b31ef","system_id":"levelo_inurba_marseille","lat":43.283543,"lon":5.381142,"is_reserved":false,"is_disabled":false,"rental_uris":{"android":"levelo://app?vid=550aee21-2781-478e-b955-97aaad1b31ef","ios":"levelo://app?vid=550aee21-2781-478e-b955-97aaad1b31ef"},"vehicle_type_id":"4","last_reported":1781392888,"current_range_meters":4400,"station_id":"ce4bh412rcd13ifvqdr0","pricing_plan_id":"cebpf4jnsgd1na2vs0mg"},{"bike_id":"dbacb051-8ec4-43ff-a28f-4609fcbdf585","system_id":"levelo_inurba_marseille","lat":43.33163,"lon":5.37684,"is_reserved":false,"is_disabled":false,"rental_uris":{"android":"levelo://app?vid=dbacb051-8ec4-43ff-a28f-4609fcbdf585","ios":"levelo://app?vid=dbacb051-8ec4-43ff-a28f-4609fcbdf585"},"vehicle_type_id":"4","last_reported":1781392888,"current_range_meters":4400,"station_id":"st_d46cu089ee8s73dldbu0","pricing_plan_id":"cebpf4jnsgd1na2vs0mg"},{"bike_id":"fdce2da0-b47b-41fb-8247-09af97ef92d8","system_id":"levelo_inurba_marseille","lat":43.27816,"lon":5.39223,"is_reserved":false,"is_disabled":false,"rental_uris":{"android":"levelo://app?vid=fdce2da0-b47b-41fb-8247-09af97ef92d8","ios":"levelo://app?vid=fdce2da0-b47b-41fb-8247-09af97ef92d8"},"vehicle_type_id":"4","last_reported":1781392888,"current_range_meters":4400,"station_id":"ce4bhjp2rcd13ifvqga0","pricing_plan_id":"cebpf4jnsgd1na2vs0mg"},{"bike_id":"8f5b297e-a101-4dac-9b10-8764ca019902","system_id":"levelo_inurba_marseille","lat":43.313634,"lon":5.38489,"is_reserved":false,"is_disabled":true,"rental_uris":{"android":"levelo://app?vid=8f5b297e-a101-4dac-9b10-8764ca019902","ios":"levelo://app?vid=8f5b297e-a101-4dac-9b10-8764ca019902"},"vehicle_type_id":"4","last_reported":1781392888,"current_range_meters":4400,"station_id":"","pricing_plan_id":"cebpf4jnsgd1na2vs0mg"},{"bike_id":"b1ee4e95-2ba6-44a7-8f1c-0deb88dbe9bb","system_id":"levelo_inurba_marseille","lat":43.28047,"lon":5.39667,"is_reserved":false,"is_disabled":false,"rental_uris":{"android":"levelo://app?vid=b1ee4e95-2ba6-44a7-8f1c-0deb88dbe9bb","ios":"levelo://app?vid=b1ee4e95-2ba6-44a7-8f1c-0deb88dbe9bb"},"vehicle_type_id":"4","last_reported":1781392888,"current_range_meters":4400,"station_id":"ce4bho12rcd13ifvqh2g","pricing_plan_id":"cebpf4jnsgd1na2vs0mg"},{"bike_id":"bf740f93-dcae-45bd-8189-93f0bf5977b3","system_id":"levelo_inurba_marseille","lat":43.22556,"lon":5.41634,"is_reserved":false,"is_disabled":false,"rental_uris":{"android":"levelo://app?vid=bf740f93-dcae-45bd-8189-93f0bf5977b3","ios":"levelo://app?vid=bf740f93-dcae-45bd-8189-93f0bf5977b3"},"vehicle_type_id":"4","last_reported":1781392888,"current_range_meters":4400,"station_id":"st_d2o4gvlbi1j2169b742g","pricing_plan_id":"cebpf4jnsgd1na2vs0mg"},{"bike_id":"8e220ecf-bf2e-4209-bd0b-74b77f772687","system_id":"levelo_inurba_marseille","lat":43.29966,"lon":5.3851,"is_reserved":false,"is_disabled":true,"rental_uris":{"android":"levelo://app?vid=8e220ecf-bf2e-4209-bd0b-74b77f772687","ios":"levelo://app?vid=8e220ecf-bf2e-4209-bd0b-74b77f772687"},"vehicle_type_id":"4","last_reported":1781392888,"current_range_meters":4400,"station_id":"ce4bgj92rcd13ifvqbd0","pricing_plan_id":"cebpf4jnsgd1na2vs0mg"},{"bike_id":"a4367c49-3ad9-4e5d-b890-d24a763f0a44","system_id":"levelo_inurba_marseille","lat":43.2882,"lon":5.4276,"is_reserved":false,"is_disabled":false,"rental_uris":{"android":"levelo://app?vid=a4367c49-3ad9-4e5d-b890-d24a763f0a44","ios":"levelo://app?vid=a4367c49-3ad9-4e5d-b890-d24a763f0a44"},"vehicle_type_id":"4","last_reported":1781392888,"current_range_meters":4400,"station_id":"","pricing_plan_id":"cebpf4jnsgd1na2vs0mg"},{"bike_id":"3e406130-ada3-49ba-9e74-36c46a1329b4","system_id":"levelo_inurba_marseille","lat":43.29707,"lon":5.3661,"is_reserved":false,"is_disabled":false,"rental_uris":{"android":"levelo://app?vid=3e406130-ada3-49ba-9e74-36c46a1329b4","ios":"levelo://app?vid=3e406130-ada3-49ba-9e74-36c46a1329b4"},"vehicle_type_id":"4","last_reported":1781392888,"current_range_meters":4400,"station_id":"ce4bgn12rcd13ifvqbt0","pricing_plan_id":"cebpf4jnsgd1na2vs0mg"},{"bike_id":"81ab600a-61ef-4645-bf7e-e96170a92ea8","system_id":"levelo_inurba_marseille","lat":43.240766,"lon":5.377617,"is_reserved":false,"is_disabled":false,"rental_uris":{"android":"levelo://app?vid=81ab600a-61ef-4645-bf7e-e96170a92ea8","ios":"levelo://app?vid=81ab600a-61ef-4645-bf7e-e96170a92ea8"},"vehicle_type_id":"4","last_reported":1781392888,"current_range_meters":4400,"station_id":"ce4bhnp2rcd13ifvqgvg","pricing_plan_id":"cebpf4jnsgd1na2vs0mg"},{"bike_id":"95827cef-7dce-4631-b8f7-7a49a77c079a","system_id":"levelo_inurba_marseille","lat":43.253418,"lon":5.421749,"is_reserved":false,"is_disabled":false,"rental_uris":{"android":"levelo://app?vid=95827cef-7dce-4631-b8f7-7a49a77c079a","ios":"levelo://app?vid=95827cef-7dce-4631-b8f7-7a49a77c079a"},"vehicle_type_id":"4","last_reported":1781392888,"current_range_meters":4400,"station_id":"st_d2m65c5bi1j21697t3ng","pricing_plan_id":"cebpf4jnsgd1na2vs0mg"},{"bike_id":"5215f856-46a9-476f-933a-7b736a4a324f","system_id":"levelo_inurba_marseille","lat":43.28235,"lon":5.37357,"is_reserved":false,"is_disabled":false,"rental_uris":{"android":"levelo://app?vid=5215f856-46a9-476f-933a-7b736a4a324f","ios":"levelo://app?vid=5215f856-46a9-476f-933a-7b736a4a324f"},"vehicle_type_id":"4","last_reported":1781392888,"current_range_meters":4800,"station_id":"","pricing_plan_id":"cebpf4jnsgd1na2vs0mg"},{"bike_id":"60ef35b5-2df4-436e-b925-da19a11c6328","system_id":"levelo_inurba_marseille","lat":43.32096,"lon":5.36789,"is_reserved":false,"is_disabled":false,"rental_uris":{"android":"levelo://app?vid=60ef35b5-2df4-436e-b925-da19a11c6328","ios":"levelo://app?vid=60ef35b5-2df4-436e-b925-da19a11c6328"},"vehicle_type_id":"4","last_reported":1781392888,"current_range_meters":4800,"station_id":"ce4bhrh2rcd13ifvqhug","pricing_plan_id":"cebpf4jnsgd1na2vs0mg"},{"bike_id":"d90e7aca-9b96-45d7-8c82-5368a16a48c7","system_id":"levelo_inurba_marseille","lat":43.31496,"lon":5.37294,"is_reserved":false,"is_disabled":false,"rental_uris":{"android":"levelo://app?vid=d90e7aca-9b96-45d7-8c82-5368a16a48c7","ios":"levelo://app?vid=d90e7aca-9b96-45d7-8c82-5368a16a48c7"},"vehicle_type_id":"4","last_reported":1781392888,"current_range_meters":4800,"station_id":"ce4bgt12rcd13ifvqcd0","pricing_plan_id":"cebpf4jnsgd1na2vs0mg"},{"bike_id":"5d802fe7-ddef-413c-8f94-047e5334c651","system_id":"levelo_inurba_marseille","lat":43.28913,"lon":5.38413,"is_reserved":false,"is_disabled":false,"rental_uris":{"android":"levelo://app?vid=5d802fe7-ddef-413c-8f94-047e5334c651","ios":"levelo://app?vid=5d802fe7-ddef-413c-8f94-047e5334c651"},"vehicle_type_id":"4","last_reported":1781392888,"current_range_meters":4800,"station_id":"ce4bh612rcd13ifvqe6g","pricing_plan_id":"cebpf4jnsgd1na2vs0mg"},{"bike_id":"248c80b1-0f02-4f7e-8cf3-9e29960de09c","system_id":"levelo_inurba_marseille","lat":43.31712,"lon":5.37737,"is_reserved":false,"is_disabled":false,"rental_uris":{"android":"levelo://app?vid=248c80b1-0f02-4f7e-8cf3-9e29960de09c","ios":"levelo://app?vid=248c80b1-0f02-4f7e-8cf3-9e29960de09c"},"vehicle_type_id":"4","last_reported":1781392888,"current_range_meters":4800,"station_id":"ce4bgth2rcd13ifvqch0","pricing_plan_id":"cebpf4jnsgd1na2vs0mg"},{"bike_id":"bf601120-2f22-4bcd-8556-91c5f1ccc8b1","system_id":"levelo_inurba_marseille","lat":43.31405,"lon":5.38113,"is_reserved":false,"is_disabled":false,"rental_uris":{"android":"levelo://app?vid=bf601120-2f22-4bcd-8556-91c5f1ccc8b1","ios":"levelo://app?vid=bf601120-2f22-4bcd-8556-91c5f1ccc8b1"},"vehicle_type_id":"4","last_reported":1781392888,"current_range_meters":4800,"station_id":"","pricing_plan_id":"cebpf4jnsgd1na2vs0mg"},{"bike_id":"3b03020e-d074-4ba6-ac43-49c3395d7824","system_id":"levelo_inurba_marseille","lat":43.29304,"lon":5.37428,"is_reserved":false,"is_disabled":false,"rental_uris":{"android":"levelo://app?vid=3b03020e-d074-4ba6-ac43-49c3395d7824","ios":"levelo://app?vid=3b03020e-d074-4ba6-ac43-49c3395d7824"},"vehicle_type_id":"4","last_reported":1781392888,"current_range_meters":4800,"station_id":"ce4bgi12rcd13ifvqb70","pricing_plan_id":"cebpf4jnsgd1na2vs0mg"},{"bike_id":"1b63ff2d-42e2-405e-99ea-629f2310ae25","system_id":"levelo_inurba_marseille","lat":43.32003,"lon":5.38189,"is_reserved":false,"is_disabled":false,"rental_uris":{"android":"levelo://app?vid=1b63ff2d-42e2-405e-99ea-629f2310ae25","ios":"levelo://app?vid=1b63ff2d-42e2-405e-99ea-629f2310ae25"},"vehicle_type_id":"4","last_reported":1781392888,"current_range_meters":4800,"station_id":"ce4bhr12rcd13ifvqhpg","pricing_plan_id":"cebpf4jnsgd1na2vs0mg"},{"bike_id":"3431c704-991e-4545-8eec-fa15e92ea294","system_id":"levelo_inurba_marseille","lat":43.31452,"lon":5.3737,"is_reserved":false,"is_disabled":true,"rental_uris":{"android":"levelo://app?vid=3431c704-991e-4545-8eec-fa15e92ea294","ios":"levelo://app?vid=3431c704-991e-4545-8eec-fa15e92ea294"},"vehicle_type_id":"4","last_reported":1781392888,"current_range_meters":4800,"station_id":"","pricing_plan_id":"cebpf4jnsgd1na2vs0mg"},{"bike_id":"c1a82450-f78f-44ec-bcba-a0f08a78e1c2","system_id":"levelo_inurba_marseille","lat":43.30651,"lon":5.40097,"is_reserved":false,"is_disabled":false,"rental_uris":{"android":"levelo://app?vid=c1a82450-f78f-44ec-bcba-a0f08a78e1c2","ios":"levelo://app?vid=c1a82450-f78f-44ec-bcba-a0f08a78e1c2"},"vehicle_type_id":"4","last_reported":1781392888,"current_range_meters":4800,"station_id":"ce4bh112rcd13ifvqda0","pricing_plan_id":"cebpf4jnsgd1na2vs0mg"},{"bike_id":"4fe58add-0bcd-4463-b5b1-64a2a5ae1ef8","system_id":"levelo_inurba_marseille","lat":43.28919,"lon":5.38398,"is_reserved":false,"is_disabled":false,"rental_uris":{"android":"levelo://app?vid=4fe58add-0bcd-4463-b5b1-64a2a5ae1ef8","ios":"levelo://app?vid=4fe58add-0bcd-4463-b5b1-64a2a5ae1ef8"},"vehicle_type_id":"4","last_reported":1781392888,"current_range_meters":4800,"station_id":"ce4bh612rcd13ifvqe6g","pricing_plan_id":"cebpf4jnsgd1na2vs0mg"},{"bike_id":"c6555d54-519a-459c-a7d8-0f5386f527ae","system_id":"levelo_inurba_marseille","lat":43.29746,"lon":5.37378,"is_reserved":false,"is_disabled":false,"rental_uris":{"android":"levelo://app?vid=c6555d54-519a-459c-a7d8-0f5386f527ae","ios":"levelo://app?vid=c6555d54-519a-459c-a7d8-0f5386f527ae"},"vehicle_type_id":"4","last_reported":1781392888,"current_range_meters":4800,"station_id":"","pricing_plan_id":"cebpf4jnsgd1na2vs0mg"},{"bike_id":"56c6581f-b173-4ad0-a879-90f3eca1cb90","system_id":"levelo_inurba_marseille","lat":43.27622,"lon":5.36133,"is_reserved":false,"is_disabled":false,"rental_uris":{"android":"levelo://app?vid=56c6581f-b173-4ad0-a879-90f3eca1cb90","ios":"levelo://app?vid=56c6581f-b173-4ad0-a879-90f3eca1cb90"},"vehicle_type_id":"4","last_reported":1781392888,"current_range_meters":4800,"station_id":"ce4bgj92rcd13ifvqbe0","pricing_plan_id":"cebpf4jnsgd1na2vs0mg"},{"bike_id":"e4d86a05-2db3-434f-a83e-222b4c27c368","system_id":"levelo_inurba_marseille","lat":43.25081,"lon":5.39518,"is_reserved":false,"is_disabled":false,"rental_uris":{"android":"levelo://app?vid=e4d86a05-2db3-434f-a83e-222b4c27c368","ios":"levelo://app?vid=e4d86a05-2db3-434f-a83e-222b4c27c368"},"vehicle_type_id":"4","last_reported":1781392888,"current_range_meters":4800,"station_id":"ce4bhm12rcd13ifvqgkg","pricing_plan_id":"cebpf4jnsgd1na2vs0mg"},{"bike_id":"b12acfd7-19c3-46c4-84fc-1f9caba04713","system_id":"levelo_inurba_marseille","lat":43.28262,"lon":5.35067,"is_reserved":false,"is_disabled":false,"rental_uris":{"android":"levelo://app?vid=b12acfd7-19c3-46c4-84fc-1f9caba04713","ios":"levelo://app?vid=b12acfd7-19c3-46c4-84fc-1f9caba04713"},"vehicle_type_id":"4","last_reported":1781392888,"current_range_meters":4800,"station_id":"ce4bhbp2rcd13ifvqerg","pricing_plan_id":"cebpf4jnsgd1na2vs0mg"},{"bike_id":"fc863954-b2b0-4600-8ee1-0e095a163394","system_id":"levelo_inurba_marseille","lat":43.30317,"lon":5.40458,"is_reserved":false,"is_disabled":false,"rental_uris":{"android":"levelo://app?vid=fc863954-b2b0-4600-8ee1-0e095a163394","ios":"levelo://app?vid=fc863954-b2b0-4600-8ee1-0e095a163394"},"vehicle_type_id":"4","last_reported":1781392888,"current_range_meters":4800,"station_id":"ce4bh012rcd13ifvqd10","pricing_plan_id":"cebpf4jnsgd1na2vs0mg"},{"bike_id":"418bc5b3-59f7-4656-96a2-6db965f1b268","system_id":"levelo_inurba_marseille","lat":43.29032,"lon":5.38654,"is_reserved":false,"is_disabled":false,"rental_uris":{"android":"levelo://app?vid=418bc5b3-59f7-4656-96a2-6db965f1b268","ios":"levelo://app?vid=418bc5b3-59f7-4656-96a2-6db965f1b268"},"vehicle_type_id":"4","last_reported":1781392888,"current_range_meters":4800,"station_id":"ce4bh4p2rcd13ifvqe0g","pricing_plan_id":"cebpf4jnsgd1na2vs0mg"},{"bike_id":"1b6a2b76-8e4c-45cf-97dc-6423eee85429","system_id":"levelo_inurba_marseille","lat":43.24943,"lon":5.40514,"is_reserved":false,"is_disabled":false,"rental_uris":{"android":"levelo://app?vid=1b6a2b76-8e4c-45cf-97dc-6423eee85429","ios":"levelo://app?vid=1b6a2b76-8e4c-45cf-97dc-6423eee85429"},"vehicle_type_id":"4","last_reported":1781392888,"current_range_meters":4800,"station_id":"st_d2ngiaodas8pm72gd1h0","pricing_plan_id":"cebpf4jnsgd1na2vs0mg"},{"bike_id":"d89db437-39c2-4ca8-90bf-b1b334205cfa","system_id":"levelo_inurba_marseille","lat":43.28936,"lon":5.3664,"is_reserved":false,"is_disabled":false,"rental_uris":{"android":"levelo://app?vid=d89db437-39c2-4ca8-90bf-b1b334205cfa","ios":"levelo://app?vid=d89db437-39c2-4ca8-90bf-b1b334205cfa"},"vehicle_type_id":"4","last_reported":1781392888,"current_range_meters":4800,"station_id":"ce4bhap2rcd13ifvqek0","pricing_plan_id":"cebpf4jnsgd1na2vs0mg"},{"bike_id":"eb274e9d-6990-4113-8c77-43786f58701d","system_id":"levelo_inurba_marseille","lat":43.27828,"lon":5.3922,"is_reserved":false,"is_disabled":false,"rental_uris":{"android":"levelo://app?vid=eb274e9d-6990-4113-8c77-43786f58701d","ios":"levelo://app?vid=eb274e9d-6990-4113-8c77-43786f58701d"},"vehicle_type_id":"4","last_reported":1781392888,"current_range_meters":4800,"station_id":"ce4bhjp2rcd13ifvqga0","pricing_plan_id":"cebpf4jnsgd1na2vs0mg"},{"bike_id":"6adcc774-529d-4bc1-ad03-729de998a5f0","system_id":"levelo_inurba_marseille","lat":43.30601,"lon":5.37224,"is_reserved":false,"is_disabled":false,"rental_uris":{"android":"levelo://app?vid=6adcc774-529d-4bc1-ad03-729de998a5f0","ios":"levelo://app?vid=6adcc774-529d-4bc1-ad03-729de998a5f0"},"vehicle_type_id":"4","last_reported":1781392888,"current_range_meters":4800,"station_id":"ce4bgqh2rcd13ifvqc4g","pricing_plan_id":"cebpf4jnsgd1na2vs0mg"},{"bike_id":"1ac7a797-bbb8-4aae-bbcd-d90eb328fe9f","system_id":"levelo_inurba_marseille","lat":43.29283,"lon":5.4012,"is_reserved":false,"is_disabled":false,"rental_uris":{"android":"levelo://app?vid=1ac7a797-bbb8-4aae-bbcd-d90eb328fe9f","ios":"levelo://app?vid=1ac7a797-bbb8-4aae-bbcd-d90eb328fe9f"},"vehicle_type_id":"4","last_reported":1781392888,"current_range_meters":4800,"station_id":"ce4bh312rcd13ifvqdk0","pricing_plan_id":"cebpf4jnsgd1na2vs0mg"},{"bike_id":"58636ab8-7a37-4b70-93e5-e54816efa03f","system_id":"levelo_inurba_marseille","lat":43.23966,"lon":5.36635,"is_reserved":false,"is_disabled":false,"rental_uris":{"android":"levelo://app?vid=58636ab8-7a37-4b70-93e5-e54816efa03f","ios":"levelo://app?vid=58636ab8-7a37-4b70-93e5-e54816efa03f"},"vehicle_type_id":"4","last_reported":1781392888,"current_range_meters":4800,"station_id":"ce4bhi12rcd13ifvqfp0","pricing_plan_id":"cebpf4jnsgd1na2vs0mg"},{"bike_id":"e4c56b64-0873-4275-bd50-2db4b788361f","system_id":"levelo_inurba_marseille","lat":43.31356,"lon":5.38494,"is_reserved":false,"is_disabled":false,"rental_uris":{"android":"levelo://app?vid=e4c56b64-0873-4275-bd50-2db4b788361f","ios":"levelo://app?vid=e4c56b64-0873-4275-bd50-2db4b788361f"},"vehicle_type_id":"4","last_reported":1781392888,"current_range_meters":4800,"station_id":"ce4bgt92rcd13ifvqcf0","pricing_plan_id":"cebpf4jnsgd1na2vs0mg"},{"bike_id":"524b5098-c1ae-4877-837e-5df2fc9fb64c","system_id":"levelo_inurba_marseille","lat":43.28151,"lon":5.42638,"is_reserved":false,"is_disabled":false,"rental_uris":{"android":"levelo://app?vid=524b5098-c1ae-4877-837e-5df2fc9fb64c","ios":"levelo://app?vid=524b5098-c1ae-4877-837e-5df2fc9fb64c"},"vehicle_type_id":"4","last_reported":1781392888,"current_range_meters":5600,"station_id":"ce4bhnh2rcd13ifvqgug","pricing_plan_id":"cebpf4jnsgd1na2vs0mg"},{"bike_id":"bfe9033f-1697-4992-b101-4d9dff4b4627","system_id":"levelo_inurba_marseille","lat":43.2919,"lon":5.39307,"is_reserved":false,"is_disabled":false,"rental_uris":{"android":"levelo://app?vid=bfe9033f-1697-4992-b101-4d9dff4b4627","ios":"levelo://app?vid=bfe9033f-1697-4992-b101-4d9dff4b4627"},"vehicle_type_id":"4","last_reported":1781392888,"current_range_meters":5600,"station_id":"ce4bh192rcd13ifvqdd0","pricing_plan_id":"cebpf4jnsgd1na2vs0mg"},{"bike_id":"7fce2453-827f-4e64-8c6b-d73624dda459","system_id":"levelo_inurba_marseille","lat":43.246596,"lon":5.381562,"is_reserved":false,"is_disabled":false,"rental_uris":{"android":"levelo://app?vid=7fce2453-827f-4e64-8c6b-d73624dda459","ios":"levelo://app?vid=7fce2453-827f-4e64-8c6b-d73624dda459"},"vehicle_type_id":"4","last_reported":1781392888,"current_range_meters":5600,"station_id":"ce4bhih2rcd13ifvqfr0","pricing_plan_id":"cebpf4jnsgd1na2vs0mg"},{"bike_id":"c175211b-3da4-46cc-a60f-4967a28b1b76","system_id":"levelo_inurba_marseille","lat":43.33152,"lon":5.37776,"is_reserved":false,"is_disabled":false,"rental_uris":{"android":"levelo://app?vid=c175211b-3da4-46cc-a60f-4967a28b1b76","ios":"levelo://app?vid=c175211b-3da4-46cc-a60f-4967a28b1b76"},"vehicle_type_id":"4","last_reported":1781392888,"current_range_meters":5600,"station_id":"","pricing_plan_id":"cebpf4jnsgd1na2vs0mg"},{"bike_id":"2e296511-deb4-43a9-83f0-81592d7a3463","system_id":"levelo_inurba_marseille","lat":43.33196,"lon":5.37715,"is_reserved":false,"is_disabled":false,"rental_uris":{"android":"levelo://app?vid=2e296511-deb4-43a9-83f0-81592d7a3463","ios":"levelo://app?vid=2e296511-deb4-43a9-83f0-81592d7a3463"},"vehicle_type_id":"4","last_reported":1781392888,"current_range_meters":5600,"station_id":"","pricing_plan_id":"cebpf4jnsgd1na2vs0mg"},{"bike_id":"5b5ea2fb-3ba8-4c10-841c-ca34891a615c","system_id":"levelo_inurba_marseille","lat":43.29358,"lon":5.3639,"is_reserved":false,"is_disabled":false,"rental_uris":{"android":"levelo://app?vid=5b5ea2fb-3ba8-4c10-841c-ca34891a615c","ios":"levelo://app?vid=5b5ea2fb-3ba8-4c10-841c-ca34891a615c"},"vehicle_type_id":"4","last_reported":1781392888,"current_range_meters":5600,"station_id":"","pricing_plan_id":"cebpf4jnsgd1na2vs0mg"},{"bike_id":"b75b860e-f642-4d57-ae10-a57f8b9673f2","system_id":"levelo_inurba_marseille","lat":43.26232,"lon":5.38779,"is_reserved":false,"is_disabled":false,"rental_uris":{"android":"levelo://app?vid=b75b860e-f642-4d57-ae10-a57f8b9673f2","ios":"levelo://app?vid=b75b860e-f642-4d57-ae10-a57f8b9673f2"},"vehicle_type_id":"4","last_reported":1781392888,"current_range_meters":5600,"station_id":"st_d8gjfg747rts73coq3b0","pricing_plan_id":"cebpf4jnsgd1na2vs0mg"},{"bike_id":"aa4d4832-791f-46b6-b904-76b96512b7a5","system_id":"levelo_inurba_marseille","lat":43.29595,"lon":5.43992,"is_reserved":false,"is_disabled":false,"rental_uris":{"android":"levelo://app?vid=aa4d4832-791f-46b6-b904-76b96512b7a5","ios":"levelo://app?vid=aa4d4832-791f-46b6-b904-76b96512b7a5"},"vehicle_type_id":"4","last_reported":1781392888,"current_range_meters":5600,"station_id":"","pricing_plan_id":"cebpf4jnsgd1na2vs0mg"},{"bike_id":"132661cb-9d8a-4df2-82e1-13b15034cf8f","system_id":"levelo_inurba_marseille","lat":43.29238,"lon":5.38438,"is_reserved":false,"is_disabled":true,"rental_uris":{"android":"levelo://app?vid=132661cb-9d8a-4df2-82e1-13b15034cf8f","ios":"levelo://app?vid=132661cb-9d8a-4df2-82e1-13b15034cf8f"},"vehicle_type_id":"4","last_reported":1781392888,"current_range_meters":5600,"station_id":"ce4bh692rcd13ifvqea0","pricing_plan_id":"cebpf4jnsgd1na2vs0mg"},{"bike_id":"12326527-aa04-43ed-8122-fab62005bcac","system_id":"levelo_inurba_marseille","lat":43.27371,"lon":5.36251,"is_reserved":false,"is_disabled":true,"rental_uris":{"android":"levelo://app?vid=12326527-aa04-43ed-8122-fab62005bcac","ios":"levelo://app?vid=12326527-aa04-43ed-8122-fab62005bcac"},"vehicle_type_id":"4","last_reported":1781392888,"current_range_meters":5600,"station_id":"ce4bhbh2rcd13ifvqeo0","pricing_plan_id":"cebpf4jnsgd1na2vs0mg"},{"bike_id":"bcace76c-e846-4243-b75c-dedd1fb5152f","system_id":"levelo_inurba_marseille","lat":43.29862,"lon":5.3974,"is_reserved":false,"is_disabled":false,"rental_uris":{"android":"levelo://app?vid=bcace76c-e846-4243-b75c-dedd1fb5152f","ios":"levelo://app?vid=bcace76c-e846-4243-b75c-dedd1fb5152f"},"vehicle_type_id":"4","last_reported":1781392888,"current_range_meters":5600,"station_id":"ce4bh0h2rcd13ifvqd50","pricing_plan_id":"cebpf4jnsgd1na2vs0mg"},{"bike_id":"fdc2f588-e9f9-4d5d-92c3-be1d373f5b1f","system_id":"levelo_inurba_marseille","lat":43.29242,"lon":5.36858,"is_reserved":false,"is_disabled":true,"rental_uris":{"android":"levelo://app?vid=fdc2f588-e9f9-4d5d-92c3-be1d373f5b1f","ios":"levelo://app?vid=fdc2f588-e9f9-4d5d-92c3-be1d373f5b1f"},"vehicle_type_id":"4","last_reported":1781392888,"current_range_meters":5600,"station_id":"ce4bhbp2rcd13ifvqesg","pricing_plan_id":"cebpf4jnsgd1na2vs0mg"},{"bike_id":"dc3e3e35-560a-41ac-8b92-c31e5b3f3434","system_id":"levelo_inurba_marseille","lat":43.2669,"lon":5.39273,"is_reserved":false,"is_disabled":false,"rental_uris":{"android":"levelo://app?vid=dc3e3e35-560a-41ac-8b92-c31e5b3f3434","ios":"levelo://app?vid=dc3e3e35-560a-41ac-8b92-c31e5b3f3434"},"vehicle_type_id":"4","last_reported":1781392888,"current_range_meters":5600,"station_id":"","pricing_plan_id":"cebpf4jnsgd1na2vs0mg"},{"bike_id":"36727331-16a1-4cad-a2df-8a882b4d3cf8","system_id":"levelo_inurba_marseille","lat":43.29099,"lon":5.38113,"is_reserved":false,"is_disabled":false,"rental_uris":{"android":"levelo://app?vid=36727331-16a1-4cad-a2df-8a882b4d3cf8","ios":"levelo://app?vid=36727331-16a1-4cad-a2df-8a882b4d3cf8"},"vehicle_type_id":"4","last_reported":1781392888,"current_range_meters":5600,"station_id":"ce4bh512rcd13ifvqe2g","pricing_plan_id":"cebpf4jnsgd1na2vs0mg"},{"bike_id":"6fb07b35-b88f-45ae-9e9e-ceed1b219374","system_id":"levelo_inurba_marseille","lat":43.32487,"lon":5.36566,"is_reserved":false,"is_disabled":true,"rental_uris":{"android":"levelo://app?vid=6fb07b35-b88f-45ae-9e9e-ceed1b219374","ios":"levelo://app?vid=6fb07b35-b88f-45ae-9e9e-ceed1b219374"},"vehicle_type_id":"4","last_reported":1781392888,"current_range_meters":5600,"station_id":"ce4bhs12rcd13ifvqhvg","pricing_plan_id":"cebpf4jnsgd1na2vs0mg"},{"bike_id":"865b81ac-c9a2-4fec-9972-01915fe112cc","system_id":"levelo_inurba_marseille","lat":43.30256,"lon":5.40087,"is_reserved":false,"is_disabled":false,"rental_uris":{"android":"levelo://app?vid=865b81ac-c9a2-4fec-9972-01915fe112cc","ios":"levelo://app?vid=865b81ac-c9a2-4fec-9972-01915fe112cc"},"vehicle_type_id":"4","last_reported":1781392888,"current_range_meters":5600,"station_id":"ce4bgvh2rcd13ifvqcs0","pricing_plan_id":"cebpf4jnsgd1na2vs0mg"},{"bike_id":"3ac38b3a-df68-4ddb-8be7-f5ce5af56eb3","system_id":"levelo_inurba_marseille","lat":43.29015,"lon":5.35639,"is_reserved":false,"is_disabled":true,"rental_uris":{"android":"levelo://app?vid=3ac38b3a-df68-4ddb-8be7-f5ce5af56eb3","ios":"levelo://app?vid=3ac38b3a-df68-4ddb-8be7-f5ce5af56eb3"},"vehicle_type_id":"4","last_reported":1781392888,"current_range_meters":5600,"station_id":"ce4bhb92rcd13ifvqen0","pricing_plan_id":"cebpf4jnsgd1na2vs0mg"},{"bike_id":"ef048e93-3c21-4aea-ad20-87c8427753a3","system_id":"levelo_inurba_marseille","lat":43.28857,"lon":5.42536,"is_reserved":false,"is_disabled":false,"rental_uris":{"android":"levelo://app?vid=ef048e93-3c21-4aea-ad20-87c8427753a3","ios":"levelo://app?vid=ef048e93-3c21-4aea-ad20-87c8427753a3"},"vehicle_type_id":"4","last_reported":1781392888,"current_range_meters":5600,"station_id":"st_d3b462108ojc7389ooeg","pricing_plan_id":"cebpf4jnsgd1na2vs0mg"},{"bike_id":"fb513c61-6d8b-461c-8b78-fb852c95a8c1","system_id":"levelo_inurba_marseille","lat":43.27186,"lon":5.41,"is_reserved":false,"is_disabled":false,"rental_uris":{"android":"levelo://app?vid=fb513c61-6d8b-461c-8b78-fb852c95a8c1","ios":"levelo://app?vid=fb513c61-6d8b-461c-8b78-fb852c95a8c1"},"vehicle_type_id":"4","last_reported":1781392888,"current_range_meters":5600,"station_id":"ce4bhl12rcd13ifvqgf0","pricing_plan_id":"cebpf4jnsgd1na2vs0mg"},{"bike_id":"a88b29eb-306e-48f7-9eec-a3658ccccaf8","system_id":"levelo_inurba_marseille","lat":43.32108,"lon":5.36773,"is_reserved":false,"is_disabled":false,"rental_uris":{"android":"levelo://app?vid=a88b29eb-306e-48f7-9eec-a3658ccccaf8","ios":"levelo://app?vid=a88b29eb-306e-48f7-9eec-a3658ccccaf8"},"vehicle_type_id":"4","last_reported":1781392888,"current_range_meters":5600,"station_id":"ce4bhrh2rcd13ifvqhug","pricing_plan_id":"cebpf4jnsgd1na2vs0mg"},{"bike_id":"40cb0155-c556-484f-915b-b738bc0d2ea4","system_id":"levelo_inurba_marseille","lat":43.21204,"lon":5.35118,"is_reserved":false,"is_disabled":false,"rental_uris":{"android":"levelo://app?vid=40cb0155-c556-484f-915b-b738bc0d2ea4","ios":"levelo://app?vid=40cb0155-c556-484f-915b-b738bc0d2ea4"},"vehicle_type_id":"4","last_reported":1781392888,"current_range_meters":5600,"station_id":"st_cvj6sg6p6f1abm77japg","pricing_plan_id":"cebpf4jnsgd1na2vs0mg"},{"bike_id":"6c325f23-e8d6-483a-aafa-046637886eed","system_id":"levelo_inurba_marseille","lat":43.2952,"lon":5.3855,"is_reserved":false,"is_disabled":false,"rental_uris":{"android":"levelo://app?vid=6c325f23-e8d6-483a-aafa-046637886eed","ios":"levelo://app?vid=6c325f23-e8d6-483a-aafa-046637886eed"},"vehicle_type_id":"4","last_reported":1781392888,"current_range_meters":5600,"station_id":"ce4bgih2rcd13ifvqba0","pricing_plan_id":"cebpf4jnsgd1na2vs0mg"},{"bike_id":"5bc53581-ac65-49e4-b56b-f1ece78f0664","system_id":"levelo_inurba_marseille","lat":43.26685,"lon":5.382773,"is_reserved":false,"is_disabled":true,"rental_uris":{"android":"levelo://app?vid=5bc53581-ac65-49e4-b56b-f1ece78f0664","ios":"levelo://app?vid=5bc53581-ac65-49e4-b56b-f1ece78f0664"},"vehicle_type_id":"4","last_reported":1781392888,"current_range_meters":5600,"station_id":"ce4bhg92rcd13ifvqf90","pricing_plan_id":"cebpf4jnsgd1na2vs0mg"},{"bike_id":"45469403-b2c5-4518-9427-6181c2421365","system_id":"levelo_inurba_marseille","lat":43.22539,"lon":5.34836,"is_reserved":false,"is_disabled":false,"rental_uris":{"android":"levelo://app?vid=45469403-b2c5-4518-9427-6181c2421365","ios":"levelo://app?vid=45469403-b2c5-4518-9427-6181c2421365"},"vehicle_type_id":"4","last_reported":1781392888,"current_range_meters":5600,"station_id":"st_cvj5dfep6f1abm77gieg","pricing_plan_id":"cebpf4jnsgd1na2vs0mg"},{"bike_id":"8ba918c5-0ca2-4d92-8d18-c1f9af78d3f1","system_id":"levelo_inurba_marseille","lat":43.28368,"lon":5.38646,"is_reserved":false,"is_disabled":false,"rental_uris":{"android":"levelo://app?vid=8ba918c5-0ca2-4d92-8d18-c1f9af78d3f1","ios":"levelo://app?vid=8ba918c5-0ca2-4d92-8d18-c1f9af78d3f1"},"vehicle_type_id":"4","last_reported":1781392888,"current_range_meters":6000,"station_id":"ce4bh492rcd13ifvqdvg","pricing_plan_id":"cebpf4jnsgd1na2vs0mg"},{"bike_id":"7750fed4-d122-41f8-ad9e-d930d3ad1cf1","system_id":"levelo_inurba_marseille","lat":43.27283,"lon":5.40083,"is_reserved":false,"is_disabled":false,"rental_uris":{"android":"levelo://app?vid=7750fed4-d122-41f8-ad9e-d930d3ad1cf1","ios":"levelo://app?vid=7750fed4-d122-41f8-ad9e-d930d3ad1cf1"},"vehicle_type_id":"4","last_reported":1781392888,"current_range_meters":6000,"station_id":"","pricing_plan_id":"cebpf4jnsgd1na2vs0mg"},{"bike_id":"fca4716d-363f-4061-9268-5fdf2b190705","system_id":"levelo_inurba_marseille","lat":43.281035,"lon":5.367145,"is_reserved":false,"is_disabled":true,"rental_uris":{"android":"levelo://app?vid=fca4716d-363f-4061-9268-5fdf2b190705","ios":"levelo://app?vid=fca4716d-363f-4061-9268-5fdf2b190705"},"vehicle_type_id":"4","last_reported":1781392888,"current_range_meters":6000,"station_id":"ce4bhgp2rcd13ifvqfc0","pricing_plan_id":"cebpf4jnsgd1na2vs0mg"},{"bike_id":"0ac86585-7b71-4a90-a603-9d1885640e67","system_id":"levelo_inurba_marseille","lat":43.29194,"lon":5.35789,"is_reserved":false,"is_disabled":false,"rental_uris":{"android":"levelo://app?vid=0ac86585-7b71-4a90-a603-9d1885640e67","ios":"levelo://app?vid=0ac86585-7b71-4a90-a603-9d1885640e67"},"vehicle_type_id":"4","last_reported":1781392888,"current_range_meters":6000,"station_id":"ce4bhb12rcd13ifvqel0","pricing_plan_id":"cebpf4jnsgd1na2vs0mg"},{"bike_id":"c43c92bc-16e7-4616-8292-b9ed941fbd42","system_id":"levelo_inurba_marseille","lat":43.22557,"lon":5.41636,"is_reserved":false,"is_disabled":false,"rental_uris":{"android":"levelo://app?vid=c43c92bc-16e7-4616-8292-b9ed941fbd42","ios":"levelo://app?vid=c43c92bc-16e7-4616-8292-b9ed941fbd42"},"vehicle_type_id":"4","last_reported":1781392888,"current_range_meters":6000,"station_id":"st_d2o4gvlbi1j2169b742g","pricing_plan_id":"cebpf4jnsgd1na2vs0mg"},{"bike_id":"757c423b-2a82-46b3-ba98-1af12f958ffe","system_id":"levelo_inurba_marseille","lat":43.28458,"lon":5.35895,"is_reserved":false,"is_disabled":false,"rental_uris":{"android":"levelo://app?vid=757c423b-2a82-46b3-ba98-1af12f958ffe","ios":"levelo://app?vid=757c423b-2a82-46b3-ba98-1af12f958ffe"},"vehicle_type_id":"4","last_reported":1781392888,"current_range_meters":6000,"station_id":"ce4bhah2rcd13ifvqei0","pricing_plan_id":"cebpf4jnsgd1na2vs0mg"},{"bike_id":"7911489c-d669-48c8-806a-ae5df483f8c3","system_id":"levelo_inurba_marseille","lat":43.26229,"lon":5.38781,"is_reserved":false,"is_disabled":false,"rental_uris":{"android":"levelo://app?vid=7911489c-d669-48c8-806a-ae5df483f8c3","ios":"levelo://app?vid=7911489c-d669-48c8-806a-ae5df483f8c3"},"vehicle_type_id":"4","last_reported":1781392888,"current_range_meters":6000,"station_id":"st_d8gjfg747rts73coq3b0","pricing_plan_id":"cebpf4jnsgd1na2vs0mg"},{"bike_id":"0f63960b-9a89-46cf-900f-27e1f2c4ed14","system_id":"levelo_inurba_marseille","lat":43.32339,"lon":5.38499,"is_reserved":false,"is_disabled":false,"rental_uris":{"android":"levelo://app?vid=0f63960b-9a89-46cf-900f-27e1f2c4ed14","ios":"levelo://app?vid=0f63960b-9a89-46cf-900f-27e1f2c4ed14"},"vehicle_type_id":"4","last_reported":1781392888,"current_range_meters":6000,"station_id":"st_d45171o9ee8s73djdqug","pricing_plan_id":"cebpf4jnsgd1na2vs0mg"},{"bike_id":"7af8db91-4e76-487d-9d0c-e2ccfeeb6ad6","system_id":"levelo_inurba_marseille","lat":43.24066,"lon":5.37764,"is_reserved":false,"is_disabled":false,"rental_uris":{"android":"levelo://app?vid=7af8db91-4e76-487d-9d0c-e2ccfeeb6ad6","ios":"levelo://app?vid=7af8db91-4e76-487d-9d0c-e2ccfeeb6ad6"},"vehicle_type_id":"4","last_reported":1781392888,"current_range_meters":6000,"station_id":"ce4bhnp2rcd13ifvqgvg","pricing_plan_id":"cebpf4jnsgd1na2vs0mg"},{"bike_id":"004afac0-0684-4a3d-b7fa-a67f840354f6","system_id":"levelo_inurba_marseille","lat":43.26301,"lon":5.37827,"is_reserved":false,"is_disabled":false,"rental_uris":{"android":"levelo://app?vid=004afac0-0684-4a3d-b7fa-a67f840354f6","ios":"levelo://app?vid=004afac0-0684-4a3d-b7fa-a67f840354f6"},"vehicle_type_id":"4","last_reported":1781392888,"current_range_meters":6000,"station_id":"","pricing_plan_id":"cebpf4jnsgd1na2vs0mg"},{"bike_id":"53f415ca-c930-47a3-b30e-bcfcd7946af3","system_id":"levelo_inurba_marseille","lat":43.27963,"lon":5.3873,"is_reserved":false,"is_disabled":false,"rental_uris":{"android":"levelo://app?vid=53f415ca-c930-47a3-b30e-bcfcd7946af3","ios":"levelo://app?vid=53f415ca-c930-47a3-b30e-bcfcd7946af3"},"vehicle_type_id":"4","last_reported":1781392888,"current_range_meters":6000,"station_id":"ce4bhg12rcd13ifvqf80","pricing_plan_id":"cebpf4jnsgd1na2vs0mg"},{"bike_id":"48de77fe-85e2-4ed0-b073-9689fb2f1b98","system_id":"levelo_inurba_marseille","lat":43.29155,"lon":5.37172,"is_reserved":false,"is_disabled":true,"rental_uris":{"android":"levelo://app?vid=48de77fe-85e2-4ed0-b073-9689fb2f1b98","ios":"levelo://app?vid=48de77fe-85e2-4ed0-b073-9689fb2f1b98"},"vehicle_type_id":"4","last_reported":1781392888,"current_range_meters":6000,"station_id":"ce4bha92rcd13ifvqeh0","pricing_plan_id":"cebpf4jnsgd1na2vs0mg"},{"bike_id":"e85eacf2-df37-4560-92c7-59f7e311147c","system_id":"levelo_inurba_marseille","lat":43.25559,"lon":5.38245,"is_reserved":false,"is_disabled":false,"rental_uris":{"android":"levelo://app?vid=e85eacf2-df37-4560-92c7-59f7e311147c","ios":"levelo://app?vid=e85eacf2-df37-4560-92c7-59f7e311147c"},"vehicle_type_id":"4","last_reported":1781392888,"current_range_meters":6000,"station_id":"ce4bhih2rcd13ifvqfs0","pricing_plan_id":"cebpf4jnsgd1na2vs0mg"},{"bike_id":"61acdcff-76d7-4bb2-a256-e2ec611550e8","system_id":"levelo_inurba_marseille","lat":43.26556,"lon":5.39007,"is_reserved":false,"is_disabled":true,"rental_uris":{"android":"levelo://app?vid=61acdcff-76d7-4bb2-a256-e2ec611550e8","ios":"levelo://app?vid=61acdcff-76d7-4bb2-a256-e2ec611550e8"},"vehicle_type_id":"4","last_reported":1781392888,"current_range_meters":6000,"station_id":"ce4bhe12rcd13ifvqf30","pricing_plan_id":"cebpf4jnsgd1na2vs0mg"},{"bike_id":"75d2324c-5b64-4ebb-8d51-9258c02dd124","system_id":"levelo_inurba_marseille","lat":43.296295,"lon":5.377075,"is_reserved":false,"is_disabled":false,"rental_uris":{"android":"levelo://app?vid=75d2324c-5b64-4ebb-8d51-9258c02dd124","ios":"levelo://app?vid=75d2324c-5b64-4ebb-8d51-9258c02dd124"},"vehicle_type_id":"4","last_reported":1781392888,"current_range_meters":6000,"station_id":"ce4bgi92rcd13ifvqb90","pricing_plan_id":"cebpf4jnsgd1na2vs0mg"},{"bike_id":"3f683387-f7ec-4b9f-9801-ff63896077b4","system_id":"levelo_inurba_marseille","lat":43.23958,"lon":5.36547,"is_reserved":false,"is_disabled":false,"rental_uris":{"android":"levelo://app?vid=3f683387-f7ec-4b9f-9801-ff63896077b4","ios":"levelo://app?vid=3f683387-f7ec-4b9f-9801-ff63896077b4"},"vehicle_type_id":"4","last_reported":1781392888,"current_range_meters":6000,"station_id":"","pricing_plan_id":"cebpf4jnsgd1na2vs0mg"},{"bike_id":"9eb6a1f9-dc84-43b6-9bb0-4a0cef9916f8","system_id":"levelo_inurba_marseille","lat":43.25106,"lon":5.40326,"is_reserved":false,"is_disabled":false,"rental_uris":{"android":"levelo://app?vid=9eb6a1f9-dc84-43b6-9bb0-4a0cef9916f8","ios":"levelo://app?vid=9eb6a1f9-dc84-43b6-9bb0-4a0cef9916f8"},"vehicle_type_id":"4","last_reported":1781392888,"current_range_meters":6000,"station_id":"ce4bhlh2rcd13ifvqgig","pricing_plan_id":"cebpf4jnsgd1na2vs0mg"},{"bike_id":"7278433e-cc6e-4c60-bedf-e94ca0ca8dec","system_id":"levelo_inurba_marseille","lat":43.28286,"lon":5.37435,"is_reserved":false,"is_disabled":false,"rental_uris":{"android":"levelo://app?vid=7278433e-cc6e-4c60-bedf-e94ca0ca8dec","ios":"levelo://app?vid=7278433e-cc6e-4c60-bedf-e94ca0ca8dec"},"vehicle_type_id":"4","last_reported":1781392888,"current_range_meters":6000,"station_id":"","pricing_plan_id":"cebpf4jnsgd1na2vs0mg"},{"bike_id":"9f0be29b-c3fc-43d2-88d9-7ef79e23fe90","system_id":"levelo_inurba_marseille","lat":43.24544,"lon":5.39517,"is_reserved":false,"is_disabled":false,"rental_uris":{"android":"levelo://app?vid=9f0be29b-c3fc-43d2-88d9-7ef79e23fe90","ios":"levelo://app?vid=9f0be29b-c3fc-43d2-88d9-7ef79e23fe90"},"vehicle_type_id":"4","last_reported":1781392888,"current_range_meters":6400,"station_id":"ce4bhlp2rcd13ifvqgjg","pricing_plan_id":"cebpf4jnsgd1na2vs0mg"},{"bike_id":"195f1d1e-36bb-48d2-9a0b-ee215f42c586","system_id":"levelo_inurba_marseille","lat":43.2447,"lon":5.42542,"is_reserved":false,"is_disabled":false,"rental_uris":{"android":"levelo://app?vid=195f1d1e-36bb-48d2-9a0b-ee215f42c586","ios":"levelo://app?vid=195f1d1e-36bb-48d2-9a0b-ee215f42c586"},"vehicle_type_id":"4","last_reported":1781392888,"current_range_meters":6400,"station_id":"st_d4a3vfp97mjs738cd8kg","pricing_plan_id":"cebpf4jnsgd1na2vs0mg"},{"bike_id":"63b7df32-db83-499c-976f-3b9d3c9d0124","system_id":"levelo_inurba_marseille","lat":43.28932,"lon":5.36639,"is_reserved":false,"is_disabled":false,"rental_uris":{"android":"levelo://app?vid=63b7df32-db83-499c-976f-3b9d3c9d0124","ios":"levelo://app?vid=63b7df32-db83-499c-976f-3b9d3c9d0124"},"vehicle_type_id":"4","last_reported":1781392888,"current_range_meters":6400,"station_id":"ce4bhap2rcd13ifvqek0","pricing_plan_id":"cebpf4jnsgd1na2vs0mg"},{"bike_id":"2d5036af-f9df-45c6-97e4-648868345309","system_id":"levelo_inurba_marseille","lat":43.33371,"lon":5.39083,"is_reserved":false,"is_disabled":false,"rental_uris":{"android":"levelo://app?vid=2d5036af-f9df-45c6-97e4-648868345309","ios":"levelo://app?vid=2d5036af-f9df-45c6-97e4-648868345309"},"vehicle_type_id":"4","last_reported":1781392888,"current_range_meters":6400,"station_id":"","pricing_plan_id":"cebpf4jnsgd1na2vs0mg"},{"bike_id":"3e5719a2-2abe-4987-b392-870b3a6c84c0","system_id":"levelo_inurba_marseille","lat":43.25505,"lon":5.3766,"is_reserved":false,"is_disabled":false,"rental_uris":{"android":"levelo://app?vid=3e5719a2-2abe-4987-b392-870b3a6c84c0","ios":"levelo://app?vid=3e5719a2-2abe-4987-b392-870b3a6c84c0"},"vehicle_type_id":"4","last_reported":1781392888,"current_range_meters":6400,"station_id":"ce4bhh12rcd13ifvqff0","pricing_plan_id":"cebpf4jnsgd1na2vs0mg"},{"bike_id":"3964cfec-2447-4c38-a9ab-5ebac4f72b6e","system_id":"levelo_inurba_marseille","lat":43.23198,"lon":5.35584,"is_reserved":false,"is_disabled":false,"rental_uris":{"android":"levelo://app?vid=3964cfec-2447-4c38-a9ab-5ebac4f72b6e","ios":"levelo://app?vid=3964cfec-2447-4c38-a9ab-5ebac4f72b6e"},"vehicle_type_id":"4","last_reported":1781392888,"current_range_meters":6400,"station_id":"ce4bhu92rcd13ifvqi70","pricing_plan_id":"cebpf4jnsgd1na2vs0mg"},{"bike_id":"e91d4c37-49e1-4eb2-811e-d4c855f1b23c","system_id":"levelo_inurba_marseille","lat":43.31738,"lon":5.37737,"is_reserved":false,"is_disabled":false,"rental_uris":{"android":"levelo://app?vid=e91d4c37-49e1-4eb2-811e-d4c855f1b23c","ios":"levelo://app?vid=e91d4c37-49e1-4eb2-811e-d4c855f1b23c"},"vehicle_type_id":"4","last_reported":1781392888,"current_range_meters":6400,"station_id":"ce4bgth2rcd13ifvqch0","pricing_plan_id":"cebpf4jnsgd1na2vs0mg"},{"bike_id":"23f1cb72-1b7c-4161-b60d-f5ef6e0e3098","system_id":"levelo_inurba_marseille","lat":43.29865,"lon":5.39741,"is_reserved":false,"is_disabled":false,"rental_uris":{"android":"levelo://app?vid=23f1cb72-1b7c-4161-b60d-f5ef6e0e3098","ios":"levelo://app?vid=23f1cb72-1b7c-4161-b60d-f5ef6e0e3098"},"vehicle_type_id":"4","last_reported":1781392888,"current_range_meters":6400,"station_id":"ce4bh0h2rcd13ifvqd50","pricing_plan_id":"cebpf4jnsgd1na2vs0mg"},{"bike_id":"de1aa6e0-b781-47d6-b5b7-aeceeaa52c8d","system_id":"levelo_inurba_marseille","lat":43.29063,"lon":5.37143,"is_reserved":false,"is_disabled":true,"rental_uris":{"android":"levelo://app?vid=de1aa6e0-b781-47d6-b5b7-aeceeaa52c8d","ios":"levelo://app?vid=de1aa6e0-b781-47d6-b5b7-aeceeaa52c8d"},"vehicle_type_id":"4","last_reported":1781392888,"current_range_meters":6400,"station_id":"ce4bh5p2rcd13ifvqe4g","pricing_plan_id":"cebpf4jnsgd1na2vs0mg"},{"bike_id":"bbffc1db-a414-40cf-a59e-778686fc93d1","system_id":"levelo_inurba_marseille","lat":43.22567,"lon":5.41624,"is_reserved":false,"is_disabled":false,"rental_uris":{"android":"levelo://app?vid=bbffc1db-a414-40cf-a59e-778686fc93d1","ios":"levelo://app?vid=bbffc1db-a414-40cf-a59e-778686fc93d1"},"vehicle_type_id":"4","last_reported":1781392888,"current_range_meters":6400,"station_id":"st_d2o4gvlbi1j2169b742g","pricing_plan_id":"cebpf4jnsgd1na2vs0mg"},{"bike_id":"cf11dd40-b113-45d9-8d41-8d04b849c2c4","system_id":"levelo_inurba_marseille","lat":43.2911,"lon":5.42776,"is_reserved":false,"is_disabled":false,"rental_uris":{"android":"levelo://app?vid=cf11dd40-b113-45d9-8d41-8d04b849c2c4","ios":"levelo://app?vid=cf11dd40-b113-45d9-8d41-8d04b849c2c4"},"vehicle_type_id":"4","last_reported":1781392888,"current_range_meters":6400,"station_id":"","pricing_plan_id":"cebpf4jnsgd1na2vs0mg"},{"bike_id":"39045dda-7d48-48b4-8953-1841de64fad0","system_id":"levelo_inurba_marseille","lat":43.28692,"lon":5.39989,"is_reserved":false,"is_disabled":false,"rental_uris":{"android":"levelo://app?vid=39045dda-7d48-48b4-8953-1841de64fad0","ios":"levelo://app?vid=39045dda-7d48-48b4-8953-1841de64fad0"},"vehicle_type_id":"4","last_reported":1781392888,"current_range_meters":6400,"station_id":"ce4bho92rcd13ifvqh3g","pricing_plan_id":"cebpf4jnsgd1na2vs0mg"},{"bike_id":"9a234ee4-189a-4927-904a-c6f72c9e5bbf","system_id":"levelo_inurba_marseille","lat":43.2846,"lon":5.38438,"is_reserved":false,"is_disabled":true,"rental_uris":{"android":"levelo://app?vid=9a234ee4-189a-4927-904a-c6f72c9e5bbf","ios":"levelo://app?vid=9a234ee4-189a-4927-904a-c6f72c9e5bbf"},"vehicle_type_id":"4","last_reported":1781392888,"current_range_meters":6400,"station_id":"ce4bh512rcd13ifvqe3g","pricing_plan_id":"cebpf4jnsgd1na2vs0mg"},{"bike_id":"dd642cd4-21e5-4e97-885f-8917ed7d336e","system_id":"levelo_inurba_marseille","lat":43.21753,"lon":5.34601,"is_reserved":false,"is_disabled":false,"rental_uris":{"android":"levelo://app?vid=dd642cd4-21e5-4e97-885f-8917ed7d336e","ios":"levelo://app?vid=dd642cd4-21e5-4e97-885f-8917ed7d336e"},"vehicle_type_id":"4","last_reported":1781392888,"current_range_meters":6400,"station_id":"st_cvj6r9ubvosntc0bgbag","pricing_plan_id":"cebpf4jnsgd1na2vs0mg"},{"bike_id":"7baed78b-b599-4d54-8b17-af93ee2c9d0c","system_id":"levelo_inurba_marseille","lat":43.28463,"lon":5.35886,"is_reserved":false,"is_disabled":false,"rental_uris":{"android":"levelo://app?vid=7baed78b-b599-4d54-8b17-af93ee2c9d0c","ios":"levelo://app?vid=7baed78b-b599-4d54-8b17-af93ee2c9d0c"},"vehicle_type_id":"4","last_reported":1781392888,"current_range_meters":6400,"station_id":"ce4bhah2rcd13ifvqei0","pricing_plan_id":"cebpf4jnsgd1na2vs0mg"},{"bike_id":"d9df716e-04c3-410e-a684-88b6b88fa6c5","system_id":"levelo_inurba_marseille","lat":43.24394,"lon":5.37068,"is_reserved":false,"is_disabled":true,"rental_uris":{"android":"levelo://app?vid=d9df716e-04c3-410e-a684-88b6b88fa6c5","ios":"levelo://app?vid=d9df716e-04c3-410e-a684-88b6b88fa6c5"},"vehicle_type_id":"4","last_reported":1781392888,"current_range_meters":6400,"station_id":"ce4bhhh2rcd13ifvqfk0","pricing_plan_id":"cebpf4jnsgd1na2vs0mg"},{"bike_id":"5926216b-9418-4573-b66b-49f5c102014d","system_id":"levelo_inurba_marseille","lat":43.31895,"lon":5.36828,"is_reserved":false,"is_disabled":false,"rental_uris":{"android":"levelo://app?vid=5926216b-9418-4573-b66b-49f5c102014d","ios":"levelo://app?vid=5926216b-9418-4573-b66b-49f5c102014d"},"vehicle_type_id":"4","last_reported":1781392888,"current_range_meters":6400,"station_id":"st_d6o2h0d0559c73evc1b0","pricing_plan_id":"cebpf4jnsgd1na2vs0mg"},{"bike_id":"ea0fe0a6-d792-472b-ac51-c34cc4a588d6","system_id":"levelo_inurba_marseille","lat":43.27498,"lon":5.42458,"is_reserved":false,"is_disabled":false,"rental_uris":{"android":"levelo://app?vid=ea0fe0a6-d792-472b-ac51-c34cc4a588d6","ios":"levelo://app?vid=ea0fe0a6-d792-472b-ac51-c34cc4a588d6"},"vehicle_type_id":"4","last_reported":1781392888,"current_range_meters":6400,"station_id":"ce4bhn92rcd13ifvqgrg","pricing_plan_id":"cebpf4jnsgd1na2vs0mg"},{"bike_id":"8541f017-3968-4a6a-a25b-5885257483a8","system_id":"levelo_inurba_marseille","lat":43.2417,"lon":5.39739,"is_reserved":false,"is_disabled":false,"rental_uris":{"android":"levelo://app?vid=8541f017-3968-4a6a-a25b-5885257483a8","ios":"levelo://app?vid=8541f017-3968-4a6a-a25b-5885257483a8"},"vehicle_type_id":"4","last_reported":1781392888,"current_range_meters":6400,"station_id":"ce4bhn12rcd13ifvqgpg","pricing_plan_id":"cebpf4jnsgd1na2vs0mg"},{"bike_id":"07fa9e0b-7d5d-4032-998d-862624e95d27","system_id":"levelo_inurba_marseille","lat":43.27169,"lon":5.41003,"is_reserved":false,"is_disabled":false,"rental_uris":{"android":"levelo://app?vid=07fa9e0b-7d5d-4032-998d-862624e95d27","ios":"levelo://app?vid=07fa9e0b-7d5d-4032-998d-862624e95d27"},"vehicle_type_id":"4","last_reported":1781392888,"current_range_meters":6400,"station_id":"ce4bhl12rcd13ifvqgf0","pricing_plan_id":"cebpf4jnsgd1na2vs0mg"},{"bike_id":"9608da4c-a1e4-4079-9b2d-ea64b02bf9d9","system_id":"levelo_inurba_marseille","lat":43.29005,"lon":5.40285,"is_reserved":false,"is_disabled":false,"rental_uris":{"android":"levelo://app?vid=9608da4c-a1e4-4079-9b2d-ea64b02bf9d9","ios":"levelo://app?vid=9608da4c-a1e4-4079-9b2d-ea64b02bf9d9"},"vehicle_type_id":"4","last_reported":1781392888,"current_range_meters":6400,"station_id":"ce4bh392rcd13ifvqdm0","pricing_plan_id":"cebpf4jnsgd1na2vs0mg"},{"bike_id":"c97fb99a-7c2e-4698-a401-a6886e4eb5f4","system_id":"levelo_inurba_marseille","lat":43.28745,"lon":5.42704,"is_reserved":false,"is_disabled":false,"rental_uris":{"android":"levelo://app?vid=c97fb99a-7c2e-4698-a401-a6886e4eb5f4","ios":"levelo://app?vid=c97fb99a-7c2e-4698-a401-a6886e4eb5f4"},"vehicle_type_id":"4","last_reported":1781392888,"current_range_meters":6400,"station_id":"","pricing_plan_id":"cebpf4jnsgd1na2vs0mg"},{"bike_id":"7b3e3f1e-64c4-4e07-8abc-4ff60be18895","system_id":"levelo_inurba_marseille","lat":43.299631,"lon":5.4133,"is_reserved":false,"is_disabled":false,"rental_uris":{"android":"levelo://app?vid=7b3e3f1e-64c4-4e07-8abc-4ff60be18895","ios":"levelo://app?vid=7b3e3f1e-64c4-4e07-8abc-4ff60be18895"},"vehicle_type_id":"4","last_reported":1781392888,"current_range_meters":6400,"station_id":"ce4bhp12rcd13ifvqh9g","pricing_plan_id":"cebpf4jnsgd1na2vs0mg"},{"bike_id":"bb88796b-f0ff-47f2-a1d2-65a2a91d557f","system_id":"levelo_inurba_marseille","lat":43.28369,"lon":5.38634,"is_reserved":false,"is_disabled":false,"rental_uris":{"android":"levelo://app?vid=bb88796b-f0ff-47f2-a1d2-65a2a91d557f","ios":"levelo://app?vid=bb88796b-f0ff-47f2-a1d2-65a2a91d557f"},"vehicle_type_id":"4","last_reported":1781392888,"current_range_meters":6400,"station_id":"ce4bh492rcd13ifvqdvg","pricing_plan_id":"cebpf4jnsgd1na2vs0mg"},{"bike_id":"18560e92-07cf-4ddb-8235-229118b7480a","system_id":"levelo_inurba_marseille","lat":43.30414,"lon":5.39772,"is_reserved":false,"is_disabled":false,"rental_uris":{"android":"levelo://app?vid=18560e92-07cf-4ddb-8235-229118b7480a","ios":"levelo://app?vid=18560e92-07cf-4ddb-8235-229118b7480a"},"vehicle_type_id":"4","last_reported":1781392888,"current_range_meters":6400,"station_id":"ce4bh092rcd13ifvqd20","pricing_plan_id":"cebpf4jnsgd1na2vs0mg"},{"bike_id":"cf0c68e9-108f-4cb2-8999-26e59936ff8c","system_id":"levelo_inurba_marseille","lat":43.23069,"lon":5.35468,"is_reserved":false,"is_disabled":false,"rental_uris":{"android":"levelo://app?vid=cf0c68e9-108f-4cb2-8999-26e59936ff8c","ios":"levelo://app?vid=cf0c68e9-108f-4cb2-8999-26e59936ff8c"},"vehicle_type_id":"4","last_reported":1781392888,"current_range_meters":6800,"station_id":"cpo3342slgdg3j2ifvpg","pricing_plan_id":"cebpf4jnsgd1na2vs0mg"},{"bike_id":"da49f8bf-ac47-4f75-a9fc-b5a0f8173bc6","system_id":"levelo_inurba_marseille","lat":43.28454,"lon":5.3589,"is_reserved":false,"is_disabled":true,"rental_uris":{"android":"levelo://app?vid=da49f8bf-ac47-4f75-a9fc-b5a0f8173bc6","ios":"levelo://app?vid=da49f8bf-ac47-4f75-a9fc-b5a0f8173bc6"},"vehicle_type_id":"4","last_reported":1781392888,"current_range_meters":6800,"station_id":"ce4bhah2rcd13ifvqei0","pricing_plan_id":"cebpf4jnsgd1na2vs0mg"},{"bike_id":"8f809aba-fb91-4274-9669-f9211fc8e411","system_id":"levelo_inurba_marseille","lat":43.23306,"lon":5.39957,"is_reserved":false,"is_disabled":false,"rental_uris":{"android":"levelo://app?vid=8f809aba-fb91-4274-9669-f9211fc8e411","ios":"levelo://app?vid=8f809aba-fb91-4274-9669-f9211fc8e411"},"vehicle_type_id":"4","last_reported":1781392888,"current_range_meters":6800,"station_id":"","pricing_plan_id":"cebpf4jnsgd1na2vs0mg"},{"bike_id":"2d5bca4e-4ec0-4ad6-bdf3-d284feaeb273","system_id":"levelo_inurba_marseille","lat":43.27584,"lon":5.38668,"is_reserved":false,"is_disabled":false,"rental_uris":{"android":"levelo://app?vid=2d5bca4e-4ec0-4ad6-bdf3-d284feaeb273","ios":"levelo://app?vid=2d5bca4e-4ec0-4ad6-bdf3-d284feaeb273"},"vehicle_type_id":"4","last_reported":1781392888,"current_range_meters":6800,"station_id":"","pricing_plan_id":"cebpf4jnsgd1na2vs0mg"},{"bike_id":"d0b0e4f3-e20c-4a4e-ab3b-ebaa71f5abb1","system_id":"levelo_inurba_marseille","lat":43.29031,"lon":5.38664,"is_reserved":false,"is_disabled":false,"rental_uris":{"android":"levelo://app?vid=d0b0e4f3-e20c-4a4e-ab3b-ebaa71f5abb1","ios":"levelo://app?vid=d0b0e4f3-e20c-4a4e-ab3b-ebaa71f5abb1"},"vehicle_type_id":"4","last_reported":1781392888,"current_range_meters":6800,"station_id":"ce4bh4p2rcd13ifvqe0g","pricing_plan_id":"cebpf4jnsgd1na2vs0mg"},{"bike_id":"ec7ff123-2191-49c9-b4f8-c9b1016b4d1d","system_id":"levelo_inurba_marseille","lat":43.33537,"lon":5.37475,"is_reserved":false,"is_disabled":false,"rental_uris":{"android":"levelo://app?vid=ec7ff123-2191-49c9-b4f8-c9b1016b4d1d","ios":"levelo://app?vid=ec7ff123-2191-49c9-b4f8-c9b1016b4d1d"},"vehicle_type_id":"4","last_reported":1781392888,"current_range_meters":6800,"station_id":"st_d46tts09ee8s73dlu43g","pricing_plan_id":"cebpf4jnsgd1na2vs0mg"},{"bike_id":"02ebe84d-d12f-4370-a7b4-6962796cc7b9","system_id":"levelo_inurba_marseille","lat":43.25567,"lon":5.38248,"is_reserved":false,"is_disabled":false,"rental_uris":{"android":"levelo://app?vid=02ebe84d-d12f-4370-a7b4-6962796cc7b9","ios":"levelo://app?vid=02ebe84d-d12f-4370-a7b4-6962796cc7b9"},"vehicle_type_id":"4","last_reported":1781392888,"current_range_meters":6800,"station_id":"ce4bhih2rcd13ifvqfs0","pricing_plan_id":"cebpf4jnsgd1na2vs0mg"},{"bike_id":"cb890f1c-f7db-4de7-bea0-bc63f6807b19","system_id":"levelo_inurba_marseille","lat":43.30795,"lon":5.38132,"is_reserved":false,"is_disabled":false,"rental_uris":{"android":"levelo://app?vid=cb890f1c-f7db-4de7-bea0-bc63f6807b19","ios":"levelo://app?vid=cb890f1c-f7db-4de7-bea0-bc63f6807b19"},"vehicle_type_id":"4","last_reported":1781392888,"current_range_meters":6800,"station_id":"ce4bgt12rcd13ifvqce0","pricing_plan_id":"cebpf4jnsgd1na2vs0mg"},{"bike_id":"eaf7b6af-4b59-4c2d-9b24-3b2ba05e4160","system_id":"levelo_inurba_marseille","lat":43.31649,"lon":5.37662,"is_reserved":false,"is_disabled":false,"rental_uris":{"android":"levelo://app?vid=eaf7b6af-4b59-4c2d-9b24-3b2ba05e4160","ios":"levelo://app?vid=eaf7b6af-4b59-4c2d-9b24-3b2ba05e4160"},"vehicle_type_id":"4","last_reported":1781392888,"current_range_meters":6800,"station_id":"","pricing_plan_id":"cebpf4jnsgd1na2vs0mg"},{"bike_id":"41d61f3a-572c-4240-9f59-8b5b646be959","system_id":"levelo_inurba_marseille","lat":43.31892,"lon":5.36815,"is_reserved":false,"is_disabled":false,"rental_uris":{"android":"levelo://app?vid=41d61f3a-572c-4240-9f59-8b5b646be959","ios":"levelo://app?vid=41d61f3a-572c-4240-9f59-8b5b646be959"},"vehicle_type_id":"4","last_reported":1781392888,"current_range_meters":6800,"station_id":"st_d6o2h0d0559c73evc1b0","pricing_plan_id":"cebpf4jnsgd1na2vs0mg"},{"bike_id":"61a284e4-1879-4b66-958a-faf46f742579","system_id":"levelo_inurba_marseille","lat":43.29554,"lon":5.42297,"is_reserved":false,"is_disabled":false,"rental_uris":{"android":"levelo://app?vid=61a284e4-1879-4b66-958a-faf46f742579","ios":"levelo://app?vid=61a284e4-1879-4b66-958a-faf46f742579"},"vehicle_type_id":"4","last_reported":1781392888,"current_range_meters":6800,"station_id":"ce4bhph2rcd13ifvqhdg","pricing_plan_id":"cebpf4jnsgd1na2vs0mg"},{"bike_id":"83703050-7737-4d7f-856f-e0e0fd6e068f","system_id":"levelo_inurba_marseille","lat":43.28702,"lon":5.46691,"is_reserved":false,"is_disabled":false,"rental_uris":{"android":"levelo://app?vid=83703050-7737-4d7f-856f-e0e0fd6e068f","ios":"levelo://app?vid=83703050-7737-4d7f-856f-e0e0fd6e068f"},"vehicle_type_id":"4","last_reported":1781392888,"current_range_meters":6800,"station_id":"st_d6tc3vkotcvc738tfjhg","pricing_plan_id":"cebpf4jnsgd1na2vs0mg"},{"bike_id":"3a8c29bd-1026-45b6-9b92-5b3528896e80","system_id":"levelo_inurba_marseille","lat":43.24449,"lon":5.42548,"is_reserved":false,"is_disabled":false,"rental_uris":{"android":"levelo://app?vid=3a8c29bd-1026-45b6-9b92-5b3528896e80","ios":"levelo://app?vid=3a8c29bd-1026-45b6-9b92-5b3528896e80"},"vehicle_type_id":"4","last_reported":1781392888,"current_range_meters":6800,"station_id":"st_d4a3vfp97mjs738cd8kg","pricing_plan_id":"cebpf4jnsgd1na2vs0mg"},{"bike_id":"0941848c-8766-4451-83c6-4c0879a373e1","system_id":"levelo_inurba_marseille","lat":43.23287,"lon":5.36005,"is_reserved":false,"is_disabled":false,"rental_uris":{"android":"levelo://app?vid=0941848c-8766-4451-83c6-4c0879a373e1","ios":"levelo://app?vid=0941848c-8766-4451-83c6-4c0879a373e1"},"vehicle_type_id":"4","last_reported":1781392888,"current_range_meters":6800,"station_id":"","pricing_plan_id":"cebpf4jnsgd1na2vs0mg"},{"bike_id":"948e7dcf-c12b-4293-8ebe-ef6b71975867","system_id":"levelo_inurba_marseille","lat":43.24175,"lon":5.36371,"is_reserved":false,"is_disabled":true,"rental_uris":{"android":"levelo://app?vid=948e7dcf-c12b-4293-8ebe-ef6b71975867","ios":"levelo://app?vid=948e7dcf-c12b-4293-8ebe-ef6b71975867"},"vehicle_type_id":"4","last_reported":1781392888,"current_range_meters":6800,"station_id":"cpo36qri1sfpv3e86is0","pricing_plan_id":"cebpf4jnsgd1na2vs0mg"},{"bike_id":"b00d8bd0-800e-45a7-ac0f-43138ef8f6fe","system_id":"levelo_inurba_marseille","lat":43.26779,"lon":5.39421,"is_reserved":false,"is_disabled":true,"rental_uris":{"android":"levelo://app?vid=b00d8bd0-800e-45a7-ac0f-43138ef8f6fe","ios":"levelo://app?vid=b00d8bd0-800e-45a7-ac0f-43138ef8f6fe"},"vehicle_type_id":"4","last_reported":1781392888,"current_range_meters":6800,"station_id":"ce4bhh12rcd13ifvqfg0","pricing_plan_id":"cebpf4jnsgd1na2vs0mg"},{"bike_id":"8150589d-aa57-493e-b46c-c7049ac03237","system_id":"levelo_inurba_marseille","lat":43.32515,"lon":5.39156,"is_reserved":false,"is_disabled":false,"rental_uris":{"android":"levelo://app?vid=8150589d-aa57-493e-b46c-c7049ac03237","ios":"levelo://app?vid=8150589d-aa57-493e-b46c-c7049ac03237"},"vehicle_type_id":"4","last_reported":1781392888,"current_range_meters":6800,"station_id":"","pricing_plan_id":"cebpf4jnsgd1na2vs0mg"},{"bike_id":"59abd848-b938-4706-8b9d-aa54cd5d850e","system_id":"levelo_inurba_marseille","lat":43.28259,"lon":5.35059,"is_reserved":false,"is_disabled":true,"rental_uris":{"android":"levelo://app?vid=59abd848-b938-4706-8b9d-aa54cd5d850e","ios":"levelo://app?vid=59abd848-b938-4706-8b9d-aa54cd5d850e"},"vehicle_type_id":"4","last_reported":1781392888,"current_range_meters":6800,"station_id":"ce4bhbp2rcd13ifvqerg","pricing_plan_id":"cebpf4jnsgd1na2vs0mg"},{"bike_id":"8185a93a-df23-4cba-b5aa-efc041cddc09","system_id":"levelo_inurba_marseille","lat":43.29631,"lon":5.40606,"is_reserved":false,"is_disabled":true,"rental_uris":{"android":"levelo://app?vid=8185a93a-df23-4cba-b5aa-efc041cddc09","ios":"levelo://app?vid=8185a93a-df23-4cba-b5aa-efc041cddc09"},"vehicle_type_id":"4","last_reported":1781392888,"current_range_meters":7200,"station_id":"ce4bh0h2rcd13ifvqd60","pricing_plan_id":"cebpf4jnsgd1na2vs0mg"},{"bike_id":"93b03f6b-edc6-445d-908a-770c538c330f","system_id":"levelo_inurba_marseille","lat":43.25963,"lon":5.39409,"is_reserved":false,"is_disabled":false,"rental_uris":{"android":"levelo://app?vid=93b03f6b-edc6-445d-908a-770c538c330f","ios":"levelo://app?vid=93b03f6b-edc6-445d-908a-770c538c330f"},"vehicle_type_id":"4","last_reported":1781392888,"current_range_meters":7200,"station_id":"","pricing_plan_id":"cebpf4jnsgd1na2vs0mg"},{"bike_id":"eb6a9cfd-9834-472e-84c9-d095d9a96d02","system_id":"levelo_inurba_marseille","lat":43.29206,"lon":5.38373,"is_reserved":false,"is_disabled":false,"rental_uris":{"android":"levelo://app?vid=eb6a9cfd-9834-472e-84c9-d095d9a96d02","ios":"levelo://app?vid=eb6a9cfd-9834-472e-84c9-d095d9a96d02"},"vehicle_type_id":"4","last_reported":1781392888,"current_range_meters":7200,"station_id":"","pricing_plan_id":"cebpf4jnsgd1na2vs0mg"},{"bike_id":"c2141e42-60b4-4414-9cc0-3ad0b631d428","system_id":"levelo_inurba_marseille","lat":43.23967,"lon":5.36635,"is_reserved":false,"is_disabled":false,"rental_uris":{"android":"levelo://app?vid=c2141e42-60b4-4414-9cc0-3ad0b631d428","ios":"levelo://app?vid=c2141e42-60b4-4414-9cc0-3ad0b631d428"},"vehicle_type_id":"4","last_reported":1781392888,"current_range_meters":7200,"station_id":"ce4bhi12rcd13ifvqfp0","pricing_plan_id":"cebpf4jnsgd1na2vs0mg"},{"bike_id":"75b2f0fe-b6d7-4db3-b243-2c85267cc5ab","system_id":"levelo_inurba_marseille","lat":43.26564,"lon":5.39013,"is_reserved":false,"is_disabled":false,"rental_uris":{"android":"levelo://app?vid=75b2f0fe-b6d7-4db3-b243-2c85267cc5ab","ios":"levelo://app?vid=75b2f0fe-b6d7-4db3-b243-2c85267cc5ab"},"vehicle_type_id":"4","last_reported":1781392888,"current_range_meters":7200,"station_id":"ce4bhe12rcd13ifvqf30","pricing_plan_id":"cebpf4jnsgd1na2vs0mg"},{"bike_id":"8485bc77-d32e-42c4-a22e-c614e96e9670","system_id":"levelo_inurba_marseille","lat":43.24472,"lon":5.42601,"is_reserved":false,"is_disabled":false,"rental_uris":{"android":"levelo://app?vid=8485bc77-d32e-42c4-a22e-c614e96e9670","ios":"levelo://app?vid=8485bc77-d32e-42c4-a22e-c614e96e9670"},"vehicle_type_id":"4","last_reported":1781392888,"current_range_meters":7200,"station_id":"","pricing_plan_id":"cebpf4jnsgd1na2vs0mg"},{"bike_id":"b635f729-045b-46d9-ba30-9436b10c4efe","system_id":"levelo_inurba_marseille","lat":43.26523,"lon":5.39533,"is_reserved":false,"is_disabled":false,"rental_uris":{"android":"levelo://app?vid=b635f729-045b-46d9-ba30-9436b10c4efe","ios":"levelo://app?vid=b635f729-045b-46d9-ba30-9436b10c4efe"},"vehicle_type_id":"4","last_reported":1781392888,"current_range_meters":7200,"station_id":"ce4bhi12rcd13ifvqfq0","pricing_plan_id":"cebpf4jnsgd1na2vs0mg"},