{"last_updated":1734451964,"ttl":60,"version":"2.2","data":{"bikes":[{"bike_id":"55259469-20b7-4df7-bc06-2aaa3f400ee2","system_id":"levelo_inurba_marseille","lat":43.270595,"lon":5.402658,"is_reserved":false,"is_disabled":false,"rental_uris":{"android":"levelo://app?vid=55259469-20b7-4df7-bc06-2aaa3f400ee2","ios":"levelo://app?vid=55259469-20b7-4df7-bc06-2aaa3f400ee2"},"vehicle_type_id":"4","last_reported":1734451964,"current_range_meters":38800,"station_id":"ce4bhk92rcd13ifvqgc0","pricing_plan_id":"cebpf4jnsgd1na2vs0mg"},{"bike_id":"72b09cb6-c90c-4859-ac2d-e30bf1690f04","system_id":"levelo_inurba_marseille","lat":43.31696,"lon":5.40464,"is_reserved":false,"is_disabled":false,"rental_uris":{"android":"levelo://app?vid=72b09cb6-c90c-4859-ac2d-e30bf1690f04","ios":"levelo://app?vid=72b09cb6-c90c-4859-ac2d-e30bf1690f04"},"vehicle_type_id":"4","last_reported":1734451964,"current_range_meters":24400,"station_id":"ce4bh012rcd13ifvqd00","pricing_plan_id":"cebpf4jnsgd1na2vs0mg"},{"bike_id":"d1ef06f7-3f63-4b3c-8cd0-08ad0a0c797f","system_id":"levelo_inurba_marseille","lat":43.311,"lon":5.37772,"is_reserved":false,"is_disabled":false,"rental_uris":{"android":"levelo://app?vid=d1ef06f7-3f63-4b3c-8cd0-08ad0a0c797f","ios":"levelo://app?vid=d1ef06f7-3f63-4b3c-8cd0-08ad0a0c797f"},"vehicle_type_id":"4","last_reported":1734451964,"current_range_meters":22000,"station_id":"ce4bgt92rcd13ifvqcg0","pricing_plan_id":"cebpf4jnsgd1na2vs0mg"},{"bike_id":"cda8a01f-2ab7-4132-838a-d7cc8e339bfd","system_id":"levelo_inurba_marseille","lat":43.29363,"lon":5.37859,"is_reserved":false,"is_disabled":false,"rental_uris":{"android":"levelo://app?vid=cda8a01f-2ab7-4132-838a-d7cc8e339bfd","ios":"levelo://app?vid=cda8a01f-2ab7-4132-838a-d7cc8e339bfd"},"vehicle_type_id":"4","last_reported":1734451964,"current_range_meters":17200,"station_id":"ce4bgjh2rcd13ifvqbf0","pricing_plan_id":"cebpf4jnsgd1na2vs0mg"},{"bike_id":"b2fae302-f5eb-4bc2-b462-662e3f43cfa7","system_id":"levelo_inurba_marseille","lat":43.26929,"lon":5.40258,"is_reserved":false,"is_disabled":false,"rental_uris":{"android":"levelo://app?vid=b2fae302-f5eb-4bc2-b462-662e3f43cfa7","ios":"levelo://app?vid=b2fae302-f5eb-4bc2-b462-662e3f43cfa7"},"vehicle_type_id":"4","last_reported":1734451964,"current_range_meters":38800,"station_id":"cjm6bp8fraef2m0cb0m0","pricing_plan_id":"cebpf4jnsgd1na2vs0mg"},{"bike_id":"fa2db62f-f416-4eb8-be1e-bbc601381fd3","system_id":"levelo_inurba_marseille","lat":43.30637,"lon":5.40089,"is_reserved":false,"is_disabled":false,"rental_uris":{"android":"levelo://app?vid=fa2db62f-f416-4eb8-be1e-bbc601381fd3","ios":"levelo://app?vid=fa2db62f-f416-4eb8-be1e-bbc601381fd3"},"vehicle_type_id":"4","last_reported":1734451964,"current_range_meters":26800,"station_id":"ce4bh112rcd13ifvqda0","pricing_plan_id":"cebpf4jnsgd1na2vs0mg"},{"bike_id":"0bc38ca9-187b-4bd9-bbee-9463ffb49d66","system_id":"levelo_inurba_marseille","lat":43.27071,"lon":5.42281,"is_reserved":false,"is_disabled":false,"rental_uris":{"android":"levelo://app?vid=0bc38ca9-187b-4bd9-bbee-9463ffb49d66","ios":"levelo://app?vid=0bc38ca9-187b-4bd9-bbee-9463ffb49d66"},"vehicle_type_id":"4","last_reported":1734451964,"current_range_meters":34800,"station_id":"ce4bhk92rcd13ifvqgb0","pricing_plan_id":"cebpf4jnsgd1na2vs0mg"},{"bike_id":"5c9d787a-ed08-4f6d-aae6-50e448cf550d","system_id":"levelo_inurba_marseille","lat":43.2602,"lon":5.37553,"is_reserved":false,"is_disabled":false,"rental_uris":{"android":"levelo://app?vid=5c9d787a-ed08-4f6d-aae6-50e448cf550d","ios":"levelo://app?vid=5c9d787a-ed08-4f6d-aae6-50e448cf550d"},"vehicle_type_id":"4","last_reported":1734451964,"current_range_meters":36000,"station_id":"ce4bhgh2rcd13ifvqfa0","pricing_plan_id":"cebpf4jnsgd1na2vs0mg"},{"bike_id":"20358b83-225d-4ff6-8386-f5d7e4ace024","system_id":"levelo_inurba_marseille","lat":43.300165,"lon":5.377322,"is_reserved":false,"is_disabled":true,"rental_uris":{"android":"levelo://app?vid=20358b83-225d-4ff6-8386-f5d7e4ace024","ios":"levelo://app?vid=20358b83-225d-4ff6-8386-f5d7e4ace024"},"vehicle_type_id":"4","last_reported":1734451964,"current_range_meters":6800,"station_id":"","pricing_plan_id":"cebpf4jnsgd1na2vs0mg"},{"bike_id":"722ddcaa-51fe-4c41-8a66-148269ed4009","system_id":"levelo_inurba_marseille","lat":43.29793,"lon":5.3809,"is_reserved":false,"is_disabled":false,"rental_uris":{"android":"levelo://app?vid=722ddcaa-51fe-4c41-8a66-148269ed4009","ios":"levelo://app?vid=722ddcaa-51fe-4c41-8a66-148269ed4009"},"vehicle_type_id":"4","last_reported":1734451964,"current_range_meters":20400,"station_id":"ce4bgip2rcd13ifvqbb0","pricing_plan_id":"cebpf4jnsgd1na2vs0mg"},{"bike_id":"5630333b-b8e0-4292-a18c-95022282bf9b","system_id":"levelo_inurba_marseille","lat":43.33027,"lon":5.39039,"is_reserved":false,"is_disabled":false,"rental_uris":{"android":"levelo://app?vid=5630333b-b8e0-4292-a18c-95022282bf9b","ios":"levelo://app?vid=5630333b-b8e0-4292-a18c-95022282bf9b"},"vehicle_type_id":"4","last_reported":1734451964,"current_range_meters":20400,"station_id":"ce4bhr92rcd13ifvqhrg","pricing_plan_id":"cebpf4jnsgd1na2vs0mg"},{"bike_id":"4ef58d0d-8e30-4280-aa40-6d3ae5111f3b","system_id":"levelo_inurba_marseille","lat":43.30935,"lon":5.36871,"is_reserved":false,"is_disabled":false,"rental_uris":{"android":"levelo://app?vid=4ef58d0d-8e30-4280-aa40-6d3ae5111f3b","ios":"levelo://app?vid=4ef58d0d-8e30-4280-aa40-6d3ae5111f3b"},"vehicle_type_id":"4","last_reported":1734451964,"current_range_meters":38800,"station_id":"ce4bgn92rcd13ifvqbvg","pricing_plan_id":"cebpf4jnsgd1na2vs0mg"},{"bike_id":"10fa3f2d-55f2-461b-b7fa-1d966689ae96","system_id":"levelo_inurba_marseille","lat":43.30937,"lon":5.40144,"is_reserved":false,"is_disabled":false,"rental_uris":{"android":"levelo://app?vid=10fa3f2d-55f2-461b-b7fa-1d966689ae96","ios":"levelo://app?vid=10fa3f2d-55f2-461b-b7fa-1d966689ae96"},"vehicle_type_id":"4","last_reported":1734451964,"current_range_meters":6400,"station_id":"ce4bgvp2rcd13ifvqct0","pricing_plan_id":"cebpf4jnsgd1na2vs0mg"},{"bike_id":"2c6ba378-1766-49d1-b90b-4579a83fb90e","system_id":"levelo_inurba_marseille","lat":43.27668,"lon":5.38876,"is_reserved":false,"is_disabled":true,"rental_uris":{"android":"levelo://app?vid=2c6ba378-1766-49d1-b90b-4579a83fb90e","ios":"levelo://app?vid=2c6ba378-1766-49d1-b90b-4579a83fb90e"},"vehicle_type_id":"4","last_reported":1734451964,"current_range_meters":1200,"station_id":"ce4bhi12rcd13ifvqfo0","pricing_plan_id":"cebpf4jnsgd1na2vs0mg"},{"bike_id":"c13e7a4d-61d3-4de8-b2bb-95bf4c63b5f6","system_id":"levelo_inurba_marseille","lat":43.29792,"lon":5.381,"is_reserved":false,"is_disabled":false,"rental_uris":{"android":"levelo://app?vid=c13e7a4d-61d3-4de8-b2bb-95bf4c63b5f6","ios":"levelo://app?vid=c13e7a4d-61d3-4de8-b2bb-95bf4c63b5f6"},"vehicle_type_id":"4","last_reported":1734451964,"current_range_meters":9200,"station_id":"ce4bgip2rcd13ifvqbb0","pricing_plan_id":"cebpf4jnsgd1na2vs0mg"},{"bike_id":"bc5df298-5c06-4335-982b-3f0b1eb820a5","system_id":"levelo_inurba_marseille","lat":43.29261,"lon":5.40916,"is_reserved":false,"is_disabled":false,"rental_uris":{"android":"levelo://app?vid=bc5df298-5c06-4335-982b-3f0b1eb820a5","ios":"levelo://app?vid=bc5df298-5c06-4335-982b-3f0b1eb820a5"},"vehicle_type_id":"4","last_reported":1734451964,"current_range_meters":28400,"station_id":"ce4bh192rcd13ifvqdc0","pricing_plan_id":"cebpf4jnsgd1na2vs0mg"},{"bike_id":"73cebfe4-3399-4794-9980-31071526b236","system_id":"levelo_inurba_marseille","lat":43.30542,"lon":5.36712,"is_reserved":false,"is_disabled":false,"rental_uris":{"android":"levelo://app?vid=73cebfe4-3399-4794-9980-31071526b236","ios":"levelo://app?vid=73cebfe4-3399-4794-9980-31071526b236"},"vehicle_type_id":"4","last_reported":1734451964,"current_range_meters":38400,"station_id":"ce4bgrp2rcd13ifvqc9g","pricing_plan_id":"cebpf4jnsgd1na2vs0mg"},{"bike_id":"33a6cab6-9865-4172-8f1d-a5789e8467c5","system_id":"levelo_inurba_marseille","lat":43.33028,"lon":5.39038,"is_reserved":false,"is_disabled":false,"rental_uris":{"android":"levelo://app?vid=33a6cab6-9865-4172-8f1d-a5789e8467c5","ios":"levelo://app?vid=33a6cab6-9865-4172-8f1d-a5789e8467c5"},"vehicle_type_id":"4","last_reported":1734451964,"current_range_meters":14800,"station_id":"ce4bhr92rcd13ifvqhrg","pricing_plan_id":"cebpf4jnsgd1na2vs0mg"},{"bike_id":"3581cbf2-1bdf-434e-90fb-5ae87912cf6b","system_id":"levelo_inurba_marseille","lat":43.249918,"lon":5.389348,"is_reserved":false,"is_disabled":false,"rental_uris":{"android":"levelo://app?vid=3581cbf2-1bdf-434e-90fb-5ae87912cf6b","ios":"levelo://app?vid=3581cbf2-1bdf-434e-90fb-5ae87912cf6b"},"vehicle_type_id":"4","last_reported":1734451964,"current_range_meters":16000,"station_id":"ce4bhgp2rcd13ifvqfd0","pricing_plan_id":"cebpf4jnsgd1na2vs0mg"},{"bike_id":"aacc7da2-1446-4d2a-aa32-e804470fc32d","system_id":"levelo_inurba_marseille","lat":43.28512,"lon":5.35755,"is_reserved":false,"is_disabled":true,"rental_uris":{"android":"levelo://app?vid=aacc7da2-1446-4d2a-aa32-e804470fc32d","ios":"levelo://app?vid=aacc7da2-1446-4d2a-aa32-e804470fc32d"},"vehicle_type_id":"4","last_reported":1734451964,"current_range_meters":30800,"station_id":"","pricing_plan_id":"cebpf4jnsgd1na2vs0mg"},{"bike_id":"937c90ec-cf04-465b-97b2-ee54435829e8","system_id":"levelo_inurba_marseille","lat":43.301974,"lon":5.366212,"is_reserved":false,"is_disabled":true,"rental_uris":{"android":"levelo://app?vid=937c90ec-cf04-465b-97b2-ee54435829e8","ios":"levelo://app?vid=937c90ec-cf04-465b-97b2-ee54435829e8"},"vehicle_type_id":"4","last_reported":1734451964,"current_range_meters":30800,"station_id":"","pricing_plan_id":"cebpf4jnsgd1na2vs0mg"},{"bike_id":"ec04383f-cf55-4729-89d1-9faffb2abf30","system_id":"levelo_inurba_marseille","lat":43.29883,"lon":5.38912,"is_reserved":false,"is_disabled":false,"rental_uris":{"android":"levelo://app?vid=ec04383f-cf55-4729-89d1-9faffb2abf30","ios":"levelo://app?vid=ec04383f-cf55-4729-89d1-9faffb2abf30"},"vehicle_type_id":"4","last_reported":1734451964,"current_range_meters":24800,"station_id":"ce4bh392rcd13ifvqdl0","pricing_plan_id":"cebpf4jnsgd1na2vs0mg"},{"bike_id":"124e6c05-4926-4207-84f5-da69a7334d60","system_id":"levelo_inurba_marseille","lat":43.29023,"lon":5.38141,"is_reserved":false,"is_disabled":true,"rental_uris":{"android":"levelo://app?vid=124e6c05-4926-4207-84f5-da69a7334d60","ios":"levelo://app?vid=124e6c05-4926-4207-84f5-da69a7334d60"},"vehicle_type_id":"4","last_reported":1734451964,"current_range_meters":38000,"station_id":"ce4bh4p2rcd13ifvqe1g","pricing_plan_id":"cebpf4jnsgd1na2vs0mg"},{"bike_id":"b56c4a15-79b4-43a7-be93-f93d9975d6ed","system_id":"levelo_inurba_marseille","lat":43.26941,"lon":5.40248,"is_reserved":false,"is_disabled":false,"rental_uris":{"android":"levelo://app?vid=b56c4a15-79b4-43a7-be93-f93d9975d6ed","ios":"levelo://app?vid=b56c4a15-79b4-43a7-be93-f93d9975d6ed"},"vehicle_type_id":"4","last_reported":1734451964,"current_range_meters":16000,"station_id":"cjm6bp8fraef2m0cb0m0","pricing_plan_id":"cebpf4jnsgd1na2vs0mg"},{"bike_id":"9cf9570e-5839-4e58-a68a-2e6e39f73934","system_id":"levelo_inurba_marseille","lat":43.30085,"lon":5.39007,"is_reserved":false,"is_disabled":false,"rental_uris":{"android":"levelo://app?vid=9cf9570e-5839-4e58-a68a-2e6e39f73934","ios":"levelo://app?vid=9cf9570e-5839-4e58-a68a-2e6e39f73934"},"vehicle_type_id":"4","last_reported":1734451964,"current_range_meters":14800,"station_id":"ce4bh192rcd13ifvqdb0","pricing_plan_id":"cebpf4jnsgd1na2vs0mg"},{"bike_id":"dc0e6df7-295d-4e62-8939-9c7a9d49b036","system_id":"levelo_inurba_marseille","lat":43.29958,"lon":5.41336,"is_reserved":false,"is_disabled":true,"rental_uris":{"android":"levelo://app?vid=dc0e6df7-295d-4e62-8939-9c7a9d49b036","ios":"levelo://app?vid=dc0e6df7-295d-4e62-8939-9c7a9d49b036"},"vehicle_type_id":"4","last_reported":1734451964,"current_range_meters":29600,"station_id":"ce4bhp12rcd13ifvqh9g","pricing_plan_id":"cebpf4jnsgd1na2vs0mg"},{"bike_id":"6c8a7bdf-3070-417e-9729-c95d7b5af8f2","system_id":"levelo_inurba_marseille","lat":43.28936,"lon":5.39635,"is_reserved":false,"is_disabled":false,"rental_uris":{"android":"levelo://app?vid=6c8a7bdf-3070-417e-9729-c95d7b5af8f2","ios":"levelo://app?vid=6c8a7bdf-3070-417e-9729-c95d7b5af8f2"},"vehicle_type_id":"4","last_reported":1734451964,"current_range_meters":28400,"station_id":"ce4bh3h2rcd13ifvqdn0","pricing_plan_id":"cebpf4jnsgd1na2vs0mg"},{"bike_id":"0a63bca6-39a0-42cf-bc8f-cd65c34f24df","system_id":"levelo_inurba_marseille","lat":43.24639,"lon":5.38889,"is_reserved":false,"is_disabled":false,"rental_uris":{"android":"levelo://app?vid=0a63bca6-39a0-42cf-bc8f-cd65c34f24df","ios":"levelo://app?vid=0a63bca6-39a0-42cf-bc8f-cd65c34f24df"},"vehicle_type_id":"4","last_reported":1734451964,"current_range_meters":38800,"station_id":"ce4bhg12rcd13ifvqf60","pricing_plan_id":"cebpf4jnsgd1na2vs0mg"},{"bike_id":"9a8e68f0-d65b-4e88-a56d-56a828ded14b","system_id":"levelo_inurba_marseille","lat":43.33024,"lon":5.39037,"is_reserved":false,"is_disabled":false,"rental_uris":{"android":"levelo://app?vid=9a8e68f0-d65b-4e88-a56d-56a828ded14b","ios":"levelo://app?vid=9a8e68f0-d65b-4e88-a56d-56a828ded14b"},"vehicle_type_id":"4","last_reported":1734451964,"current_range_meters":24400,"station_id":"ce4bhr92rcd13ifvqhrg","pricing_plan_id":"cebpf4jnsgd1na2vs0mg"},{"bike_id":"162477b8-da33-4d9d-be45-0af1a3229da1","system_id":"levelo_inurba_marseille","lat":43.2966,"lon":5.37308,"is_reserved":false,"is_disabled":false,"rental_uris":{"android":"levelo://app?vid=162477b8-da33-4d9d-be45-0af1a3229da1","ios":"levelo://app?vid=162477b8-da33-4d9d-be45-0af1a3229da1"},"vehicle_type_id":"4","last_reported":1734451964,"current_range_meters":39200,"station_id":"ce4bgk12rcd13ifvqbj0","pricing_plan_id":"cebpf4jnsgd1na2vs0mg"},{"bike_id":"ea1ee0a0-f240-4d25-84d9-e6fb6fc7a18c","system_id":"levelo_inurba_marseille","lat":43.33775,"lon":5.42094,"is_reserved":false,"is_disabled":true,"rental_uris":{"android":"levelo://app?vid=ea1ee0a0-f240-4d25-84d9-e6fb6fc7a18c","ios":"levelo://app?vid=ea1ee0a0-f240-4d25-84d9-e6fb6fc7a18c"},"vehicle_type_id":"4","last_reported":1734451964,"current_range_meters":0,"station_id":"","pricing_plan_id":"cebpf4jnsgd1na2vs0mg"},{"bike_id":"8f9d4d65-3625-46ba-a633-eb375b951cf4","system_id":"levelo_inurba_marseille","lat":43.28859,"lon":5.35836,"is_reserved":false,"is_disabled":false,"rental_uris":{"android":"levelo://app?vid=8f9d4d65-3625-46ba-a633-eb375b951cf4","ios":"levelo://app?vid=8f9d4d65-3625-46ba-a633-eb375b951cf4"},"vehicle_type_id":"4","last_reported":1734451964,"current_range_meters":30800,"station_id":"ce4bhb12rcd13ifvqem0","pricing_plan_id":"cebpf4jnsgd1na2vs0mg"},{"bike_id":"488a4008-c935-4cf1-bf0c-a0adcddbe00f","system_id":"levelo_inurba_marseille","lat":43.29938,"lon":5.36537,"is_reserved":false,"is_disabled":false,"rental_uris":{"android":"levelo://app?vid=488a4008-c935-4cf1-bf0c-a0adcddbe00f","ios":"levelo://app?vid=488a4008-c935-4cf1-bf0c-a0adcddbe00f"},"vehicle_type_id":"4","last_reported":1734451964,"current_range_meters":12400,"station_id":"ce4bgm92rcd13ifvqbr0","pricing_plan_id":"cebpf4jnsgd1na2vs0mg"},{"bike_id":"a2f60cbb-aa02-4530-92a3-7597251e95e4","system_id":"levelo_inurba_marseille","lat":43.26685,"lon":5.3826,"is_reserved":false,"is_disabled":true,"rental_uris":{"android":"levelo://app?vid=a2f60cbb-aa02-4530-92a3-7597251e95e4","ios":"levelo://app?vid=a2f60cbb-aa02-4530-92a3-7597251e95e4"},"vehicle_type_id":"4","last_reported":1734451964,"current_range_meters":34000,"station_id":"ce4bhg92rcd13ifvqf90","pricing_plan_id":"cebpf4jnsgd1na2vs0mg"},{"bike_id":"8efb6c1e-cb69-44af-841d-018eed5c9931","system_id":"levelo_inurba_marseille","lat":43.27316,"lon":5.39068,"is_reserved":false,"is_disabled":false,"rental_uris":{"android":"levelo://app?vid=8efb6c1e-cb69-44af-841d-018eed5c9931","ios":"levelo://app?vid=8efb6c1e-cb69-44af-841d-018eed5c9931"},"vehicle_type_id":"4","last_reported":1734451964,"current_range_meters":29600,"station_id":"ce4bhgp2rcd13ifvqfe0","pricing_plan_id":"cebpf4jnsgd1na2vs0mg"},{"bike_id":"00f694cf-3a25-43bc-a129-dfeee772a105","system_id":"levelo_inurba_marseille","lat":43.27061,"lon":5.40259,"is_reserved":false,"is_disabled":false,"rental_uris":{"android":"levelo://app?vid=00f694cf-3a25-43bc-a129-dfeee772a105","ios":"levelo://app?vid=00f694cf-3a25-43bc-a129-dfeee772a105"},"vehicle_type_id":"4","last_reported":1734451964,"current_range_meters":24800,"station_id":"ce4bhk92rcd13ifvqgc0","pricing_plan_id":"cebpf4jnsgd1na2vs0mg"},{"bike_id":"2b9e5232-81d0-497c-a52e-1e7fea60b29a","system_id":"levelo_inurba_marseille","lat":43.32367,"lon":5.38884,"is_reserved":false,"is_disabled":false,"rental_uris":{"android":"levelo://app?vid=2b9e5232-81d0-497c-a52e-1e7fea60b29a","ios":"levelo://app?vid=2b9e5232-81d0-497c-a52e-1e7fea60b29a"},"vehicle_type_id":"4","last_reported":1734451964,"current_range_meters":27600,"station_id":"ce4bhqp2rcd13ifvqhog","pricing_plan_id":"cebpf4jnsgd1na2vs0mg"},{"bike_id":"c6a684b6-97ff-4792-9abf-d74df447517e","system_id":"levelo_inurba_marseille","lat":43.25116,"lon":5.40328,"is_reserved":false,"is_disabled":true,"rental_uris":{"android":"levelo://app?vid=c6a684b6-97ff-4792-9abf-d74df447517e","ios":"levelo://app?vid=c6a684b6-97ff-4792-9abf-d74df447517e"},"vehicle_type_id":"4","last_reported":1734451964,"current_range_meters":800,"station_id":"ce4bhlh2rcd13ifvqgig","pricing_plan_id":"cebpf4jnsgd1na2vs0mg"},{"bike_id":"fdae6994-2b52-4fd0-8d8f-e92f1ee91c77","system_id":"levelo_inurba_marseille","lat":43.28456,"lon":5.35892,"is_reserved":false,"is_disabled":false,"rental_uris":{"android":"levelo://app?vid=fdae6994-2b52-4fd0-8d8f-e92f1ee91c77","ios":"levelo://app?vid=fdae6994-2b52-4fd0-8d8f-e92f1ee91c77"},"vehicle_type_id":"4","last_reported":1734451964,"current_range_meters":28400,"station_id":"ce4bhah2rcd13ifvqei0","pricing_plan_id":"cebpf4jnsgd1na2vs0mg"},{"bike_id":"38f20744-af43-4445-b9c5-a52798357518","system_id":"levelo_inurba_marseille","lat":43.25505,"lon":5.37653,"is_reserved":false,"is_disabled":false,"rental_uris":{"android":"levelo://app?vid=38f20744-af43-4445-b9c5-a52798357518","ios":"levelo://app?vid=38f20744-af43-4445-b9c5-a52798357518"},"vehicle_type_id":"4","last_reported":1734451964,"current_range_meters":38000,"station_id":"ce4bhh12rcd13ifvqff0","pricing_plan_id":"cebpf4jnsgd1na2vs0mg"},{"bike_id":"4ebb2bb6-95a1-42ea-9690-191938bfc797","system_id":"levelo_inurba_marseille","lat":43.29915,"lon":5.37487,"is_reserved":false,"is_disabled":true,"rental_uris":{"android":"levelo://app?vid=4ebb2bb6-95a1-42ea-9690-191938bfc797","ios":"levelo://app?vid=4ebb2bb6-95a1-42ea-9690-191938bfc797"},"vehicle_type_id":"4","last_reported":1734451964,"current_range_meters":800,"station_id":"ce4bgjh2rcd13ifvqbg0","pricing_plan_id":"cebpf4jnsgd1na2vs0mg"},{"bike_id":"c05c825c-c2ce-465e-8c83-59430db8d2cc","system_id":"levelo_inurba_marseille","lat":43.29984,"lon":5.37185,"is_reserved":false,"is_disabled":false,"rental_uris":{"android":"levelo://app?vid=c05c825c-c2ce-465e-8c83-59430db8d2cc","ios":"levelo://app?vid=c05c825c-c2ce-465e-8c83-59430db8d2cc"},"vehicle_type_id":"4","last_reported":1734451964,"current_range_meters":16800,"station_id":"ce4bgr92rcd13ifvqc7g","pricing_plan_id":"cebpf4jnsgd1na2vs0mg"},{"bike_id":"2b109fc5-2ad5-44d6-994f-55e37d7d8b89","system_id":"levelo_inurba_marseille","lat":43.32141,"lon":5.3683,"is_reserved":false,"is_disabled":false,"rental_uris":{"android":"levelo://app?vid=2b109fc5-2ad5-44d6-994f-55e37d7d8b89","ios":"levelo://app?vid=2b109fc5-2ad5-44d6-994f-55e37d7d8b89"},"vehicle_type_id":"4","last_reported":1734451964,"current_range_meters":33600,"station_id":"ce4bhrh2rcd13ifvqhug","pricing_plan_id":"cebpf4jnsgd1na2vs0mg"},{"bike_id":"7d8c7f94-38c0-41eb-ae58-cdeedd99dae4","system_id":"levelo_inurba_marseille","lat":43.27917,"lon":5.39582,"is_reserved":false,"is_disabled":false,"rental_uris":{"android":"levelo://app?vid=7d8c7f94-38c0-41eb-ae58-cdeedd99dae4","ios":"levelo://app?vid=7d8c7f94-38c0-41eb-ae58-cdeedd99dae4"},"vehicle_type_id":"4","last_reported":1734451964,"current_range_meters":25200,"station_id":"ce4bhf92rcd13ifvqf40","pricing_plan_id":"cebpf4jnsgd1na2vs0mg"},{"bike_id":"d50d7b69-a48f-420d-99b6-eea54d8ff2d3","system_id":"levelo_inurba_marseille","lat":43.27982,"lon":5.38737,"is_reserved":false,"is_disabled":false,"rental_uris":{"android":"levelo://app?vid=d50d7b69-a48f-420d-99b6-eea54d8ff2d3","ios":"levelo://app?vid=d50d7b69-a48f-420d-99b6-eea54d8ff2d3"},"vehicle_type_id":"4","last_reported":1734451964,"current_range_meters":24800,"station_id":"ce4bhg12rcd13ifvqf80","pricing_plan_id":"cebpf4jnsgd1na2vs0mg"},{"bike_id":"1df61689-92ad-42e2-8ed2-7990b58e9533","system_id":"levelo_inurba_marseille","lat":43.26785,"lon":5.39418,"is_reserved":false,"is_disabled":false,"rental_uris":{"android":"levelo://app?vid=1df61689-92ad-42e2-8ed2-7990b58e9533","ios":"levelo://app?vid=1df61689-92ad-42e2-8ed2-7990b58e9533"},"vehicle_type_id":"4","last_reported":1734451964,"current_range_meters":27600,"station_id":"ce4bhh12rcd13ifvqfg0","pricing_plan_id":"cebpf4jnsgd1na2vs0mg"},{"bike_id":"77b045ec-31af-4db4-b5a1-524f94c3c261","system_id":"levelo_inurba_marseille","lat":43.29296,"lon":5.3744,"is_reserved":false,"is_disabled":true,"rental_uris":{"android":"levelo://app?vid=77b045ec-31af-4db4-b5a1-524f94c3c261","ios":"levelo://app?vid=77b045ec-31af-4db4-b5a1-524f94c3c261"},"vehicle_type_id":"4","last_reported":1734451964,"current_range_meters":36400,"station_id":"ce4bgi12rcd13ifvqb70","pricing_plan_id":"cebpf4jnsgd1na2vs0mg"},{"bike_id":"2efe5cd0-3061-4c4f-877d-3ab1d5f8411e","system_id":"levelo_inurba_marseille","lat":43.30539,"lon":5.36533,"is_reserved":false,"is_disabled":false,"rental_uris":{"android":"levelo://app?vid=2efe5cd0-3061-4c4f-877d-3ab1d5f8411e","ios":"levelo://app?vid=2efe5cd0-3061-4c4f-877d-3ab1d5f8411e"},"vehicle_type_id":"4","last_reported":1734451964,"current_range_meters":38800,"station_id":"ce4bgs12rcd13ifvqcag","pricing_plan_id":"cebpf4jnsgd1na2vs0mg"},{"bike_id":"4f720f2b-c111-4327-aa85-323f2f97bdbe","system_id":"levelo_inurba_marseille","lat":43.27824,"lon":5.40732,"is_reserved":false,"is_disabled":false,"rental_uris":{"android":"levelo://app?vid=4f720f2b-c111-4327-aa85-323f2f97bdbe","ios":"levelo://app?vid=4f720f2b-c111-4327-aa85-323f2f97bdbe"},"vehicle_type_id":"4","last_reported":1734451964,"current_range_meters":36800,"station_id":"ce4bhnh2rcd13ifvqgtg","pricing_plan_id":"cebpf4jnsgd1na2vs0mg"},{"bike_id":"c0bace0b-c72f-458f-9e3d-2489f6e144a1","system_id":"levelo_inurba_marseille","lat":43.27992,"lon":5.4001,"is_reserved":false,"is_disabled":false,"rental_uris":{"android":"levelo://app?vid=c0bace0b-c72f-458f-9e3d-2489f6e144a1","ios":"levelo://app?vid=c0bace0b-c72f-458f-9e3d-2489f6e144a1"},"vehicle_type_id":"4","last_reported":1734451964,"current_range_meters":24000,"station_id":"ce4bho92rcd13ifvqh4g","pricing_plan_id":"cebpf4jnsgd1na2vs0mg"},{"bike_id":"40b87c45-7a27-47f6-9b54-3fe9e3b20b0a","system_id":"levelo_inurba_marseille","lat":43.26022,"lon":5.37564,"is_reserved":false,"is_disabled":true,"rental_uris":{"android":"levelo://app?vid=40b87c45-7a27-47f6-9b54-3fe9e3b20b0a","ios":"levelo://app?vid=40b87c45-7a27-47f6-9b54-3fe9e3b20b0a"},"vehicle_type_id":"4","last_reported":1734451964,"current_range_meters":0,"station_id":"ce4bhgh2rcd13ifvqfa0","pricing_plan_id":"cebpf4jnsgd1na2vs0mg"},{"bike_id":"ec7369ac-5952-4878-8f0e-c6de7f1a12a3","system_id":"levelo_inurba_marseille","lat":43.27059,"lon":5.40259,"is_reserved":false,"is_disabled":false,"rental_uris":{"android":"levelo://app?vid=ec7369ac-5952-4878-8f0e-c6de7f1a12a3","ios":"levelo://app?vid=ec7369ac-5952-4878-8f0e-c6de7f1a12a3"},"vehicle_type_id":"4","last_reported":1734451964,"current_range_meters":10000,"station_id":"ce4bhk92rcd13ifvqgc0","pricing_plan_id":"cebpf4jnsgd1na2vs0mg"},{"bike_id":"a74e2f2e-5305-46cf-a4a9-9eb5976ad548","system_id":"levelo_inurba_marseille","lat":43.27921,"lon":5.39593,"is_reserved":false,"is_disabled":false,"rental_uris":{"android":"levelo://app?vid=a74e2f2e-5305-46cf-a4a9-9eb5976ad548","ios":"levelo://app?vid=a74e2f2e-5305-46cf-a4a9-9eb5976ad548"},"vehicle_type_id":"4","last_reported":1734451964,"current_range_meters":38800,"station_id":"ce4bhf92rcd13ifvqf40","pricing_plan_id":"cebpf4jnsgd1na2vs0mg"},{"bike_id":"6520ce4b-4c33-4757-9d2b-3325e5692d35","system_id":"levelo_inurba_marseille","lat":43.28695,"lon":5.39989,"is_reserved":false,"is_disabled":false,"rental_uris":{"android":"levelo://app?vid=6520ce4b-4c33-4757-9d2b-3325e5692d35","ios":"levelo://app?vid=6520ce4b-4c33-4757-9d2b-3325e5692d35"},"vehicle_type_id":"4","last_reported":1734451964,"current_range_meters":28000,"station_id":"ce4bho92rcd13ifvqh3g","pricing_plan_id":"cebpf4jnsgd1na2vs0mg"},{"bike_id":"dcda8025-6932-41f5-903b-93bf6c408159","system_id":"levelo_inurba_marseille","lat":43.28718,"lon":5.40025,"is_reserved":false,"is_disabled":false,"rental_uris":{"android":"levelo://app?vid=dcda8025-6932-41f5-903b-93bf6c408159","ios":"levelo://app?vid=dcda8025-6932-41f5-903b-93bf6c408159"},"vehicle_type_id":"4","last_reported":1734451964,"current_range_meters":23200,"station_id":"ce4bho92rcd13ifvqh3g","pricing_plan_id":"cebpf4jnsgd1na2vs0mg"},{"bike_id":"939ef11f-362b-4ed3-aded-ebb978be04f1","system_id":"levelo_inurba_marseille","lat":43.27942,"lon":5.4104,"is_reserved":false,"is_disabled":false,"rental_uris":{"android":"levelo://app?vid=939ef11f-362b-4ed3-aded-ebb978be04f1","ios":"levelo://app?vid=939ef11f-362b-4ed3-aded-ebb978be04f1"},"vehicle_type_id":"4","last_reported":1734451964,"current_range_meters":33200,"station_id":"ce4bhnp2rcd13ifvqh0g","pricing_plan_id":"cebpf4jnsgd1na2vs0mg"},{"bike_id":"3661c8b2-61c2-4b97-b6a4-53dd244f7682","system_id":"levelo_inurba_marseille","lat":43.279101,"lon":5.395756,"is_reserved":false,"is_disabled":false,"rental_uris":{"android":"levelo://app?vid=3661c8b2-61c2-4b97-b6a4-53dd244f7682","ios":"levelo://app?vid=3661c8b2-61c2-4b97-b6a4-53dd244f7682"},"vehicle_type_id":"4","last_reported":1734451964,"current_range_meters":11200,"station_id":"ce4bhf92rcd13ifvqf40","pricing_plan_id":"cebpf4jnsgd1na2vs0mg"},{"bike_id":"399886e1-1fd8-45ef-b9a3-f32444b7db24","system_id":"levelo_inurba_marseille","lat":43.27313,"lon":5.39093,"is_reserved":false,"is_disabled":true,"rental_uris":{"android":"levelo://app?vid=399886e1-1fd8-45ef-b9a3-f32444b7db24","ios":"levelo://app?vid=399886e1-1fd8-45ef-b9a3-f32444b7db24"},"vehicle_type_id":"4","last_reported":1734451964,"current_range_meters":35600,"station_id":"ce4bhgp2rcd13ifvqfe0","pricing_plan_id":"cebpf4jnsgd1na2vs0mg"},{"bike_id":"e4792bb6-9e6d-483a-a5ae-2b1904da6da2","system_id":"levelo_inurba_marseille","lat":43.30551,"lon":5.36709,"is_reserved":false,"is_disabled":false,"rental_uris":{"android":"levelo://app?vid=e4792bb6-9e6d-483a-a5ae-2b1904da6da2","ios":"levelo://app?vid=e4792bb6-9e6d-483a-a5ae-2b1904da6da2"},"vehicle_type_id":"4","last_reported":1734451964,"current_range_meters":35600,"station_id":"ce4bgrp2rcd13ifvqc9g","pricing_plan_id":"cebpf4jnsgd1na2vs0mg"},{"bike_id":"cc21ea15-925a-4047-b298-6baf74c13d79","system_id":"levelo_inurba_marseille","lat":43.26487,"lon":5.39575,"is_reserved":false,"is_disabled":false,"rental_uris":{"android":"levelo://app?vid=cc21ea15-925a-4047-b298-6baf74c13d79","ios":"levelo://app?vid=cc21ea15-925a-4047-b298-6baf74c13d79"},"vehicle_type_id":"4","last_reported":1734451964,"current_range_meters":25200,"station_id":"ce4bhi12rcd13ifvqfq0","pricing_plan_id":"cebpf4jnsgd1na2vs0mg"},{"bike_id":"782bcbf2-b7de-4b04-bebc-aaa0329dd90c","system_id":"levelo_inurba_marseille","lat":43.23192,"lon":5.35557,"is_reserved":false,"is_disabled":false,"rental_uris":{"android":"levelo://app?vid=782bcbf2-b7de-4b04-bebc-aaa0329dd90c","ios":"levelo://app?vid=782bcbf2-b7de-4b04-bebc-aaa0329dd90c"},"vehicle_type_id":"4","last_reported":1734451964,"current_range_meters":38800,"station_id":"ce4bhu92rcd13ifvqi70","pricing_plan_id":"cebpf4jnsgd1na2vs0mg"},{"bike_id":"a925316d-9d31-43b0-a430-5cb1bef87372","system_id":"levelo_inurba_marseille","lat":43.2718,"lon":5.40992,"is_reserved":false,"is_disabled":false,"rental_uris":{"android":"levelo://app?vid=a925316d-9d31-43b0-a430-5cb1bef87372","ios":"levelo://app?vid=a925316d-9d31-43b0-a430-5cb1bef87372"},"vehicle_type_id":"4","last_reported":1734451964,"current_range_meters":24800,"station_id":"ce4bhl12rcd13ifvqgf0","pricing_plan_id":"cebpf4jnsgd1na2vs0mg"},{"bike_id":"540c19ab-e8ac-4092-909b-c3e5069b6978","system_id":"levelo_inurba_marseille","lat":43.337444,"lon":5.374475,"is_reserved":false,"is_disabled":true,"rental_uris":{"android":"levelo://app?vid=540c19ab-e8ac-4092-909b-c3e5069b6978","ios":"levelo://app?vid=540c19ab-e8ac-4092-909b-c3e5069b6978"},"vehicle_type_id":"4","last_reported":1734451964,"current_range_meters":0,"station_id":"","pricing_plan_id":"cebpf4jnsgd1na2vs0mg"},{"bike_id":"14703762-2282-4b44-ac94-3c131a197a71","system_id":"levelo_inurba_marseille","lat":43.2815,"lon":5.42642,"is_reserved":false,"is_disabled":false,"rental_uris":{"android":"levelo://app?vid=14703762-2282-4b44-ac94-3c131a197a71","ios":"levelo://app?vid=14703762-2282-4b44-ac94-3c131a197a71"},"vehicle_type_id":"4","last_reported":1734451964,"current_range_meters":9600,"station_id":"ce4bhnh2rcd13ifvqgug","pricing_plan_id":"cebpf4jnsgd1na2vs0mg"},{"bike_id":"ccfe9c12-1b1b-4e49-84ae-87e793049ffb","system_id":"levelo_inurba_marseille","lat":43.29353,"lon":5.37843,"is_reserved":false,"is_disabled":false,"rental_uris":{"android":"levelo://app?vid=ccfe9c12-1b1b-4e49-84ae-87e793049ffb","ios":"levelo://app?vid=ccfe9c12-1b1b-4e49-84ae-87e793049ffb"},"vehicle_type_id":"4","last_reported":1734451964,"current_range_meters":36400,"station_id":"ce4bgjh2rcd13ifvqbf0","pricing_plan_id":"cebpf4jnsgd1na2vs0mg"},{"bike_id":"845d1f9d-f0d1-4022-b8b5-50e1feb947ae","system_id":"levelo_inurba_marseille","lat":43.26212,"lon":5.37448,"is_reserved":false,"is_disabled":false,"rental_uris":{"android":"levelo://app?vid=845d1f9d-f0d1-4022-b8b5-50e1feb947ae","ios":"levelo://app?vid=845d1f9d-f0d1-4022-b8b5-50e1feb947ae"},"vehicle_type_id":"4","last_reported":1734451964,"current_range_meters":30000,"station_id":"ce4bhgp2rcd13ifvqfc0","pricing_plan_id":"cebpf4jnsgd1na2vs0mg"},{"bike_id":"99b91171-fdca-426c-9c5c-0f1db2efdad6","system_id":"levelo_inurba_marseille","lat":43.27813,"lon":5.40709,"is_reserved":false,"is_disabled":false,"rental_uris":{"android":"levelo://app?vid=99b91171-fdca-426c-9c5c-0f1db2efdad6","ios":"levelo://app?vid=99b91171-fdca-426c-9c5c-0f1db2efdad6"},"vehicle_type_id":"4","last_reported":1734451964,"current_range_meters":22800,"station_id":"ce4bhnh2rcd13ifvqgtg","pricing_plan_id":"cebpf4jnsgd1na2vs0mg"},{"bike_id":"5b9dadf4-f3ef-496a-933f-556a1442196c","system_id":"levelo_inurba_marseille","lat":43.27942,"lon":5.41048,"is_reserved":false,"is_disabled":false,"rental_uris":{"android":"levelo://app?vid=5b9dadf4-f3ef-496a-933f-556a1442196c","ios":"levelo://app?vid=5b9dadf4-f3ef-496a-933f-556a1442196c"},"vehicle_type_id":"4","last_reported":1734451964,"current_range_meters":38800,"station_id":"ce4bhnp2rcd13ifvqh0g","pricing_plan_id":"cebpf4jnsgd1na2vs0mg"},{"bike_id":"8adeed2f-135b-4f23-a52b-1a86f28ba8bd","system_id":"levelo_inurba_marseille","lat":43.296,"lon":5.381,"is_reserved":false,"is_disabled":false,"rental_uris":{"android":"levelo://app?vid=8adeed2f-135b-4f23-a52b-1a86f28ba8bd","ios":"levelo://app?vid=8adeed2f-135b-4f23-a52b-1a86f28ba8bd"},"vehicle_type_id":"4","last_reported":1734451964,"current_range_meters":38800,"station_id":"ce4bgl12rcd13ifvqbo0","pricing_plan_id":"cebpf4jnsgd1na2vs0mg"},{"bike_id":"cb8d2b44-ca50-4f6f-a66e-b6f178396674","system_id":"levelo_inurba_marseille","lat":43.28649,"lon":5.36338,"is_reserved":false,"is_disabled":false,"rental_uris":{"android":"levelo://app?vid=cb8d2b44-ca50-4f6f-a66e-b6f178396674","ios":"levelo://app?vid=cb8d2b44-ca50-4f6f-a66e-b6f178396674"},"vehicle_type_id":"4","last_reported":1734451964,"current_range_meters":6400,"station_id":"ce4bhah2rcd13ifvqej0","pricing_plan_id":"cebpf4jnsgd1na2vs0mg"},{"bike_id":"dd813775-aa51-4194-bb36-15f6e3d779bc","system_id":"levelo_inurba_marseille","lat":43.27836,"lon":5.39209,"is_reserved":false,"is_disabled":false,"rental_uris":{"android":"levelo://app?vid=dd813775-aa51-4194-bb36-15f6e3d779bc","ios":"levelo://app?vid=dd813775-aa51-4194-bb36-15f6e3d779bc"},"vehicle_type_id":"4","last_reported":1734451964,"current_range_meters":12000,"station_id":"ce4bhjp2rcd13ifvqga0","pricing_plan_id":"cebpf4jnsgd1na2vs0mg"},{"bike_id":"e82f4bcc-e8c7-45fb-935b-84f0ae3e27c2","system_id":"levelo_inurba_marseille","lat":43.24548,"lon":5.3953,"is_reserved":false,"is_disabled":false,"rental_uris":{"android":"levelo://app?vid=e82f4bcc-e8c7-45fb-935b-84f0ae3e27c2","ios":"levelo://app?vid=e82f4bcc-e8c7-45fb-935b-84f0ae3e27c2"},"vehicle_type_id":"4","last_reported":1734451964,"current_range_meters":30000,"station_id":"ce4bhlp2rcd13ifvqgjg","pricing_plan_id":"cebpf4jnsgd1na2vs0mg"},{"bike_id":"272c380d-0e96-4217-82cd-b4ae34bffa4a","system_id":"levelo_inurba_marseille","lat":43.26936,"lon":5.38929,"is_reserved":false,"is_disabled":true,"rental_uris":{"android":"levelo://app?vid=272c380d-0e96-4217-82cd-b4ae34bffa4a","ios":"levelo://app?vid=272c380d-0e96-4217-82cd-b4ae34bffa4a"},"vehicle_type_id":"4","last_reported":1734451964,"current_range_meters":28000,"station_id":"ce4bhhh2rcd13ifvqfl0","pricing_plan_id":"cebpf4jnsgd1na2vs0mg"},{"bike_id":"e570e38a-85d6-4b1d-89e9-03facfda4fdf","system_id":"levelo_inurba_marseille","lat":43.30552,"lon":5.36711,"is_reserved":false,"is_disabled":false,"rental_uris":{"android":"levelo://app?vid=e570e38a-85d6-4b1d-89e9-03facfda4fdf","ios":"levelo://app?vid=e570e38a-85d6-4b1d-89e9-03facfda4fdf"},"vehicle_type_id":"4","last_reported":1734451964,"current_range_meters":27600,"station_id":"ce4bgrp2rcd13ifvqc9g","pricing_plan_id":"cebpf4jnsgd1na2vs0mg"},{"bike_id":"d474f1e9-89c2-4dd2-a0ca-c0144dc208e6","system_id":"levelo_inurba_marseille","lat":43.302,"lon":5.36634,"is_reserved":false,"is_disabled":false,"rental_uris":{"android":"levelo://app?vid=d474f1e9-89c2-4dd2-a0ca-c0144dc208e6","ios":"levelo://app?vid=d474f1e9-89c2-4dd2-a0ca-c0144dc208e6"},"vehicle_type_id":"4","last_reported":1734451964,"current_range_meters":12800,"station_id":"ce4bgrh2rcd13ifvqc8g","pricing_plan_id":"cebpf4jnsgd1na2vs0mg"},{"bike_id":"a6ed38df-2ca8-46ac-b79e-c1da3983a995","system_id":"levelo_inurba_marseille","lat":43.29974,"lon":5.38491,"is_reserved":false,"is_disabled":false,"rental_uris":{"android":"levelo://app?vid=a6ed38df-2ca8-46ac-b79e-c1da3983a995","ios":"levelo://app?vid=a6ed38df-2ca8-46ac-b79e-c1da3983a995"},"vehicle_type_id":"4","last_reported":1734451964,"current_range_meters":28800,"station_id":"ce4bgj92rcd13ifvqbd0","pricing_plan_id":"cebpf4jnsgd1na2vs0mg"},{"bike_id":"7b767a23-32ec-4485-9cca-76cc3147b1d9","system_id":"levelo_inurba_marseille","lat":43.27919,"lon":5.39586,"is_reserved":false,"is_disabled":false,"rental_uris":{"android":"levelo://app?vid=7b767a23-32ec-4485-9cca-76cc3147b1d9","ios":"levelo://app?vid=7b767a23-32ec-4485-9cca-76cc3147b1d9"},"vehicle_type_id":"4","last_reported":1734451964,"current_range_meters":8400,"station_id":"ce4bhf92rcd13ifvqf40","pricing_plan_id":"cebpf4jnsgd1na2vs0mg"},{"bike_id":"11ef7558-dc32-4fe7-a4c8-352d61844c9f","system_id":"levelo_inurba_marseille","lat":43.29441,"lon":5.39765,"is_reserved":false,"is_disabled":false,"rental_uris":{"android":"levelo://app?vid=11ef7558-dc32-4fe7-a4c8-352d61844c9f","ios":"levelo://app?vid=11ef7558-dc32-4fe7-a4c8-352d61844c9f"},"vehicle_type_id":"4","last_reported":1734451964,"current_range_meters":36400,"station_id":"ce4bh3h2rcd13ifvqdo0","pricing_plan_id":"cebpf4jnsgd1na2vs0mg"},{"bike_id":"140b7c77-450d-4ce4-8982-6cc405fe0924","system_id":"levelo_inurba_marseille","lat":43.27986,"lon":5.41667,"is_reserved":false,"is_disabled":false,"rental_uris":{"android":"levelo://app?vid=140b7c77-450d-4ce4-8982-6cc405fe0924","ios":"levelo://app?vid=140b7c77-450d-4ce4-8982-6cc405fe0924"},"vehicle_type_id":"4","last_reported":1734451964,"current_range_meters":25200,"station_id":"ce4bho12rcd13ifvqh1g","pricing_plan_id":"cebpf4jnsgd1na2vs0mg"},{"bike_id":"0427bfa4-7c9f-485e-9901-c36b0591c06e","system_id":"levelo_inurba_marseille","lat":43.26223,"lon":5.3744,"is_reserved":false,"is_disabled":false,"rental_uris":{"android":"levelo://app?vid=0427bfa4-7c9f-485e-9901-c36b0591c06e","ios":"levelo://app?vid=0427bfa4-7c9f-485e-9901-c36b0591c06e"},"vehicle_type_id":"4","last_reported":1734451964,"current_range_meters":25200,"station_id":"","pricing_plan_id":"cebpf4jnsgd1na2vs0mg"},{"bike_id":"edc72afe-bd88-4f0b-86d3-b5b0e0901f56","system_id":"levelo_inurba_marseille","lat":43.30313,"lon":5.36902,"is_reserved":false,"is_disabled":false,"rental_uris":{"android":"levelo://app?vid=edc72afe-bd88-4f0b-86d3-b5b0e0901f56","ios":"levelo://app?vid=edc72afe-bd88-4f0b-86d3-b5b0e0901f56"},"vehicle_type_id":"4","last_reported":1734451964,"current_range_meters":39200,"station_id":"ce4bgqh2rcd13ifvqc5g","pricing_plan_id":"cebpf4jnsgd1na2vs0mg"},{"bike_id":"dfd3ad76-b8cd-487c-9d62-cc06c8e69549","system_id":"levelo_inurba_marseille","lat":43.272111,"lon":5.391863,"is_reserved":false,"is_disabled":false,"rental_uris":{"android":"levelo://app?vid=dfd3ad76-b8cd-487c-9d62-cc06c8e69549","ios":"levelo://app?vid=dfd3ad76-b8cd-487c-9d62-cc06c8e69549"},"vehicle_type_id":"4","last_reported":1734451964,"current_range_meters":36400,"station_id":"ce4bhhp2rcd13ifvqfm0","pricing_plan_id":"cebpf4jnsgd1na2vs0mg"},{"bike_id":"e7003594-66f3-4f16-8a8f-22796d18fc63","system_id":"levelo_inurba_marseille","lat":43.30529,"lon":5.36542,"is_reserved":false,"is_disabled":false,"rental_uris":{"android":"levelo://app?vid=e7003594-66f3-4f16-8a8f-22796d18fc63","ios":"levelo://app?vid=e7003594-66f3-4f16-8a8f-22796d18fc63"},"vehicle_type_id":"4","last_reported":1734451964,"current_range_meters":39200,"station_id":"ce4bgs12rcd13ifvqcag","pricing_plan_id":"cebpf4jnsgd1na2vs0mg"},{"bike_id":"901a851f-0052-4ecb-b660-1698a0036d19","system_id":"levelo_inurba_marseille","lat":43.31333,"lon":5.39694,"is_reserved":false,"is_disabled":false,"rental_uris":{"android":"levelo://app?vid=901a851f-0052-4ecb-b660-1698a0036d19","ios":"levelo://app?vid=901a851f-0052-4ecb-b660-1698a0036d19"},"vehicle_type_id":"4","last_reported":1734451964,"current_range_meters":38800,"station_id":"ce4bgvp2rcd13ifvqcu0","pricing_plan_id":"cebpf4jnsgd1na2vs0mg"},{"bike_id":"b082dc7a-2675-48f4-b608-f91aefa2e45d","system_id":"levelo_inurba_marseille","lat":43.2997,"lon":5.38494,"is_reserved":false,"is_disabled":true,"rental_uris":{"android":"levelo://app?vid=b082dc7a-2675-48f4-b608-f91aefa2e45d","ios":"levelo://app?vid=b082dc7a-2675-48f4-b608-f91aefa2e45d"},"vehicle_type_id":"4","last_reported":1734451964,"current_range_meters":2000,"station_id":"ce4bgj92rcd13ifvqbd0","pricing_plan_id":"cebpf4jnsgd1na2vs0mg"},{"bike_id":"4b6e1560-ae0a-4c4e-adbf-8263ae29060d","system_id":"levelo_inurba_marseille","lat":43.27045,"lon":5.40263,"is_reserved":false,"is_disabled":false,"rental_uris":{"android":"levelo://app?vid=4b6e1560-ae0a-4c4e-adbf-8263ae29060d","ios":"levelo://app?vid=4b6e1560-ae0a-4c4e-adbf-8263ae29060d"},"vehicle_type_id":"4","last_reported":1734451964,"current_range_meters":11600,"station_id":"ce4bhk92rcd13ifvqgc0","pricing_plan_id":"cebpf4jnsgd1na2vs0mg"},{"bike_id":"68907ca0-038a-4705-886b-af6c122ac485","system_id":"levelo_inurba_marseille","lat":43.2319,"lon":5.39978,"is_reserved":false,"is_disabled":false,"rental_uris":{"android":"levelo://app?vid=68907ca0-038a-4705-886b-af6c122ac485","ios":"levelo://app?vid=68907ca0-038a-4705-886b-af6c122ac485"},"vehicle_type_id":"4","last_reported":1734451964,"current_range_meters":38800,"station_id":"ce4bhn12rcd13ifvqgqg","pricing_plan_id":"cebpf4jnsgd1na2vs0mg"},{"bike_id":"a852f14c-1573-40fe-bdb0-30bcf5f773fb","system_id":"levelo_inurba_marseille","lat":43.28616,"lon":5.351,"is_reserved":false,"is_disabled":true,"rental_uris":{"android":"levelo://app?vid=a852f14c-1573-40fe-bdb0-30bcf5f773fb","ios":"levelo://app?vid=a852f14c-1573-40fe-bdb0-30bcf5f773fb"},"vehicle_type_id":"4","last_reported":1734451964,"current_range_meters":20000,"station_id":"ce4bhch2rcd13ifvqeug","pricing_plan_id":"cebpf4jnsgd1na2vs0mg"},{"bike_id":"15337677-9ae1-4159-afdc-4f163bc8327f","system_id":"levelo_inurba_marseille","lat":43.31326,"lon":5.39693,"is_reserved":false,"is_disabled":false,"rental_uris":{"android":"levelo://app?vid=15337677-9ae1-4159-afdc-4f163bc8327f","ios":"levelo://app?vid=15337677-9ae1-4159-afdc-4f163bc8327f"},"vehicle_type_id":"4","last_reported":1734451964,"current_range_meters":34800,"station_id":"ce4bgvp2rcd13ifvqcu0","pricing_plan_id":"cebpf4jnsgd1na2vs0mg"},{"bike_id":"bb337245-7c41-4671-900b-a4d92ae562c6","system_id":"levelo_inurba_marseille","lat":43.295185,"lon":5.390287,"is_reserved":false,"is_disabled":true,"rental_uris":{"android":"levelo://app?vid=bb337245-7c41-4671-900b-a4d92ae562c6","ios":"levelo://app?vid=bb337245-7c41-4671-900b-a4d92ae562c6"},"vehicle_type_id":"4","last_reported":1734451964,"current_range_meters":5600,"station_id":"ce4bh3p2rcd13ifvqdp0","pricing_plan_id":"cebpf4jnsgd1na2vs0mg"},{"bike_id":"03f2433f-a4ed-40f2-961d-b5adc5c08276","system_id":"levelo_inurba_marseille","lat":43.31117,"lon":5.37776,"is_reserved":false,"is_disabled":false,"rental_uris":{"android":"levelo://app?vid=03f2433f-a4ed-40f2-961d-b5adc5c08276","ios":"levelo://app?vid=03f2433f-a4ed-40f2-961d-b5adc5c08276"},"vehicle_type_id":"4","last_reported":1734451964,"current_range_meters":31200,"station_id":"ce4bgt92rcd13ifvqcg0","pricing_plan_id":"cebpf4jnsgd1na2vs0mg"},{"bike_id":"fa3fd9fd-2a18-4b83-85e5-267172f3bc84","system_id":"levelo_inurba_marseille","lat":43.23057,"lon":5.35499,"is_reserved":false,"is_disabled":false,"rental_uris":{"android":"levelo://app?vid=fa3fd9fd-2a18-4b83-85e5-267172f3bc84","ios":"levelo://app?vid=fa3fd9fd-2a18-4b83-85e5-267172f3bc84"},"vehicle_type_id":"4","last_reported":1734451964,"current_range_meters":8400,"station_id":"cpo3342slgdg3j2ifvpg","pricing_plan_id":"cebpf4jnsgd1na2vs0mg"},{"bike_id":"7399fd58-5dfd-44fa-92b1-0692ace70e73","system_id":"levelo_inurba_marseille","lat":43.30095,"lon":5.37138,"is_reserved":false,"is_disabled":false,"rental_uris":{"android":"levelo://app?vid=7399fd58-5dfd-44fa-92b1-0692ace70e73","ios":"levelo://app?vid=7399fd58-5dfd-44fa-92b1-0692ace70e73"},"vehicle_type_id":"4","last_reported":1734451964,"current_range_meters":24800,"station_id":"","pricing_plan_id":"cebpf4jnsgd1na2vs0mg"},{"bike_id":"152a0681-9cf8-44ce-a283-f561740da0e4","system_id":"levelo_inurba_marseille","lat":43.27921,"lon":5.39582,"is_reserved":false,"is_disabled":false,"rental_uris":{"android":"levelo://app?vid=152a0681-9cf8-44ce-a283-f561740da0e4","ios":"levelo://app?vid=152a0681-9cf8-44ce-a283-f561740da0e4"},"vehicle_type_id":"4","last_reported":1734451964,"current_range_meters":36800,"station_id":"ce4bhf92rcd13ifvqf40","pricing_plan_id":"cebpf4jnsgd1na2vs0mg"},{"bike_id":"44ff8e7d-1339-43c2-b508-1f594ee49259","system_id":"levelo_inurba_marseille","lat":43.2793,"lon":5.39572,"is_reserved":false,"is_disabled":false,"rental_uris":{"android":"levelo://app?vid=44ff8e7d-1339-43c2-b508-1f594ee49259","ios":"levelo://app?vid=44ff8e7d-1339-43c2-b508-1f594ee49259"},"vehicle_type_id":"4","last_reported":1734451964,"current_range_meters":38000,"station_id":"ce4bhf92rcd13ifvqf40","pricing_plan_id":"cebpf4jnsgd1na2vs0mg"},{"bike_id":"8ce2fd00-18f3-46c5-b0aa-83e1a8058128","system_id":"levelo_inurba_marseille","lat":43.29983,"lon":5.38492,"is_reserved":false,"is_disabled":true,"rental_uris":{"android":"levelo://app?vid=8ce2fd00-18f3-46c5-b0aa-83e1a8058128","ios":"levelo://app?vid=8ce2fd00-18f3-46c5-b0aa-83e1a8058128"},"vehicle_type_id":"4","last_reported":1734451964,"current_range_meters":32000,"station_id":"ce4bgj92rcd13ifvqbd0","pricing_plan_id":"cebpf4jnsgd1na2vs0mg"},{"bike_id":"ff52c0f9-5bc3-4147-97cc-1c9a6030d599","system_id":"levelo_inurba_marseille","lat":43.2705,"lon":5.4027,"is_reserved":false,"is_disabled":false,"rental_uris":{"android":"levelo://app?vid=ff52c0f9-5bc3-4147-97cc-1c9a6030d599","ios":"levelo://app?vid=ff52c0f9-5bc3-4147-97cc-1c9a6030d599"},"vehicle_type_id":"4","last_reported":1734451964,"current_range_meters":37600,"station_id":"ce4bhk92rcd13ifvqgc0","pricing_plan_id":"cebpf4jnsgd1na2vs0mg"},{"bike_id":"104e1b42-1471-4669-8302-674e23575272","system_id":"levelo_inurba_marseille","lat":43.308877,"lon":5.396274,"is_reserved":false,"is_disabled":false,"rental_uris":{"android":"levelo://app?vid=104e1b42-1471-4669-8302-674e23575272","ios":"levelo://app?vid=104e1b42-1471-4669-8302-674e23575272"},"vehicle_type_id":"4","last_reported":1734451964,"current_range_meters":38800,"station_id":"ce4bh012rcd13ifvqcv0","pricing_plan_id":"cebpf4jnsgd1na2vs0mg"},{"bike_id":"8d245058-8950-42aa-9f99-cd8c442a6413","system_id":"levelo_inurba_marseille","lat":43.29285,"lon":5.40121,"is_reserved":false,"is_disabled":true,"rental_uris":{"android":"levelo://app?vid=8d245058-8950-42aa-9f99-cd8c442a6413","ios":"levelo://app?vid=8d245058-8950-42aa-9f99-cd8c442a6413"},"vehicle_type_id":"4","last_reported":1734451964,"current_range_meters":27600,"station_id":"ce4bh312rcd13ifvqdk0","pricing_plan_id":"cebpf4jnsgd1na2vs0mg"},{"bike_id":"eba901e5-0847-4fc0-b2b6-9eb1834c3e7a","system_id":"levelo_inurba_marseille","lat":43.29509,"lon":5.42336,"is_reserved":false,"is_disabled":true,"rental_uris":{"android":"levelo://app?vid=eba901e5-0847-4fc0-b2b6-9eb1834c3e7a","ios":"levelo://app?vid=eba901e5-0847-4fc0-b2b6-9eb1834c3e7a"},"vehicle_type_id":"4","last_reported":1734451964,"current_range_meters":0,"station_id":"","pricing_plan_id":"cebpf4jnsgd1na2vs0mg"},{"bike_id":"ab8c2d7d-9fcf-4159-b3fa-625d48b42721","system_id":"levelo_inurba_marseille","lat":43.3088,"lon":5.3963,"is_reserved":false,"is_disabled":false,"rental_uris":{"android":"levelo://app?vid=ab8c2d7d-9fcf-4159-b3fa-625d48b42721","ios":"levelo://app?vid=ab8c2d7d-9fcf-4159-b3fa-625d48b42721"},"vehicle_type_id":"4","last_reported":1734451964,"current_range_meters":38800,"station_id":"ce4bh012rcd13ifvqcv0","pricing_plan_id":"cebpf4jnsgd1na2vs0mg"},{"bike_id":"5c954f9f-7ca8-4e7b-b773-772b81726a65","system_id":"levelo_inurba_marseille","lat":43.29891,"lon":5.38151,"is_reserved":false,"is_disabled":false,"rental_uris":{"android":"levelo://app?vid=5c954f9f-7ca8-4e7b-b773-772b81726a65","ios":"levelo://app?vid=5c954f9f-7ca8-4e7b-b773-772b81726a65"},"vehicle_type_id":"4","last_reported":1734451964,"current_range_meters":38800,"station_id":"ce4bgj12rcd13ifvqbc0","pricing_plan_id":"cebpf4jnsgd1na2vs0mg"},{"bike_id":"5cb5f851-ca26-4ed4-ae0e-1e43dc1fbccc","system_id":"levelo_inurba_marseille","lat":43.24664,"lon":5.38167,"is_reserved":false,"is_disabled":false,"rental_uris":{"android":"levelo://app?vid=5cb5f851-ca26-4ed4-ae0e-1e43dc1fbccc","ios":"levelo://app?vid=5cb5f851-ca26-4ed4-ae0e-1e43dc1fbccc"},"vehicle_type_id":"4","last_reported":1734451964,"current_range_meters":4400,"station_id":"ce4bhih2rcd13ifvqfr0","pricing_plan_id":"cebpf4jnsgd1na2vs0mg"},{"bike_id":"828c7bbc-b4cc-430e-b41a-9b34cede7a38","system_id":"levelo_inurba_marseille","lat":43.29042,"lon":5.35901,"is_reserved":false,"is_disabled":false,"rental_uris":{"android":"levelo://app?vid=828c7bbc-b4cc-430e-b41a-9b34cede7a38","ios":"levelo://app?vid=828c7bbc-b4cc-430e-b41a-9b34cede7a38"},"vehicle_type_id":"4","last_reported":1734451964,"current_range_meters":38800,"station_id":"ce4bha92rcd13ifvqeg0","pricing_plan_id":"cebpf4jnsgd1na2vs0mg"},{"bike_id":"ed3a8591-316e-49ab-a80e-c8c5d9c39c56","system_id":"levelo_inurba_marseille","lat":43.30086,"lon":5.39085,"is_reserved":false,"is_disabled":true,"rental_uris":{"android":"levelo://app?vid=ed3a8591-316e-49ab-a80e-c8c5d9c39c56","ios":"levelo://app?vid=ed3a8591-316e-49ab-a80e-c8c5d9c39c56"},"vehicle_type_id":"4","last_reported":1734451964,"current_range_meters":32400,"station_id":"ce4bh192rcd13ifvqdb0","pricing_plan_id":"cebpf4jnsgd1na2vs0mg"},{"bike_id":"5a37a828-cff2-4e6d-a76c-d01bbc621389","system_id":"levelo_inurba_marseille","lat":43.23197,"lon":5.35563,"is_reserved":false,"is_disabled":false,"rental_uris":{"android":"levelo://app?vid=5a37a828-cff2-4e6d-a76c-d01bbc621389","ios":"levelo://app?vid=5a37a828-cff2-4e6d-a76c-d01bbc621389"},"vehicle_type_id":"4","last_reported":1734451964,"current_range_meters":26800,"station_id":"ce4bhu92rcd13ifvqi70","pricing_plan_id":"cebpf4jnsgd1na2vs0mg"},{"bike_id":"a1c1fbba-9f8b-4e55-a7e6-e3031108193b","system_id":"levelo_inurba_marseille","lat":43.29842,"lon":5.36273,"is_reserved":false,"is_disabled":false,"rental_uris":{"android":"levelo://app?vid=a1c1fbba-9f8b-4e55-a7e6-e3031108193b","ios":"levelo://app?vid=a1c1fbba-9f8b-4e55-a7e6-e3031108193b"},"vehicle_type_id":"4","last_reported":1734451964,"current_range_meters":38800,"station_id":"ce4bgpp2rcd13ifvqc3g","pricing_plan_id":"cebpf4jnsgd1na2vs0mg"},{"bike_id":"bb95fcfd-2602-4f0d-980c-5aaf53bca056","system_id":"levelo_inurba_marseille","lat":43.31281,"lon":5.40171,"is_reserved":false,"is_disabled":false,"rental_uris":{"android":"levelo://app?vid=bb95fcfd-2602-4f0d-980c-5aaf53bca056","ios":"levelo://app?vid=bb95fcfd-2602-4f0d-980c-5aaf53bca056"},"vehicle_type_id":"4","last_reported":1734451964,"current_range_meters":38800,"station_id":"ce4bh092rcd13ifvqd30","pricing_plan_id":"cebpf4jnsgd1na2vs0mg"},{"bike_id":"ddb287d4-fada-4e6c-a825-26cc422b66e3","system_id":"levelo_inurba_marseille","lat":43.26822,"lon":5.40221,"is_reserved":false,"is_disabled":false,"rental_uris":{"android":"levelo://app?vid=ddb287d4-fada-4e6c-a825-26cc422b66e3","ios":"levelo://app?vid=ddb287d4-fada-4e6c-a825-26cc422b66e3"},"vehicle_type_id":"4","last_reported":1734451964,"current_range_meters":38800,"station_id":"ce501612rcd8frsf0b60","pricing_plan_id":"cebpf4jnsgd1na2vs0mg"},{"bike_id":"c84a8c47-f6e9-48cc-b42c-789da368acc1","system_id":"levelo_inurba_marseille","lat":43.29689,"lon":5.37333,"is_reserved":false,"is_disabled":false,"rental_uris":{"android":"levelo://app?vid=c84a8c47-f6e9-48cc-b42c-789da368acc1","ios":"levelo://app?vid=c84a8c47-f6e9-48cc-b42c-789da368acc1"},"vehicle_type_id":"4","last_reported":1734451964,"current_range_meters":8800,"station_id":"ce4bgk12rcd13ifvqbj0","pricing_plan_id":"cebpf4jnsgd1na2vs0mg"},{"bike_id":"f3fc0663-6f94-47bd-8c35-b04cca188243","system_id":"levelo_inurba_marseille","lat":43.2743,"lon":5.39417,"is_reserved":false,"is_disabled":false,"rental_uris":{"android":"levelo://app?vid=f3fc0663-6f94-47bd-8c35-b04cca188243","ios":"levelo://app?vid=f3fc0663-6f94-47bd-8c35-b04cca188243"},"vehicle_type_id":"4","last_reported":1734451964,"current_range_meters":4000,"station_id":"ce4bhdp2rcd13ifvqf20","pricing_plan_id":"cebpf4jnsgd1na2vs0mg"},{"bike_id":"446d3476-c0ad-4245-ba99-4ec2a5e1bc88","system_id":"levelo_inurba_marseille","lat":43.24069,"lon":5.37767,"is_reserved":false,"is_disabled":false,"rental_uris":{"android":"levelo://app?vid=446d3476-c0ad-4245-ba99-4ec2a5e1bc88","ios":"levelo://app?vid=446d3476-c0ad-4245-ba99-4ec2a5e1bc88"},"vehicle_type_id":"4","last_reported":1734451964,"current_range_meters":9600,"station_id":"ce4bhnp2rcd13ifvqgvg","pricing_plan_id":"cebpf4jnsgd1na2vs0mg"},{"bike_id":"17b26e8b-6692-4bee-9706-645abc559c58","system_id":"levelo_inurba_marseille","lat":43.29956,"lon":5.41326,"is_reserved":false,"is_disabled":false,"rental_uris":{"android":"levelo://app?vid=17b26e8b-6692-4bee-9706-645abc559c58","ios":"levelo://app?vid=17b26e8b-6692-4bee-9706-645abc559c58"},"vehicle_type_id":"4","last_reported":1734451964,"current_range_meters":13600,"station_id":"ce4bhp12rcd13ifvqh9g","pricing_plan_id":"cebpf4jnsgd1na2vs0mg"},{"bike_id":"afcc65c9-388c-4e07-acc3-e31d02ad0bc1","system_id":"levelo_inurba_marseille","lat":43.26511,"lon":5.39561,"is_reserved":false,"is_disabled":false,"rental_uris":{"android":"levelo://app?vid=afcc65c9-388c-4e07-acc3-e31d02ad0bc1","ios":"levelo://app?vid=afcc65c9-388c-4e07-acc3-e31d02ad0bc1"},"vehicle_type_id":"4","last_reported":1734451964,"current_range_meters":38800,"station_id":"ce4bhi12rcd13ifvqfq0","pricing_plan_id":"cebpf4jnsgd1na2vs0mg"},{"bike_id":"0ff6fea5-f882-490d-b1fc-2cba3c649602","system_id":"levelo_inurba_marseille","lat":43.28722,"lon":5.36097,"is_reserved":false,"is_disabled":false,"rental_uris":{"android":"levelo://app?vid=0ff6fea5-f882-490d-b1fc-2cba3c649602","ios":"levelo://app?vid=0ff6fea5-f882-490d-b1fc-2cba3c649602"},"vehicle_type_id":"4","last_reported":1734451964,"current_range_meters":29600,"station_id":"cki0cbj6b192h4jlfktg","pricing_plan_id":"cebpf4jnsgd1na2vs0mg"},{"bike_id":"d283b9e9-469d-4791-9530-ca9134c5a01e","system_id":"levelo_inurba_marseille","lat":43.27048,"lon":5.40269,"is_reserved":false,"is_disabled":false,"rental_uris":{"android":"levelo://app?vid=d283b9e9-469d-4791-9530-ca9134c5a01e","ios":"levelo://app?vid=d283b9e9-469d-4791-9530-ca9134c5a01e"},"vehicle_type_id":"4","last_reported":1734451964,"current_range_meters":26800,"station_id":"ce4bhk92rcd13ifvqgc0","pricing_plan_id":"cebpf4jnsgd1na2vs0mg"},{"bike_id":"230bab4f-5de4-4c6a-a0ce-fdf98a5a3033","system_id":"levelo_inurba_marseille","lat":43.2318,"lon":5.39987,"is_reserved":false,"is_disabled":false,"rental_uris":{"android":"levelo://app?vid=230bab4f-5de4-4c6a-a0ce-fdf98a5a3033","ios":"levelo://app?vid=230bab4f-5de4-4c6a-a0ce-fdf98a5a3033"},"vehicle_type_id":"4","last_reported":1734451964,"current_range_meters":38800,"station_id":"ce4bhn12rcd13ifvqgqg","pricing_plan_id":"cebpf4jnsgd1na2vs0mg"},{"bike_id":"8cadfb8a-358a-4856-9147-c3482cc7eb21","system_id":"levelo_inurba_marseille","lat":43.27424,"lon":5.39411,"is_reserved":false,"is_disabled":false,"rental_uris":{"android":"levelo://app?vid=8cadfb8a-358a-4856-9147-c3482cc7eb21","ios":"levelo://app?vid=8cadfb8a-358a-4856-9147-c3482cc7eb21"},"vehicle_type_id":"4","last_reported":1734451964,"current_range_meters":39200,"station_id":"ce4bhdp2rcd13ifvqf20","pricing_plan_id":"cebpf4jnsgd1na2vs0mg"},{"bike_id":"ad7b5e60-6b2e-4ec9-b970-a66882342341","system_id":"levelo_inurba_marseille","lat":43.2959,"lon":5.36737,"is_reserved":false,"is_disabled":false,"rental_uris":{"android":"levelo://app?vid=ad7b5e60-6b2e-4ec9-b970-a66882342341","ios":"levelo://app?vid=ad7b5e60-6b2e-4ec9-b970-a66882342341"},"vehicle_type_id":"4","last_reported":1734451964,"current_range_meters":10800,"station_id":"ce4bgph2rcd13ifvqc2g","pricing_plan_id":"cebpf4jnsgd1na2vs0mg"},{"bike_id":"5b7548e1-f815-4513-9095-c43625969a0e","system_id":"levelo_inurba_marseille","lat":43.29854,"lon":5.36277,"is_reserved":false,"is_disabled":false,"rental_uris":{"android":"levelo://app?vid=5b7548e1-f815-4513-9095-c43625969a0e","ios":"levelo://app?vid=5b7548e1-f815-4513-9095-c43625969a0e"},"vehicle_type_id":"4","last_reported":1734451964,"current_range_meters":36800,"station_id":"ce4bgpp2rcd13ifvqc3g","pricing_plan_id":"cebpf4jnsgd1na2vs0mg"},{"bike_id":"89e7a0dc-1c25-493b-9ea5-f67b3bb78a55","system_id":"levelo_inurba_marseille","lat":43.30152,"lon":5.39888,"is_reserved":false,"is_disabled":false,"rental_uris":{"android":"levelo://app?vid=89e7a0dc-1c25-493b-9ea5-f67b3bb78a55","ios":"levelo://app?vid=89e7a0dc-1c25-493b-9ea5-f67b3bb78a55"},"vehicle_type_id":"4","last_reported":1734451964,"current_range_meters":9200,"station_id":"ce4bh0h2rcd13ifvqd40","pricing_plan_id":"cebpf4jnsgd1na2vs0mg"},{"bike_id":"beae50c0-d8f5-4923-8d9d-0b225309a365","system_id":"levelo_inurba_marseille","lat":43.30549,"lon":5.36552,"is_reserved":false,"is_disabled":false,"rental_uris":{"android":"levelo://app?vid=beae50c0-d8f5-4923-8d9d-0b225309a365","ios":"levelo://app?vid=beae50c0-d8f5-4923-8d9d-0b225309a365"},"vehicle_type_id":"4","last_reported":1734451964,"current_range_meters":37600,"station_id":"ce4bgs12rcd13ifvqcag","pricing_plan_id":"cebpf4jnsgd1na2vs0mg"},{"bike_id":"b9ba0f2b-1283-4f53-a2cf-4f94e4843440","system_id":"levelo_inurba_marseille","lat":43.29368,"lon":5.37839,"is_reserved":false,"is_disabled":false,"rental_uris":{"android":"levelo://app?vid=b9ba0f2b-1283-4f53-a2cf-4f94e4843440","ios":"levelo://app?vid=b9ba0f2b-1283-4f53-a2cf-4f94e4843440"},"vehicle_type_id":"4","last_reported":1734451964,"current_range_meters":30800,"station_id":"ce4bgjh2rcd13ifvqbf0","pricing_plan_id":"cebpf4jnsgd1na2vs0mg"},{"bike_id":"bca32872-e316-45a2-a3e8-016c5914cd1f","system_id":"levelo_inurba_marseille","lat":43.30911,"lon":5.36854,"is_reserved":false,"is_disabled":false,"rental_uris":{"android":"levelo://app?vid=bca32872-e316-45a2-a3e8-016c5914cd1f","ios":"levelo://app?vid=bca32872-e316-45a2-a3e8-016c5914cd1f"},"vehicle_type_id":"4","last_reported":1734451964,"current_range_meters":28400,"station_id":"ce4bgn92rcd13ifvqbvg","pricing_plan_id":"cebpf4jnsgd1na2vs0mg"},{"bike_id":"cab5cb01-b33a-421c-bfaf-c7630f90de8b","system_id":"levelo_inurba_marseille","lat":43.29047,"lon":5.39948,"is_reserved":false,"is_disabled":true,"rental_uris":{"android":"levelo://app?vid=cab5cb01-b33a-421c-bfaf-c7630f90de8b","ios":"levelo://app?vid=cab5cb01-b33a-421c-bfaf-c7630f90de8b"},"vehicle_type_id":"4","last_reported":1734451964,"current_range_meters":3200,"station_id":"ce4bh392rcd13ifvqdm0","pricing_plan_id":"cebpf4jnsgd1na2vs0mg"},{"bike_id":"78f5dcee-b6ca-4cfa-ae6f-ebcf64be1236","system_id":"levelo_inurba_marseille","lat":43.32355,"lon":5.4063,"is_reserved":false,"is_disabled":true,"rental_uris":{"android":"levelo://app?vid=78f5dcee-b6ca-4cfa-ae6f-ebcf64be1236","ios":"levelo://app?vid=78f5dcee-b6ca-4cfa-ae6f-ebcf64be1236"},"vehicle_type_id":"4","last_reported":1734451964,"current_range_meters":0,"station_id":"ce4bhq92rcd13ifvqhjg","pricing_plan_id":"cebpf4jnsgd1na2vs0mg"},{"bike_id":"d1adb045-11f4-4330-9d2b-f77d89c262d4","system_id":"levelo_inurba_marseille","lat":43.29309,"lon":5.37188,"is_reserved":false,"is_disabled":true,"rental_uris":{"android":"levelo://app?vid=d1adb045-11f4-4330-9d2b-f77d89c262d4","ios":"levelo://app?vid=d1adb045-11f4-4330-9d2b-f77d89c262d4"},"vehicle_type_id":"4","last_reported":1734451964,"current_range_meters":36400,"station_id":"ce4bgh92rcd13ifvqb40","pricing_plan_id":"cebpf4jnsgd1na2vs0mg"},{"bike_id":"71e5f7d6-56dc-4c3d-9edb-73fee72ea488","system_id":"levelo_inurba_marseille","lat":43.3018,"lon":5.36613,"is_reserved":false,"is_disabled":false,"rental_uris":{"android":"levelo://app?vid=71e5f7d6-56dc-4c3d-9edb-73fee72ea488","ios":"levelo://app?vid=71e5f7d6-56dc-4c3d-9edb-73fee72ea488"},"vehicle_type_id":"4","last_reported":1734451964,"current_range_meters":35200,"station_id":"ce4bgrh2rcd13ifvqc8g","pricing_plan_id":"cebpf4jnsgd1na2vs0mg"},{"bike_id":"36178add-f0ff-4f50-9681-9a80dcc2f1df","system_id":"levelo_inurba_marseille","lat":43.265,"lon":5.39543,"is_reserved":false,"is_disabled":false,"rental_uris":{"android":"levelo://app?vid=36178add-f0ff-4f50-9681-9a80dcc2f1df","ios":"levelo://app?vid=36178add-f0ff-4f50-9681-9a80dcc2f1df"},"vehicle_type_id":"4","last_reported":1734451964,"current_range_meters":24800,"station_id":"ce4bhi12rcd13ifvqfq0","pricing_plan_id":"cebpf4jnsgd1na2vs0mg"},{"bike_id":"6abcda96-d777-46bc-889a-889954729442","system_id":"levelo_inurba_marseille","lat":43.2743,"lon":5.39409,"is_reserved":false,"is_disabled":false,"rental_uris":{"android":"levelo://app?vid=6abcda96-d777-46bc-889a-889954729442","ios":"levelo://app?vid=6abcda96-d777-46bc-889a-889954729442"},"vehicle_type_id":"4","last_reported":1734451964,"current_range_meters":37600,"station_id":"ce4bhdp2rcd13ifvqf20","pricing_plan_id":"cebpf4jnsgd1na2vs0mg"},{"bike_id":"0bd5d813-d89e-42f3-8ce9-c06fb9ffedaa","system_id":"levelo_inurba_marseille","lat":43.28948,"lon":5.3964,"is_reserved":false,"is_disabled":true,"rental_uris":{"android":"levelo://app?vid=0bd5d813-d89e-42f3-8ce9-c06fb9ffedaa","ios":"levelo://app?vid=0bd5d813-d89e-42f3-8ce9-c06fb9ffedaa"},"vehicle_type_id":"4","last_reported":1734451964,"current_range_meters":38000,"station_id":"ce4bh3h2rcd13ifvqdn0","pricing_plan_id":"cebpf4jnsgd1na2vs0mg"},{"bike_id":"5c90a401-f348-435c-b37d-6b8b7b30895d","system_id":"levelo_inurba_marseille","lat":43.29866,"lon":5.38896,"is_reserved":false,"is_disabled":false,"rental_uris":{"android":"levelo://app?vid=5c90a401-f348-435c-b37d-6b8b7b30895d","ios":"levelo://app?vid=5c90a401-f348-435c-b37d-6b8b7b30895d"},"vehicle_type_id":"4","last_reported":1734451964,"current_range_meters":30400,"station_id":"ce4bh392rcd13ifvqdl0","pricing_plan_id":"cebpf4jnsgd1na2vs0mg"},{"bike_id":"a2df7d87-51ca-433e-ad68-1e23a0ea5897","system_id":"levelo_inurba_marseille","lat":43.27998,"lon":5.40012,"is_reserved":false,"is_disabled":false,"rental_uris":{"android":"levelo://app?vid=a2df7d87-51ca-433e-ad68-1e23a0ea5897","ios":"levelo://app?vid=a2df7d87-51ca-433e-ad68-1e23a0ea5897"},"vehicle_type_id":"4","last_reported":1734451964,"current_range_meters":19600,"station_id":"ce4bho92rcd13ifvqh4g","pricing_plan_id":"cebpf4jnsgd1na2vs0mg"},{"bike_id":"9a9ca54f-8f83-4db0-b780-a7eb0fa7f88d","system_id":"levelo_inurba_marseille","lat":43.26032,"lon":5.37544,"is_reserved":false,"is_disabled":false,"rental_uris":{"android":"levelo://app?vid=9a9ca54f-8f83-4db0-b780-a7eb0fa7f88d","ios":"levelo://app?vid=9a9ca54f-8f83-4db0-b780-a7eb0fa7f88d"},"vehicle_type_id":"4","last_reported":1734451964,"current_range_meters":37600,"station_id":"ce4bhgh2rcd13ifvqfa0","pricing_plan_id":"cebpf4jnsgd1na2vs0mg"},{"bike_id":"e72fa642-30df-464a-831c-61ff9cf06808","system_id":"levelo_inurba_marseille","lat":43.23061,"lon":5.35494,"is_reserved":false,"is_disabled":false,"rental_uris":{"android":"levelo://app?vid=e72fa642-30df-464a-831c-61ff9cf06808","ios":"levelo://app?vid=e72fa642-30df-464a-831c-61ff9cf06808"},"vehicle_type_id":"4","last_reported":1734451964,"current_range_meters":38800,"station_id":"cpo3342slgdg3j2ifvpg","pricing_plan_id":"cebpf4jnsgd1na2vs0mg"},{"bike_id":"99260121-6081-41ce-b2c6-116da93334a5","system_id":"levelo_inurba_marseille","lat":43.30419,"lon":5.41281,"is_reserved":false,"is_disabled":false,"rental_uris":{"android":"levelo://app?vid=99260121-6081-41ce-b2c6-116da93334a5","ios":"levelo://app?vid=99260121-6081-41ce-b2c6-116da93334a5"},"vehicle_type_id":"4","last_reported":1734451964,"current_range_meters":10800,"station_id":"ce4bhop2rcd13ifvqh8g","pricing_plan_id":"cebpf4jnsgd1na2vs0mg"},{"bike_id":"2fb89adf-305b-43ac-b40a-b2c625a19cf4","system_id":"levelo_inurba_marseille","lat":43.24657,"lon":5.389,"is_reserved":false,"is_disabled":false,"rental_uris":{"android":"levelo://app?vid=2fb89adf-305b-43ac-b40a-b2c625a19cf4","ios":"levelo://app?vid=2fb89adf-305b-43ac-b40a-b2c625a19cf4"},"vehicle_type_id":"4","last_reported":1734451964,"current_range_meters":38800,"station_id":"ce4bhg12rcd13ifvqf60","pricing_plan_id":"cebpf4jnsgd1na2vs0mg"},{"bike_id":"95c69429-156c-453e-b2c0-5f65d6fe9b40","system_id":"levelo_inurba_marseille","lat":43.23189,"lon":5.39982,"is_reserved":false,"is_disabled":false,"rental_uris":{"android":"levelo://app?vid=95c69429-156c-453e-b2c0-5f65d6fe9b40","ios":"levelo://app?vid=95c69429-156c-453e-b2c0-5f65d6fe9b40"},"vehicle_type_id":"4","last_reported":1734451964,"current_range_meters":22000,"station_id":"ce4bhn12rcd13ifvqgqg","pricing_plan_id":"cebpf4jnsgd1na2vs0mg"},{"bike_id":"0db766e1-d757-41fc-8ab5-ab2fee86210f","system_id":"levelo_inurba_marseille","lat":43.28151,"lon":5.4265,"is_reserved":false,"is_disabled":false,"rental_uris":{"android":"levelo://app?vid=0db766e1-d757-41fc-8ab5-ab2fee86210f","ios":"levelo://app?vid=0db766e1-d757-41fc-8ab5-ab2fee86210f"},"vehicle_type_id":"4","last_reported":1734451964,"current_range_meters":8800,"station_id":"ce4bhnh2rcd13ifvqgug","pricing_plan_id":"cebpf4jnsgd1na2vs0mg"},{"bike_id":"bdf3034e-62b9-4ee0-8cec-ae18930d0c4b","system_id":"levelo_inurba_marseille","lat":43.266761,"lon":5.3828,"is_reserved":false,"is_disabled":false,"rental_uris":{"android":"levelo://app?vid=bdf3034e-62b9-4ee0-8cec-ae18930d0c4b","ios":"levelo://app?vid=bdf3034e-62b9-4ee0-8cec-ae18930d0c4b"},"vehicle_type_id":"4","last_reported":1734451964,"current_range_meters":32000,"station_id":"ce4bhg92rcd13ifvqf90","pricing_plan_id":"cebpf4jnsgd1na2vs0mg"},{"bike_id":"0d0da633-9ce8-4910-abca-d6a18ad21253","system_id":"levelo_inurba_marseille","lat":43.30539,"lon":5.36705,"is_reserved":false,"is_disabled":false,"rental_uris":{"android":"levelo://app?vid=0d0da633-9ce8-4910-abca-d6a18ad21253","ios":"levelo://app?vid=0d0da633-9ce8-4910-abca-d6a18ad21253"},"vehicle_type_id":"4","last_reported":1734451964,"current_range_meters":38800,"station_id":"ce4bgrp2rcd13ifvqc9g","pricing_plan_id":"cebpf4jnsgd1na2vs0mg"},{"bike_id":"6e48c2e9-9079-4a57-b4e3-65f3a72e2cf0","system_id":"levelo_inurba_marseille","lat":43.32292,"lon":5.38305,"is_reserved":false,"is_disabled":false,"rental_uris":{"android":"levelo://app?vid=6e48c2e9-9079-4a57-b4e3-65f3a72e2cf0","ios":"levelo://app?vid=6e48c2e9-9079-4a57-b4e3-65f3a72e2cf0"},"vehicle_type_id":"4","last_reported":1734451964,"current_range_meters":20000,"station_id":"ce4bhr12rcd13ifvqhqg","pricing_plan_id":"cebpf4jnsgd1na2vs0mg"},{"bike_id":"d2cf2da3-b70a-4458-98f5-d876d5472e70","system_id":"levelo_inurba_marseille","lat":43.30557,"lon":5.3653,"is_reserved":false,"is_disabled":false,"rental_uris":{"android":"levelo://app?vid=d2cf2da3-b70a-4458-98f5-d876d5472e70","ios":"levelo://app?vid=d2cf2da3-b70a-4458-98f5-d876d5472e70"},"vehicle_type_id":"4","last_reported":1734451964,"current_range_meters":38800,"station_id":"ce4bgs12rcd13ifvqcag","pricing_plan_id":"cebpf4jnsgd1na2vs0mg"},{"bike_id":"7c10fc2e-b460-4ae3-b8db-5220f2e10399","system_id":"levelo_inurba_marseille","lat":43.31116,"lon":5.37764,"is_reserved":false,"is_disabled":false,"rental_uris":{"android":"levelo://app?vid=7c10fc2e-b460-4ae3-b8db-5220f2e10399","ios":"levelo://app?vid=7c10fc2e-b460-4ae3-b8db-5220f2e10399"},"vehicle_type_id":"4","last_reported":1734451964,"current_range_meters":38400,"station_id":"ce4bgt92rcd13ifvqcg0","pricing_plan_id":"cebpf4jnsgd1na2vs0mg"},{"bike_id":"bf565d7c-23d9-4430-b87c-b2cbbc5f9c2d","system_id":"levelo_inurba_marseille","lat":43.28101,"lon":5.37849,"is_reserved":false,"is_disabled":false,"rental_uris":{"android":"levelo://app?vid=bf565d7c-23d9-4430-b87c-b2cbbc5f9c2d","ios":"levelo://app?vid=bf565d7c-23d9-4430-b87c-b2cbbc5f9c2d"},"vehicle_type_id":"4","last_reported":1734451964,"current_range_meters":14800,"station_id":"ce4bha12rcd13ifvqee0","pricing_plan_id":"cebpf4jnsgd1na2vs0mg"},{"bike_id":"c8399855-72d4-4f25-aa5a-52a18924a7b8","system_id":"levelo_inurba_marseille","lat":43.241626,"lon":5.363945,"is_reserved":false,"is_disabled":false,"rental_uris":{"android":"levelo://app?vid=c8399855-72d4-4f25-aa5a-52a18924a7b8","ios":"levelo://app?vid=c8399855-72d4-4f25-aa5a-52a18924a7b8"},"vehicle_type_id":"4","last_reported":1734451964,"current_range_meters":10000,"station_id":"cpo36qri1sfpv3e86is0","pricing_plan_id":"cebpf4jnsgd1na2vs0mg"},{"bike_id":"e6d46886-9530-4a4a-9725-bf14fe73c3ba","system_id":"levelo_inurba_marseille","lat":43.28719,"lon":5.37922,"is_reserved":false,"is_disabled":false,"rental_uris":{"android":"levelo://app?vid=e6d46886-9530-4a4a-9725-bf14fe73c3ba","ios":"levelo://app?vid=e6d46886-9530-4a4a-9725-bf14fe73c3ba"},"vehicle_type_id":"4","last_reported":1734451964,"current_range_meters":15200,"station_id":"ce4bh9p2rcd13ifvqec0","pricing_plan_id":"cebpf4jnsgd1na2vs0mg"},{"bike_id":"b508baca-248e-42aa-aac7-948777c5e384","system_id":"levelo_inurba_marseille","lat":43.24665,"lon":5.38156,"is_reserved":false,"is_disabled":true,"rental_uris":{"android":"levelo://app?vid=b508baca-248e-42aa-aac7-948777c5e384","ios":"levelo://app?vid=b508baca-248e-42aa-aac7-948777c5e384"},"vehicle_type_id":"4","last_reported":1734451964,"current_range_meters":0,"station_id":"ce4bhih2rcd13ifvqfr0","pricing_plan_id":"cebpf4jnsgd1na2vs0mg"},{"bike_id":"21899888-f395-42a2-9f73-b23e9c5e7602","system_id":"levelo_inurba_marseille","lat":43.3055,"lon":5.3659,"is_reserved":false,"is_disabled":false,"rental_uris":{"android":"levelo://app?vid=21899888-f395-42a2-9f73-b23e9c5e7602","ios":"levelo://app?vid=21899888-f395-42a2-9f73-b23e9c5e7602"},"vehicle_type_id":"4","last_reported":1734451964,"current_range_meters":23200,"station_id":"ce4bgs12rcd13ifvqcag","pricing_plan_id":"cebpf4jnsgd1na2vs0mg"},{"bike_id":"6253925d-ee1a-4fa3-a42f-bc627ff60a68","system_id":"levelo_inurba_marseille","lat":43.2962,"lon":5.3717,"is_reserved":false,"is_disabled":false,"rental_uris":{"android":"levelo://app?vid=6253925d-ee1a-4fa3-a42f-bc627ff60a68","ios":"levelo://app?vid=6253925d-ee1a-4fa3-a42f-bc627ff60a68"},"vehicle_type_id":"4","last_reported":1734451964,"current_range_meters":38000,"station_id":"ce4bgnh2rcd13ifvqc0g","pricing_plan_id":"cebpf4jnsgd1na2vs0mg"},{"bike_id":"d11b51c1-d5af-4ee1-a83a-d1a97dc41df3","system_id":"levelo_inurba_marseille","lat":43.29909,"lon":5.38144,"is_reserved":false,"is_disabled":false,"rental_uris":{"android":"levelo://app?vid=d11b51c1-d5af-4ee1-a83a-d1a97dc41df3","ios":"levelo://app?vid=d11b51c1-d5af-4ee1-a83a-d1a97dc41df3"},"vehicle_type_id":"4","last_reported":1734451964,"current_range_meters":9200,"station_id":"ce4bgj12rcd13ifvqbc0","pricing_plan_id":"cebpf4jnsgd1na2vs0mg"},{"bike_id":"17ffd64c-e130-4d12-88a8-19106c986955","system_id":"levelo_inurba_marseille","lat":43.31344,"lon":5.3971,"is_reserved":false,"is_disabled":false,"rental_uris":{"android":"levelo://app?vid=17ffd64c-e130-4d12-88a8-19106c986955","ios":"levelo://app?vid=17ffd64c-e130-4d12-88a8-19106c986955"},"vehicle_type_id":"4","last_reported":1734451964,"current_range_meters":27600,"station_id":"ce4bgvp2rcd13ifvqcu0","pricing_plan_id":"cebpf4jnsgd1na2vs0mg"},{"bike_id":"e6f842f5-fda4-4b2f-8839-a07d323cbb63","system_id":"levelo_inurba_marseille","lat":43.29793,"lon":5.3808,"is_reserved":false,"is_disabled":false,"rental_uris":{"android":"levelo://app?vid=e6f842f5-fda4-4b2f-8839-a07d323cbb63","ios":"levelo://app?vid=e6f842f5-fda4-4b2f-8839-a07d323cbb63"},"vehicle_type_id":"4","last_reported":1734451964,"current_range_meters":39200,"station_id":"ce4bgip2rcd13ifvqbb0","pricing_plan_id":"cebpf4jnsgd1na2vs0mg"},{"bike_id":"7a4413ec-c5e0-4aa7-ba0e-945831c74b11","system_id":"levelo_inurba_marseille","lat":43.29705,"lon":5.36613,"is_reserved":false,"is_disabled":false,"rental_uris":{"android":"levelo://app?vid=7a4413ec-c5e0-4aa7-ba0e-945831c74b11","ios":"levelo://app?vid=7a4413ec-c5e0-4aa7-ba0e-945831c74b11"},"vehicle_type_id":"4","last_reported":1734451964,"current_range_meters":25200,"station_id":"ce4bgn12rcd13ifvqbt0","pricing_plan_id":"cebpf4jnsgd1na2vs0mg"},{"bike_id":"12eb0625-dbad-472a-a196-afb4347b174c","system_id":"levelo_inurba_marseille","lat":43.29023,"lon":5.38629,"is_reserved":false,"is_disabled":false,"rental_uris":{"android":"levelo://app?vid=12eb0625-dbad-472a-a196-afb4347b174c","ios":"levelo://app?vid=12eb0625-dbad-472a-a196-afb4347b174c"},"vehicle_type_id":"4","last_reported":1734451964,"current_range_meters":38800,"station_id":"ce4bh4p2rcd13ifvqe0g","pricing_plan_id":"cebpf4jnsgd1na2vs0mg"},{"bike_id":"fbc15996-baad-4ca1-948a-314be4713e25","system_id":"levelo_inurba_marseille","lat":43.29675,"lon":5.37286,"is_reserved":false,"is_disabled":false,"rental_uris":{"android":"levelo://app?vid=fbc15996-baad-4ca1-948a-314be4713e25","ios":"levelo://app?vid=fbc15996-baad-4ca1-948a-314be4713e25"},"vehicle_type_id":"4","last_reported":1734451964,"current_range_meters":30400,"station_id":"ce4bgk12rcd13ifvqbj0","pricing_plan_id":"cebpf4jnsgd1na2vs0mg"},{"bike_id":"f9d7143c-6e1e-4e93-84da-d3d8208d9118","system_id":"levelo_inurba_marseille","lat":43.31703,"lon":5.37734,"is_reserved":false,"is_disabled":true,"rental_uris":{"android":"levelo://app?vid=f9d7143c-6e1e-4e93-84da-d3d8208d9118","ios":"levelo://app?vid=f9d7143c-6e1e-4e93-84da-d3d8208d9118"},"vehicle_type_id":"4","last_reported":1734451964,"current_range_meters":800,"station_id":"ce4bgth2rcd13ifvqch0","pricing_plan_id":"cebpf4jnsgd1na2vs0mg"},{"bike_id":"446241b8-cded-4d13-b37f-e71ec99030aa","system_id":"levelo_inurba_marseille","lat":43.30536,"lon":5.36537,"is_reserved":false,"is_disabled":false,"rental_uris":{"android":"levelo://app?vid=446241b8-cded-4d13-b37f-e71ec99030aa","ios":"levelo://app?vid=446241b8-cded-4d13-b37f-e71ec99030aa"},"vehicle_type_id":"4","last_reported":1734451964,"current_range_meters":38000,"station_id":"ce4bgs12rcd13ifvqcag","pricing_plan_id":"cebpf4jnsgd1na2vs0mg"},{"bike_id":"bdf518c3-8e1c-4e3a-bfa1-e7e3d9079018","system_id":"levelo_inurba_marseille","lat":43.33021,"lon":5.3903,"is_reserved":false,"is_disabled":false,"rental_uris":{"android":"levelo://app?vid=bdf518c3-8e1c-4e3a-bfa1-e7e3d9079018","ios":"levelo://app?vid=bdf518c3-8e1c-4e3a-bfa1-e7e3d9079018"},"vehicle_type_id":"4","last_reported":1734451964,"current_range_meters":38800,"station_id":"ce4bhr92rcd13ifvqhrg","pricing_plan_id":"cebpf4jnsgd1na2vs0mg"},{"bike_id":"b2d380e8-08ed-495f-a052-5d7dfa068f5b","system_id":"levelo_inurba_marseille","lat":43.26949,"lon":5.3863,"is_reserved":false,"is_disabled":true,"rental_uris":{"android":"levelo://app?vid=b2d380e8-08ed-495f-a052-5d7dfa068f5b","ios":"levelo://app?vid=b2d380e8-08ed-495f-a052-5d7dfa068f5b"},"vehicle_type_id":"4","last_reported":1734451964,"current_range_meters":0,"station_id":"ce4bhh92rcd13ifvqfh0","pricing_plan_id":"cebpf4jnsgd1na2vs0mg"},{"bike_id":"262db747-5df7-439b-b4e7-c313a4a57308","system_id":"levelo_inurba_marseille","lat":43.27818,"lon":5.40712,"is_reserved":false,"is_disabled":false,"rental_uris":{"android":"levelo://app?vid=262db747-5df7-439b-b4e7-c313a4a57308","ios":"levelo://app?vid=262db747-5df7-439b-b4e7-c313a4a57308"},"vehicle_type_id":"4","last_reported":1734451964,"current_range_meters":19200,"station_id":"ce4bhnh2rcd13ifvqgtg","pricing_plan_id":"cebpf4jnsgd1na2vs0mg"},{"bike_id":"82f7f145-591c-4ce0-8f76-660882a2845e","system_id":"levelo_inurba_marseille","lat":43.33595,"lon":5.40984,"is_reserved":false,"is_disabled":true,"rental_uris":{"android":"levelo://app?vid=82f7f145-591c-4ce0-8f76-660882a2845e","ios":"levelo://app?vid=82f7f145-591c-4ce0-8f76-660882a2845e"},"vehicle_type_id":"4","last_reported":1734451964,"current_range_meters":34800,"station_id":"ce4bhqh2rcd13ifvqhmg","pricing_plan_id":"cebpf4jnsgd1na2vs0mg"},{"bike_id":"840ed963-9f8e-4d70-a8a0-f39a4af27f7a","system_id":"levelo_inurba_marseille","lat":43.27815,"lon":5.4073,"is_reserved":false,"is_disabled":false,"rental_uris":{"android":"levelo://app?vid=840ed963-9f8e-4d70-a8a0-f39a4af27f7a","ios":"levelo://app?vid=840ed963-9f8e-4d70-a8a0-f39a4af27f7a"},"vehicle_type_id":"4","last_reported":1734451964,"current_range_meters":28400,"station_id":"ce4bhnh2rcd13ifvqgtg","pricing_plan_id":"cebpf4jnsgd1na2vs0mg"},{"bike_id":"ac7c5f56-daad-496c-965f-9103737000e8","system_id":"levelo_inurba_marseille","lat":43.2397,"lon":5.36654,"is_reserved":false,"is_disabled":false,"rental_uris":{"android":"levelo://app?vid=ac7c5f56-daad-496c-965f-9103737000e8","ios":"levelo://app?vid=ac7c5f56-daad-496c-965f-9103737000e8"},"vehicle_type_id":"4","last_reported":1734451964,"current_range_meters":38800,"station_id":"ce4bhi12rcd13ifvqfp0","pricing_plan_id":"cebpf4jnsgd1na2vs0mg"},{"bike_id":"30943ecb-ecb0-4ac9-9219-dc3c35f2f4ec","system_id":"levelo_inurba_marseille","lat":43.2799,"lon":5.41663,"is_reserved":false,"is_disabled":false,"rental_uris":{"android":"levelo://app?vid=30943ecb-ecb0-4ac9-9219-dc3c35f2f4ec","ios":"levelo://app?vid=30943ecb-ecb0-4ac9-9219-dc3c35f2f4ec"},"vehicle_type_id":"4","last_reported":1734451964,"current_range_meters":25200,"station_id":"ce4bho12rcd13ifvqh1g","pricing_plan_id":"cebpf4jnsgd1na2vs0mg"},{"bike_id":"677f2f20-67b1-43ae-ab0d-c86c94aad358","system_id":"levelo_inurba_marseille","lat":43.33025,"lon":5.39045,"is_reserved":false,"is_disabled":false,"rental_uris":{"android":"levelo://app?vid=677f2f20-67b1-43ae-ab0d-c86c94aad358","ios":"levelo://app?vid=677f2f20-67b1-43ae-ab0d-c86c94aad358"},"vehicle_type_id":"4","last_reported":1734451964,"current_range_meters":23200,"station_id":"ce4bhr92rcd13ifvqhrg","pricing_plan_id":"cebpf4jnsgd1na2vs0mg"},{"bike_id":"e6aabe2e-d8dd-44c3-b97d-e95c75874de7","system_id":"levelo_inurba_marseille","lat":43.29578,"lon":5.37499,"is_reserved":false,"is_disabled":false,"rental_uris":{"android":"levelo://app?vid=e6aabe2e-d8dd-44c3-b97d-e95c75874de7","ios":"levelo://app?vid=e6aabe2e-d8dd-44c3-b97d-e95c75874de7"},"vehicle_type_id":"4","last_reported":1734451964,"current_range_meters":34800,"station_id":"ce4bgh92rcd13ifvqb50","pricing_plan_id":"cebpf4jnsgd1na2vs0mg"},{"bike_id":"c36bdd7d-50b7-411d-93ce-da825cc15c4e","system_id":"levelo_inurba_marseille","lat":43.27916,"lon":5.39571,"is_reserved":false,"is_disabled":false,"rental_uris":{"android":"levelo://app?vid=c36bdd7d-50b7-411d-93ce-da825cc15c4e","ios":"levelo://app?vid=c36bdd7d-50b7-411d-93ce-da825cc15c4e"},"vehicle_type_id":"4","last_reported":1734451964,"current_range_meters":13600,"station_id":"ce4bhf92rcd13ifvqf40","pricing_plan_id":"cebpf4jnsgd1na2vs0mg"},{"bike_id":"bf02fbaa-68b0-46bc-a709-eef8ddceaf69","system_id":"levelo_inurba_marseille","lat":43.25865,"lon":5.39902,"is_reserved":false,"is_disabled":false,"rental_uris":{"android":"levelo://app?vid=bf02fbaa-68b0-46bc-a709-eef8ddceaf69","ios":"levelo://app?vid=bf02fbaa-68b0-46bc-a709-eef8ddceaf69"},"vehicle_type_id":"4","last_reported":1734451964,"current_range_meters":16000,"station_id":"ce4bhl92rcd13ifvqghg","pricing_plan_id":"cebpf4jnsgd1na2vs0mg"},{"bike_id":"d2e077a2-c7c5-4010-b82c-02bbab503458","system_id":"levelo_inurba_marseille","lat":43.32371,"lon":5.38891,"is_reserved":false,"is_disabled":false,"rental_uris":{"android":"levelo://app?vid=d2e077a2-c7c5-4010-b82c-02bbab503458","ios":"levelo://app?vid=d2e077a2-c7c5-4010-b82c-02bbab503458"},"vehicle_type_id":"4","last_reported":1734451964,"current_range_meters":29600,"station_id":"ce4bhqp2rcd13ifvqhog","pricing_plan_id":"cebpf4jnsgd1na2vs0mg"},{"bike_id":"a9400ed1-3a24-4ecc-82f2-c241a2db1602","system_id":"levelo_inurba_marseille","lat":43.28414,"lon":5.37531,"is_reserved":false,"is_disabled":false,"rental_uris":{"android":"levelo://app?vid=a9400ed1-3a24-4ecc-82f2-c241a2db1602","ios":"levelo://app?vid=a9400ed1-3a24-4ecc-82f2-c241a2db1602"},"vehicle_type_id":"4","last_reported":1734451964,"current_range_meters":28000,"station_id":"ce4bh412rcd13ifvqds0","pricing_plan_id":"cebpf4jnsgd1na2vs0mg"},{"bike_id":"7cecba64-46de-4d06-b2fc-c324dc796bcb","system_id":"levelo_inurba_marseille","lat":43.30504,"lon":5.38103,"is_reserved":false,"is_disabled":false,"rental_uris":{"android":"levelo://app?vid=7cecba64-46de-4d06-b2fc-c324dc796bcb","ios":"levelo://app?vid=7cecba64-46de-4d06-b2fc-c324dc796bcb"},"vehicle_type_id":"4","last_reported":1734451964,"current_range_meters":26000,"station_id":"","pricing_plan_id":"cebpf4jnsgd1na2vs0mg"},{"bike_id":"9baba8e5-182e-46b6-a710-73ee9b0f3024","system_id":"levelo_inurba_marseille","lat":43.250031,"lon":5.38931,"is_reserved":false,"is_disabled":false,"rental_uris":{"android":"levelo://app?vid=9baba8e5-182e-46b6-a710-73ee9b0f3024","ios":"levelo://app?vid=9baba8e5-182e-46b6-a710-73ee9b0f3024"},"vehicle_type_id":"4","last_reported":1734451964,"current_range_meters":39200,"station_id":"ce4bhgp2rcd13ifvqfd0","pricing_plan_id":"cebpf4jnsgd1na2vs0mg"},{"bike_id":"b59c647e-051a-4eb5-a082-deb3a3d33fa7","system_id":"levelo_inurba_marseille","lat":43.29278,"lon":5.40117,"is_reserved":false,"is_disabled":true,"rental_uris":{"android":"levelo://app?vid=b59c647e-051a-4eb5-a082-deb3a3d33fa7","ios":"levelo://app?vid=b59c647e-051a-4eb5-a082-deb3a3d33fa7"},"vehicle_type_id":"4","last_reported":1734451964,"current_range_meters":18800,"station_id":"ce4bh312rcd13ifvqdk0","pricing_plan_id":"cebpf4jnsgd1na2vs0mg"},{"bike_id":"a05b841c-cbd3-4219-aa4f-920594972101","system_id":"levelo_inurba_marseille","lat":43.305292,"lon":5.365394,"is_reserved":false,"is_disabled":false,"rental_uris":{"android":"levelo://app?vid=a05b841c-cbd3-4219-aa4f-920594972101","ios":"levelo://app?vid=a05b841c-cbd3-4219-aa4f-920594972101"},"vehicle_type_id":"4","last_reported":1734451964,"current_range_meters":39200,"station_id":"ce4bgs12rcd13ifvqcag","pricing_plan_id":"cebpf4jnsgd1na2vs0mg"},{"bike_id":"e0ebfdc2-ec8f-4f12-85f8-1c66d7750ae5","system_id":"levelo_inurba_marseille","lat":43.30789,"lon":5.38151,"is_reserved":false,"is_disabled":false,"rental_uris":{"android":"levelo://app?vid=e0ebfdc2-ec8f-4f12-85f8-1c66d7750ae5","ios":"levelo://app?vid=e0ebfdc2-ec8f-4f12-85f8-1c66d7750ae5"},"vehicle_type_id":"4","last_reported":1734451964,"current_range_meters":32000,"station_id":"ce4bgt12rcd13ifvqce0","pricing_plan_id":"cebpf4jnsgd1na2vs0mg"},{"bike_id":"420c4bf5-4cf6-4445-be80-f4e501be9f59","system_id":"levelo_inurba_marseille","lat":43.30152,"lon":5.39851,"is_reserved":false,"is_disabled":false,"rental_uris":{"android":"levelo://app?vid=420c4bf5-4cf6-4445-be80-f4e501be9f59","ios":"levelo://app?vid=420c4bf5-4cf6-4445-be80-f4e501be9f59"},"vehicle_type_id":"4","last_reported":1734451964,"current_range_meters":38800,"station_id":"ce4bh0h2rcd13ifvqd40","pricing_plan_id":"cebpf4jnsgd1na2vs0mg"},{"bike_id":"b3a108c8-12f3-49d8-a89a-f5dfcdedbb6e","system_id":"levelo_inurba_marseille","lat":43.2706,"lon":5.40259,"is_reserved":false,"is_disabled":false,"rental_uris":{"android":"levelo://app?vid=b3a108c8-12f3-49d8-a89a-f5dfcdedbb6e","ios":"levelo://app?vid=b3a108c8-12f3-49d8-a89a-f5dfcdedbb6e"},"vehicle_type_id":"4","last_reported":1734451964,"current_range_meters":33600,"station_id":"ce4bhk92rcd13ifvqgc0","pricing_plan_id":"cebpf4jnsgd1na2vs0mg"},{"bike_id":"f89b8daa-52e5-4976-b43f-2a84eb6c538b","system_id":"levelo_inurba_marseille","lat":43.28156,"lon":5.42641,"is_reserved":false,"is_disabled":false,"rental_uris":{"android":"levelo://app?vid=f89b8daa-52e5-4976-b43f-2a84eb6c538b","ios":"levelo://app?vid=f89b8daa-52e5-4976-b43f-2a84eb6c538b"},"vehicle_type_id":"4","last_reported":1734451964,"current_range_meters":20000,"station_id":"ce4bhnh2rcd13ifvqgug","pricing_plan_id":"cebpf4jnsgd1na2vs0mg"},{"bike_id":"d2be9f28-1d71-421f-8a07-6a84931c8b82","system_id":"levelo_inurba_marseille","lat":43.30419,"lon":5.41288,"is_reserved":false,"is_disabled":false,"rental_uris":{"android":"levelo://app?vid=d2be9f28-1d71-421f-8a07-6a84931c8b82","ios":"levelo://app?vid=d2be9f28-1d71-421f-8a07-6a84931c8b82"},"vehicle_type_id":"4","last_reported":1734451964,"current_range_meters":9200,"station_id":"ce4bhop2rcd13ifvqh8g","pricing_plan_id":"cebpf4jnsgd1na2vs0mg"},{"bike_id":"b2317ee3-5803-4af9-b9b3-4aa01cd8f4ee","system_id":"levelo_inurba_marseille","lat":43.30135,"lon":5.37418,"is_reserved":false,"is_disabled":false,"rental_uris":{"android":"levelo://app?vid=b2317ee3-5803-4af9-b9b3-4aa01cd8f4ee","ios":"levelo://app?vid=b2317ee3-5803-4af9-b9b3-4aa01cd8f4ee"},"vehicle_type_id":"4","last_reported":1734451964,"current_range_meters":10000,"station_id":"ce4bgs92rcd13ifvqcc0","pricing_plan_id":"cebpf4jnsgd1na2vs0mg"},{"bike_id":"8be087d3-9d6f-4250-a998-20bf5d178678","system_id":"levelo_inurba_marseille","lat":43.29299,"lon":5.37436,"is_reserved":false,"is_disabled":true,"rental_uris":{"android":"levelo://app?vid=8be087d3-9d6f-4250-a998-20bf5d178678","ios":"levelo://app?vid=8be087d3-9d6f-4250-a998-20bf5d178678"},"vehicle_type_id":"4","last_reported":1734451964,"current_range_meters":0,"station_id":"ce4bgi12rcd13ifvqb70","pricing_plan_id":"cebpf4jnsgd1na2vs0mg"},{"bike_id":"b0595824-388b-4ecc-a7ba-4de90f6bcab4","system_id":"levelo_inurba_marseille","lat":43.27177,"lon":5.40999,"is_reserved":false,"is_disabled":false,"rental_uris":{"android":"levelo://app?vid=b0595824-388b-4ecc-a7ba-4de90f6bcab4","ios":"levelo://app?vid=b0595824-388b-4ecc-a7ba-4de90f6bcab4"},"vehicle_type_id":"4","last_reported":1734451964,"current_range_meters":4400,"station_id":"ce4bhl12rcd13ifvqgf0","pricing_plan_id":"cebpf4jnsgd1na2vs0mg"},{"bike_id":"fd27806e-099f-436e-b4d1-73600fbd7f59","system_id":"levelo_inurba_marseille","lat":43.3013,"lon":5.38797,"is_reserved":false,"is_disabled":false,"rental_uris":{"android":"levelo://app?vid=fd27806e-099f-436e-b4d1-73600fbd7f59","ios":"levelo://app?vid=fd27806e-099f-436e-b4d1-73600fbd7f59"},"vehicle_type_id":"4","last_reported":1734451964,"current_range_meters":28400,"station_id":"ce4bhoh2rcd13ifvqh6g","pricing_plan_id":"cebpf4jnsgd1na2vs0mg"},{"bike_id":"62fa7f89-6de2-4bc8-8eb6-09e44ff16e37","system_id":"levelo_inurba_marseille","lat":43.23191,"lon":5.35546,"is_reserved":false,"is_disabled":false,"rental_uris":{"android":"levelo://app?vid=62fa7f89-6de2-4bc8-8eb6-09e44ff16e37","ios":"levelo://app?vid=62fa7f89-6de2-4bc8-8eb6-09e44ff16e37"},"vehicle_type_id":"4","last_reported":1734451964,"current_range_meters":39200,"station_id":"ce4bhu92rcd13ifvqi70","pricing_plan_id":"cebpf4jnsgd1na2vs0mg"},{"bike_id":"8401173e-4d8f-4da1-a63d-6c4d30c99e68","system_id":"levelo_inurba_marseille","lat":43.26554,"lon":5.39004,"is_reserved":false,"is_disabled":false,"rental_uris":{"android":"levelo://app?vid=8401173e-4d8f-4da1-a63d-6c4d30c99e68","ios":"levelo://app?vid=8401173e-4d8f-4da1-a63d-6c4d30c99e68"},"vehicle_type_id":"4","last_reported":1734451964,"current_range_meters":22800,"station_id":"ce4bhe12rcd13ifvqf30","pricing_plan_id":"cebpf4jnsgd1na2vs0mg"},{"bike_id":"bafee48c-4bf8-4e86-bdff-fc5744f894e1","system_id":"levelo_inurba_marseille","lat":43.28398,"lon":5.37513,"is_reserved":false,"is_disabled":false,"rental_uris":{"android":"levelo://app?vid=bafee48c-4bf8-4e86-bdff-fc5744f894e1","ios":"levelo://app?vid=bafee48c-4bf8-4e86-bdff-fc5744f894e1"},"vehicle_type_id":"4","last_reported":1734451964,"current_range_meters":24800,"station_id":"ce4bh412rcd13ifvqds0","pricing_plan_id":"cebpf4jnsgd1na2vs0mg"},{"bike_id":"1543f4bb-ffd5-451d-837b-75cce4148c96","system_id":"levelo_inurba_marseille","lat":43.337444,"lon":5.374475,"is_reserved":false,"is_disabled":true,"rental_uris":{"android":"levelo://app?vid=1543f4bb-ffd5-451d-837b-75cce4148c96","ios":"levelo://app?vid=1543f4bb-ffd5-451d-837b-75cce4148c96"},"vehicle_type_id":"4","last_reported":1734451964,"current_range_meters":0,"station_id":"","pricing_plan_id":"cebpf4jnsgd1na2vs0mg"},{"bike_id":"0b3c4e55-79ef-4e38-896f-2787dbc6a8ad","system_id":"levelo_inurba_marseille","lat":43.30605,"lon":5.37212,"is_reserved":false,"is_disabled":true,"rental_uris":{"android":"levelo://app?vid=0b3c4e55-79ef-4e38-896f-2787dbc6a8ad","ios":"levelo://app?vid=0b3c4e55-79ef-4e38-896f-2787dbc6a8ad"},"vehicle_type_id":"4","last_reported":1734451964,"current_range_meters":1200,"station_id":"ce4bgqh2rcd13ifvqc4g","pricing_plan_id":"cebpf4jnsgd1na2vs0mg"},{"bike_id":"15b06ab3-5941-43b5-a9a5-ceb90aabbb54","system_id":"levelo_inurba_marseille","lat":43.22928,"lon":5.35391,"is_reserved":false,"is_disabled":false,"rental_uris":{"android":"levelo://app?vid=15b06ab3-5941-43b5-a9a5-ceb90aabbb54","ios":"levelo://app?vid=15b06ab3-5941-43b5-a9a5-ceb90aabbb54"},"vehicle_type_id":"4","last_reported":1734451964,"current_range_meters":38400,"station_id":"cpo3532slgdg3j2ikp40","pricing_plan_id":"cebpf4jnsgd1na2vs0mg"},{"bike_id":"781140b5-2b22-4c30-b16d-35f4d1055735","system_id":"levelo_inurba_marseille","lat":43.31992,"lon":5.38142,"is_reserved":false,"is_disabled":false,"rental_uris":{"android":"levelo://app?vid=781140b5-2b22-4c30-b16d-35f4d1055735","ios":"levelo://app?vid=781140b5-2b22-4c30-b16d-35f4d1055735"},"vehicle_type_id":"4","last_reported":1734451964,"current_range_meters":10800,"station_id":"ce4bhr12rcd13ifvqhpg","pricing_plan_id":"cebpf4jnsgd1na2vs0mg"},{"bike_id":"10e41bb7-9a61-4753-bcbd-6280b08c0d4a","system_id":"levelo_inurba_marseille","lat":43.2319,"lon":5.35574,"is_reserved":false,"is_disabled":false,"rental_uris":{"android":"levelo://app?vid=10e41bb7-9a61-4753-bcbd-6280b08c0d4a","ios":"levelo://app?vid=10e41bb7-9a61-4753-bcbd-6280b08c0d4a"},"vehicle_type_id":"4","last_reported":1734451964,"current_range_meters":36800,"station_id":"ce4bhu92rcd13ifvqi70","pricing_plan_id":"cebpf4jnsgd1na2vs0mg"},{"bike_id":"cba6e56d-3f8c-429c-9450-64efa0fa8ef2","system_id":"levelo_inurba_marseille","lat":43.257,"lon":5.41122,"is_reserved":false,"is_disabled":false,"rental_uris":{"android":"levelo://app?vid=cba6e56d-3f8c-429c-9450-64efa0fa8ef2","ios":"levelo://app?vid=cba6e56d-3f8c-429c-9450-64efa0fa8ef2"},"vehicle_type_id":"4","last_reported":1734451964,"current_range_meters":39200,"station_id":"ce4bhkp2rcd13ifvqgd0","pricing_plan_id":"cebpf4jnsgd1na2vs0mg"},{"bike_id":"05ec1b21-4af1-462c-883d-43de95500577","system_id":"levelo_inurba_marseille","lat":43.30331,"lon":5.36911,"is_reserved":false,"is_disabled":false,"rental_uris":{"android":"levelo://app?vid=05ec1b21-4af1-462c-883d-43de95500577","ios":"levelo://app?vid=05ec1b21-4af1-462c-883d-43de95500577"},"vehicle_type_id":"4","last_reported":1734451964,"current_range_meters":39200,"station_id":"ce4bgqh2rcd13ifvqc5g","pricing_plan_id":"cebpf4jnsgd1na2vs0mg"},{"bike_id":"adf6ee74-4d99-4506-b47a-5d079fbb284c","system_id":"levelo_inurba_marseille","lat":43.297069,"lon":5.366162,"is_reserved":false,"is_disabled":false,"rental_uris":{"android":"levelo://app?vid=adf6ee74-4d99-4506-b47a-5d079fbb284c","ios":"levelo://app?vid=adf6ee74-4d99-4506-b47a-5d079fbb284c"},"vehicle_type_id":"4","last_reported":1734451964,"current_range_meters":32800,"station_id":"ce4bgn12rcd13ifvqbt0","pricing_plan_id":"cebpf4jnsgd1na2vs0mg"},{"bike_id":"bb559ca6-d2d8-4ff3-a55e-6aaa93d36cdf","system_id":"levelo_inurba_marseille","lat":43.29921,"lon":5.3748,"is_reserved":false,"is_disabled":false,"rental_uris":{"android":"levelo://app?vid=bb559ca6-d2d8-4ff3-a55e-6aaa93d36cdf","ios":"levelo://app?vid=bb559ca6-d2d8-4ff3-a55e-6aaa93d36cdf"},"vehicle_type_id":"4","last_reported":1734451964,"current_range_meters":38800,"station_id":"ce4bgjh2rcd13ifvqbg0","pricing_plan_id":"cebpf4jnsgd1na2vs0mg"},{"bike_id":"3028d671-f7f4-4727-a303-93bb21b2b475","system_id":"levelo_inurba_marseille","lat":43.25001,"lon":5.38935,"is_reserved":false,"is_disabled":false,"rental_uris":{"android":"levelo://app?vid=3028d671-f7f4-4727-a303-93bb21b2b475","ios":"levelo://app?vid=3028d671-f7f4-4727-a303-93bb21b2b475"},"vehicle_type_id":"4","last_reported":1734451964,"current_range_meters":20000,"station_id":"ce4bhgp2rcd13ifvqfd0","pricing_plan_id":"cebpf4jnsgd1na2vs0mg"},{"bike_id":"57932383-44d2-44ce-8c71-55fdd15cd82b","system_id":"levelo_inurba_marseille","lat":43.30596,"lon":5.36702,"is_reserved":false,"is_disabled":false,"rental_uris":{"android":"levelo://app?vid=57932383-44d2-44ce-8c71-55fdd15cd82b","ios":"levelo://app?vid=57932383-44d2-44ce-8c71-55fdd15cd82b"},"vehicle_type_id":"4","last_reported":1734451964,"current_range_meters":10800,"station_id":"ce4bgrp2rcd13ifvqc9g","pricing_plan_id":"cebpf4jnsgd1na2vs0mg"},{"bike_id":"6614a8e8-7f05-46bd-b941-882439c61737","system_id":"levelo_inurba_marseille","lat":43.246573,"lon":5.381738,"is_reserved":false,"is_disabled":true,"rental_uris":{"android":"levelo://app?vid=6614a8e8-7f05-46bd-b941-882439c61737","ios":"levelo://app?vid=6614a8e8-7f05-46bd-b941-882439c61737"},"vehicle_type_id":"4","last_reported":1734451964,"current_range_meters":0,"station_id":"ce4bhih2rcd13ifvqfr0","pricing_plan_id":"cebpf4jnsgd1na2vs0mg"},{"bike_id":"d927608e-8576-41ea-9380-abdb2e6bde4e","system_id":"levelo_inurba_marseille","lat":43.3013,"lon":5.39854,"is_reserved":false,"is_disabled":false,"rental_uris":{"android":"levelo://app?vid=d927608e-8576-41ea-9380-abdb2e6bde4e","ios":"levelo://app?vid=d927608e-8576-41ea-9380-abdb2e6bde4e"},"vehicle_type_id":"4","last_reported":1734451964,"current_range_meters":38400,"station_id":"ce4bh0h2rcd13ifvqd40","pricing_plan_id":"cebpf4jnsgd1na2vs0mg"},{"bike_id":"1c4127b9-486f-41b4-8296-37dda68e98bf","system_id":"levelo_inurba_marseille","lat":43.23186,"lon":5.35562,"is_reserved":false,"is_disabled":false,"rental_uris":{"android":"levelo://app?vid=1c4127b9-486f-41b4-8296-37dda68e98bf","ios":"levelo://app?vid=1c4127b9-486f-41b4-8296-37dda68e98bf"},"vehicle_type_id":"4","last_reported":1734451964,"current_range_meters":5600,"station_id":"ce4bhu92rcd13ifvqi70","pricing_plan_id":"cebpf4jnsgd1na2vs0mg"},{"bike_id":"0c9e7f77-3b3c-4ed9-b056-74e01a13fdc8","system_id":"levelo_inurba_marseille","lat":43.30559,"lon":5.36683,"is_reserved":false,"is_disabled":false,"rental_uris":{"android":"levelo://app?vid=0c9e7f77-3b3c-4ed9-b056-74e01a13fdc8","ios":"levelo://app?vid=0c9e7f77-3b3c-4ed9-b056-74e01a13fdc8"},"vehicle_type_id":"4","last_reported":1734451964,"current_range_meters":38800,"station_id":"ce4bgrp2rcd13ifvqc9g","pricing_plan_id":"cebpf4jnsgd1na2vs0mg"},{"bike_id":"7141bb29-b61e-4dca-8661-089c29eaa1af","system_id":"levelo_inurba_marseille","lat":43.27174,"lon":5.41001,"is_reserved":false,"is_disabled":false,"rental_uris":{"android":"levelo://app?vid=7141bb29-b61e-4dca-8661-089c29eaa1af","ios":"levelo://app?vid=7141bb29-b61e-4dca-8661-089c29eaa1af"},"vehicle_type_id":"4","last_reported":1734451964,"current_range_meters":29600,"station_id":"ce4bhl12rcd13ifvqgf0","pricing_plan_id":"cebpf4jnsgd1na2vs0mg"},{"bike_id":"6d0baeef-4b77-4eed-a9a5-3afe53c73b53","system_id":"levelo_inurba_marseille","lat":43.24996,"lon":5.38931,"is_reserved":false,"is_disabled":false,"rental_uris":{"android":"levelo://app?vid=6d0baeef-4b77-4eed-a9a5-3afe53c73b53","ios":"levelo://app?vid=6d0baeef-4b77-4eed-a9a5-3afe53c73b53"},"vehicle_type_id":"4","last_reported":1734451964,"current_range_meters":8000,"station_id":"ce4bhgp2rcd13ifvqfd0","pricing_plan_id":"cebpf4jnsgd1na2vs0mg"},{"bike_id":"4f8c1349-b8bc-4fa4-88a1-1a3095115b95","system_id":"levelo_inurba_marseille","lat":43.30321,"lon":5.36913,"is_reserved":false,"is_disabled":false,"rental_uris":{"android":"levelo://app?vid=4f8c1349-b8bc-4fa4-88a1-1a3095115b95","ios":"levelo://app?vid=4f8c1349-b8bc-4fa4-88a1-1a3095115b95"},"vehicle_type_id":"4","last_reported":1734451964,"current_range_meters":38000,"station_id":"ce4bgqh2rcd13ifvqc5g","pricing_plan_id":"cebpf4jnsgd1na2vs0mg"},{"bike_id":"c4579837-e02c-48cc-9f6f-2b0b4e94d9a9","system_id":"levelo_inurba_marseille","lat":43.29277,"lon":5.36845,"is_reserved":false,"is_disabled":false,"rental_uris":{"android":"levelo://app?vid=c4579837-e02c-48cc-9f6f-2b0b4e94d9a9","ios":"levelo://app?vid=c4579837-e02c-48cc-9f6f-2b0b4e94d9a9"},"vehicle_type_id":"4","last_reported":1734451964,"current_range_meters":38800,"station_id":"ce4bhbp2rcd13ifvqesg","pricing_plan_id":"cebpf4jnsgd1na2vs0mg"},{"bike_id":"8b334e12-a68c-41a9-882c-5ce060d4d154","system_id":"levelo_inurba_marseille","lat":43.29865,"lon":5.3891,"is_reserved":false,"is_disabled":false,"rental_uris":{"android":"levelo://app?vid=8b334e12-a68c-41a9-882c-5ce060d4d154","ios":"levelo://app?vid=8b334e12-a68c-41a9-882c-5ce060d4d154"},"vehicle_type_id":"4","last_reported":1734451964,"current_range_meters":22800,"station_id":"ce4bh392rcd13ifvqdl0","pricing_plan_id":"cebpf4jnsgd1na2vs0mg"},{"bike_id":"860dbdd2-fdf5-4184-a4cd-98394c14af47","system_id":"levelo_inurba_marseille","lat":43.29975,"lon":5.37172,"is_reserved":false,"is_disabled":false,"rental_uris":{"android":"levelo://app?vid=860dbdd2-fdf5-4184-a4cd-98394c14af47","ios":"levelo://app?vid=860dbdd2-fdf5-4184-a4cd-98394c14af47"},"vehicle_type_id":"4","last_reported":1734451964,"current_range_meters":22400,"station_id":"ce4bgr92rcd13ifvqc7g","pricing_plan_id":"cebpf4jnsgd1na2vs0mg"},{"bike_id":"f2eeb15b-a684-4d6a-8b5b-65aae630f8c3","system_id":"levelo_inurba_marseille","lat":43.30538,"lon":5.36535,"is_reserved":false,"is_disabled":false,"rental_uris":{"android":"levelo://app?vid=f2eeb15b-a684-4d6a-8b5b-65aae630f8c3","ios":"levelo://app?vid=f2eeb15b-a684-4d6a-8b5b-65aae630f8c3"},"vehicle_type_id":"4","last_reported":1734451964,"current_range_meters":38800,"station_id":"ce4bgs12rcd13ifvqcag","pricing_plan_id":"cebpf4jnsgd1na2vs0mg"},{"bike_id":"287d55fe-d036-4c32-b6d9-3fb47566c2ae","system_id":"levelo_inurba_marseille","lat":43.24161,"lon":5.36414,"is_reserved":false,"is_disabled":false,"rental_uris":{"android":"levelo://app?vid=287d55fe-d036-4c32-b6d9-3fb47566c2ae","ios":"levelo://app?vid=287d55fe-d036-4c32-b6d9-3fb47566c2ae"},"vehicle_type_id":"4","last_reported":1734451964,"current_range_meters":9600,"station_id":"cpo36qri1sfpv3e86is0","pricing_plan_id":"cebpf4jnsgd1na2vs0mg"},{"bike_id":"3438628d-a5ac-4e90-82e0-3163deab2fc5","system_id":"levelo_inurba_marseille","lat":43.30136,"lon":5.37416,"is_reserved":false,"is_disabled":false,"rental_uris":{"android":"levelo://app?vid=3438628d-a5ac-4e90-82e0-3163deab2fc5","ios":"levelo://app?vid=3438628d-a5ac-4e90-82e0-3163deab2fc5"},"vehicle_type_id":"4","last_reported":1734451964,"current_range_meters":36400,"station_id":"ce4bgs92rcd13ifvqcc0","pricing_plan_id":"cebpf4jnsgd1na2vs0mg"},{"bike_id":"d9ec214a-a45d-489f-a078-cef216890922","system_id":"levelo_inurba_marseille","lat":43.26806,"lon":5.4027,"is_reserved":false,"is_disabled":false,"rental_uris":{"android":"levelo://app?vid=d9ec214a-a45d-489f-a078-cef216890922","ios":"levelo://app?vid=d9ec214a-a45d-489f-a078-cef216890922"},"vehicle_type_id":"4","last_reported":1734451964,"current_range_meters":33200,"station_id":"ce501612rcd8frsf0b60","pricing_plan_id":"cebpf4jnsgd1na2vs0mg"},{"bike_id":"04a19f46-7bab-4016-95f2-9e9521257425","system_id":"levelo_inurba_marseille","lat":43.29854,"lon":5.36281,"is_reserved":false,"is_disabled":false,"rental_uris":{"android":"levelo://app?vid=04a19f46-7bab-4016-95f2-9e9521257425","ios":"levelo://app?vid=04a19f46-7bab-4016-95f2-9e9521257425"},"vehicle_type_id":"4","last_reported":1734451964,"current_range_meters":38800,"station_id":"ce4bgpp2rcd13ifvqc3g","pricing_plan_id":"cebpf4jnsgd1na2vs0mg"},{"bike_id":"979a87d1-02a9-471a-8a62-d89694629e3c","system_id":"levelo_inurba_marseille","lat":43.2499,"lon":5.38939,"is_reserved":false,"is_disabled":false,"rental_uris":{"android":"levelo://app?vid=979a87d1-02a9-471a-8a62-d89694629e3c","ios":"levelo://app?vid=979a87d1-02a9-471a-8a62-d89694629e3c"},"vehicle_type_id":"4","last_reported":1734451964,"current_range_meters":15200,"station_id":"ce4bhgp2rcd13ifvqfd0","pricing_plan_id":"cebpf4jnsgd1na2vs0mg"},{"bike_id":"c240678c-e97d-421f-8ee7-3a0b2bda774e","system_id":"levelo_inurba_marseille","lat":43.31326,"lon":5.39694,"is_reserved":false,"is_disabled":false,"rental_uris":{"android":"levelo://app?vid=c240678c-e97d-421f-8ee7-3a0b2bda774e","ios":"levelo://app?vid=c240678c-e97d-421f-8ee7-3a0b2bda774e"},"vehicle_type_id":"4","last_reported":1734451964,"current_range_meters":28000,"station_id":"ce4bgvp2rcd13ifvqcu0","pricing_plan_id":"cebpf4jnsgd1na2vs0mg"},{"bike_id":"4622234c-794f-4587-bbdf-793ec490404b","system_id":"levelo_inurba_marseille","lat":43.27423,"lon":5.39424,"is_reserved":false,"is_disabled":false,"rental_uris":{"android":"levelo://app?vid=4622234c-794f-4587-bbdf-793ec490404b","ios":"levelo://app?vid=4622234c-794f-4587-bbdf-793ec490404b"},"vehicle_type_id":"4","last_reported":1734451964,"current_range_meters":33600,"station_id":"ce4bhdp2rcd13ifvqf20","pricing_plan_id":"cebpf4jnsgd1na2vs0mg"},{"bike_id":"0a33bee2-0202-4087-a024-06a908973d03","system_id":"levelo_inurba_marseille","lat":43.297008,"lon":5.367841,"is_reserved":false,"is_disabled":false,"rental_uris":{"android":"levelo://app?vid=0a33bee2-0202-4087-a024-06a908973d03","ios":"levelo://app?vid=0a33bee2-0202-4087-a024-06a908973d03"},"vehicle_type_id":"4","last_reported":1734451964,"current_range_meters":7200,"station_id":"ce4bgn12rcd13ifvqbt0","pricing_plan_id":"cebpf4jnsgd1na2vs0mg"},{"bike_id":"0e7c8249-8edf-463b-8224-3f357535b598","system_id":"levelo_inurba_marseille","lat":43.27495,"lon":5.42456,"is_reserved":false,"is_disabled":true,"rental_uris":{"android":"levelo://app?vid=0e7c8249-8edf-463b-8224-3f357535b598","ios":"levelo://app?vid=0e7c8249-8edf-463b-8224-3f357535b598"},"vehicle_type_id":"4","last_reported":1734451964,"current_range_meters":0,"station_id":"ce4bhn92rcd13ifvqgrg","pricing_plan_id":"cebpf4jnsgd1na2vs0mg"},{"bike_id":"bbeb04d7-0523-4b08-b068-9564956079f6","system_id":"levelo_inurba_marseille","lat":43.30627,"lon":5.37224,"is_reserved":false,"is_disabled":false,"rental_uris":{"android":"levelo://app?vid=bbeb04d7-0523-4b08-b068-9564956079f6","ios":"levelo://app?vid=bbeb04d7-0523-4b08-b068-9564956079f6"},"vehicle_type_id":"4","last_reported":1734451964,"current_range_meters":34000,"station_id":"ce4bgqh2rcd13ifvqc4g","pricing_plan_id":"cebpf4jnsgd1na2vs0mg"},